{"last_updated":1739376690,"ttl":60,"version":"2.2","data":{"bikes":[{"bike_id":"9ae4959d-6de9-4c98-bb63-3a430a52595d","system_id":"levelo_inurba_marseille","lat":43.3135,"lon":5.36718,"is_reserved":false,"is_disabled":false,"rental_uris":{"android":"levelo://app?vid=9ae4959d-6de9-4c98-bb63-3a430a52595d","ios":"levelo://app?vid=9ae4959d-6de9-4c98-bb63-3a430a52595d"},"vehicle_type_id":"4","last_reported":1739376691,"current_range_meters":16800,"station_id":"ce4bgr92rcd13ifvqc6g","pricing_plan_id":"cebpf4jnsgd1na2vs0mg"},{"bike_id":"f57c0d40-24f9-4dea-981b-859689b14ec2","system_id":"levelo_inurba_marseille","lat":43.24668,"lon":5.38161,"is_reserved":false,"is_disabled":false,"rental_uris":{"android":"levelo://app?vid=f57c0d40-24f9-4dea-981b-859689b14ec2","ios":"levelo://app?vid=f57c0d40-24f9-4dea-981b-859689b14ec2"},"vehicle_type_id":"4","last_reported":1739376691,"current_range_meters":22400,"station_id":"ce4bhih2rcd13ifvqfr0","pricing_plan_id":"cebpf4jnsgd1na2vs0mg"},{"bike_id":"7803dd1a-a242-4883-848b-e4cbfccf197b","system_id":"levelo_inurba_marseille","lat":43.31339,"lon":5.36713,"is_reserved":false,"is_disabled":false,"rental_uris":{"android":"levelo://app?vid=7803dd1a-a242-4883-848b-e4cbfccf197b","ios":"levelo://app?vid=7803dd1a-a242-4883-848b-e4cbfccf197b"},"vehicle_type_id":"4","last_reported":1739376691,"current_range_meters":8400,"station_id":"ce4bgr92rcd13ifvqc6g","pricing_plan_id":"cebpf4jnsgd1na2vs0mg"},{"bike_id":"cd2432a1-d33b-4c4b-8a98-27148178b847","system_id":"levelo_inurba_marseille","lat":43.28424,"lon":5.34973,"is_reserved":false,"is_disabled":false,"rental_uris":{"android":"levelo://app?vid=cd2432a1-d33b-4c4b-8a98-27148178b847","ios":"levelo://app?vid=cd2432a1-d33b-4c4b-8a98-27148178b847"},"vehicle_type_id":"4","last_reported":1739376691,"current_range_meters":34000,"station_id":"ce4bhbh2rcd13ifvqepg","pricing_plan_id":"cebpf4jnsgd1na2vs0mg"},{"bike_id":"9c9e6dfa-122e-4154-8057-4016db8e7671","system_id":"levelo_inurba_marseille","lat":43.33745,"lon":5.39193,"is_reserved":false,"is_disabled":false,"rental_uris":{"android":"levelo://app?vid=9c9e6dfa-122e-4154-8057-4016db8e7671","ios":"levelo://app?vid=9c9e6dfa-122e-4154-8057-4016db8e7671"},"vehicle_type_id":"4","last_reported":1739376691,"current_range_meters":38800,"station_id":"ce4bhr92rcd13ifvqhsg","pricing_plan_id":"cebpf4jnsgd1na2vs0mg"},{"bike_id":"1d4165b9-e8af-42e7-8e88-54a0f84b4f26","system_id":"levelo_inurba_marseille","lat":43.23175,"lon":5.39996,"is_reserved":false,"is_disabled":false,"rental_uris":{"android":"levelo://app?vid=1d4165b9-e8af-42e7-8e88-54a0f84b4f26","ios":"levelo://app?vid=1d4165b9-e8af-42e7-8e88-54a0f84b4f26"},"vehicle_type_id":"4","last_reported":1739376691,"current_range_meters":38400,"station_id":"ce4bhn12rcd13ifvqgqg","pricing_plan_id":"cebpf4jnsgd1na2vs0mg"},{"bike_id":"f6ef4f9a-c914-4d4b-a06e-00485b64285e","system_id":"levelo_inurba_marseille","lat":43.32491,"lon":5.36573,"is_reserved":false,"is_disabled":false,"rental_uris":{"android":"levelo://app?vid=f6ef4f9a-c914-4d4b-a06e-00485b64285e","ios":"levelo://app?vid=f6ef4f9a-c914-4d4b-a06e-00485b64285e"},"vehicle_type_id":"4","last_reported":1739376691,"current_range_meters":38800,"station_id":"ce4bhs12rcd13ifvqhvg","pricing_plan_id":"cebpf4jnsgd1na2vs0mg"},{"bike_id":"b4b843f9-7134-4a98-ae10-89cb5d860d8a","system_id":"levelo_inurba_marseille","lat":43.26562,"lon":5.39018,"is_reserved":false,"is_disabled":false,"rental_uris":{"android":"levelo://app?vid=b4b843f9-7134-4a98-ae10-89cb5d860d8a","ios":"levelo://app?vid=b4b843f9-7134-4a98-ae10-89cb5d860d8a"},"vehicle_type_id":"4","last_reported":1739376691,"current_range_meters":29600,"station_id":"ce4bhe12rcd13ifvqf30","pricing_plan_id":"cebpf4jnsgd1na2vs0mg"},{"bike_id":"9a810e7f-f4d3-4692-9027-c552af7c0f96","system_id":"levelo_inurba_marseille","lat":43.29038,"lon":5.35919,"is_reserved":false,"is_disabled":true,"rental_uris":{"android":"levelo://app?vid=9a810e7f-f4d3-4692-9027-c552af7c0f96","ios":"levelo://app?vid=9a810e7f-f4d3-4692-9027-c552af7c0f96"},"vehicle_type_id":"4","last_reported":1739376691,"current_range_meters":38000,"station_id":"ce4bha92rcd13ifvqeg0","pricing_plan_id":"cebpf4jnsgd1na2vs0mg"},{"bike_id":"4c4891db-fb43-4fcc-aed3-6542b2bf0dbf","system_id":"levelo_inurba_marseille","lat":43.27448,"lon":5.4104,"is_reserved":false,"is_disabled":false,"rental_uris":{"android":"levelo://app?vid=4c4891db-fb43-4fcc-aed3-6542b2bf0dbf","ios":"levelo://app?vid=4c4891db-fb43-4fcc-aed3-6542b2bf0dbf"},"vehicle_type_id":"4","last_reported":1739376691,"current_range_meters":30000,"station_id":"","pricing_plan_id":"cebpf4jnsgd1na2vs0mg"},{"bike_id":"18929b3f-8d8b-44eb-9597-ed3100529299","system_id":"levelo_inurba_marseille","lat":43.3042,"lon":5.39758,"is_reserved":false,"is_disabled":false,"rental_uris":{"android":"levelo://app?vid=18929b3f-8d8b-44eb-9597-ed3100529299","ios":"levelo://app?vid=18929b3f-8d8b-44eb-9597-ed3100529299"},"vehicle_type_id":"4","last_reported":1739376691,"current_range_meters":8000,"station_id":"ce4bh092rcd13ifvqd20","pricing_plan_id":"cebpf4jnsgd1na2vs0mg"},{"bike_id":"793b978f-66e2-471e-9963-314611a3438f","system_id":"levelo_inurba_marseille","lat":43.27057,"lon":5.40256,"is_reserved":false,"is_disabled":false,"rental_uris":{"android":"levelo://app?vid=793b978f-66e2-471e-9963-314611a3438f","ios":"levelo://app?vid=793b978f-66e2-471e-9963-314611a3438f"},"vehicle_type_id":"4","last_reported":1739376691,"current_range_meters":22800,"station_id":"ce4bhk92rcd13ifvqgc0","pricing_plan_id":"cebpf4jnsgd1na2vs0mg"},{"bike_id":"9e4564f0-0519-46c9-beea-73f529a3ce6a","system_id":"levelo_inurba_marseille","lat":43.24825,"lon":5.37467,"is_reserved":false,"is_disabled":false,"rental_uris":{"android":"levelo://app?vid=9e4564f0-0519-46c9-beea-73f529a3ce6a","ios":"levelo://app?vid=9e4564f0-0519-46c9-beea-73f529a3ce6a"},"vehicle_type_id":"4","last_reported":1739376691,"current_range_meters":28000,"station_id":"ce4bhgh2rcd13ifvqfb0","pricing_plan_id":"cebpf4jnsgd1na2vs0mg"},{"bike_id":"d337aa82-d93f-459b-9b0e-9817b976a831","system_id":"levelo_inurba_marseille","lat":43.29806,"lon":5.37104,"is_reserved":false,"is_disabled":false,"rental_uris":{"android":"levelo://app?vid=d337aa82-d93f-459b-9b0e-9817b976a831","ios":"levelo://app?vid=d337aa82-d93f-459b-9b0e-9817b976a831"},"vehicle_type_id":"4","last_reported":1739376691,"current_range_meters":33600,"station_id":"ce4bgop2rcd13ifvqc1g","pricing_plan_id":"cebpf4jnsgd1na2vs0mg"},{"bike_id":"3df3041b-27b7-4def-8d60-99d6191bfdce","system_id":"levelo_inurba_marseille","lat":43.27496,"lon":5.42466,"is_reserved":false,"is_disabled":false,"rental_uris":{"android":"levelo://app?vid=3df3041b-27b7-4def-8d60-99d6191bfdce","ios":"levelo://app?vid=3df3041b-27b7-4def-8d60-99d6191bfdce"},"vehicle_type_id":"4","last_reported":1739376691,"current_range_meters":38800,"station_id":"ce4bhn92rcd13ifvqgrg","pricing_plan_id":"cebpf4jnsgd1na2vs0mg"},{"bike_id":"6a5308a8-05d9-4664-a293-fb5034abb645","system_id":"levelo_inurba_marseille","lat":43.297,"lon":5.37945,"is_reserved":false,"is_disabled":true,"rental_uris":{"android":"levelo://app?vid=6a5308a8-05d9-4664-a293-fb5034abb645","ios":"levelo://app?vid=6a5308a8-05d9-4664-a293-fb5034abb645"},"vehicle_type_id":"4","last_reported":1739376691,"current_range_meters":1600,"station_id":"ce4bgkh2rcd13ifvqbl0","pricing_plan_id":"cebpf4jnsgd1na2vs0mg"},{"bike_id":"123efaf4-b2fb-47cf-a07c-74c372078eab","system_id":"levelo_inurba_marseille","lat":43.26574,"lon":5.38995,"is_reserved":false,"is_disabled":false,"rental_uris":{"android":"levelo://app?vid=123efaf4-b2fb-47cf-a07c-74c372078eab","ios":"levelo://app?vid=123efaf4-b2fb-47cf-a07c-74c372078eab"},"vehicle_type_id":"4","last_reported":1739376691,"current_range_meters":11200,"station_id":"ce4bhe12rcd13ifvqf30","pricing_plan_id":"cebpf4jnsgd1na2vs0mg"},{"bike_id":"7e97dc25-4707-43f3-b85e-e68049bc5336","system_id":"levelo_inurba_marseille","lat":43.25499,"lon":5.37652,"is_reserved":false,"is_disabled":true,"rental_uris":{"android":"levelo://app?vid=7e97dc25-4707-43f3-b85e-e68049bc5336","ios":"levelo://app?vid=7e97dc25-4707-43f3-b85e-e68049bc5336"},"vehicle_type_id":"4","last_reported":1739376691,"current_range_meters":0,"station_id":"ce4bhh12rcd13ifvqff0","pricing_plan_id":"cebpf4jnsgd1na2vs0mg"},{"bike_id":"224dce56-c44e-4b91-bb45-919ca8990be5","system_id":"levelo_inurba_marseille","lat":43.29043,"lon":5.35928,"is_reserved":false,"is_disabled":false,"rental_uris":{"android":"levelo://app?vid=224dce56-c44e-4b91-bb45-919ca8990be5","ios":"levelo://app?vid=224dce56-c44e-4b91-bb45-919ca8990be5"},"vehicle_type_id":"4","last_reported":1739376691,"current_range_meters":35600,"station_id":"ce4bha92rcd13ifvqeg0","pricing_plan_id":"cebpf4jnsgd1na2vs0mg"},{"bike_id":"9ddb6339-9b09-4642-9873-f8048fbc6d76","system_id":"levelo_inurba_marseille","lat":43.2693,"lon":5.40241,"is_reserved":false,"is_disabled":false,"rental_uris":{"android":"levelo://app?vid=9ddb6339-9b09-4642-9873-f8048fbc6d76","ios":"levelo://app?vid=9ddb6339-9b09-4642-9873-f8048fbc6d76"},"vehicle_type_id":"4","last_reported":1739376691,"current_range_meters":28000,"station_id":"cjm6bp8fraef2m0cb0m0","pricing_plan_id":"cebpf4jnsgd1na2vs0mg"},{"bike_id":"26c79ef5-6f5f-49d9-b4aa-17fb6a7df4bb","system_id":"levelo_inurba_marseille","lat":43.29861,"lon":5.3629,"is_reserved":false,"is_disabled":false,"rental_uris":{"android":"levelo://app?vid=26c79ef5-6f5f-49d9-b4aa-17fb6a7df4bb","ios":"levelo://app?vid=26c79ef5-6f5f-49d9-b4aa-17fb6a7df4bb"},"vehicle_type_id":"4","last_reported":1739376691,"current_range_meters":38800,"station_id":"ce4bgpp2rcd13ifvqc3g","pricing_plan_id":"cebpf4jnsgd1na2vs0mg"},{"bike_id":"39e55a90-fe76-4904-bf9c-9841fe168f13","system_id":"levelo_inurba_marseille","lat":43.33744,"lon":5.39151,"is_reserved":false,"is_disabled":false,"rental_uris":{"android":"levelo://app?vid=39e55a90-fe76-4904-bf9c-9841fe168f13","ios":"levelo://app?vid=39e55a90-fe76-4904-bf9c-9841fe168f13"},"vehicle_type_id":"4","last_reported":1739376691,"current_range_meters":38800,"station_id":"ce4bhr92rcd13ifvqhsg","pricing_plan_id":"cebpf4jnsgd1na2vs0mg"},{"bike_id":"95204eb9-0c10-4a15-844a-042d368fa026","system_id":"levelo_inurba_marseille","lat":43.30794,"lon":5.38159,"is_reserved":false,"is_disabled":false,"rental_uris":{"android":"levelo://app?vid=95204eb9-0c10-4a15-844a-042d368fa026","ios":"levelo://app?vid=95204eb9-0c10-4a15-844a-042d368fa026"},"vehicle_type_id":"4","last_reported":1739376691,"current_range_meters":24400,"station_id":"ce4bgt12rcd13ifvqce0","pricing_plan_id":"cebpf4jnsgd1na2vs0mg"},{"bike_id":"60143f29-42f7-4ccb-9890-28876e4ca929","system_id":"levelo_inurba_marseille","lat":43.29019,"lon":5.38137,"is_reserved":false,"is_disabled":false,"rental_uris":{"android":"levelo://app?vid=60143f29-42f7-4ccb-9890-28876e4ca929","ios":"levelo://app?vid=60143f29-42f7-4ccb-9890-28876e4ca929"},"vehicle_type_id":"4","last_reported":1739376691,"current_range_meters":32400,"station_id":"ce4bh4p2rcd13ifvqe1g","pricing_plan_id":"cebpf4jnsgd1na2vs0mg"},{"bike_id":"731da6c6-f7ca-4a26-90c2-82e3497d26ff","system_id":"levelo_inurba_marseille","lat":43.31356,"lon":5.3666,"is_reserved":false,"is_disabled":false,"rental_uris":{"android":"levelo://app?vid=731da6c6-f7ca-4a26-90c2-82e3497d26ff","ios":"levelo://app?vid=731da6c6-f7ca-4a26-90c2-82e3497d26ff"},"vehicle_type_id":"4","last_reported":1739376691,"current_range_meters":30000,"station_id":"ce4bgr92rcd13ifvqc6g","pricing_plan_id":"cebpf4jnsgd1na2vs0mg"},{"bike_id":"06afa39b-c338-42be-90f3-869cd4758577","system_id":"levelo_inurba_marseille","lat":43.29022,"lon":5.3813,"is_reserved":false,"is_disabled":false,"rental_uris":{"android":"levelo://app?vid=06afa39b-c338-42be-90f3-869cd4758577","ios":"levelo://app?vid=06afa39b-c338-42be-90f3-869cd4758577"},"vehicle_type_id":"4","last_reported":1739376691,"current_range_meters":16000,"station_id":"ce4bh4p2rcd13ifvqe1g","pricing_plan_id":"cebpf4jnsgd1na2vs0mg"},{"bike_id":"bf8cd02e-ccdc-4523-894a-3fce83d782e3","system_id":"levelo_inurba_marseille","lat":43.33724,"lon":5.3918,"is_reserved":false,"is_disabled":false,"rental_uris":{"android":"levelo://app?vid=bf8cd02e-ccdc-4523-894a-3fce83d782e3","ios":"levelo://app?vid=bf8cd02e-ccdc-4523-894a-3fce83d782e3"},"vehicle_type_id":"4","last_reported":1739376691,"current_range_meters":38800,"station_id":"ce4bhr92rcd13ifvqhsg","pricing_plan_id":"cebpf4jnsgd1na2vs0mg"},{"bike_id":"b737ae82-c86e-4ede-80b2-31fc6f755e14","system_id":"levelo_inurba_marseille","lat":43.29547,"lon":5.38556,"is_reserved":false,"is_disabled":true,"rental_uris":{"android":"levelo://app?vid=b737ae82-c86e-4ede-80b2-31fc6f755e14","ios":"levelo://app?vid=b737ae82-c86e-4ede-80b2-31fc6f755e14"},"vehicle_type_id":"4","last_reported":1739376691,"current_range_meters":38800,"station_id":"ce4bgih2rcd13ifvqba0","pricing_plan_id":"cebpf4jnsgd1na2vs0mg"},{"bike_id":"33e10952-1ed8-46bb-8b83-5705e93c405d","system_id":"levelo_inurba_marseille","lat":43.27316,"lon":5.39076,"is_reserved":false,"is_disabled":false,"rental_uris":{"android":"levelo://app?vid=33e10952-1ed8-46bb-8b83-5705e93c405d","ios":"levelo://app?vid=33e10952-1ed8-46bb-8b83-5705e93c405d"},"vehicle_type_id":"4","last_reported":1739376691,"current_range_meters":7200,"station_id":"ce4bhgp2rcd13ifvqfe0","pricing_plan_id":"cebpf4jnsgd1na2vs0mg"},{"bike_id":"f17faca6-4182-4be7-8371-dedad7c3f4cd","system_id":"levelo_inurba_marseille","lat":43.29781,"lon":5.38099,"is_reserved":false,"is_disabled":false,"rental_uris":{"android":"levelo://app?vid=f17faca6-4182-4be7-8371-dedad7c3f4cd","ios":"levelo://app?vid=f17faca6-4182-4be7-8371-dedad7c3f4cd"},"vehicle_type_id":"4","last_reported":1739376691,"current_range_meters":30000,"station_id":"ce4bgip2rcd13ifvqbb0","pricing_plan_id":"cebpf4jnsgd1na2vs0mg"},{"bike_id":"20cff2ea-df40-43e9-9e60-e9c41ce0ec64","system_id":"levelo_inurba_marseille","lat":43.23168,"lon":5.43726,"is_reserved":false,"is_disabled":false,"rental_uris":{"android":"levelo://app?vid=20cff2ea-df40-43e9-9e60-e9c41ce0ec64","ios":"levelo://app?vid=20cff2ea-df40-43e9-9e60-e9c41ce0ec64"},"vehicle_type_id":"4","last_reported":1739376691,"current_range_meters":38800,"station_id":"ce4bhmp2rcd13ifvqgog","pricing_plan_id":"cebpf4jnsgd1na2vs0mg"},{"bike_id":"55fa0fd1-4793-4372-94cc-c9ee5bd4ca87","system_id":"levelo_inurba_marseille","lat":43.28683,"lon":5.38661,"is_reserved":false,"is_disabled":true,"rental_uris":{"android":"levelo://app?vid=55fa0fd1-4793-4372-94cc-c9ee5bd4ca87","ios":"levelo://app?vid=55fa0fd1-4793-4372-94cc-c9ee5bd4ca87"},"vehicle_type_id":"4","last_reported":1739376691,"current_range_meters":36000,"station_id":"ce4bh492rcd13ifvqdug","pricing_plan_id":"cebpf4jnsgd1na2vs0mg"},{"bike_id":"3fec623c-6374-4d75-9f70-53d6095e989d","system_id":"levelo_inurba_marseille","lat":43.29787,"lon":5.38089,"is_reserved":false,"is_disabled":false,"rental_uris":{"android":"levelo://app?vid=3fec623c-6374-4d75-9f70-53d6095e989d","ios":"levelo://app?vid=3fec623c-6374-4d75-9f70-53d6095e989d"},"vehicle_type_id":"4","last_reported":1739376691,"current_range_meters":10800,"station_id":"ce4bgip2rcd13ifvqbb0","pricing_plan_id":"cebpf4jnsgd1na2vs0mg"},{"bike_id":"679b51a7-0864-4c79-a75b-8b937ab8b8fc","system_id":"levelo_inurba_marseille","lat":43.24554,"lon":5.3951,"is_reserved":false,"is_disabled":false,"rental_uris":{"android":"levelo://app?vid=679b51a7-0864-4c79-a75b-8b937ab8b8fc","ios":"levelo://app?vid=679b51a7-0864-4c79-a75b-8b937ab8b8fc"},"vehicle_type_id":"4","last_reported":1739376691,"current_range_meters":25200,"station_id":"ce4bhlp2rcd13ifvqgjg","pricing_plan_id":"cebpf4jnsgd1na2vs0mg"},{"bike_id":"d2090b16-1da9-4170-8973-962616ace04b","system_id":"levelo_inurba_marseille","lat":43.28437,"lon":5.39199,"is_reserved":false,"is_disabled":true,"rental_uris":{"android":"levelo://app?vid=d2090b16-1da9-4170-8973-962616ace04b","ios":"levelo://app?vid=d2090b16-1da9-4170-8973-962616ace04b"},"vehicle_type_id":"4","last_reported":1739376691,"current_range_meters":31200,"station_id":"ce4bhoh2rcd13ifvqh5g","pricing_plan_id":"cebpf4jnsgd1na2vs0mg"},{"bike_id":"34336859-b941-4777-a7fe-56d01a220fb2","system_id":"levelo_inurba_marseille","lat":43.29699,"lon":5.36599,"is_reserved":false,"is_disabled":false,"rental_uris":{"android":"levelo://app?vid=34336859-b941-4777-a7fe-56d01a220fb2","ios":"levelo://app?vid=34336859-b941-4777-a7fe-56d01a220fb2"},"vehicle_type_id":"4","last_reported":1739376691,"current_range_meters":38800,"station_id":"ce4bgn12rcd13ifvqbt0","pricing_plan_id":"cebpf4jnsgd1na2vs0mg"},{"bike_id":"6c956ae1-e540-4fc7-9455-5729ac7f892e","system_id":"levelo_inurba_marseille","lat":43.29838,"lon":5.36269,"is_reserved":false,"is_disabled":false,"rental_uris":{"android":"levelo://app?vid=6c956ae1-e540-4fc7-9455-5729ac7f892e","ios":"levelo://app?vid=6c956ae1-e540-4fc7-9455-5729ac7f892e"},"vehicle_type_id":"4","last_reported":1739376691,"current_range_meters":18000,"station_id":"ce4bgpp2rcd13ifvqc3g","pricing_plan_id":"cebpf4jnsgd1na2vs0mg"},{"bike_id":"68219a6f-c75e-47d7-a510-44644f261f78","system_id":"levelo_inurba_marseille","lat":43.28935,"lon":5.36646,"is_reserved":false,"is_disabled":false,"rental_uris":{"android":"levelo://app?vid=68219a6f-c75e-47d7-a510-44644f261f78","ios":"levelo://app?vid=68219a6f-c75e-47d7-a510-44644f261f78"},"vehicle_type_id":"4","last_reported":1739376691,"current_range_meters":28000,"station_id":"ce4bhap2rcd13ifvqek0","pricing_plan_id":"cebpf4jnsgd1na2vs0mg"},{"bike_id":"4b674fed-a680-4df3-ab7b-271cc22686ae","system_id":"levelo_inurba_marseille","lat":43.30889,"lon":5.39641,"is_reserved":false,"is_disabled":false,"rental_uris":{"android":"levelo://app?vid=4b674fed-a680-4df3-ab7b-271cc22686ae","ios":"levelo://app?vid=4b674fed-a680-4df3-ab7b-271cc22686ae"},"vehicle_type_id":"4","last_reported":1739376691,"current_range_meters":39200,"station_id":"ce4bh012rcd13ifvqcv0","pricing_plan_id":"cebpf4jnsgd1na2vs0mg"},{"bike_id":"039012fd-f057-4cca-9ab2-da2b5fd956ee","system_id":"levelo_inurba_marseille","lat":43.26199,"lon":5.37935,"is_reserved":false,"is_disabled":false,"rental_uris":{"android":"levelo://app?vid=039012fd-f057-4cca-9ab2-da2b5fd956ee","ios":"levelo://app?vid=039012fd-f057-4cca-9ab2-da2b5fd956ee"},"vehicle_type_id":"4","last_reported":1739376691,"current_range_meters":24800,"station_id":"ce4bhjp2rcd13ifvqg90","pricing_plan_id":"cebpf4jnsgd1na2vs0mg"},{"bike_id":"b0e5466d-95f1-4a38-8b07-86ef53224ff0","system_id":"levelo_inurba_marseille","lat":43.29734,"lon":5.36629,"is_reserved":false,"is_disabled":false,"rental_uris":{"android":"levelo://app?vid=b0e5466d-95f1-4a38-8b07-86ef53224ff0","ios":"levelo://app?vid=b0e5466d-95f1-4a38-8b07-86ef53224ff0"},"vehicle_type_id":"4","last_reported":1739376691,"current_range_meters":38800,"station_id":"ce4bgn12rcd13ifvqbt0","pricing_plan_id":"cebpf4jnsgd1na2vs0mg"},{"bike_id":"0f898702-5a7a-46b3-acd9-f0d77c965d23","system_id":"levelo_inurba_marseille","lat":43.28848,"lon":5.35879,"is_reserved":false,"is_disabled":false,"rental_uris":{"android":"levelo://app?vid=0f898702-5a7a-46b3-acd9-f0d77c965d23","ios":"levelo://app?vid=0f898702-5a7a-46b3-acd9-f0d77c965d23"},"vehicle_type_id":"4","last_reported":1739376691,"current_range_meters":38800,"station_id":"ce4bhb12rcd13ifvqem0","pricing_plan_id":"cebpf4jnsgd1na2vs0mg"},{"bike_id":"704ec19d-e7c0-4858-a423-dcfa560220a5","system_id":"levelo_inurba_marseille","lat":43.23167,"lon":5.39955,"is_reserved":false,"is_disabled":false,"rental_uris":{"android":"levelo://app?vid=704ec19d-e7c0-4858-a423-dcfa560220a5","ios":"levelo://app?vid=704ec19d-e7c0-4858-a423-dcfa560220a5"},"vehicle_type_id":"4","last_reported":1739376691,"current_range_meters":38800,"station_id":"ce4bhn12rcd13ifvqgqg","pricing_plan_id":"cebpf4jnsgd1na2vs0mg"},{"bike_id":"f0725ab4-3016-4ce5-974f-6701497da3f0","system_id":"levelo_inurba_marseille","lat":43.27512,"lon":5.42479,"is_reserved":false,"is_disabled":false,"rental_uris":{"android":"levelo://app?vid=f0725ab4-3016-4ce5-974f-6701497da3f0","ios":"levelo://app?vid=f0725ab4-3016-4ce5-974f-6701497da3f0"},"vehicle_type_id":"4","last_reported":1739376691,"current_range_meters":27600,"station_id":"ce4bhn92rcd13ifvqgrg","pricing_plan_id":"cebpf4jnsgd1na2vs0mg"},{"bike_id":"c2255642-8ed5-4272-ba77-26eb1e2c0887","system_id":"levelo_inurba_marseille","lat":43.30887,"lon":5.39656,"is_reserved":false,"is_disabled":false,"rental_uris":{"android":"levelo://app?vid=c2255642-8ed5-4272-ba77-26eb1e2c0887","ios":"levelo://app?vid=c2255642-8ed5-4272-ba77-26eb1e2c0887"},"vehicle_type_id":"4","last_reported":1739376691,"current_range_meters":37600,"station_id":"ce4bh012rcd13ifvqcv0","pricing_plan_id":"cebpf4jnsgd1na2vs0mg"},{"bike_id":"327a7caf-217a-43f5-b7e8-faf01884e779","system_id":"levelo_inurba_marseille","lat":43.29968,"lon":5.38481,"is_reserved":false,"is_disabled":false,"rental_uris":{"android":"levelo://app?vid=327a7caf-217a-43f5-b7e8-faf01884e779","ios":"levelo://app?vid=327a7caf-217a-43f5-b7e8-faf01884e779"},"vehicle_type_id":"4","last_reported":1739376691,"current_range_meters":22800,"station_id":"ce4bgj92rcd13ifvqbd0","pricing_plan_id":"cebpf4jnsgd1na2vs0mg"},{"bike_id":"70247514-19c1-4958-92be-80cc15ce9132","system_id":"levelo_inurba_marseille","lat":43.27494,"lon":5.4244,"is_reserved":false,"is_disabled":false,"rental_uris":{"android":"levelo://app?vid=70247514-19c1-4958-92be-80cc15ce9132","ios":"levelo://app?vid=70247514-19c1-4958-92be-80cc15ce9132"},"vehicle_type_id":"4","last_reported":1739376691,"current_range_meters":4000,"station_id":"ce4bhn92rcd13ifvqgrg","pricing_plan_id":"cebpf4jnsgd1na2vs0mg"},{"bike_id":"641ac591-57ea-414b-b64d-5d6c99c4788d","system_id":"levelo_inurba_marseille","lat":43.26969,"lon":5.38849,"is_reserved":false,"is_disabled":false,"rental_uris":{"android":"levelo://app?vid=641ac591-57ea-414b-b64d-5d6c99c4788d","ios":"levelo://app?vid=641ac591-57ea-414b-b64d-5d6c99c4788d"},"vehicle_type_id":"4","last_reported":1739376691,"current_range_meters":38800,"station_id":"ce4bhhh2rcd13ifvqfl0","pricing_plan_id":"cebpf4jnsgd1na2vs0mg"},{"bike_id":"f61f0289-db11-4f78-af36-f70fd4404161","system_id":"levelo_inurba_marseille","lat":43.290051,"lon":5.356176,"is_reserved":false,"is_disabled":true,"rental_uris":{"android":"levelo://app?vid=f61f0289-db11-4f78-af36-f70fd4404161","ios":"levelo://app?vid=f61f0289-db11-4f78-af36-f70fd4404161"},"vehicle_type_id":"4","last_reported":1739376691,"current_range_meters":33600,"station_id":"","pricing_plan_id":"cebpf4jnsgd1na2vs0mg"},{"bike_id":"39a640ed-fd8c-4b56-84e0-fe67663afd2d","system_id":"levelo_inurba_marseille","lat":43.23158,"lon":5.43704,"is_reserved":false,"is_disabled":false,"rental_uris":{"android":"levelo://app?vid=39a640ed-fd8c-4b56-84e0-fe67663afd2d","ios":"levelo://app?vid=39a640ed-fd8c-4b56-84e0-fe67663afd2d"},"vehicle_type_id":"4","last_reported":1739376691,"current_range_meters":27600,"station_id":"ce4bhmp2rcd13ifvqgog","pricing_plan_id":"cebpf4jnsgd1na2vs0mg"},{"bike_id":"bc235a4c-617d-46ba-8c7a-21502f4b2aaf","system_id":"levelo_inurba_marseille","lat":43.23183,"lon":5.39995,"is_reserved":false,"is_disabled":false,"rental_uris":{"android":"levelo://app?vid=bc235a4c-617d-46ba-8c7a-21502f4b2aaf","ios":"levelo://app?vid=bc235a4c-617d-46ba-8c7a-21502f4b2aaf"},"vehicle_type_id":"4","last_reported":1739376691,"current_range_meters":19600,"station_id":"ce4bhn12rcd13ifvqgqg","pricing_plan_id":"cebpf4jnsgd1na2vs0mg"},{"bike_id":"7e4baaff-43df-45ac-ba99-60d4ee3b5a14","system_id":"levelo_inurba_marseille","lat":43.3249,"lon":5.3657,"is_reserved":false,"is_disabled":false,"rental_uris":{"android":"levelo://app?vid=7e4baaff-43df-45ac-ba99-60d4ee3b5a14","ios":"levelo://app?vid=7e4baaff-43df-45ac-ba99-60d4ee3b5a14"},"vehicle_type_id":"4","last_reported":1739376691,"current_range_meters":38800,"station_id":"ce4bhs12rcd13ifvqhvg","pricing_plan_id":"cebpf4jnsgd1na2vs0mg"},{"bike_id":"da22b9b5-a959-40cf-bbae-925880351431","system_id":"levelo_inurba_marseille","lat":43.24666,"lon":5.38166,"is_reserved":false,"is_disabled":false,"rental_uris":{"android":"levelo://app?vid=da22b9b5-a959-40cf-bbae-925880351431","ios":"levelo://app?vid=da22b9b5-a959-40cf-bbae-925880351431"},"vehicle_type_id":"4","last_reported":1739376691,"current_range_meters":32400,"station_id":"ce4bhih2rcd13ifvqfr0","pricing_plan_id":"cebpf4jnsgd1na2vs0mg"},{"bike_id":"3d3743e0-f5e5-4579-9215-1313da72fc14","system_id":"levelo_inurba_marseille","lat":43.31121,"lon":5.37794,"is_reserved":false,"is_disabled":false,"rental_uris":{"android":"levelo://app?vid=3d3743e0-f5e5-4579-9215-1313da72fc14","ios":"levelo://app?vid=3d3743e0-f5e5-4579-9215-1313da72fc14"},"vehicle_type_id":"4","last_reported":1739376691,"current_range_meters":38000,"station_id":"ce4bgt92rcd13ifvqcg0","pricing_plan_id":"cebpf4jnsgd1na2vs0mg"},{"bike_id":"51ab7186-5043-4bed-baca-73708608a302","system_id":"levelo_inurba_marseille","lat":43.29584,"lon":5.37026,"is_reserved":false,"is_disabled":true,"rental_uris":{"android":"levelo://app?vid=51ab7186-5043-4bed-baca-73708608a302","ios":"levelo://app?vid=51ab7186-5043-4bed-baca-73708608a302"},"vehicle_type_id":"4","last_reported":1739376691,"current_range_meters":2000,"station_id":"","pricing_plan_id":"cebpf4jnsgd1na2vs0mg"},{"bike_id":"d749d7e7-edc0-4577-ba5e-e59799525373","system_id":"levelo_inurba_marseille","lat":43.27936,"lon":5.41032,"is_reserved":false,"is_disabled":false,"rental_uris":{"android":"levelo://app?vid=d749d7e7-edc0-4577-ba5e-e59799525373","ios":"levelo://app?vid=d749d7e7-edc0-4577-ba5e-e59799525373"},"vehicle_type_id":"4","last_reported":1739376691,"current_range_meters":38800,"station_id":"ce4bhnp2rcd13ifvqh0g","pricing_plan_id":"cebpf4jnsgd1na2vs0mg"},{"bike_id":"4031ac63-bb81-4401-96d3-1a68bf7a6254","system_id":"levelo_inurba_marseille","lat":43.24173,"lon":5.36385,"is_reserved":false,"is_disabled":false,"rental_uris":{"android":"levelo://app?vid=4031ac63-bb81-4401-96d3-1a68bf7a6254","ios":"levelo://app?vid=4031ac63-bb81-4401-96d3-1a68bf7a6254"},"vehicle_type_id":"4","last_reported":1739376691,"current_range_meters":28400,"station_id":"cpo36qri1sfpv3e86is0","pricing_plan_id":"cebpf4jnsgd1na2vs0mg"},{"bike_id":"41bbd167-99a4-4ec4-86b3-51a973224996","system_id":"levelo_inurba_marseille","lat":43.29902,"lon":5.38152,"is_reserved":false,"is_disabled":false,"rental_uris":{"android":"levelo://app?vid=41bbd167-99a4-4ec4-86b3-51a973224996","ios":"levelo://app?vid=41bbd167-99a4-4ec4-86b3-51a973224996"},"vehicle_type_id":"4","last_reported":1739376691,"current_range_meters":38800,"station_id":"ce4bgj12rcd13ifvqbc0","pricing_plan_id":"cebpf4jnsgd1na2vs0mg"},{"bike_id":"719e648f-33ca-4ee1-ae75-3227715e9780","system_id":"levelo_inurba_marseille","lat":43.30152,"lon":5.37422,"is_reserved":false,"is_disabled":false,"rental_uris":{"android":"levelo://app?vid=719e648f-33ca-4ee1-ae75-3227715e9780","ios":"levelo://app?vid=719e648f-33ca-4ee1-ae75-3227715e9780"},"vehicle_type_id":"4","last_reported":1739376691,"current_range_meters":30400,"station_id":"ce4bgs92rcd13ifvqcc0","pricing_plan_id":"cebpf4jnsgd1na2vs0mg"},{"bike_id":"1d12c9c0-99a5-4abc-9250-48ad95217454","system_id":"levelo_inurba_marseille","lat":43.29708,"lon":5.36612,"is_reserved":false,"is_disabled":false,"rental_uris":{"android":"levelo://app?vid=1d12c9c0-99a5-4abc-9250-48ad95217454","ios":"levelo://app?vid=1d12c9c0-99a5-4abc-9250-48ad95217454"},"vehicle_type_id":"4","last_reported":1739376691,"current_range_meters":31200,"station_id":"ce4bgn12rcd13ifvqbt0","pricing_plan_id":"cebpf4jnsgd1na2vs0mg"},{"bike_id":"1f7fa0ef-4b3c-49d9-ada6-b4d420012d0b","system_id":"levelo_inurba_marseille","lat":43.25086,"lon":5.39532,"is_reserved":false,"is_disabled":false,"rental_uris":{"android":"levelo://app?vid=1f7fa0ef-4b3c-49d9-ada6-b4d420012d0b","ios":"levelo://app?vid=1f7fa0ef-4b3c-49d9-ada6-b4d420012d0b"},"vehicle_type_id":"4","last_reported":1739376691,"current_range_meters":6800,"station_id":"ce4bhm12rcd13ifvqgkg","pricing_plan_id":"cebpf4jnsgd1na2vs0mg"},{"bike_id":"269bf468-ca0b-42be-8c3f-6b0a7b239b2c","system_id":"levelo_inurba_marseille","lat":43.31277,"lon":5.4017,"is_reserved":false,"is_disabled":false,"rental_uris":{"android":"levelo://app?vid=269bf468-ca0b-42be-8c3f-6b0a7b239b2c","ios":"levelo://app?vid=269bf468-ca0b-42be-8c3f-6b0a7b239b2c"},"vehicle_type_id":"4","last_reported":1739376691,"current_range_meters":8800,"station_id":"ce4bh092rcd13ifvqd30","pricing_plan_id":"cebpf4jnsgd1na2vs0mg"},{"bike_id":"d1e173a7-7a13-459d-aa61-e912781d87f3","system_id":"levelo_inurba_marseille","lat":43.27322,"lon":5.39097,"is_reserved":false,"is_disabled":false,"rental_uris":{"android":"levelo://app?vid=d1e173a7-7a13-459d-aa61-e912781d87f3","ios":"levelo://app?vid=d1e173a7-7a13-459d-aa61-e912781d87f3"},"vehicle_type_id":"4","last_reported":1739376691,"current_range_meters":27200,"station_id":"ce4bhgp2rcd13ifvqfe0","pricing_plan_id":"cebpf4jnsgd1na2vs0mg"},{"bike_id":"10dce821-bd6f-48b5-a755-f2a3c840842c","system_id":"levelo_inurba_marseille","lat":43.23152,"lon":5.43716,"is_reserved":false,"is_disabled":false,"rental_uris":{"android":"levelo://app?vid=10dce821-bd6f-48b5-a755-f2a3c840842c","ios":"levelo://app?vid=10dce821-bd6f-48b5-a755-f2a3c840842c"},"vehicle_type_id":"4","last_reported":1739376691,"current_range_meters":38800,"station_id":"ce4bhmp2rcd13ifvqgog","pricing_plan_id":"cebpf4jnsgd1na2vs0mg"},{"bike_id":"de77abfa-6f74-40e9-8131-b7884eda37eb","system_id":"levelo_inurba_marseille","lat":43.29945,"lon":5.39414,"is_reserved":false,"is_disabled":false,"rental_uris":{"android":"levelo://app?vid=de77abfa-6f74-40e9-8131-b7884eda37eb","ios":"levelo://app?vid=de77abfa-6f74-40e9-8131-b7884eda37eb"},"vehicle_type_id":"4","last_reported":1739376691,"current_range_meters":25200,"station_id":"","pricing_plan_id":"cebpf4jnsgd1na2vs0mg"},{"bike_id":"6536fdfe-60f2-4069-9713-9a9d729a0c4e","system_id":"levelo_inurba_marseille","lat":43.27996,"lon":5.4002,"is_reserved":false,"is_disabled":false,"rental_uris":{"android":"levelo://app?vid=6536fdfe-60f2-4069-9713-9a9d729a0c4e","ios":"levelo://app?vid=6536fdfe-60f2-4069-9713-9a9d729a0c4e"},"vehicle_type_id":"4","last_reported":1739376691,"current_range_meters":37600,"station_id":"ce4bho92rcd13ifvqh4g","pricing_plan_id":"cebpf4jnsgd1na2vs0mg"},{"bike_id":"ee079ffa-4416-4a91-bc98-3bd665acea3b","system_id":"levelo_inurba_marseille","lat":43.33729,"lon":5.39169,"is_reserved":false,"is_disabled":false,"rental_uris":{"android":"levelo://app?vid=ee079ffa-4416-4a91-bc98-3bd665acea3b","ios":"levelo://app?vid=ee079ffa-4416-4a91-bc98-3bd665acea3b"},"vehicle_type_id":"4","last_reported":1739376691,"current_range_meters":38800,"station_id":"ce4bhr92rcd13ifvqhsg","pricing_plan_id":"cebpf4jnsgd1na2vs0mg"},{"bike_id":"1fa82dc6-47d4-4356-bbca-393bf4461726","system_id":"levelo_inurba_marseille","lat":43.23963,"lon":5.36621,"is_reserved":false,"is_disabled":false,"rental_uris":{"android":"levelo://app?vid=1fa82dc6-47d4-4356-bbca-393bf4461726","ios":"levelo://app?vid=1fa82dc6-47d4-4356-bbca-393bf4461726"},"vehicle_type_id":"4","last_reported":1739376691,"current_range_meters":12400,"station_id":"ce4bhi12rcd13ifvqfp0","pricing_plan_id":"cebpf4jnsgd1na2vs0mg"},{"bike_id":"2355c6e5-09c3-4950-a7a8-dbebf456e6b5","system_id":"levelo_inurba_marseille","lat":43.30789,"lon":5.36638,"is_reserved":false,"is_disabled":false,"rental_uris":{"android":"levelo://app?vid=2355c6e5-09c3-4950-a7a8-dbebf456e6b5","ios":"levelo://app?vid=2355c6e5-09c3-4950-a7a8-dbebf456e6b5"},"vehicle_type_id":"4","last_reported":1739376691,"current_range_meters":24000,"station_id":"","pricing_plan_id":"cebpf4jnsgd1na2vs0mg"},{"bike_id":"890bc45c-4061-4b52-a64e-af00d3bc0915","system_id":"levelo_inurba_marseille","lat":43.28936,"lon":5.3665,"is_reserved":false,"is_disabled":false,"rental_uris":{"android":"levelo://app?vid=890bc45c-4061-4b52-a64e-af00d3bc0915","ios":"levelo://app?vid=890bc45c-4061-4b52-a64e-af00d3bc0915"},"vehicle_type_id":"4","last_reported":1739376691,"current_range_meters":39200,"station_id":"ce4bhap2rcd13ifvqek0","pricing_plan_id":"cebpf4jnsgd1na2vs0mg"},{"bike_id":"e903e33f-f5a5-499e-a34c-22eb3cafde37","system_id":"levelo_inurba_marseille","lat":43.29923,"lon":5.4363,"is_reserved":false,"is_disabled":false,"rental_uris":{"android":"levelo://app?vid=e903e33f-f5a5-499e-a34c-22eb3cafde37","ios":"levelo://app?vid=e903e33f-f5a5-499e-a34c-22eb3cafde37"},"vehicle_type_id":"4","last_reported":1739376691,"current_range_meters":10800,"station_id":"","pricing_plan_id":"cebpf4jnsgd1na2vs0mg"},{"bike_id":"c428b97a-f963-4f73-b757-d00741660170","system_id":"levelo_inurba_marseille","lat":43.32455,"lon":5.36333,"is_reserved":false,"is_disabled":false,"rental_uris":{"android":"levelo://app?vid=c428b97a-f963-4f73-b757-d00741660170","ios":"levelo://app?vid=c428b97a-f963-4f73-b757-d00741660170"},"vehicle_type_id":"4","last_reported":1739376691,"current_range_meters":38800,"station_id":"ce4bhs12rcd13ifvqhvg","pricing_plan_id":"cebpf4jnsgd1na2vs0mg"},{"bike_id":"3adb6699-f719-4456-92ab-1968693e97fb","system_id":"levelo_inurba_marseille","lat":43.24164,"lon":5.36413,"is_reserved":false,"is_disabled":false,"rental_uris":{"android":"levelo://app?vid=3adb6699-f719-4456-92ab-1968693e97fb","ios":"levelo://app?vid=3adb6699-f719-4456-92ab-1968693e97fb"},"vehicle_type_id":"4","last_reported":1739376691,"current_range_meters":27200,"station_id":"cpo36qri1sfpv3e86is0","pricing_plan_id":"cebpf4jnsgd1na2vs0mg"},{"bike_id":"04e82eae-1243-4f87-97ae-c2b403027eb5","system_id":"levelo_inurba_marseille","lat":43.28166,"lon":5.42655,"is_reserved":false,"is_disabled":true,"rental_uris":{"android":"levelo://app?vid=04e82eae-1243-4f87-97ae-c2b403027eb5","ios":"levelo://app?vid=04e82eae-1243-4f87-97ae-c2b403027eb5"},"vehicle_type_id":"4","last_reported":1739376691,"current_range_meters":400,"station_id":"ce4bhnh2rcd13ifvqgug","pricing_plan_id":"cebpf4jnsgd1na2vs0mg"},{"bike_id":"496fa2ad-a547-4095-b8b9-a29f1a78ab4b","system_id":"levelo_inurba_marseille","lat":43.27824,"lon":5.40715,"is_reserved":false,"is_disabled":false,"rental_uris":{"android":"levelo://app?vid=496fa2ad-a547-4095-b8b9-a29f1a78ab4b","ios":"levelo://app?vid=496fa2ad-a547-4095-b8b9-a29f1a78ab4b"},"vehicle_type_id":"4","last_reported":1739376691,"current_range_meters":32000,"station_id":"ce4bhnh2rcd13ifvqgtg","pricing_plan_id":"cebpf4jnsgd1na2vs0mg"},{"bike_id":"8fafbe44-087d-4315-84c5-9b73a47bee29","system_id":"levelo_inurba_marseille","lat":43.28673,"lon":5.36356,"is_reserved":false,"is_disabled":false,"rental_uris":{"android":"levelo://app?vid=8fafbe44-087d-4315-84c5-9b73a47bee29","ios":"levelo://app?vid=8fafbe44-087d-4315-84c5-9b73a47bee29"},"vehicle_type_id":"4","last_reported":1739376691,"current_range_meters":36000,"station_id":"ce4bhah2rcd13ifvqej0","pricing_plan_id":"cebpf4jnsgd1na2vs0mg"},{"bike_id":"8d58d159-fe47-4adf-ba8f-3f8b77e06593","system_id":"levelo_inurba_marseille","lat":43.29797,"lon":5.39369,"is_reserved":false,"is_disabled":false,"rental_uris":{"android":"levelo://app?vid=8d58d159-fe47-4adf-ba8f-3f8b77e06593","ios":"levelo://app?vid=8d58d159-fe47-4adf-ba8f-3f8b77e06593"},"vehicle_type_id":"4","last_reported":1739376691,"current_range_meters":38400,"station_id":"chh1huq6cuj3fo74tm60","pricing_plan_id":"cebpf4jnsgd1na2vs0mg"},{"bike_id":"149626b9-1ac5-4f2c-ad21-b13aaef1dba9","system_id":"levelo_inurba_marseille","lat":43.28609,"lon":5.3706,"is_reserved":false,"is_disabled":false,"rental_uris":{"android":"levelo://app?vid=149626b9-1ac5-4f2c-ad21-b13aaef1dba9","ios":"levelo://app?vid=149626b9-1ac5-4f2c-ad21-b13aaef1dba9"},"vehicle_type_id":"4","last_reported":1739376691,"current_range_meters":38000,"station_id":"ce4bht12rcd13ifvqi60","pricing_plan_id":"cebpf4jnsgd1na2vs0mg"},{"bike_id":"de5a77db-8e65-4f0c-8fc5-691971b52a7d","system_id":"levelo_inurba_marseille","lat":43.29634,"lon":5.37165,"is_reserved":false,"is_disabled":false,"rental_uris":{"android":"levelo://app?vid=de5a77db-8e65-4f0c-8fc5-691971b52a7d","ios":"levelo://app?vid=de5a77db-8e65-4f0c-8fc5-691971b52a7d"},"vehicle_type_id":"4","last_reported":1739376691,"current_range_meters":38800,"station_id":"ce4bgnh2rcd13ifvqc0g","pricing_plan_id":"cebpf4jnsgd1na2vs0mg"},{"bike_id":"eefe9140-9e0c-4fdb-9fe3-3cad888966f6","system_id":"levelo_inurba_marseille","lat":43.29565,"lon":5.42295,"is_reserved":false,"is_disabled":false,"rental_uris":{"android":"levelo://app?vid=eefe9140-9e0c-4fdb-9fe3-3cad888966f6","ios":"levelo://app?vid=eefe9140-9e0c-4fdb-9fe3-3cad888966f6"},"vehicle_type_id":"4","last_reported":1739376691,"current_range_meters":29600,"station_id":"ce4bhph2rcd13ifvqhdg","pricing_plan_id":"cebpf4jnsgd1na2vs0mg"},{"bike_id":"c39dd2c6-0fe0-4707-90aa-5a4b4a7c3f4f","system_id":"levelo_inurba_marseille","lat":43.3171,"lon":5.43696,"is_reserved":false,"is_disabled":false,"rental_uris":{"android":"levelo://app?vid=c39dd2c6-0fe0-4707-90aa-5a4b4a7c3f4f","ios":"levelo://app?vid=c39dd2c6-0fe0-4707-90aa-5a4b4a7c3f4f"},"vehicle_type_id":"4","last_reported":1739376691,"current_range_meters":29600,"station_id":"ce4bhp92rcd13ifvqhcg","pricing_plan_id":"cebpf4jnsgd1na2vs0mg"},{"bike_id":"6070616d-1a0b-426a-97a7-87dc2e4113e4","system_id":"levelo_inurba_marseille","lat":43.29379,"lon":5.37863,"is_reserved":false,"is_disabled":false,"rental_uris":{"android":"levelo://app?vid=6070616d-1a0b-426a-97a7-87dc2e4113e4","ios":"levelo://app?vid=6070616d-1a0b-426a-97a7-87dc2e4113e4"},"vehicle_type_id":"4","last_reported":1739376691,"current_range_meters":16800,"station_id":"ce4bgjh2rcd13ifvqbf0","pricing_plan_id":"cebpf4jnsgd1na2vs0mg"},{"bike_id":"66d1b0ad-376c-4acf-8479-7131e99afd44","system_id":"levelo_inurba_marseille","lat":43.30298,"lon":5.39208,"is_reserved":false,"is_disabled":false,"rental_uris":{"android":"levelo://app?vid=66d1b0ad-376c-4acf-8479-7131e99afd44","ios":"levelo://app?vid=66d1b0ad-376c-4acf-8479-7131e99afd44"},"vehicle_type_id":"4","last_reported":1739376691,"current_range_meters":30800,"station_id":"ce4bgkh2rcd13ifvqbk0","pricing_plan_id":"cebpf4jnsgd1na2vs0mg"},{"bike_id":"830e40a6-3b7f-4341-8c43-ec1acace922a","system_id":"levelo_inurba_marseille","lat":43.30529,"lon":5.36527,"is_reserved":false,"is_disabled":false,"rental_uris":{"android":"levelo://app?vid=830e40a6-3b7f-4341-8c43-ec1acace922a","ios":"levelo://app?vid=830e40a6-3b7f-4341-8c43-ec1acace922a"},"vehicle_type_id":"4","last_reported":1739376691,"current_range_meters":32400,"station_id":"ce4bgs12rcd13ifvqcag","pricing_plan_id":"cebpf4jnsgd1na2vs0mg"},{"bike_id":"c07ffd3b-1b45-4f4f-af96-2b31373f9d65","system_id":"levelo_inurba_marseille","lat":43.24164,"lon":5.36401,"is_reserved":false,"is_disabled":false,"rental_uris":{"android":"levelo://app?vid=c07ffd3b-1b45-4f4f-af96-2b31373f9d65","ios":"levelo://app?vid=c07ffd3b-1b45-4f4f-af96-2b31373f9d65"},"vehicle_type_id":"4","last_reported":1739376691,"current_range_meters":27600,"station_id":"cpo36qri1sfpv3e86is0","pricing_plan_id":"cebpf4jnsgd1na2vs0mg"},{"bike_id":"76ed4e97-7fa9-4836-bcd3-e52753ef31b4","system_id":"levelo_inurba_marseille","lat":43.298453,"lon":5.362759,"is_reserved":false,"is_disabled":false,"rental_uris":{"android":"levelo://app?vid=76ed4e97-7fa9-4836-bcd3-e52753ef31b4","ios":"levelo://app?vid=76ed4e97-7fa9-4836-bcd3-e52753ef31b4"},"vehicle_type_id":"4","last_reported":1739376691,"current_range_meters":38000,"station_id":"ce4bgpp2rcd13ifvqc3g","pricing_plan_id":"cebpf4jnsgd1na2vs0mg"},{"bike_id":"961c08b4-1c1a-4a35-b5c8-a25b3fc3c754","system_id":"levelo_inurba_marseille","lat":43.31205,"lon":5.36846,"is_reserved":false,"is_disabled":true,"rental_uris":{"android":"levelo://app?vid=961c08b4-1c1a-4a35-b5c8-a25b3fc3c754","ios":"levelo://app?vid=961c08b4-1c1a-4a35-b5c8-a25b3fc3c754"},"vehicle_type_id":"4","last_reported":1739376691,"current_range_meters":1200,"station_id":"ce4bgl92rcd13ifvqbq0","pricing_plan_id":"cebpf4jnsgd1na2vs0mg"},{"bike_id":"ef914976-b22c-4424-822e-bd87b6bd905b","system_id":"levelo_inurba_marseille","lat":43.29229,"lon":5.36063,"is_reserved":false,"is_disabled":false,"rental_uris":{"android":"levelo://app?vid=ef914976-b22c-4424-822e-bd87b6bd905b","ios":"levelo://app?vid=ef914976-b22c-4424-822e-bd87b6bd905b"},"vehicle_type_id":"4","last_reported":1739376691,"current_range_meters":33600,"station_id":"ce4bhbh2rcd13ifvqeqg","pricing_plan_id":"cebpf4jnsgd1na2vs0mg"},{"bike_id":"d32849cf-4c14-4032-9063-172d06d3f04f","system_id":"levelo_inurba_marseille","lat":43.23194,"lon":5.35553,"is_reserved":false,"is_disabled":false,"rental_uris":{"android":"levelo://app?vid=d32849cf-4c14-4032-9063-172d06d3f04f","ios":"levelo://app?vid=d32849cf-4c14-4032-9063-172d06d3f04f"},"vehicle_type_id":"4","last_reported":1739376691,"current_range_meters":30800,"station_id":"ce4bhu92rcd13ifvqi70","pricing_plan_id":"cebpf4jnsgd1na2vs0mg"},{"bike_id":"2ff86c0c-69fd-4294-8842-114f3593748f","system_id":"levelo_inurba_marseille","lat":43.31316,"lon":5.36713,"is_reserved":false,"is_disabled":false,"rental_uris":{"android":"levelo://app?vid=2ff86c0c-69fd-4294-8842-114f3593748f","ios":"levelo://app?vid=2ff86c0c-69fd-4294-8842-114f3593748f"},"vehicle_type_id":"4","last_reported":1739376691,"current_range_meters":36400,"station_id":"ce4bgr92rcd13ifvqc6g","pricing_plan_id":"cebpf4jnsgd1na2vs0mg"},{"bike_id":"c7c3ef87-ea8c-4023-9e9e-642175f78cf6","system_id":"levelo_inurba_marseille","lat":43.29574,"lon":5.37518,"is_reserved":false,"is_disabled":false,"rental_uris":{"android":"levelo://app?vid=c7c3ef87-ea8c-4023-9e9e-642175f78cf6","ios":"levelo://app?vid=c7c3ef87-ea8c-4023-9e9e-642175f78cf6"},"vehicle_type_id":"4","last_reported":1739376691,"current_range_meters":38800,"station_id":"ce4bgh92rcd13ifvqb50","pricing_plan_id":"cebpf4jnsgd1na2vs0mg"},{"bike_id":"536366d2-282b-48e8-9268-35b7ee369088","system_id":"levelo_inurba_marseille","lat":43.25008,"lon":5.3895,"is_reserved":false,"is_disabled":false,"rental_uris":{"android":"levelo://app?vid=536366d2-282b-48e8-9268-35b7ee369088","ios":"levelo://app?vid=536366d2-282b-48e8-9268-35b7ee369088"},"vehicle_type_id":"4","last_reported":1739376691,"current_range_meters":30000,"station_id":"ce4bhgp2rcd13ifvqfd0","pricing_plan_id":"cebpf4jnsgd1na2vs0mg"},{"bike_id":"09a31e22-31a3-4a8b-a8f3-c6b84a9cc357","system_id":"levelo_inurba_marseille","lat":43.2756,"lon":5.38413,"is_reserved":false,"is_disabled":false,"rental_uris":{"android":"levelo://app?vid=09a31e22-31a3-4a8b-a8f3-c6b84a9cc357","ios":"levelo://app?vid=09a31e22-31a3-4a8b-a8f3-c6b84a9cc357"},"vehicle_type_id":"4","last_reported":1739376691,"current_range_meters":24000,"station_id":"ce4bhh92rcd13ifvqfi0","pricing_plan_id":"cebpf4jnsgd1na2vs0mg"},{"bike_id":"b7cfafc0-fba3-47fa-8c3d-d96c6bee1f7a","system_id":"levelo_inurba_marseille","lat":43.24382,"lon":5.37047,"is_reserved":false,"is_disabled":false,"rental_uris":{"android":"levelo://app?vid=b7cfafc0-fba3-47fa-8c3d-d96c6bee1f7a","ios":"levelo://app?vid=b7cfafc0-fba3-47fa-8c3d-d96c6bee1f7a"},"vehicle_type_id":"4","last_reported":1739376691,"current_range_meters":30000,"station_id":"ce4bhhh2rcd13ifvqfk0","pricing_plan_id":"cebpf4jnsgd1na2vs0mg"},{"bike_id":"9ba133ba-7b58-4607-8737-7fb5bce66e58","system_id":"levelo_inurba_marseille","lat":43.24383,"lon":5.37061,"is_reserved":false,"is_disabled":false,"rental_uris":{"android":"levelo://app?vid=9ba133ba-7b58-4607-8737-7fb5bce66e58","ios":"levelo://app?vid=9ba133ba-7b58-4607-8737-7fb5bce66e58"},"vehicle_type_id":"4","last_reported":1739376691,"current_range_meters":38800,"station_id":"ce4bhhh2rcd13ifvqfk0","pricing_plan_id":"cebpf4jnsgd1na2vs0mg"},{"bike_id":"24d2a29b-fa24-4c85-a726-541b11d56bc0","system_id":"levelo_inurba_marseille","lat":43.313,"lon":5.36774,"is_reserved":false,"is_disabled":false,"rental_uris":{"android":"levelo://app?vid=24d2a29b-fa24-4c85-a726-541b11d56bc0","ios":"levelo://app?vid=24d2a29b-fa24-4c85-a726-541b11d56bc0"},"vehicle_type_id":"4","last_reported":1739376691,"current_range_meters":12800,"station_id":"ce4bgr92rcd13ifvqc6g","pricing_plan_id":"cebpf4jnsgd1na2vs0mg"},{"bike_id":"e51e9b7f-5d94-429e-ad69-96e98507e25c","system_id":"levelo_inurba_marseille","lat":43.31072,"lon":5.38357,"is_reserved":false,"is_disabled":false,"rental_uris":{"android":"levelo://app?vid=e51e9b7f-5d94-429e-ad69-96e98507e25c","ios":"levelo://app?vid=e51e9b7f-5d94-429e-ad69-96e98507e25c"},"vehicle_type_id":"4","last_reported":1739376691,"current_range_meters":35600,"station_id":"ce4bgv92rcd13ifvqcr0","pricing_plan_id":"cebpf4jnsgd1na2vs0mg"},{"bike_id":"14b2070b-6ddc-42e3-b1e8-9c0cbc081f72","system_id":"levelo_inurba_marseille","lat":43.337235,"lon":5.39189,"is_reserved":false,"is_disabled":false,"rental_uris":{"android":"levelo://app?vid=14b2070b-6ddc-42e3-b1e8-9c0cbc081f72","ios":"levelo://app?vid=14b2070b-6ddc-42e3-b1e8-9c0cbc081f72"},"vehicle_type_id":"4","last_reported":1739376691,"current_range_meters":38800,"station_id":"ce4bhr92rcd13ifvqhsg","pricing_plan_id":"cebpf4jnsgd1na2vs0mg"},{"bike_id":"e57439f8-5b9e-4a94-946f-c6aac1400875","system_id":"levelo_inurba_marseille","lat":43.28878,"lon":5.35891,"is_reserved":false,"is_disabled":false,"rental_uris":{"android":"levelo://app?vid=e57439f8-5b9e-4a94-946f-c6aac1400875","ios":"levelo://app?vid=e57439f8-5b9e-4a94-946f-c6aac1400875"},"vehicle_type_id":"4","last_reported":1739376691,"current_range_meters":38000,"station_id":"ce4bhb12rcd13ifvqem0","pricing_plan_id":"cebpf4jnsgd1na2vs0mg"},{"bike_id":"90069231-8d02-46fd-ba3f-d8e7e83900ee","system_id":"levelo_inurba_marseille","lat":43.28842,"lon":5.43828,"is_reserved":false,"is_disabled":true,"rental_uris":{"android":"levelo://app?vid=90069231-8d02-46fd-ba3f-d8e7e83900ee","ios":"levelo://app?vid=90069231-8d02-46fd-ba3f-d8e7e83900ee"},"vehicle_type_id":"4","last_reported":1739376691,"current_range_meters":400,"station_id":"","pricing_plan_id":"cebpf4jnsgd1na2vs0mg"},{"bike_id":"679672e6-2052-4088-a59e-97b09e4b2e39","system_id":"levelo_inurba_marseille","lat":43.28006,"lon":5.40008,"is_reserved":false,"is_disabled":false,"rental_uris":{"android":"levelo://app?vid=679672e6-2052-4088-a59e-97b09e4b2e39","ios":"levelo://app?vid=679672e6-2052-4088-a59e-97b09e4b2e39"},"vehicle_type_id":"4","last_reported":1739376691,"current_range_meters":28000,"station_id":"ce4bho92rcd13ifvqh4g","pricing_plan_id":"cebpf4jnsgd1na2vs0mg"},{"bike_id":"c6db21d7-d9e3-4a71-aaf3-94276ad01457","system_id":"levelo_inurba_marseille","lat":43.32911,"lon":5.36028,"is_reserved":false,"is_disabled":false,"rental_uris":{"android":"levelo://app?vid=c6db21d7-d9e3-4a71-aaf3-94276ad01457","ios":"levelo://app?vid=c6db21d7-d9e3-4a71-aaf3-94276ad01457"},"vehicle_type_id":"4","last_reported":1739376691,"current_range_meters":36400,"station_id":"","pricing_plan_id":"cebpf4jnsgd1na2vs0mg"},{"bike_id":"44f448d5-f044-4e75-8ed3-09f540b01fed","system_id":"levelo_inurba_marseille","lat":43.30163,"lon":5.38089,"is_reserved":false,"is_disabled":false,"rental_uris":{"android":"levelo://app?vid=44f448d5-f044-4e75-8ed3-09f540b01fed","ios":"levelo://app?vid=44f448d5-f044-4e75-8ed3-09f540b01fed"},"vehicle_type_id":"4","last_reported":1739376691,"current_range_meters":19200,"station_id":"ce4bgjp2rcd13ifvqbh0","pricing_plan_id":"cebpf4jnsgd1na2vs0mg"},{"bike_id":"acd088e7-dc82-4cb8-8e19-47754c61567c","system_id":"levelo_inurba_marseille","lat":43.31377,"lon":5.36685,"is_reserved":false,"is_disabled":false,"rental_uris":{"android":"levelo://app?vid=acd088e7-dc82-4cb8-8e19-47754c61567c","ios":"levelo://app?vid=acd088e7-dc82-4cb8-8e19-47754c61567c"},"vehicle_type_id":"4","last_reported":1739376691,"current_range_meters":33600,"station_id":"ce4bgr92rcd13ifvqc6g","pricing_plan_id":"cebpf4jnsgd1na2vs0mg"},{"bike_id":"37fee8de-7920-4095-90fd-dbb82aabca95","system_id":"levelo_inurba_marseille","lat":43.3135,"lon":5.36729,"is_reserved":false,"is_disabled":false,"rental_uris":{"android":"levelo://app?vid=37fee8de-7920-4095-90fd-dbb82aabca95","ios":"levelo://app?vid=37fee8de-7920-4095-90fd-dbb82aabca95"},"vehicle_type_id":"4","last_reported":1739376691,"current_range_meters":28000,"station_id":"ce4bgr92rcd13ifvqc6g","pricing_plan_id":"cebpf4jnsgd1na2vs0mg"},{"bike_id":"201b14f4-65c7-45ff-8010-fe136e6675ac","system_id":"levelo_inurba_marseille","lat":43.24182,"lon":5.39721,"is_reserved":false,"is_disabled":false,"rental_uris":{"android":"levelo://app?vid=201b14f4-65c7-45ff-8010-fe136e6675ac","ios":"levelo://app?vid=201b14f4-65c7-45ff-8010-fe136e6675ac"},"vehicle_type_id":"4","last_reported":1739376691,"current_range_meters":20000,"station_id":"ce4bhn12rcd13ifvqgpg","pricing_plan_id":"cebpf4jnsgd1na2vs0mg"},{"bike_id":"37242e6f-8f9f-4fa8-a0f5-86fb1938b8b0","system_id":"levelo_inurba_marseille","lat":43.29921,"lon":5.37469,"is_reserved":false,"is_disabled":false,"rental_uris":{"android":"levelo://app?vid=37242e6f-8f9f-4fa8-a0f5-86fb1938b8b0","ios":"levelo://app?vid=37242e6f-8f9f-4fa8-a0f5-86fb1938b8b0"},"vehicle_type_id":"4","last_reported":1739376691,"current_range_meters":38800,"station_id":"ce4bgjh2rcd13ifvqbg0","pricing_plan_id":"cebpf4jnsgd1na2vs0mg"},{"bike_id":"eaf5c82c-7be8-43b1-b145-1c835a858cc9","system_id":"levelo_inurba_marseille","lat":43.27424,"lon":5.39405,"is_reserved":false,"is_disabled":false,"rental_uris":{"android":"levelo://app?vid=eaf5c82c-7be8-43b1-b145-1c835a858cc9","ios":"levelo://app?vid=eaf5c82c-7be8-43b1-b145-1c835a858cc9"},"vehicle_type_id":"4","last_reported":1739376691,"current_range_meters":38400,"station_id":"ce4bhdp2rcd13ifvqf20","pricing_plan_id":"cebpf4jnsgd1na2vs0mg"},{"bike_id":"6e7d3d9b-4a1e-44cb-a74d-08fc3df39ea4","system_id":"levelo_inurba_marseille","lat":43.25739,"lon":5.41122,"is_reserved":false,"is_disabled":false,"rental_uris":{"android":"levelo://app?vid=6e7d3d9b-4a1e-44cb-a74d-08fc3df39ea4","ios":"levelo://app?vid=6e7d3d9b-4a1e-44cb-a74d-08fc3df39ea4"},"vehicle_type_id":"4","last_reported":1739376691,"current_range_meters":23200,"station_id":"ce4bhkp2rcd13ifvqgd0","pricing_plan_id":"cebpf4jnsgd1na2vs0mg"},{"bike_id":"0a77f424-9d7d-4010-bd33-1687a2ffd57e","system_id":"levelo_inurba_marseille","lat":43.24805,"lon":5.37454,"is_reserved":false,"is_disabled":false,"rental_uris":{"android":"levelo://app?vid=0a77f424-9d7d-4010-bd33-1687a2ffd57e","ios":"levelo://app?vid=0a77f424-9d7d-4010-bd33-1687a2ffd57e"},"vehicle_type_id":"4","last_reported":1739376691,"current_range_meters":9600,"station_id":"ce4bhgh2rcd13ifvqfb0","pricing_plan_id":"cebpf4jnsgd1na2vs0mg"},{"bike_id":"7ceeb2e5-8673-48b0-9f08-9e1430bd1bc6","system_id":"levelo_inurba_marseille","lat":43.28441,"lon":5.38471,"is_reserved":false,"is_disabled":false,"rental_uris":{"android":"levelo://app?vid=7ceeb2e5-8673-48b0-9f08-9e1430bd1bc6","ios":"levelo://app?vid=7ceeb2e5-8673-48b0-9f08-9e1430bd1bc6"},"vehicle_type_id":"4","last_reported":1739376691,"current_range_meters":38400,"station_id":"","pricing_plan_id":"cebpf4jnsgd1na2vs0mg"},{"bike_id":"c2250f20-2283-4e17-b7ce-382f2f740aa1","system_id":"levelo_inurba_marseille","lat":43.24806,"lon":5.37453,"is_reserved":false,"is_disabled":false,"rental_uris":{"android":"levelo://app?vid=c2250f20-2283-4e17-b7ce-382f2f740aa1","ios":"levelo://app?vid=c2250f20-2283-4e17-b7ce-382f2f740aa1"},"vehicle_type_id":"4","last_reported":1739376691,"current_range_meters":39200,"station_id":"ce4bhgh2rcd13ifvqfb0","pricing_plan_id":"cebpf4jnsgd1na2vs0mg"},{"bike_id":"0199fbd8-d59d-42ac-a445-d05a8f60ab5d","system_id":"levelo_inurba_marseille","lat":43.24815,"lon":5.3746,"is_reserved":false,"is_disabled":false,"rental_uris":{"android":"levelo://app?vid=0199fbd8-d59d-42ac-a445-d05a8f60ab5d","ios":"levelo://app?vid=0199fbd8-d59d-42ac-a445-d05a8f60ab5d"},"vehicle_type_id":"4","last_reported":1739376691,"current_range_meters":32800,"station_id":"ce4bhgh2rcd13ifvqfb0","pricing_plan_id":"cebpf4jnsgd1na2vs0mg"},{"bike_id":"d52467fa-3015-4742-aee2-f7ab48c12d28","system_id":"levelo_inurba_marseille","lat":43.30328,"lon":5.36897,"is_reserved":false,"is_disabled":false,"rental_uris":{"android":"levelo://app?vid=d52467fa-3015-4742-aee2-f7ab48c12d28","ios":"levelo://app?vid=d52467fa-3015-4742-aee2-f7ab48c12d28"},"vehicle_type_id":"4","last_reported":1739376691,"current_range_meters":14400,"station_id":"ce4bgqh2rcd13ifvqc5g","pricing_plan_id":"cebpf4jnsgd1na2vs0mg"},{"bike_id":"c58942ac-ae7b-4236-9f97-e8337c9decd6","system_id":"levelo_inurba_marseille","lat":43.29599,"lon":5.37702,"is_reserved":false,"is_disabled":false,"rental_uris":{"android":"levelo://app?vid=c58942ac-ae7b-4236-9f97-e8337c9decd6","ios":"levelo://app?vid=c58942ac-ae7b-4236-9f97-e8337c9decd6"},"vehicle_type_id":"4","last_reported":1739376691,"current_range_meters":36400,"station_id":"ce4bgi92rcd13ifvqb90","pricing_plan_id":"cebpf4jnsgd1na2vs0mg"},{"bike_id":"fe3424e3-a348-48e5-9e41-be02e3e2afed","system_id":"levelo_inurba_marseille","lat":43.27449,"lon":5.41045,"is_reserved":false,"is_disabled":false,"rental_uris":{"android":"levelo://app?vid=fe3424e3-a348-48e5-9e41-be02e3e2afed","ios":"levelo://app?vid=fe3424e3-a348-48e5-9e41-be02e3e2afed"},"vehicle_type_id":"4","last_reported":1739376691,"current_range_meters":21600,"station_id":"","pricing_plan_id":"cebpf4jnsgd1na2vs0mg"},{"bike_id":"21082117-6dfd-4afa-a6d7-59526844d369","system_id":"levelo_inurba_marseille","lat":43.29036,"lon":5.359,"is_reserved":false,"is_disabled":false,"rental_uris":{"android":"levelo://app?vid=21082117-6dfd-4afa-a6d7-59526844d369","ios":"levelo://app?vid=21082117-6dfd-4afa-a6d7-59526844d369"},"vehicle_type_id":"4","last_reported":1739376691,"current_range_meters":30800,"station_id":"ce4bha92rcd13ifvqeg0","pricing_plan_id":"cebpf4jnsgd1na2vs0mg"},{"bike_id":"c6ab2079-aa0d-4c6d-8608-a1cea0571a2d","system_id":"levelo_inurba_marseille","lat":43.32669,"lon":5.43062,"is_reserved":false,"is_disabled":true,"rental_uris":{"android":"levelo://app?vid=c6ab2079-aa0d-4c6d-8608-a1cea0571a2d","ios":"levelo://app?vid=c6ab2079-aa0d-4c6d-8608-a1cea0571a2d"},"vehicle_type_id":"4","last_reported":1739376691,"current_range_meters":0,"station_id":"","pricing_plan_id":"cebpf4jnsgd1na2vs0mg"},{"bike_id":"d3b58dda-3b0c-4227-b0cb-8890146ef189","system_id":"levelo_inurba_marseille","lat":43.30482,"lon":5.36472,"is_reserved":false,"is_disabled":false,"rental_uris":{"android":"levelo://app?vid=d3b58dda-3b0c-4227-b0cb-8890146ef189","ios":"levelo://app?vid=d3b58dda-3b0c-4227-b0cb-8890146ef189"},"vehicle_type_id":"4","last_reported":1739376691,"current_range_meters":38800,"station_id":"ce4bgs12rcd13ifvqcag","pricing_plan_id":"cebpf4jnsgd1na2vs0mg"},{"bike_id":"30b76049-e41b-4adb-862f-755fe2524e05","system_id":"levelo_inurba_marseille","lat":43.288513,"lon":5.393247,"is_reserved":false,"is_disabled":true,"rental_uris":{"android":"levelo://app?vid=30b76049-e41b-4adb-862f-755fe2524e05","ios":"levelo://app?vid=30b76049-e41b-4adb-862f-755fe2524e05"},"vehicle_type_id":"4","last_reported":1739376691,"current_range_meters":35600,"station_id":"","pricing_plan_id":"cebpf4jnsgd1na2vs0mg"},{"bike_id":"084550d1-0260-4e97-97a5-5804dceb22a6","system_id":"levelo_inurba_marseille","lat":43.30895,"lon":5.3967,"is_reserved":false,"is_disabled":false,"rental_uris":{"android":"levelo://app?vid=084550d1-0260-4e97-97a5-5804dceb22a6","ios":"levelo://app?vid=084550d1-0260-4e97-97a5-5804dceb22a6"},"vehicle_type_id":"4","last_reported":1739376691,"current_range_meters":38000,"station_id":"ce4bh012rcd13ifvqcv0","pricing_plan_id":"cebpf4jnsgd1na2vs0mg"},{"bike_id":"aad67b6d-b767-4bdd-93aa-808f80e1494e","system_id":"levelo_inurba_marseille","lat":43.29797,"lon":5.40402,"is_reserved":false,"is_disabled":false,"rental_uris":{"android":"levelo://app?vid=aad67b6d-b767-4bdd-93aa-808f80e1494e","ios":"levelo://app?vid=aad67b6d-b767-4bdd-93aa-808f80e1494e"},"vehicle_type_id":"4","last_reported":1739376691,"current_range_meters":9200,"station_id":"ce4bh112rcd13ifvqd90","pricing_plan_id":"cebpf4jnsgd1na2vs0mg"},{"bike_id":"ebaf1afe-6793-4830-8b43-689bbe41f293","system_id":"levelo_inurba_marseille","lat":43.30436,"lon":5.38894,"is_reserved":false,"is_disabled":false,"rental_uris":{"android":"levelo://app?vid=ebaf1afe-6793-4830-8b43-689bbe41f293","ios":"levelo://app?vid=ebaf1afe-6793-4830-8b43-689bbe41f293"},"vehicle_type_id":"4","last_reported":1739376691,"current_range_meters":20000,"station_id":"ce4bgk12rcd13ifvqbi0","pricing_plan_id":"cebpf4jnsgd1na2vs0mg"},{"bike_id":"2c7e9a1a-f41b-4230-ad31-fa1174cac54e","system_id":"levelo_inurba_marseille","lat":43.32286,"lon":5.39047,"is_reserved":false,"is_disabled":false,"rental_uris":{"android":"levelo://app?vid=2c7e9a1a-f41b-4230-ad31-fa1174cac54e","ios":"levelo://app?vid=2c7e9a1a-f41b-4230-ad31-fa1174cac54e"},"vehicle_type_id":"4","last_reported":1739376691,"current_range_meters":14400,"station_id":"","pricing_plan_id":"cebpf4jnsgd1na2vs0mg"},{"bike_id":"4ab1b51d-744a-478f-aa7d-db2d8c73c847","system_id":"levelo_inurba_marseille","lat":43.29444,"lon":5.39754,"is_reserved":false,"is_disabled":false,"rental_uris":{"android":"levelo://app?vid=4ab1b51d-744a-478f-aa7d-db2d8c73c847","ios":"levelo://app?vid=4ab1b51d-744a-478f-aa7d-db2d8c73c847"},"vehicle_type_id":"4","last_reported":1739376691,"current_range_meters":35200,"station_id":"ce4bh3h2rcd13ifvqdo0","pricing_plan_id":"cebpf4jnsgd1na2vs0mg"},{"bike_id":"a930674e-97dd-46b9-9d6b-611f8a93e945","system_id":"levelo_inurba_marseille","lat":43.24075,"lon":5.37753,"is_reserved":false,"is_disabled":true,"rental_uris":{"android":"levelo://app?vid=a930674e-97dd-46b9-9d6b-611f8a93e945","ios":"levelo://app?vid=a930674e-97dd-46b9-9d6b-611f8a93e945"},"vehicle_type_id":"4","last_reported":1739376691,"current_range_meters":0,"station_id":"ce4bhnp2rcd13ifvqgvg","pricing_plan_id":"cebpf4jnsgd1na2vs0mg"},{"bike_id":"f9f30f0b-1a80-4d54-bb89-d92dcc515c4e","system_id":"levelo_inurba_marseille","lat":43.26933,"lon":5.38913,"is_reserved":false,"is_disabled":false,"rental_uris":{"android":"levelo://app?vid=f9f30f0b-1a80-4d54-bb89-d92dcc515c4e","ios":"levelo://app?vid=f9f30f0b-1a80-4d54-bb89-d92dcc515c4e"},"vehicle_type_id":"4","last_reported":1739376691,"current_range_meters":39200,"station_id":"ce4bhhh2rcd13ifvqfl0","pricing_plan_id":"cebpf4jnsgd1na2vs0mg"},{"bike_id":"56601044-7ee0-45ff-bd13-f686208b330f","system_id":"levelo_inurba_marseille","lat":43.29532,"lon":5.38555,"is_reserved":false,"is_disabled":false,"rental_uris":{"android":"levelo://app?vid=56601044-7ee0-45ff-bd13-f686208b330f","ios":"levelo://app?vid=56601044-7ee0-45ff-bd13-f686208b330f"},"vehicle_type_id":"4","last_reported":1739376691,"current_range_meters":23200,"station_id":"ce4bgih2rcd13ifvqba0","pricing_plan_id":"cebpf4jnsgd1na2vs0mg"},{"bike_id":"e2795b95-7fa2-4abe-8ee0-5ed1271dba7b","system_id":"levelo_inurba_marseille","lat":43.2985,"lon":5.36276,"is_reserved":false,"is_disabled":false,"rental_uris":{"android":"levelo://app?vid=e2795b95-7fa2-4abe-8ee0-5ed1271dba7b","ios":"levelo://app?vid=e2795b95-7fa2-4abe-8ee0-5ed1271dba7b"},"vehicle_type_id":"4","last_reported":1739376691,"current_range_meters":28400,"station_id":"ce4bgpp2rcd13ifvqc3g","pricing_plan_id":"cebpf4jnsgd1na2vs0mg"},{"bike_id":"b1b93a49-25bc-4589-b584-866c5f20cedd","system_id":"levelo_inurba_marseille","lat":43.31622,"lon":5.37655,"is_reserved":false,"is_disabled":false,"rental_uris":{"android":"levelo://app?vid=b1b93a49-25bc-4589-b584-866c5f20cedd","ios":"levelo://app?vid=b1b93a49-25bc-4589-b584-866c5f20cedd"},"vehicle_type_id":"4","last_reported":1739376691,"current_range_meters":7200,"station_id":"","pricing_plan_id":"cebpf4jnsgd1na2vs0mg"},{"bike_id":"5dda4341-95b1-4817-8c08-ca478357870f","system_id":"levelo_inurba_marseille","lat":43.29909,"lon":5.37482,"is_reserved":false,"is_disabled":false,"rental_uris":{"android":"levelo://app?vid=5dda4341-95b1-4817-8c08-ca478357870f","ios":"levelo://app?vid=5dda4341-95b1-4817-8c08-ca478357870f"},"vehicle_type_id":"4","last_reported":1739376691,"current_range_meters":32000,"station_id":"ce4bgjh2rcd13ifvqbg0","pricing_plan_id":"cebpf4jnsgd1na2vs0mg"},{"bike_id":"97802ab1-46d9-4588-ae82-3852c381fb81","system_id":"levelo_inurba_marseille","lat":43.28723,"lon":5.37931,"is_reserved":false,"is_disabled":false,"rental_uris":{"android":"levelo://app?vid=97802ab1-46d9-4588-ae82-3852c381fb81","ios":"levelo://app?vid=97802ab1-46d9-4588-ae82-3852c381fb81"},"vehicle_type_id":"4","last_reported":1739376691,"current_range_meters":11600,"station_id":"ce4bh9p2rcd13ifvqec0","pricing_plan_id":"cebpf4jnsgd1na2vs0mg"},{"bike_id":"04d4b8ab-1d4d-44ab-9d49-e10f569c0553","system_id":"levelo_inurba_marseille","lat":43.29842,"lon":5.36255,"is_reserved":false,"is_disabled":false,"rental_uris":{"android":"levelo://app?vid=04d4b8ab-1d4d-44ab-9d49-e10f569c0553","ios":"levelo://app?vid=04d4b8ab-1d4d-44ab-9d49-e10f569c0553"},"vehicle_type_id":"4","last_reported":1739376691,"current_range_meters":32400,"station_id":"ce4bgpp2rcd13ifvqc3g","pricing_plan_id":"cebpf4jnsgd1na2vs0mg"},{"bike_id":"1e27a57f-c848-41af-a2d3-5d053a440eb3","system_id":"levelo_inurba_marseille","lat":43.32579,"lon":5.43074,"is_reserved":false,"is_disabled":false,"rental_uris":{"android":"levelo://app?vid=1e27a57f-c848-41af-a2d3-5d053a440eb3","ios":"levelo://app?vid=1e27a57f-c848-41af-a2d3-5d053a440eb3"},"vehicle_type_id":"4","last_reported":1739376691,"current_range_meters":16000,"station_id":"","pricing_plan_id":"cebpf4jnsgd1na2vs0mg"},{"bike_id":"8cbc85ae-5efb-4839-ab11-31ece470af18","system_id":"levelo_inurba_marseille","lat":43.29225,"lon":5.36066,"is_reserved":false,"is_disabled":false,"rental_uris":{"android":"levelo://app?vid=8cbc85ae-5efb-4839-ab11-31ece470af18","ios":"levelo://app?vid=8cbc85ae-5efb-4839-ab11-31ece470af18"},"vehicle_type_id":"4","last_reported":1739376691,"current_range_meters":22400,"station_id":"ce4bhbh2rcd13ifvqeqg","pricing_plan_id":"cebpf4jnsgd1na2vs0mg"},{"bike_id":"60b283a1-229b-4adb-83f1-d1d7d9987d23","system_id":"levelo_inurba_marseille","lat":43.29048,"lon":5.35896,"is_reserved":false,"is_disabled":false,"rental_uris":{"android":"levelo://app?vid=60b283a1-229b-4adb-83f1-d1d7d9987d23","ios":"levelo://app?vid=60b283a1-229b-4adb-83f1-d1d7d9987d23"},"vehicle_type_id":"4","last_reported":1739376691,"current_range_meters":25600,"station_id":"ce4bha92rcd13ifvqeg0","pricing_plan_id":"cebpf4jnsgd1na2vs0mg"},{"bike_id":"c4813b27-4250-43ea-8be5-ccd7321d2af3","system_id":"levelo_inurba_marseille","lat":43.282159,"lon":5.369886,"is_reserved":false,"is_disabled":false,"rental_uris":{"android":"levelo://app?vid=c4813b27-4250-43ea-8be5-ccd7321d2af3","ios":"levelo://app?vid=c4813b27-4250-43ea-8be5-ccd7321d2af3"},"vehicle_type_id":"4","last_reported":1739376691,"current_range_meters":17200,"station_id":"","pricing_plan_id":"cebpf4jnsgd1na2vs0mg"},{"bike_id":"e34f1fd3-53eb-4292-8a8d-c55fff78975a","system_id":"levelo_inurba_marseille","lat":43.26941,"lon":5.40259,"is_reserved":false,"is_disabled":false,"rental_uris":{"android":"levelo://app?vid=e34f1fd3-53eb-4292-8a8d-c55fff78975a","ios":"levelo://app?vid=e34f1fd3-53eb-4292-8a8d-c55fff78975a"},"vehicle_type_id":"4","last_reported":1739376691,"current_range_meters":15200,"station_id":"cjm6bp8fraef2m0cb0m0","pricing_plan_id":"cebpf4jnsgd1na2vs0mg"},{"bike_id":"728be96f-7972-4f4c-b020-cf451b83734c","system_id":"levelo_inurba_marseille","lat":43.29536,"lon":5.38544,"is_reserved":false,"is_disabled":false,"rental_uris":{"android":"levelo://app?vid=728be96f-7972-4f4c-b020-cf451b83734c","ios":"levelo://app?vid=728be96f-7972-4f4c-b020-cf451b83734c"},"vehicle_type_id":"4","last_reported":1739376691,"current_range_meters":7200,"station_id":"ce4bgih2rcd13ifvqba0","pricing_plan_id":"cebpf4jnsgd1na2vs0mg"},{"bike_id":"1de73e25-ff8d-48e4-b233-aa72fbfafe39","system_id":"levelo_inurba_marseille","lat":43.29615,"lon":5.37758,"is_reserved":false,"is_disabled":false,"rental_uris":{"android":"levelo://app?vid=1de73e25-ff8d-48e4-b233-aa72fbfafe39","ios":"levelo://app?vid=1de73e25-ff8d-48e4-b233-aa72fbfafe39"},"vehicle_type_id":"4","last_reported":1739376691,"current_range_meters":31200,"station_id":"ce4bgi92rcd13ifvqb90","pricing_plan_id":"cebpf4jnsgd1na2vs0mg"},{"bike_id":"96150649-1737-4ecb-b5b5-dd12c73771f5","system_id":"levelo_inurba_marseille","lat":43.26802,"lon":5.39427,"is_reserved":false,"is_disabled":true,"rental_uris":{"android":"levelo://app?vid=96150649-1737-4ecb-b5b5-dd12c73771f5","ios":"levelo://app?vid=96150649-1737-4ecb-b5b5-dd12c73771f5"},"vehicle_type_id":"4","last_reported":1739376691,"current_range_meters":800,"station_id":"ce4bhh12rcd13ifvqfg0","pricing_plan_id":"cebpf4jnsgd1na2vs0mg"},{"bike_id":"7399132f-cac0-47dd-97c2-a8a020c2c9ec","system_id":"levelo_inurba_marseille","lat":43.25934,"lon":5.40902,"is_reserved":false,"is_disabled":false,"rental_uris":{"android":"levelo://app?vid=7399132f-cac0-47dd-97c2-a8a020c2c9ec","ios":"levelo://app?vid=7399132f-cac0-47dd-97c2-a8a020c2c9ec"},"vehicle_type_id":"4","last_reported":1739376691,"current_range_meters":30000,"station_id":"ce4bhm92rcd13ifvqglg","pricing_plan_id":"cebpf4jnsgd1na2vs0mg"},{"bike_id":"4b07968d-31b2-46ed-a708-c8206d913e2e","system_id":"levelo_inurba_marseille","lat":43.29261,"lon":5.40921,"is_reserved":false,"is_disabled":false,"rental_uris":{"android":"levelo://app?vid=4b07968d-31b2-46ed-a708-c8206d913e2e","ios":"levelo://app?vid=4b07968d-31b2-46ed-a708-c8206d913e2e"},"vehicle_type_id":"4","last_reported":1739376691,"current_range_meters":38400,"station_id":"ce4bh192rcd13ifvqdc0","pricing_plan_id":"cebpf4jnsgd1na2vs0mg"},{"bike_id":"9815b9eb-0f43-4277-ab40-4cfab6caf5f3","system_id":"levelo_inurba_marseille","lat":43.28042,"lon":5.36957,"is_reserved":false,"is_disabled":true,"rental_uris":{"android":"levelo://app?vid=9815b9eb-0f43-4277-ab40-4cfab6caf5f3","ios":"levelo://app?vid=9815b9eb-0f43-4277-ab40-4cfab6caf5f3"},"vehicle_type_id":"4","last_reported":1739376691,"current_range_meters":1200,"station_id":"ce4bha12rcd13ifvqef0","pricing_plan_id":"cebpf4jnsgd1na2vs0mg"},{"bike_id":"26f80c00-3d4b-4208-bb33-78f67b211efa","system_id":"levelo_inurba_marseille","lat":43.27055,"lon":5.40261,"is_reserved":false,"is_disabled":false,"rental_uris":{"android":"levelo://app?vid=26f80c00-3d4b-4208-bb33-78f67b211efa","ios":"levelo://app?vid=26f80c00-3d4b-4208-bb33-78f67b211efa"},"vehicle_type_id":"4","last_reported":1739376691,"current_range_meters":30800,"station_id":"ce4bhk92rcd13ifvqgc0","pricing_plan_id":"cebpf4jnsgd1na2vs0mg"},{"bike_id":"bf538d74-9cc1-4e40-9c76-a7da8b39a6e1","system_id":"levelo_inurba_marseille","lat":43.27952,"lon":5.4103,"is_reserved":false,"is_disabled":false,"rental_uris":{"android":"levelo://app?vid=bf538d74-9cc1-4e40-9c76-a7da8b39a6e1","ios":"levelo://app?vid=bf538d74-9cc1-4e40-9c76-a7da8b39a6e1"},"vehicle_type_id":"4","last_reported":1739376691,"current_range_meters":37600,"station_id":"ce4bhnp2rcd13ifvqh0g","pricing_plan_id":"cebpf4jnsgd1na2vs0mg"},{"bike_id":"1acfb2f9-81ed-48e3-881f-51dd557ffb42","system_id":"levelo_inurba_marseille","lat":43.23959,"lon":5.36636,"is_reserved":false,"is_disabled":false,"rental_uris":{"android":"levelo://app?vid=1acfb2f9-81ed-48e3-881f-51dd557ffb42","ios":"levelo://app?vid=1acfb2f9-81ed-48e3-881f-51dd557ffb42"},"vehicle_type_id":"4","last_reported":1739376691,"current_range_meters":37600,"station_id":"ce4bhi12rcd13ifvqfp0","pricing_plan_id":"cebpf4jnsgd1na2vs0mg"},{"bike_id":"a936910b-d275-4aab-8dd0-56a31b82484c","system_id":"levelo_inurba_marseille","lat":43.29713,"lon":5.37701,"is_reserved":false,"is_disabled":false,"rental_uris":{"android":"levelo://app?vid=a936910b-d275-4aab-8dd0-56a31b82484c","ios":"levelo://app?vid=a936910b-d275-4aab-8dd0-56a31b82484c"},"vehicle_type_id":"4","last_reported":1739376691,"current_range_meters":8000,"station_id":"ce4bgkh2rcd13ifvqbl0","pricing_plan_id":"cebpf4jnsgd1na2vs0mg"},{"bike_id":"ee2e1f34-7a57-4fc7-881f-b33a3e6cdadf","system_id":"levelo_inurba_marseille","lat":43.29626,"lon":5.37222,"is_reserved":false,"is_disabled":false,"rental_uris":{"android":"levelo://app?vid=ee2e1f34-7a57-4fc7-881f-b33a3e6cdadf","ios":"levelo://app?vid=ee2e1f34-7a57-4fc7-881f-b33a3e6cdadf"},"vehicle_type_id":"4","last_reported":1739376691,"current_range_meters":35200,"station_id":"","pricing_plan_id":"cebpf4jnsgd1na2vs0mg"},{"bike_id":"8d2d4012-ff69-4800-927a-45caff6cd054","system_id":"levelo_inurba_marseille","lat":43.23153,"lon":5.43703,"is_reserved":false,"is_disabled":false,"rental_uris":{"android":"levelo://app?vid=8d2d4012-ff69-4800-927a-45caff6cd054","ios":"levelo://app?vid=8d2d4012-ff69-4800-927a-45caff6cd054"},"vehicle_type_id":"4","last_reported":1739376691,"current_range_meters":14800,"station_id":"ce4bhmp2rcd13ifvqgog","pricing_plan_id":"cebpf4jnsgd1na2vs0mg"},{"bike_id":"1ec14052-2d33-4aa1-9ab8-58cc71db74d1","system_id":"levelo_inurba_marseille","lat":43.24167,"lon":5.36403,"is_reserved":false,"is_disabled":false,"rental_uris":{"android":"levelo://app?vid=1ec14052-2d33-4aa1-9ab8-58cc71db74d1","ios":"levelo://app?vid=1ec14052-2d33-4aa1-9ab8-58cc71db74d1"},"vehicle_type_id":"4","last_reported":1739376691,"current_range_meters":9200,"station_id":"cpo36qri1sfpv3e86is0","pricing_plan_id":"cebpf4jnsgd1na2vs0mg"},{"bike_id":"6e58a69c-2a4e-4c49-840d-6e728a603acb","system_id":"levelo_inurba_marseille","lat":43.230669,"lon":5.354967,"is_reserved":false,"is_disabled":false,"rental_uris":{"android":"levelo://app?vid=6e58a69c-2a4e-4c49-840d-6e728a603acb","ios":"levelo://app?vid=6e58a69c-2a4e-4c49-840d-6e728a603acb"},"vehicle_type_id":"4","last_reported":1739376691,"current_range_meters":8800,"station_id":"cpo3342slgdg3j2ifvpg","pricing_plan_id":"cebpf4jnsgd1na2vs0mg"},{"bike_id":"7a1779de-03f7-40d5-aa7a-78e758f375cc","system_id":"levelo_inurba_marseille","lat":43.30411,"lon":5.41285,"is_reserved":false,"is_disabled":false,"rental_uris":{"android":"levelo://app?vid=7a1779de-03f7-40d5-aa7a-78e758f375cc","ios":"levelo://app?vid=7a1779de-03f7-40d5-aa7a-78e758f375cc"},"vehicle_type_id":"4","last_reported":1739376691,"current_range_meters":37600,"station_id":"ce4bhop2rcd13ifvqh8g","pricing_plan_id":"cebpf4jnsgd1na2vs0mg"},{"bike_id":"bb8d4545-1dfa-4929-b03f-e7a6dbc7e511","system_id":"levelo_inurba_marseille","lat":43.3043,"lon":5.38904,"is_reserved":false,"is_disabled":false,"rental_uris":{"android":"levelo://app?vid=bb8d4545-1dfa-4929-b03f-e7a6dbc7e511","ios":"levelo://app?vid=bb8d4545-1dfa-4929-b03f-e7a6dbc7e511"},"vehicle_type_id":"4","last_reported":1739376691,"current_range_meters":11200,"station_id":"ce4bgk12rcd13ifvqbi0","pricing_plan_id":"cebpf4jnsgd1na2vs0mg"},{"bike_id":"fc855d4e-cf92-48ad-b751-57eb2469a89a","system_id":"levelo_inurba_marseille","lat":43.32482,"lon":5.36554,"is_reserved":false,"is_disabled":false,"rental_uris":{"android":"levelo://app?vid=fc855d4e-cf92-48ad-b751-57eb2469a89a","ios":"levelo://app?vid=fc855d4e-cf92-48ad-b751-57eb2469a89a"},"vehicle_type_id":"4","last_reported":1739376691,"current_range_meters":38800,"station_id":"ce4bhs12rcd13ifvqhvg","pricing_plan_id":"cebpf4jnsgd1na2vs0mg"},{"bike_id":"79df8d93-a019-4f4d-ad9b-607d770a7910","system_id":"levelo_inurba_marseille","lat":43.29403,"lon":5.38886,"is_reserved":false,"is_disabled":false,"rental_uris":{"android":"levelo://app?vid=79df8d93-a019-4f4d-ad9b-607d770a7910","ios":"levelo://app?vid=79df8d93-a019-4f4d-ad9b-607d770a7910"},"vehicle_type_id":"4","last_reported":1739376691,"current_range_meters":21600,"station_id":"","pricing_plan_id":"cebpf4jnsgd1na2vs0mg"},{"bike_id":"3fdb8bd5-7814-4234-bbe8-bda070fabaea","system_id":"levelo_inurba_marseille","lat":43.30426,"lon":5.38099,"is_reserved":false,"is_disabled":false,"rental_uris":{"android":"levelo://app?vid=3fdb8bd5-7814-4234-bbe8-bda070fabaea","ios":"levelo://app?vid=3fdb8bd5-7814-4234-bbe8-bda070fabaea"},"vehicle_type_id":"4","last_reported":1739376691,"current_range_meters":36400,"station_id":"ce4bgg92rcd13ifvqb30","pricing_plan_id":"cebpf4jnsgd1na2vs0mg"},{"bike_id":"3ce6ec9a-a388-4f67-ba41-a371735d7bb6","system_id":"levelo_inurba_marseille","lat":43.29535,"lon":5.38544,"is_reserved":false,"is_disabled":false,"rental_uris":{"android":"levelo://app?vid=3ce6ec9a-a388-4f67-ba41-a371735d7bb6","ios":"levelo://app?vid=3ce6ec9a-a388-4f67-ba41-a371735d7bb6"},"vehicle_type_id":"4","last_reported":1739376691,"current_range_meters":32000,"station_id":"ce4bgih2rcd13ifvqba0","pricing_plan_id":"cebpf4jnsgd1na2vs0mg"},{"bike_id":"44514e78-42ff-4ff2-9daa-fb6f06418abb","system_id":"levelo_inurba_marseille","lat":43.29967,"lon":5.38504,"is_reserved":false,"is_disabled":false,"rental_uris":{"android":"levelo://app?vid=44514e78-42ff-4ff2-9daa-fb6f06418abb","ios":"levelo://app?vid=44514e78-42ff-4ff2-9daa-fb6f06418abb"},"vehicle_type_id":"4","last_reported":1739376691,"current_range_meters":38000,"station_id":"ce4bgj92rcd13ifvqbd0","pricing_plan_id":"cebpf4jnsgd1na2vs0mg"},{"bike_id":"04e79b02-26b7-408e-8d07-a04361b8a27a","system_id":"levelo_inurba_marseille","lat":43.23189,"lon":5.39987,"is_reserved":false,"is_disabled":false,"rental_uris":{"android":"levelo://app?vid=04e79b02-26b7-408e-8d07-a04361b8a27a","ios":"levelo://app?vid=04e79b02-26b7-408e-8d07-a04361b8a27a"},"vehicle_type_id":"4","last_reported":1739376691,"current_range_meters":39200,"station_id":"ce4bhn12rcd13ifvqgqg","pricing_plan_id":"cebpf4jnsgd1na2vs0mg"},{"bike_id":"572e4df0-3721-49ae-aa88-71e97fe4810a","system_id":"levelo_inurba_marseille","lat":43.29049,"lon":5.35914,"is_reserved":false,"is_disabled":false,"rental_uris":{"android":"levelo://app?vid=572e4df0-3721-49ae-aa88-71e97fe4810a","ios":"levelo://app?vid=572e4df0-3721-49ae-aa88-71e97fe4810a"},"vehicle_type_id":"4","last_reported":1739376691,"current_range_meters":16400,"station_id":"ce4bha92rcd13ifvqeg0","pricing_plan_id":"cebpf4jnsgd1na2vs0mg"},{"bike_id":"0c9e475a-5b2a-4fa7-b262-03d1021e0957","system_id":"levelo_inurba_marseille","lat":43.27619,"lon":5.36113,"is_reserved":false,"is_disabled":false,"rental_uris":{"android":"levelo://app?vid=0c9e475a-5b2a-4fa7-b262-03d1021e0957","ios":"levelo://app?vid=0c9e475a-5b2a-4fa7-b262-03d1021e0957"},"vehicle_type_id":"4","last_reported":1739376691,"current_range_meters":8000,"station_id":"ce4bgj92rcd13ifvqbe0","pricing_plan_id":"cebpf4jnsgd1na2vs0mg"},{"bike_id":"9b2f27b9-cc53-4a28-88cb-f588fa596c80","system_id":"levelo_inurba_marseille","lat":43.29967,"lon":5.37188,"is_reserved":false,"is_disabled":false,"rental_uris":{"android":"levelo://app?vid=9b2f27b9-cc53-4a28-88cb-f588fa596c80","ios":"levelo://app?vid=9b2f27b9-cc53-4a28-88cb-f588fa596c80"},"vehicle_type_id":"4","last_reported":1739376691,"current_range_meters":38800,"station_id":"ce4bgr92rcd13ifvqc7g","pricing_plan_id":"cebpf4jnsgd1na2vs0mg"},{"bike_id":"9e959baa-c12c-421b-ae7e-498336eaac08","system_id":"levelo_inurba_marseille","lat":43.25019,"lon":5.38934,"is_reserved":false,"is_disabled":false,"rental_uris":{"android":"levelo://app?vid=9e959baa-c12c-421b-ae7e-498336eaac08","ios":"levelo://app?vid=9e959baa-c12c-421b-ae7e-498336eaac08"},"vehicle_type_id":"4","last_reported":1739376691,"current_range_meters":30000,"station_id":"ce4bhgp2rcd13ifvqfd0","pricing_plan_id":"cebpf4jnsgd1na2vs0mg"},{"bike_id":"9d15f461-e900-4549-a0ec-9e3ebec5d05d","system_id":"levelo_inurba_marseille","lat":43.29227,"lon":5.36072,"is_reserved":false,"is_disabled":false,"rental_uris":{"android":"levelo://app?vid=9d15f461-e900-4549-a0ec-9e3ebec5d05d","ios":"levelo://app?vid=9d15f461-e900-4549-a0ec-9e3ebec5d05d"},"vehicle_type_id":"4","last_reported":1739376691,"current_range_meters":9600,"station_id":"ce4bhbh2rcd13ifvqeqg","pricing_plan_id":"cebpf4jnsgd1na2vs0mg"},{"bike_id":"95238438-aee1-472d-8c03-6f5da0f062d1","system_id":"levelo_inurba_marseille","lat":43.31234,"lon":5.36862,"is_reserved":false,"is_disabled":false,"rental_uris":{"android":"levelo://app?vid=95238438-aee1-472d-8c03-6f5da0f062d1","ios":"levelo://app?vid=95238438-aee1-472d-8c03-6f5da0f062d1"},"vehicle_type_id":"4","last_reported":1739376691,"current_range_meters":14400,"station_id":"ce4bgl92rcd13ifvqbq0","pricing_plan_id":"cebpf4jnsgd1na2vs0mg"},{"bike_id":"d0ad52f1-a31b-49f5-8838-a14fb1c8b229","system_id":"levelo_inurba_marseille","lat":43.30931,"lon":5.40151,"is_reserved":false,"is_disabled":false,"rental_uris":{"android":"levelo://app?vid=d0ad52f1-a31b-49f5-8838-a14fb1c8b229","ios":"levelo://app?vid=d0ad52f1-a31b-49f5-8838-a14fb1c8b229"},"vehicle_type_id":"4","last_reported":1739376691,"current_range_meters":29600,"station_id":"ce4bgvp2rcd13ifvqct0","pricing_plan_id":"cebpf4jnsgd1na2vs0mg"},{"bike_id":"baad5659-cb9d-43f2-9716-904de7bd05d8","system_id":"levelo_inurba_marseille","lat":43.29788,"lon":5.37104,"is_reserved":false,"is_disabled":false,"rental_uris":{"android":"levelo://app?vid=baad5659-cb9d-43f2-9716-904de7bd05d8","ios":"levelo://app?vid=baad5659-cb9d-43f2-9716-904de7bd05d8"},"vehicle_type_id":"4","last_reported":1739376691,"current_range_meters":39200,"station_id":"ce4bgop2rcd13ifvqc1g","pricing_plan_id":"cebpf4jnsgd1na2vs0mg"},{"bike_id":"4c8013cb-1ccb-4ed2-8a7c-86d7e68a4264","system_id":"levelo_inurba_marseille","lat":43.30551,"lon":5.36572,"is_reserved":false,"is_disabled":false,"rental_uris":{"android":"levelo://app?vid=4c8013cb-1ccb-4ed2-8a7c-86d7e68a4264","ios":"levelo://app?vid=4c8013cb-1ccb-4ed2-8a7c-86d7e68a4264"},"vehicle_type_id":"4","last_reported":1739376691,"current_range_meters":30800,"station_id":"ce4bgs12rcd13ifvqcag","pricing_plan_id":"cebpf4jnsgd1na2vs0mg"},{"bike_id":"f2651460-5a99-487b-b59b-deb1b4e3c865","system_id":"levelo_inurba_marseille","lat":43.30912,"lon":5.36853,"is_reserved":false,"is_disabled":false,"rental_uris":{"android":"levelo://app?vid=f2651460-5a99-487b-b59b-deb1b4e3c865","ios":"levelo://app?vid=f2651460-5a99-487b-b59b-deb1b4e3c865"},"vehicle_type_id":"4","last_reported":1739376691,"current_range_meters":25600,"station_id":"ce4bgn92rcd13ifvqbvg","pricing_plan_id":"cebpf4jnsgd1na2vs0mg"},{"bike_id":"434f99a7-a598-4b12-bdea-d48449813cfc","system_id":"levelo_inurba_marseille","lat":43.29253,"lon":5.40923,"is_reserved":false,"is_disabled":false,"rental_uris":{"android":"levelo://app?vid=434f99a7-a598-4b12-bdea-d48449813cfc","ios":"levelo://app?vid=434f99a7-a598-4b12-bdea-d48449813cfc"},"vehicle_type_id":"4","last_reported":1739376691,"current_range_meters":6800,"station_id":"ce4bh192rcd13ifvqdc0","pricing_plan_id":"cebpf4jnsgd1na2vs0mg"},{"bike_id":"0a7d28ac-16e5-459a-9e3d-51b36dee94ec","system_id":"levelo_inurba_marseille","lat":43.30547,"lon":5.36518,"is_reserved":false,"is_disabled":false,"rental_uris":{"android":"levelo://app?vid=0a7d28ac-16e5-459a-9e3d-51b36dee94ec","ios":"levelo://app?vid=0a7d28ac-16e5-459a-9e3d-51b36dee94ec"},"vehicle_type_id":"4","last_reported":1739376691,"current_range_meters":24800,"station_id":"ce4bgs12rcd13ifvqcag","pricing_plan_id":"cebpf4jnsgd1na2vs0mg"},{"bike_id":"c6e689f4-5152-4d5e-9e06-850c8b1d0731","system_id":"levelo_inurba_marseille","lat":43.26505,"lon":5.39544,"is_reserved":false,"is_disabled":false,"rental_uris":{"android":"levelo://app?vid=c6e689f4-5152-4d5e-9e06-850c8b1d0731","ios":"levelo://app?vid=c6e689f4-5152-4d5e-9e06-850c8b1d0731"},"vehicle_type_id":"4","last_reported":1739376691,"current_range_meters":32800,"station_id":"ce4bhi12rcd13ifvqfq0","pricing_plan_id":"cebpf4jnsgd1na2vs0mg"},{"bike_id":"beac2093-e3f1-4a43-875b-f5700b6484b8","system_id":"levelo_inurba_marseille","lat":43.32561,"lon":5.41428,"is_reserved":false,"is_disabled":false,"rental_uris":{"android":"levelo://app?vid=beac2093-e3f1-4a43-875b-f5700b6484b8","ios":"levelo://app?vid=beac2093-e3f1-4a43-875b-f5700b6484b8"},"vehicle_type_id":"4","last_reported":1739376691,"current_range_meters":32000,"station_id":"ce4bhq12rcd13ifvqhhg","pricing_plan_id":"cebpf4jnsgd1na2vs0mg"},{"bike_id":"0fb30756-cd50-4cd1-ba06-1ebd026d9274","system_id":"levelo_inurba_marseille","lat":43.25009,"lon":5.38932,"is_reserved":false,"is_disabled":false,"rental_uris":{"android":"levelo://app?vid=0fb30756-cd50-4cd1-ba06-1ebd026d9274","ios":"levelo://app?vid=0fb30756-cd50-4cd1-ba06-1ebd026d9274"},"vehicle_type_id":"4","last_reported":1739376691,"current_range_meters":26800,"station_id":"ce4bhgp2rcd13ifvqfd0","pricing_plan_id":"cebpf4jnsgd1na2vs0mg"},{"bike_id":"881b4f9d-4ff4-457b-9b15-52e544295f1d","system_id":"levelo_inurba_marseille","lat":43.26558,"lon":5.37282,"is_reserved":false,"is_disabled":false,"rental_uris":{"android":"levelo://app?vid=881b4f9d-4ff4-457b-9b15-52e544295f1d","ios":"levelo://app?vid=881b4f9d-4ff4-457b-9b15-52e544295f1d"},"vehicle_type_id":"4","last_reported":1739376691,"current_range_meters":8400,"station_id":"ce4bhg12rcd13ifvqf70","pricing_plan_id":"cebpf4jnsgd1na2vs0mg"},{"bike_id":"41d84e1a-f3aa-4a0e-9ae7-b5103f79f11d","system_id":"levelo_inurba_marseille","lat":43.30889,"lon":5.39662,"is_reserved":false,"is_disabled":false,"rental_uris":{"android":"levelo://app?vid=41d84e1a-f3aa-4a0e-9ae7-b5103f79f11d","ios":"levelo://app?vid=41d84e1a-f3aa-4a0e-9ae7-b5103f79f11d"},"vehicle_type_id":"4","last_reported":1739376691,"current_range_meters":4000,"station_id":"ce4bh012rcd13ifvqcv0","pricing_plan_id":"cebpf4jnsgd1na2vs0mg"},{"bike_id":"b0f70249-6360-4dc3-a83a-fd73a6b534c8","system_id":"levelo_inurba_marseille","lat":43.32149,"lon":5.38457,"is_reserved":false,"is_disabled":false,"rental_uris":{"android":"levelo://app?vid=b0f70249-6360-4dc3-a83a-fd73a6b534c8","ios":"levelo://app?vid=b0f70249-6360-4dc3-a83a-fd73a6b534c8"},"vehicle_type_id":"4","last_reported":1739376691,"current_range_meters":33200,"station_id":"","pricing_plan_id":"cebpf4jnsgd1na2vs0mg"},{"bike_id":"54ce597b-1ca1-4d62-923d-d4b29eec04b3","system_id":"levelo_inurba_marseille","lat":43.31131,"lon":5.38261,"is_reserved":false,"is_disabled":false,"rental_uris":{"android":"levelo://app?vid=54ce597b-1ca1-4d62-923d-d4b29eec04b3","ios":"levelo://app?vid=54ce597b-1ca1-4d62-923d-d4b29eec04b3"},"vehicle_type_id":"4","last_reported":1739376691,"current_range_meters":14800,"station_id":"","pricing_plan_id":"cebpf4jnsgd1na2vs0mg"},{"bike_id":"8fb4423f-ff94-4f59-b1d3-762dc7026542","system_id":"levelo_inurba_marseille","lat":43.27946,"lon":5.41035,"is_reserved":false,"is_disabled":false,"rental_uris":{"android":"levelo://app?vid=8fb4423f-ff94-4f59-b1d3-762dc7026542","ios":"levelo://app?vid=8fb4423f-ff94-4f59-b1d3-762dc7026542"},"vehicle_type_id":"4","last_reported":1739376691,"current_range_meters":15200,"station_id":"ce4bhnp2rcd13ifvqh0g","pricing_plan_id":"cebpf4jnsgd1na2vs0mg"},{"bike_id":"d60b7047-85d8-4034-acb5-44793a2f2018","system_id":"levelo_inurba_marseille","lat":43.27966,"lon":5.38749,"is_reserved":false,"is_disabled":false,"rental_uris":{"android":"levelo://app?vid=d60b7047-85d8-4034-acb5-44793a2f2018","ios":"levelo://app?vid=d60b7047-85d8-4034-acb5-44793a2f2018"},"vehicle_type_id":"4","last_reported":1739376691,"current_range_meters":36400,"station_id":"ce4bhg12rcd13ifvqf80","pricing_plan_id":"cebpf4jnsgd1na2vs0mg"},{"bike_id":"9d6c6a2c-f4a8-4f2e-9a51-0f83be3f4454","system_id":"levelo_inurba_marseille","lat":43.25016,"lon":5.38917,"is_reserved":false,"is_disabled":false,"rental_uris":{"android":"levelo://app?vid=9d6c6a2c-f4a8-4f2e-9a51-0f83be3f4454","ios":"levelo://app?vid=9d6c6a2c-f4a8-4f2e-9a51-0f83be3f4454"},"vehicle_type_id":"4","last_reported":1739376691,"current_range_meters":31200,"station_id":"ce4bhgp2rcd13ifvqfd0","pricing_plan_id":"cebpf4jnsgd1na2vs0mg"},{"bike_id":"71ae8788-ed57-4df6-805f-27ca1e8f5e3c","system_id":"levelo_inurba_marseille","lat":43.29212,"lon":5.35826,"is_reserved":false,"is_disabled":false,"rental_uris":{"android":"levelo://app?vid=71ae8788-ed57-4df6-805f-27ca1e8f5e3c","ios":"levelo://app?vid=71ae8788-ed57-4df6-805f-27ca1e8f5e3c"},"vehicle_type_id":"4","last_reported":1739376691,"current_range_meters":28800,"station_id":"ce4bhb12rcd13ifvqel0","pricing_plan_id":"cebpf4jnsgd1na2vs0mg"},{"bike_id":"a7c18478-d0ba-43db-bfd9-20cd7a1f79ac","system_id":"levelo_inurba_marseille","lat":43.29931,"lon":5.37489,"is_reserved":false,"is_disabled":false,"rental_uris":{"android":"levelo://app?vid=a7c18478-d0ba-43db-bfd9-20cd7a1f79ac","ios":"levelo://app?vid=a7c18478-d0ba-43db-bfd9-20cd7a1f79ac"},"vehicle_type_id":"4","last_reported":1739376691,"current_range_meters":37600,"station_id":"ce4bgjh2rcd13ifvqbg0","pricing_plan_id":"cebpf4jnsgd1na2vs0mg"},{"bike_id":"4985f4e8-357c-45d1-92f1-5e51b059536f","system_id":"levelo_inurba_marseille","lat":43.30552,"lon":5.36547,"is_reserved":false,"is_disabled":false,"rental_uris":{"android":"levelo://app?vid=4985f4e8-357c-45d1-92f1-5e51b059536f","ios":"levelo://app?vid=4985f4e8-357c-45d1-92f1-5e51b059536f"},"vehicle_type_id":"4","last_reported":1739376691,"current_range_meters":10000,"station_id":"ce4bgs12rcd13ifvqcag","pricing_plan_id":"cebpf4jnsgd1na2vs0mg"},{"bike_id":"afaa6ff3-f958-448e-bb22-0cf576b24c3a","system_id":"levelo_inurba_marseille","lat":43.26684,"lon":5.38264,"is_reserved":false,"is_disabled":false,"rental_uris":{"android":"levelo://app?vid=afaa6ff3-f958-448e-bb22-0cf576b24c3a","ios":"levelo://app?vid=afaa6ff3-f958-448e-bb22-0cf576b24c3a"},"vehicle_type_id":"4","last_reported":1739376691,"current_range_meters":8000,"station_id":"ce4bhg92rcd13ifvqf90","pricing_plan_id":"cebpf4jnsgd1na2vs0mg"},{"bike_id":"58a923a1-50e5-4bcc-a5c7-59fd5ea18680","system_id":"levelo_inurba_marseille","lat":43.2315,"lon":5.43702,"is_reserved":false,"is_disabled":false,"rental_uris":{"android":"levelo://app?vid=58a923a1-50e5-4bcc-a5c7-59fd5ea18680","ios":"levelo://app?vid=58a923a1-50e5-4bcc-a5c7-59fd5ea18680"},"vehicle_type_id":"4","last_reported":1739376691,"current_range_meters":19200,"station_id":"ce4bhmp2rcd13ifvqgog","pricing_plan_id":"cebpf4jnsgd1na2vs0mg"},{"bike_id":"2ac08b54-f2e7-4948-a803-34222a4f0a27","system_id":"levelo_inurba_marseille","lat":43.29031,"lon":5.38658,"is_reserved":false,"is_disabled":false,"rental_uris":{"android":"levelo://app?vid=2ac08b54-f2e7-4948-a803-34222a4f0a27","ios":"levelo://app?vid=2ac08b54-f2e7-4948-a803-34222a4f0a27"},"vehicle_type_id":"4","last_reported":1739376691,"current_range_meters":29600,"station_id":"ce4bh4p2rcd13ifvqe0g","pricing_plan_id":"cebpf4jnsgd1na2vs0mg"},{"bike_id":"51d770a2-dd16-4796-a058-ebfc42d09fdc","system_id":"levelo_inurba_marseille","lat":43.299107,"lon":5.374758,"is_reserved":false,"is_disabled":false,"rental_uris":{"android":"levelo://app?vid=51d770a2-dd16-4796-a058-ebfc42d09fdc","ios":"levelo://app?vid=51d770a2-dd16-4796-a058-ebfc42d09fdc"},"vehicle_type_id":"4","last_reported":1739376691,"current_range_meters":37600,"station_id":"ce4bgjh2rcd13ifvqbg0","pricing_plan_id":"cebpf4jnsgd1na2vs0mg"},{"bike_id":"d20e281b-4bbf-440b-b3e5-085faded4017","system_id":"levelo_inurba_marseille","lat":43.31491,"lon":5.37313,"is_reserved":false,"is_disabled":false,"rental_uris":{"android":"levelo://app?vid=d20e281b-4bbf-440b-b3e5-085faded4017","ios":"levelo://app?vid=d20e281b-4bbf-440b-b3e5-085faded4017"},"vehicle_type_id":"4","last_reported":1739376691,"current_range_meters":20400,"station_id":"ce4bgt12rcd13ifvqcd0","pricing_plan_id":"cebpf4jnsgd1na2vs0mg"},{"bike_id":"fdd0e5b2-ba07-41d1-97a9-a2fc78ef9dfd","system_id":"levelo_inurba_marseille","lat":43.28348,"lon":5.38123,"is_reserved":false,"is_disabled":false,"rental_uris":{"android":"levelo://app?vid=fdd0e5b2-ba07-41d1-97a9-a2fc78ef9dfd","ios":"levelo://app?vid=fdd0e5b2-ba07-41d1-97a9-a2fc78ef9dfd"},"vehicle_type_id":"4","last_reported":1739376691,"current_range_meters":38000,"station_id":"ce4bh412rcd13ifvqdr0","pricing_plan_id":"cebpf4jnsgd1na2vs0mg"},{"bike_id":"9fcdab55-6d1d-456d-84cd-a4b15d39fdcf","system_id":"levelo_inurba_marseille","lat":43.249895,"lon":5.38931,"is_reserved":false,"is_disabled":false,"rental_uris":{"android":"levelo://app?vid=9fcdab55-6d1d-456d-84cd-a4b15d39fdcf","ios":"levelo://app?vid=9fcdab55-6d1d-456d-84cd-a4b15d39fdcf"},"vehicle_type_id":"4","last_reported":1739376691,"current_range_meters":7200,"station_id":"ce4bhgp2rcd13ifvqfd0","pricing_plan_id":"cebpf4jnsgd1na2vs0mg"},{"bike_id":"5736dd38-3686-4d08-a118-f5f9012ac83d","system_id":"levelo_inurba_marseille","lat":43.27617,"lon":5.36113,"is_reserved":false,"is_disabled":false,"rental_uris":{"android":"levelo://app?vid=5736dd38-3686-4d08-a118-f5f9012ac83d","ios":"levelo://app?vid=5736dd38-3686-4d08-a118-f5f9012ac83d"},"vehicle_type_id":"4","last_reported":1739376691,"current_range_meters":15200,"station_id":"ce4bgj92rcd13ifvqbe0","pricing_plan_id":"cebpf4jnsgd1na2vs0mg"},{"bike_id":"296fcee4-79c3-49a9-a7c9-6e22cb6314c5","system_id":"levelo_inurba_marseille","lat":43.30102,"lon":5.39074,"is_reserved":false,"is_disabled":false,"rental_uris":{"android":"levelo://app?vid=296fcee4-79c3-49a9-a7c9-6e22cb6314c5","ios":"levelo://app?vid=296fcee4-79c3-49a9-a7c9-6e22cb6314c5"},"vehicle_type_id":"4","last_reported":1739376691,"current_range_meters":37600,"station_id":"ce4bh192rcd13ifvqdb0","pricing_plan_id":"cebpf4jnsgd1na2vs0mg"},{"bike_id":"aa2a2975-b7ac-443c-9404-5c5e1b57efc0","system_id":"levelo_inurba_marseille","lat":43.23976,"lon":5.36605,"is_reserved":false,"is_disabled":false,"rental_uris":{"android":"levelo://app?vid=aa2a2975-b7ac-443c-9404-5c5e1b57efc0","ios":"levelo://app?vid=aa2a2975-b7ac-443c-9404-5c5e1b57efc0"},"vehicle_type_id":"4","last_reported":1739376691,"current_range_meters":6800,"station_id":"ce4bhi12rcd13ifvqfp0","pricing_plan_id":"cebpf4jnsgd1na2vs0mg"},{"bike_id":"f17f084e-b6c7-45c8-92c0-b718ab2f3029","system_id":"levelo_inurba_marseille","lat":43.24398,"lon":5.37056,"is_reserved":false,"is_disabled":false,"rental_uris":{"android":"levelo://app?vid=f17f084e-b6c7-45c8-92c0-b718ab2f3029","ios":"levelo://app?vid=f17f084e-b6c7-45c8-92c0-b718ab2f3029"},"vehicle_type_id":"4","last_reported":1739376691,"current_range_meters":32800,"station_id":"ce4bhhh2rcd13ifvqfk0","pricing_plan_id":"cebpf4jnsgd1na2vs0mg"},{"bike_id":"d3460b7b-e380-4b3a-92a9-5f7cd890c05f","system_id":"levelo_inurba_marseille","lat":43.23151,"lon":5.43705,"is_reserved":false,"is_disabled":false,"rental_uris":{"android":"levelo://app?vid=d3460b7b-e380-4b3a-92a9-5f7cd890c05f","ios":"levelo://app?vid=d3460b7b-e380-4b3a-92a9-5f7cd890c05f"},"vehicle_type_id":"4","last_reported":1739376691,"current_range_meters":18000,"station_id":"ce4bhmp2rcd13ifvqgog","pricing_plan_id":"cebpf4jnsgd1na2vs0mg"},{"bike_id":"bf141e34-19f7-43e6-b418-b0b21e25ce57","system_id":"levelo_inurba_marseille","lat":43.30418,"lon":5.3974,"is_reserved":false,"is_disabled":true,"rental_uris":{"android":"levelo://app?vid=bf141e34-19f7-43e6-b418-b0b21e25ce57","ios":"levelo://app?vid=bf141e34-19f7-43e6-b418-b0b21e25ce57"},"vehicle_type_id":"4","last_reported":1739376691,"current_range_meters":24400,"station_id":"ce4bh092rcd13ifvqd20","pricing_plan_id":"cebpf4jnsgd1na2vs0mg"},{"bike_id":"3f789305-9735-4cf7-90f9-b14c406c505a","system_id":"levelo_inurba_marseille","lat":43.27836,"lon":5.39212,"is_reserved":false,"is_disabled":false,"rental_uris":{"android":"levelo://app?vid=3f789305-9735-4cf7-90f9-b14c406c505a","ios":"levelo://app?vid=3f789305-9735-4cf7-90f9-b14c406c505a"},"vehicle_type_id":"4","last_reported":1739376691,"current_range_meters":25600,"station_id":"ce4bhjp2rcd13ifvqga0","pricing_plan_id":"cebpf4jnsgd1na2vs0mg"},{"bike_id":"890a4565-476c-48ed-a720-975deb709cd2","system_id":"levelo_inurba_marseille","lat":43.24398,"lon":5.37063,"is_reserved":false,"is_disabled":false,"rental_uris":{"android":"levelo://app?vid=890a4565-476c-48ed-a720-975deb709cd2","ios":"levelo://app?vid=890a4565-476c-48ed-a720-975deb709cd2"},"vehicle_type_id":"4","last_reported":1739376691,"current_range_meters":14800,"station_id":"ce4bhhh2rcd13ifvqfk0","pricing_plan_id":"cebpf4jnsgd1na2vs0mg"},{"bike_id":"d157203c-3a5b-4bbc-9638-6eefce740d5e","system_id":"levelo_inurba_marseille","lat":43.23191,"lon":5.35555,"is_reserved":false,"is_disabled":false,"rental_uris":{"android":"levelo://app?vid=d157203c-3a5b-4bbc-9638-6eefce740d5e","ios":"levelo://app?vid=d157203c-3a5b-4bbc-9638-6eefce740d5e"},"vehicle_type_id":"4","last_reported":1739376691,"current_range_meters":34800,"station_id":"ce4bhu92rcd13ifvqi70","pricing_plan_id":"cebpf4jnsgd1na2vs0mg"},{"bike_id":"dc297730-78fa-4e16-8527-d9e6d4f89561","system_id":"levelo_inurba_marseille","lat":43.30791,"lon":5.37661,"is_reserved":false,"is_disabled":false,"rental_uris":{"android":"levelo://app?vid=dc297730-78fa-4e16-8527-d9e6d4f89561","ios":"levelo://app?vid=dc297730-78fa-4e16-8527-d9e6d4f89561"},"vehicle_type_id":"4","last_reported":1739376691,"current_range_meters":30400,"station_id":"ce4bgv92rcd13ifvqcq0","pricing_plan_id":"cebpf4jnsgd1na2vs0mg"},{"bike_id":"6477f7d9-757f-4fec-8c2c-6f528ed204dc","system_id":"levelo_inurba_marseille","lat":43.2415,"lon":5.36411,"is_reserved":false,"is_disabled":false,"rental_uris":{"android":"levelo://app?vid=6477f7d9-757f-4fec-8c2c-6f528ed204dc","ios":"levelo://app?vid=6477f7d9-757f-4fec-8c2c-6f528ed204dc"},"vehicle_type_id":"4","last_reported":1739376691,"current_range_meters":36800,"station_id":"cpo36qri1sfpv3e86is0","pricing_plan_id":"cebpf4jnsgd1na2vs0mg"},{"bike_id":"96c365f6-f32c-46e6-94f9-87384a399b55","system_id":"levelo_inurba_marseille","lat":43.28097,"lon":5.37843,"is_reserved":false,"is_disabled":false,"rental_uris":{"android":"levelo://app?vid=96c365f6-f32c-46e6-94f9-87384a399b55","ios":"levelo://app?vid=96c365f6-f32c-46e6-94f9-87384a399b55"},"vehicle_type_id":"4","last_reported":1739376691,"current_range_meters":15200,"station_id":"ce4bha12rcd13ifvqee0","pricing_plan_id":"cebpf4jnsgd1na2vs0mg"},{"bike_id":"3fe63611-135b-472c-bc63-71790f3c0c77","system_id":"levelo_inurba_marseille","lat":43.30651,"lon":5.40051,"is_reserved":false,"is_disabled":false,"rental_uris":{"android":"levelo://app?vid=3fe63611-135b-472c-bc63-71790f3c0c77","ios":"levelo://app?vid=3fe63611-135b-472c-bc63-71790f3c0c77"},"vehicle_type_id":"4","last_reported":1739376691,"current_range_meters":38800,"station_id":"ce4bh112rcd13ifvqda0","pricing_plan_id":"cebpf4jnsgd1na2vs0mg"},{"bike_id":"61248e05-13c9-474a-a8d4-c55d8c22f627","system_id":"levelo_inurba_marseille","lat":43.2979,"lon":5.37113,"is_reserved":false,"is_disabled":false,"rental_uris":{"android":"levelo://app?vid=61248e05-13c9-474a-a8d4-c55d8c22f627","ios":"levelo://app?vid=61248e05-13c9-474a-a8d4-c55d8c22f627"},"vehicle_type_id":"4","last_reported":1739376691,"current_range_meters":33200,"station_id":"ce4bgop2rcd13ifvqc1g","pricing_plan_id":"cebpf4jnsgd1na2vs0mg"},{"bike_id":"5056a139-0a18-4cf7-b5f2-5d5036ac0e6d","system_id":"levelo_inurba_marseille","lat":43.24641,"lon":5.38895,"is_reserved":false,"is_disabled":false,"rental_uris":{"android":"levelo://app?vid=5056a139-0a18-4cf7-b5f2-5d5036ac0e6d","ios":"levelo://app?vid=5056a139-0a18-4cf7-b5f2-5d5036ac0e6d"},"vehicle_type_id":"4","last_reported":1739376691,"current_range_meters":6400,"station_id":"ce4bhg12rcd13ifvqf60","pricing_plan_id":"cebpf4jnsgd1na2vs0mg"},{"bike_id":"093d24f3-e1ee-4ba9-b161-6b06aa165073","system_id":"levelo_inurba_marseille","lat":43.3065,"lon":5.4009,"is_reserved":false,"is_disabled":false,"rental_uris":{"android":"levelo://app?vid=093d24f3-e1ee-4ba9-b161-6b06aa165073","ios":"levelo://app?vid=093d24f3-e1ee-4ba9-b161-6b06aa165073"},"vehicle_type_id":"4","last_reported":1739376691,"current_range_meters":24400,"station_id":"ce4bh112rcd13ifvqda0","pricing_plan_id":"cebpf4jnsgd1na2vs0mg"},{"bike_id":"0fb95419-b405-41fa-ae73-2bb1877b636f","system_id":"levelo_inurba_marseille","lat":43.26804,"lon":5.39421,"is_reserved":false,"is_disabled":false,"rental_uris":{"android":"levelo://app?vid=0fb95419-b405-41fa-ae73-2bb1877b636f","ios":"levelo://app?vid=0fb95419-b405-41fa-ae73-2bb1877b636f"},"vehicle_type_id":"4","last_reported":1739376691,"current_range_meters":35600,"station_id":"ce4bhh12rcd13ifvqfg0","pricing_plan_id":"cebpf4jnsgd1na2vs0mg"},{"bike_id":"d5c70d96-d82e-42c2-b58e-ae1bce0f322b","system_id":"levelo_inurba_marseille","lat":43.24163,"lon":5.36418,"is_reserved":false,"is_disabled":false,"rental_uris":{"android":"levelo://app?vid=d5c70d96-d82e-42c2-b58e-ae1bce0f322b","ios":"levelo://app?vid=d5c70d96-d82e-42c2-b58e-ae1bce0f322b"},"vehicle_type_id":"4","last_reported":1739376691,"current_range_meters":36000,"station_id":"cpo36qri1sfpv3e86is0","pricing_plan_id":"cebpf4jnsgd1na2vs0mg"},{"bike_id":"31f84ddc-bf3b-4d1c-9d83-4ffb586bc67a","system_id":"levelo_inurba_marseille","lat":43.32109,"lon":5.36791,"is_reserved":false,"is_disabled":false,"rental_uris":{"android":"levelo://app?vid=31f84ddc-bf3b-4d1c-9d83-4ffb586bc67a","ios":"levelo://app?vid=31f84ddc-bf3b-4d1c-9d83-4ffb586bc67a"},"vehicle_type_id":"4","last_reported":1739376691,"current_range_meters":38800,"station_id":"ce4bhrh2rcd13ifvqhug","pricing_plan_id":"cebpf4jnsgd1na2vs0mg"},{"bike_id":"05c0a4be-b4f9-40ef-ab28-35f8ee6b0f67","system_id":"levelo_inurba_marseille","lat":43.29177,"lon":5.38588,"is_reserved":false,"is_disabled":true,"rental_uris":{"android":"levelo://app?vid=05c0a4be-b4f9-40ef-ab28-35f8ee6b0f67","ios":"levelo://app?vid=05c0a4be-b4f9-40ef-ab28-35f8ee6b0f67"},"vehicle_type_id":"4","last_reported":1739376691,"current_range_meters":28800,"station_id":"","pricing_plan_id":"cebpf4jnsgd1na2vs0mg"},{"bike_id":"95bea59d-9508-4e5c-9462-a6eb2b05c299","system_id":"levelo_inurba_marseille","lat":43.32804,"lon":5.4334,"is_reserved":false,"is_disabled":false,"rental_uris":{"android":"levelo://app?vid=95bea59d-9508-4e5c-9462-a6eb2b05c299","ios":"levelo://app?vid=95bea59d-9508-4e5c-9462-a6eb2b05c299"},"vehicle_type_id":"4","last_reported":1739376691,"current_range_meters":38000,"station_id":"","pricing_plan_id":"cebpf4jnsgd1na2vs0mg"},{"bike_id":"bc343752-1bf3-47af-a0af-da716de6b965","system_id":"levelo_inurba_marseille","lat":43.31347,"lon":5.36711,"is_reserved":false,"is_disabled":false,"rental_uris":{"android":"levelo://app?vid=bc343752-1bf3-47af-a0af-da716de6b965","ios":"levelo://app?vid=bc343752-1bf3-47af-a0af-da716de6b965"},"vehicle_type_id":"4","last_reported":1739376691,"current_range_meters":32000,"station_id":"ce4bgr92rcd13ifvqc6g","pricing_plan_id":"cebpf4jnsgd1na2vs0mg"},{"bike_id":"da691190-2a50-4b5e-8254-1bad86948ba4","system_id":"levelo_inurba_marseille","lat":43.24181,"lon":5.39737,"is_reserved":false,"is_disabled":false,"rental_uris":{"android":"levelo://app?vid=da691190-2a50-4b5e-8254-1bad86948ba4","ios":"levelo://app?vid=da691190-2a50-4b5e-8254-1bad86948ba4"},"vehicle_type_id":"4","last_reported":1739376691,"current_range_meters":24800,"station_id":"ce4bhn12rcd13ifvqgpg","pricing_plan_id":"cebpf4jnsgd1na2vs0mg"},{"bike_id":"1d7ddc6a-aa01-47bd-9f4b-19acc241a934","system_id":"levelo_inurba_marseille","lat":43.29323,"lon":5.41149,"is_reserved":false,"is_disabled":false,"rental_uris":{"android":"levelo://app?vid=1d7ddc6a-aa01-47bd-9f4b-19acc241a934","ios":"levelo://app?vid=1d7ddc6a-aa01-47bd-9f4b-19acc241a934"},"vehicle_type_id":"4","last_reported":1739376691,"current_range_meters":10800,"station_id":"","pricing_plan_id":"cebpf4jnsgd1na2vs0mg"},{"bike_id":"db715711-183b-4c2a-ae4d-b6dc163d62d4","system_id":"levelo_inurba_marseille","lat":43.30777,"lon":5.37654,"is_reserved":false,"is_disabled":true,"rental_uris":{"android":"levelo://app?vid=db715711-183b-4c2a-ae4d-b6dc163d62d4","ios":"levelo://app?vid=db715711-183b-4c2a-ae4d-b6dc163d62d4"},"vehicle_type_id":"4","last_reported":1739376691,"current_range_meters":36000,"station_id":"","pricing_plan_id":"cebpf4jnsgd1na2vs0mg"},{"bike_id":"dde249e9-8bd4-457c-a176-e8228cfe68b4","system_id":"levelo_inurba_marseille","lat":43.30526,"lon":5.36535,"is_reserved":false,"is_disabled":false,"rental_uris":{"android":"levelo://app?vid=dde249e9-8bd4-457c-a176-e8228cfe68b4","ios":"levelo://app?vid=dde249e9-8bd4-457c-a176-e8228cfe68b4"},"vehicle_type_id":"4","last_reported":1739376691,"current_range_meters":38800,"station_id":"ce4bgs12rcd13ifvqcag","pricing_plan_id":"cebpf4jnsgd1na2vs0mg"},{"bike_id":"db4e7ef8-97c5-45ed-b2ef-70851897728c","system_id":"levelo_inurba_marseille","lat":43.30884,"lon":5.39648,"is_reserved":false,"is_disabled":false,"rental_uris":{"android":"levelo://app?vid=db4e7ef8-97c5-45ed-b2ef-70851897728c","ios":"levelo://app?vid=db4e7ef8-97c5-45ed-b2ef-70851897728c"},"vehicle_type_id":"4","last_reported":1739376691,"current_range_meters":36800,"station_id":"ce4bh012rcd13ifvqcv0","pricing_plan_id":"cebpf4jnsgd1na2vs0mg"},{"bike_id":"27368f05-e09f-4247-94e3-47f3c57c4b1a","system_id":"levelo_inurba_marseille","lat":43.29845,"lon":5.36295,"is_reserved":false,"is_disabled":false,"rental_uris":{"android":"levelo://app?vid=27368f05-e09f-4247-94e3-47f3c57c4b1a","ios":"levelo://app?vid=27368f05-e09f-4247-94e3-47f3c57c4b1a"},