{"last_updated":1767341831,"ttl":60,"version":"2.2","data":{"bikes":[{"bike_id":"5265762e-9468-4f8e-963d-e1d647f4d72d","system_id":"levelo_inurba_marseille","lat":43.337444,"lon":5.374475,"is_reserved":false,"is_disabled":false,"rental_uris":{"android":"levelo://app?vid=5265762e-9468-4f8e-963d-e1d647f4d72d","ios":"levelo://app?vid=5265762e-9468-4f8e-963d-e1d647f4d72d"},"vehicle_type_id":"4","last_reported":1767341832,"current_range_meters":2800,"station_id":"","pricing_plan_id":"cebpf4jnsgd1na2vs0mg"},{"bike_id":"e93c83d5-bafc-41ab-b80f-422d8d8d6d2a","system_id":"levelo_inurba_marseille","lat":43.26848,"lon":5.40078,"is_reserved":false,"is_disabled":false,"rental_uris":{"android":"levelo://app?vid=e93c83d5-bafc-41ab-b80f-422d8d8d6d2a","ios":"levelo://app?vid=e93c83d5-bafc-41ab-b80f-422d8d8d6d2a"},"vehicle_type_id":"4","last_reported":1767341832,"current_range_meters":2800,"station_id":"","pricing_plan_id":"cebpf4jnsgd1na2vs0mg"},{"bike_id":"2b23942c-0d5b-4193-b718-e6099c5527d3","system_id":"levelo_inurba_marseille","lat":43.231925,"lon":5.355543,"is_reserved":false,"is_disabled":false,"rental_uris":{"android":"levelo://app?vid=2b23942c-0d5b-4193-b718-e6099c5527d3","ios":"levelo://app?vid=2b23942c-0d5b-4193-b718-e6099c5527d3"},"vehicle_type_id":"4","last_reported":1767341832,"current_range_meters":2800,"station_id":"ce4bhu92rcd13ifvqi70","pricing_plan_id":"cebpf4jnsgd1na2vs0mg"},{"bike_id":"d0f568b9-b5bf-4480-b688-e3d8ab9f0c4f","system_id":"levelo_inurba_marseille","lat":43.284131,"lon":5.375145,"is_reserved":false,"is_disabled":false,"rental_uris":{"android":"levelo://app?vid=d0f568b9-b5bf-4480-b688-e3d8ab9f0c4f","ios":"levelo://app?vid=d0f568b9-b5bf-4480-b688-e3d8ab9f0c4f"},"vehicle_type_id":"4","last_reported":1767341832,"current_range_meters":2800,"station_id":"ce4bh412rcd13ifvqds0","pricing_plan_id":"cebpf4jnsgd1na2vs0mg"},{"bike_id":"a02fb672-5bdf-46c8-9fc1-e8fcbc8dc4d2","system_id":"levelo_inurba_marseille","lat":43.30316,"lon":5.38635,"is_reserved":false,"is_disabled":false,"rental_uris":{"android":"levelo://app?vid=a02fb672-5bdf-46c8-9fc1-e8fcbc8dc4d2","ios":"levelo://app?vid=a02fb672-5bdf-46c8-9fc1-e8fcbc8dc4d2"},"vehicle_type_id":"4","last_reported":1767341832,"current_range_meters":3200,"station_id":"","pricing_plan_id":"cebpf4jnsgd1na2vs0mg"},{"bike_id":"6c5a0f93-b4f0-4709-9bde-46b446fc69f4","system_id":"levelo_inurba_marseille","lat":43.22561,"lon":5.41626,"is_reserved":false,"is_disabled":false,"rental_uris":{"android":"levelo://app?vid=6c5a0f93-b4f0-4709-9bde-46b446fc69f4","ios":"levelo://app?vid=6c5a0f93-b4f0-4709-9bde-46b446fc69f4"},"vehicle_type_id":"4","last_reported":1767341832,"current_range_meters":3200,"station_id":"st_d2o4gvlbi1j2169b742g","pricing_plan_id":"cebpf4jnsgd1na2vs0mg"},{"bike_id":"a3c4293b-86ee-4818-8897-fd2a17481700","system_id":"levelo_inurba_marseille","lat":43.23656,"lon":5.36758,"is_reserved":false,"is_disabled":false,"rental_uris":{"android":"levelo://app?vid=a3c4293b-86ee-4818-8897-fd2a17481700","ios":"levelo://app?vid=a3c4293b-86ee-4818-8897-fd2a17481700"},"vehicle_type_id":"4","last_reported":1767341832,"current_range_meters":3200,"station_id":"","pricing_plan_id":"cebpf4jnsgd1na2vs0mg"},{"bike_id":"9b31c737-9919-4753-902d-88d0177986b8","system_id":"levelo_inurba_marseille","lat":43.28882,"lon":5.42508,"is_reserved":false,"is_disabled":false,"rental_uris":{"android":"levelo://app?vid=9b31c737-9919-4753-902d-88d0177986b8","ios":"levelo://app?vid=9b31c737-9919-4753-902d-88d0177986b8"},"vehicle_type_id":"4","last_reported":1767341832,"current_range_meters":3200,"station_id":"st_d3b462108ojc7389ooeg","pricing_plan_id":"cebpf4jnsgd1na2vs0mg"},{"bike_id":"be8ffce0-92be-4864-a534-c85c9ae0632c","system_id":"levelo_inurba_marseille","lat":43.262108,"lon":5.374357,"is_reserved":false,"is_disabled":false,"rental_uris":{"android":"levelo://app?vid=be8ffce0-92be-4864-a534-c85c9ae0632c","ios":"levelo://app?vid=be8ffce0-92be-4864-a534-c85c9ae0632c"},"vehicle_type_id":"4","last_reported":1767341832,"current_range_meters":3200,"station_id":"ce4bhgp2rcd13ifvqfc0","pricing_plan_id":"cebpf4jnsgd1na2vs0mg"},{"bike_id":"1e979309-d823-4aaf-b851-f1be8461cefe","system_id":"levelo_inurba_marseille","lat":43.284805,"lon":5.483977,"is_reserved":false,"is_disabled":false,"rental_uris":{"android":"levelo://app?vid=1e979309-d823-4aaf-b851-f1be8461cefe","ios":"levelo://app?vid=1e979309-d823-4aaf-b851-f1be8461cefe"},"vehicle_type_id":"4","last_reported":1767341832,"current_range_meters":3200,"station_id":"","pricing_plan_id":"cebpf4jnsgd1na2vs0mg"},{"bike_id":"3e3f7bbb-d8be-4283-a158-c83a5251eb44","system_id":"levelo_inurba_marseille","lat":43.24396,"lon":5.3707,"is_reserved":false,"is_disabled":false,"rental_uris":{"android":"levelo://app?vid=3e3f7bbb-d8be-4283-a158-c83a5251eb44","ios":"levelo://app?vid=3e3f7bbb-d8be-4283-a158-c83a5251eb44"},"vehicle_type_id":"4","last_reported":1767341832,"current_range_meters":3200,"station_id":"ce4bhhh2rcd13ifvqfk0","pricing_plan_id":"cebpf4jnsgd1na2vs0mg"},{"bike_id":"43464ac5-5123-4584-a572-085a071fa175","system_id":"levelo_inurba_marseille","lat":43.32403,"lon":5.40404,"is_reserved":false,"is_disabled":false,"rental_uris":{"android":"levelo://app?vid=43464ac5-5123-4584-a572-085a071fa175","ios":"levelo://app?vid=43464ac5-5123-4584-a572-085a071fa175"},"vehicle_type_id":"4","last_reported":1767341832,"current_range_meters":3200,"station_id":"","pricing_plan_id":"cebpf4jnsgd1na2vs0mg"},{"bike_id":"73d64c51-5c3b-4c17-9b5e-a1b6fbec467d","system_id":"levelo_inurba_marseille","lat":43.32003,"lon":5.38153,"is_reserved":false,"is_disabled":false,"rental_uris":{"android":"levelo://app?vid=73d64c51-5c3b-4c17-9b5e-a1b6fbec467d","ios":"levelo://app?vid=73d64c51-5c3b-4c17-9b5e-a1b6fbec467d"},"vehicle_type_id":"4","last_reported":1767341832,"current_range_meters":3600,"station_id":"ce4bhr12rcd13ifvqhpg","pricing_plan_id":"cebpf4jnsgd1na2vs0mg"},{"bike_id":"409af472-b6df-44d0-867f-ae2c60de00e4","system_id":"levelo_inurba_marseille","lat":43.2871,"lon":5.38692,"is_reserved":false,"is_disabled":false,"rental_uris":{"android":"levelo://app?vid=409af472-b6df-44d0-867f-ae2c60de00e4","ios":"levelo://app?vid=409af472-b6df-44d0-867f-ae2c60de00e4"},"vehicle_type_id":"4","last_reported":1767341832,"current_range_meters":3600,"station_id":"","pricing_plan_id":"cebpf4jnsgd1na2vs0mg"},{"bike_id":"09994b4f-3e67-40bb-adb2-42adf4242b84","system_id":"levelo_inurba_marseille","lat":43.26201,"lon":5.37449,"is_reserved":false,"is_disabled":false,"rental_uris":{"android":"levelo://app?vid=09994b4f-3e67-40bb-adb2-42adf4242b84","ios":"levelo://app?vid=09994b4f-3e67-40bb-adb2-42adf4242b84"},"vehicle_type_id":"4","last_reported":1767341832,"current_range_meters":3600,"station_id":"ce4bhgp2rcd13ifvqfc0","pricing_plan_id":"cebpf4jnsgd1na2vs0mg"},{"bike_id":"4372a42a-b334-4e8f-9141-9b6d15dd3e03","system_id":"levelo_inurba_marseille","lat":43.28483,"lon":5.48385,"is_reserved":false,"is_disabled":false,"rental_uris":{"android":"levelo://app?vid=4372a42a-b334-4e8f-9141-9b6d15dd3e03","ios":"levelo://app?vid=4372a42a-b334-4e8f-9141-9b6d15dd3e03"},"vehicle_type_id":"4","last_reported":1767341832,"current_range_meters":3600,"station_id":"st_d3svhcjqgbts73a3dn0g","pricing_plan_id":"cebpf4jnsgd1na2vs0mg"},{"bike_id":"2e432000-19e4-474b-acb8-4742408d8ecf","system_id":"levelo_inurba_marseille","lat":43.29641,"lon":5.38009,"is_reserved":false,"is_disabled":false,"rental_uris":{"android":"levelo://app?vid=2e432000-19e4-474b-acb8-4742408d8ecf","ios":"levelo://app?vid=2e432000-19e4-474b-acb8-4742408d8ecf"},"vehicle_type_id":"4","last_reported":1767341832,"current_range_meters":3600,"station_id":"","pricing_plan_id":"cebpf4jnsgd1na2vs0mg"},{"bike_id":"0c66d9fd-6c34-4a2b-97b7-03d2a909c171","system_id":"levelo_inurba_marseille","lat":43.29483,"lon":5.37384,"is_reserved":false,"is_disabled":false,"rental_uris":{"android":"levelo://app?vid=0c66d9fd-6c34-4a2b-97b7-03d2a909c171","ios":"levelo://app?vid=0c66d9fd-6c34-4a2b-97b7-03d2a909c171"},"vehicle_type_id":"4","last_reported":1767341832,"current_range_meters":3600,"station_id":"","pricing_plan_id":"cebpf4jnsgd1na2vs0mg"},{"bike_id":"9e1c64d3-e7b9-49f4-8f17-a4e4b7f40d5a","system_id":"levelo_inurba_marseille","lat":43.246454,"lon":5.388841,"is_reserved":false,"is_disabled":false,"rental_uris":{"android":"levelo://app?vid=9e1c64d3-e7b9-49f4-8f17-a4e4b7f40d5a","ios":"levelo://app?vid=9e1c64d3-e7b9-49f4-8f17-a4e4b7f40d5a"},"vehicle_type_id":"4","last_reported":1767341832,"current_range_meters":3600,"station_id":"ce4bhg12rcd13ifvqf60","pricing_plan_id":"cebpf4jnsgd1na2vs0mg"},{"bike_id":"cee46e39-3687-4fee-9a5f-ffb17c75dbd2","system_id":"levelo_inurba_marseille","lat":43.26673,"lon":5.38283,"is_reserved":false,"is_disabled":false,"rental_uris":{"android":"levelo://app?vid=cee46e39-3687-4fee-9a5f-ffb17c75dbd2","ios":"levelo://app?vid=cee46e39-3687-4fee-9a5f-ffb17c75dbd2"},"vehicle_type_id":"4","last_reported":1767341832,"current_range_meters":3600,"station_id":"ce4bhg92rcd13ifvqf90","pricing_plan_id":"cebpf4jnsgd1na2vs0mg"},{"bike_id":"754f547c-ce3e-4251-a2f3-747a9b231cbd","system_id":"levelo_inurba_marseille","lat":43.27062,"lon":5.40248,"is_reserved":false,"is_disabled":false,"rental_uris":{"android":"levelo://app?vid=754f547c-ce3e-4251-a2f3-747a9b231cbd","ios":"levelo://app?vid=754f547c-ce3e-4251-a2f3-747a9b231cbd"},"vehicle_type_id":"4","last_reported":1767341832,"current_range_meters":3600,"station_id":"ce4bhk92rcd13ifvqgc0","pricing_plan_id":"cebpf4jnsgd1na2vs0mg"},{"bike_id":"85e2684f-90a1-433b-a695-bcf01b4dba93","system_id":"levelo_inurba_marseille","lat":43.28938,"lon":5.36631,"is_reserved":false,"is_disabled":false,"rental_uris":{"android":"levelo://app?vid=85e2684f-90a1-433b-a695-bcf01b4dba93","ios":"levelo://app?vid=85e2684f-90a1-433b-a695-bcf01b4dba93"},"vehicle_type_id":"4","last_reported":1767341832,"current_range_meters":3600,"station_id":"ce4bhap2rcd13ifvqek0","pricing_plan_id":"cebpf4jnsgd1na2vs0mg"},{"bike_id":"c398a130-0c0d-4ecb-9920-e3a7bb5e654c","system_id":"levelo_inurba_marseille","lat":43.30299,"lon":5.39219,"is_reserved":false,"is_disabled":false,"rental_uris":{"android":"levelo://app?vid=c398a130-0c0d-4ecb-9920-e3a7bb5e654c","ios":"levelo://app?vid=c398a130-0c0d-4ecb-9920-e3a7bb5e654c"},"vehicle_type_id":"4","last_reported":1767341832,"current_range_meters":3600,"station_id":"ce4bgkh2rcd13ifvqbk0","pricing_plan_id":"cebpf4jnsgd1na2vs0mg"},{"bike_id":"53f9191b-e003-49c7-90f1-f6c658d01ab0","system_id":"levelo_inurba_marseille","lat":43.28993,"lon":5.35621,"is_reserved":false,"is_disabled":false,"rental_uris":{"android":"levelo://app?vid=53f9191b-e003-49c7-90f1-f6c658d01ab0","ios":"levelo://app?vid=53f9191b-e003-49c7-90f1-f6c658d01ab0"},"vehicle_type_id":"4","last_reported":1767341832,"current_range_meters":3600,"station_id":"ce4bhb92rcd13ifvqen0","pricing_plan_id":"cebpf4jnsgd1na2vs0mg"},{"bike_id":"ae16ff2f-039d-4cdf-a936-aa3dd9f21d44","system_id":"levelo_inurba_marseille","lat":43.27059,"lon":5.38292,"is_reserved":false,"is_disabled":false,"rental_uris":{"android":"levelo://app?vid=ae16ff2f-039d-4cdf-a936-aa3dd9f21d44","ios":"levelo://app?vid=ae16ff2f-039d-4cdf-a936-aa3dd9f21d44"},"vehicle_type_id":"4","last_reported":1767341832,"current_range_meters":4000,"station_id":"st_d3n2fo6cfp8s73cte1j0","pricing_plan_id":"cebpf4jnsgd1na2vs0mg"},{"bike_id":"25f3b82f-06ca-4f8f-a005-18bf90572843","system_id":"levelo_inurba_marseille","lat":43.301857,"lon":5.366186,"is_reserved":false,"is_disabled":false,"rental_uris":{"android":"levelo://app?vid=25f3b82f-06ca-4f8f-a005-18bf90572843","ios":"levelo://app?vid=25f3b82f-06ca-4f8f-a005-18bf90572843"},"vehicle_type_id":"4","last_reported":1767341832,"current_range_meters":4000,"station_id":"ce4bgrh2rcd13ifvqc8g","pricing_plan_id":"cebpf4jnsgd1na2vs0mg"},{"bike_id":"83a5ad5a-fe84-4c67-bbe0-e18050e1f9a3","system_id":"levelo_inurba_marseille","lat":43.27676,"lon":5.38894,"is_reserved":false,"is_disabled":false,"rental_uris":{"android":"levelo://app?vid=83a5ad5a-fe84-4c67-bbe0-e18050e1f9a3","ios":"levelo://app?vid=83a5ad5a-fe84-4c67-bbe0-e18050e1f9a3"},"vehicle_type_id":"4","last_reported":1767341832,"current_range_meters":4000,"station_id":"ce4bhi12rcd13ifvqfo0","pricing_plan_id":"cebpf4jnsgd1na2vs0mg"},{"bike_id":"15694dae-e2a2-45a6-a696-0713eb1eb9ee","system_id":"levelo_inurba_marseille","lat":43.26962,"lon":5.40201,"is_reserved":false,"is_disabled":false,"rental_uris":{"android":"levelo://app?vid=15694dae-e2a2-45a6-a696-0713eb1eb9ee","ios":"levelo://app?vid=15694dae-e2a2-45a6-a696-0713eb1eb9ee"},"vehicle_type_id":"4","last_reported":1767341832,"current_range_meters":4000,"station_id":"cjm6bp8fraef2m0cb0m0","pricing_plan_id":"cebpf4jnsgd1na2vs0mg"},{"bike_id":"73342cd1-bf95-4a1c-9f45-49ae6f0fd972","system_id":"levelo_inurba_marseille","lat":43.28873,"lon":5.4251,"is_reserved":false,"is_disabled":false,"rental_uris":{"android":"levelo://app?vid=73342cd1-bf95-4a1c-9f45-49ae6f0fd972","ios":"levelo://app?vid=73342cd1-bf95-4a1c-9f45-49ae6f0fd972"},"vehicle_type_id":"4","last_reported":1767341832,"current_range_meters":4000,"station_id":"st_d3b462108ojc7389ooeg","pricing_plan_id":"cebpf4jnsgd1na2vs0mg"},{"bike_id":"f297e1d0-d6d1-470d-832a-7cfd1d704b5f","system_id":"levelo_inurba_marseille","lat":43.26925,"lon":5.39271,"is_reserved":false,"is_disabled":false,"rental_uris":{"android":"levelo://app?vid=f297e1d0-d6d1-470d-832a-7cfd1d704b5f","ios":"levelo://app?vid=f297e1d0-d6d1-470d-832a-7cfd1d704b5f"},"vehicle_type_id":"4","last_reported":1767341832,"current_range_meters":4000,"station_id":"","pricing_plan_id":"cebpf4jnsgd1na2vs0mg"},{"bike_id":"49a01a11-8673-492e-9b5e-b92964e4e9ba","system_id":"levelo_inurba_marseille","lat":43.28162,"lon":5.42622,"is_reserved":false,"is_disabled":false,"rental_uris":{"android":"levelo://app?vid=49a01a11-8673-492e-9b5e-b92964e4e9ba","ios":"levelo://app?vid=49a01a11-8673-492e-9b5e-b92964e4e9ba"},"vehicle_type_id":"4","last_reported":1767341832,"current_range_meters":4000,"station_id":"ce4bhnh2rcd13ifvqgug","pricing_plan_id":"cebpf4jnsgd1na2vs0mg"},{"bike_id":"a8800cd5-9636-49e9-b1fe-ec75f21420d4","system_id":"levelo_inurba_marseille","lat":43.22568,"lon":5.41632,"is_reserved":false,"is_disabled":false,"rental_uris":{"android":"levelo://app?vid=a8800cd5-9636-49e9-b1fe-ec75f21420d4","ios":"levelo://app?vid=a8800cd5-9636-49e9-b1fe-ec75f21420d4"},"vehicle_type_id":"4","last_reported":1767341832,"current_range_meters":4400,"station_id":"st_d2o4gvlbi1j2169b742g","pricing_plan_id":"cebpf4jnsgd1na2vs0mg"},{"bike_id":"38dd17e8-5d80-4ad5-aa01-1fd6c367a77e","system_id":"levelo_inurba_marseille","lat":43.2836,"lon":5.38102,"is_reserved":false,"is_disabled":false,"rental_uris":{"android":"levelo://app?vid=38dd17e8-5d80-4ad5-aa01-1fd6c367a77e","ios":"levelo://app?vid=38dd17e8-5d80-4ad5-aa01-1fd6c367a77e"},"vehicle_type_id":"4","last_reported":1767341832,"current_range_meters":4400,"station_id":"ce4bh412rcd13ifvqdr0","pricing_plan_id":"cebpf4jnsgd1na2vs0mg"},{"bike_id":"9e5dafc7-f2da-4d0b-b668-e32cc043ceb4","system_id":"levelo_inurba_marseille","lat":43.28047,"lon":5.40073,"is_reserved":false,"is_disabled":false,"rental_uris":{"android":"levelo://app?vid=9e5dafc7-f2da-4d0b-b668-e32cc043ceb4","ios":"levelo://app?vid=9e5dafc7-f2da-4d0b-b668-e32cc043ceb4"},"vehicle_type_id":"4","last_reported":1767341832,"current_range_meters":4400,"station_id":"","pricing_plan_id":"cebpf4jnsgd1na2vs0mg"},{"bike_id":"d1504a12-ec39-4336-83f8-89dd79df8183","system_id":"levelo_inurba_marseille","lat":43.26552,"lon":5.40342,"is_reserved":false,"is_disabled":false,"rental_uris":{"android":"levelo://app?vid=d1504a12-ec39-4336-83f8-89dd79df8183","ios":"levelo://app?vid=d1504a12-ec39-4336-83f8-89dd79df8183"},"vehicle_type_id":"4","last_reported":1767341832,"current_range_meters":4400,"station_id":"ce4bhmp2rcd13ifvqgng","pricing_plan_id":"cebpf4jnsgd1na2vs0mg"},{"bike_id":"0d8b64dc-d3a4-4c37-80be-c48d945a81e3","system_id":"levelo_inurba_marseille","lat":43.28438,"lon":5.3866,"is_reserved":false,"is_disabled":false,"rental_uris":{"android":"levelo://app?vid=0d8b64dc-d3a4-4c37-80be-c48d945a81e3","ios":"levelo://app?vid=0d8b64dc-d3a4-4c37-80be-c48d945a81e3"},"vehicle_type_id":"4","last_reported":1767341832,"current_range_meters":4400,"station_id":"ce4bh8p2rcd13ifvqeb0","pricing_plan_id":"cebpf4jnsgd1na2vs0mg"},{"bike_id":"23dd68b5-83fe-4e9e-b59e-9beb906eba90","system_id":"levelo_inurba_marseille","lat":43.28429,"lon":5.34991,"is_reserved":false,"is_disabled":false,"rental_uris":{"android":"levelo://app?vid=23dd68b5-83fe-4e9e-b59e-9beb906eba90","ios":"levelo://app?vid=23dd68b5-83fe-4e9e-b59e-9beb906eba90"},"vehicle_type_id":"4","last_reported":1767341832,"current_range_meters":4400,"station_id":"ce4bhbh2rcd13ifvqepg","pricing_plan_id":"cebpf4jnsgd1na2vs0mg"},{"bike_id":"cbca21e9-2e94-4a16-bf5a-9b81b0df977d","system_id":"levelo_inurba_marseille","lat":43.30184,"lon":5.36602,"is_reserved":false,"is_disabled":false,"rental_uris":{"android":"levelo://app?vid=cbca21e9-2e94-4a16-bf5a-9b81b0df977d","ios":"levelo://app?vid=cbca21e9-2e94-4a16-bf5a-9b81b0df977d"},"vehicle_type_id":"4","last_reported":1767341832,"current_range_meters":4400,"station_id":"ce4bgrh2rcd13ifvqc8g","pricing_plan_id":"cebpf4jnsgd1na2vs0mg"},{"bike_id":"edb144c4-7934-4963-a970-3320a0ca02a8","system_id":"levelo_inurba_marseille","lat":43.21747,"lon":5.34611,"is_reserved":false,"is_disabled":false,"rental_uris":{"android":"levelo://app?vid=edb144c4-7934-4963-a970-3320a0ca02a8","ios":"levelo://app?vid=edb144c4-7934-4963-a970-3320a0ca02a8"},"vehicle_type_id":"4","last_reported":1767341832,"current_range_meters":4400,"station_id":"st_cvj6r9ubvosntc0bgbag","pricing_plan_id":"cebpf4jnsgd1na2vs0mg"},{"bike_id":"2367bd92-b99b-465d-86bd-3c80e90ce34f","system_id":"levelo_inurba_marseille","lat":43.286004,"lon":5.398742,"is_reserved":false,"is_disabled":false,"rental_uris":{"android":"levelo://app?vid=2367bd92-b99b-465d-86bd-3c80e90ce34f","ios":"levelo://app?vid=2367bd92-b99b-465d-86bd-3c80e90ce34f"},"vehicle_type_id":"4","last_reported":1767341832,"current_range_meters":4400,"station_id":"st_d4a7ka997mjs738ck50g","pricing_plan_id":"cebpf4jnsgd1na2vs0mg"},{"bike_id":"e41a6340-43b4-427f-9b65-d9949dfc1ba1","system_id":"levelo_inurba_marseille","lat":43.29642,"lon":5.37147,"is_reserved":false,"is_disabled":false,"rental_uris":{"android":"levelo://app?vid=e41a6340-43b4-427f-9b65-d9949dfc1ba1","ios":"levelo://app?vid=e41a6340-43b4-427f-9b65-d9949dfc1ba1"},"vehicle_type_id":"4","last_reported":1767341832,"current_range_meters":4400,"station_id":"ce4bgnh2rcd13ifvqc0g","pricing_plan_id":"cebpf4jnsgd1na2vs0mg"},{"bike_id":"f9e9fd89-b7c6-4e84-90bb-2a2dc045365a","system_id":"levelo_inurba_marseille","lat":43.25917,"lon":5.40913,"is_reserved":false,"is_disabled":false,"rental_uris":{"android":"levelo://app?vid=f9e9fd89-b7c6-4e84-90bb-2a2dc045365a","ios":"levelo://app?vid=f9e9fd89-b7c6-4e84-90bb-2a2dc045365a"},"vehicle_type_id":"4","last_reported":1767341832,"current_range_meters":4400,"station_id":"ce4bhm92rcd13ifvqglg","pricing_plan_id":"cebpf4jnsgd1na2vs0mg"},{"bike_id":"ee1959ff-d4ae-4b6f-9140-6704900b9ea6","system_id":"levelo_inurba_marseille","lat":43.25093,"lon":5.39497,"is_reserved":false,"is_disabled":false,"rental_uris":{"android":"levelo://app?vid=ee1959ff-d4ae-4b6f-9140-6704900b9ea6","ios":"levelo://app?vid=ee1959ff-d4ae-4b6f-9140-6704900b9ea6"},"vehicle_type_id":"4","last_reported":1767341832,"current_range_meters":4400,"station_id":"ce4bhm12rcd13ifvqgkg","pricing_plan_id":"cebpf4jnsgd1na2vs0mg"},{"bike_id":"dc1d1fd3-287c-4df2-89a3-973e9127dcfe","system_id":"levelo_inurba_marseille","lat":43.246321,"lon":5.431419,"is_reserved":false,"is_disabled":false,"rental_uris":{"android":"levelo://app?vid=dc1d1fd3-287c-4df2-89a3-973e9127dcfe","ios":"levelo://app?vid=dc1d1fd3-287c-4df2-89a3-973e9127dcfe"},"vehicle_type_id":"4","last_reported":1767341832,"current_range_meters":4800,"station_id":"st_d2m6c4gdas8pm72e190g","pricing_plan_id":"cebpf4jnsgd1na2vs0mg"},{"bike_id":"3282aea1-9bed-44e6-a833-eea50b551ac8","system_id":"levelo_inurba_marseille","lat":43.26937,"lon":5.38921,"is_reserved":false,"is_disabled":false,"rental_uris":{"android":"levelo://app?vid=3282aea1-9bed-44e6-a833-eea50b551ac8","ios":"levelo://app?vid=3282aea1-9bed-44e6-a833-eea50b551ac8"},"vehicle_type_id":"4","last_reported":1767341832,"current_range_meters":4800,"station_id":"ce4bhhh2rcd13ifvqfl0","pricing_plan_id":"cebpf4jnsgd1na2vs0mg"},{"bike_id":"b7ae8b8f-c800-4cd2-b0a1-e6db5363e1d5","system_id":"levelo_inurba_marseille","lat":43.255107,"lon":5.37649,"is_reserved":false,"is_disabled":false,"rental_uris":{"android":"levelo://app?vid=b7ae8b8f-c800-4cd2-b0a1-e6db5363e1d5","ios":"levelo://app?vid=b7ae8b8f-c800-4cd2-b0a1-e6db5363e1d5"},"vehicle_type_id":"4","last_reported":1767341832,"current_range_meters":4800,"station_id":"ce4bhh12rcd13ifvqff0","pricing_plan_id":"cebpf4jnsgd1na2vs0mg"},{"bike_id":"b5f80a1c-7345-44ae-9c2d-843287ace1f8","system_id":"levelo_inurba_marseille","lat":43.27428,"lon":5.42408,"is_reserved":false,"is_disabled":false,"rental_uris":{"android":"levelo://app?vid=b5f80a1c-7345-44ae-9c2d-843287ace1f8","ios":"levelo://app?vid=b5f80a1c-7345-44ae-9c2d-843287ace1f8"},"vehicle_type_id":"4","last_reported":1767341832,"current_range_meters":4800,"station_id":"","pricing_plan_id":"cebpf4jnsgd1na2vs0mg"},{"bike_id":"ca3f2db3-b93a-4ad8-90f8-de36e33fe8b4","system_id":"levelo_inurba_marseille","lat":43.225329,"lon":5.348285,"is_reserved":false,"is_disabled":false,"rental_uris":{"android":"levelo://app?vid=ca3f2db3-b93a-4ad8-90f8-de36e33fe8b4","ios":"levelo://app?vid=ca3f2db3-b93a-4ad8-90f8-de36e33fe8b4"},"vehicle_type_id":"4","last_reported":1767341832,"current_range_meters":4800,"station_id":"","pricing_plan_id":"cebpf4jnsgd1na2vs0mg"},{"bike_id":"e81f6402-b575-44f8-9405-25f53ea6d92c","system_id":"levelo_inurba_marseille","lat":43.29584,"lon":5.37496,"is_reserved":false,"is_disabled":false,"rental_uris":{"android":"levelo://app?vid=e81f6402-b575-44f8-9405-25f53ea6d92c","ios":"levelo://app?vid=e81f6402-b575-44f8-9405-25f53ea6d92c"},"vehicle_type_id":"4","last_reported":1767341832,"current_range_meters":4800,"station_id":"ce4bgh92rcd13ifvqb50","pricing_plan_id":"cebpf4jnsgd1na2vs0mg"},{"bike_id":"ca2a4141-2d11-4724-ae9a-5df9c6e34715","system_id":"levelo_inurba_marseille","lat":43.24661,"lon":5.38871,"is_reserved":false,"is_disabled":false,"rental_uris":{"android":"levelo://app?vid=ca2a4141-2d11-4724-ae9a-5df9c6e34715","ios":"levelo://app?vid=ca2a4141-2d11-4724-ae9a-5df9c6e34715"},"vehicle_type_id":"4","last_reported":1767341832,"current_range_meters":4800,"station_id":"ce4bhg12rcd13ifvqf60","pricing_plan_id":"cebpf4jnsgd1na2vs0mg"},{"bike_id":"a9d7370e-c542-4ea5-b026-82659eb4c204","system_id":"levelo_inurba_marseille","lat":43.24692,"lon":5.38131,"is_reserved":false,"is_disabled":false,"rental_uris":{"android":"levelo://app?vid=a9d7370e-c542-4ea5-b026-82659eb4c204","ios":"levelo://app?vid=a9d7370e-c542-4ea5-b026-82659eb4c204"},"vehicle_type_id":"4","last_reported":1767341832,"current_range_meters":4800,"station_id":"ce4bhih2rcd13ifvqfr0","pricing_plan_id":"cebpf4jnsgd1na2vs0mg"},{"bike_id":"8f36adfd-9702-444f-9761-701cb7e1083e","system_id":"levelo_inurba_marseille","lat":43.289433,"lon":5.363958,"is_reserved":false,"is_disabled":false,"rental_uris":{"android":"levelo://app?vid=8f36adfd-9702-444f-9761-701cb7e1083e","ios":"levelo://app?vid=8f36adfd-9702-444f-9761-701cb7e1083e"},"vehicle_type_id":"4","last_reported":1767341832,"current_range_meters":5600,"station_id":"ce4bhc92rcd13ifvqetg","pricing_plan_id":"cebpf4jnsgd1na2vs0mg"},{"bike_id":"1763bda5-9a2f-4323-b228-f44726653fd8","system_id":"levelo_inurba_marseille","lat":43.28418,"lon":5.35001,"is_reserved":false,"is_disabled":false,"rental_uris":{"android":"levelo://app?vid=1763bda5-9a2f-4323-b228-f44726653fd8","ios":"levelo://app?vid=1763bda5-9a2f-4323-b228-f44726653fd8"},"vehicle_type_id":"4","last_reported":1767341832,"current_range_meters":5600,"station_id":"ce4bhbh2rcd13ifvqepg","pricing_plan_id":"cebpf4jnsgd1na2vs0mg"},{"bike_id":"86312e98-3486-4367-b50a-7a5236f4b8d0","system_id":"levelo_inurba_marseille","lat":43.27706,"lon":5.38904,"is_reserved":false,"is_disabled":false,"rental_uris":{"android":"levelo://app?vid=86312e98-3486-4367-b50a-7a5236f4b8d0","ios":"levelo://app?vid=86312e98-3486-4367-b50a-7a5236f4b8d0"},"vehicle_type_id":"4","last_reported":1767341832,"current_range_meters":5600,"station_id":"ce4bhi12rcd13ifvqfo0","pricing_plan_id":"cebpf4jnsgd1na2vs0mg"},{"bike_id":"ea5031e4-b749-4d48-ba29-71e8d8d5383b","system_id":"levelo_inurba_marseille","lat":43.26402,"lon":5.37394,"is_reserved":false,"is_disabled":false,"rental_uris":{"android":"levelo://app?vid=ea5031e4-b749-4d48-ba29-71e8d8d5383b","ios":"levelo://app?vid=ea5031e4-b749-4d48-ba29-71e8d8d5383b"},"vehicle_type_id":"4","last_reported":1767341832,"current_range_meters":5600,"station_id":"","pricing_plan_id":"cebpf4jnsgd1na2vs0mg"},{"bike_id":"d51b6a44-a05b-4deb-9147-7a5a8c9b7a34","system_id":"levelo_inurba_marseille","lat":43.29598,"lon":5.38097,"is_reserved":false,"is_disabled":false,"rental_uris":{"android":"levelo://app?vid=d51b6a44-a05b-4deb-9147-7a5a8c9b7a34","ios":"levelo://app?vid=d51b6a44-a05b-4deb-9147-7a5a8c9b7a34"},"vehicle_type_id":"4","last_reported":1767341832,"current_range_meters":5600,"station_id":"ce4bgl12rcd13ifvqbo0","pricing_plan_id":"cebpf4jnsgd1na2vs0mg"},{"bike_id":"4775b47e-c7ce-4937-8d6a-c19b02783254","system_id":"levelo_inurba_marseille","lat":43.27564,"lon":5.38404,"is_reserved":false,"is_disabled":false,"rental_uris":{"android":"levelo://app?vid=4775b47e-c7ce-4937-8d6a-c19b02783254","ios":"levelo://app?vid=4775b47e-c7ce-4937-8d6a-c19b02783254"},"vehicle_type_id":"4","last_reported":1767341832,"current_range_meters":5600,"station_id":"ce4bhh92rcd13ifvqfi0","pricing_plan_id":"cebpf4jnsgd1na2vs0mg"},{"bike_id":"10082815-dbf9-4a48-b9bb-b7d9a21347fa","system_id":"levelo_inurba_marseille","lat":43.21737,"lon":5.34613,"is_reserved":false,"is_disabled":false,"rental_uris":{"android":"levelo://app?vid=10082815-dbf9-4a48-b9bb-b7d9a21347fa","ios":"levelo://app?vid=10082815-dbf9-4a48-b9bb-b7d9a21347fa"},"vehicle_type_id":"4","last_reported":1767341832,"current_range_meters":5600,"station_id":"st_cvj6r9ubvosntc0bgbag","pricing_plan_id":"cebpf4jnsgd1na2vs0mg"},{"bike_id":"84e86dfc-b61a-42c1-93b8-a112038f791b","system_id":"levelo_inurba_marseille","lat":43.28614,"lon":5.35108,"is_reserved":false,"is_disabled":false,"rental_uris":{"android":"levelo://app?vid=84e86dfc-b61a-42c1-93b8-a112038f791b","ios":"levelo://app?vid=84e86dfc-b61a-42c1-93b8-a112038f791b"},"vehicle_type_id":"4","last_reported":1767341832,"current_range_meters":5600,"station_id":"ce4bhch2rcd13ifvqeug","pricing_plan_id":"cebpf4jnsgd1na2vs0mg"},{"bike_id":"f27745bc-a703-4c7b-b0b1-1028a16be233","system_id":"levelo_inurba_marseille","lat":43.295987,"lon":5.381077,"is_reserved":false,"is_disabled":false,"rental_uris":{"android":"levelo://app?vid=f27745bc-a703-4c7b-b0b1-1028a16be233","ios":"levelo://app?vid=f27745bc-a703-4c7b-b0b1-1028a16be233"},"vehicle_type_id":"4","last_reported":1767341832,"current_range_meters":5600,"station_id":"ce4bgl12rcd13ifvqbo0","pricing_plan_id":"cebpf4jnsgd1na2vs0mg"},{"bike_id":"a89fcd65-3d18-45df-add8-bd4009ee6f38","system_id":"levelo_inurba_marseille","lat":43.273696,"lon":5.362572,"is_reserved":false,"is_disabled":false,"rental_uris":{"android":"levelo://app?vid=a89fcd65-3d18-45df-add8-bd4009ee6f38","ios":"levelo://app?vid=a89fcd65-3d18-45df-add8-bd4009ee6f38"},"vehicle_type_id":"4","last_reported":1767341832,"current_range_meters":6000,"station_id":"ce4bhbh2rcd13ifvqeo0","pricing_plan_id":"cebpf4jnsgd1na2vs0mg"},{"bike_id":"02382ba1-c53a-4d54-ae09-ac85bbe6d34b","system_id":"levelo_inurba_marseille","lat":43.29303,"lon":5.37455,"is_reserved":false,"is_disabled":false,"rental_uris":{"android":"levelo://app?vid=02382ba1-c53a-4d54-ae09-ac85bbe6d34b","ios":"levelo://app?vid=02382ba1-c53a-4d54-ae09-ac85bbe6d34b"},"vehicle_type_id":"4","last_reported":1767341832,"current_range_meters":6000,"station_id":"ce4bgi12rcd13ifvqb70","pricing_plan_id":"cebpf4jnsgd1na2vs0mg"},{"bike_id":"1e76a212-04be-44be-a205-95cf426d8bf7","system_id":"levelo_inurba_marseille","lat":43.299062,"lon":5.381487,"is_reserved":false,"is_disabled":false,"rental_uris":{"android":"levelo://app?vid=1e76a212-04be-44be-a205-95cf426d8bf7","ios":"levelo://app?vid=1e76a212-04be-44be-a205-95cf426d8bf7"},"vehicle_type_id":"4","last_reported":1767341832,"current_range_meters":6000,"station_id":"ce4bh192rcd13ifvqdd0","pricing_plan_id":"cebpf4jnsgd1na2vs0mg"},{"bike_id":"46698c03-1aea-4a2a-bcba-e6279aa2fa13","system_id":"levelo_inurba_marseille","lat":43.29493,"lon":5.37607,"is_reserved":false,"is_disabled":false,"rental_uris":{"android":"levelo://app?vid=46698c03-1aea-4a2a-bcba-e6279aa2fa13","ios":"levelo://app?vid=46698c03-1aea-4a2a-bcba-e6279aa2fa13"},"vehicle_type_id":"4","last_reported":1767341832,"current_range_meters":6000,"station_id":"","pricing_plan_id":"cebpf4jnsgd1na2vs0mg"},{"bike_id":"7f8bc2f4-3256-4176-a803-fa7e148de4c6","system_id":"levelo_inurba_marseille","lat":43.243712,"lon":5.408498,"is_reserved":false,"is_disabled":false,"rental_uris":{"android":"levelo://app?vid=7f8bc2f4-3256-4176-a803-fa7e148de4c6","ios":"levelo://app?vid=7f8bc2f4-3256-4176-a803-fa7e148de4c6"},"vehicle_type_id":"4","last_reported":1767341832,"current_range_meters":6000,"station_id":"","pricing_plan_id":"cebpf4jnsgd1na2vs0mg"},{"bike_id":"71feabac-18bb-4c38-9f1c-553d18ed10d6","system_id":"levelo_inurba_marseille","lat":43.29603,"lon":5.37178,"is_reserved":false,"is_disabled":false,"rental_uris":{"android":"levelo://app?vid=71feabac-18bb-4c38-9f1c-553d18ed10d6","ios":"levelo://app?vid=71feabac-18bb-4c38-9f1c-553d18ed10d6"},"vehicle_type_id":"4","last_reported":1767341832,"current_range_meters":6000,"station_id":"ce4bgnh2rcd13ifvqc0g","pricing_plan_id":"cebpf4jnsgd1na2vs0mg"},{"bike_id":"d49fd2c9-dca5-4864-87e0-359520dd27b8","system_id":"levelo_inurba_marseille","lat":43.26135,"lon":5.39759,"is_reserved":false,"is_disabled":false,"rental_uris":{"android":"levelo://app?vid=d49fd2c9-dca5-4864-87e0-359520dd27b8","ios":"levelo://app?vid=d49fd2c9-dca5-4864-87e0-359520dd27b8"},"vehicle_type_id":"4","last_reported":1767341832,"current_range_meters":6000,"station_id":"","pricing_plan_id":"cebpf4jnsgd1na2vs0mg"},{"bike_id":"c616b386-869d-4a81-bbc8-a27ad66fe8e9","system_id":"levelo_inurba_marseille","lat":43.30139,"lon":5.38134,"is_reserved":false,"is_disabled":false,"rental_uris":{"android":"levelo://app?vid=c616b386-869d-4a81-bbc8-a27ad66fe8e9","ios":"levelo://app?vid=c616b386-869d-4a81-bbc8-a27ad66fe8e9"},"vehicle_type_id":"4","last_reported":1767341832,"current_range_meters":6000,"station_id":"ce4bgjp2rcd13ifvqbh0","pricing_plan_id":"cebpf4jnsgd1na2vs0mg"},{"bike_id":"9df51a33-d8d1-4b42-9888-b57cc9ef08bc","system_id":"levelo_inurba_marseille","lat":43.2952,"lon":5.38739,"is_reserved":false,"is_disabled":false,"rental_uris":{"android":"levelo://app?vid=9df51a33-d8d1-4b42-9888-b57cc9ef08bc","ios":"levelo://app?vid=9df51a33-d8d1-4b42-9888-b57cc9ef08bc"},"vehicle_type_id":"4","last_reported":1767341832,"current_range_meters":6000,"station_id":"","pricing_plan_id":"cebpf4jnsgd1na2vs0mg"},{"bike_id":"0a06d075-d41f-47f7-abb5-bcc311f7894f","system_id":"levelo_inurba_marseille","lat":43.30304,"lon":5.39203,"is_reserved":false,"is_disabled":false,"rental_uris":{"android":"levelo://app?vid=0a06d075-d41f-47f7-abb5-bcc311f7894f","ios":"levelo://app?vid=0a06d075-d41f-47f7-abb5-bcc311f7894f"},"vehicle_type_id":"4","last_reported":1767341832,"current_range_meters":6000,"station_id":"ce4bgkh2rcd13ifvqbk0","pricing_plan_id":"cebpf4jnsgd1na2vs0mg"},{"bike_id":"5fb6044e-9e86-4cd7-8369-9dae8661f801","system_id":"levelo_inurba_marseille","lat":43.265589,"lon":5.403304,"is_reserved":false,"is_disabled":false,"rental_uris":{"android":"levelo://app?vid=5fb6044e-9e86-4cd7-8369-9dae8661f801","ios":"levelo://app?vid=5fb6044e-9e86-4cd7-8369-9dae8661f801"},"vehicle_type_id":"4","last_reported":1767341832,"current_range_meters":6400,"station_id":"ce4bhmp2rcd13ifvqgng","pricing_plan_id":"cebpf4jnsgd1na2vs0mg"},{"bike_id":"f86a25f1-ea9e-4c4d-8fca-5f1887ab98fa","system_id":"levelo_inurba_marseille","lat":43.28484,"lon":5.38421,"is_reserved":false,"is_disabled":false,"rental_uris":{"android":"levelo://app?vid=f86a25f1-ea9e-4c4d-8fca-5f1887ab98fa","ios":"levelo://app?vid=f86a25f1-ea9e-4c4d-8fca-5f1887ab98fa"},"vehicle_type_id":"4","last_reported":1767341832,"current_range_meters":6400,"station_id":"ce4bh512rcd13ifvqe3g","pricing_plan_id":"cebpf4jnsgd1na2vs0mg"},{"bike_id":"dc9feb7e-742c-4c15-83bb-7db4fa4848d4","system_id":"levelo_inurba_marseille","lat":43.31995,"lon":5.37264,"is_reserved":false,"is_disabled":false,"rental_uris":{"android":"levelo://app?vid=dc9feb7e-742c-4c15-83bb-7db4fa4848d4","ios":"levelo://app?vid=dc9feb7e-742c-4c15-83bb-7db4fa4848d4"},"vehicle_type_id":"4","last_reported":1767341832,"current_range_meters":6400,"station_id":"","pricing_plan_id":"cebpf4jnsgd1na2vs0mg"},{"bike_id":"bab8f5ce-6ea3-45fd-aa21-29b68816a77a","system_id":"levelo_inurba_marseille","lat":43.26526,"lon":5.39551,"is_reserved":false,"is_disabled":false,"rental_uris":{"android":"levelo://app?vid=bab8f5ce-6ea3-45fd-aa21-29b68816a77a","ios":"levelo://app?vid=bab8f5ce-6ea3-45fd-aa21-29b68816a77a"},"vehicle_type_id":"4","last_reported":1767341832,"current_range_meters":6400,"station_id":"ce4bhi12rcd13ifvqfq0","pricing_plan_id":"cebpf4jnsgd1na2vs0mg"},{"bike_id":"15535b78-92b9-46c7-ac4c-9d282c3dd513","system_id":"levelo_inurba_marseille","lat":43.28728,"lon":5.39994,"is_reserved":false,"is_disabled":true,"rental_uris":{"android":"levelo://app?vid=15535b78-92b9-46c7-ac4c-9d282c3dd513","ios":"levelo://app?vid=15535b78-92b9-46c7-ac4c-9d282c3dd513"},"vehicle_type_id":"4","last_reported":1767341832,"current_range_meters":6400,"station_id":"ce4bho92rcd13ifvqh3g","pricing_plan_id":"cebpf4jnsgd1na2vs0mg"},{"bike_id":"81586eb2-5997-4a7f-910d-f12ada7984c8","system_id":"levelo_inurba_marseille","lat":43.299027,"lon":5.385915,"is_reserved":false,"is_disabled":false,"rental_uris":{"android":"levelo://app?vid=81586eb2-5997-4a7f-910d-f12ada7984c8","ios":"levelo://app?vid=81586eb2-5997-4a7f-910d-f12ada7984c8"},"vehicle_type_id":"4","last_reported":1767341832,"current_range_meters":6400,"station_id":"","pricing_plan_id":"cebpf4jnsgd1na2vs0mg"},{"bike_id":"48cee1df-16aa-460a-ae1f-9b5bc1595f79","system_id":"levelo_inurba_marseille","lat":43.22938,"lon":5.353863,"is_reserved":false,"is_disabled":false,"rental_uris":{"android":"levelo://app?vid=48cee1df-16aa-460a-ae1f-9b5bc1595f79","ios":"levelo://app?vid=48cee1df-16aa-460a-ae1f-9b5bc1595f79"},"vehicle_type_id":"4","last_reported":1767341832,"current_range_meters":6400,"station_id":"cpo3532slgdg3j2ikp40","pricing_plan_id":"cebpf4jnsgd1na2vs0mg"},{"bike_id":"59b9f952-f261-4669-9bf2-ec09f3352df3","system_id":"levelo_inurba_marseille","lat":43.27078,"lon":5.42281,"is_reserved":false,"is_disabled":false,"rental_uris":{"android":"levelo://app?vid=59b9f952-f261-4669-9bf2-ec09f3352df3","ios":"levelo://app?vid=59b9f952-f261-4669-9bf2-ec09f3352df3"},"vehicle_type_id":"4","last_reported":1767341832,"current_range_meters":6400,"station_id":"ce4bhk92rcd13ifvqgb0","pricing_plan_id":"cebpf4jnsgd1na2vs0mg"},{"bike_id":"da51a696-5705-48cd-a174-f63e3c15d9de","system_id":"levelo_inurba_marseille","lat":43.28857,"lon":5.42525,"is_reserved":false,"is_disabled":false,"rental_uris":{"android":"levelo://app?vid=da51a696-5705-48cd-a174-f63e3c15d9de","ios":"levelo://app?vid=da51a696-5705-48cd-a174-f63e3c15d9de"},"vehicle_type_id":"4","last_reported":1767341832,"current_range_meters":6400,"station_id":"st_d3b462108ojc7389ooeg","pricing_plan_id":"cebpf4jnsgd1na2vs0mg"},{"bike_id":"bd706bad-1cdd-46da-9aa9-c9b2e6f3f4f0","system_id":"levelo_inurba_marseille","lat":43.26489,"lon":5.39534,"is_reserved":false,"is_disabled":false,"rental_uris":{"android":"levelo://app?vid=bd706bad-1cdd-46da-9aa9-c9b2e6f3f4f0","ios":"levelo://app?vid=bd706bad-1cdd-46da-9aa9-c9b2e6f3f4f0"},"vehicle_type_id":"4","last_reported":1767341832,"current_range_meters":6400,"station_id":"ce4bhi12rcd13ifvqfq0","pricing_plan_id":"cebpf4jnsgd1na2vs0mg"},{"bike_id":"5294767e-dd69-4945-8c8e-03dd74e904a7","system_id":"levelo_inurba_marseille","lat":43.23067,"lon":5.35489,"is_reserved":false,"is_disabled":false,"rental_uris":{"android":"levelo://app?vid=5294767e-dd69-4945-8c8e-03dd74e904a7","ios":"levelo://app?vid=5294767e-dd69-4945-8c8e-03dd74e904a7"},"vehicle_type_id":"4","last_reported":1767341832,"current_range_meters":6800,"station_id":"cpo3342slgdg3j2ifvpg","pricing_plan_id":"cebpf4jnsgd1na2vs0mg"},{"bike_id":"92e287f4-e88c-4138-a6d0-40d5e3d3b65d","system_id":"levelo_inurba_marseille","lat":43.29876,"lon":5.389,"is_reserved":false,"is_disabled":false,"rental_uris":{"android":"levelo://app?vid=92e287f4-e88c-4138-a6d0-40d5e3d3b65d","ios":"levelo://app?vid=92e287f4-e88c-4138-a6d0-40d5e3d3b65d"},"vehicle_type_id":"4","last_reported":1767341832,"current_range_meters":6800,"station_id":"ce4bh392rcd13ifvqdl0","pricing_plan_id":"cebpf4jnsgd1na2vs0mg"},{"bike_id":"7ac4eaa8-cf6b-4165-8b2e-8f9574151aa6","system_id":"levelo_inurba_marseille","lat":43.25336,"lon":5.42177,"is_reserved":false,"is_disabled":false,"rental_uris":{"android":"levelo://app?vid=7ac4eaa8-cf6b-4165-8b2e-8f9574151aa6","ios":"levelo://app?vid=7ac4eaa8-cf6b-4165-8b2e-8f9574151aa6"},"vehicle_type_id":"4","last_reported":1767341832,"current_range_meters":6800,"station_id":"st_d2m65c5bi1j21697t3ng","pricing_plan_id":"cebpf4jnsgd1na2vs0mg"},{"bike_id":"a37546a5-5ed0-437a-8b08-467eedf47722","system_id":"levelo_inurba_marseille","lat":43.24537,"lon":5.39531,"is_reserved":false,"is_disabled":false,"rental_uris":{"android":"levelo://app?vid=a37546a5-5ed0-437a-8b08-467eedf47722","ios":"levelo://app?vid=a37546a5-5ed0-437a-8b08-467eedf47722"},"vehicle_type_id":"4","last_reported":1767341832,"current_range_meters":6800,"station_id":"ce4bhlp2rcd13ifvqgjg","pricing_plan_id":"cebpf4jnsgd1na2vs0mg"},{"bike_id":"b6c2de47-37fa-44c1-ae2a-ab2b9c904820","system_id":"levelo_inurba_marseille","lat":43.28482,"lon":5.38435,"is_reserved":false,"is_disabled":false,"rental_uris":{"android":"levelo://app?vid=b6c2de47-37fa-44c1-ae2a-ab2b9c904820","ios":"levelo://app?vid=b6c2de47-37fa-44c1-ae2a-ab2b9c904820"},"vehicle_type_id":"4","last_reported":1767341832,"current_range_meters":6800,"station_id":"ce4bh512rcd13ifvqe3g","pricing_plan_id":"cebpf4jnsgd1na2vs0mg"},{"bike_id":"d4c6dc95-f402-4619-8161-a90cb01a834e","system_id":"levelo_inurba_marseille","lat":43.28864,"lon":5.425154,"is_reserved":false,"is_disabled":false,"rental_uris":{"android":"levelo://app?vid=d4c6dc95-f402-4619-8161-a90cb01a834e","ios":"levelo://app?vid=d4c6dc95-f402-4619-8161-a90cb01a834e"},"vehicle_type_id":"4","last_reported":1767341832,"current_range_meters":6800,"station_id":"st_d3b462108ojc7389ooeg","pricing_plan_id":"cebpf4jnsgd1na2vs0mg"},{"bike_id":"c033d2f6-a6cb-4fd7-a961-50f17588c0a8","system_id":"levelo_inurba_marseille","lat":43.28197,"lon":5.39004,"is_reserved":false,"is_disabled":false,"rental_uris":{"android":"levelo://app?vid=c033d2f6-a6cb-4fd7-a961-50f17588c0a8","ios":"levelo://app?vid=c033d2f6-a6cb-4fd7-a961-50f17588c0a8"},"vehicle_type_id":"4","last_reported":1767341832,"current_range_meters":6800,"station_id":"","pricing_plan_id":"cebpf4jnsgd1na2vs0mg"},{"bike_id":"303fc977-bc34-40d7-a7b6-1a8c63d2d925","system_id":"levelo_inurba_marseille","lat":43.225326,"lon":5.348292,"is_reserved":false,"is_disabled":false,"rental_uris":{"android":"levelo://app?vid=303fc977-bc34-40d7-a7b6-1a8c63d2d925","ios":"levelo://app?vid=303fc977-bc34-40d7-a7b6-1a8c63d2d925"},"vehicle_type_id":"4","last_reported":1767341832,"current_range_meters":6800,"station_id":"","pricing_plan_id":"cebpf4jnsgd1na2vs0mg"},{"bike_id":"057c9c8d-777a-4461-a92a-6845c43c397c","system_id":"levelo_inurba_marseille","lat":43.295169,"lon":5.394002,"is_reserved":false,"is_disabled":false,"rental_uris":{"android":"levelo://app?vid=057c9c8d-777a-4461-a92a-6845c43c397c","ios":"levelo://app?vid=057c9c8d-777a-4461-a92a-6845c43c397c"},"vehicle_type_id":"4","last_reported":1767341832,"current_range_meters":6800,"station_id":"ce4bh292rcd13ifvqdf0","pricing_plan_id":"cebpf4jnsgd1na2vs0mg"},{"bike_id":"27eab711-3794-4c67-b72c-787e5b4b546b","system_id":"levelo_inurba_marseille","lat":43.25585,"lon":5.38223,"is_reserved":false,"is_disabled":false,"rental_uris":{"android":"levelo://app?vid=27eab711-3794-4c67-b72c-787e5b4b546b","ios":"levelo://app?vid=27eab711-3794-4c67-b72c-787e5b4b546b"},"vehicle_type_id":"4","last_reported":1767341832,"current_range_meters":6800,"station_id":"ce4bhih2rcd13ifvqfs0","pricing_plan_id":"cebpf4jnsgd1na2vs0mg"},{"bike_id":"2573c545-f2d4-4ad8-9d30-55ccbf225a22","system_id":"levelo_inurba_marseille","lat":43.269157,"lon":5.368153,"is_reserved":false,"is_disabled":false,"rental_uris":{"android":"levelo://app?vid=2573c545-f2d4-4ad8-9d30-55ccbf225a22","ios":"levelo://app?vid=2573c545-f2d4-4ad8-9d30-55ccbf225a22"},"vehicle_type_id":"4","last_reported":1767341832,"current_range_meters":6800,"station_id":"","pricing_plan_id":"cebpf4jnsgd1na2vs0mg"},{"bike_id":"ead7dd8d-77ea-4b67-b1fb-95ddc6c818a5","system_id":"levelo_inurba_marseille","lat":43.31403,"lon":5.38087,"is_reserved":false,"is_disabled":false,"rental_uris":{"android":"levelo://app?vid=ead7dd8d-77ea-4b67-b1fb-95ddc6c818a5","ios":"levelo://app?vid=ead7dd8d-77ea-4b67-b1fb-95ddc6c818a5"},"vehicle_type_id":"4","last_reported":1767341832,"current_range_meters":6800,"station_id":"","pricing_plan_id":"cebpf4jnsgd1na2vs0mg"},{"bike_id":"f3a4c2fd-c27a-4ca6-bbe5-3949d2a88808","system_id":"levelo_inurba_marseille","lat":43.28556,"lon":5.4299,"is_reserved":false,"is_disabled":false,"rental_uris":{"android":"levelo://app?vid=f3a4c2fd-c27a-4ca6-bbe5-3949d2a88808","ios":"levelo://app?vid=f3a4c2fd-c27a-4ca6-bbe5-3949d2a88808"},"vehicle_type_id":"4","last_reported":1767341832,"current_range_meters":6800,"station_id":"","pricing_plan_id":"cebpf4jnsgd1na2vs0mg"},{"bike_id":"ac2c9016-1962-4bb7-98b8-6b51b62c6fe0","system_id":"levelo_inurba_marseille","lat":43.30094,"lon":5.3908,"is_reserved":false,"is_disabled":false,"rental_uris":{"android":"levelo://app?vid=ac2c9016-1962-4bb7-98b8-6b51b62c6fe0","ios":"levelo://app?vid=ac2c9016-1962-4bb7-98b8-6b51b62c6fe0"},"vehicle_type_id":"4","last_reported":1767341832,"current_range_meters":6800,"station_id":"ce4bh192rcd13ifvqdb0","pricing_plan_id":"cebpf4jnsgd1na2vs0mg"},{"bike_id":"152a1365-ee25-421d-85dd-2a6424d5b6f1","system_id":"levelo_inurba_marseille","lat":43.29977,"lon":5.37174,"is_reserved":false,"is_disabled":false,"rental_uris":{"android":"levelo://app?vid=152a1365-ee25-421d-85dd-2a6424d5b6f1","ios":"levelo://app?vid=152a1365-ee25-421d-85dd-2a6424d5b6f1"},"vehicle_type_id":"4","last_reported":1767341832,"current_range_meters":6800,"station_id":"ce4bgr92rcd13ifvqc7g","pricing_plan_id":"cebpf4jnsgd1na2vs0mg"},{"bike_id":"3fd00cb0-0645-4a8c-874a-2e0df62cb4f5","system_id":"levelo_inurba_marseille","lat":43.29725,"lon":5.38001,"is_reserved":false,"is_disabled":false,"rental_uris":{"android":"levelo://app?vid=3fd00cb0-0645-4a8c-874a-2e0df62cb4f5","ios":"levelo://app?vid=3fd00cb0-0645-4a8c-874a-2e0df62cb4f5"},"vehicle_type_id":"4","last_reported":1767341832,"current_range_meters":6800,"station_id":"","pricing_plan_id":"cebpf4jnsgd1na2vs0mg"},{"bike_id":"3726ff5a-3e12-42b0-b68f-b0200516c587","system_id":"levelo_inurba_marseille","lat":43.21197,"lon":5.3506,"is_reserved":false,"is_disabled":false,"rental_uris":{"android":"levelo://app?vid=3726ff5a-3e12-42b0-b68f-b0200516c587","ios":"levelo://app?vid=3726ff5a-3e12-42b0-b68f-b0200516c587"},"vehicle_type_id":"4","last_reported":1767341832,"current_range_meters":6800,"station_id":"st_cvj6sg6p6f1abm77japg","pricing_plan_id":"cebpf4jnsgd1na2vs0mg"},{"bike_id":"bebec6bc-9df3-406e-90bc-396ce2b3b0b3","system_id":"levelo_inurba_marseille","lat":43.26374,"lon":5.37424,"is_reserved":false,"is_disabled":false,"rental_uris":{"android":"levelo://app?vid=bebec6bc-9df3-406e-90bc-396ce2b3b0b3","ios":"levelo://app?vid=bebec6bc-9df3-406e-90bc-396ce2b3b0b3"},"vehicle_type_id":"4","last_reported":1767341832,"current_range_meters":6800,"station_id":"","pricing_plan_id":"cebpf4jnsgd1na2vs0mg"},{"bike_id":"53924fd8-5777-4f20-9ea2-dc16a02b5d55","system_id":"levelo_inurba_marseille","lat":43.26557,"lon":5.372788,"is_reserved":false,"is_disabled":false,"rental_uris":{"android":"levelo://app?vid=53924fd8-5777-4f20-9ea2-dc16a02b5d55","ios":"levelo://app?vid=53924fd8-5777-4f20-9ea2-dc16a02b5d55"},"vehicle_type_id":"4","last_reported":1767341832,"current_range_meters":7200,"station_id":"ce4bhg12rcd13ifvqf70","pricing_plan_id":"cebpf4jnsgd1na2vs0mg"},{"bike_id":"62bbb4f8-cd37-4703-914d-4c2cbb4345e1","system_id":"levelo_inurba_marseille","lat":43.28066,"lon":5.39653,"is_reserved":false,"is_disabled":false,"rental_uris":{"android":"levelo://app?vid=62bbb4f8-cd37-4703-914d-4c2cbb4345e1","ios":"levelo://app?vid=62bbb4f8-cd37-4703-914d-4c2cbb4345e1"},"vehicle_type_id":"4","last_reported":1767341832,"current_range_meters":7200,"station_id":"ce4bho12rcd13ifvqh2g","pricing_plan_id":"cebpf4jnsgd1na2vs0mg"},{"bike_id":"31074345-6b13-45ef-b79c-26566c89aa06","system_id":"levelo_inurba_marseille","lat":43.31048,"lon":5.37163,"is_reserved":false,"is_disabled":false,"rental_uris":{"android":"levelo://app?vid=31074345-6b13-45ef-b79c-26566c89aa06","ios":"levelo://app?vid=31074345-6b13-45ef-b79c-26566c89aa06"},"vehicle_type_id":"4","last_reported":1767341832,"current_range_meters":7200,"station_id":"st_d4kl2rp97mjs73e7tdfg","pricing_plan_id":"cebpf4jnsgd1na2vs0mg"},{"bike_id":"c75366f7-6d82-40d8-82e8-025dde28a263","system_id":"levelo_inurba_marseille","lat":43.29522,"lon":5.37441,"is_reserved":false,"is_disabled":true,"rental_uris":{"android":"levelo://app?vid=c75366f7-6d82-40d8-82e8-025dde28a263","ios":"levelo://app?vid=c75366f7-6d82-40d8-82e8-025dde28a263"},"vehicle_type_id":"4","last_reported":1767341832,"current_range_meters":7200,"station_id":"","pricing_plan_id":"cebpf4jnsgd1na2vs0mg"},{"bike_id":"54045760-2072-46e5-a5c4-00c3b9646aa6","system_id":"levelo_inurba_marseille","lat":43.299901,"lon":5.371807,"is_reserved":false,"is_disabled":false,"rental_uris":{"android":"levelo://app?vid=54045760-2072-46e5-a5c4-00c3b9646aa6","ios":"levelo://app?vid=54045760-2072-46e5-a5c4-00c3b9646aa6"},"vehicle_type_id":"4","last_reported":1767341832,"current_range_meters":7200,"station_id":"ce4bgr92rcd13ifvqc7g","pricing_plan_id":"cebpf4jnsgd1na2vs0mg"},{"bike_id":"f088b2d3-124b-401d-abdd-c84fccfb9eda","system_id":"levelo_inurba_marseille","lat":43.28303,"lon":5.38089,"is_reserved":false,"is_disabled":false,"rental_uris":{"android":"levelo://app?vid=f088b2d3-124b-401d-abdd-c84fccfb9eda","ios":"levelo://app?vid=f088b2d3-124b-401d-abdd-c84fccfb9eda"},"vehicle_type_id":"4","last_reported":1767341832,"current_range_meters":7200,"station_id":"","pricing_plan_id":"cebpf4jnsgd1na2vs0mg"},{"bike_id":"ab98afa8-4907-4b9f-b6c6-75e71a064cde","system_id":"levelo_inurba_marseille","lat":43.25715,"lon":5.41118,"is_reserved":false,"is_disabled":false,"rental_uris":{"android":"levelo://app?vid=ab98afa8-4907-4b9f-b6c6-75e71a064cde","ios":"levelo://app?vid=ab98afa8-4907-4b9f-b6c6-75e71a064cde"},"vehicle_type_id":"4","last_reported":1767341832,"current_range_meters":7200,"station_id":"ce4bhkp2rcd13ifvqgd0","pricing_plan_id":"cebpf4jnsgd1na2vs0mg"},{"bike_id":"5b121814-175d-4dd8-bc6c-330fb3cb4dcd","system_id":"levelo_inurba_marseille","lat":43.30599,"lon":5.3721,"is_reserved":false,"is_disabled":false,"rental_uris":{"android":"levelo://app?vid=5b121814-175d-4dd8-bc6c-330fb3cb4dcd","ios":"levelo://app?vid=5b121814-175d-4dd8-bc6c-330fb3cb4dcd"},"vehicle_type_id":"4","last_reported":1767341832,"current_range_meters":7200,"station_id":"ce4bgqh2rcd13ifvqc4g","pricing_plan_id":"cebpf4jnsgd1na2vs0mg"},{"bike_id":"08793bdf-bae6-4989-a3e8-8fa2dc512947","system_id":"levelo_inurba_marseille","lat":43.21184,"lon":5.35083,"is_reserved":false,"is_disabled":false,"rental_uris":{"android":"levelo://app?vid=08793bdf-bae6-4989-a3e8-8fa2dc512947","ios":"levelo://app?vid=08793bdf-bae6-4989-a3e8-8fa2dc512947"},"vehicle_type_id":"4","last_reported":1767341832,"current_range_meters":7200,"station_id":"st_cvj6sg6p6f1abm77japg","pricing_plan_id":"cebpf4jnsgd1na2vs0mg"},{"bike_id":"1498f079-e300-4265-837b-8da7d97aca06","system_id":"levelo_inurba_marseille","lat":43.24166,"lon":5.36392,"is_reserved":false,"is_disabled":false,"rental_uris":{"android":"levelo://app?vid=1498f079-e300-4265-837b-8da7d97aca06","ios":"levelo://app?vid=1498f079-e300-4265-837b-8da7d97aca06"},"vehicle_type_id":"4","last_reported":1767341832,"current_range_meters":7200,"station_id":"cpo36qri1sfpv3e86is0","pricing_plan_id":"cebpf4jnsgd1na2vs0mg"},{"bike_id":"b33aadfa-7bba-4441-8e8e-edff0fc8d195","system_id":"levelo_inurba_marseille","lat":43.27038,"lon":5.38319,"is_reserved":false,"is_disabled":false,"rental_uris":{"android":"levelo://app?vid=b33aadfa-7bba-4441-8e8e-edff0fc8d195","ios":"levelo://app?vid=b33aadfa-7bba-4441-8e8e-edff0fc8d195"},"vehicle_type_id":"4","last_reported":1767341832,"current_range_meters":7200,"station_id":"st_d3n2fo6cfp8s73cte1j0","pricing_plan_id":"cebpf4jnsgd1na2vs0mg"},{"bike_id":"961a4b80-6a80-41fc-af4e-cb7c655480a6","system_id":"levelo_inurba_marseille","lat":43.28294,"lon":5.3976,"is_reserved":false,"is_disabled":true,"rental_uris":{"android":"levelo://app?vid=961a4b80-6a80-41fc-af4e-cb7c655480a6","ios":"levelo://app?vid=961a4b80-6a80-41fc-af4e-cb7c655480a6"},"vehicle_type_id":"4","last_reported":1767341832,"current_range_meters":7200,"station_id":"","pricing_plan_id":"cebpf4jnsgd1na2vs0mg"},{"bike_id":"f15e664a-8cf5-4c10-8eed-a785dd97b6c8","system_id":"levelo_inurba_marseille","lat":43.2985,"lon":5.38918,"is_reserved":false,"is_disabled":false,"rental_uris":{"android":"levelo://app?vid=f15e664a-8cf5-4c10-8eed-a785dd97b6c8","ios":"levelo://app?vid=f15e664a-8cf5-4c10-8eed-a785dd97b6c8"},"vehicle_type_id":"4","last_reported":1767341832,"current_range_meters":7200,"station_id":"ce4bh392rcd13ifvqdl0","pricing_plan_id":"cebpf4jnsgd1na2vs0mg"},{"bike_id":"c70225d4-a502-4469-93b2-aecf70c63654","system_id":"levelo_inurba_marseille","lat":43.25575,"lon":5.38232,"is_reserved":false,"is_disabled":false,"rental_uris":{"android":"levelo://app?vid=c70225d4-a502-4469-93b2-aecf70c63654","ios":"levelo://app?vid=c70225d4-a502-4469-93b2-aecf70c63654"},"vehicle_type_id":"4","last_reported":1767341832,"current_range_meters":7200,"station_id":"ce4bhih2rcd13ifvqfs0","pricing_plan_id":"cebpf4jnsgd1na2vs0mg"},{"bike_id":"c9130f24-ffb5-404d-851b-31b1e51ee848","system_id":"levelo_inurba_marseille","lat":43.29282,"lon":5.38453,"is_reserved":false,"is_disabled":false,"rental_uris":{"android":"levelo://app?vid=c9130f24-ffb5-404d-851b-31b1e51ee848","ios":"levelo://app?vid=c9130f24-ffb5-404d-851b-31b1e51ee848"},"vehicle_type_id":"4","last_reported":1767341832,"current_range_meters":7200,"station_id":"ce4bh692rcd13ifvqea0","pricing_plan_id":"cebpf4jnsgd1na2vs0mg"},{"bike_id":"7ad11f56-6124-475a-8a9c-acbe7a5750ff","system_id":"levelo_inurba_marseille","lat":43.30011,"lon":5.38473,"is_reserved":false,"is_disabled":false,"rental_uris":{"android":"levelo://app?vid=7ad11f56-6124-475a-8a9c-acbe7a5750ff","ios":"levelo://app?vid=7ad11f56-6124-475a-8a9c-acbe7a5750ff"},"vehicle_type_id":"4","last_reported":1767341832,"current_range_meters":7200,"station_id":"ce4bgj92rcd13ifvqbd0","pricing_plan_id":"cebpf4jnsgd1na2vs0mg"},{"bike_id":"406f64a0-da6e-49db-a7ac-d7a777f3175c","system_id":"levelo_inurba_marseille","lat":43.27314,"lon":5.39068,"is_reserved":false,"is_disabled":false,"rental_uris":{"android":"levelo://app?vid=406f64a0-da6e-49db-a7ac-d7a777f3175c","ios":"levelo://app?vid=406f64a0-da6e-49db-a7ac-d7a777f3175c"},"vehicle_type_id":"4","last_reported":1767341832,"current_range_meters":7200,"station_id":"ce4bhgp2rcd13ifvqfe0","pricing_plan_id":"cebpf4jnsgd1na2vs0mg"},{"bike_id":"1f30b6ee-b668-449a-b407-bdf44b32fbd5","system_id":"levelo_inurba_marseille","lat":43.29045,"lon":5.39941,"is_reserved":false,"is_disabled":false,"rental_uris":{"android":"levelo://app?vid=1f30b6ee-b668-449a-b407-bdf44b32fbd5","ios":"levelo://app?vid=1f30b6ee-b668-449a-b407-bdf44b32fbd5"},"vehicle_type_id":"4","last_reported":1767341832,"current_range_meters":7200,"station_id":"ce4bh392rcd13ifvqdm0","pricing_plan_id":"cebpf4jnsgd1na2vs0mg"},{"bike_id":"663c19b5-49c4-4670-aae2-d8e35c8e54fe","system_id":"levelo_inurba_marseille","lat":43.25579,"lon":5.3824,"is_reserved":false,"is_disabled":false,"rental_uris":{"android":"levelo://app?vid=663c19b5-49c4-4670-aae2-d8e35c8e54fe","ios":"levelo://app?vid=663c19b5-49c4-4670-aae2-d8e35c8e54fe"},"vehicle_type_id":"4","last_reported":1767341832,"current_range_meters":7200,"station_id":"ce4bhih2rcd13ifvqfs0","pricing_plan_id":"cebpf4jnsgd1na2vs0mg"},{"bike_id":"f706dea8-efae-45c7-a0d0-ef3606201ff7","system_id":"levelo_inurba_marseille","lat":43.239555,"lon":5.366378,"is_reserved":false,"is_disabled":false,"rental_uris":{"android":"levelo://app?vid=f706dea8-efae-45c7-a0d0-ef3606201ff7","ios":"levelo://app?vid=f706dea8-efae-45c7-a0d0-ef3606201ff7"},"vehicle_type_id":"4","last_reported":1767341832,"current_range_meters":7200,"station_id":"ce4bhi12rcd13ifvqfp0","pricing_plan_id":"cebpf4jnsgd1na2vs0mg"},{"bike_id":"1e76a634-1236-4429-a6ca-562668962923","system_id":"levelo_inurba_marseille","lat":43.25216,"lon":5.39424,"is_reserved":false,"is_disabled":false,"rental_uris":{"android":"levelo://app?vid=1e76a634-1236-4429-a6ca-562668962923","ios":"levelo://app?vid=1e76a634-1236-4429-a6ca-562668962923"},"vehicle_type_id":"4","last_reported":1767341832,"current_range_meters":8000,"station_id":"","pricing_plan_id":"cebpf4jnsgd1na2vs0mg"},{"bike_id":"b7c65842-363d-43c4-92b2-529d07ea43d3","system_id":"levelo_inurba_marseille","lat":43.25837,"lon":5.3983,"is_reserved":false,"is_disabled":false,"rental_uris":{"android":"levelo://app?vid=b7c65842-363d-43c4-92b2-529d07ea43d3","ios":"levelo://app?vid=b7c65842-363d-43c4-92b2-529d07ea43d3"},"vehicle_type_id":"4","last_reported":1767341832,"current_range_meters":8000,"station_id":"","pricing_plan_id":"cebpf4jnsgd1na2vs0mg"},{"bike_id":"eae3ff06-d7a5-464a-8297-c6b4b0ceb3a3","system_id":"levelo_inurba_marseille","lat":43.29524,"lon":5.3855,"is_reserved":false,"is_disabled":false,"rental_uris":{"android":"levelo://app?vid=eae3ff06-d7a5-464a-8297-c6b4b0ceb3a3","ios":"levelo://app?vid=eae3ff06-d7a5-464a-8297-c6b4b0ceb3a3"},"vehicle_type_id":"4","last_reported":1767341832,"current_range_meters":8000,"station_id":"ce4bgih2rcd13ifvqba0","pricing_plan_id":"cebpf4jnsgd1na2vs0mg"},{"bike_id":"7f8c1213-60b7-4367-a2bf-21350ef37308","system_id":"levelo_inurba_marseille","lat":43.273763,"lon":5.362636,"is_reserved":false,"is_disabled":true,"rental_uris":{"android":"levelo://app?vid=7f8c1213-60b7-4367-a2bf-21350ef37308","ios":"levelo://app?vid=7f8c1213-60b7-4367-a2bf-21350ef37308"},"vehicle_type_id":"4","last_reported":1767341832,"current_range_meters":8000,"station_id":"ce4bhbh2rcd13ifvqeo0","pricing_plan_id":"cebpf4jnsgd1na2vs0mg"},{"bike_id":"4f437bfb-eb50-4510-9679-8b39b057f8de","system_id":"levelo_inurba_marseille","lat":43.2406,"lon":5.3776,"is_reserved":false,"is_disabled":false,"rental_uris":{"android":"levelo://app?vid=4f437bfb-eb50-4510-9679-8b39b057f8de","ios":"levelo://app?vid=4f437bfb-eb50-4510-9679-8b39b057f8de"},"vehicle_type_id":"4","last_reported":1767341832,"current_range_meters":8000,"station_id":"ce4bhnp2rcd13ifvqgvg","pricing_plan_id":"cebpf4jnsgd1na2vs0mg"},{"bike_id":"5d64b1d9-59fb-4d57-9b2b-5de60919d0d5","system_id":"levelo_inurba_marseille","lat":43.29217,"lon":5.37031,"is_reserved":false,"is_disabled":false,"rental_uris":{"android":"levelo://app?vid=5d64b1d9-59fb-4d57-9b2b-5de60919d0d5","ios":"levelo://app?vid=5d64b1d9-59fb-4d57-9b2b-5de60919d0d5"},"vehicle_type_id":"4","last_reported":1767341832,"current_range_meters":8000,"station_id":"","pricing_plan_id":"cebpf4jnsgd1na2vs0mg"},{"bike_id":"50a1ce80-e2ae-4637-b1b3-c5d653d75cd1","system_id":"levelo_inurba_marseille","lat":43.3189,"lon":5.39038,"is_reserved":false,"is_disabled":false,"rental_uris":{"android":"levelo://app?vid=50a1ce80-e2ae-4637-b1b3-c5d653d75cd1","ios":"levelo://app?vid=50a1ce80-e2ae-4637-b1b3-c5d653d75cd1"},"vehicle_type_id":"4","last_reported":1767341832,"current_range_meters":8000,"station_id":"","pricing_plan_id":"cebpf4jnsgd1na2vs0mg"},{"bike_id":"d8431e58-d3e8-4456-9570-729e3ebbcc73","system_id":"levelo_inurba_marseille","lat":43.30144,"lon":5.37266,"is_reserved":false,"is_disabled":false,"rental_uris":{"android":"levelo://app?vid=d8431e58-d3e8-4456-9570-729e3ebbcc73","ios":"levelo://app?vid=d8431e58-d3e8-4456-9570-729e3ebbcc73"},"vehicle_type_id":"4","last_reported":1767341832,"current_range_meters":8000,"station_id":"","pricing_plan_id":"cebpf4jnsgd1na2vs0mg"},{"bike_id":"7ac98c64-2424-49b0-be1b-1d86a6975c42","system_id":"levelo_inurba_marseille","lat":43.290055,"lon":5.356079,"is_reserved":false,"is_disabled":false,"rental_uris":{"android":"levelo://app?vid=7ac98c64-2424-49b0-be1b-1d86a6975c42","ios":"levelo://app?vid=7ac98c64-2424-49b0-be1b-1d86a6975c42"},"vehicle_type_id":"4","last_reported":1767341832,"current_range_meters":8000,"station_id":"ce4bhb92rcd13ifvqen0","pricing_plan_id":"cebpf4jnsgd1na2vs0mg"},{"bike_id":"5a8e23cb-d34e-4455-b0d4-2a97b4a55a8b","system_id":"levelo_inurba_marseille","lat":43.25333,"lon":5.4219,"is_reserved":false,"is_disabled":false,"rental_uris":{"android":"levelo://app?vid=5a8e23cb-d34e-4455-b0d4-2a97b4a55a8b","ios":"levelo://app?vid=5a8e23cb-d34e-4455-b0d4-2a97b4a55a8b"},"vehicle_type_id":"4","last_reported":1767341832,"current_range_meters":8000,"station_id":"st_d2m65c5bi1j21697t3ng","pricing_plan_id":"cebpf4jnsgd1na2vs0mg"},{"bike_id":"25f1743a-a2b2-454e-84ce-5c43f5ea30d3","system_id":"levelo_inurba_marseille","lat":43.298884,"lon":5.436623,"is_reserved":false,"is_disabled":false,"rental_uris":{"android":"levelo://app?vid=25f1743a-a2b2-454e-84ce-5c43f5ea30d3","ios":"levelo://app?vid=25f1743a-a2b2-454e-84ce-5c43f5ea30d3"},"vehicle_type_id":"4","last_reported":1767341832,"current_range_meters":8000,"station_id":"ce4bhpp2rcd13ifvqhfg","pricing_plan_id":"cebpf4jnsgd1na2vs0mg"},{"bike_id":"adee5904-d2f9-48c4-ad58-68d27b5bb40a","system_id":"levelo_inurba_marseille","lat":43.2927,"lon":5.37677,"is_reserved":false,"is_disabled":false,"rental_uris":{"android":"levelo://app?vid=adee5904-d2f9-48c4-ad58-68d27b5bb40a","ios":"levelo://app?vid=adee5904-d2f9-48c4-ad58-68d27b5bb40a"},"vehicle_type_id":"4","last_reported":1767341832,"current_range_meters":8000,"station_id":"ce4bgi12rcd13ifvqb80","pricing_plan_id":"cebpf4jnsgd1na2vs0mg"},{"bike_id":"051f3fd6-8a3b-4cb8-bc8d-666a69e5cd08","system_id":"levelo_inurba_marseille","lat":43.25112,"lon":5.40319,"is_reserved":false,"is_disabled":false,"rental_uris":{"android":"levelo://app?vid=051f3fd6-8a3b-4cb8-bc8d-666a69e5cd08","ios":"levelo://app?vid=051f3fd6-8a3b-4cb8-bc8d-666a69e5cd08"},"vehicle_type_id":"4","last_reported":1767341832,"current_range_meters":8000,"station_id":"ce4bhlh2rcd13ifvqgig","pricing_plan_id":"cebpf4jnsgd1na2vs0mg"},{"bike_id":"252720f9-884a-4e77-a800-81e09b65fb7d","system_id":"levelo_inurba_marseille","lat":43.2927,"lon":5.38447,"is_reserved":false,"is_disabled":false,"rental_uris":{"android":"levelo://app?vid=252720f9-884a-4e77-a800-81e09b65fb7d","ios":"levelo://app?vid=252720f9-884a-4e77-a800-81e09b65fb7d"},"vehicle_type_id":"4","last_reported":1767341832,"current_range_meters":8000,"station_id":"ce4bh692rcd13ifvqea0","pricing_plan_id":"cebpf4jnsgd1na2vs0mg"},{"bike_id":"f4ef9f94-3230-4222-8447-855dcca2f2bc","system_id":"levelo_inurba_marseille","lat":43.27422,"lon":5.3941,"is_reserved":false,"is_disabled":false,"rental_uris":{"android":"levelo://app?vid=f4ef9f94-3230-4222-8447-855dcca2f2bc","ios":"levelo://app?vid=f4ef9f94-3230-4222-8447-855dcca2f2bc"},"vehicle_type_id":"4","last_reported":1767341832,"current_range_meters":8000,"station_id":"ce4bhdp2rcd13ifvqf20","pricing_plan_id":"cebpf4jnsgd1na2vs0mg"},{"bike_id":"6d39cb04-ab3b-45c1-90d7-0c7a54998c4a","system_id":"levelo_inurba_marseille","lat":43.27895,"lon":5.38013,"is_reserved":false,"is_disabled":false,"rental_uris":{"android":"levelo://app?vid=6d39cb04-ab3b-45c1-90d7-0c7a54998c4a","ios":"levelo://app?vid=6d39cb04-ab3b-45c1-90d7-0c7a54998c4a"},"vehicle_type_id":"4","last_reported":1767341832,"current_range_meters":8000,"station_id":"ce4bhf92rcd13ifvqf50","pricing_plan_id":"cebpf4jnsgd1na2vs0mg"},{"bike_id":"e0decbbd-66f2-41ff-95bf-ae2a7b2f4e23","system_id":"levelo_inurba_marseille","lat":43.28628,"lon":5.42599,"is_reserved":false,"is_disabled":false,"rental_uris":{"android":"levelo://app?vid=e0decbbd-66f2-41ff-95bf-ae2a7b2f4e23","ios":"levelo://app?vid=e0decbbd-66f2-41ff-95bf-ae2a7b2f4e23"},"vehicle_type_id":"4","last_reported":1767341832,"current_range_meters":8000,"station_id":"","pricing_plan_id":"cebpf4jnsgd1na2vs0mg"},{"bike_id":"772124ba-5420-4e94-ba55-32ef5db59e17","system_id":"levelo_inurba_marseille","lat":43.280495,"lon":5.353294,"is_reserved":false,"is_disabled":false,"rental_uris":{"android":"levelo://app?vid=772124ba-5420-4e94-ba55-32ef5db59e17","ios":"levelo://app?vid=772124ba-5420-4e94-ba55-32ef5db59e17"},"vehicle_type_id":"4","last_reported":1767341832,"current_range_meters":8000,"station_id":"","pricing_plan_id":"cebpf4jnsgd1na2vs0mg"},{"bike_id":"3ea63038-6c6b-45f0-b75e-c21acaf1cee5","system_id":"levelo_inurba_marseille","lat":43.274,"lon":5.39419,"is_reserved":false,"is_disabled":false,"rental_uris":{"android":"levelo://app?vid=3ea63038-6c6b-45f0-b75e-c21acaf1cee5","ios":"levelo://app?vid=3ea63038-6c6b-45f0-b75e-c21acaf1cee5"},"vehicle_type_id":"4","last_reported":1767341832,"current_range_meters":8000,"station_id":"ce4bhdp2rcd13ifvqf20","pricing_plan_id":"cebpf4jnsgd1na2vs0mg"},{"bike_id":"9a253175-fef0-4c75-a8d8-bb357322efb0","system_id":"levelo_inurba_marseille","lat":43.211908,"lon":5.350714,"is_reserved":false,"is_disabled":false,"rental_uris":{"android":"levelo://app?vid=9a253175-fef0-4c75-a8d8-bb357322efb0","ios":"levelo://app?vid=9a253175-fef0-4c75-a8d8-bb357322efb0"},"vehicle_type_id":"4","last_reported":1767341832,"current_range_meters":8000,"station_id":"st_cvj6sg6p6f1abm77japg","pricing_plan_id":"cebpf4jnsgd1na2vs0mg"},{"bike_id":"efd33062-2cef-445f-af98-648f578e9c2a","system_id":"levelo_inurba_marseille","lat":43.32595,"lon":5.41965,"is_reserved":false,"is_disabled":false,"rental_uris":{"android":"levelo://app?vid=efd33062-2cef-445f-af98-648f578e9c2a","ios":"levelo://app?vid=efd33062-2cef-445f-af98-648f578e9c2a"},"vehicle_type_id":"4","last_reported":1767341832,"current_range_meters":8400,"station_id":"","pricing_plan_id":"cebpf4jnsgd1na2vs0mg"},{"bike_id":"cd58d28f-2ebc-4e43-abdf-aaaf798746bc","system_id":"levelo_inurba_marseille","lat":43.26549,"lon":5.39056,"is_reserved":false,"is_disabled":false,"rental_uris":{"android":"levelo://app?vid=cd58d28f-2ebc-4e43-abdf-aaaf798746bc","ios":"levelo://app?vid=cd58d28f-2ebc-4e43-abdf-aaaf798746bc"},"vehicle_type_id":"4","last_reported":1767341832,"current_range_meters":8400,"station_id":"ce4bhe12rcd13ifvqf30","pricing_plan_id":"cebpf4jnsgd1na2vs0mg"},{"bike_id":"3b652abb-4144-4a5b-8035-ab28a7ba1f33","system_id":"levelo_inurba_marseille","lat":43.28132,"lon":5.42646,"is_reserved":false,"is_disabled":false,"rental_uris":{"android":"levelo://app?vid=3b652abb-4144-4a5b-8035-ab28a7ba1f33","ios":"levelo://app?vid=3b652abb-4144-4a5b-8035-ab28a7ba1f33"},"vehicle_type_id":"4","last_reported":1767341832,"current_range_meters":8400,"station_id":"ce4bhnh2rcd13ifvqgug","pricing_plan_id":"cebpf4jnsgd1na2vs0mg"},{"bike_id":"1a403cec-be48-4249-9b2c-735a7abb7cc1","system_id":"levelo_inurba_marseille","lat":43.29534,"lon":5.39411,"is_reserved":false,"is_disabled":false,"rental_uris":{"android":"levelo://app?vid=1a403cec-be48-4249-9b2c-735a7abb7cc1","ios":"levelo://app?vid=1a403cec-be48-4249-9b2c-735a7abb7cc1"},"vehicle_type_id":"4","last_reported":1767341832,"current_range_meters":8400,"station_id":"ce4bh292rcd13ifvqdf0","pricing_plan_id":"cebpf4jnsgd1na2vs0mg"},{"bike_id":"34c978d5-47ad-4b2a-8a2f-906f7fa23f12","system_id":"levelo_inurba_marseille","lat":43.244636,"lon":5.425249,"is_reserved":false,"is_disabled":false,"rental_uris":{"android":"levelo://app?vid=34c978d5-47ad-4b2a-8a2f-906f7fa23f12","ios":"levelo://app?vid=34c978d5-47ad-4b2a-8a2f-906f7fa23f12"},"vehicle_type_id":"4","last_reported":1767341832,"current_range_meters":8400,"station_id":"st_d4a3vfp97mjs738cd8kg","pricing_plan_id":"cebpf4jnsgd1na2vs0mg"},{"bike_id":"d90ea927-cc8f-4bbb-a6fa-bc6608c1a260","system_id":"levelo_inurba_marseille","lat":43.29588,"lon":5.37738,"is_reserved":false,"is_disabled":true,"rental_uris":{"android":"levelo://app?vid=d90ea927-cc8f-4bbb-a6fa-bc6608c1a260","ios":"levelo://app?vid=d90ea927-cc8f-4bbb-a6fa-bc6608c1a260"},"vehicle_type_id":"4","last_reported":1767341832,"current_range_meters":8400,"station_id":"ce4bgi92rcd13ifvqb90","pricing_plan_id":"cebpf4jnsgd1na2vs0mg"},{"bike_id":"650654d1-6b19-458f-97df-c0f29c65087f","system_id":"levelo_inurba_marseille","lat":43.26498,"lon":5.39537,"is_reserved":false,"is_disabled":false,"rental_uris":{"android":"levelo://app?vid=650654d1-6b19-458f-97df-c0f29c65087f","ios":"levelo://app?vid=650654d1-6b19-458f-97df-c0f29c65087f"},"vehicle_type_id":"4","last_reported":1767341832,"current_range_meters":8400,"station_id":"ce4bhi12rcd13ifvqfq0","pricing_plan_id":"cebpf4jnsgd1na2vs0mg"},{"bike_id":"770adec0-43e5-4e4d-997f-51d8dafd046a","system_id":"levelo_inurba_marseille","lat":43.278317,"lon":5.392055,"is_reserved":false,"is_disabled":false,"rental_uris":{"android":"levelo://app?vid=770adec0-43e5-4e4d-997f-51d8dafd046a","ios":"levelo://app?vid=770adec0-43e5-4e4d-997f-51d8dafd046a"},"vehicle_type_id":"4","last_reported":1767341832,"current_range_meters":8400,"station_id":"ce4bhjp2rcd13ifvqga0","pricing_plan_id":"cebpf4jnsgd1na2vs0mg"},{"bike_id":"759f8fee-06f2-4bc4-8618-03ba85bfc8da","system_id":"levelo_inurba_marseille","lat":43.29716,"lon":5.42805,"is_reserved":false,"is_disabled":false,"rental_uris":{"android":"levelo://app?vid=759f8fee-06f2-4bc4-8618-03ba85bfc8da","ios":"levelo://app?vid=759f8fee-06f2-4bc4-8618-03ba85bfc8da"},"vehicle_type_id":"4","last_reported":1767341832,"current_range_meters":8400,"station_id":"","pricing_plan_id":"cebpf4jnsgd1na2vs0mg"},{"bike_id":"ead1444d-eac1-417f-b268-ce9ed5abb843","system_id":"levelo_inurba_marseille","lat":43.29702,"lon":5.37293,"is_reserved":false,"is_disabled":false,"rental_uris":{"android":"levelo://app?vid=ead1444d-eac1-417f-b268-ce9ed5abb843","ios":"levelo://app?vid=ead1444d-eac1-417f-b268-ce9ed5abb843"},"vehicle_type_id":"4","last_reported":1767341832,"current_range_meters":8400,"station_id":"ce4bgk12rcd13ifvqbj0","pricing_plan_id":"cebpf4jnsgd1na2vs0mg"},{"bike_id":"b4c9a5d7-4be2-49ec-96c4-187a2a733398","system_id":"levelo_inurba_marseille","lat":43.24163,"lon":5.36391,"is_reserved":false,"is_disabled":false,"rental_uris":{"android":"levelo://app?vid=b4c9a5d7-4be2-49ec-96c4-187a2a733398","ios":"levelo://app?vid=b4c9a5d7-4be2-49ec-96c4-187a2a733398"},"vehicle_type_id":"4","last_reported":1767341832,"current_range_meters":8400,"station_id":"cpo36qri1sfpv3e86is0","pricing_plan_id":"cebpf4jnsgd1na2vs0mg"},{"bike_id":"1f4701d5-d340-4df9-98f7-8c976bc059e9","system_id":"levelo_inurba_marseille","lat":43.28301,"lon":5.35041,"is_reserved":false,"is_disabled":false,"rental_uris":{"android":"levelo://app?vid=1f4701d5-d340-4df9-98f7-8c976bc059e9","ios":"levelo://app?vid=1f4701d5-d340-4df9-98f7-8c976bc059e9"},"vehicle_type_id":"4","last_reported":1767341832,"current_range_meters":8400,"station_id":"ce4bhbp2rcd13ifvqerg","pricing_plan_id":"cebpf4jnsgd1na2vs0mg"},{"bike_id":"2a92eb68-3fcb-4c5e-aa8a-499824b82d0a","system_id":"levelo_inurba_marseille","lat":43.284184,"lon":5.375118,"is_reserved":false,"is_disabled":false,"rental_uris":{"android":"levelo://app?vid=2a92eb68-3fcb-4c5e-aa8a-499824b82d0a","ios":"levelo://app?vid=2a92eb68-3fcb-4c5e-aa8a-499824b82d0a"},"vehicle_type_id":"4","last_reported":1767341832,"current_range_meters":8400,"station_id":"ce4bh412rcd13ifvqds0","pricing_plan_id":"cebpf4jnsgd1na2vs0mg"},{"bike_id":"3ef07900-2cd6-4a20-903c-95332bacbfa3","system_id":"levelo_inurba_marseille","lat":43.32483,"lon":5.38279,"is_reserved":false,"is_disabled":false,"rental_uris":{"android":"levelo://app?vid=3ef07900-2cd6-4a20-903c-95332bacbfa3","ios":"levelo://app?vid=3ef07900-2cd6-4a20-903c-95332bacbfa3"},"vehicle_type_id":"4","last_reported":1767341832,"current_range_meters":8400,"station_id":"st_d4asgbiv49dc73anf9m0","pricing_plan_id":"cebpf4jnsgd1na2vs0mg"},{"bike_id":"a6e7076d-d8c4-4656-859d-6c27023029a5","system_id":"levelo_inurba_marseille","lat":43.28345,"lon":5.38633,"is_reserved":false,"is_disabled":false,"rental_uris":{"android":"levelo://app?vid=a6e7076d-d8c4-4656-859d-6c27023029a5","ios":"levelo://app?vid=a6e7076d-d8c4-4656-859d-6c27023029a5"},"vehicle_type_id":"4","last_reported":1767341832,"current_range_meters":8400,"station_id":"ce4bh492rcd13ifvqdvg","pricing_plan_id":"cebpf4jnsgd1na2vs0mg"},{"bike_id":"61a31656-c660-4275-9928-540ad7d8758e","system_id":"levelo_inurba_marseille","lat":43.24379,"lon":5.37059,"is_reserved":false,"is_disabled":false,"rental_uris":{"android":"levelo://app?vid=61a31656-c660-4275-9928-540ad7d8758e","ios":"levelo://app?vid=61a31656-c660-4275-9928-540ad7d8758e"},"vehicle_type_id":"4","last_reported":1767341832,"current_range_meters":8400,"station_id":"ce4bhhh2rcd13ifvqfk0","pricing_plan_id":"cebpf4jnsgd1na2vs0mg"},{"bike_id":"ae255f5c-ca45-414c-9bef-0d95c9ceafbf","system_id":"levelo_inurba_marseille","lat":43.28154,"lon":5.4264,"is_reserved":false,"is_disabled":false,"rental_uris":{"android":"levelo://app?vid=ae255f5c-ca45-414c-9bef-0d95c9ceafbf","ios":"levelo://app?vid=ae255f5c-ca45-414c-9bef-0d95c9ceafbf"},"vehicle_type_id":"4","last_reported":1767341832,"current_range_meters":8400,"station_id":"ce4bhnh2rcd13ifvqgug","pricing_plan_id":"cebpf4jnsgd1na2vs0mg"},{"bike_id":"e11b1421-fb63-4460-8784-0bf6411ea266","system_id":"levelo_inurba_marseille","lat":43.29535,"lon":5.38975,"is_reserved":false,"is_disabled":false,"rental_uris":{"android":"levelo://app?vid=e11b1421-fb63-4460-8784-0bf6411ea266","ios":"levelo://app?vid=e11b1421-fb63-4460-8784-0bf6411ea266"},"vehicle_type_id":"4","last_reported":1767341832,"current_range_meters":8400,"station_id":"","pricing_plan_id":"cebpf4jnsgd1na2vs0mg"},{"bike_id":"1dc2960c-dbc4-44d2-abf7-9e23007d7dcc","system_id":"levelo_inurba_marseille","lat":43.28675,"lon":5.38671,"is_reserved":false,"is_disabled":false,"rental_uris":{"android":"levelo://app?vid=1dc2960c-dbc4-44d2-abf7-9e23007d7dcc","ios":"levelo://app?vid=1dc2960c-dbc4-44d2-abf7-9e23007d7dcc"},"vehicle_type_id":"4","last_reported":1767341832,"current_range_meters":8400,"station_id":"ce4bh492rcd13ifvqdug","pricing_plan_id":"cebpf4jnsgd1na2vs0mg"},{"bike_id":"cadc82e3-3c1e-4b3f-8452-04462e4f5cfd","system_id":"levelo_inurba_marseille","lat":43.2316,"lon":5.43699,"is_reserved":false,"is_disabled":false,"rental_uris":{"android":"levelo://app?vid=cadc82e3-3c1e-4b3f-8452-04462e4f5cfd","ios":"levelo://app?vid=cadc82e3-3c1e-4b3f-8452-04462e4f5cfd"},"vehicle_type_id":"4","last_reported":1767341832,"current_range_meters":8400,"station_id":"ce4bhmp2rcd13ifvqgog","pricing_plan_id":"cebpf4jnsgd1na2vs0mg"},{"bike_id":"81bb7359-0e58-4443-bd35-6642f1961b0f","system_id":"levelo_inurba_marseille","lat":43.284201,"lon":5.349848,"is_reserved":false,"is_disabled":false,"rental_uris":{"android":"levelo://app?vid=81bb7359-0e58-4443-bd35-6642f1961b0f","ios":"levelo://app?vid=81bb7359-0e58-4443-bd35-6642f1961b0f"},"vehicle_type_id":"4","last_reported":1767341832,"current_range_meters":8400,"station_id":"ce4bhbh2rcd13ifvqepg","pricing_plan_id":"cebpf4jnsgd1na2vs0mg"},{"bike_id":"aa4c0c3c-20a8-4dcd-8254-3a59efbed1dc","system_id":"levelo_inurba_marseille","lat":43.28418,"lon":5.38434,"is_reserved":false,"is_disabled":false,"rental_uris":{"android":"levelo://app?vid=aa4c0c3c-20a8-4dcd-8254-3a59efbed1dc","ios":"levelo://app?vid=aa4c0c3c-20a8-4dcd-8254-3a59efbed1dc"},"vehicle_type_id":"4","last_reported":1767341832,"current_range_meters":8800,"station_id":"","pricing_plan_id":"cebpf4jnsgd1na2vs0mg"},{"bike_id":"3acbaa1d-2eae-467f-b186-127b7d72fa9a","system_id":"levelo_inurba_marseille","lat":43.25834,"lon":5.39431,"is_reserved":false,"is_disabled":false,"rental_uris":{"android":"levelo://app?vid=3acbaa1d-2eae-467f-b186-127b7d72fa9a","ios":"levelo://app?vid=3acbaa1d-2eae-467f-b186-127b7d72fa9a"},"vehicle_type_id":"4","last_reported":1767341832,"current_range_meters":8800,"station_id":"ce4bhip2rcd13ifvqft0","pricing_plan_id":"cebpf4jnsgd1na2vs0mg"},{"bike_id":"2d42aa17-c3b7-4399-a80f-3190c91cb12e","system_id":"levelo_inurba_marseille","lat":43.29796,"lon":5.4404,"is_reserved":false,"is_disabled":false,"rental_uris":{"android":"levelo://app?vid=2d42aa17-c3b7-4399-a80f-3190c91cb12e","ios":"levelo://app?vid=2d42aa17-c3b7-4399-a80f-3190c91cb12e"},"vehicle_type_id":"4","last_reported":1767341832,"current_range_meters":8800,"station_id":"st_d3jp68qikq2c7381ktn0","pricing_plan_id":"cebpf4jnsgd1na2vs0mg"},{"bike_id":"f1615576-13f4-4ebf-b52d-cb46c8289f42","system_id":"levelo_inurba_marseille","lat":43.27953,"lon":5.41032,"is_reserved":false,"is_disabled":false,"rental_uris":{"android":"levelo://app?vid=f1615576-13f4-4ebf-b52d-cb46c8289f42","ios":"levelo://app?vid=f1615576-13f4-4ebf-b52d-cb46c8289f42"},"vehicle_type_id":"4","last_reported":1767341832,"current_range_meters":8800,"station_id":"ce4bhnp2rcd13ifvqh0g","pricing_plan_id":"cebpf4jnsgd1na2vs0mg"},{"bike_id":"fae80570-c9d4-4aee-af35-a96795ca01bc","system_id":"levelo_inurba_marseille","lat":43.246576,"lon":5.381624,"is_reserved":false,"is_disabled":false,"rental_uris":{"android":"levelo://app?vid=fae80570-c9d4-4aee-af35-a96795ca01bc","ios":"levelo://app?vid=fae80570-c9d4-4aee-af35-a96795ca01bc"},"vehicle_type_id":"4","last_reported":1767341832,"current_range_meters":8800,"station_id":"ce4bhih2rcd13ifvqfr0","pricing_plan_id":"cebpf4jnsgd1na2vs0mg"},{"bike_id":"60a24bfa-71d1-4394-8423-89ffbc06474e","system_id":"levelo_inurba_marseille","lat":43.30291,"lon":5.37665,"is_reserved":false,"is_disabled":false,"rental_uris":{"android":"levelo://app?vid=60a24bfa-71d1-4394-8423-89ffbc06474e","ios":"levelo://app?vid=60a24bfa-71d1-4394-8423-89ffbc06474e"},"vehicle_type_id":"4","last_reported":1767341832,"current_range_meters":8800,"station_id":"ce4bguh2rcd13ifvqcj0","pricing_plan_id":"cebpf4jnsgd1na2vs0mg"},{"bike_id":"b6b7a146-8a76-4eb7-abd8-58e5d94b3994","system_id":"levelo_inurba_marseille","lat":43.24639,"lon":5.43141,"is_reserved":false,"is_disabled":false,"rental_uris":{"android":"levelo://app?vid=b6b7a146-8a76-4eb7-abd8-58e5d94b3994","ios":"levelo://app?vid=b6b7a146-8a76-4eb7-abd8-58e5d94b3994"},"vehicle_type_id":"4","last_reported":1767341832,"current_range_meters":8800,"station_id":"st_d2m6c4gdas8pm72e190g","pricing_plan_id":"cebpf4jnsgd1na2vs0mg"},{"bike_id":"f82d391f-fa54-4944-99a1-f43326016a14","system_id":"levelo_inurba_marseille","lat":43.31756,"lon":5.38983,"is_reserved":false,"is_disabled":false,"rental_uris":{"android":"levelo://app?vid=f82d391f-fa54-4944-99a1-f43326016a14","ios":"levelo://app?vid=f82d391f-fa54-4944-99a1-f43326016a14"},"vehicle_type_id":"4","last_reported":1767341832,"current_range_meters":8800,"station_id":"ce4bhqp2rcd13ifvqhng","pricing_plan_id":"cebpf4jnsgd1na2vs0mg"},{"bike_id":"85c0d9fd-9ae4-4d14-bbf5-3d50829a1b4d","system_id":"levelo_inurba_marseille","lat":43.299461,"lon":5.36527,"is_reserved":false,"is_disabled":false,"rental_uris":{"android":"levelo://app?vid=85c0d9fd-9ae4-4d14-bbf5-3d50829a1b4d","ios":"levelo://app?vid=85c0d9fd-9ae4-4d14-bbf5-3d50829a1b4d"},"vehicle_type_id":"4","last_reported":1767341832,"current_range_meters":8800,"station_id":"ce4bgm92rcd13ifvqbr0","pricing_plan_id":"cebpf4jnsgd1na2vs0mg"},{"bike_id":"637f6ca5-94b4-4966-819c-aa817ec06354","system_id":"levelo_inurba_marseille","lat":43.2922,"lon":5.36082,"is_reserved":false,"is_disabled":false,"rental_uris":{"android":"levelo://app?vid=637f6ca5-94b4-4966-819c-aa817ec06354","ios":"levelo://app?vid=637f6ca5-94b4-4966-819c-aa817ec06354"},"vehicle_type_id":"4","last_reported":1767341832,"current_range_meters":8800,"station_id":"ce4bhbh2rcd13ifvqeqg","pricing_plan_id":"cebpf4jnsgd1na2vs0mg"},{"bike_id":"0723e6cb-d68b-492a-9ec9-7dc733838137","system_id":"levelo_inurba_marseille","lat":43.32356,"lon":5.36793,"is_reserved":false,"is_disabled":false,"rental_uris":{"android":"levelo://app?vid=0723e6cb-d68b-492a-9ec9-7dc733838137","ios":"levelo://app?vid=0723e6cb-d68b-492a-9ec9-7dc733838137"},"vehicle_type_id":"4","last_reported":1767341832,"current_range_meters":8800,"station_id":"ce4bhsh2rcd13ifvqi2g","pricing_plan_id":"cebpf4jnsgd1na2vs0mg"},{"bike_id":"af989fe7-7207-4436-bd9a-870856cbd865","system_id":"levelo_inurba_marseille","lat":43.31714,"lon":5.40456,"is_reserved":false,"is_disabled":false,"rental_uris":{"android":"levelo://app?vid=af989fe7-7207-4436-bd9a-870856cbd865","ios":"levelo://app?vid=af989fe7-7207-4436-bd9a-870856cbd865"},"vehicle_type_id":"4","last_reported":1767341832,"current_range_meters":8800,"station_id":"ce4bh012rcd13ifvqd00","pricing_plan_id":"cebpf4jnsgd1na2vs0mg"},{"bike_id":"f89a7ab5-4f10-40db-80a7-7c57c53bb059","system_id":"levelo_inurba_marseille","lat":43.2672,"lon":5.40671,"is_reserved":false,"is_disabled":false,"rental_uris":{"android":"levelo://app?vid=f89a7ab5-4f10-40db-80a7-7c57c53bb059","ios":"levelo://app?vid=f89a7ab5-4f10-40db-80a7-7c57c53bb059"},"vehicle_type_id":"4","last_reported":1767341832,"current_range_meters":8800,"station_id":"","pricing_plan_id":"cebpf4jnsgd1na2vs0mg"},{"bike_id":"5423a3a8-4e89-488f-af9d-d79b727b3b76","system_id":"levelo_inurba_marseille","lat":43.3012,"lon":5.39098,"is_reserved":false,"is_disabled":false,"rental_uris":{"android":"levelo://app?vid=5423a3a8-4e89-488f-af9d-d79b727b3b76","ios":"levelo://app?vid=5423a3a8-4e89-488f-af9d-d79b727b3b76"},"vehicle_type_id":"4","last_reported":1767341832,"current_range_meters":8800,"station_id":"ce4bh192rcd13ifvqdb0","pricing_plan_id":"cebpf4jnsgd1na2vs0mg"},{"bike_id":"96415ff9-cd65-4594-b519-e8462c67afcf","system_id":"levelo_inurba_marseille","lat":43.28509,"lon":5.44107,"is_reserved":false,"is_disabled":false,"rental_uris":{"android":"levelo://app?vid=96415ff9-cd65-4594-b519-e8462c67afcf","ios":"levelo://app?vid=96415ff9-cd65-4594-b519-e8462c67afcf"},"vehicle_type_id":"4","last_reported":1767341832,"current_range_meters":8800,"station_id":"st_d3j3df2ikq2c7380ej80","pricing_plan_id":"cebpf4jnsgd1na2vs0mg"},{"bike_id":"42d77009-fa58-4df2-b896-ba647ada43e5","system_id":"levelo_inurba_marseille","lat":43.27914,"lon":5.40474,"is_reserved":false,"is_disabled":false,"rental_uris":{"android":"levelo://app?vid=42d77009-fa58-4df2-b896-ba647ada43e5","ios":"levelo://app?vid=42d77009-fa58-4df2-b896-ba647ada43e5"},"vehicle_type_id":"4","last_reported":1767341832,"current_range_meters":8800,"station_id":"","pricing_plan_id":"cebpf4jnsgd1na2vs0mg"},{"bike_id":"83e50346-c21e-466e-8922-aea3198152db","system_id":"levelo_inurba_marseille","lat":43.23771,"lon":5.36627,"is_reserved":false,"is_disabled":false,"rental_uris":{"android":"levelo://app?vid=83e50346-c21e-466e-8922-aea3198152db","ios":"levelo://app?vid=83e50346-c21e-466e-8922-aea3198152db"},"vehicle_type_id":"4","last_reported":1767341832,"current_range_meters":8800,"station_id":"st_d3nk18o9ro0c73en2l3g","pricing_plan_id":"cebpf4jnsgd1na2vs0mg"},{"bike_id":"6dd8e8b5-7ce2-4a7a-9f76-de8624376801","system_id":"levelo_inurba_marseille","lat":43.24849,"lon":5.37442,"is_reserved":false,"is_disabled":false,"rental_uris":{"android":"levelo://app?vid=6dd8e8b5-7ce2-4a7a-9f76-de8624376801","ios":"levelo://app?vid=6dd8e8b5-7ce2-4a7a-9f76-de8624376801"},"vehicle_type_id":"4","last_reported":1767341832,"current_range_meters":9200,"station_id":"","pricing_plan_id":"cebpf4jnsgd1na2vs0mg"},{"bike_id":"6e08deba-b0a8-4595-81d7-56df9e1bca08","system_id":"levelo_inurba_marseille","lat":43.30417,"lon":5.412888,"is_reserved":false,"is_disabled":false,"rental_uris":{"android":"levelo://app?vid=6e08deba-b0a8-4595-81d7-56df9e1bca08","ios":"levelo://app?vid=6e08deba-b0a8-4595-81d7-56df9e1bca08"},"vehicle_type_id":"4","last_reported":1767341832,"current_range_meters":9200,"station_id":"ce4bhop2rcd13ifvqh8g","pricing_plan_id":"cebpf4jnsgd1na2vs0mg"},{"bike_id":"608c7b76-23cf-40f8-94c2-a801dd95e79d","system_id":"levelo_inurba_marseille","lat":43.30909,"lon":5.36852,"is_reserved":false,"is_disabled":false,"rental_uris":{"android":"levelo://app?vid=608c7b76-23cf-40f8-94c2-a801dd95e79d","ios":"levelo://app?vid=608c7b76-23cf-40f8-94c2-a801dd95e79d"},"vehicle_type_id":"4","last_reported":1767341832,"current_range_meters":9200,"station_id":"ce4bgn92rcd13ifvqbvg","pricing_plan_id":"cebpf4jnsgd1na2vs0mg"},{"bike_id":"9feea015-e373-4e65-a8f2-66772efb3348","system_id":"levelo_inurba_marseille","lat":43.247581,"lon":5.375955,"is_reserved":false,"is_disabled":false,"rental_uris":{"android":"levelo://app?vid=9feea015-e373-4e65-a8f2-66772efb3348","ios":"levelo://app?vid=9feea015-e373-4e65-a8f2-66772efb3348"},"vehicle_type_id":"4","last_reported":1767341832,"current_range_meters":9200,"station_id":"","pricing_plan_id":"cebpf4jnsgd1na2vs0mg"},{"bike_id":"b43810b9-4ae6-4016-879d-bb6c42d90375","system_id":"levelo_inurba_marseille","lat":43.255028,"lon":5.376621,"is_reserved":false,"is_disabled":false,"rental_uris":{"android":"levelo://app?vid=b43810b9-4ae6-4016-879d-bb6c42d90375","ios":"levelo://app?vid=b43810b9-4ae6-4016-879d-bb6c42d90375"},"vehicle_type_id":"4","last_reported":1767341832,"current_range_meters":9200,"station_id":"ce4bhh12rcd13ifvqff0","pricing_plan_id":"cebpf4jnsgd1na2vs0mg"},{"bike_id":"04c541f3-b297-498e-a18e-c8c36a4fe14d","system_id":"levelo_inurba_marseille","lat":43.21187,"lon":5.350733,"is_reserved":false,"is_disabled":false,"rental_uris":{"android":"levelo://app?vid=04c541f3-b297-498e-a18e-c8c36a4fe14d","ios":"levelo://app?vid=04c541f3-b297-498e-a18e-c8c36a4fe14d"},"vehicle_type_id":"4","last_reported":1767341832,"current_range_meters":9200,"station_id":"st_cvj6sg6p6f1abm77japg","pricing_plan_id":"cebpf4jnsgd1na2vs0mg"},{"bike_id":"d17e6fe2-7a1e-4970-bf2f-cb8626ca5cf3","system_id":"levelo_inurba_marseille","lat":43.28603,"lon":5.35106,"is_reserved":false,"is_disabled":false,"rental_uris":{"android":"levelo://app?vid=d17e6fe2-7a1e-4970-bf2f-cb8626ca5cf3","ios":"levelo://app?vid=d17e6fe2-7a1e-4970-bf2f-cb8626ca5cf3"},"vehicle_type_id":"4","last_reported":1767341832,"current_range_meters":9200,"station_id":"ce4bhch2rcd13ifvqeug","pricing_plan_id":"cebpf4jnsgd1na2vs0mg"},{"bike_id":"0a40588e-9376-4455-b8a7-640085c0283b","system_id":"levelo_inurba_marseille","lat":43.27691,"lon":5.3889,"is_reserved":false,"is_disabled":false,"rental_uris":{"android":"levelo://app?vid=0a40588e-9376-4455-b8a7-640085c0283b","ios":"levelo://app?vid=0a40588e-9376-4455-b8a7-640085c0283b"},"vehicle_type_id":"4","last_reported":1767341832,"current_range_meters":9200,"station_id":"ce4bhi12rcd13ifvqfo0","pricing_plan_id":"cebpf4jnsgd1na2vs0mg"},{"bike_id":"c7520a13-b022-4cba-860a-1d0a7964595c","system_id":"levelo_inurba_marseille","lat":43.23059,"lon":5.35502,"is_reserved":false,"is_disabled":false,"rental_uris":{"android":"levelo://app?vid=c7520a13-b022-4cba-860a-1d0a7964595c","ios":"levelo://app?vid=c7520a13-b022-4cba-860a-1d0a7964595c"},"vehicle_type_id":"4","last_reported":1767341832,"current_range_meters":9200,"station_id":"cpo3342slgdg3j2ifvpg","pricing_plan_id":"cebpf4jnsgd1na2vs0mg"},{"bike_id":"046f6f6d-1f73-42b5-99cc-1960f79b5648","system_id":"levelo_inurba_marseille","lat":43.296819,"lon":5.37288,"is_reserved":false,"is_disabled":false,"rental_uris":{"android":"levelo://app?vid=046f6f6d-1f73-42b5-99cc-1960f79b5648","ios":"levelo://app?vid=046f6f6d-1f73-42b5-99cc-1960f79b5648"},"vehicle_type_id":"4","last_reported":1767341832,"current_range_meters":9200,"station_id":"ce4bgk12rcd13ifvqbj0","pricing_plan_id":"cebpf4jnsgd1na2vs0mg"},{"bike_id":"c52e4d9b-73c6-4a4e-a517-10da5d2e095e","system_id":"levelo_inurba_marseille","lat":43.307787,"lon":5.376515,"is_reserved":false,"is_disabled":false,"rental_uris":{"android":"levelo://app?vid=c52e4d9b-73c6-4a4e-a517-10da5d2e095e","ios":"levelo://app?vid=c52e4d9b-73c6-4a4e-a517-10da5d2e095e"},"vehicle_type_id":"4","last_reported":1767341832,"current_range_meters":9200,"station_id":"ce4bgv92rcd13ifvqcq0","pricing_plan_id":"cebpf4jnsgd1na2vs0mg"},{"bike_id":"eb456d3b-8994-4dd6-afb4-1e5aa64b47c0","system_id":"levelo_inurba_marseille","lat":43.295172,"lon":5.394012,"is_reserved":false,"is_disabled":false,"rental_uris":{"android":"levelo://app?vid=eb456d3b-8994-4dd6-afb4-1e5aa64b47c0","ios":"levelo://app?vid=eb456d3b-8994-4dd6-afb4-1e5aa64b47c0"},"vehicle_type_id":"4","last_reported":1767341832,"current_range_meters":9200,"station_id":"ce4bh292rcd13ifvqdf0","pricing_plan_id":"cebpf4jnsgd1na2vs0mg"},{"bike_id":"222fb9ec-2875-4ac5-9c40-850f5a12dca5","system_id":"levelo_inurba_marseille","lat":43.26949,"lon":5.38636,"is_reserved":false,"is_disabled":false,"rental_uris":{"android":"levelo://app?vid=222fb9ec-2875-4ac5-9c40-850f5a12dca5","ios":"levelo://app?vid=222fb9ec-2875-4ac5-9c40-850f5a12dca5"},"vehicle_type_id":"4","last_reported":1767341832,"current_range_meters":9200,"station_id":"ce4bhh92rcd13ifvqfh0","pricing_plan_id":"cebpf4jnsgd1na2vs0mg"},{"bike_id":"8b9044ec-34f3-40e4-9e14-9b0e8f8dc3fd","system_id":"levelo_inurba_marseille","lat":43.24976,"lon":5.38966,"is_reserved":false,"is_disabled":false,"rental_uris":{"android":"levelo://app?vid=8b9044ec-34f3-40e4-9e14-9b0e8f8dc3fd","ios":"levelo://app?vid=8b9044ec-34f3-40e4-9e14-9b0e8f8dc3fd"},"vehicle_type_id":"4","last_reported":1767341832,"current_range_meters":9200,"station_id":"","pricing_plan_id":"cebpf4jnsgd1na2vs0mg"},{"bike_id":"bc37c0d9-122a-4d74-b3e1-5b0dc8a43908","system_id":"levelo_inurba_marseille","lat":43.284936,"lon":5.428636,"is_reserved":false,"is_disabled":false,"rental_uris":{"android":"levelo://app?vid=bc37c0d9-122a-4d74-b3e1-5b0dc8a43908","ios":"levelo://app?vid=bc37c0d9-122a-4d74-b3e1-5b0dc8a43908"},"vehicle_type_id":"4","last_reported":1767341832,"current_range_meters":9200,"station_id":"","pricing_plan_id":"cebpf4jnsgd1na2vs0mg"},{"bike_id":"1f3dd7a1-5535-4fc0-834e-8c50cf78bb81","system_id":"levelo_inurba_marseille","lat":43.29759,"lon":5.37765,"is_reserved":false,"is_disabled":false,"rental_uris":{"android":"levelo://app?vid=1f3dd7a1-5535-4fc0-834e-8c50cf78bb81","ios":"levelo://app?vid=1f3dd7a1-5535-4fc0-834e-8c50cf78bb81"},"vehicle_type_id":"4","last_reported":1767341832,"current_range_meters":9200,"station_id":"","pricing_plan_id":"cebpf4jnsgd1na2vs0mg"},{"bike_id":"91cb2a4e-20f3-491f-aaf3-92b41a5985d9","system_id":"levelo_inurba_marseille","lat":43.28479,"lon":5.38424,"is_reserved":false,"is_disabled":true,"rental_uris":{"android":"levelo://app?vid=91cb2a4e-20f3-491f-aaf3-92b41a5985d9","ios":"levelo://app?vid=91cb2a4e-20f3-491f-aaf3-92b41a5985d9"},"vehicle_type_id":"4","last_reported":1767341832,"current_range_meters":9200,"station_id":"ce4bh512rcd13ifvqe3g","pricing_plan_id":"cebpf4jnsgd1na2vs0mg"},{"bike_id":"a0346e0f-5053-4c68-8ae4-a95cd85e0eb8","system_id":"levelo_inurba_marseille","lat":43.2841,"lon":5.34988,"is_reserved":false,"is_disabled":false,"rental_uris":{"android":"levelo://app?vid=a0346e0f-5053-4c68-8ae4-a95cd85e0eb8","ios":"levelo://app?vid=a0346e0f-5053-4c68-8ae4-a95cd85e0eb8"},"vehicle_type_id":"4","last_reported":1767341832,"current_range_meters":9200,"station_id":"ce4bhbh2rcd13ifvqepg","pricing_plan_id":"cebpf4jnsgd1na2vs0mg"},{"bike_id":"81640354-1fdb-4e0c-8b2a-c31f90862a44","system_id":"levelo_inurba_marseille","lat":43.30504,"lon":5.39421,"is_reserved":false,"is_disabled":false,"rental_uris":{"android":"levelo://app?vid=81640354-1fdb-4e0c-8b2a-c31f90862a44","ios":"levelo://app?vid=81640354-1fdb-4e0c-8b2a-c31f90862a44"},"vehicle_type_id":"4","last_reported":1767341832,"current_range_meters":9200,"station_id":"","pricing_plan_id":"cebpf4jnsgd1na2vs0mg"},{"bike_id":"b62193e6-744b-4181-8bcc-23d13e78d12b","system_id":"levelo_inurba_marseille","lat":43.26558,"lon":5.40318,"is_reserved":false,"is_disabled":false,"rental_uris":{"android":"levelo://app?vid=b62193e6-744b-4181-8bcc-23d13e78d12b","ios":"levelo://app?vid=b62193e6-744b-4181-8bcc-23d13e78d12b"},"vehicle_type_id":"4","last_reported":1767341832,"current_range_meters":9600,"station_id":"ce4bhmp2rcd13ifvqgng","pricing_plan_id":"cebpf4jnsgd1na2vs0mg"},{"bike_id":"09a28659-b9f5-45da-a981-615cfbef00e4","system_id":"levelo_inurba_marseille","lat":43.2849,"lon":5.38417,"is_reserved":false,"is_disabled":false,"rental_uris":{"android":"levelo://app?vid=09a28659-b9f5-45da-a981-615cfbef00e4","ios":"levelo://app?vid=09a28659-b9f5-45da-a981-615cfbef00e4"},"vehicle_type_id":"4","last_reported":1767341832,"current_range_meters":9600,"station_id":"ce4bh512rcd13ifvqe3g","pricing_plan_id":"cebpf4jnsgd1na2vs0mg"},{"bike_id":"081e0fab-3d03-4c48-bb94-cc3c47c837cb","system_id":"levelo_inurba_marseille","lat":43.23056,"lon":5.35527,"is_reserved":false,"is_disabled":false,"rental_uris":{"android":"levelo://app?vid=081e0fab-3d03-4c48-bb94-cc3c47c837cb","ios":"levelo://app?vid=081e0fab-3d03-4c48-bb94-cc3c47c837cb"},"vehicle_type_id":"4","last_reported":1767341832,"current_range_meters":9600,"station_id":"cpo3342slgdg3j2ifvpg","pricing_plan_id":"cebpf4jnsgd1na2vs0mg"},{"bike_id":"649b874c-2158-4c53-8651-f5e61cfdd6d4","system_id":"levelo_inurba_marseille","lat":43.22527,"lon":5.34818,"is_reserved":false,"is_disabled":false,"rental_uris":{"android":"levelo://app?vid=649b874c-2158-4c53-8651-f5e61cfdd6d4","ios":"levelo://app?vid=649b874c-2158-4c53-8651-f5e61cfdd6d4"},"vehicle_type_id":"4","last_reported":1767341832,"current_range_meters":9600,"station_id":"","pricing_plan_id":"cebpf4jnsgd1na2vs0mg"},{"bike_id":"306081a2-d539-46c0-aa97-98b5e78347e1","system_id":"levelo_inurba_marseille","lat":43.30286,"lon":5.37677,"is_reserved":false,"is_disabled":false,"rental_uris":{"android":"levelo://app?vid=306081a2-d539-46c0-aa97-98b5e78347e1","ios":"levelo://app?vid=306081a2-d539-46c0-aa97-98b5e78347e1"},"vehicle_type_id":"4","last_reported":1767341832,"current_range_meters":9600,"station_id":"ce4bguh2rcd13ifvqcj0","pricing_plan_id":"cebpf4jnsgd1na2vs0mg"},{"bike_id":"61fae4ff-2397-4842-852a-e1069beef8c4","system_id":"levelo_inurba_marseille","lat":43.28537,"lon":5.44092,"is_reserved":false,"is_disabled":false,"rental_uris":{"android":"levelo://app?vid=61fae4ff-2397-4842-852a-e1069beef8c4","ios":"levelo://app?vid=61fae4ff-2397-4842-852a-e1069beef8c4"},"vehicle_type_id":"4","last_reported":1767341832,"current_range_meters":9600,"station_id":"st_d3j3df2ikq2c7380ej80","pricing_plan_id":"cebpf4jnsgd1na2vs0mg"},{"bike_id":"001327cc-0487-4b1f-95c3-d9c2f10b740d","system_id":"levelo_inurba_marseille","lat":43.27846,"lon":5.39212,"is_reserved":false,"is_disabled":false,"rental_uris":{"android":"levelo://app?vid=001327cc-0487-4b1f-95c3-d9c2f10b740d","ios":"levelo://app?vid=001327cc-0487-4b1f-95c3-d9c2f10b740d"},"vehicle_type_id":"4","last_reported":1767341832,"current_range_meters":9600,"station_id":"ce4bhjp2rcd13ifvqga0","pricing_plan_id":"cebpf4jnsgd1na2vs0mg"},{"bike_id":"cacd189b-364d-4b1a-8882-a16ba27a8c11","system_id":"levelo_inurba_marseille","lat":43.23786,"lon":5.3664,"is_reserved":false,"is_disabled":false,"rental_uris":{"android":"levelo://app?vid=cacd189b-364d-4b1a-8882-a16ba27a8c11","ios":"levelo://app?vid=cacd189b-364d-4b1a-8882-a16ba27a8c11"},"vehicle_type_id":"4","last_reported":1767341832,"current_range_meters":9600,"station_id":"st_d3nk18o9ro0c73en2l3g","pricing_plan_id":"cebpf4jnsgd1na2vs0mg"},{"bike_id":"19ea3e44-33fe-480a-85de-3a8705428674","system_id":"levelo_inurba_marseille","lat":43.28292,"lon":5.38695,"is_reserved":false,"is_disabled":false,"rental_uris":{"android":"levelo://app?vid=19ea3e44-33fe-480a-85de-3a8705428674","ios":"levelo://app?vid=19ea3e44-33fe-480a-85de-3a8705428674"},"vehicle_type_id":"4","last_reported":1767341832,"current_range_meters":9600,"station_id":"","pricing_plan_id":"cebpf4jnsgd1na2vs0mg"},{"bike_id":"1324860b-83ca-4a5c-ac5d-5e8f6006dada","system_id":"levelo_inurba_marseille","lat":43.284895,"lon":5.384356,"is_reserved":false,"is_disabled":false,"rental_uris":{"android":"levelo://app?vid=1324860b-83ca-4a5c-ac5d-5e8f6006dada","ios":"levelo://app?vid=1324860b-83ca-4a5c-ac5d-5e8f6006dada"},"vehicle_type_id":"4","last_reported":1767341832,"current_range_meters":9600,"station_id":"ce4bh512rcd13ifvqe3g","pricing_plan_id":"cebpf4jnsgd1na2vs0mg"},{"bike_id":"f3962737-94b9-4206-bf68-00425886742a","system_id":"levelo_inurba_marseille","lat":43.24389,"lon":5.37073,"is_reserved":false,"is_disabled":false,"rental_uris":{"android":"levelo://app?vid=f3962737-94b9-4206-bf68-00425886742a","ios":"levelo://app?vid=f3962737-94b9-4206-bf68-00425886742a"},"vehicle_type_id":"4","last_reported":1767341832,"current_range_meters":9600,"station_id":"ce4bhhh2rcd13ifvqfk0","pricing_plan_id":"cebpf4jnsgd1na2vs0mg"},{"bike_id":"0fabb645-2483-460a-bcf7-ceb0c4cffe85","system_id":"levelo_inurba_marseille","lat":43.30141,"lon":5.37419,"is_reserved":false,"is_disabled":false,"rental_uris":{"android":"levelo://app?vid=0fabb645-2483-460a-bcf7-ceb0c4cffe85","ios":"levelo://app?vid=0fabb645-2483-460a-bcf7-ceb0c4cffe85"},"vehicle_type_id":"4","last_reported":1767341832,"current_range_meters":9600,"station_id":"ce4bgs92rcd13ifvqcc0","pricing_plan_id":"cebpf4jnsgd1na2vs0mg"},{"bike_id":"dbd743de-39c8-4832-b024-a5dd690cb2e9","system_id":"levelo_inurba_marseille","lat":43.24095,"lon":5.37747,"is_reserved":false,"is_disabled":false,"rental_uris":{"android":"levelo://app?vid=dbd743de-39c8-4832-b024-a5dd690cb2e9","ios":"levelo://app?vid=dbd743de-39c8-4832-b024-a5dd690cb2e9"},"vehicle_type_id":"4","last_reported":1767341832,"current_range_meters":9600,"station_id":"ce4bhnp2rcd13ifvqgvg","pricing_plan_id":"cebpf4jnsgd1na2vs0mg"},{"bike_id":"f52a8ab7-621e-450b-8755-db3520da1d81","system_id":"levelo_inurba_marseille","lat":43.29912,"lon":5.36555,"is_reserved":false,"is_disabled":false,"rental_uris":{"android":"levelo://app?vid=f52a8ab7-621e-450b-8755-db3520da1d81","ios":"levelo://app?vid=f52a8ab7-621e-450b-8755-db3520da1d81"},"vehicle_type_id":"4","last_reported":1767341832,"current_range_meters":9600,"station_id":"ce4bgm92rcd13ifvqbr0","pricing_plan_id":"cebpf4jnsgd1na2vs0mg"},{"bike_id":"43c1a78b-d396-4314-be34-9c431dabef43","system_id":"levelo_inurba_marseille","lat":43.27063,"lon":5.42289,"is_reserved":false,"is_disabled":false,"rental_uris":{"android":"levelo://app?vid=43c1a78b-d396-4314-be34-9c431dabef43","ios":"levelo://app?vid=43c1a78b-d396-4314-be34-9c431dabef43"},"vehicle_type_id":"4","last_reported":1767341832,"current_range_meters":9600,"station_id":"ce4bhk92rcd13ifvqgb0","pricing_plan_id":"cebpf4jnsgd1na2vs0mg"},{"bike_id":"70863109-1d9f-4cf0-8c43-29a5e3efd5a3","system_id":"levelo_inurba_marseille","lat":43.27994,"lon":5.4041,"is_reserved":false,"is_disabled":false,"rental_uris":{"android":"levelo://app?vid=70863109-1d9f-4cf0-8c43-29a5e3efd5a3","ios":"levelo://app?vid=70863109-1d9f-4cf0-8c43-29a5e3efd5a3"},"vehicle_type_id":"4","last_reported":1767341832,"current_range_meters":9600,"station_id":"","pricing_plan_id":"cebpf4jnsgd1na2vs0mg"},{"bike_id":"3685b9d1-5502-4285-85c5-c40c8b8f9d2a","system_id":"levelo_inurba_marseille","lat":43.33238,"lon":5.4058,"is_reserved":false,"is_disabled":false,"rental_uris":{"android":"levelo://app?vid=3685b9d1-5502-4285-85c5-c40c8b8f9d2a","ios":"levelo://app?vid=3685b9d1-5502-4285-85c5-c40c8b8f9d2a"},"vehicle_type_id":"4","last_reported":1767341832,"current_range_meters":9600,"station_id":"","pricing_plan_id":"cebpf4jnsgd1na2vs0mg"},{"bike_id":"dc55e18c-67b4-4279-9e79-6b49129449a5","system_id":"levelo_inurba_marseille","lat":43.28846,"lon":5.45481,"is_reserved":false,"is_disabled":false,"rental_uris":{"android":"levelo://app?vid=dc55e18c-67b4-4279-9e79-6b49129449a5","ios":"levelo://app?vid=dc55e18c-67b4-4279-9e79-6b49129449a5"},"vehicle_type_id":"4","last_reported":1767341832,"current_range_meters":9600,"station_id":"","pricing_plan_id":"cebpf4jnsgd1na2vs0mg"},{"bike_id":"0d6bb5ad-dcd1-405b-b68d-99b30db1c271","system_id":"levelo_inurba_marseille","lat":43.27851,"lon":5.38574,"is_reserved":false,"is_disabled":false,"rental_uris":{"android":"levelo://app?vid=0d6bb5ad-dcd1-405b-b68d-99b30db1c271","ios":"levelo://app?vid=0d6bb5ad-dcd1-405b-b68d-99b30db1c271"},"vehicle_type_id":"4","last_reported":1767341832,"current_range_meters":9600,"station_id":"","pricing_plan_id":"cebpf4jnsgd1na2vs0mg"},{"bike_id":"5b8e0877-74d0-4505-84b4-8c7975a373e7","system_id":"levelo_inurba_marseille","lat":43.296799,"lon":5.380059,"is_reserved":false,"is_disabled":false,"rental_uris":{"android":"levelo://app?vid=5b8e0877-74d0-4505-84b4-8c7975a373e7","ios":"levelo://app?vid=5b8e0877-74d0-4505-84b4-8c7975a373e7"},"vehicle_type_id":"4","last_reported":1767341832,"current_range_meters":9600,"station_id":"","pricing_plan_id":"cebpf4jnsgd1na2vs0mg"},{"bike_id":"817c4cf7-f30b-4874-8a24-b0b0aca47410","system_id":"levelo_inurba_marseille","lat":43.289987,"lon":5.37238,"is_reserved":false,"is_disabled":false,"rental_uris":{"android":"levelo://app?vid=817c4cf7-f30b-4874-8a24-b0b0aca47410","ios":"levelo://app?vid=817c4cf7-f30b-4874-8a24-b0b0aca47410"},"vehicle_type_id":"4","last_reported":1767341832,"current_range_meters":9600,"station_id":"","pricing_plan_id":"cebpf4jnsgd1na2vs0mg"},{"bike_id":"063323ae-2656-461e-a785-69320b9b378e","system_id":"levelo_inurba_marseille","lat":43.286682,"lon":5.363521,"is_reserved":false,"is_disabled":false,"rental_uris":{"android":"levelo://app?vid=063323ae-2656-461e-a785-69320b9b378e","ios":"levelo://app?vid=063323ae-2656-461e-a785-69320b9b378e"},"vehicle_type_id":"4","last_reported":1767341832,"current_range_meters":10000,"station_id":"","pricing_plan_id":"cebpf4jnsgd1na2vs0mg"},{"bike_id":"2b8bea13-f963-4af9-873f-0adbe68583d4","system_id":"levelo_inurba_marseille","lat":43.28859,"lon":5.42511,"is_reserved":false,"is_disabled":false,"rental_uris":{"android":"levelo://app?vid=2b8bea13-f963-4af9-873f-0adbe68583d4","ios":"levelo://app?vid=2b8bea13-f963-4af9-873f-0adbe68583d4"},"vehicle_type_id":"4","last_reported":1767341832,"current_range_meters":10000,"station_id":"st_d3b462108ojc7389ooeg","pricing_plan_id":"cebpf4jnsgd1na2vs0mg"},{"bike_id":"607f6356-92f4-49b1-8436-7911c576c661","system_id":"levelo_inurba_marseille","lat":43.29296,"lon":5.3736,"is_reserved":false,"is_disabled":false,"rental_uris":{"android":"levelo://app?vid=607f6356-92f4-49b1-8436-7911c576c661","ios":"levelo://app?vid=607f6356-92f4-49b1-8436-7911c576c661"},"vehicle_type_id":"4","last_reported":1767341832,"current_range_meters":10000,"station_id":"","pricing_plan_id":"cebpf4jnsgd1na2vs0mg"},{"bike_id":"3e9b8a52-1c26-4230-9ad9-77fb07c3ca7e","system_id":"levelo_inurba_marseille","lat":43.314971,"lon":5.373154,"is_reserved":false,"is_disabled":false,"rental_uris":{"android":"levelo://app?vid=3e9b8a52-1c26-4230-9ad9-77fb07c3ca7e","ios":"levelo://app?vid=3e9b8a52-1c26-4230-9ad9-77fb07c3ca7e"},"vehicle_type_id":"4","last_reported":1767341832,"current_range_meters":10000,"station_id":"","pricing_plan_id":"cebpf4jnsgd1na2vs0mg"},{"bike_id":"d7047870-e930-4dca-9d1e-e2f73db022e3","system_id":"levelo_inurba_marseille","lat":43.296241,"lon":5.371555,"is_reserved":false,"is_disabled":false,"rental_uris":{"android":"levelo://app?vid=d7047870-e930-4dca-9d1e-e2f73db022e3","ios":"levelo://app?vid=d7047870-e930-4dca-9d1e-e2f73db022e3"},"vehicle_type_id":"4","last_reported":1767341832,"current_range_meters":10000,"station_id":"","pricing_plan_id":"cebpf4jnsgd1na2vs0mg"},