{"last_updated":1728720667,"ttl":60,"version":"2.2","data":{"bikes":[{"bike_id":"67b92d09-6e44-4754-bcf8-84d72f4ce561","system_id":"levelo_inurba_marseille","lat":43.31985,"lon":5.38154,"is_reserved":false,"is_disabled":false,"rental_uris":{"android":"levelo://app?vid=67b92d09-6e44-4754-bcf8-84d72f4ce561","ios":"levelo://app?vid=67b92d09-6e44-4754-bcf8-84d72f4ce561"},"vehicle_type_id":"4","last_reported":1728720667,"current_range_meters":4000,"station_id":"ce4bhr12rcd13ifvqhpg","pricing_plan_id":"cebpf4jnsgd1na2vs0mg"},{"bike_id":"c1f74955-3289-4b68-adec-b56741d49e6e","system_id":"levelo_inurba_marseille","lat":43.24074,"lon":5.37754,"is_reserved":false,"is_disabled":false,"rental_uris":{"android":"levelo://app?vid=c1f74955-3289-4b68-adec-b56741d49e6e","ios":"levelo://app?vid=c1f74955-3289-4b68-adec-b56741d49e6e"},"vehicle_type_id":"4","last_reported":1728720667,"current_range_meters":26000,"station_id":"ce4bhnp2rcd13ifvqgvg","pricing_plan_id":"cebpf4jnsgd1na2vs0mg"},{"bike_id":"7a2a7a78-5ebf-4186-9062-daa28b0dfb18","system_id":"levelo_inurba_marseille","lat":43.29161,"lon":5.37164,"is_reserved":false,"is_disabled":false,"rental_uris":{"android":"levelo://app?vid=7a2a7a78-5ebf-4186-9062-daa28b0dfb18","ios":"levelo://app?vid=7a2a7a78-5ebf-4186-9062-daa28b0dfb18"},"vehicle_type_id":"4","last_reported":1728720667,"current_range_meters":38000,"station_id":"ce4bha92rcd13ifvqeh0","pricing_plan_id":"cebpf4jnsgd1na2vs0mg"},{"bike_id":"38eda0d1-5ce6-4010-9d58-af0c4b4806fc","system_id":"levelo_inurba_marseille","lat":43.27181,"lon":5.4099,"is_reserved":false,"is_disabled":false,"rental_uris":{"android":"levelo://app?vid=38eda0d1-5ce6-4010-9d58-af0c4b4806fc","ios":"levelo://app?vid=38eda0d1-5ce6-4010-9d58-af0c4b4806fc"},"vehicle_type_id":"4","last_reported":1728720667,"current_range_meters":38800,"station_id":"ce4bhl12rcd13ifvqgf0","pricing_plan_id":"cebpf4jnsgd1na2vs0mg"},{"bike_id":"51dd5005-a195-4642-bd5f-8cbea71cb3b3","system_id":"levelo_inurba_marseille","lat":43.22929,"lon":5.35376,"is_reserved":false,"is_disabled":false,"rental_uris":{"android":"levelo://app?vid=51dd5005-a195-4642-bd5f-8cbea71cb3b3","ios":"levelo://app?vid=51dd5005-a195-4642-bd5f-8cbea71cb3b3"},"vehicle_type_id":"4","last_reported":1728720667,"current_range_meters":37600,"station_id":"cpo3532slgdg3j2ikp40","pricing_plan_id":"cebpf4jnsgd1na2vs0mg"},{"bike_id":"82746f44-7c7f-4651-be99-c39f2164c548","system_id":"levelo_inurba_marseille","lat":43.29191,"lon":5.35808,"is_reserved":false,"is_disabled":false,"rental_uris":{"android":"levelo://app?vid=82746f44-7c7f-4651-be99-c39f2164c548","ios":"levelo://app?vid=82746f44-7c7f-4651-be99-c39f2164c548"},"vehicle_type_id":"4","last_reported":1728720667,"current_range_meters":38400,"station_id":"ce4bhb12rcd13ifvqel0","pricing_plan_id":"cebpf4jnsgd1na2vs0mg"},{"bike_id":"0b00e452-018d-4e88-8ed8-30124b8f672d","system_id":"levelo_inurba_marseille","lat":43.30147,"lon":5.38083,"is_reserved":false,"is_disabled":false,"rental_uris":{"android":"levelo://app?vid=0b00e452-018d-4e88-8ed8-30124b8f672d","ios":"levelo://app?vid=0b00e452-018d-4e88-8ed8-30124b8f672d"},"vehicle_type_id":"4","last_reported":1728720667,"current_range_meters":8000,"station_id":"ce4bgjp2rcd13ifvqbh0","pricing_plan_id":"cebpf4jnsgd1na2vs0mg"},{"bike_id":"51b9555e-9940-483c-a759-ba55ff93d310","system_id":"levelo_inurba_marseille","lat":43.24667,"lon":5.38154,"is_reserved":false,"is_disabled":false,"rental_uris":{"android":"levelo://app?vid=51b9555e-9940-483c-a759-ba55ff93d310","ios":"levelo://app?vid=51b9555e-9940-483c-a759-ba55ff93d310"},"vehicle_type_id":"4","last_reported":1728720667,"current_range_meters":27600,"station_id":"ce4bhih2rcd13ifvqfr0","pricing_plan_id":"cebpf4jnsgd1na2vs0mg"},{"bike_id":"b474cc28-429d-4bf6-a453-cfd8e447da8a","system_id":"levelo_inurba_marseille","lat":43.33724,"lon":5.39171,"is_reserved":false,"is_disabled":false,"rental_uris":{"android":"levelo://app?vid=b474cc28-429d-4bf6-a453-cfd8e447da8a","ios":"levelo://app?vid=b474cc28-429d-4bf6-a453-cfd8e447da8a"},"vehicle_type_id":"4","last_reported":1728720667,"current_range_meters":37600,"station_id":"ce4bhr92rcd13ifvqhsg","pricing_plan_id":"cebpf4jnsgd1na2vs0mg"},{"bike_id":"8a3ea5a6-b0cd-48da-acf8-ccf7be6f48c6","system_id":"levelo_inurba_marseille","lat":43.34225,"lon":5.40084,"is_reserved":false,"is_disabled":false,"rental_uris":{"android":"levelo://app?vid=8a3ea5a6-b0cd-48da-acf8-ccf7be6f48c6","ios":"levelo://app?vid=8a3ea5a6-b0cd-48da-acf8-ccf7be6f48c6"},"vehicle_type_id":"4","last_reported":1728720667,"current_range_meters":8000,"station_id":"","pricing_plan_id":"cebpf4jnsgd1na2vs0mg"},{"bike_id":"4f1ac9db-36fd-4126-b3cc-b859636a6a29","system_id":"levelo_inurba_marseille","lat":43.22929,"lon":5.35377,"is_reserved":false,"is_disabled":false,"rental_uris":{"android":"levelo://app?vid=4f1ac9db-36fd-4126-b3cc-b859636a6a29","ios":"levelo://app?vid=4f1ac9db-36fd-4126-b3cc-b859636a6a29"},"vehicle_type_id":"4","last_reported":1728720667,"current_range_meters":38000,"station_id":"cpo3532slgdg3j2ikp40","pricing_plan_id":"cebpf4jnsgd1na2vs0mg"},{"bike_id":"7e804513-a2d3-4ba9-84eb-75c603aae038","system_id":"levelo_inurba_marseille","lat":43.29043,"lon":5.39953,"is_reserved":false,"is_disabled":false,"rental_uris":{"android":"levelo://app?vid=7e804513-a2d3-4ba9-84eb-75c603aae038","ios":"levelo://app?vid=7e804513-a2d3-4ba9-84eb-75c603aae038"},"vehicle_type_id":"4","last_reported":1728720667,"current_range_meters":32800,"station_id":"ce4bh392rcd13ifvqdm0","pricing_plan_id":"cebpf4jnsgd1na2vs0mg"},{"bike_id":"549e4451-dda0-4571-9654-c5d34308a699","system_id":"levelo_inurba_marseille","lat":43.30135,"lon":5.37418,"is_reserved":false,"is_disabled":false,"rental_uris":{"android":"levelo://app?vid=549e4451-dda0-4571-9654-c5d34308a699","ios":"levelo://app?vid=549e4451-dda0-4571-9654-c5d34308a699"},"vehicle_type_id":"4","last_reported":1728720667,"current_range_meters":23200,"station_id":"ce4bgs92rcd13ifvqcc0","pricing_plan_id":"cebpf4jnsgd1na2vs0mg"},{"bike_id":"47d6ffc1-0db0-4795-886c-b012c5eac43f","system_id":"levelo_inurba_marseille","lat":43.26936,"lon":5.4025,"is_reserved":false,"is_disabled":false,"rental_uris":{"android":"levelo://app?vid=47d6ffc1-0db0-4795-886c-b012c5eac43f","ios":"levelo://app?vid=47d6ffc1-0db0-4795-886c-b012c5eac43f"},"vehicle_type_id":"4","last_reported":1728720667,"current_range_meters":34000,"station_id":"cjm6bp8fraef2m0cb0m0","pricing_plan_id":"cebpf4jnsgd1na2vs0mg"},{"bike_id":"4f48289b-17e5-4365-b497-c3ee37f8ed6a","system_id":"levelo_inurba_marseille","lat":43.30321,"lon":5.40447,"is_reserved":false,"is_disabled":false,"rental_uris":{"android":"levelo://app?vid=4f48289b-17e5-4365-b497-c3ee37f8ed6a","ios":"levelo://app?vid=4f48289b-17e5-4365-b497-c3ee37f8ed6a"},"vehicle_type_id":"4","last_reported":1728720667,"current_range_meters":38800,"station_id":"ce4bh012rcd13ifvqd10","pricing_plan_id":"cebpf4jnsgd1na2vs0mg"},{"bike_id":"418eb975-d061-48f2-a056-8c75e497f3ed","system_id":"levelo_inurba_marseille","lat":43.3371,"lon":5.39178,"is_reserved":false,"is_disabled":false,"rental_uris":{"android":"levelo://app?vid=418eb975-d061-48f2-a056-8c75e497f3ed","ios":"levelo://app?vid=418eb975-d061-48f2-a056-8c75e497f3ed"},"vehicle_type_id":"4","last_reported":1728720667,"current_range_meters":38400,"station_id":"ce4bhr92rcd13ifvqhsg","pricing_plan_id":"cebpf4jnsgd1na2vs0mg"},{"bike_id":"d522a82d-5638-4ca1-910b-2d42b991ee72","system_id":"levelo_inurba_marseille","lat":43.30132,"lon":5.3742,"is_reserved":false,"is_disabled":false,"rental_uris":{"android":"levelo://app?vid=d522a82d-5638-4ca1-910b-2d42b991ee72","ios":"levelo://app?vid=d522a82d-5638-4ca1-910b-2d42b991ee72"},"vehicle_type_id":"4","last_reported":1728720667,"current_range_meters":34000,"station_id":"ce4bgs92rcd13ifvqcc0","pricing_plan_id":"cebpf4jnsgd1na2vs0mg"},{"bike_id":"88716ed6-e48d-4fbc-adb2-afe50ee1043a","system_id":"levelo_inurba_marseille","lat":43.26948,"lon":5.38627,"is_reserved":false,"is_disabled":false,"rental_uris":{"android":"levelo://app?vid=88716ed6-e48d-4fbc-adb2-afe50ee1043a","ios":"levelo://app?vid=88716ed6-e48d-4fbc-adb2-afe50ee1043a"},"vehicle_type_id":"4","last_reported":1728720667,"current_range_meters":35200,"station_id":"ce4bhh92rcd13ifvqfh0","pricing_plan_id":"cebpf4jnsgd1na2vs0mg"},{"bike_id":"2d913759-fe84-421c-a520-2d58aadf2d85","system_id":"levelo_inurba_marseille","lat":43.2922,"lon":5.36077,"is_reserved":false,"is_disabled":false,"rental_uris":{"android":"levelo://app?vid=2d913759-fe84-421c-a520-2d58aadf2d85","ios":"levelo://app?vid=2d913759-fe84-421c-a520-2d58aadf2d85"},"vehicle_type_id":"4","last_reported":1728720667,"current_range_meters":3600,"station_id":"ce4bhbh2rcd13ifvqeqg","pricing_plan_id":"cebpf4jnsgd1na2vs0mg"},{"bike_id":"59169465-c142-40a4-baaa-224bbca5179e","system_id":"levelo_inurba_marseille","lat":43.29617,"lon":5.37728,"is_reserved":false,"is_disabled":false,"rental_uris":{"android":"levelo://app?vid=59169465-c142-40a4-baaa-224bbca5179e","ios":"levelo://app?vid=59169465-c142-40a4-baaa-224bbca5179e"},"vehicle_type_id":"4","last_reported":1728720667,"current_range_meters":36000,"station_id":"ce4bgi92rcd13ifvqb90","pricing_plan_id":"cebpf4jnsgd1na2vs0mg"},{"bike_id":"acde84b9-95a7-4b94-9ad2-889a14984862","system_id":"levelo_inurba_marseille","lat":43.26949,"lon":5.38638,"is_reserved":false,"is_disabled":false,"rental_uris":{"android":"levelo://app?vid=acde84b9-95a7-4b94-9ad2-889a14984862","ios":"levelo://app?vid=acde84b9-95a7-4b94-9ad2-889a14984862"},"vehicle_type_id":"4","last_reported":1728720667,"current_range_meters":38800,"station_id":"ce4bhh92rcd13ifvqfh0","pricing_plan_id":"cebpf4jnsgd1na2vs0mg"},{"bike_id":"76646f84-b38a-43fe-b1b7-3dadf866e07c","system_id":"levelo_inurba_marseille","lat":43.23183,"lon":5.39983,"is_reserved":false,"is_disabled":false,"rental_uris":{"android":"levelo://app?vid=76646f84-b38a-43fe-b1b7-3dadf866e07c","ios":"levelo://app?vid=76646f84-b38a-43fe-b1b7-3dadf866e07c"},"vehicle_type_id":"4","last_reported":1728720667,"current_range_meters":30400,"station_id":"ce4bhn12rcd13ifvqgqg","pricing_plan_id":"cebpf4jnsgd1na2vs0mg"},{"bike_id":"b5442214-08ad-45ca-be16-ce93538fd557","system_id":"levelo_inurba_marseille","lat":43.29223,"lon":5.36069,"is_reserved":false,"is_disabled":false,"rental_uris":{"android":"levelo://app?vid=b5442214-08ad-45ca-be16-ce93538fd557","ios":"levelo://app?vid=b5442214-08ad-45ca-be16-ce93538fd557"},"vehicle_type_id":"4","last_reported":1728720667,"current_range_meters":11200,"station_id":"ce4bhbh2rcd13ifvqeqg","pricing_plan_id":"cebpf4jnsgd1na2vs0mg"},{"bike_id":"16451e5d-97d1-468f-b8f8-9f1bdd7b01c1","system_id":"levelo_inurba_marseille","lat":43.29846,"lon":5.36289,"is_reserved":false,"is_disabled":false,"rental_uris":{"android":"levelo://app?vid=16451e5d-97d1-468f-b8f8-9f1bdd7b01c1","ios":"levelo://app?vid=16451e5d-97d1-468f-b8f8-9f1bdd7b01c1"},"vehicle_type_id":"4","last_reported":1728720667,"current_range_meters":9600,"station_id":"ce4bgpp2rcd13ifvqc3g","pricing_plan_id":"cebpf4jnsgd1na2vs0mg"},{"bike_id":"04d57b0b-cbb2-40b3-8ede-0f0fb434c4a6","system_id":"levelo_inurba_marseille","lat":43.23153,"lon":5.43705,"is_reserved":false,"is_disabled":false,"rental_uris":{"android":"levelo://app?vid=04d57b0b-cbb2-40b3-8ede-0f0fb434c4a6","ios":"levelo://app?vid=04d57b0b-cbb2-40b3-8ede-0f0fb434c4a6"},"vehicle_type_id":"4","last_reported":1728720667,"current_range_meters":14400,"station_id":"ce4bhmp2rcd13ifvqgog","pricing_plan_id":"cebpf4jnsgd1na2vs0mg"},{"bike_id":"631afeb3-ff24-4869-b570-0bf0c9ce47b0","system_id":"levelo_inurba_marseille","lat":43.32084,"lon":5.38694,"is_reserved":false,"is_disabled":false,"rental_uris":{"android":"levelo://app?vid=631afeb3-ff24-4869-b570-0bf0c9ce47b0","ios":"levelo://app?vid=631afeb3-ff24-4869-b570-0bf0c9ce47b0"},"vehicle_type_id":"4","last_reported":1728720667,"current_range_meters":19200,"station_id":"","pricing_plan_id":"cebpf4jnsgd1na2vs0mg"},{"bike_id":"b4790265-f82d-4950-a5b0-bfb4696438f7","system_id":"levelo_inurba_marseille","lat":43.29922,"lon":5.38148,"is_reserved":false,"is_disabled":false,"rental_uris":{"android":"levelo://app?vid=b4790265-f82d-4950-a5b0-bfb4696438f7","ios":"levelo://app?vid=b4790265-f82d-4950-a5b0-bfb4696438f7"},"vehicle_type_id":"4","last_reported":1728720667,"current_range_meters":27600,"station_id":"ce4bgj12rcd13ifvqbc0","pricing_plan_id":"cebpf4jnsgd1na2vs0mg"},{"bike_id":"a343ef2a-9dab-4dfa-aae7-81033db70aac","system_id":"levelo_inurba_marseille","lat":43.23179,"lon":5.39975,"is_reserved":false,"is_disabled":false,"rental_uris":{"android":"levelo://app?vid=a343ef2a-9dab-4dfa-aae7-81033db70aac","ios":"levelo://app?vid=a343ef2a-9dab-4dfa-aae7-81033db70aac"},"vehicle_type_id":"4","last_reported":1728720667,"current_range_meters":16800,"station_id":"ce4bhn12rcd13ifvqgqg","pricing_plan_id":"cebpf4jnsgd1na2vs0mg"},{"bike_id":"946485a9-4277-4957-8546-1df937d706d7","system_id":"levelo_inurba_marseille","lat":43.30652,"lon":5.40076,"is_reserved":false,"is_disabled":false,"rental_uris":{"android":"levelo://app?vid=946485a9-4277-4957-8546-1df937d706d7","ios":"levelo://app?vid=946485a9-4277-4957-8546-1df937d706d7"},"vehicle_type_id":"4","last_reported":1728720667,"current_range_meters":32400,"station_id":"ce4bh112rcd13ifvqda0","pricing_plan_id":"cebpf4jnsgd1na2vs0mg"},{"bike_id":"4ae873b4-083d-4804-8059-f44b65811c68","system_id":"levelo_inurba_marseille","lat":43.31274,"lon":5.40171,"is_reserved":false,"is_disabled":false,"rental_uris":{"android":"levelo://app?vid=4ae873b4-083d-4804-8059-f44b65811c68","ios":"levelo://app?vid=4ae873b4-083d-4804-8059-f44b65811c68"},"vehicle_type_id":"4","last_reported":1728720667,"current_range_meters":7200,"station_id":"ce4bh092rcd13ifvqd30","pricing_plan_id":"cebpf4jnsgd1na2vs0mg"},{"bike_id":"e5fc2eb1-5b02-40a5-b11d-b3c67e34545a","system_id":"levelo_inurba_marseille","lat":43.29965,"lon":5.38482,"is_reserved":false,"is_disabled":false,"rental_uris":{"android":"levelo://app?vid=e5fc2eb1-5b02-40a5-b11d-b3c67e34545a","ios":"levelo://app?vid=e5fc2eb1-5b02-40a5-b11d-b3c67e34545a"},"vehicle_type_id":"4","last_reported":1728720667,"current_range_meters":10000,"station_id":"ce4bgj92rcd13ifvqbd0","pricing_plan_id":"cebpf4jnsgd1na2vs0mg"},{"bike_id":"225e01b2-3d0a-4d0b-944d-209bc854728c","system_id":"levelo_inurba_marseille","lat":43.29165,"lon":5.37149,"is_reserved":false,"is_disabled":false,"rental_uris":{"android":"levelo://app?vid=225e01b2-3d0a-4d0b-944d-209bc854728c","ios":"levelo://app?vid=225e01b2-3d0a-4d0b-944d-209bc854728c"},"vehicle_type_id":"4","last_reported":1728720667,"current_range_meters":38800,"station_id":"ce4bha92rcd13ifvqeh0","pricing_plan_id":"cebpf4jnsgd1na2vs0mg"},{"bike_id":"064b6e67-aa01-4c68-81ea-1fecbd187ab2","system_id":"levelo_inurba_marseille","lat":43.31066,"lon":5.38353,"is_reserved":false,"is_disabled":false,"rental_uris":{"android":"levelo://app?vid=064b6e67-aa01-4c68-81ea-1fecbd187ab2","ios":"levelo://app?vid=064b6e67-aa01-4c68-81ea-1fecbd187ab2"},"vehicle_type_id":"4","last_reported":1728720667,"current_range_meters":30400,"station_id":"ce4bgv92rcd13ifvqcr0","pricing_plan_id":"cebpf4jnsgd1na2vs0mg"},{"bike_id":"c7280123-5bd0-472f-9360-69b07089ad1f","system_id":"levelo_inurba_marseille","lat":43.24807,"lon":5.37455,"is_reserved":false,"is_disabled":false,"rental_uris":{"android":"levelo://app?vid=c7280123-5bd0-472f-9360-69b07089ad1f","ios":"levelo://app?vid=c7280123-5bd0-472f-9360-69b07089ad1f"},"vehicle_type_id":"4","last_reported":1728720667,"current_range_meters":38800,"station_id":"ce4bhgh2rcd13ifvqfb0","pricing_plan_id":"cebpf4jnsgd1na2vs0mg"},{"bike_id":"91aa0f0e-f007-4bc8-8e7f-28c28d61940c","system_id":"levelo_inurba_marseille","lat":43.31074,"lon":5.38344,"is_reserved":false,"is_disabled":false,"rental_uris":{"android":"levelo://app?vid=91aa0f0e-f007-4bc8-8e7f-28c28d61940c","ios":"levelo://app?vid=91aa0f0e-f007-4bc8-8e7f-28c28d61940c"},"vehicle_type_id":"4","last_reported":1728720667,"current_range_meters":38000,"station_id":"ce4bgv92rcd13ifvqcr0","pricing_plan_id":"cebpf4jnsgd1na2vs0mg"},{"bike_id":"ee07c02b-d551-4d47-b823-c2e7ac073308","system_id":"levelo_inurba_marseille","lat":43.283448,"lon":5.381001,"is_reserved":false,"is_disabled":false,"rental_uris":{"android":"levelo://app?vid=ee07c02b-d551-4d47-b823-c2e7ac073308","ios":"levelo://app?vid=ee07c02b-d551-4d47-b823-c2e7ac073308"},"vehicle_type_id":"4","last_reported":1728720667,"current_range_meters":32400,"station_id":"ce4bh412rcd13ifvqdr0","pricing_plan_id":"cebpf4jnsgd1na2vs0mg"},{"bike_id":"e1d117a2-adf1-4f22-b906-53077a5caaa6","system_id":"levelo_inurba_marseille","lat":43.28023,"lon":5.36931,"is_reserved":false,"is_disabled":false,"rental_uris":{"android":"levelo://app?vid=e1d117a2-adf1-4f22-b906-53077a5caaa6","ios":"levelo://app?vid=e1d117a2-adf1-4f22-b906-53077a5caaa6"},"vehicle_type_id":"4","last_reported":1728720667,"current_range_meters":8800,"station_id":"ce4bha12rcd13ifvqef0","pricing_plan_id":"cebpf4jnsgd1na2vs0mg"},{"bike_id":"293443a5-ce09-4190-b244-f581c225f846","system_id":"levelo_inurba_marseille","lat":43.279057,"lon":5.380068,"is_reserved":false,"is_disabled":false,"rental_uris":{"android":"levelo://app?vid=293443a5-ce09-4190-b244-f581c225f846","ios":"levelo://app?vid=293443a5-ce09-4190-b244-f581c225f846"},"vehicle_type_id":"4","last_reported":1728720667,"current_range_meters":37600,"station_id":"ce4bhf92rcd13ifvqf50","pricing_plan_id":"cebpf4jnsgd1na2vs0mg"},{"bike_id":"86851483-6460-4f2a-8d92-b3b47e5c55aa","system_id":"levelo_inurba_marseille","lat":43.23953,"lon":5.3664,"is_reserved":false,"is_disabled":false,"rental_uris":{"android":"levelo://app?vid=86851483-6460-4f2a-8d92-b3b47e5c55aa","ios":"levelo://app?vid=86851483-6460-4f2a-8d92-b3b47e5c55aa"},"vehicle_type_id":"4","last_reported":1728720667,"current_range_meters":39200,"station_id":"ce4bhi12rcd13ifvqfp0","pricing_plan_id":"cebpf4jnsgd1na2vs0mg"},{"bike_id":"a4e81d89-063a-43eb-a55f-1719e1ac79ed","system_id":"levelo_inurba_marseille","lat":43.2721,"lon":5.3918,"is_reserved":false,"is_disabled":false,"rental_uris":{"android":"levelo://app?vid=a4e81d89-063a-43eb-a55f-1719e1ac79ed","ios":"levelo://app?vid=a4e81d89-063a-43eb-a55f-1719e1ac79ed"},"vehicle_type_id":"4","last_reported":1728720667,"current_range_meters":38800,"station_id":"ce4bhhp2rcd13ifvqfm0","pricing_plan_id":"cebpf4jnsgd1na2vs0mg"},{"bike_id":"c279047e-1d70-4dd1-b2ee-b3555d0fddbe","system_id":"levelo_inurba_marseille","lat":43.3361,"lon":5.41028,"is_reserved":false,"is_disabled":false,"rental_uris":{"android":"levelo://app?vid=c279047e-1d70-4dd1-b2ee-b3555d0fddbe","ios":"levelo://app?vid=c279047e-1d70-4dd1-b2ee-b3555d0fddbe"},"vehicle_type_id":"4","last_reported":1728720667,"current_range_meters":11200,"station_id":"ce4bhqh2rcd13ifvqhmg","pricing_plan_id":"cebpf4jnsgd1na2vs0mg"},{"bike_id":"900d410e-a263-4441-80a1-af67345a66d2","system_id":"levelo_inurba_marseille","lat":43.2438,"lon":5.37064,"is_reserved":false,"is_disabled":false,"rental_uris":{"android":"levelo://app?vid=900d410e-a263-4441-80a1-af67345a66d2","ios":"levelo://app?vid=900d410e-a263-4441-80a1-af67345a66d2"},"vehicle_type_id":"4","last_reported":1728720667,"current_range_meters":26000,"station_id":"ce4bhhh2rcd13ifvqfk0","pricing_plan_id":"cebpf4jnsgd1na2vs0mg"},{"bike_id":"18e50b7c-f98f-46f1-90ae-1ebf8e17e6aa","system_id":"levelo_inurba_marseille","lat":43.27173,"lon":5.40982,"is_reserved":false,"is_disabled":false,"rental_uris":{"android":"levelo://app?vid=18e50b7c-f98f-46f1-90ae-1ebf8e17e6aa","ios":"levelo://app?vid=18e50b7c-f98f-46f1-90ae-1ebf8e17e6aa"},"vehicle_type_id":"4","last_reported":1728720667,"current_range_meters":26800,"station_id":"ce4bhl12rcd13ifvqgf0","pricing_plan_id":"cebpf4jnsgd1na2vs0mg"},{"bike_id":"120ce475-86ea-4767-8511-a96473d1462c","system_id":"levelo_inurba_marseille","lat":43.31066,"lon":5.38335,"is_reserved":false,"is_disabled":false,"rental_uris":{"android":"levelo://app?vid=120ce475-86ea-4767-8511-a96473d1462c","ios":"levelo://app?vid=120ce475-86ea-4767-8511-a96473d1462c"},"vehicle_type_id":"4","last_reported":1728720667,"current_range_meters":22000,"station_id":"ce4bgv92rcd13ifvqcr0","pricing_plan_id":"cebpf4jnsgd1na2vs0mg"},{"bike_id":"93cf6e6a-b59b-4d63-9a00-c25bf3ea1f05","system_id":"levelo_inurba_marseille","lat":43.29894,"lon":5.43656,"is_reserved":false,"is_disabled":false,"rental_uris":{"android":"levelo://app?vid=93cf6e6a-b59b-4d63-9a00-c25bf3ea1f05","ios":"levelo://app?vid=93cf6e6a-b59b-4d63-9a00-c25bf3ea1f05"},"vehicle_type_id":"4","last_reported":1728720667,"current_range_meters":38800,"station_id":"ce4bhpp2rcd13ifvqhfg","pricing_plan_id":"cebpf4jnsgd1na2vs0mg"},{"bike_id":"76f1ad97-08ac-481e-8b74-6cf8ab3c95f2","system_id":"levelo_inurba_marseille","lat":43.29589,"lon":5.38106,"is_reserved":false,"is_disabled":false,"rental_uris":{"android":"levelo://app?vid=76f1ad97-08ac-481e-8b74-6cf8ab3c95f2","ios":"levelo://app?vid=76f1ad97-08ac-481e-8b74-6cf8ab3c95f2"},"vehicle_type_id":"4","last_reported":1728720667,"current_range_meters":38800,"station_id":"ce4bgl12rcd13ifvqbo0","pricing_plan_id":"cebpf4jnsgd1na2vs0mg"},{"bike_id":"c43b90fe-b1cf-4e98-956f-85ab60fd1421","system_id":"levelo_inurba_marseille","lat":43.24649,"lon":5.38895,"is_reserved":false,"is_disabled":false,"rental_uris":{"android":"levelo://app?vid=c43b90fe-b1cf-4e98-956f-85ab60fd1421","ios":"levelo://app?vid=c43b90fe-b1cf-4e98-956f-85ab60fd1421"},"vehicle_type_id":"4","last_reported":1728720667,"current_range_meters":17200,"station_id":"ce4bhg12rcd13ifvqf60","pricing_plan_id":"cebpf4jnsgd1na2vs0mg"},{"bike_id":"076476f9-1988-4652-9092-8c780b2b7f64","system_id":"levelo_inurba_marseille","lat":43.29573,"lon":5.3751,"is_reserved":false,"is_disabled":false,"rental_uris":{"android":"levelo://app?vid=076476f9-1988-4652-9092-8c780b2b7f64","ios":"levelo://app?vid=076476f9-1988-4652-9092-8c780b2b7f64"},"vehicle_type_id":"4","last_reported":1728720667,"current_range_meters":38400,"station_id":"ce4bgh92rcd13ifvqb50","pricing_plan_id":"cebpf4jnsgd1na2vs0mg"},{"bike_id":"b27220ce-643c-4cda-b1cf-ddebfd37a8aa","system_id":"levelo_inurba_marseille","lat":43.23178,"lon":5.39982,"is_reserved":false,"is_disabled":false,"rental_uris":{"android":"levelo://app?vid=b27220ce-643c-4cda-b1cf-ddebfd37a8aa","ios":"levelo://app?vid=b27220ce-643c-4cda-b1cf-ddebfd37a8aa"},"vehicle_type_id":"4","last_reported":1728720667,"current_range_meters":38800,"station_id":"ce4bhn12rcd13ifvqgqg","pricing_plan_id":"cebpf4jnsgd1na2vs0mg"},{"bike_id":"75544513-b071-4a54-8055-a9182e2adb15","system_id":"levelo_inurba_marseille","lat":43.27839,"lon":5.39204,"is_reserved":false,"is_disabled":false,"rental_uris":{"android":"levelo://app?vid=75544513-b071-4a54-8055-a9182e2adb15","ios":"levelo://app?vid=75544513-b071-4a54-8055-a9182e2adb15"},"vehicle_type_id":"4","last_reported":1728720667,"current_range_meters":2800,"station_id":"ce4bhjp2rcd13ifvqga0","pricing_plan_id":"cebpf4jnsgd1na2vs0mg"},{"bike_id":"a902a2b9-0a95-4d20-89a9-783382f8a805","system_id":"levelo_inurba_marseille","lat":43.285675,"lon":5.394992,"is_reserved":false,"is_disabled":false,"rental_uris":{"android":"levelo://app?vid=a902a2b9-0a95-4d20-89a9-783382f8a805","ios":"levelo://app?vid=a902a2b9-0a95-4d20-89a9-783382f8a805"},"vehicle_type_id":"4","last_reported":1728720667,"current_range_meters":38000,"station_id":"ce4bh512rcd13ifvqe3g","pricing_plan_id":"cebpf4jnsgd1na2vs0mg"},{"bike_id":"6b32da0f-8535-41b1-98ae-900e0f6f1d04","system_id":"levelo_inurba_marseille","lat":43.304125,"lon":5.41285,"is_reserved":false,"is_disabled":false,"rental_uris":{"android":"levelo://app?vid=6b32da0f-8535-41b1-98ae-900e0f6f1d04","ios":"levelo://app?vid=6b32da0f-8535-41b1-98ae-900e0f6f1d04"},"vehicle_type_id":"4","last_reported":1728720667,"current_range_meters":38000,"station_id":"ce4bhop2rcd13ifvqh8g","pricing_plan_id":"cebpf4jnsgd1na2vs0mg"},{"bike_id":"ec71d4de-66cb-4ec0-9573-3710e81e3431","system_id":"levelo_inurba_marseille","lat":43.23182,"lon":5.39982,"is_reserved":false,"is_disabled":false,"rental_uris":{"android":"levelo://app?vid=ec71d4de-66cb-4ec0-9573-3710e81e3431","ios":"levelo://app?vid=ec71d4de-66cb-4ec0-9573-3710e81e3431"},"vehicle_type_id":"4","last_reported":1728720667,"current_range_meters":18800,"station_id":"ce4bhn12rcd13ifvqgqg","pricing_plan_id":"cebpf4jnsgd1na2vs0mg"},{"bike_id":"06837368-69b6-41de-9ebb-f62e406bae48","system_id":"levelo_inurba_marseille","lat":43.28662,"lon":5.38668,"is_reserved":false,"is_disabled":false,"rental_uris":{"android":"levelo://app?vid=06837368-69b6-41de-9ebb-f62e406bae48","ios":"levelo://app?vid=06837368-69b6-41de-9ebb-f62e406bae48"},"vehicle_type_id":"4","last_reported":1728720667,"current_range_meters":27200,"station_id":"ce4bh492rcd13ifvqdug","pricing_plan_id":"cebpf4jnsgd1na2vs0mg"},{"bike_id":"aed2777a-4f8a-4d24-802a-93026f052e7d","system_id":"levelo_inurba_marseille","lat":43.25571,"lon":5.38227,"is_reserved":false,"is_disabled":false,"rental_uris":{"android":"levelo://app?vid=aed2777a-4f8a-4d24-802a-93026f052e7d","ios":"levelo://app?vid=aed2777a-4f8a-4d24-802a-93026f052e7d"},"vehicle_type_id":"4","last_reported":1728720667,"current_range_meters":30000,"station_id":"ce4bhih2rcd13ifvqfs0","pricing_plan_id":"cebpf4jnsgd1na2vs0mg"},{"bike_id":"9966b5f5-38a3-411a-be63-ed609c52bd78","system_id":"levelo_inurba_marseille","lat":43.27964,"lon":5.38725,"is_reserved":false,"is_disabled":false,"rental_uris":{"android":"levelo://app?vid=9966b5f5-38a3-411a-be63-ed609c52bd78","ios":"levelo://app?vid=9966b5f5-38a3-411a-be63-ed609c52bd78"},"vehicle_type_id":"4","last_reported":1728720667,"current_range_meters":38800,"station_id":"ce4bhg12rcd13ifvqf80","pricing_plan_id":"cebpf4jnsgd1na2vs0mg"},{"bike_id":"c2709d8c-182c-4c66-9678-32143d413767","system_id":"levelo_inurba_marseille","lat":43.22934,"lon":5.35381,"is_reserved":false,"is_disabled":false,"rental_uris":{"android":"levelo://app?vid=c2709d8c-182c-4c66-9678-32143d413767","ios":"levelo://app?vid=c2709d8c-182c-4c66-9678-32143d413767"},"vehicle_type_id":"4","last_reported":1728720667,"current_range_meters":27200,"station_id":"cpo3532slgdg3j2ikp40","pricing_plan_id":"cebpf4jnsgd1na2vs0mg"},{"bike_id":"57213862-b739-4110-bda6-17d1437662ee","system_id":"levelo_inurba_marseille","lat":43.30147,"lon":5.38079,"is_reserved":false,"is_disabled":false,"rental_uris":{"android":"levelo://app?vid=57213862-b739-4110-bda6-17d1437662ee","ios":"levelo://app?vid=57213862-b739-4110-bda6-17d1437662ee"},"vehicle_type_id":"4","last_reported":1728720667,"current_range_meters":38800,"station_id":"ce4bgjp2rcd13ifvqbh0","pricing_plan_id":"cebpf4jnsgd1na2vs0mg"},{"bike_id":"f1cd11b1-304c-4691-852b-1b377d98415e","system_id":"levelo_inurba_marseille","lat":43.30427,"lon":5.38898,"is_reserved":false,"is_disabled":false,"rental_uris":{"android":"levelo://app?vid=f1cd11b1-304c-4691-852b-1b377d98415e","ios":"levelo://app?vid=f1cd11b1-304c-4691-852b-1b377d98415e"},"vehicle_type_id":"4","last_reported":1728720667,"current_range_meters":38800,"station_id":"ce4bgk12rcd13ifvqbi0","pricing_plan_id":"cebpf4jnsgd1na2vs0mg"},{"bike_id":"77c99e1d-c795-4d53-a9c7-d018849cb7a8","system_id":"levelo_inurba_marseille","lat":43.30457,"lon":5.37911,"is_reserved":false,"is_disabled":false,"rental_uris":{"android":"levelo://app?vid=77c99e1d-c795-4d53-a9c7-d018849cb7a8","ios":"levelo://app?vid=77c99e1d-c795-4d53-a9c7-d018849cb7a8"},"vehicle_type_id":"4","last_reported":1728720667,"current_range_meters":17600,"station_id":"ce4bgup2rcd13ifvqcn0","pricing_plan_id":"cebpf4jnsgd1na2vs0mg"},{"bike_id":"cada2e3e-fa68-42f7-87ce-cc501f3a6b61","system_id":"levelo_inurba_marseille","lat":43.33606,"lon":5.41021,"is_reserved":false,"is_disabled":false,"rental_uris":{"android":"levelo://app?vid=cada2e3e-fa68-42f7-87ce-cc501f3a6b61","ios":"levelo://app?vid=cada2e3e-fa68-42f7-87ce-cc501f3a6b61"},"vehicle_type_id":"4","last_reported":1728720667,"current_range_meters":22800,"station_id":"ce4bhqh2rcd13ifvqhmg","pricing_plan_id":"cebpf4jnsgd1na2vs0mg"},{"bike_id":"55ad5e10-e7c3-436d-bdf6-7b5ba3a6cf16","system_id":"levelo_inurba_marseille","lat":43.29066,"lon":5.37162,"is_reserved":false,"is_disabled":false,"rental_uris":{"android":"levelo://app?vid=55ad5e10-e7c3-436d-bdf6-7b5ba3a6cf16","ios":"levelo://app?vid=55ad5e10-e7c3-436d-bdf6-7b5ba3a6cf16"},"vehicle_type_id":"4","last_reported":1728720667,"current_range_meters":33200,"station_id":"ce4bh5p2rcd13ifvqe4g","pricing_plan_id":"cebpf4jnsgd1na2vs0mg"},{"bike_id":"2c07c0ad-e597-45f6-8bf8-0bd88a56ad5b","system_id":"levelo_inurba_marseille","lat":43.26948,"lon":5.38633,"is_reserved":false,"is_disabled":false,"rental_uris":{"android":"levelo://app?vid=2c07c0ad-e597-45f6-8bf8-0bd88a56ad5b","ios":"levelo://app?vid=2c07c0ad-e597-45f6-8bf8-0bd88a56ad5b"},"vehicle_type_id":"4","last_reported":1728720667,"current_range_meters":28400,"station_id":"ce4bhh92rcd13ifvqfh0","pricing_plan_id":"cebpf4jnsgd1na2vs0mg"},{"bike_id":"68bde495-88e9-4cfb-ada1-b35ecbd2d941","system_id":"levelo_inurba_marseille","lat":43.33024,"lon":5.39043,"is_reserved":false,"is_disabled":false,"rental_uris":{"android":"levelo://app?vid=68bde495-88e9-4cfb-ada1-b35ecbd2d941","ios":"levelo://app?vid=68bde495-88e9-4cfb-ada1-b35ecbd2d941"},"vehicle_type_id":"4","last_reported":1728720667,"current_range_meters":28400,"station_id":"ce4bhr92rcd13ifvqhrg","pricing_plan_id":"cebpf4jnsgd1na2vs0mg"},{"bike_id":"b5ebf581-ee83-4793-bd67-976719116a5b","system_id":"levelo_inurba_marseille","lat":43.26776,"lon":5.39425,"is_reserved":false,"is_disabled":false,"rental_uris":{"android":"levelo://app?vid=b5ebf581-ee83-4793-bd67-976719116a5b","ios":"levelo://app?vid=b5ebf581-ee83-4793-bd67-976719116a5b"},"vehicle_type_id":"4","last_reported":1728720667,"current_range_meters":18800,"station_id":"ce4bhh12rcd13ifvqfg0","pricing_plan_id":"cebpf4jnsgd1na2vs0mg"},{"bike_id":"6e7a10e9-4753-449c-96b2-ba97fd335861","system_id":"levelo_inurba_marseille","lat":43.30146,"lon":5.38084,"is_reserved":false,"is_disabled":false,"rental_uris":{"android":"levelo://app?vid=6e7a10e9-4753-449c-96b2-ba97fd335861","ios":"levelo://app?vid=6e7a10e9-4753-449c-96b2-ba97fd335861"},"vehicle_type_id":"4","last_reported":1728720667,"current_range_meters":24800,"station_id":"ce4bgjp2rcd13ifvqbh0","pricing_plan_id":"cebpf4jnsgd1na2vs0mg"},{"bike_id":"3cb719e0-27ba-4752-85a0-6ba32db9d5e9","system_id":"levelo_inurba_marseille","lat":43.29838,"lon":5.36271,"is_reserved":false,"is_disabled":false,"rental_uris":{"android":"levelo://app?vid=3cb719e0-27ba-4752-85a0-6ba32db9d5e9","ios":"levelo://app?vid=3cb719e0-27ba-4752-85a0-6ba32db9d5e9"},"vehicle_type_id":"4","last_reported":1728720667,"current_range_meters":35200,"station_id":"ce4bgpp2rcd13ifvqc3g","pricing_plan_id":"cebpf4jnsgd1na2vs0mg"},{"bike_id":"8e239f3d-cff5-4a84-a158-f79f300861fd","system_id":"levelo_inurba_marseille","lat":43.25858,"lon":5.39901,"is_reserved":false,"is_disabled":false,"rental_uris":{"android":"levelo://app?vid=8e239f3d-cff5-4a84-a158-f79f300861fd","ios":"levelo://app?vid=8e239f3d-cff5-4a84-a158-f79f300861fd"},"vehicle_type_id":"4","last_reported":1728720667,"current_range_meters":26000,"station_id":"ce4bhl92rcd13ifvqghg","pricing_plan_id":"cebpf4jnsgd1na2vs0mg"},{"bike_id":"cbb83640-2722-454d-b359-a235d7bda6bb","system_id":"levelo_inurba_marseille","lat":43.300421,"lon":5.389635,"is_reserved":false,"is_disabled":false,"rental_uris":{"android":"levelo://app?vid=cbb83640-2722-454d-b359-a235d7bda6bb","ios":"levelo://app?vid=cbb83640-2722-454d-b359-a235d7bda6bb"},"vehicle_type_id":"4","last_reported":1728720667,"current_range_meters":20000,"station_id":"ce4bh192rcd13ifvqdb0","pricing_plan_id":"cebpf4jnsgd1na2vs0mg"},{"bike_id":"9ec6e1e0-7b84-4fd6-9453-00710f7a41d1","system_id":"levelo_inurba_marseille","lat":43.32537,"lon":5.41451,"is_reserved":false,"is_disabled":false,"rental_uris":{"android":"levelo://app?vid=9ec6e1e0-7b84-4fd6-9453-00710f7a41d1","ios":"levelo://app?vid=9ec6e1e0-7b84-4fd6-9453-00710f7a41d1"},"vehicle_type_id":"4","last_reported":1728720667,"current_range_meters":38800,"station_id":"ce4bhq12rcd13ifvqhhg","pricing_plan_id":"cebpf4jnsgd1na2vs0mg"},{"bike_id":"fe499ee7-6375-4ecd-b57e-a932fe0f65cf","system_id":"levelo_inurba_marseille","lat":43.33715,"lon":5.39178,"is_reserved":false,"is_disabled":false,"rental_uris":{"android":"levelo://app?vid=fe499ee7-6375-4ecd-b57e-a932fe0f65cf","ios":"levelo://app?vid=fe499ee7-6375-4ecd-b57e-a932fe0f65cf"},"vehicle_type_id":"4","last_reported":1728720667,"current_range_meters":9200,"station_id":"ce4bhr92rcd13ifvqhsg","pricing_plan_id":"cebpf4jnsgd1na2vs0mg"},{"bike_id":"fbffa957-ac49-4590-b223-7d57f26e111b","system_id":"levelo_inurba_marseille","lat":43.32256,"lon":5.38284,"is_reserved":false,"is_disabled":false,"rental_uris":{"android":"levelo://app?vid=fbffa957-ac49-4590-b223-7d57f26e111b","ios":"levelo://app?vid=fbffa957-ac49-4590-b223-7d57f26e111b"},"vehicle_type_id":"4","last_reported":1728720667,"current_range_meters":29600,"station_id":"ce4bhr12rcd13ifvqhqg","pricing_plan_id":"cebpf4jnsgd1na2vs0mg"},{"bike_id":"e8134384-9f2e-430f-8d41-28d909a67feb","system_id":"levelo_inurba_marseille","lat":43.30644,"lon":5.4008,"is_reserved":false,"is_disabled":false,"rental_uris":{"android":"levelo://app?vid=e8134384-9f2e-430f-8d41-28d909a67feb","ios":"levelo://app?vid=e8134384-9f2e-430f-8d41-28d909a67feb"},"vehicle_type_id":"4","last_reported":1728720667,"current_range_meters":38800,"station_id":"ce4bh112rcd13ifvqda0","pricing_plan_id":"cebpf4jnsgd1na2vs0mg"},{"bike_id":"8968eac0-a2db-497a-9fb8-8de5dc962a04","system_id":"levelo_inurba_marseille","lat":43.29,"lon":5.35613,"is_reserved":false,"is_disabled":false,"rental_uris":{"android":"levelo://app?vid=8968eac0-a2db-497a-9fb8-8de5dc962a04","ios":"levelo://app?vid=8968eac0-a2db-497a-9fb8-8de5dc962a04"},"vehicle_type_id":"4","last_reported":1728720667,"current_range_meters":16000,"station_id":"ce4bhb92rcd13ifvqen0","pricing_plan_id":"cebpf4jnsgd1na2vs0mg"},{"bike_id":"052c9834-5323-4600-a5d5-4560248490c7","system_id":"levelo_inurba_marseille","lat":43.30124,"lon":5.37419,"is_reserved":false,"is_disabled":false,"rental_uris":{"android":"levelo://app?vid=052c9834-5323-4600-a5d5-4560248490c7","ios":"levelo://app?vid=052c9834-5323-4600-a5d5-4560248490c7"},"vehicle_type_id":"4","last_reported":1728720667,"current_range_meters":22800,"station_id":"ce4bgs92rcd13ifvqcc0","pricing_plan_id":"cebpf4jnsgd1na2vs0mg"},{"bike_id":"92f680e4-6d48-46c3-8e60-cb7c2e136018","system_id":"levelo_inurba_marseille","lat":43.30787,"lon":5.43516,"is_reserved":false,"is_disabled":false,"rental_uris":{"android":"levelo://app?vid=92f680e4-6d48-46c3-8e60-cb7c2e136018","ios":"levelo://app?vid=92f680e4-6d48-46c3-8e60-cb7c2e136018"},"vehicle_type_id":"4","last_reported":1728720667,"current_range_meters":29600,"station_id":"ce4bhph2rcd13ifvqheg","pricing_plan_id":"cebpf4jnsgd1na2vs0mg"},{"bike_id":"26ad2f98-28e7-4ba6-817b-53c0d1cfc4da","system_id":"levelo_inurba_marseille","lat":43.25716,"lon":5.41113,"is_reserved":false,"is_disabled":false,"rental_uris":{"android":"levelo://app?vid=26ad2f98-28e7-4ba6-817b-53c0d1cfc4da","ios":"levelo://app?vid=26ad2f98-28e7-4ba6-817b-53c0d1cfc4da"},"vehicle_type_id":"4","last_reported":1728720667,"current_range_meters":37600,"station_id":"ce4bhkp2rcd13ifvqgd0","pricing_plan_id":"cebpf4jnsgd1na2vs0mg"},{"bike_id":"ad9508a3-6339-4b15-ad7f-7867f29affe1","system_id":"levelo_inurba_marseille","lat":43.2396,"lon":5.36635,"is_reserved":false,"is_disabled":false,"rental_uris":{"android":"levelo://app?vid=ad9508a3-6339-4b15-ad7f-7867f29affe1","ios":"levelo://app?vid=ad9508a3-6339-4b15-ad7f-7867f29affe1"},"vehicle_type_id":"4","last_reported":1728720667,"current_range_meters":30400,"station_id":"ce4bhi12rcd13ifvqfp0","pricing_plan_id":"cebpf4jnsgd1na2vs0mg"},{"bike_id":"a1418c80-55de-4db3-90a8-96d8f08c0c87","system_id":"levelo_inurba_marseille","lat":43.28961,"lon":5.37848,"is_reserved":false,"is_disabled":false,"rental_uris":{"android":"levelo://app?vid=a1418c80-55de-4db3-90a8-96d8f08c0c87","ios":"levelo://app?vid=a1418c80-55de-4db3-90a8-96d8f08c0c87"},"vehicle_type_id":"4","last_reported":1728720667,"current_range_meters":36800,"station_id":"ce4bh9p2rcd13ifvqed0","pricing_plan_id":"cebpf4jnsgd1na2vs0mg"},{"bike_id":"5eda1e4e-8f05-4c52-a6c4-e3483e007081","system_id":"levelo_inurba_marseille","lat":43.30917,"lon":5.40139,"is_reserved":false,"is_disabled":false,"rental_uris":{"android":"levelo://app?vid=5eda1e4e-8f05-4c52-a6c4-e3483e007081","ios":"levelo://app?vid=5eda1e4e-8f05-4c52-a6c4-e3483e007081"},"vehicle_type_id":"4","last_reported":1728720667,"current_range_meters":35600,"station_id":"ce4bgvp2rcd13ifvqct0","pricing_plan_id":"cebpf4jnsgd1na2vs0mg"},{"bike_id":"758b22cc-93da-41a5-bd47-c870dfb5eec7","system_id":"levelo_inurba_marseille","lat":43.337444,"lon":5.374475,"is_reserved":false,"is_disabled":false,"rental_uris":{"android":"levelo://app?vid=758b22cc-93da-41a5-bd47-c870dfb5eec7","ios":"levelo://app?vid=758b22cc-93da-41a5-bd47-c870dfb5eec7"},"vehicle_type_id":"4","last_reported":1728720667,"current_range_meters":28400,"station_id":"","pricing_plan_id":"cebpf4jnsgd1na2vs0mg"},{"bike_id":"b1f337f6-46e6-469d-bc5f-2ee64924c64c","system_id":"levelo_inurba_marseille","lat":43.24665,"lon":5.38165,"is_reserved":false,"is_disabled":false,"rental_uris":{"android":"levelo://app?vid=b1f337f6-46e6-469d-bc5f-2ee64924c64c","ios":"levelo://app?vid=b1f337f6-46e6-469d-bc5f-2ee64924c64c"},"vehicle_type_id":"4","last_reported":1728720667,"current_range_meters":24000,"station_id":"ce4bhih2rcd13ifvqfr0","pricing_plan_id":"cebpf4jnsgd1na2vs0mg"},{"bike_id":"6b10fb70-8928-448c-9332-a992ab5f585a","system_id":"levelo_inurba_marseille","lat":43.24989,"lon":5.38932,"is_reserved":false,"is_disabled":false,"rental_uris":{"android":"levelo://app?vid=6b10fb70-8928-448c-9332-a992ab5f585a","ios":"levelo://app?vid=6b10fb70-8928-448c-9332-a992ab5f585a"},"vehicle_type_id":"4","last_reported":1728720667,"current_range_meters":8800,"station_id":"ce4bhgp2rcd13ifvqfd0","pricing_plan_id":"cebpf4jnsgd1na2vs0mg"},{"bike_id":"5bc82fca-43af-4201-891c-b197527e32ad","system_id":"levelo_inurba_marseille","lat":43.23182,"lon":5.39984,"is_reserved":false,"is_disabled":false,"rental_uris":{"android":"levelo://app?vid=5bc82fca-43af-4201-891c-b197527e32ad","ios":"levelo://app?vid=5bc82fca-43af-4201-891c-b197527e32ad"},"vehicle_type_id":"4","last_reported":1728720667,"current_range_meters":8800,"station_id":"ce4bhn12rcd13ifvqgqg","pricing_plan_id":"cebpf4jnsgd1na2vs0mg"},{"bike_id":"7c84ba11-c20f-4c7e-901f-d514605a3973","system_id":"levelo_inurba_marseille","lat":43.30463,"lon":5.37899,"is_reserved":false,"is_disabled":false,"rental_uris":{"android":"levelo://app?vid=7c84ba11-c20f-4c7e-901f-d514605a3973","ios":"levelo://app?vid=7c84ba11-c20f-4c7e-901f-d514605a3973"},"vehicle_type_id":"4","last_reported":1728720667,"current_range_meters":38800,"station_id":"ce4bgup2rcd13ifvqcn0","pricing_plan_id":"cebpf4jnsgd1na2vs0mg"},{"bike_id":"628b70e0-70d2-4a50-bd81-f02589a5a65c","system_id":"levelo_inurba_marseille","lat":43.29215,"lon":5.37165,"is_reserved":false,"is_disabled":false,"rental_uris":{"android":"levelo://app?vid=628b70e0-70d2-4a50-bd81-f02589a5a65c","ios":"levelo://app?vid=628b70e0-70d2-4a50-bd81-f02589a5a65c"},"vehicle_type_id":"4","last_reported":1728720667,"current_range_meters":9200,"station_id":"ce4bha92rcd13ifvqeh0","pricing_plan_id":"cebpf4jnsgd1na2vs0mg"},{"bike_id":"d6c1682f-058e-4e77-8805-3bd661718cfe","system_id":"levelo_inurba_marseille","lat":43.28565,"lon":5.3949,"is_reserved":false,"is_disabled":false,"rental_uris":{"android":"levelo://app?vid=d6c1682f-058e-4e77-8805-3bd661718cfe","ios":"levelo://app?vid=d6c1682f-058e-4e77-8805-3bd661718cfe"},"vehicle_type_id":"4","last_reported":1728720667,"current_range_meters":1200,"station_id":"ce4bh292rcd13ifvqdg0","pricing_plan_id":"cebpf4jnsgd1na2vs0mg"},{"bike_id":"b989858f-5272-4f3b-af50-55f777ed7e17","system_id":"levelo_inurba_marseille","lat":43.28261,"lon":5.35065,"is_reserved":false,"is_disabled":false,"rental_uris":{"android":"levelo://app?vid=b989858f-5272-4f3b-af50-55f777ed7e17","ios":"levelo://app?vid=b989858f-5272-4f3b-af50-55f777ed7e17"},"vehicle_type_id":"4","last_reported":1728720667,"current_range_meters":9600,"station_id":"ce4bhbp2rcd13ifvqerg","pricing_plan_id":"cebpf4jnsgd1na2vs0mg"},{"bike_id":"a49f0919-36fa-4eb4-8b1e-4f56526b00f7","system_id":"levelo_inurba_marseille","lat":43.27177,"lon":5.40991,"is_reserved":false,"is_disabled":false,"rental_uris":{"android":"levelo://app?vid=a49f0919-36fa-4eb4-8b1e-4f56526b00f7","ios":"levelo://app?vid=a49f0919-36fa-4eb4-8b1e-4f56526b00f7"},"vehicle_type_id":"4","last_reported":1728720667,"current_range_meters":38800,"station_id":"ce4bhl12rcd13ifvqgf0","pricing_plan_id":"cebpf4jnsgd1na2vs0mg"},{"bike_id":"37260897-2869-4b67-b68b-17af335d61b4","system_id":"levelo_inurba_marseille","lat":43.31713,"lon":5.43719,"is_reserved":false,"is_disabled":false,"rental_uris":{"android":"levelo://app?vid=37260897-2869-4b67-b68b-17af335d61b4","ios":"levelo://app?vid=37260897-2869-4b67-b68b-17af335d61b4"},"vehicle_type_id":"4","last_reported":1728720667,"current_range_meters":25200,"station_id":"ce4bhp92rcd13ifvqhcg","pricing_plan_id":"cebpf4jnsgd1na2vs0mg"},{"bike_id":"23d8589a-f57d-424d-a70a-057d6e0dae5b","system_id":"levelo_inurba_marseille","lat":43.30643,"lon":5.40083,"is_reserved":false,"is_disabled":false,"rental_uris":{"android":"levelo://app?vid=23d8589a-f57d-424d-a70a-057d6e0dae5b","ios":"levelo://app?vid=23d8589a-f57d-424d-a70a-057d6e0dae5b"},"vehicle_type_id":"4","last_reported":1728720667,"current_range_meters":4000,"station_id":"ce4bh112rcd13ifvqda0","pricing_plan_id":"cebpf4jnsgd1na2vs0mg"},{"bike_id":"ef772543-6dcc-4917-a2bf-044cfc19e6bb","system_id":"levelo_inurba_marseille","lat":43.26678,"lon":5.38267,"is_reserved":false,"is_disabled":false,"rental_uris":{"android":"levelo://app?vid=ef772543-6dcc-4917-a2bf-044cfc19e6bb","ios":"levelo://app?vid=ef772543-6dcc-4917-a2bf-044cfc19e6bb"},"vehicle_type_id":"4","last_reported":1728720667,"current_range_meters":27200,"station_id":"ce4bhg92rcd13ifvqf90","pricing_plan_id":"cebpf4jnsgd1na2vs0mg"},{"bike_id":"82de1d58-db4a-4dc1-9fdf-8477c2a655ef","system_id":"levelo_inurba_marseille","lat":43.280379,"lon":5.369328,"is_reserved":false,"is_disabled":false,"rental_uris":{"android":"levelo://app?vid=82de1d58-db4a-4dc1-9fdf-8477c2a655ef","ios":"levelo://app?vid=82de1d58-db4a-4dc1-9fdf-8477c2a655ef"},"vehicle_type_id":"4","last_reported":1728720667,"current_range_meters":38000,"station_id":"","pricing_plan_id":"cebpf4jnsgd1na2vs0mg"},{"bike_id":"9379c18a-1c38-4ebd-b55e-09efbf75f62a","system_id":"levelo_inurba_marseille","lat":43.29935,"lon":5.36546,"is_reserved":false,"is_disabled":false,"rental_uris":{"android":"levelo://app?vid=9379c18a-1c38-4ebd-b55e-09efbf75f62a","ios":"levelo://app?vid=9379c18a-1c38-4ebd-b55e-09efbf75f62a"},"vehicle_type_id":"4","last_reported":1728720667,"current_range_meters":18000,"station_id":"ce4bgm92rcd13ifvqbr0","pricing_plan_id":"cebpf4jnsgd1na2vs0mg"},{"bike_id":"082f10e2-444b-4262-9777-2e9cacdb3880","system_id":"levelo_inurba_marseille","lat":43.336058,"lon":5.410334,"is_reserved":false,"is_disabled":false,"rental_uris":{"android":"levelo://app?vid=082f10e2-444b-4262-9777-2e9cacdb3880","ios":"levelo://app?vid=082f10e2-444b-4262-9777-2e9cacdb3880"},"vehicle_type_id":"4","last_reported":1728720667,"current_range_meters":18800,"station_id":"ce4bhq92rcd13ifvqhkg","pricing_plan_id":"cebpf4jnsgd1na2vs0mg"},{"bike_id":"1cec031a-5492-49da-b248-68339f630cf2","system_id":"levelo_inurba_marseille","lat":43.30131,"lon":5.38785,"is_reserved":false,"is_disabled":false,"rental_uris":{"android":"levelo://app?vid=1cec031a-5492-49da-b248-68339f630cf2","ios":"levelo://app?vid=1cec031a-5492-49da-b248-68339f630cf2"},"vehicle_type_id":"4","last_reported":1728720667,"current_range_meters":20400,"station_id":"ce4bghh2rcd13ifvqb60","pricing_plan_id":"cebpf4jnsgd1na2vs0mg"},{"bike_id":"8bb834fe-211e-43f5-bab5-2451d8f6f760","system_id":"levelo_inurba_marseille","lat":43.29514,"lon":5.37506,"is_reserved":false,"is_disabled":false,"rental_uris":{"android":"levelo://app?vid=8bb834fe-211e-43f5-bab5-2451d8f6f760","ios":"levelo://app?vid=8bb834fe-211e-43f5-bab5-2451d8f6f760"},"vehicle_type_id":"4","last_reported":1728720667,"current_range_meters":27200,"station_id":"ce4bgkp2rcd13ifvqbmg","pricing_plan_id":"cebpf4jnsgd1na2vs0mg"},{"bike_id":"c5f50b99-9f20-4103-b102-63bcf405bb36","system_id":"levelo_inurba_marseille","lat":43.29783,"lon":5.38091,"is_reserved":false,"is_disabled":false,"rental_uris":{"android":"levelo://app?vid=c5f50b99-9f20-4103-b102-63bcf405bb36","ios":"levelo://app?vid=c5f50b99-9f20-4103-b102-63bcf405bb36"},"vehicle_type_id":"4","last_reported":1728720667,"current_range_meters":34000,"station_id":"ce4bgip2rcd13ifvqbb0","pricing_plan_id":"cebpf4jnsgd1na2vs0mg"},{"bike_id":"1ca575e5-1de2-42de-bea1-cdfdc1f35117","system_id":"levelo_inurba_marseille","lat":43.29591,"lon":5.38097,"is_reserved":false,"is_disabled":false,"rental_uris":{"android":"levelo://app?vid=1ca575e5-1de2-42de-bea1-cdfdc1f35117","ios":"levelo://app?vid=1ca575e5-1de2-42de-bea1-cdfdc1f35117"},"vehicle_type_id":"4","last_reported":1728720667,"current_range_meters":22800,"station_id":"ce4bgl12rcd13ifvqbo0","pricing_plan_id":"cebpf4jnsgd1na2vs0mg"},{"bike_id":"fd301c4f-88d0-470b-8444-02e732c4a052","system_id":"levelo_inurba_marseille","lat":43.24958,"lon":5.38099,"is_reserved":false,"is_disabled":false,"rental_uris":{"android":"levelo://app?vid=fd301c4f-88d0-470b-8444-02e732c4a052","ios":"levelo://app?vid=fd301c4f-88d0-470b-8444-02e732c4a052"},"vehicle_type_id":"4","last_reported":1728720667,"current_range_meters":28800,"station_id":"","pricing_plan_id":"cebpf4jnsgd1na2vs0mg"},{"bike_id":"982a3d38-465a-4749-9097-231a5b91810b","system_id":"levelo_inurba_marseille","lat":43.3204,"lon":5.41577,"is_reserved":false,"is_disabled":false,"rental_uris":{"android":"levelo://app?vid=982a3d38-465a-4749-9097-231a5b91810b","ios":"levelo://app?vid=982a3d38-465a-4749-9097-231a5b91810b"},"vehicle_type_id":"4","last_reported":1728720667,"current_range_meters":4800,"station_id":"ce4bhq92rcd13ifvqhkg","pricing_plan_id":"cebpf4jnsgd1na2vs0mg"},{"bike_id":"68652680-9514-4504-8e80-b3473c04bda8","system_id":"levelo_inurba_marseille","lat":43.33606,"lon":5.41015,"is_reserved":false,"is_disabled":false,"rental_uris":{"android":"levelo://app?vid=68652680-9514-4504-8e80-b3473c04bda8","ios":"levelo://app?vid=68652680-9514-4504-8e80-b3473c04bda8"},"vehicle_type_id":"4","last_reported":1728720667,"current_range_meters":38800,"station_id":"ce4bhqh2rcd13ifvqhmg","pricing_plan_id":"cebpf4jnsgd1na2vs0mg"},{"bike_id":"e82530db-9da0-4449-ae24-c84eebf2d6c2","system_id":"levelo_inurba_marseille","lat":43.3078,"lon":5.43519,"is_reserved":false,"is_disabled":false,"rental_uris":{"android":"levelo://app?vid=e82530db-9da0-4449-ae24-c84eebf2d6c2","ios":"levelo://app?vid=e82530db-9da0-4449-ae24-c84eebf2d6c2"},"vehicle_type_id":"4","last_reported":1728720667,"current_range_meters":38800,"station_id":"ce4bhph2rcd13ifvqheg","pricing_plan_id":"cebpf4jnsgd1na2vs0mg"},{"bike_id":"ff68b789-7173-415f-860f-fb58c1b9d01d","system_id":"levelo_inurba_marseille","lat":43.22928,"lon":5.35375,"is_reserved":false,"is_disabled":false,"rental_uris":{"android":"levelo://app?vid=ff68b789-7173-415f-860f-fb58c1b9d01d","ios":"levelo://app?vid=ff68b789-7173-415f-860f-fb58c1b9d01d"},"vehicle_type_id":"4","last_reported":1728720667,"current_range_meters":27600,"station_id":"cpo3532slgdg3j2ikp40","pricing_plan_id":"cebpf4jnsgd1na2vs0mg"},{"bike_id":"f2ec553b-f583-4634-bf60-a39b93078fc1","system_id":"levelo_inurba_marseille","lat":43.24389,"lon":5.37063,"is_reserved":false,"is_disabled":false,"rental_uris":{"android":"levelo://app?vid=f2ec553b-f583-4634-bf60-a39b93078fc1","ios":"levelo://app?vid=f2ec553b-f583-4634-bf60-a39b93078fc1"},"vehicle_type_id":"4","last_reported":1728720667,"current_range_meters":28800,"station_id":"ce4bhhh2rcd13ifvqfk0","pricing_plan_id":"cebpf4jnsgd1na2vs0mg"},{"bike_id":"92c1af36-5649-40f5-84ed-a7b062884571","system_id":"levelo_inurba_marseille","lat":43.23965,"lon":5.36635,"is_reserved":false,"is_disabled":false,"rental_uris":{"android":"levelo://app?vid=92c1af36-5649-40f5-84ed-a7b062884571","ios":"levelo://app?vid=92c1af36-5649-40f5-84ed-a7b062884571"},"vehicle_type_id":"4","last_reported":1728720667,"current_range_meters":35600,"station_id":"ce4bhi12rcd13ifvqfp0","pricing_plan_id":"cebpf4jnsgd1na2vs0mg"},{"bike_id":"1ee64fb6-2500-4d02-ab7b-4d75d101adcc","system_id":"levelo_inurba_marseille","lat":43.3009,"lon":5.39072,"is_reserved":false,"is_disabled":false,"rental_uris":{"android":"levelo://app?vid=1ee64fb6-2500-4d02-ab7b-4d75d101adcc","ios":"levelo://app?vid=1ee64fb6-2500-4d02-ab7b-4d75d101adcc"},"vehicle_type_id":"4","last_reported":1728720667,"current_range_meters":18800,"station_id":"ce4bh192rcd13ifvqdb0","pricing_plan_id":"cebpf4jnsgd1na2vs0mg"},{"bike_id":"6cb5b02c-2401-484a-8b7d-b4d2106d6b08","system_id":"levelo_inurba_marseille","lat":43.23184,"lon":5.3555,"is_reserved":false,"is_disabled":false,"rental_uris":{"android":"levelo://app?vid=6cb5b02c-2401-484a-8b7d-b4d2106d6b08","ios":"levelo://app?vid=6cb5b02c-2401-484a-8b7d-b4d2106d6b08"},"vehicle_type_id":"4","last_reported":1728720667,"current_range_meters":32000,"station_id":"ce4bhu92rcd13ifvqi70","pricing_plan_id":"cebpf4jnsgd1na2vs0mg"},{"bike_id":"b5621e02-051d-476e-b5e7-aa9624d1b4d9","system_id":"levelo_inurba_marseille","lat":43.32659,"lon":5.40979,"is_reserved":false,"is_disabled":false,"rental_uris":{"android":"levelo://app?vid=b5621e02-051d-476e-b5e7-aa9624d1b4d9","ios":"levelo://app?vid=b5621e02-051d-476e-b5e7-aa9624d1b4d9"},"vehicle_type_id":"4","last_reported":1728720667,"current_range_meters":22000,"station_id":"ce4bhpp2rcd13ifvqhgg","pricing_plan_id":"cebpf4jnsgd1na2vs0mg"},{"bike_id":"571d400c-b2ad-4cc1-93a6-72d2f409b610","system_id":"levelo_inurba_marseille","lat":43.31756,"lon":5.39018,"is_reserved":false,"is_disabled":false,"rental_uris":{"android":"levelo://app?vid=571d400c-b2ad-4cc1-93a6-72d2f409b610","ios":"levelo://app?vid=571d400c-b2ad-4cc1-93a6-72d2f409b610"},"vehicle_type_id":"4","last_reported":1728720667,"current_range_meters":30800,"station_id":"ce4bhqp2rcd13ifvqhng","pricing_plan_id":"cebpf4jnsgd1na2vs0mg"},{"bike_id":"d940e7a9-29c1-4a11-b873-cf226fcce1d2","system_id":"levelo_inurba_marseille","lat":43.31163,"lon":5.38721,"is_reserved":false,"is_disabled":false,"rental_uris":{"android":"levelo://app?vid=d940e7a9-29c1-4a11-b873-cf226fcce1d2","ios":"levelo://app?vid=d940e7a9-29c1-4a11-b873-cf226fcce1d2"},"vehicle_type_id":"4","last_reported":1728720667,"current_range_meters":28400,"station_id":"ce4bgv12rcd13ifvqcp0","pricing_plan_id":"cebpf4jnsgd1na2vs0mg"},{"bike_id":"1623dce8-7669-43de-bbf9-e1a6f457f3b2","system_id":"levelo_inurba_marseille","lat":43.31263,"lon":5.38478,"is_reserved":false,"is_disabled":false,"rental_uris":{"android":"levelo://app?vid=1623dce8-7669-43de-bbf9-e1a6f457f3b2","ios":"levelo://app?vid=1623dce8-7669-43de-bbf9-e1a6f457f3b2"},"vehicle_type_id":"4","last_reported":1728720667,"current_range_meters":20800,"station_id":"ce4bh0p2rcd13ifvqd80","pricing_plan_id":"cebpf4jnsgd1na2vs0mg"},{"bike_id":"7fc3f7e7-7809-4f18-b936-d8f740ae97a7","system_id":"levelo_inurba_marseille","lat":43.32334,"lon":5.40626,"is_reserved":false,"is_disabled":false,"rental_uris":{"android":"levelo://app?vid=7fc3f7e7-7809-4f18-b936-d8f740ae97a7","ios":"levelo://app?vid=7fc3f7e7-7809-4f18-b936-d8f740ae97a7"},"vehicle_type_id":"4","last_reported":1728720667,"current_range_meters":4400,"station_id":"ce4bhq92rcd13ifvqhjg","pricing_plan_id":"cebpf4jnsgd1na2vs0mg"},{"bike_id":"e0eb06fb-c00b-4df7-b209-89534309345b","system_id":"levelo_inurba_marseille","lat":43.3119,"lon":5.38716,"is_reserved":false,"is_disabled":false,"rental_uris":{"android":"levelo://app?vid=e0eb06fb-c00b-4df7-b209-89534309345b","ios":"levelo://app?vid=e0eb06fb-c00b-4df7-b209-89534309345b"},"vehicle_type_id":"4","last_reported":1728720667,"current_range_meters":2800,"station_id":"","pricing_plan_id":"cebpf4jnsgd1na2vs0mg"},{"bike_id":"d49aae7f-df9d-4a2e-a055-bcb5bd2d1b43","system_id":"levelo_inurba_marseille","lat":43.317551,"lon":5.390194,"is_reserved":false,"is_disabled":false,"rental_uris":{"android":"levelo://app?vid=d49aae7f-df9d-4a2e-a055-bcb5bd2d1b43","ios":"levelo://app?vid=d49aae7f-df9d-4a2e-a055-bcb5bd2d1b43"},"vehicle_type_id":"4","last_reported":1728720667,"current_range_meters":6400,"station_id":"ce4bhqp2rcd13ifvqhng","pricing_plan_id":"cebpf4jnsgd1na2vs0mg"},{"bike_id":"20d553c7-299e-4498-a682-91b80c579bc9","system_id":"levelo_inurba_marseille","lat":43.28613,"lon":5.35097,"is_reserved":false,"is_disabled":false,"rental_uris":{"android":"levelo://app?vid=20d553c7-299e-4498-a682-91b80c579bc9","ios":"levelo://app?vid=20d553c7-299e-4498-a682-91b80c579bc9"},"vehicle_type_id":"4","last_reported":1728720667,"current_range_meters":4000,"station_id":"ce4bhch2rcd13ifvqeug","pricing_plan_id":"cebpf4jnsgd1na2vs0mg"},{"bike_id":"924b91ca-2a32-40d5-a10b-94e37c320119","system_id":"levelo_inurba_marseille","lat":43.26932,"lon":5.40244,"is_reserved":false,"is_disabled":false,"rental_uris":{"android":"levelo://app?vid=924b91ca-2a32-40d5-a10b-94e37c320119","ios":"levelo://app?vid=924b91ca-2a32-40d5-a10b-94e37c320119"},"vehicle_type_id":"4","last_reported":1728720667,"current_range_meters":27200,"station_id":"cjm6bp8fraef2m0cb0m0","pricing_plan_id":"cebpf4jnsgd1na2vs0mg"},{"bike_id":"1241951e-4d85-43a4-9b92-38a3f1a123db","system_id":"levelo_inurba_marseille","lat":43.30713,"lon":5.40154,"is_reserved":false,"is_disabled":false,"rental_uris":{"android":"levelo://app?vid=1241951e-4d85-43a4-9b92-38a3f1a123db","ios":"levelo://app?vid=1241951e-4d85-43a4-9b92-38a3f1a123db"},"vehicle_type_id":"4","last_reported":1728720667,"current_range_meters":18000,"station_id":"","pricing_plan_id":"cebpf4jnsgd1na2vs0mg"},{"bike_id":"14200c73-9886-435b-a94b-da2d8263abdd","system_id":"levelo_inurba_marseille","lat":43.286008,"lon":5.35115,"is_reserved":false,"is_disabled":false,"rental_uris":{"android":"levelo://app?vid=14200c73-9886-435b-a94b-da2d8263abdd","ios":"levelo://app?vid=14200c73-9886-435b-a94b-da2d8263abdd"},"vehicle_type_id":"4","last_reported":1728720667,"current_range_meters":38400,"station_id":"ce4bhch2rcd13ifvqeug","pricing_plan_id":"cebpf4jnsgd1na2vs0mg"},{"bike_id":"264d2141-1e20-485f-a145-9f11d899c8da","system_id":"levelo_inurba_marseille","lat":43.3171,"lon":5.43703,"is_reserved":false,"is_disabled":false,"rental_uris":{"android":"levelo://app?vid=264d2141-1e20-485f-a145-9f11d899c8da","ios":"levelo://app?vid=264d2141-1e20-485f-a145-9f11d899c8da"},"vehicle_type_id":"4","last_reported":1728720667,"current_range_meters":11200,"station_id":"ce4bhp92rcd13ifvqhcg","pricing_plan_id":"cebpf4jnsgd1na2vs0mg"},{"bike_id":"3715f3c5-d892-4e43-8c88-9d7abbfe57b4","system_id":"levelo_inurba_marseille","lat":43.29584,"lon":5.38108,"is_reserved":false,"is_disabled":false,"rental_uris":{"android":"levelo://app?vid=3715f3c5-d892-4e43-8c88-9d7abbfe57b4","ios":"levelo://app?vid=3715f3c5-d892-4e43-8c88-9d7abbfe57b4"},"vehicle_type_id":"4","last_reported":1728720667,"current_range_meters":36000,"station_id":"ce4bgl12rcd13ifvqbo0","pricing_plan_id":"cebpf4jnsgd1na2vs0mg"},{"bike_id":"1470dc99-1c71-41b3-a6f5-b595d015349a","system_id":"levelo_inurba_marseille","lat":43.23178,"lon":5.39982,"is_reserved":false,"is_disabled":false,"rental_uris":{"android":"levelo://app?vid=1470dc99-1c71-41b3-a6f5-b595d015349a","ios":"levelo://app?vid=1470dc99-1c71-41b3-a6f5-b595d015349a"},"vehicle_type_id":"4","last_reported":1728720667,"current_range_meters":20000,"station_id":"ce4bhn12rcd13ifvqgqg","pricing_plan_id":"cebpf4jnsgd1na2vs0mg"},{"bike_id":"a6459617-ecdf-4cd4-a14c-9874139f3b17","system_id":"levelo_inurba_marseille","lat":43.27806,"lon":5.40712,"is_reserved":false,"is_disabled":false,"rental_uris":{"android":"levelo://app?vid=a6459617-ecdf-4cd4-a14c-9874139f3b17","ios":"levelo://app?vid=a6459617-ecdf-4cd4-a14c-9874139f3b17"},"vehicle_type_id":"4","last_reported":1728720667,"current_range_meters":25200,"station_id":"ce4bhnh2rcd13ifvqgtg","pricing_plan_id":"cebpf4jnsgd1na2vs0mg"},{"bike_id":"4ad6fd42-f540-4a7c-95c1-6e20141307a7","system_id":"levelo_inurba_marseille","lat":43.29255,"lon":5.40909,"is_reserved":false,"is_disabled":false,"rental_uris":{"android":"levelo://app?vid=4ad6fd42-f540-4a7c-95c1-6e20141307a7","ios":"levelo://app?vid=4ad6fd42-f540-4a7c-95c1-6e20141307a7"},"vehicle_type_id":"4","last_reported":1728720667,"current_range_meters":13600,"station_id":"ce4bh192rcd13ifvqdc0","pricing_plan_id":"cebpf4jnsgd1na2vs0mg"},{"bike_id":"eb13ce98-c7cd-4847-9fd8-cfd12e303ad0","system_id":"levelo_inurba_marseille","lat":43.28034,"lon":5.36941,"is_reserved":false,"is_disabled":false,"rental_uris":{"android":"levelo://app?vid=eb13ce98-c7cd-4847-9fd8-cfd12e303ad0","ios":"levelo://app?vid=eb13ce98-c7cd-4847-9fd8-cfd12e303ad0"},"vehicle_type_id":"4","last_reported":1728720667,"current_range_meters":4800,"station_id":"ce4bha12rcd13ifvqef0","pricing_plan_id":"cebpf4jnsgd1na2vs0mg"},{"bike_id":"51a405b6-b17e-4d49-abcb-c2fd26ff72eb","system_id":"levelo_inurba_marseille","lat":43.24988,"lon":5.38919,"is_reserved":false,"is_disabled":false,"rental_uris":{"android":"levelo://app?vid=51a405b6-b17e-4d49-abcb-c2fd26ff72eb","ios":"levelo://app?vid=51a405b6-b17e-4d49-abcb-c2fd26ff72eb"},"vehicle_type_id":"4","last_reported":1728720667,"current_range_meters":32400,"station_id":"ce4bhgp2rcd13ifvqfd0","pricing_plan_id":"cebpf4jnsgd1na2vs0mg"},{"bike_id":"b933402b-d1ca-49a8-bbf7-fb19281d941c","system_id":"levelo_inurba_marseille","lat":43.231933,"lon":5.355549,"is_reserved":false,"is_disabled":false,"rental_uris":{"android":"levelo://app?vid=b933402b-d1ca-49a8-bbf7-fb19281d941c","ios":"levelo://app?vid=b933402b-d1ca-49a8-bbf7-fb19281d941c"},"vehicle_type_id":"4","last_reported":1728720667,"current_range_meters":22800,"station_id":"ce4bhu92rcd13ifvqi70","pricing_plan_id":"cebpf4jnsgd1na2vs0mg"},{"bike_id":"49301323-fa50-4131-af0e-94128d6f03da","system_id":"levelo_inurba_marseille","lat":43.24667,"lon":5.38158,"is_reserved":false,"is_disabled":false,"rental_uris":{"android":"levelo://app?vid=49301323-fa50-4131-af0e-94128d6f03da","ios":"levelo://app?vid=49301323-fa50-4131-af0e-94128d6f03da"},"vehicle_type_id":"4","last_reported":1728720667,"current_range_meters":38800,"station_id":"ce4bhih2rcd13ifvqfr0","pricing_plan_id":"cebpf4jnsgd1na2vs0mg"},{"bike_id":"7321e454-b603-4701-b367-86d7a6d5c2da","system_id":"levelo_inurba_marseille","lat":43.28344,"lon":5.3863,"is_reserved":false,"is_disabled":false,"rental_uris":{"android":"levelo://app?vid=7321e454-b603-4701-b367-86d7a6d5c2da","ios":"levelo://app?vid=7321e454-b603-4701-b367-86d7a6d5c2da"},"vehicle_type_id":"4","last_reported":1728720667,"current_range_meters":4000,"station_id":"ce4bh492rcd13ifvqdvg","pricing_plan_id":"cebpf4jnsgd1na2vs0mg"},{"bike_id":"68472001-1d03-4e34-8b3d-aa2667b89cfa","system_id":"levelo_inurba_marseille","lat":43.29687,"lon":5.36597,"is_reserved":false,"is_disabled":false,"rental_uris":{"android":"levelo://app?vid=68472001-1d03-4e34-8b3d-aa2667b89cfa","ios":"levelo://app?vid=68472001-1d03-4e34-8b3d-aa2667b89cfa"},"vehicle_type_id":"4","last_reported":1728720667,"current_range_meters":33200,"station_id":"ce4bgn12rcd13ifvqbt0","pricing_plan_id":"cebpf4jnsgd1na2vs0mg"},{"bike_id":"0db66df0-a352-45a7-b97a-79c2d6b8bb1d","system_id":"levelo_inurba_marseille","lat":43.27175,"lon":5.40992,"is_reserved":false,"is_disabled":false,"rental_uris":{"android":"levelo://app?vid=0db66df0-a352-45a7-b97a-79c2d6b8bb1d","ios":"levelo://app?vid=0db66df0-a352-45a7-b97a-79c2d6b8bb1d"},"vehicle_type_id":"4","last_reported":1728720667,"current_range_meters":38800,"station_id":"ce4bhl12rcd13ifvqgf0","pricing_plan_id":"cebpf4jnsgd1na2vs0mg"},{"bike_id":"80f6703b-2daa-4181-af98-ffe8f337374f","system_id":"levelo_inurba_marseille","lat":43.30553,"lon":5.36535,"is_reserved":false,"is_disabled":false,"rental_uris":{"android":"levelo://app?vid=80f6703b-2daa-4181-af98-ffe8f337374f","ios":"levelo://app?vid=80f6703b-2daa-4181-af98-ffe8f337374f"},"vehicle_type_id":"4","last_reported":1728720667,"current_range_meters":39200,"station_id":"ce4bgs12rcd13ifvqcag","pricing_plan_id":"cebpf4jnsgd1na2vs0mg"},{"bike_id":"372eca55-058e-4eed-a6e9-f651a530ac23","system_id":"levelo_inurba_marseille","lat":43.291044,"lon":5.381525,"is_reserved":false,"is_disabled":false,"rental_uris":{"android":"levelo://app?vid=372eca55-058e-4eed-a6e9-f651a530ac23","ios":"levelo://app?vid=372eca55-058e-4eed-a6e9-f651a530ac23"},"vehicle_type_id":"4","last_reported":1728720667,"current_range_meters":38400,"station_id":"ce4bh512rcd13ifvqe2g","pricing_plan_id":"cebpf4jnsgd1na2vs0mg"},{"bike_id":"83b389f7-d8a2-4783-b9b3-f93ae8e3107d","system_id":"levelo_inurba_marseille","lat":43.30536,"lon":5.38431,"is_reserved":false,"is_disabled":false,"rental_uris":{"android":"levelo://app?vid=83b389f7-d8a2-4783-b9b3-f93ae8e3107d","ios":"levelo://app?vid=83b389f7-d8a2-4783-b9b3-f93ae8e3107d"},"vehicle_type_id":"4","last_reported":1728720667,"current_range_meters":38800,"station_id":"ce4bgg92rcd13ifvqb30","pricing_plan_id":"cebpf4jnsgd1na2vs0mg"},{"bike_id":"a8f19f9a-4059-4039-ac02-827e8e454ed9","system_id":"levelo_inurba_marseille","lat":43.2951,"lon":5.37494,"is_reserved":false,"is_disabled":false,"rental_uris":{"android":"levelo://app?vid=a8f19f9a-4059-4039-ac02-827e8e454ed9","ios":"levelo://app?vid=a8f19f9a-4059-4039-ac02-827e8e454ed9"},"vehicle_type_id":"4","last_reported":1728720667,"current_range_meters":30400,"station_id":"ce4bgkp2rcd13ifvqbmg","pricing_plan_id":"cebpf4jnsgd1na2vs0mg"},{"bike_id":"daf721dc-9fa7-4a75-b93a-97cf3a6dac10","system_id":"levelo_inurba_marseille","lat":43.29733,"lon":5.36594,"is_reserved":false,"is_disabled":false,"rental_uris":{"android":"levelo://app?vid=daf721dc-9fa7-4a75-b93a-97cf3a6dac10","ios":"levelo://app?vid=daf721dc-9fa7-4a75-b93a-97cf3a6dac10"},"vehicle_type_id":"4","last_reported":1728720667,"current_range_meters":32800,"station_id":"ce4bgn12rcd13ifvqbt0","pricing_plan_id":"cebpf4jnsgd1na2vs0mg"},{"bike_id":"3871984b-2d7d-41a4-9aa7-2f8c4ecb9958","system_id":"levelo_inurba_marseille","lat":43.28095,"lon":5.37839,"is_reserved":false,"is_disabled":false,"rental_uris":{"android":"levelo://app?vid=3871984b-2d7d-41a4-9aa7-2f8c4ecb9958","ios":"levelo://app?vid=3871984b-2d7d-41a4-9aa7-2f8c4ecb9958"},"vehicle_type_id":"4","last_reported":1728720667,"current_range_meters":9200,"station_id":"ce4bha12rcd13ifvqee0","pricing_plan_id":"cebpf4jnsgd1na2vs0mg"},{"bike_id":"efc05980-62ad-454c-adda-7d3e4be6dcc4","system_id":"levelo_inurba_marseille","lat":43.27195,"lon":5.3919,"is_reserved":false,"is_disabled":false,"rental_uris":{"android":"levelo://app?vid=efc05980-62ad-454c-adda-7d3e4be6dcc4","ios":"levelo://app?vid=efc05980-62ad-454c-adda-7d3e4be6dcc4"},"vehicle_type_id":"4","last_reported":1728720667,"current_range_meters":33200,"station_id":"ce4bhhp2rcd13ifvqfm0","pricing_plan_id":"cebpf4jnsgd1na2vs0mg"},{"bike_id":"a4ab7447-2d23-4412-b94c-8b6ae3e3b436","system_id":"levelo_inurba_marseille","lat":43.27994,"lon":5.40026,"is_reserved":false,"is_disabled":false,"rental_uris":{"android":"levelo://app?vid=a4ab7447-2d23-4412-b94c-8b6ae3e3b436","ios":"levelo://app?vid=a4ab7447-2d23-4412-b94c-8b6ae3e3b436"},"vehicle_type_id":"4","last_reported":1728720667,"current_range_meters":32400,"station_id":"ce4bho92rcd13ifvqh4g","pricing_plan_id":"cebpf4jnsgd1na2vs0mg"},{"bike_id":"845431ff-d4cb-47ed-b012-47ed487547fd","system_id":"levelo_inurba_marseille","lat":43.27202,"lon":5.39182,"is_reserved":false,"is_disabled":false,"rental_uris":{"android":"levelo://app?vid=845431ff-d4cb-47ed-b012-47ed487547fd","ios":"levelo://app?vid=845431ff-d4cb-47ed-b012-47ed487547fd"},"vehicle_type_id":"4","last_reported":1728720667,"current_range_meters":30800,"station_id":"ce4bhhp2rcd13ifvqfm0","pricing_plan_id":"cebpf4jnsgd1na2vs0mg"},{"bike_id":"931b36f8-95f2-4e4a-bee3-7a4a6dfd9165","system_id":"levelo_inurba_marseille","lat":43.26935,"lon":5.4026,"is_reserved":false,"is_disabled":false,"rental_uris":{"android":"levelo://app?vid=931b36f8-95f2-4e4a-bee3-7a4a6dfd9165","ios":"levelo://app?vid=931b36f8-95f2-4e4a-bee3-7a4a6dfd9165"},"vehicle_type_id":"4","last_reported":1728720667,"current_range_meters":19200,"station_id":"cjm6bp8fraef2m0cb0m0","pricing_plan_id":"cebpf4jnsgd1na2vs0mg"},{"bike_id":"286baabf-b45b-4acd-805a-a7938257d24b","system_id":"levelo_inurba_marseille","lat":43.26479,"lon":5.39543,"is_reserved":false,"is_disabled":false,"rental_uris":{"android":"levelo://app?vid=286baabf-b45b-4acd-805a-a7938257d24b","ios":"levelo://app?vid=286baabf-b45b-4acd-805a-a7938257d24b"},"vehicle_type_id":"4","last_reported":1728720667,"current_range_meters":20000,"station_id":"ce4bhi12rcd13ifvqfq0","pricing_plan_id":"cebpf4jnsgd1na2vs0mg"},{"bike_id":"484a4c63-4ef1-4433-b27a-9a9ca5ad2f9a","system_id":"levelo_inurba_marseille","lat":43.22929,"lon":5.35378,"is_reserved":false,"is_disabled":false,"rental_uris":{"android":"levelo://app?vid=484a4c63-4ef1-4433-b27a-9a9ca5ad2f9a","ios":"levelo://app?vid=484a4c63-4ef1-4433-b27a-9a9ca5ad2f9a"},"vehicle_type_id":"4","last_reported":1728720667,"current_range_meters":10800,"station_id":"cpo3532slgdg3j2ikp40","pricing_plan_id":"cebpf4jnsgd1na2vs0mg"},{"bike_id":"d8644448-7698-4ba5-ba37-f6083176f920","system_id":"levelo_inurba_marseille","lat":43.25575,"lon":5.38237,"is_reserved":false,"is_disabled":false,"rental_uris":{"android":"levelo://app?vid=d8644448-7698-4ba5-ba37-f6083176f920","ios":"levelo://app?vid=d8644448-7698-4ba5-ba37-f6083176f920"},"vehicle_type_id":"4","last_reported":1728720667,"current_range_meters":27600,"station_id":"ce4bhih2rcd13ifvqfs0","pricing_plan_id":"cebpf4jnsgd1na2vs0mg"},{"bike_id":"8c6e5c01-bd51-4b79-95b6-ed2db322cd17","system_id":"levelo_inurba_marseille","lat":43.33022,"lon":5.39035,"is_reserved":false,"is_disabled":false,"rental_uris":{"android":"levelo://app?vid=8c6e5c01-bd51-4b79-95b6-ed2db322cd17","ios":"levelo://app?vid=8c6e5c01-bd51-4b79-95b6-ed2db322cd17"},"vehicle_type_id":"4","last_reported":1728720667,"current_range_meters":6400,"station_id":"ce4bhr92rcd13ifvqhrg","pricing_plan_id":"cebpf4jnsgd1na2vs0mg"},{"bike_id":"e6336660-e5d0-4336-aab6-9e2081b4b551","system_id":"levelo_inurba_marseille","lat":43.33719,"lon":5.3919,"is_reserved":false,"is_disabled":false,"rental_uris":{"android":"levelo://app?vid=e6336660-e5d0-4336-aab6-9e2081b4b551","ios":"levelo://app?vid=e6336660-e5d0-4336-aab6-9e2081b4b551"},"vehicle_type_id":"4","last_reported":1728720667,"current_range_meters":24800,"station_id":"ce4bhr92rcd13ifvqhsg","pricing_plan_id":"cebpf4jnsgd1na2vs0mg"},{"bike_id":"ab47664c-0450-4138-b005-9b8e1b8810bd","system_id":"levelo_inurba_marseille","lat":43.295795,"lon":5.367452,"is_reserved":false,"is_disabled":false,"rental_uris":{"android":"levelo://app?vid=ab47664c-0450-4138-b005-9b8e1b8810bd","ios":"levelo://app?vid=ab47664c-0450-4138-b005-9b8e1b8810bd"},"vehicle_type_id":"4","last_reported":1728720667,"current_range_meters":22400,"station_id":"ce4bgph2rcd13ifvqc2g","pricing_plan_id":"cebpf4jnsgd1na2vs0mg"},{"bike_id":"efe82192-bd85-47ef-8a17-25dad9ec5e82","system_id":"levelo_inurba_marseille","lat":43.262127,"lon":5.378927,"is_reserved":false,"is_disabled":false,"rental_uris":{"android":"levelo://app?vid=efe82192-bd85-47ef-8a17-25dad9ec5e82","ios":"levelo://app?vid=efe82192-bd85-47ef-8a17-25dad9ec5e82"},"vehicle_type_id":"4","last_reported":1728720667,"current_range_meters":37600,"station_id":"ce4bhjp2rcd13ifvqg90","pricing_plan_id":"cebpf4jnsgd1na2vs0mg"},{"bike_id":"c7932ebc-40c2-41af-92e1-9d5f28b5738a","system_id":"levelo_inurba_marseille","lat":43.23181,"lon":5.39972,"is_reserved":false,"is_disabled":false,"rental_uris":{"android":"levelo://app?vid=c7932ebc-40c2-41af-92e1-9d5f28b5738a","ios":"levelo://app?vid=c7932ebc-40c2-41af-92e1-9d5f28b5738a"},"vehicle_type_id":"4","last_reported":1728720667,"current_range_meters":6800,"station_id":"ce4bhn12rcd13ifvqgqg","pricing_plan_id":"cebpf4jnsgd1na2vs0mg"},{"bike_id":"a124cc87-bc7d-4c64-82eb-76e156739316","system_id":"levelo_inurba_marseille","lat":43.26926,"lon":5.38924,"is_reserved":false,"is_disabled":false,"rental_uris":{"android":"levelo://app?vid=a124cc87-bc7d-4c64-82eb-76e156739316","ios":"levelo://app?vid=a124cc87-bc7d-4c64-82eb-76e156739316"},"vehicle_type_id":"4","last_reported":1728720667,"current_range_meters":20400,"station_id":"ce4bhhh2rcd13ifvqfl0","pricing_plan_id":"cebpf4jnsgd1na2vs0mg"},{"bike_id":"6931a5c8-778c-43cd-a35a-41a3a00f6ee2","system_id":"levelo_inurba_marseille","lat":43.2655,"lon":5.37286,"is_reserved":false,"is_disabled":false,"rental_uris":{"android":"levelo://app?vid=6931a5c8-778c-43cd-a35a-41a3a00f6ee2","ios":"levelo://app?vid=6931a5c8-778c-43cd-a35a-41a3a00f6ee2"},"vehicle_type_id":"4","last_reported":1728720667,"current_range_meters":32000,"station_id":"ce4bhg12rcd13ifvqf70","pricing_plan_id":"cebpf4jnsgd1na2vs0mg"},{"bike_id":"0bb7ddfd-36b6-4bca-9b60-fa225ffd9753","system_id":"levelo_inurba_marseille","lat":43.25849,"lon":5.39907,"is_reserved":false,"is_disabled":false,"rental_uris":{"android":"levelo://app?vid=0bb7ddfd-36b6-4bca-9b60-fa225ffd9753","ios":"levelo://app?vid=0bb7ddfd-36b6-4bca-9b60-fa225ffd9753"},"vehicle_type_id":"4","last_reported":1728720667,"current_range_meters":20000,"station_id":"ce4bhl92rcd13ifvqghg","pricing_plan_id":"cebpf4jnsgd1na2vs0mg"},{"bike_id":"5b9f2409-af94-4530-bdcb-ef3b7e257a37","system_id":"levelo_inurba_marseille","lat":43.31998,"lon":5.38153,"is_reserved":false,"is_disabled":false,"rental_uris":{"android":"levelo://app?vid=5b9f2409-af94-4530-bdcb-ef3b7e257a37","ios":"levelo://app?vid=5b9f2409-af94-4530-bdcb-ef3b7e257a37"},"vehicle_type_id":"4","last_reported":1728720667,"current_range_meters":38000,"station_id":"ce4bhr12rcd13ifvqhpg","pricing_plan_id":"cebpf4jnsgd1na2vs0mg"},{"bike_id":"0f6b0abf-1fc9-4e46-904c-e247fa8f0045","system_id":"levelo_inurba_marseille","lat":43.30252,"lon":5.40067,"is_reserved":false,"is_disabled":false,"rental_uris":{"android":"levelo://app?vid=0f6b0abf-1fc9-4e46-904c-e247fa8f0045","ios":"levelo://app?vid=0f6b0abf-1fc9-4e46-904c-e247fa8f0045"},"vehicle_type_id":"4","last_reported":1728720667,"current_range_meters":34000,"station_id":"ce4bgvh2rcd13ifvqcs0","pricing_plan_id":"cebpf4jnsgd1na2vs0mg"},{"bike_id":"9420c6dc-b19d-4421-8c0c-72e39b809c6b","system_id":"levelo_inurba_marseille","lat":43.22922,"lon":5.35373,"is_reserved":false,"is_disabled":false,"rental_uris":{"android":"levelo://app?vid=9420c6dc-b19d-4421-8c0c-72e39b809c6b","ios":"levelo://app?vid=9420c6dc-b19d-4421-8c0c-72e39b809c6b"},"vehicle_type_id":"4","last_reported":1728720667,"current_range_meters":37600,"station_id":"cpo3532slgdg3j2ikp40","pricing_plan_id":"cebpf4jnsgd1na2vs0mg"},{"bike_id":"5a5649e8-a9bc-4d0f-be41-ed6fc56a9baf","system_id":"levelo_inurba_marseille","lat":43.22928,"lon":5.35374,"is_reserved":false,"is_disabled":false,"rental_uris":{"android":"levelo://app?vid=5a5649e8-a9bc-4d0f-be41-ed6fc56a9baf","ios":"levelo://app?vid=5a5649e8-a9bc-4d0f-be41-ed6fc56a9baf"},"vehicle_type_id":"4","last_reported":1728720667,"current_range_meters":32800,"station_id":"cpo3532slgdg3j2ikp40","pricing_plan_id":"cebpf4jnsgd1na2vs0mg"},{"bike_id":"47d23203-fefa-4905-b492-3d19a5c62d24","system_id":"levelo_inurba_marseille","lat":43.30425,"lon":5.38885,"is_reserved":false,"is_disabled":false,"rental_uris":{"android":"levelo://app?vid=47d23203-fefa-4905-b492-3d19a5c62d24","ios":"levelo://app?vid=47d23203-fefa-4905-b492-3d19a5c62d24"},"vehicle_type_id":"4","last_reported":1728720667,"current_range_meters":38000,"station_id":"ce4bgk12rcd13ifvqbi0","pricing_plan_id":"cebpf4jnsgd1na2vs0mg"},{"bike_id":"3a87240d-0d74-4eab-9fab-08529e98aaa4","system_id":"levelo_inurba_marseille","lat":43.23148,"lon":5.43722,"is_reserved":false,"is_disabled":false,"rental_uris":{"android":"levelo://app?vid=3a87240d-0d74-4eab-9fab-08529e98aaa4","ios":"levelo://app?vid=3a87240d-0d74-4eab-9fab-08529e98aaa4"},"vehicle_type_id":"4","last_reported":1728720667,"current_range_meters":37600,"station_id":"ce4bhmp2rcd13ifvqgog","pricing_plan_id":"cebpf4jnsgd1na2vs0mg"},{"bike_id":"3e5a3962-c6be-4850-9d7f-9b5a4d5455ec","system_id":"levelo_inurba_marseille","lat":43.31992,"lon":5.38165,"is_reserved":false,"is_disabled":false,"rental_uris":{"android":"levelo://app?vid=3e5a3962-c6be-4850-9d7f-9b5a4d5455ec","ios":"levelo://app?vid=3e5a3962-c6be-4850-9d7f-9b5a4d5455ec"},"vehicle_type_id":"4","last_reported":1728720667,"current_range_meters":30400,"station_id":"ce4bhr12rcd13ifvqhpg","pricing_plan_id":"cebpf4jnsgd1na2vs0mg"},{"bike_id":"52dfa4e7-b4f5-4a62-867c-6957a54f71bd","system_id":"levelo_inurba_marseille","lat":43.27068,"lon":5.42273,"is_reserved":false,"is_disabled":false,"rental_uris":{"android":"levelo://app?vid=52dfa4e7-b4f5-4a62-867c-6957a54f71bd","ios":"levelo://app?vid=52dfa4e7-b4f5-4a62-867c-6957a54f71bd"},"vehicle_type_id":"4","last_reported":1728720667,"current_range_meters":36800,"station_id":"ce4bhk92rcd13ifvqgb0","pricing_plan_id":"cebpf4jnsgd1na2vs0mg"},{"bike_id":"dd5882fa-1f7a-4b2f-9f00-1636ac8aa2a0","system_id":"levelo_inurba_marseille","lat":43.26195,"lon":5.37928,"is_reserved":false,"is_disabled":false,"rental_uris":{"android":"levelo://app?vid=dd5882fa-1f7a-4b2f-9f00-1636ac8aa2a0","ios":"levelo://app?vid=dd5882fa-1f7a-4b2f-9f00-1636ac8aa2a0"},"vehicle_type_id":"4","last_reported":1728720667,"current_range_meters":30400,"station_id":"ce4bhjp2rcd13ifvqg90","pricing_plan_id":"cebpf4jnsgd1na2vs0mg"},{"bike_id":"e7b80a9d-8eab-4c55-afa3-0f8d67be8e22","system_id":"levelo_inurba_marseille","lat":43.2438,"lon":5.37045,"is_reserved":false,"is_disabled":false,"rental_uris":{"android":"levelo://app?vid=e7b80a9d-8eab-4c55-afa3-0f8d67be8e22","ios":"levelo://app?vid=e7b80a9d-8eab-4c55-afa3-0f8d67be8e22"},"vehicle_type_id":"4","last_reported":1728720667,"current_range_meters":39200,"station_id":"ce4bhhh2rcd13ifvqfk0","pricing_plan_id":"cebpf4jnsgd1na2vs0mg"},{"bike_id":"f1f3d1da-e385-4190-b5a8-8da5f973fd27","system_id":"levelo_inurba_marseille","lat":43.292823,"lon":5.4011,"is_reserved":false,"is_disabled":false,"rental_uris":{"android":"levelo://app?vid=f1f3d1da-e385-4190-b5a8-8da5f973fd27","ios":"levelo://app?vid=f1f3d1da-e385-4190-b5a8-8da5f973fd27"},"vehicle_type_id":"4","last_reported":1728720667,"current_range_meters":30800,"station_id":"ce4bh312rcd13ifvqdk0","pricing_plan_id":"cebpf4jnsgd1na2vs0mg"},{"bike_id":"379d6363-9152-4e84-bd42-6ec02dd02b54","system_id":"levelo_inurba_marseille","lat":43.31994,"lon":5.38156,"is_reserved":false,"is_disabled":false,"rental_uris":{"android":"levelo://app?vid=379d6363-9152-4e84-bd42-6ec02dd02b54","ios":"levelo://app?vid=379d6363-9152-4e84-bd42-6ec02dd02b54"},"vehicle_type_id":"4","last_reported":1728720667,"current_range_meters":38000,"station_id":"ce4bhr12rcd13ifvqhpg","pricing_plan_id":"cebpf4jnsgd1na2vs0mg"},{"bike_id":"8fb2b431-bcb9-46ba-80fb-e26e84592fc5","system_id":"levelo_inurba_marseille","lat":43.23187,"lon":5.35552,"is_reserved":false,"is_disabled":false,"rental_uris":{"android":"levelo://app?vid=8fb2b431-bcb9-46ba-80fb-e26e84592fc5","ios":"levelo://app?vid=8fb2b431-bcb9-46ba-80fb-e26e84592fc5"},"vehicle_type_id":"4","last_reported":1728720667,"current_range_meters":32800,"station_id":"ce4bhu92rcd13ifvqi70","pricing_plan_id":"cebpf4jnsgd1na2vs0mg"},{"bike_id":"a53b276c-67b6-4397-8369-5717d22041e1","system_id":"levelo_inurba_marseille","lat":43.3088,"lon":5.39637,"is_reserved":false,"is_disabled":false,"rental_uris":{"android":"levelo://app?vid=a53b276c-67b6-4397-8369-5717d22041e1","ios":"levelo://app?vid=a53b276c-67b6-4397-8369-5717d22041e1"},"vehicle_type_id":"4","last_reported":1728720667,"current_range_meters":37600,"station_id":"ce4bh012rcd13ifvqcv0","pricing_plan_id":"cebpf4jnsgd1na2vs0mg"},{"bike_id":"8e601949-3964-4b1c-8eaf-e992cd1e13a1","system_id":"levelo_inurba_marseille","lat":43.29959,"lon":5.38492,"is_reserved":false,"is_disabled":false,"rental_uris":{"android":"levelo://app?vid=8e601949-3964-4b1c-8eaf-e992cd1e13a1","ios":"levelo://app?vid=8e601949-3964-4b1c-8eaf-e992cd1e13a1"},"vehicle_type_id":"4","last_reported":1728720667,"current_range_meters":40000,"station_id":"ce4bgj92rcd13ifvqbd0","pricing_plan_id":"cebpf4jnsgd1na2vs0mg"},{"bike_id":"e2f25126-29b7-4581-a4fe-9e458716fb1d","system_id":"levelo_inurba_marseille","lat":43.2396,"lon":5.36626,"is_reserved":false,"is_disabled":false,"rental_uris":{"android":"levelo://app?vid=e2f25126-29b7-4581-a4fe-9e458716fb1d","ios":"levelo://app?vid=e2f25126-29b7-4581-a4fe-9e458716fb1d"},"vehicle_type_id":"4","last_reported":1728720667,"current_range_meters":29600,"station_id":"ce4bhi12rcd13ifvqfp0","pricing_plan_id":"cebpf4jnsgd1na2vs0mg"},{"bike_id":"8233b71b-891a-4e52-ba59-3fa8be51a63e","system_id":"levelo_inurba_marseille","lat":43.26807,"lon":5.39371,"is_reserved":false,"is_disabled":false,"rental_uris":{"android":"levelo://app?vid=8233b71b-891a-4e52-ba59-3fa8be51a63e","ios":"levelo://app?vid=8233b71b-891a-4e52-ba59-3fa8be51a63e"},"vehicle_type_id":"4","last_reported":1728720667,"current_range_meters":36400,"station_id":"ce4bhh12rcd13ifvqfg0","pricing_plan_id":"cebpf4jnsgd1na2vs0mg"},{"bike_id":"5557475d-2522-4324-9278-8680c1c6334a","system_id":"levelo_inurba_marseille","lat":43.22927,"lon":5.35371,"is_reserved":false,"is_disabled":false,"rental_uris":{"android":"levelo://app?vid=5557475d-2522-4324-9278-8680c1c6334a","ios":"levelo://app?vid=5557475d-2522-4324-9278-8680c1c6334a"},"vehicle_type_id":"4","last_reported":1728720667,"current_range_meters":9600,"station_id":"cpo3532slgdg3j2ikp40","pricing_plan_id":"cebpf4jnsgd1na2vs0mg"},{"bike_id":"ada7472e-6027-403a-a239-d414f24cd2e0","system_id":"levelo_inurba_marseille","lat":43.32331,"lon":5.40616,"is_reserved":false,"is_disabled":false,"rental_uris":{"android":"levelo://app?vid=ada7472e-6027-403a-a239-d414f24cd2e0","ios":"levelo://app?vid=ada7472e-6027-403a-a239-d414f24cd2e0"},"vehicle_type_id":"4","last_reported":1728720667,"current_range_meters":35600,"station_id":"ce4bhq92rcd13ifvqhjg","pricing_plan_id":"cebpf4jnsgd1na2vs0mg"},{"bike_id":"7e1ddba8-7450-4208-9e1f-1b36cd00e2bc","system_id":"levelo_inurba_marseille","lat":43.31883,"lon":5.40723,"is_reserved":false,"is_disabled":false,"rental_uris":{"android":"levelo://app?vid=7e1ddba8-7450-4208-9e1f-1b36cd00e2bc","ios":"levelo://app?vid=7e1ddba8-7450-4208-9e1f-1b36cd00e2bc"},"vehicle_type_id":"4","last_reported":1728720667,"current_range_meters":38800,"station_id":"ce4bhq12rcd13ifvqhig","pricing_plan_id":"cebpf4jnsgd1na2vs0mg"},{"bike_id":"0e43f052-9c62-442f-8c97-ea23dd8be5d8","system_id":"levelo_inurba_marseille","lat":43.30143,"lon":5.38075,"is_reserved":false,"is_disabled":false,"rental_uris":{"android":"levelo://app?vid=0e43f052-9c62-442f-8c97-ea23dd8be5d8","ios":"levelo://app?vid=0e43f052-9c62-442f-8c97-ea23dd8be5d8"},"vehicle_type_id":"4","last_reported":1728720667,"current_range_meters":36800,"station_id":"ce4bgjp2rcd13ifvqbh0","pricing_plan_id":"cebpf4jnsgd1na2vs0mg"},{"bike_id":"a27554a6-a50a-485f-8f1f-4487a4aa2e01","system_id":"levelo_inurba_marseille","lat":43.30594,"lon":5.38089,"is_reserved":false,"is_disabled":false,"rental_uris":{"android":"levelo://app?vid=a27554a6-a50a-485f-8f1f-4487a4aa2e01","ios":"levelo://app?vid=a27554a6-a50a-485f-8f1f-4487a4aa2e01"},"vehicle_type_id":"4","last_reported":1728720667,"current_range_meters":28000,"station_id":"","pricing_plan_id":"cebpf4jnsgd1na2vs0mg"},{"bike_id":"dbd7385f-186a-4308-90bd-b1a811019a37","system_id":"levelo_inurba_marseille","lat":43.30256,"lon":5.40058,"is_reserved":false,"is_disabled":false,"rental_uris":{"android":"levelo://app?vid=dbd7385f-186a-4308-90bd-b1a811019a37","ios":"levelo://app?vid=dbd7385f-186a-4308-90bd-b1a811019a37"},"vehicle_type_id":"4","last_reported":1728720667,"current_range_meters":25200,"station_id":"ce4bgvh2rcd13ifvqcs0","pricing_plan_id":"cebpf4jnsgd1na2vs0mg"},{"bike_id":"644fc0fa-8af8-45a1-8485-f3c7a8315404","system_id":"levelo_inurba_marseille","lat":43.29912,"lon":5.38146,"is_reserved":false,"is_disabled":false,"rental_uris":{"android":"levelo://app?vid=644fc0fa-8af8-45a1-8485-f3c7a8315404","ios":"levelo://app?vid=644fc0fa-8af8-45a1-8485-f3c7a8315404"},"vehicle_type_id":"4","last_reported":1728720667,"current_range_meters":28000,"station_id":"ce4bgj12rcd13ifvqbc0","pricing_plan_id":"cebpf4jnsgd1na2vs0mg"},{"bike_id":"4d2e0d93-ab69-4d1b-9e83-6ddf9c10db42","system_id":"levelo_inurba_marseille","lat":43.29635,"lon":5.37762,"is_reserved":false,"is_disabled":false,"rental_uris":{"android":"levelo://app?vid=4d2e0d93-ab69-4d1b-9e83-6ddf9c10db42","ios":"levelo://app?vid=4d2e0d93-ab69-4d1b-9e83-6ddf9c10db42"},"vehicle_type_id":"4","last_reported":1728720667,"current_range_meters":36800,"station_id":"ce4bh4p2rcd13ifvqe0g","pricing_plan_id":"cebpf4jnsgd1na2vs0mg"},{"bike_id":"e4e0c7d9-743e-4987-b12c-cc30909aebea","system_id":"levelo_inurba_marseille","lat":43.24652,"lon":5.3889,"is_reserved":false,"is_disabled":false,"rental_uris":{"android":"levelo://app?vid=e4e0c7d9-743e-4987-b12c-cc30909aebea","ios":"levelo://app?vid=e4e0c7d9-743e-4987-b12c-cc30909aebea"},"vehicle_type_id":"4","last_reported":1728720667,"current_range_meters":39200,"station_id":"ce4bhg12rcd13ifvqf60","pricing_plan_id":"cebpf4jnsgd1na2vs0mg"},{"bike_id":"4fef5b2f-9801-402a-9d31-60b14ebee105","system_id":"levelo_inurba_marseille","lat":43.27201,"lon":5.39184,"is_reserved":false,"is_disabled":false,"rental_uris":{"android":"levelo://app?vid=4fef5b2f-9801-402a-9d31-60b14ebee105","ios":"levelo://app?vid=4fef5b2f-9801-402a-9d31-60b14ebee105"},"vehicle_type_id":"4","last_reported":1728720667,"current_range_meters":35200,"station_id":"ce4bhhp2rcd13ifvqfm0","pricing_plan_id":"cebpf4jnsgd1na2vs0mg"},{"bike_id":"8c80cb23-a64e-4fe6-824b-143e5bb832fd","system_id":"levelo_inurba_marseille","lat":43.32286,"lon":5.3827,"is_reserved":false,"is_disabled":false,"rental_uris":{"android":"levelo://app?vid=8c80cb23-a64e-4fe6-824b-143e5bb832fd","ios":"levelo://app?vid=8c80cb23-a64e-4fe6-824b-143e5bb832fd"},"vehicle_type_id":"4","last_reported":1728720667,"current_range_meters":37600,"station_id":"ce4bhr12rcd13ifvqhqg","pricing_plan_id":"cebpf4jnsgd1na2vs0mg"},{"bike_id":"2d62089a-df90-4b4e-93eb-d117387ccf20","system_id":"levelo_inurba_marseille","lat":43.23178,"lon":5.39988,"is_reserved":false,"is_disabled":false,"rental_uris":{"android":"levelo://app?vid=2d62089a-df90-4b4e-93eb-d117387ccf20","ios":"levelo://app?vid=2d62089a-df90-4b4e-93eb-d117387ccf20"},"vehicle_type_id":"4","last_reported":1728720667,"current_range_meters":19200,"station_id":"ce4bhn12rcd13ifvqgqg","pricing_plan_id":"cebpf4jnsgd1na2vs0mg"},{"bike_id":"8d4fa04b-4062-460e-b516-8963625f5487","system_id":"levelo_inurba_marseille","lat":43.31078,"lon":5.42426,"is_reserved":false,"is_disabled":false,"rental_uris":{"android":"levelo://app?vid=8d4fa04b-4062-460e-b516-8963625f5487","ios":"levelo://app?vid=8d4fa04b-4062-460e-b516-8963625f5487"},"vehicle_type_id":"4","last_reported":1728720667,"current_range_meters":38800,"station_id":"ce4bhp92rcd13ifvqhag","pricing_plan_id":"cebpf4jnsgd1na2vs0mg"},{"bike_id":"c36aff0a-f3df-42cb-a930-4206e34e64f6","system_id":"levelo_inurba_marseille","lat":43.29802,"lon":5.3809,"is_reserved":false,"is_disabled":false,"rental_uris":{"android":"levelo://app?vid=c36aff0a-f3df-42cb-a930-4206e34e64f6","ios":"levelo://app?vid=c36aff0a-f3df-42cb-a930-4206e34e64f6"},"vehicle_type_id":"4","last_reported":1728720667,"current_range_meters":38800,"station_id":"ce4bgip2rcd13ifvqbb0","pricing_plan_id":"cebpf4jnsgd1na2vs0mg"},{"bike_id":"e5ad55e5-73ea-480a-8994-efec6c293fc6","system_id":"levelo_inurba_marseille","lat":43.2705,"lon":5.40256,"is_reserved":false,"is_disabled":false,"rental_uris":{"android":"levelo://app?vid=e5ad55e5-73ea-480a-8994-efec6c293fc6","ios":"levelo://app?vid=e5ad55e5-73ea-480a-8994-efec6c293fc6"},"vehicle_type_id":"4","last_reported":1728720667,"current_range_meters":14400,"station_id":"ce4bhk92rcd13ifvqgc0","pricing_plan_id":"cebpf4jnsgd1na2vs0mg"},{"bike_id":"b9153fc9-6909-4ad9-a660-6cbd533c8305","system_id":"levelo_inurba_marseille","lat":43.24383,"lon":5.37052,"is_reserved":false,"is_disabled":false,"rental_uris":{"android":"levelo://app?vid=b9153fc9-6909-4ad9-a660-6cbd533c8305","ios":"levelo://app?vid=b9153fc9-6909-4ad9-a660-6cbd533c8305"},"vehicle_type_id":"4","last_reported":1728720667,"current_range_meters":30800,"station_id":"ce4bhhh2rcd13ifvqfk0","pricing_plan_id":"cebpf4jnsgd1na2vs0mg"},{"bike_id":"de368da8-cc67-41de-bf98-14855e4e33c8","system_id":"levelo_inurba_marseille","lat":43.25486,"lon":5.37651,"is_reserved":false,"is_disabled":false,"rental_uris":{"android":"levelo://app?vid=de368da8-cc67-41de-bf98-14855e4e33c8","ios":"levelo://app?vid=de368da8-cc67-41de-bf98-14855e4e33c8"},"vehicle_type_id":"4","last_reported":1728720667,"current_range_meters":27200,"station_id":"ce4bhh12rcd13ifvqff0","pricing_plan_id":"cebpf4jnsgd1na2vs0mg"},{"bike_id":"4c2929a9-bd79-4b7a-83f4-d6ac131f4ba7","system_id":"levelo_inurba_marseille","lat":43.29296,"lon":5.37187,"is_reserved":false,"is_disabled":false,"rental_uris":{"android":"levelo://app?vid=4c2929a9-bd79-4b7a-83f4-d6ac131f4ba7","ios":"levelo://app?vid=4c2929a9-bd79-4b7a-83f4-d6ac131f4ba7"},"vehicle_type_id":"4","last_reported":1728720667,"current_range_meters":36800,"station_id":"ce4bgh92rcd13ifvqb40","pricing_plan_id":"cebpf4jnsgd1na2vs0mg"},{"bike_id":"358304d7-3bc7-4188-a912-954d5166b7bc","system_id":"levelo_inurba_marseille","lat":43.29292,"lon":5.37456,"is_reserved":false,"is_disabled":false,"rental_uris":{"android":"levelo://app?vid=358304d7-3bc7-4188-a912-954d5166b7bc","ios":"levelo://app?vid=358304d7-3bc7-4188-a912-954d5166b7bc"},"vehicle_type_id":"4","last_reported":1728720667,"current_range_meters":20000,"station_id":"ce4bgi12rcd13ifvqb70","pricing_plan_id":"cebpf4jnsgd1na2vs0mg"},{"bike_id":"1bea244f-3fc8-47b3-9c91-d662e9e4c4bd","system_id":"levelo_inurba_marseille","lat":43.30146,"lon":5.38088,"is_reserved":false,"is_disabled":false,"rental_uris":{"android":"levelo://app?vid=1bea244f-3fc8-47b3-9c91-d662e9e4c4bd","ios":"levelo://app?vid=1bea244f-3fc8-47b3-9c91-d662e9e4c4bd"},"vehicle_type_id":"4","last_reported":1728720667,"current_range_meters":39200,"station_id":"ce4bgjp2rcd13ifvqbh0","pricing_plan_id":"cebpf4jnsgd1na2vs0mg"},{"bike_id":"18a69c4f-b649-48aa-a417-8731cdc4713d","system_id":"levelo_inurba_marseille","lat":43.28002,"lon":5.42176,"is_reserved":false,"is_disabled":false,"rental_uris":{"android":"levelo://app?vid=18a69c4f-b649-48aa-a417-8731cdc4713d","ios":"levelo://app?vid=18a69c4f-b649-48aa-a417-8731cdc4713d"},"vehicle_type_id":"4","last_reported":1728720667,"current_range_meters":38800,"station_id":"","pricing_plan_id":"cebpf4jnsgd1na2vs0mg"},{"bike_id":"24ca3d55-1c20-43ef-8974-14f6b95efb7c","system_id":"levelo_inurba_marseille","lat":43.29442,"lon":5.39741,"is_reserved":false,"is_disabled":false,"rental_uris":{"android":"levelo://app?vid=24ca3d55-1c20-43ef-8974-14f6b95efb7c","ios":"levelo://app?vid=24ca3d55-1c20-43ef-8974-14f6b95efb7c"},"vehicle_type_id":"4","last_reported":1728720667,"current_range_meters":18800,"station_id":"ce4bh3h2rcd13ifvqdo0","pricing_plan_id":"cebpf4jnsgd1na2vs0mg"},{"bike_id":"6c3170b5-92ac-4839-820a-216e5dfa86dd","system_id":"levelo_inurba_marseille","lat":43.27372,"lon":5.36252,"is_reserved":false,"is_disabled":false,"rental_uris":{"android":"levelo://app?vid=6c3170b5-92ac-4839-820a-216e5dfa86dd","ios":"levelo://app?vid=6c3170b5-92ac-4839-820a-216e5dfa86dd"},"vehicle_type_id":"4","last_reported":1728720667,"current_range_meters":38800,"station_id":"ce4bhbh2rcd13ifvqeo0","pricing_plan_id":"cebpf4jnsgd1na2vs0mg"},{"bike_id":"9e75956e-b41c-4a75-9464-5e1cf49fcaab","system_id":"levelo_inurba_marseille","lat":43.3204,"lon":5.41536,"is_reserved":false,"is_disabled":false,"rental_uris":{"android":"levelo://app?vid=9e75956e-b41c-4a75-9464-5e1cf49fcaab","ios":"levelo://app?vid=9e75956e-b41c-4a75-9464-5e1cf49fcaab"},"vehicle_type_id":"4","last_reported":1728720667,"current_range_meters":18000,"station_id":"ce4bhq92rcd13ifvqhkg","pricing_plan_id":"cebpf4jnsgd1na2vs0mg"},{"bike_id":"3a88edf9-9826-49d3-ba35-341a77f8c5c6","system_id":"levelo_inurba_marseille","lat":43.26943,"lon":5.38636,"is_reserved":false,"is_disabled":false,"rental_uris":{"android":"levelo://app?vid=3a88edf9-9826-49d3-ba35-341a77f8c5c6","ios":"levelo://app?vid=3a88edf9-9826-49d3-ba35-341a77f8c5c6"},"vehicle_type_id":"4","last_reported":1728720667,"current_range_meters":25600,"station_id":"ce4bhh92rcd13ifvqfh0","pricing_plan_id":"cebpf4jnsgd1na2vs0mg"},{"bike_id":"1c386ef6-2eff-470f-b71b-1fc1591eea11","system_id":"levelo_inurba_marseille","lat":43.2694,"lon":5.40245,"is_reserved":false,"is_disabled":false,"rental_uris":{"android":"levelo://app?vid=1c386ef6-2eff-470f-b71b-1fc1591eea11","ios":"levelo://app?vid=1c386ef6-2eff-470f-b71b-1fc1591eea11"},"vehicle_type_id":"4","last_reported":1728720667,"current_range_meters":35200,"station_id":"cjm6bp8fraef2m0cb0m0","pricing_plan_id":"cebpf4jnsgd1na2vs0mg"},{"bike_id":"270a4027-4d3e-4baf-94a6-0168db04581b","system_id":"levelo_inurba_marseille","lat":43.26946,"lon":5.3864,"is_reserved":false,"is_disabled":false,"rental_uris":{"android":"levelo://app?vid=270a4027-4d3e-4baf-94a6-0168db04581b","ios":"levelo://app?vid=270a4027-4d3e-4baf-94a6-0168db04581b"},"vehicle_type_id":"4","last_reported":1728720667,"current_range_meters":36800,"station_id":"ce4bhh92rcd13ifvqfh0","pricing_plan_id":"cebpf4jnsgd1na2vs0mg"},{"bike_id":"9ec689bd-4191-4192-b432-b0b5ff92ccd1","system_id":"levelo_inurba_marseille","lat":43.24375,"lon":5.3705,"is_reserved":false,"is_disabled":false,"rental_uris":{"android":"levelo://app?vid=9ec689bd-4191-4192-b432-b0b5ff92ccd1","ios":"levelo://app?vid=9ec689bd-4191-4192-b432-b0b5ff92ccd1"},"vehicle_type_id":"4","last_reported":1728720667,"current_range_meters":25200,"station_id":"ce4bhhh2rcd13ifvqfk0","pricing_plan_id":"cebpf4jnsgd1na2vs0mg"},{"bike_id":"8a6076ac-1c4f-43cd-81b3-e18e45c544ae","system_id":"levelo_inurba_marseille","lat":43.31711,"lon":5.43702,"is_reserved":false,"is_disabled":false,"rental_uris":{"android":"levelo://app?vid=8a6076ac-1c4f-43cd-81b3-e18e45c544ae","ios":"levelo://app?vid=8a6076ac-1c4f-43cd-81b3-e18e45c544ae"},"vehicle_type_id":"4","last_reported":1728720667,"current_range_meters":19200,"station_id":"ce4bhp92rcd13ifvqhcg","pricing_plan_id":"cebpf4jnsgd1na2vs0mg"},{"bike_id":"aad69708-28ac-43e6-945e-619f5a7c6bfd","system_id":"levelo_inurba_marseille","lat":43.33726,"lon":5.37468,"is_reserved":false,"is_disabled":false,"rental_uris":{"android":"levelo://app?vid=aad69708-28ac-43e6-945e-619f5a7c6bfd","ios":"levelo://app?vid=aad69708-28ac-43e6-945e-619f5a7c6bfd"},"vehicle_type_id":"4","last_reported":1728720667,"current_range_meters":38800,"station_id":"","pricing_plan_id":"cebpf4jnsgd1na2vs0mg"},{"bike_id":"f164dca9-a3f3-41e2-80cc-b9eb24b8038c","system_id":"levelo_inurba_marseille","lat":43.24806,"lon":5.37457,"is_reserved":false,"is_disabled":false,"rental_uris":{"android":"levelo://app?vid=f164dca9-a3f3-41e2-80cc-b9eb24b8038c","ios":"levelo://app?vid=f164dca9-a3f3-41e2-80cc-b9eb24b8038c"},"vehicle_type_id":"4","last_reported":1728720667,"current_range_meters":27600,"station_id":"ce4bhgh2rcd13ifvqfb0","pricing_plan_id":"cebpf4jnsgd1na2vs0mg"},{"bike_id":"96a24fc9-d55a-4476-a465-61644fa09933","system_id":"levelo_inurba_marseille","lat":43.23148,"lon":5.43701,"is_reserved":false,"is_disabled":false,"rental_uris":{"android":"levelo://app?vid=96a24fc9-d55a-4476-a465-61644fa09933","ios":"levelo://app?vid=96a24fc9-d55a-4476-a465-61644fa09933"},"vehicle_type_id":"4","last_reported":1728720667,"current_range_meters":4400,"station_id":"ce4bhmp2rcd13ifvqgog","pricing_plan_id":"cebpf4jnsgd1na2vs0mg"},{"bike_id":"07565f7d-6f02-471c-82a1-16a7c1c15713","system_id":"levelo_inurba_marseille","lat":43.31888,"lon":5.40733,"is_reserved":false,"is_disabled":false,"rental_uris":{"android":"levelo://app?vid=07565f7d-6f02-471c-82a1-16a7c1c15713","ios":"levelo://app?vid=07565f7d-6f02-471c-82a1-16a7c1c15713"},"vehicle_type_id":"4","last_reported":1728720667,"current_range_meters":16000,"station_id":"ce4bhq12rcd13ifvqhig","pricing_plan_id":"cebpf4jnsgd1na2vs0mg"},{"bike_id":"fa788d65-ef44-407c-8d29-e3cbbca2e385","system_id":"levelo_inurba_marseille","lat":43.342352,"lon":5.400938,"is_reserved":false,"is_disabled":false,"rental_uris":{"android":"levelo://app?vid=fa788d65-ef44-407c-8d29-e3cbbca2e385","ios":"levelo://app?vid=fa788d65-ef44-407c-8d29-e3cbbca2e385"},"vehicle_type_id":"4","last_reported":1728720667,"current_range_meters":4400,"station_id":"","pricing_plan_id":"cebpf4jnsgd1na2vs0mg"},{"bike_id":"b585be87-dbd2-42c8-b2e2-6a41d03816ee","system_id":"levelo_inurba_marseille","lat":43.26955,"lon":5.38626,"is_reserved":false,"is_disabled":false,"rental_uris":{"android":"levelo://app?vid=b585be87-dbd2-42c8-b2e2-6a41d03816ee","ios":"levelo://app?vid=b585be87-dbd2-42c8-b2e2-6a41d03816ee"},"vehicle_type_id":"4","last_reported":1728720667,"current_range_meters":14800,"station_id":"ce4bhh92rcd13ifvqfh0","pricing_plan_id":"cebpf4jnsgd1na2vs0mg"},{"bike_id":"ed34b4fa-9ba3-45f1-a203-6f42b5fa2150","system_id":"levelo_inurba_marseille","lat":43.26547,"lon":5.37287,"is_reserved":false,"is_disabled":false,"rental_uris":{"android":"levelo://app?vid=ed34b4fa-9ba3-45f1-a203-6f42b5fa2150","ios":"levelo://app?vid=ed34b4fa-9ba3-45f1-a203-6f42b5fa2150"},"vehicle_type_id":"4","last_reported":1728720667,"current_range_meters":38800,"station_id":"ce4bhg12rcd13ifvqf70","pricing_plan_id":"cebpf4jnsgd1na2vs0mg"},{"bike_id":"8509fa5d-c6d9-4cb2-b4b1-4f2065b2666e","system_id":"levelo_inurba_marseille","lat":43.2834,"lon":5.41051,"is_reserved":false,"is_disabled":false,"rental_uris":{"android":"levelo://app?vid=8509fa5d-c6d9-4cb2-b4b1-4f2065b2666e","ios":"levelo://app?vid=8509fa5d-c6d9-4cb2-b4b1-4f2065b2666e"},"vehicle_type_id":"4","last_reported":1728720667,"current_range_meters":4400,"station_id":"","pricing_plan_id":"cebpf4jnsgd1na2vs0mg"},{"bike_id":"4ba05619-2ef9-4adc-8d73-ca540f4fdaf6","system_id":"levelo_inurba_marseille","lat":43.26212,"lon":5.37439,"is_reserved":false,"is_disabled":false,"rental_uris":{"android":"levelo://app?vid=4ba05619-2ef9-4adc-8d73-ca540f4fdaf6","ios":"levelo://app?vid=4ba05619-2ef9-4adc-8d73-ca540f4fdaf6"},"vehicle_type_id":"4","last_reported":1728720667,"current_range_meters":28800,"station_id":"ce4bhgp2rcd13ifvqfc0","pricing_plan_id":"cebpf4jnsgd1na2vs0mg"},{"bike_id":"45849005-04b8-4d68-9ab2-cd8b443e491a","system_id":"levelo_inurba_marseille","lat":43.3035,"lon":5.4187,"is_reserved":false,"is_disabled":false,"rental_uris":{"android":"levelo://app?vid=45849005-04b8-4d68-9ab2-cd8b443e491a","ios":"levelo://app?vid=45849005-04b8-4d68-9ab2-cd8b443e491a"},"vehicle_type_id":"4","last_reported":1728720667,"current_range_meters":29600,"station_id":"ce4bhop2rcd13ifvqh7g","pricing_plan_id":"cebpf4jnsgd1na2vs0mg"},{"bike_id":"1ee29d21-838d-42ab-a1a7-440559a768b3","system_id":"levelo_inurba_marseille","lat":43.313328,"lon":5.367207,"is_reserved":false,"is_disabled":false,"rental_uris":{"android":"levelo://app?vid=1ee29d21-838d-42ab-a1a7-440559a768b3","ios":"levelo://app?vid=1ee29d21-838d-42ab-a1a7-440559a768b3"},"vehicle_type_id":"4","last_reported":1728720667,"current_range_meters":28400,"station_id":"ce4bgs12rcd13ifvqcag","pricing_plan_id":"cebpf4jnsgd1na2vs0mg"},{"bike_id":"fa303374-a3b9-4c4f-beb8-4d2b77e174f3","system_id":"levelo_inurba_marseille","lat":43.29936,"lon":5.36543,"is_reserved":false,"is_disabled":false,"rental_uris":{"android":"levelo://app?vid=fa303374-a3b9-4c4f-beb8-4d2b77e174f3","ios":"levelo://app?vid=fa303374-a3b9-4c4f-beb8-4d2b77e174f3"},"vehicle_type_id":"4","last_reported":1728720667,"current_range_meters":32800,"station_id":"ce4bgm92rcd13ifvqbr0","pricing_plan_id":"cebpf4jnsgd1na2vs0mg"},{"bike_id":"07383877-5b62-46c7-ae62-12c05ffe0665","system_id":"levelo_inurba_marseille","lat":43.29801,"lon":5.38092,"is_reserved":false,"is_disabled":false,"rental_uris":{"android":"levelo://app?vid=07383877-5b62-46c7-ae62-12c05ffe0665","ios":"levelo://app?vid=07383877-5b62-46c7-ae62-12c05ffe0665"},"vehicle_type_id":"4","last_reported":1728720667,"current_range_meters":39200,"station_id":"ce4bgip2rcd13ifvqbb0","pricing_plan_id":"cebpf4jnsgd1na2vs0mg"},{"bike_id":"f87cb5b0-9021-481b-9834-edb4655ae136","system_id":"levelo_inurba_marseille","lat":43.299707,"lon":5.38482,"is_reserved":false,"is_disabled":false,"rental_uris":{"android":"levelo://app?vid=f87cb5b0-9021-481b-9834-edb4655ae136","ios":"levelo://app?vid=f87cb5b0-9021-481b-9834-edb4655ae136"},"vehicle_type_id":"4","last_reported":1728720667,"current_range_meters":37600,"station_id":"ce4bgj92rcd13ifvqbd0","pricing_plan_id":"cebpf4jnsgd1na2vs0mg"},{"bike_id":"087f0942-c4f9-4849-84d2-f966e863446b","system_id":"levelo_inurba_marseille","lat":43.268095,"lon":5.40264,"is_reserved":false,"is_disabled":false,"rental_uris":{"android":"levelo://app?vid=087f0942-c4f9-4849-84d2-f966e863446b","ios":"levelo://app?vid=087f0942-c4f9-4849-84d2-f966e863446b"},"vehicle_type_id":"4","last_reported":1728720667,"current_range_meters":37600,"station_id":"ce501612rcd8frsf0b60","pricing_plan_id":"cebpf4jnsgd1na2vs0mg"},{"bike_id":"e8d89085-ce40-4276-9845-483fa65c0f52","system_id":"levelo_inurba_marseille","lat":43.28567,"lon":5.39497,"is_reserved":false,"is_disabled":false,"rental_uris":{"android":"levelo://app?vid=e8d89085-ce40-4276-9845-483fa65c0f52","ios":"levelo://app?vid=e8d89085-ce40-4276-9845-483fa65c0f52"},"vehicle_type_id":"4","last_reported":1728720667,"current_range_meters":32000,"station_id":"ce4bh292rcd13ifvqdg0","pricing_plan_id":"cebpf4jnsgd1na2vs0mg"},{"bike_id":"0890e4ed-7b17-4572-9804-626c077192d5","system_id":"levelo_inurba_marseille","lat":43.337444,"lon":5.374475,"is_reserved":false,"is_disabled":false,"rental_uris":{"android":"levelo://app?vid=0890e4ed-7b17-4572-9804-626c077192d5","ios":"levelo://app?vid=0890e4ed-7b17-4572-9804-626c077192d5"},"vehicle_type_id":"4","last_reported":1728720667,"current_range_meters":38400,"station_id":"","pricing_plan_id":"cebpf4jnsgd1na2vs0mg"},{"bike_id":"a9d3778b-6f46-421f-ac27-2a1c01042807","system_id":"levelo_inurba_marseille","lat":43.24382,"lon":5.37054,"is_reserved":false,"is_disabled":false,"rental_uris":{"android":"levelo://app?vid=a9d3778b-6f46-421f-ac27-2a1c01042807","ios":"levelo://app?vid=a9d3778b-6f46-421f-ac27-2a1c01042807"},"vehicle_type_id":"4","last_reported":1728720667,"current_range_meters":30400,"station_id":"ce4bhhh2rcd13ifvqfk0","pricing_plan_id":"cebpf4jnsgd1na2vs0mg"},{"bike_id":"7513a525-0e94-47ab-bfda-a7742b79ba71","system_id":"levelo_inurba_marseille","lat":43.24807,"lon":5.37456,"is_reserved":false,"is_disabled":false,"rental_uris":{"android":"levelo://app?vid=7513a525-0e94-47ab-bfda-a7742b79ba71","ios":"levelo://app?vid=7513a525-0e94-47ab-bfda-a7742b79ba71"},"vehicle_type_id":"4","last_reported":1728720667,"current_range_meters":24400,"station_id":"ce4bhgh2rcd13ifvqfb0","pricing_plan_id":"cebpf4jnsgd1na2vs0mg"},{"bike_id":"ab83bd1f-4cc4-460f-865a-4bafc48999b0","system_id":"levelo_inurba_marseille","lat":43.29551,"lon":5.42289,"is_reserved":false,"is_disabled":false,"rental_uris":{"android":"levelo://app?vid=ab83bd1f-4cc4-460f-865a-4bafc48999b0","ios":"levelo://app?vid=ab83bd1f-4cc4-460f-865a-4bafc48999b0"},"vehicle_type_id":"4","last_reported":1728720667,"current_range_meters":38800,"station_id":"ce4bhph2rcd13ifvqhdg","pricing_plan_id":"cebpf4jnsgd1na2vs0mg"},{"bike_id":"acde4812-4280-4b2e-ab83-564e0c451fc9","system_id":"levelo_inurba_marseille","lat":43.29619,"lon":5.37166,"is_reserved":false,"is_disabled":false,"rental_uris":{"android":"levelo://app?vid=acde4812-4280-4b2e-ab83-564e0c451fc9","ios":"levelo://app?vid=acde4812-4280-4b2e-ab83-564e0c451fc9"},"vehicle_type_id":"4","last_reported":1728720667,"current_range_meters":12400,"station_id":"ce4bgnh2rcd13ifvqc0g","pricing_plan_id":"cebpf4jnsgd1na2vs0mg"},