{"last_updated":1773119404,"ttl":60,"version":"2.2","data":{"bikes":[{"bike_id":"d836b3f9-d22b-4e36-9788-587fa8497bc6","system_id":"levelo_inurba_marseille","lat":43.24178,"lon":5.36411,"is_reserved":false,"is_disabled":false,"rental_uris":{"android":"levelo://app?vid=d836b3f9-d22b-4e36-9788-587fa8497bc6","ios":"levelo://app?vid=d836b3f9-d22b-4e36-9788-587fa8497bc6"},"vehicle_type_id":"4","last_reported":1773119404,"current_range_meters":11200,"station_id":"cpo36qri1sfpv3e86is0","pricing_plan_id":"cebpf4jnsgd1na2vs0mg"},{"bike_id":"550f0157-9dee-4681-8f50-3896b766742f","system_id":"levelo_inurba_marseille","lat":43.25856,"lon":5.39904,"is_reserved":false,"is_disabled":false,"rental_uris":{"android":"levelo://app?vid=550f0157-9dee-4681-8f50-3896b766742f","ios":"levelo://app?vid=550f0157-9dee-4681-8f50-3896b766742f"},"vehicle_type_id":"4","last_reported":1773119404,"current_range_meters":39200,"station_id":"ce4bhl92rcd13ifvqghg","pricing_plan_id":"cebpf4jnsgd1na2vs0mg"},{"bike_id":"887719bc-a1e8-42d0-b4f4-246b352b25b3","system_id":"levelo_inurba_marseille","lat":43.28853,"lon":5.3932,"is_reserved":false,"is_disabled":false,"rental_uris":{"android":"levelo://app?vid=887719bc-a1e8-42d0-b4f4-246b352b25b3","ios":"levelo://app?vid=887719bc-a1e8-42d0-b4f4-246b352b25b3"},"vehicle_type_id":"4","last_reported":1773119404,"current_range_meters":30000,"station_id":"ce4bh2p2rcd13ifvqdi0","pricing_plan_id":"cebpf4jnsgd1na2vs0mg"},{"bike_id":"96446788-121c-4ddd-9756-e64e4cbc0d03","system_id":"levelo_inurba_marseille","lat":43.2798,"lon":5.39997,"is_reserved":false,"is_disabled":false,"rental_uris":{"android":"levelo://app?vid=96446788-121c-4ddd-9756-e64e4cbc0d03","ios":"levelo://app?vid=96446788-121c-4ddd-9756-e64e4cbc0d03"},"vehicle_type_id":"4","last_reported":1773119404,"current_range_meters":17600,"station_id":"ce4bho92rcd13ifvqh4g","pricing_plan_id":"cebpf4jnsgd1na2vs0mg"},{"bike_id":"2be0a3be-3280-4712-9dbe-352ead7f7e27","system_id":"levelo_inurba_marseille","lat":43.29563,"lon":5.37519,"is_reserved":false,"is_disabled":false,"rental_uris":{"android":"levelo://app?vid=2be0a3be-3280-4712-9dbe-352ead7f7e27","ios":"levelo://app?vid=2be0a3be-3280-4712-9dbe-352ead7f7e27"},"vehicle_type_id":"4","last_reported":1773119404,"current_range_meters":28000,"station_id":"ce4bgh92rcd13ifvqb50","pricing_plan_id":"cebpf4jnsgd1na2vs0mg"},{"bike_id":"aaa57c9c-a5dc-480c-97b9-d3c8d31e41e6","system_id":"levelo_inurba_marseille","lat":43.30513,"lon":5.36553,"is_reserved":false,"is_disabled":false,"rental_uris":{"android":"levelo://app?vid=aaa57c9c-a5dc-480c-97b9-d3c8d31e41e6","ios":"levelo://app?vid=aaa57c9c-a5dc-480c-97b9-d3c8d31e41e6"},"vehicle_type_id":"4","last_reported":1773119404,"current_range_meters":38400,"station_id":"","pricing_plan_id":"cebpf4jnsgd1na2vs0mg"},{"bike_id":"ec2fd004-5e6a-4378-b889-ecc25a28039f","system_id":"levelo_inurba_marseille","lat":43.28159,"lon":5.4265,"is_reserved":false,"is_disabled":false,"rental_uris":{"android":"levelo://app?vid=ec2fd004-5e6a-4378-b889-ecc25a28039f","ios":"levelo://app?vid=ec2fd004-5e6a-4378-b889-ecc25a28039f"},"vehicle_type_id":"4","last_reported":1773119404,"current_range_meters":36000,"station_id":"ce4bhnh2rcd13ifvqgug","pricing_plan_id":"cebpf4jnsgd1na2vs0mg"},{"bike_id":"68728ee6-4db4-4e58-82f2-a94cba06f141","system_id":"levelo_inurba_marseille","lat":43.30875,"lon":5.36851,"is_reserved":false,"is_disabled":false,"rental_uris":{"android":"levelo://app?vid=68728ee6-4db4-4e58-82f2-a94cba06f141","ios":"levelo://app?vid=68728ee6-4db4-4e58-82f2-a94cba06f141"},"vehicle_type_id":"4","last_reported":1773119404,"current_range_meters":36800,"station_id":"ce4bgn92rcd13ifvqbvg","pricing_plan_id":"cebpf4jnsgd1na2vs0mg"},{"bike_id":"957d5153-e7e5-4874-9557-99dd830de934","system_id":"levelo_inurba_marseille","lat":43.3464,"lon":5.36722,"is_reserved":false,"is_disabled":false,"rental_uris":{"android":"levelo://app?vid=957d5153-e7e5-4874-9557-99dd830de934","ios":"levelo://app?vid=957d5153-e7e5-4874-9557-99dd830de934"},"vehicle_type_id":"4","last_reported":1773119404,"current_range_meters":35600,"station_id":"","pricing_plan_id":"cebpf4jnsgd1na2vs0mg"},{"bike_id":"e2d922da-f431-48ae-9d5a-51bf50368525","system_id":"levelo_inurba_marseille","lat":43.29685,"lon":5.37675,"is_reserved":false,"is_disabled":false,"rental_uris":{"android":"levelo://app?vid=e2d922da-f431-48ae-9d5a-51bf50368525","ios":"levelo://app?vid=e2d922da-f431-48ae-9d5a-51bf50368525"},"vehicle_type_id":"4","last_reported":1773119404,"current_range_meters":20400,"station_id":"ce4bgkh2rcd13ifvqbl0","pricing_plan_id":"cebpf4jnsgd1na2vs0mg"},{"bike_id":"4b816d63-fc3c-45dd-aea6-96b4203fe4c8","system_id":"levelo_inurba_marseille","lat":43.28482,"lon":5.48404,"is_reserved":false,"is_disabled":false,"rental_uris":{"android":"levelo://app?vid=4b816d63-fc3c-45dd-aea6-96b4203fe4c8","ios":"levelo://app?vid=4b816d63-fc3c-45dd-aea6-96b4203fe4c8"},"vehicle_type_id":"4","last_reported":1773119404,"current_range_meters":38400,"station_id":"st_d3svhcjqgbts73a3dn0g","pricing_plan_id":"cebpf4jnsgd1na2vs0mg"},{"bike_id":"e83ec06c-c284-4e7a-887e-058289dd5a62","system_id":"levelo_inurba_marseille","lat":43.31362,"lon":5.38513,"is_reserved":false,"is_disabled":false,"rental_uris":{"android":"levelo://app?vid=e83ec06c-c284-4e7a-887e-058289dd5a62","ios":"levelo://app?vid=e83ec06c-c284-4e7a-887e-058289dd5a62"},"vehicle_type_id":"4","last_reported":1773119404,"current_range_meters":39200,"station_id":"ce4bgt92rcd13ifvqcf0","pricing_plan_id":"cebpf4jnsgd1na2vs0mg"},{"bike_id":"c116e3e9-8823-4d85-b81f-6431f438579d","system_id":"levelo_inurba_marseille","lat":43.29547,"lon":5.37531,"is_reserved":false,"is_disabled":false,"rental_uris":{"android":"levelo://app?vid=c116e3e9-8823-4d85-b81f-6431f438579d","ios":"levelo://app?vid=c116e3e9-8823-4d85-b81f-6431f438579d"},"vehicle_type_id":"4","last_reported":1773119404,"current_range_meters":38800,"station_id":"ce4bgh92rcd13ifvqb50","pricing_plan_id":"cebpf4jnsgd1na2vs0mg"},{"bike_id":"1ee08fee-017d-4804-9294-89d045f096b0","system_id":"levelo_inurba_marseille","lat":43.279905,"lon":5.4001,"is_reserved":false,"is_disabled":false,"rental_uris":{"android":"levelo://app?vid=1ee08fee-017d-4804-9294-89d045f096b0","ios":"levelo://app?vid=1ee08fee-017d-4804-9294-89d045f096b0"},"vehicle_type_id":"4","last_reported":1773119404,"current_range_meters":22800,"station_id":"ce4bho92rcd13ifvqh4g","pricing_plan_id":"cebpf4jnsgd1na2vs0mg"},{"bike_id":"014c790b-e060-4d79-ab4b-39ac010be23d","system_id":"levelo_inurba_marseille","lat":43.28001,"lon":5.41664,"is_reserved":false,"is_disabled":false,"rental_uris":{"android":"levelo://app?vid=014c790b-e060-4d79-ab4b-39ac010be23d","ios":"levelo://app?vid=014c790b-e060-4d79-ab4b-39ac010be23d"},"vehicle_type_id":"4","last_reported":1773119404,"current_range_meters":5600,"station_id":"ce4bho12rcd13ifvqh1g","pricing_plan_id":"cebpf4jnsgd1na2vs0mg"},{"bike_id":"c3e5f7db-9aee-4e14-8726-6f1186a37e17","system_id":"levelo_inurba_marseille","lat":43.30159,"lon":5.38079,"is_reserved":false,"is_disabled":false,"rental_uris":{"android":"levelo://app?vid=c3e5f7db-9aee-4e14-8726-6f1186a37e17","ios":"levelo://app?vid=c3e5f7db-9aee-4e14-8726-6f1186a37e17"},"vehicle_type_id":"4","last_reported":1773119404,"current_range_meters":35600,"station_id":"ce4bgjp2rcd13ifvqbh0","pricing_plan_id":"cebpf4jnsgd1na2vs0mg"},{"bike_id":"33caa0ab-2314-4658-9109-d34f232d82d1","system_id":"levelo_inurba_marseille","lat":43.29891,"lon":5.43688,"is_reserved":false,"is_disabled":true,"rental_uris":{"android":"levelo://app?vid=33caa0ab-2314-4658-9109-d34f232d82d1","ios":"levelo://app?vid=33caa0ab-2314-4658-9109-d34f232d82d1"},"vehicle_type_id":"4","last_reported":1773119404,"current_range_meters":0,"station_id":"ce4bhpp2rcd13ifvqhfg","pricing_plan_id":"cebpf4jnsgd1na2vs0mg"},{"bike_id":"1648bd49-5a7d-4ee3-a103-2467e2ae1ed1","system_id":"levelo_inurba_marseille","lat":43.2981,"lon":5.40409,"is_reserved":false,"is_disabled":false,"rental_uris":{"android":"levelo://app?vid=1648bd49-5a7d-4ee3-a103-2467e2ae1ed1","ios":"levelo://app?vid=1648bd49-5a7d-4ee3-a103-2467e2ae1ed1"},"vehicle_type_id":"4","last_reported":1773119404,"current_range_meters":29600,"station_id":"ce4bh112rcd13ifvqd90","pricing_plan_id":"cebpf4jnsgd1na2vs0mg"},{"bike_id":"cedd4ce9-422d-4379-99b6-25b23831a280","system_id":"levelo_inurba_marseille","lat":43.28408,"lon":5.37514,"is_reserved":false,"is_disabled":false,"rental_uris":{"android":"levelo://app?vid=cedd4ce9-422d-4379-99b6-25b23831a280","ios":"levelo://app?vid=cedd4ce9-422d-4379-99b6-25b23831a280"},"vehicle_type_id":"4","last_reported":1773119404,"current_range_meters":14000,"station_id":"ce4bh412rcd13ifvqds0","pricing_plan_id":"cebpf4jnsgd1na2vs0mg"},{"bike_id":"b32e1fec-13ae-4c1f-b583-73be3e302a01","system_id":"levelo_inurba_marseille","lat":43.2482,"lon":5.3746,"is_reserved":false,"is_disabled":false,"rental_uris":{"android":"levelo://app?vid=b32e1fec-13ae-4c1f-b583-73be3e302a01","ios":"levelo://app?vid=b32e1fec-13ae-4c1f-b583-73be3e302a01"},"vehicle_type_id":"4","last_reported":1773119404,"current_range_meters":36800,"station_id":"ce4bhgh2rcd13ifvqfb0","pricing_plan_id":"cebpf4jnsgd1na2vs0mg"},{"bike_id":"5136978d-69ab-439e-9498-81cb796943f4","system_id":"levelo_inurba_marseille","lat":43.24172,"lon":5.39735,"is_reserved":false,"is_disabled":false,"rental_uris":{"android":"levelo://app?vid=5136978d-69ab-439e-9498-81cb796943f4","ios":"levelo://app?vid=5136978d-69ab-439e-9498-81cb796943f4"},"vehicle_type_id":"4","last_reported":1773119404,"current_range_meters":38800,"station_id":"ce4bhn12rcd13ifvqgpg","pricing_plan_id":"cebpf4jnsgd1na2vs0mg"},{"bike_id":"fb62e8a1-704e-4314-9818-f14c511566d7","system_id":"levelo_inurba_marseille","lat":43.30331,"lon":5.40463,"is_reserved":false,"is_disabled":false,"rental_uris":{"android":"levelo://app?vid=fb62e8a1-704e-4314-9818-f14c511566d7","ios":"levelo://app?vid=fb62e8a1-704e-4314-9818-f14c511566d7"},"vehicle_type_id":"4","last_reported":1773119404,"current_range_meters":39200,"station_id":"ce4bh012rcd13ifvqd10","pricing_plan_id":"cebpf4jnsgd1na2vs0mg"},{"bike_id":"a623df31-4e84-47eb-a428-53ab49b07252","system_id":"levelo_inurba_marseille","lat":43.26057,"lon":5.3942,"is_reserved":false,"is_disabled":false,"rental_uris":{"android":"levelo://app?vid=a623df31-4e84-47eb-a428-53ab49b07252","ios":"levelo://app?vid=a623df31-4e84-47eb-a428-53ab49b07252"},"vehicle_type_id":"4","last_reported":1773119404,"current_range_meters":38400,"station_id":"ce4bhh92rcd13ifvqfj0","pricing_plan_id":"cebpf4jnsgd1na2vs0mg"},{"bike_id":"a8f6136a-e0cc-45d0-b12b-7e64b3c913ed","system_id":"levelo_inurba_marseille","lat":43.25697,"lon":5.41108,"is_reserved":false,"is_disabled":false,"rental_uris":{"android":"levelo://app?vid=a8f6136a-e0cc-45d0-b12b-7e64b3c913ed","ios":"levelo://app?vid=a8f6136a-e0cc-45d0-b12b-7e64b3c913ed"},"vehicle_type_id":"4","last_reported":1773119404,"current_range_meters":38000,"station_id":"ce4bhkp2rcd13ifvqgd0","pricing_plan_id":"cebpf4jnsgd1na2vs0mg"},{"bike_id":"4b98ac94-26a8-4e2a-8d3f-fbfe36725ba8","system_id":"levelo_inurba_marseille","lat":43.23789,"lon":5.36633,"is_reserved":false,"is_disabled":false,"rental_uris":{"android":"levelo://app?vid=4b98ac94-26a8-4e2a-8d3f-fbfe36725ba8","ios":"levelo://app?vid=4b98ac94-26a8-4e2a-8d3f-fbfe36725ba8"},"vehicle_type_id":"4","last_reported":1773119404,"current_range_meters":17600,"station_id":"st_d3nk18o9ro0c73en2l3g","pricing_plan_id":"cebpf4jnsgd1na2vs0mg"},{"bike_id":"bcdde191-a865-4bb7-9762-7bb46bda6359","system_id":"levelo_inurba_marseille","lat":43.23198,"lon":5.40027,"is_reserved":false,"is_disabled":false,"rental_uris":{"android":"levelo://app?vid=bcdde191-a865-4bb7-9762-7bb46bda6359","ios":"levelo://app?vid=bcdde191-a865-4bb7-9762-7bb46bda6359"},"vehicle_type_id":"4","last_reported":1773119404,"current_range_meters":30400,"station_id":"ce4bhn12rcd13ifvqgqg","pricing_plan_id":"cebpf4jnsgd1na2vs0mg"},{"bike_id":"9cc09629-76f8-46a4-a76a-172ee2993776","system_id":"levelo_inurba_marseille","lat":43.32108,"lon":5.3683,"is_reserved":false,"is_disabled":false,"rental_uris":{"android":"levelo://app?vid=9cc09629-76f8-46a4-a76a-172ee2993776","ios":"levelo://app?vid=9cc09629-76f8-46a4-a76a-172ee2993776"},"vehicle_type_id":"4","last_reported":1773119404,"current_range_meters":33600,"station_id":"","pricing_plan_id":"cebpf4jnsgd1na2vs0mg"},{"bike_id":"ca6e432e-933b-4b98-af33-161fa3c28cef","system_id":"levelo_inurba_marseille","lat":43.32661,"lon":5.40998,"is_reserved":false,"is_disabled":false,"rental_uris":{"android":"levelo://app?vid=ca6e432e-933b-4b98-af33-161fa3c28cef","ios":"levelo://app?vid=ca6e432e-933b-4b98-af33-161fa3c28cef"},"vehicle_type_id":"4","last_reported":1773119404,"current_range_meters":39200,"station_id":"ce4bhpp2rcd13ifvqhgg","pricing_plan_id":"cebpf4jnsgd1na2vs0mg"},{"bike_id":"8ae944a9-73e4-40dd-b559-5de5fadd517a","system_id":"levelo_inurba_marseille","lat":43.26197,"lon":5.37518,"is_reserved":false,"is_disabled":false,"rental_uris":{"android":"levelo://app?vid=8ae944a9-73e4-40dd-b559-5de5fadd517a","ios":"levelo://app?vid=8ae944a9-73e4-40dd-b559-5de5fadd517a"},"vehicle_type_id":"4","last_reported":1773119404,"current_range_meters":21600,"station_id":"ce4bhgp2rcd13ifvqfc0","pricing_plan_id":"cebpf4jnsgd1na2vs0mg"},{"bike_id":"c93656ce-0986-4852-b121-0721e15d6ffd","system_id":"levelo_inurba_marseille","lat":43.30139,"lon":5.38137,"is_reserved":false,"is_disabled":false,"rental_uris":{"android":"levelo://app?vid=c93656ce-0986-4852-b121-0721e15d6ffd","ios":"levelo://app?vid=c93656ce-0986-4852-b121-0721e15d6ffd"},"vehicle_type_id":"4","last_reported":1773119404,"current_range_meters":26000,"station_id":"ce4bgjp2rcd13ifvqbh0","pricing_plan_id":"cebpf4jnsgd1na2vs0mg"},{"bike_id":"f9209d63-931b-4f2f-803f-2dd3d86dd01f","system_id":"levelo_inurba_marseille","lat":43.30441,"lon":5.41317,"is_reserved":false,"is_disabled":false,"rental_uris":{"android":"levelo://app?vid=f9209d63-931b-4f2f-803f-2dd3d86dd01f","ios":"levelo://app?vid=f9209d63-931b-4f2f-803f-2dd3d86dd01f"},"vehicle_type_id":"4","last_reported":1773119404,"current_range_meters":10800,"station_id":"ce4bhop2rcd13ifvqh8g","pricing_plan_id":"cebpf4jnsgd1na2vs0mg"},{"bike_id":"b5369474-d595-42d6-ba6e-c39f04602da0","system_id":"levelo_inurba_marseille","lat":43.22565,"lon":5.41623,"is_reserved":false,"is_disabled":false,"rental_uris":{"android":"levelo://app?vid=b5369474-d595-42d6-ba6e-c39f04602da0","ios":"levelo://app?vid=b5369474-d595-42d6-ba6e-c39f04602da0"},"vehicle_type_id":"4","last_reported":1773119404,"current_range_meters":11600,"station_id":"st_d2o4gvlbi1j2169b742g","pricing_plan_id":"cebpf4jnsgd1na2vs0mg"},{"bike_id":"ac9cf22c-6d4e-4874-8b06-0adc0549f5ae","system_id":"levelo_inurba_marseille","lat":43.26883,"lon":5.38933,"is_reserved":false,"is_disabled":true,"rental_uris":{"android":"levelo://app?vid=ac9cf22c-6d4e-4874-8b06-0adc0549f5ae","ios":"levelo://app?vid=ac9cf22c-6d4e-4874-8b06-0adc0549f5ae"},"vehicle_type_id":"4","last_reported":1773119404,"current_range_meters":5600,"station_id":"ce4bhhh2rcd13ifvqfl0","pricing_plan_id":"cebpf4jnsgd1na2vs0mg"},{"bike_id":"2050b578-5e25-4798-a44e-f2ea80b0e217","system_id":"levelo_inurba_marseille","lat":43.27325,"lon":5.39062,"is_reserved":false,"is_disabled":false,"rental_uris":{"android":"levelo://app?vid=2050b578-5e25-4798-a44e-f2ea80b0e217","ios":"levelo://app?vid=2050b578-5e25-4798-a44e-f2ea80b0e217"},"vehicle_type_id":"4","last_reported":1773119404,"current_range_meters":8000,"station_id":"ce4bhgp2rcd13ifvqfe0","pricing_plan_id":"cebpf4jnsgd1na2vs0mg"},{"bike_id":"564ebcaa-01ee-4f36-bd54-280005de1f16","system_id":"levelo_inurba_marseille","lat":43.24172,"lon":5.39714,"is_reserved":false,"is_disabled":false,"rental_uris":{"android":"levelo://app?vid=564ebcaa-01ee-4f36-bd54-280005de1f16","ios":"levelo://app?vid=564ebcaa-01ee-4f36-bd54-280005de1f16"},"vehicle_type_id":"4","last_reported":1773119404,"current_range_meters":38800,"station_id":"ce4bhn12rcd13ifvqgpg","pricing_plan_id":"cebpf4jnsgd1na2vs0mg"},{"bike_id":"21461f73-84d0-46e7-bd56-a0d0cc5c8c00","system_id":"levelo_inurba_marseille","lat":43.22922,"lon":5.35393,"is_reserved":false,"is_disabled":false,"rental_uris":{"android":"levelo://app?vid=21461f73-84d0-46e7-bd56-a0d0cc5c8c00","ios":"levelo://app?vid=21461f73-84d0-46e7-bd56-a0d0cc5c8c00"},"vehicle_type_id":"4","last_reported":1773119404,"current_range_meters":27600,"station_id":"cpo3532slgdg3j2ikp40","pricing_plan_id":"cebpf4jnsgd1na2vs0mg"},{"bike_id":"940c757c-e960-4c39-92d1-05f0e1afae36","system_id":"levelo_inurba_marseille","lat":43.30951,"lon":5.3906,"is_reserved":false,"is_disabled":false,"rental_uris":{"android":"levelo://app?vid=940c757c-e960-4c39-92d1-05f0e1afae36","ios":"levelo://app?vid=940c757c-e960-4c39-92d1-05f0e1afae36"},"vehicle_type_id":"4","last_reported":1773119404,"current_range_meters":23200,"station_id":"ce4bgup2rcd13ifvqco0","pricing_plan_id":"cebpf4jnsgd1na2vs0mg"},{"bike_id":"e69bc7c3-00e9-4ca9-b860-6a07647eb063","system_id":"levelo_inurba_marseille","lat":43.29021,"lon":5.38653,"is_reserved":false,"is_disabled":false,"rental_uris":{"android":"levelo://app?vid=e69bc7c3-00e9-4ca9-b860-6a07647eb063","ios":"levelo://app?vid=e69bc7c3-00e9-4ca9-b860-6a07647eb063"},"vehicle_type_id":"4","last_reported":1773119404,"current_range_meters":14000,"station_id":"ce4bh4p2rcd13ifvqe0g","pricing_plan_id":"cebpf4jnsgd1na2vs0mg"},{"bike_id":"57be604b-33d9-4634-bc58-ddcff506a976","system_id":"levelo_inurba_marseille","lat":43.24074,"lon":5.37749,"is_reserved":false,"is_disabled":false,"rental_uris":{"android":"levelo://app?vid=57be604b-33d9-4634-bc58-ddcff506a976","ios":"levelo://app?vid=57be604b-33d9-4634-bc58-ddcff506a976"},"vehicle_type_id":"4","last_reported":1773119404,"current_range_meters":38400,"station_id":"ce4bhnp2rcd13ifvqgvg","pricing_plan_id":"cebpf4jnsgd1na2vs0mg"},{"bike_id":"733756e2-ee19-417b-804f-0139e0f5037c","system_id":"levelo_inurba_marseille","lat":43.30896,"lon":5.39623,"is_reserved":false,"is_disabled":false,"rental_uris":{"android":"levelo://app?vid=733756e2-ee19-417b-804f-0139e0f5037c","ios":"levelo://app?vid=733756e2-ee19-417b-804f-0139e0f5037c"},"vehicle_type_id":"4","last_reported":1773119404,"current_range_meters":38400,"station_id":"ce4bh012rcd13ifvqcv0","pricing_plan_id":"cebpf4jnsgd1na2vs0mg"},{"bike_id":"45c6e44d-8b12-427f-a75c-a596ba6cbe1e","system_id":"levelo_inurba_marseille","lat":43.298,"lon":5.40404,"is_reserved":false,"is_disabled":false,"rental_uris":{"android":"levelo://app?vid=45c6e44d-8b12-427f-a75c-a596ba6cbe1e","ios":"levelo://app?vid=45c6e44d-8b12-427f-a75c-a596ba6cbe1e"},"vehicle_type_id":"4","last_reported":1773119404,"current_range_meters":38400,"station_id":"ce4bh112rcd13ifvqd90","pricing_plan_id":"cebpf4jnsgd1na2vs0mg"},{"bike_id":"406dc9a2-14d2-43f3-b09a-1270cddb760c","system_id":"levelo_inurba_marseille","lat":43.29942,"lon":5.3747,"is_reserved":false,"is_disabled":false,"rental_uris":{"android":"levelo://app?vid=406dc9a2-14d2-43f3-b09a-1270cddb760c","ios":"levelo://app?vid=406dc9a2-14d2-43f3-b09a-1270cddb760c"},"vehicle_type_id":"4","last_reported":1773119404,"current_range_meters":39200,"station_id":"ce4bgjh2rcd13ifvqbg0","pricing_plan_id":"cebpf4jnsgd1na2vs0mg"},{"bike_id":"6cfb7bd9-f8d6-449b-b9ee-b500434706d4","system_id":"levelo_inurba_marseille","lat":43.32455,"lon":5.36565,"is_reserved":false,"is_disabled":false,"rental_uris":{"android":"levelo://app?vid=6cfb7bd9-f8d6-449b-b9ee-b500434706d4","ios":"levelo://app?vid=6cfb7bd9-f8d6-449b-b9ee-b500434706d4"},"vehicle_type_id":"4","last_reported":1773119404,"current_range_meters":11200,"station_id":"ce4bhs12rcd13ifvqhvg","pricing_plan_id":"cebpf4jnsgd1na2vs0mg"},{"bike_id":"05681e4e-87b0-4520-8776-5b1952252019","system_id":"levelo_inurba_marseille","lat":43.303,"lon":5.36901,"is_reserved":false,"is_disabled":false,"rental_uris":{"android":"levelo://app?vid=05681e4e-87b0-4520-8776-5b1952252019","ios":"levelo://app?vid=05681e4e-87b0-4520-8776-5b1952252019"},"vehicle_type_id":"4","last_reported":1773119404,"current_range_meters":34000,"station_id":"ce4bgqh2rcd13ifvqc5g","pricing_plan_id":"cebpf4jnsgd1na2vs0mg"},{"bike_id":"2c836b03-51a7-4097-96f7-8a0f0d0e719d","system_id":"levelo_inurba_marseille","lat":43.24804,"lon":5.37471,"is_reserved":false,"is_disabled":false,"rental_uris":{"android":"levelo://app?vid=2c836b03-51a7-4097-96f7-8a0f0d0e719d","ios":"levelo://app?vid=2c836b03-51a7-4097-96f7-8a0f0d0e719d"},"vehicle_type_id":"4","last_reported":1773119404,"current_range_meters":38000,"station_id":"ce4bhgh2rcd13ifvqfb0","pricing_plan_id":"cebpf4jnsgd1na2vs0mg"},{"bike_id":"0c8ca432-cabe-420a-ac0b-6d03ca876e7a","system_id":"levelo_inurba_marseille","lat":43.28279,"lon":5.43261,"is_reserved":false,"is_disabled":false,"rental_uris":{"android":"levelo://app?vid=0c8ca432-cabe-420a-ac0b-6d03ca876e7a","ios":"levelo://app?vid=0c8ca432-cabe-420a-ac0b-6d03ca876e7a"},"vehicle_type_id":"4","last_reported":1773119404,"current_range_meters":23200,"station_id":"","pricing_plan_id":"cebpf4jnsgd1na2vs0mg"},{"bike_id":"49578953-6b5f-4d8b-8563-1660aa3595a2","system_id":"levelo_inurba_marseille","lat":43.29597,"lon":5.38086,"is_reserved":false,"is_disabled":false,"rental_uris":{"android":"levelo://app?vid=49578953-6b5f-4d8b-8563-1660aa3595a2","ios":"levelo://app?vid=49578953-6b5f-4d8b-8563-1660aa3595a2"},"vehicle_type_id":"4","last_reported":1773119404,"current_range_meters":8000,"station_id":"ce4bgl12rcd13ifvqbo0","pricing_plan_id":"cebpf4jnsgd1na2vs0mg"},{"bike_id":"76ee0b3d-ec12-4935-9812-46a2f30cceb2","system_id":"levelo_inurba_marseille","lat":43.28494,"lon":5.38435,"is_reserved":false,"is_disabled":false,"rental_uris":{"android":"levelo://app?vid=76ee0b3d-ec12-4935-9812-46a2f30cceb2","ios":"levelo://app?vid=76ee0b3d-ec12-4935-9812-46a2f30cceb2"},"vehicle_type_id":"4","last_reported":1773119404,"current_range_meters":39200,"station_id":"ce4bh512rcd13ifvqe3g","pricing_plan_id":"cebpf4jnsgd1na2vs0mg"},{"bike_id":"4dd7a3f6-4896-44e6-a97b-0421fdc23ac6","system_id":"levelo_inurba_marseille","lat":43.29523,"lon":5.39417,"is_reserved":false,"is_disabled":false,"rental_uris":{"android":"levelo://app?vid=4dd7a3f6-4896-44e6-a97b-0421fdc23ac6","ios":"levelo://app?vid=4dd7a3f6-4896-44e6-a97b-0421fdc23ac6"},"vehicle_type_id":"4","last_reported":1773119404,"current_range_meters":39200,"station_id":"ce4bh292rcd13ifvqdf0","pricing_plan_id":"cebpf4jnsgd1na2vs0mg"},{"bike_id":"05a6aeb6-8ecc-444c-a68d-cdb267f43480","system_id":"levelo_inurba_marseille","lat":43.24646,"lon":5.38901,"is_reserved":false,"is_disabled":false,"rental_uris":{"android":"levelo://app?vid=05a6aeb6-8ecc-444c-a68d-cdb267f43480","ios":"levelo://app?vid=05a6aeb6-8ecc-444c-a68d-cdb267f43480"},"vehicle_type_id":"4","last_reported":1773119404,"current_range_meters":38400,"station_id":"ce4bhg12rcd13ifvqf60","pricing_plan_id":"cebpf4jnsgd1na2vs0mg"},{"bike_id":"4d918a95-6ede-4f0d-8771-87f15900f998","system_id":"levelo_inurba_marseille","lat":43.30361,"lon":5.41846,"is_reserved":false,"is_disabled":false,"rental_uris":{"android":"levelo://app?vid=4d918a95-6ede-4f0d-8771-87f15900f998","ios":"levelo://app?vid=4d918a95-6ede-4f0d-8771-87f15900f998"},"vehicle_type_id":"4","last_reported":1773119404,"current_range_meters":32400,"station_id":"ce4bhop2rcd13ifvqh7g","pricing_plan_id":"cebpf4jnsgd1na2vs0mg"},{"bike_id":"704a2250-d7d4-477b-b824-ec4356a8dd6e","system_id":"levelo_inurba_marseille","lat":43.29588,"lon":5.38089,"is_reserved":false,"is_disabled":false,"rental_uris":{"android":"levelo://app?vid=704a2250-d7d4-477b-b824-ec4356a8dd6e","ios":"levelo://app?vid=704a2250-d7d4-477b-b824-ec4356a8dd6e"},"vehicle_type_id":"4","last_reported":1773119404,"current_range_meters":36400,"station_id":"ce4bgl12rcd13ifvqbo0","pricing_plan_id":"cebpf4jnsgd1na2vs0mg"},{"bike_id":"a5642da5-590f-492f-89f9-0fbe17148ab4","system_id":"levelo_inurba_marseille","lat":43.23787,"lon":5.36648,"is_reserved":false,"is_disabled":false,"rental_uris":{"android":"levelo://app?vid=a5642da5-590f-492f-89f9-0fbe17148ab4","ios":"levelo://app?vid=a5642da5-590f-492f-89f9-0fbe17148ab4"},"vehicle_type_id":"4","last_reported":1773119404,"current_range_meters":18800,"station_id":"st_d3nk18o9ro0c73en2l3g","pricing_plan_id":"cebpf4jnsgd1na2vs0mg"},{"bike_id":"b3599107-8264-41d9-bc24-740ac4c1ec52","system_id":"levelo_inurba_marseille","lat":43.30123,"lon":5.39863,"is_reserved":false,"is_disabled":false,"rental_uris":{"android":"levelo://app?vid=b3599107-8264-41d9-bc24-740ac4c1ec52","ios":"levelo://app?vid=b3599107-8264-41d9-bc24-740ac4c1ec52"},"vehicle_type_id":"4","last_reported":1773119404,"current_range_meters":22800,"station_id":"ce4bh0h2rcd13ifvqd40","pricing_plan_id":"cebpf4jnsgd1na2vs0mg"},{"bike_id":"d8c23117-3fce-421e-9007-d0f169760b93","system_id":"levelo_inurba_marseille","lat":43.30757,"lon":5.37646,"is_reserved":false,"is_disabled":false,"rental_uris":{"android":"levelo://app?vid=d8c23117-3fce-421e-9007-d0f169760b93","ios":"levelo://app?vid=d8c23117-3fce-421e-9007-d0f169760b93"},"vehicle_type_id":"4","last_reported":1773119404,"current_range_meters":24800,"station_id":"ce4bgv92rcd13ifvqcq0","pricing_plan_id":"cebpf4jnsgd1na2vs0mg"},{"bike_id":"201ef185-9ceb-4062-88dc-1077cd0981ac","system_id":"levelo_inurba_marseille","lat":43.29547,"lon":5.38535,"is_reserved":false,"is_disabled":false,"rental_uris":{"android":"levelo://app?vid=201ef185-9ceb-4062-88dc-1077cd0981ac","ios":"levelo://app?vid=201ef185-9ceb-4062-88dc-1077cd0981ac"},"vehicle_type_id":"4","last_reported":1773119404,"current_range_meters":38000,"station_id":"ce4bgih2rcd13ifvqba0","pricing_plan_id":"cebpf4jnsgd1na2vs0mg"},{"bike_id":"525d593e-e5ab-4f9b-a084-f494d61aa115","system_id":"levelo_inurba_marseille","lat":43.30374,"lon":5.41892,"is_reserved":false,"is_disabled":false,"rental_uris":{"android":"levelo://app?vid=525d593e-e5ab-4f9b-a084-f494d61aa115","ios":"levelo://app?vid=525d593e-e5ab-4f9b-a084-f494d61aa115"},"vehicle_type_id":"4","last_reported":1773119404,"current_range_meters":36800,"station_id":"ce4bhop2rcd13ifvqh7g","pricing_plan_id":"cebpf4jnsgd1na2vs0mg"},{"bike_id":"ad8c5d52-f3ee-40ca-aa55-3397e7e12c0b","system_id":"levelo_inurba_marseille","lat":43.26195,"lon":5.37446,"is_reserved":false,"is_disabled":false,"rental_uris":{"android":"levelo://app?vid=ad8c5d52-f3ee-40ca-aa55-3397e7e12c0b","ios":"levelo://app?vid=ad8c5d52-f3ee-40ca-aa55-3397e7e12c0b"},"vehicle_type_id":"4","last_reported":1773119404,"current_range_meters":20400,"station_id":"ce4bhgp2rcd13ifvqfc0","pricing_plan_id":"cebpf4jnsgd1na2vs0mg"},{"bike_id":"3abaa2ed-5423-4168-83fa-8b209c54be2f","system_id":"levelo_inurba_marseille","lat":43.28846,"lon":5.35871,"is_reserved":false,"is_disabled":false,"rental_uris":{"android":"levelo://app?vid=3abaa2ed-5423-4168-83fa-8b209c54be2f","ios":"levelo://app?vid=3abaa2ed-5423-4168-83fa-8b209c54be2f"},"vehicle_type_id":"4","last_reported":1773119404,"current_range_meters":39200,"station_id":"ce4bhb12rcd13ifvqem0","pricing_plan_id":"cebpf4jnsgd1na2vs0mg"},{"bike_id":"8fad63fa-26a5-42d4-b08d-aac72515d78f","system_id":"levelo_inurba_marseille","lat":43.29539,"lon":5.38546,"is_reserved":false,"is_disabled":false,"rental_uris":{"android":"levelo://app?vid=8fad63fa-26a5-42d4-b08d-aac72515d78f","ios":"levelo://app?vid=8fad63fa-26a5-42d4-b08d-aac72515d78f"},"vehicle_type_id":"4","last_reported":1773119404,"current_range_meters":25200,"station_id":"ce4bgih2rcd13ifvqba0","pricing_plan_id":"cebpf4jnsgd1na2vs0mg"},{"bike_id":"584f94a8-9738-4289-81b1-d1bf00e66289","system_id":"levelo_inurba_marseille","lat":43.29532,"lon":5.42322,"is_reserved":false,"is_disabled":false,"rental_uris":{"android":"levelo://app?vid=584f94a8-9738-4289-81b1-d1bf00e66289","ios":"levelo://app?vid=584f94a8-9738-4289-81b1-d1bf00e66289"},"vehicle_type_id":"4","last_reported":1773119404,"current_range_meters":39200,"station_id":"ce4bhph2rcd13ifvqhdg","pricing_plan_id":"cebpf4jnsgd1na2vs0mg"},{"bike_id":"953975fa-2001-4624-8fbb-020bc9109c38","system_id":"levelo_inurba_marseille","lat":43.28168,"lon":5.42589,"is_reserved":false,"is_disabled":false,"rental_uris":{"android":"levelo://app?vid=953975fa-2001-4624-8fbb-020bc9109c38","ios":"levelo://app?vid=953975fa-2001-4624-8fbb-020bc9109c38"},"vehicle_type_id":"4","last_reported":1773119404,"current_range_meters":24000,"station_id":"ce4bhnh2rcd13ifvqgug","pricing_plan_id":"cebpf4jnsgd1na2vs0mg"},{"bike_id":"e8675f9d-c6c0-49e7-881f-68bb3fe6f697","system_id":"levelo_inurba_marseille","lat":43.2959,"lon":5.37498,"is_reserved":false,"is_disabled":false,"rental_uris":{"android":"levelo://app?vid=e8675f9d-c6c0-49e7-881f-68bb3fe6f697","ios":"levelo://app?vid=e8675f9d-c6c0-49e7-881f-68bb3fe6f697"},"vehicle_type_id":"4","last_reported":1773119404,"current_range_meters":28400,"station_id":"ce4bgh92rcd13ifvqb50","pricing_plan_id":"cebpf4jnsgd1na2vs0mg"},{"bike_id":"f3711349-3e20-461a-bd4e-fc3af2d6debc","system_id":"levelo_inurba_marseille","lat":43.28532,"lon":5.44106,"is_reserved":false,"is_disabled":false,"rental_uris":{"android":"levelo://app?vid=f3711349-3e20-461a-bd4e-fc3af2d6debc","ios":"levelo://app?vid=f3711349-3e20-461a-bd4e-fc3af2d6debc"},"vehicle_type_id":"4","last_reported":1773119404,"current_range_meters":10000,"station_id":"st_d3j3df2ikq2c7380ej80","pricing_plan_id":"cebpf4jnsgd1na2vs0mg"},{"bike_id":"018769de-10fa-40a2-a352-587c02b3acbe","system_id":"levelo_inurba_marseille","lat":43.29528,"lon":5.39038,"is_reserved":false,"is_disabled":true,"rental_uris":{"android":"levelo://app?vid=018769de-10fa-40a2-a352-587c02b3acbe","ios":"levelo://app?vid=018769de-10fa-40a2-a352-587c02b3acbe"},"vehicle_type_id":"4","last_reported":1773119404,"current_range_meters":1200,"station_id":"ce4bh3p2rcd13ifvqdp0","pricing_plan_id":"cebpf4jnsgd1na2vs0mg"},{"bike_id":"5554e7a3-794d-40a2-829b-fd624b041e0e","system_id":"levelo_inurba_marseille","lat":43.2406,"lon":5.37741,"is_reserved":false,"is_disabled":false,"rental_uris":{"android":"levelo://app?vid=5554e7a3-794d-40a2-829b-fd624b041e0e","ios":"levelo://app?vid=5554e7a3-794d-40a2-829b-fd624b041e0e"},"vehicle_type_id":"4","last_reported":1773119404,"current_range_meters":39200,"station_id":"ce4bhnp2rcd13ifvqgvg","pricing_plan_id":"cebpf4jnsgd1na2vs0mg"},{"bike_id":"622e5860-5704-4572-9f37-ca7b41d86075","system_id":"levelo_inurba_marseille","lat":43.32089,"lon":5.36861,"is_reserved":false,"is_disabled":false,"rental_uris":{"android":"levelo://app?vid=622e5860-5704-4572-9f37-ca7b41d86075","ios":"levelo://app?vid=622e5860-5704-4572-9f37-ca7b41d86075"},"vehicle_type_id":"4","last_reported":1773119404,"current_range_meters":28000,"station_id":"","pricing_plan_id":"cebpf4jnsgd1na2vs0mg"},{"bike_id":"df54282d-462c-4c9d-8e19-ace663d2371a","system_id":"levelo_inurba_marseille","lat":43.30207,"lon":5.39438,"is_reserved":false,"is_disabled":false,"rental_uris":{"android":"levelo://app?vid=df54282d-462c-4c9d-8e19-ace663d2371a","ios":"levelo://app?vid=df54282d-462c-4c9d-8e19-ace663d2371a"},"vehicle_type_id":"4","last_reported":1773119404,"current_range_meters":30000,"station_id":"ce4bh0p2rcd13ifvqd70","pricing_plan_id":"cebpf4jnsgd1na2vs0mg"},{"bike_id":"15546465-f05a-48b3-8c3f-6ba389680662","system_id":"levelo_inurba_marseille","lat":43.29876,"lon":5.39759,"is_reserved":false,"is_disabled":false,"rental_uris":{"android":"levelo://app?vid=15546465-f05a-48b3-8c3f-6ba389680662","ios":"levelo://app?vid=15546465-f05a-48b3-8c3f-6ba389680662"},"vehicle_type_id":"4","last_reported":1773119404,"current_range_meters":38400,"station_id":"ce4bh0h2rcd13ifvqd50","pricing_plan_id":"cebpf4jnsgd1na2vs0mg"},{"bike_id":"1c30fd0f-017e-4e0b-9b74-0f36d1029a3d","system_id":"levelo_inurba_marseille","lat":43.29017,"lon":5.35621,"is_reserved":false,"is_disabled":false,"rental_uris":{"android":"levelo://app?vid=1c30fd0f-017e-4e0b-9b74-0f36d1029a3d","ios":"levelo://app?vid=1c30fd0f-017e-4e0b-9b74-0f36d1029a3d"},"vehicle_type_id":"4","last_reported":1773119404,"current_range_meters":38000,"station_id":"ce4bhb92rcd13ifvqen0","pricing_plan_id":"cebpf4jnsgd1na2vs0mg"},{"bike_id":"015d9371-23df-44c5-9b5b-b46e61885283","system_id":"levelo_inurba_marseille","lat":43.32328,"lon":5.37585,"is_reserved":false,"is_disabled":false,"rental_uris":{"android":"levelo://app?vid=015d9371-23df-44c5-9b5b-b46e61885283","ios":"levelo://app?vid=015d9371-23df-44c5-9b5b-b46e61885283"},"vehicle_type_id":"4","last_reported":1773119404,"current_range_meters":30800,"station_id":"","pricing_plan_id":"cebpf4jnsgd1na2vs0mg"},{"bike_id":"fde1b717-b4f3-432e-a1d9-114476f1d30b","system_id":"levelo_inurba_marseille","lat":43.2706,"lon":5.40263,"is_reserved":false,"is_disabled":false,"rental_uris":{"android":"levelo://app?vid=fde1b717-b4f3-432e-a1d9-114476f1d30b","ios":"levelo://app?vid=fde1b717-b4f3-432e-a1d9-114476f1d30b"},"vehicle_type_id":"4","last_reported":1773119404,"current_range_meters":39200,"station_id":"ce4bhk92rcd13ifvqgc0","pricing_plan_id":"cebpf4jnsgd1na2vs0mg"},{"bike_id":"9c0d15f3-3a97-43ae-83bf-b7e10849afed","system_id":"levelo_inurba_marseille","lat":43.2951,"lon":5.39057,"is_reserved":false,"is_disabled":false,"rental_uris":{"android":"levelo://app?vid=9c0d15f3-3a97-43ae-83bf-b7e10849afed","ios":"levelo://app?vid=9c0d15f3-3a97-43ae-83bf-b7e10849afed"},"vehicle_type_id":"4","last_reported":1773119404,"current_range_meters":26800,"station_id":"ce4bh3p2rcd13ifvqdp0","pricing_plan_id":"cebpf4jnsgd1na2vs0mg"},{"bike_id":"53491039-0510-4d92-8bba-a434a122f834","system_id":"levelo_inurba_marseille","lat":43.29019,"lon":5.37553,"is_reserved":false,"is_disabled":false,"rental_uris":{"android":"levelo://app?vid=53491039-0510-4d92-8bba-a434a122f834","ios":"levelo://app?vid=53491039-0510-4d92-8bba-a434a122f834"},"vehicle_type_id":"4","last_reported":1773119404,"current_range_meters":40000,"station_id":"ce4bh692rcd13ifvqe90","pricing_plan_id":"cebpf4jnsgd1na2vs0mg"},{"bike_id":"eee948e3-4c9f-4db5-ac11-b6948fa1e03c","system_id":"levelo_inurba_marseille","lat":43.23188,"lon":5.35581,"is_reserved":false,"is_disabled":false,"rental_uris":{"android":"levelo://app?vid=eee948e3-4c9f-4db5-ac11-b6948fa1e03c","ios":"levelo://app?vid=eee948e3-4c9f-4db5-ac11-b6948fa1e03c"},"vehicle_type_id":"4","last_reported":1773119404,"current_range_meters":38000,"station_id":"ce4bhu92rcd13ifvqi70","pricing_plan_id":"cebpf4jnsgd1na2vs0mg"},{"bike_id":"531e89df-7d89-4282-92a7-19804985cdf6","system_id":"levelo_inurba_marseille","lat":43.24807,"lon":5.37459,"is_reserved":false,"is_disabled":false,"rental_uris":{"android":"levelo://app?vid=531e89df-7d89-4282-92a7-19804985cdf6","ios":"levelo://app?vid=531e89df-7d89-4282-92a7-19804985cdf6"},"vehicle_type_id":"4","last_reported":1773119404,"current_range_meters":38800,"station_id":"ce4bhgh2rcd13ifvqfb0","pricing_plan_id":"cebpf4jnsgd1na2vs0mg"},{"bike_id":"14db4901-eee8-43e4-8eae-e8537581ff87","system_id":"levelo_inurba_marseille","lat":43.2706,"lon":5.38319,"is_reserved":false,"is_disabled":false,"rental_uris":{"android":"levelo://app?vid=14db4901-eee8-43e4-8eae-e8537581ff87","ios":"levelo://app?vid=14db4901-eee8-43e4-8eae-e8537581ff87"},"vehicle_type_id":"4","last_reported":1773119404,"current_range_meters":24000,"station_id":"st_d3n2fo6cfp8s73cte1j0","pricing_plan_id":"cebpf4jnsgd1na2vs0mg"},{"bike_id":"91446778-54ac-4211-aff8-5962a1d0e377","system_id":"levelo_inurba_marseille","lat":43.28673,"lon":5.36356,"is_reserved":false,"is_disabled":false,"rental_uris":{"android":"levelo://app?vid=91446778-54ac-4211-aff8-5962a1d0e377","ios":"levelo://app?vid=91446778-54ac-4211-aff8-5962a1d0e377"},"vehicle_type_id":"4","last_reported":1773119404,"current_range_meters":39200,"station_id":"ce4bhah2rcd13ifvqej0","pricing_plan_id":"cebpf4jnsgd1na2vs0mg"},{"bike_id":"87cd09df-b61a-4e0b-b4b1-5586e021f551","system_id":"levelo_inurba_marseille","lat":43.28411,"lon":5.37518,"is_reserved":false,"is_disabled":false,"rental_uris":{"android":"levelo://app?vid=87cd09df-b61a-4e0b-b4b1-5586e021f551","ios":"levelo://app?vid=87cd09df-b61a-4e0b-b4b1-5586e021f551"},"vehicle_type_id":"4","last_reported":1773119404,"current_range_meters":36800,"station_id":"ce4bh412rcd13ifvqds0","pricing_plan_id":"cebpf4jnsgd1na2vs0mg"},{"bike_id":"6e3c74d1-fd4f-41b5-a40e-9eb79af731a1","system_id":"levelo_inurba_marseille","lat":43.32097,"lon":5.36812,"is_reserved":false,"is_disabled":false,"rental_uris":{"android":"levelo://app?vid=6e3c74d1-fd4f-41b5-a40e-9eb79af731a1","ios":"levelo://app?vid=6e3c74d1-fd4f-41b5-a40e-9eb79af731a1"},"vehicle_type_id":"4","last_reported":1773119404,"current_range_meters":8000,"station_id":"ce4bhrh2rcd13ifvqhug","pricing_plan_id":"cebpf4jnsgd1na2vs0mg"},{"bike_id":"cb1feefd-ebbc-46ad-a31f-ae235121f2f2","system_id":"levelo_inurba_marseille","lat":43.31274,"lon":5.40166,"is_reserved":false,"is_disabled":false,"rental_uris":{"android":"levelo://app?vid=cb1feefd-ebbc-46ad-a31f-ae235121f2f2","ios":"levelo://app?vid=cb1feefd-ebbc-46ad-a31f-ae235121f2f2"},"vehicle_type_id":"4","last_reported":1773119404,"current_range_meters":32400,"station_id":"ce4bh092rcd13ifvqd30","pricing_plan_id":"cebpf4jnsgd1na2vs0mg"},{"bike_id":"93610280-3e40-40c2-8a0c-0a8ce5075865","system_id":"levelo_inurba_marseille","lat":43.29727,"lon":5.41059,"is_reserved":false,"is_disabled":false,"rental_uris":{"android":"levelo://app?vid=93610280-3e40-40c2-8a0c-0a8ce5075865","ios":"levelo://app?vid=93610280-3e40-40c2-8a0c-0a8ce5075865"},"vehicle_type_id":"4","last_reported":1773119404,"current_range_meters":35200,"station_id":"","pricing_plan_id":"cebpf4jnsgd1na2vs0mg"},{"bike_id":"1e1178e2-4085-4be9-bc5b-dfc82fb6d96d","system_id":"levelo_inurba_marseille","lat":43.23968,"lon":5.3664,"is_reserved":false,"is_disabled":false,"rental_uris":{"android":"levelo://app?vid=1e1178e2-4085-4be9-bc5b-dfc82fb6d96d","ios":"levelo://app?vid=1e1178e2-4085-4be9-bc5b-dfc82fb6d96d"},"vehicle_type_id":"4","last_reported":1773119404,"current_range_meters":38800,"station_id":"ce4bhi12rcd13ifvqfp0","pricing_plan_id":"cebpf4jnsgd1na2vs0mg"},{"bike_id":"8bc805ca-bcac-46ab-b9b9-1126461e799c","system_id":"levelo_inurba_marseille","lat":43.31084,"lon":5.42455,"is_reserved":false,"is_disabled":false,"rental_uris":{"android":"levelo://app?vid=8bc805ca-bcac-46ab-b9b9-1126461e799c","ios":"levelo://app?vid=8bc805ca-bcac-46ab-b9b9-1126461e799c"},"vehicle_type_id":"4","last_reported":1773119404,"current_range_meters":35200,"station_id":"ce4bhp92rcd13ifvqhag","pricing_plan_id":"cebpf4jnsgd1na2vs0mg"},{"bike_id":"78b44db8-1eb9-4c60-b662-7f9296b4546e","system_id":"levelo_inurba_marseille","lat":43.31485,"lon":5.37295,"is_reserved":false,"is_disabled":false,"rental_uris":{"android":"levelo://app?vid=78b44db8-1eb9-4c60-b662-7f9296b4546e","ios":"levelo://app?vid=78b44db8-1eb9-4c60-b662-7f9296b4546e"},"vehicle_type_id":"4","last_reported":1773119404,"current_range_meters":38000,"station_id":"ce4bgt12rcd13ifvqcd0","pricing_plan_id":"cebpf4jnsgd1na2vs0mg"},{"bike_id":"68e26663-7c55-4485-aed0-64a15b161498","system_id":"levelo_inurba_marseille","lat":43.30781,"lon":5.37659,"is_reserved":false,"is_disabled":true,"rental_uris":{"android":"levelo://app?vid=68e26663-7c55-4485-aed0-64a15b161498","ios":"levelo://app?vid=68e26663-7c55-4485-aed0-64a15b161498"},"vehicle_type_id":"4","last_reported":1773119404,"current_range_meters":17200,"station_id":"ce4bgv92rcd13ifvqcq0","pricing_plan_id":"cebpf4jnsgd1na2vs0mg"},{"bike_id":"b5f247d8-3934-4f5f-88d5-1ed966db082c","system_id":"levelo_inurba_marseille","lat":43.30527,"lon":5.36599,"is_reserved":false,"is_disabled":false,"rental_uris":{"android":"levelo://app?vid=b5f247d8-3934-4f5f-88d5-1ed966db082c","ios":"levelo://app?vid=b5f247d8-3934-4f5f-88d5-1ed966db082c"},"vehicle_type_id":"4","last_reported":1773119404,"current_range_meters":36400,"station_id":"ce4bgs12rcd13ifvqcag","pricing_plan_id":"cebpf4jnsgd1na2vs0mg"},{"bike_id":"905cd94e-2347-4c21-891c-949be2f37f85","system_id":"levelo_inurba_marseille","lat":43.29811,"lon":5.4188,"is_reserved":false,"is_disabled":false,"rental_uris":{"android":"levelo://app?vid=905cd94e-2347-4c21-891c-949be2f37f85","ios":"levelo://app?vid=905cd94e-2347-4c21-891c-949be2f37f85"},"vehicle_type_id":"4","last_reported":1773119404,"current_range_meters":33200,"station_id":"","pricing_plan_id":"cebpf4jnsgd1na2vs0mg"},{"bike_id":"d7de6d71-04d4-4714-a97f-a2dca02f786e","system_id":"levelo_inurba_marseille","lat":43.27828,"lon":5.4072,"is_reserved":false,"is_disabled":false,"rental_uris":{"android":"levelo://app?vid=d7de6d71-04d4-4714-a97f-a2dca02f786e","ios":"levelo://app?vid=d7de6d71-04d4-4714-a97f-a2dca02f786e"},"vehicle_type_id":"4","last_reported":1773119404,"current_range_meters":18800,"station_id":"ce4bhnh2rcd13ifvqgtg","pricing_plan_id":"cebpf4jnsgd1na2vs0mg"},{"bike_id":"e0dc69a6-751b-446d-8ea4-e240757d48e0","system_id":"levelo_inurba_marseille","lat":43.29596,"lon":5.37544,"is_reserved":false,"is_disabled":false,"rental_uris":{"android":"levelo://app?vid=e0dc69a6-751b-446d-8ea4-e240757d48e0","ios":"levelo://app?vid=e0dc69a6-751b-446d-8ea4-e240757d48e0"},"vehicle_type_id":"4","last_reported":1773119404,"current_range_meters":14000,"station_id":"ce4bgh92rcd13ifvqb50","pricing_plan_id":"cebpf4jnsgd1na2vs0mg"},{"bike_id":"f1d37e1e-b5d3-4901-a892-efd5c589ab70","system_id":"levelo_inurba_marseille","lat":43.30301,"lon":5.37742,"is_reserved":false,"is_disabled":false,"rental_uris":{"android":"levelo://app?vid=f1d37e1e-b5d3-4901-a892-efd5c589ab70","ios":"levelo://app?vid=f1d37e1e-b5d3-4901-a892-efd5c589ab70"},"vehicle_type_id":"4","last_reported":1773119404,"current_range_meters":6800,"station_id":"ce4bguh2rcd13ifvqcj0","pricing_plan_id":"cebpf4jnsgd1na2vs0mg"},{"bike_id":"73e601f4-063b-472f-a8bc-c257580b3a52","system_id":"levelo_inurba_marseille","lat":43.29556,"lon":5.37513,"is_reserved":false,"is_disabled":false,"rental_uris":{"android":"levelo://app?vid=73e601f4-063b-472f-a8bc-c257580b3a52","ios":"levelo://app?vid=73e601f4-063b-472f-a8bc-c257580b3a52"},"vehicle_type_id":"4","last_reported":1773119404,"current_range_meters":38400,"station_id":"ce4bgh92rcd13ifvqb50","pricing_plan_id":"cebpf4jnsgd1na2vs0mg"},{"bike_id":"6493dca5-326b-4c10-a60f-1b28898692e7","system_id":"levelo_inurba_marseille","lat":43.2481,"lon":5.37468,"is_reserved":false,"is_disabled":false,"rental_uris":{"android":"levelo://app?vid=6493dca5-326b-4c10-a60f-1b28898692e7","ios":"levelo://app?vid=6493dca5-326b-4c10-a60f-1b28898692e7"},"vehicle_type_id":"4","last_reported":1773119404,"current_range_meters":20000,"station_id":"ce4bhgh2rcd13ifvqfb0","pricing_plan_id":"cebpf4jnsgd1na2vs0mg"},{"bike_id":"ba44b97c-c425-4dc4-bb5f-6f3e8c496daf","system_id":"levelo_inurba_marseille","lat":43.30626,"lon":5.40084,"is_reserved":false,"is_disabled":false,"rental_uris":{"android":"levelo://app?vid=ba44b97c-c425-4dc4-bb5f-6f3e8c496daf","ios":"levelo://app?vid=ba44b97c-c425-4dc4-bb5f-6f3e8c496daf"},"vehicle_type_id":"4","last_reported":1773119404,"current_range_meters":39200,"station_id":"ce4bh112rcd13ifvqda0","pricing_plan_id":"cebpf4jnsgd1na2vs0mg"},{"bike_id":"55924365-e9ee-441f-8b90-c0b5086d2514","system_id":"levelo_inurba_marseille","lat":43.30409,"lon":5.41295,"is_reserved":false,"is_disabled":true,"rental_uris":{"android":"levelo://app?vid=55924365-e9ee-441f-8b90-c0b5086d2514","ios":"levelo://app?vid=55924365-e9ee-441f-8b90-c0b5086d2514"},"vehicle_type_id":"4","last_reported":1773119404,"current_range_meters":19200,"station_id":"ce4bhop2rcd13ifvqh8g","pricing_plan_id":"cebpf4jnsgd1na2vs0mg"},{"bike_id":"e7c8e8e0-30fe-412e-bae8-57e4cf3ecbd5","system_id":"levelo_inurba_marseille","lat":43.2318,"lon":5.40021,"is_reserved":false,"is_disabled":false,"rental_uris":{"android":"levelo://app?vid=e7c8e8e0-30fe-412e-bae8-57e4cf3ecbd5","ios":"levelo://app?vid=e7c8e8e0-30fe-412e-bae8-57e4cf3ecbd5"},"vehicle_type_id":"4","last_reported":1773119404,"current_range_meters":10800,"station_id":"ce4bhn12rcd13ifvqgqg","pricing_plan_id":"cebpf4jnsgd1na2vs0mg"},{"bike_id":"978697ed-e12e-4449-a490-f42f42655d9b","system_id":"levelo_inurba_marseille","lat":43.28365,"lon":5.38116,"is_reserved":false,"is_disabled":false,"rental_uris":{"android":"levelo://app?vid=978697ed-e12e-4449-a490-f42f42655d9b","ios":"levelo://app?vid=978697ed-e12e-4449-a490-f42f42655d9b"},"vehicle_type_id":"4","last_reported":1773119404,"current_range_meters":30800,"station_id":"ce4bh412rcd13ifvqdr0","pricing_plan_id":"cebpf4jnsgd1na2vs0mg"},{"bike_id":"ac9b9433-f909-41cb-a265-87dbe73f7b89","system_id":"levelo_inurba_marseille","lat":43.28108,"lon":5.37829,"is_reserved":false,"is_disabled":false,"rental_uris":{"android":"levelo://app?vid=ac9b9433-f909-41cb-a265-87dbe73f7b89","ios":"levelo://app?vid=ac9b9433-f909-41cb-a265-87dbe73f7b89"},"vehicle_type_id":"4","last_reported":1773119404,"current_range_meters":38800,"station_id":"ce4bha12rcd13ifvqee0","pricing_plan_id":"cebpf4jnsgd1na2vs0mg"},{"bike_id":"fb9daed8-ad72-45a6-af18-caa53ea22c69","system_id":"levelo_inurba_marseille","lat":43.26222,"lon":5.37936,"is_reserved":false,"is_disabled":false,"rental_uris":{"android":"levelo://app?vid=fb9daed8-ad72-45a6-af18-caa53ea22c69","ios":"levelo://app?vid=fb9daed8-ad72-45a6-af18-caa53ea22c69"},"vehicle_type_id":"4","last_reported":1773119404,"current_range_meters":32000,"station_id":"ce4bhjp2rcd13ifvqg90","pricing_plan_id":"cebpf4jnsgd1na2vs0mg"},{"bike_id":"de01fc41-4ad1-48b2-8aa5-2468e09c9feb","system_id":"levelo_inurba_marseille","lat":43.24189,"lon":5.39767,"is_reserved":false,"is_disabled":false,"rental_uris":{"android":"levelo://app?vid=de01fc41-4ad1-48b2-8aa5-2468e09c9feb","ios":"levelo://app?vid=de01fc41-4ad1-48b2-8aa5-2468e09c9feb"},"vehicle_type_id":"4","last_reported":1773119404,"current_range_meters":39200,"station_id":"ce4bhn12rcd13ifvqgpg","pricing_plan_id":"cebpf4jnsgd1na2vs0mg"},{"bike_id":"a816f982-37ca-4bf4-959b-b966bc05b790","system_id":"levelo_inurba_marseille","lat":43.28351,"lon":5.38117,"is_reserved":false,"is_disabled":true,"rental_uris":{"android":"levelo://app?vid=a816f982-37ca-4bf4-959b-b966bc05b790","ios":"levelo://app?vid=a816f982-37ca-4bf4-959b-b966bc05b790"},"vehicle_type_id":"4","last_reported":1773119404,"current_range_meters":5600,"station_id":"ce4bh412rcd13ifvqdr0","pricing_plan_id":"cebpf4jnsgd1na2vs0mg"},{"bike_id":"6896d8eb-6c9e-4011-bd7c-c8043863197c","system_id":"levelo_inurba_marseille","lat":43.24814,"lon":5.37501,"is_reserved":false,"is_disabled":false,"rental_uris":{"android":"levelo://app?vid=6896d8eb-6c9e-4011-bd7c-c8043863197c","ios":"levelo://app?vid=6896d8eb-6c9e-4011-bd7c-c8043863197c"},"vehicle_type_id":"4","last_reported":1773119404,"current_range_meters":25200,"station_id":"","pricing_plan_id":"cebpf4jnsgd1na2vs0mg"},{"bike_id":"1cc9d818-ddab-430c-b105-170c5b484573","system_id":"levelo_inurba_marseille","lat":43.29755,"lon":5.37719,"is_reserved":false,"is_disabled":true,"rental_uris":{"android":"levelo://app?vid=1cc9d818-ddab-430c-b105-170c5b484573","ios":"levelo://app?vid=1cc9d818-ddab-430c-b105-170c5b484573"},"vehicle_type_id":"4","last_reported":1773119404,"current_range_meters":27200,"station_id":"ce4bgkh2rcd13ifvqbl0","pricing_plan_id":"cebpf4jnsgd1na2vs0mg"},{"bike_id":"ced219b3-8512-4d52-832c-2e7a623aad31","system_id":"levelo_inurba_marseille","lat":43.29253,"lon":5.40908,"is_reserved":false,"is_disabled":false,"rental_uris":{"android":"levelo://app?vid=ced219b3-8512-4d52-832c-2e7a623aad31","ios":"levelo://app?vid=ced219b3-8512-4d52-832c-2e7a623aad31"},"vehicle_type_id":"4","last_reported":1773119404,"current_range_meters":38000,"station_id":"ce4bh192rcd13ifvqdc0","pricing_plan_id":"cebpf4jnsgd1na2vs0mg"},{"bike_id":"edff2cc4-a071-4a15-bf25-7895bd87b49e","system_id":"levelo_inurba_marseille","lat":43.22571,"lon":5.41629,"is_reserved":false,"is_disabled":false,"rental_uris":{"android":"levelo://app?vid=edff2cc4-a071-4a15-bf25-7895bd87b49e","ios":"levelo://app?vid=edff2cc4-a071-4a15-bf25-7895bd87b49e"},"vehicle_type_id":"4","last_reported":1773119404,"current_range_meters":9600,"station_id":"st_d2o4gvlbi1j2169b742g","pricing_plan_id":"cebpf4jnsgd1na2vs0mg"},{"bike_id":"e4897773-fef9-446d-a205-6ea4308f3d60","system_id":"levelo_inurba_marseille","lat":43.22564,"lon":5.41651,"is_reserved":false,"is_disabled":false,"rental_uris":{"android":"levelo://app?vid=e4897773-fef9-446d-a205-6ea4308f3d60","ios":"levelo://app?vid=e4897773-fef9-446d-a205-6ea4308f3d60"},"vehicle_type_id":"4","last_reported":1773119404,"current_range_meters":7200,"station_id":"st_d2o4gvlbi1j2169b742g","pricing_plan_id":"cebpf4jnsgd1na2vs0mg"},{"bike_id":"33eb8fb3-603e-4c84-a933-cc95f133c3af","system_id":"levelo_inurba_marseille","lat":43.29607,"lon":5.37584,"is_reserved":false,"is_disabled":false,"rental_uris":{"android":"levelo://app?vid=33eb8fb3-603e-4c84-a933-cc95f133c3af","ios":"levelo://app?vid=33eb8fb3-603e-4c84-a933-cc95f133c3af"},"vehicle_type_id":"4","last_reported":1773119404,"current_range_meters":25600,"station_id":"","pricing_plan_id":"cebpf4jnsgd1na2vs0mg"},{"bike_id":"0dbe242c-471e-42cc-9d74-8189ff8e4c47","system_id":"levelo_inurba_marseille","lat":43.2417,"lon":5.39716,"is_reserved":false,"is_disabled":false,"rental_uris":{"android":"levelo://app?vid=0dbe242c-471e-42cc-9d74-8189ff8e4c47","ios":"levelo://app?vid=0dbe242c-471e-42cc-9d74-8189ff8e4c47"},"vehicle_type_id":"4","last_reported":1773119404,"current_range_meters":30400,"station_id":"ce4bhn12rcd13ifvqgpg","pricing_plan_id":"cebpf4jnsgd1na2vs0mg"},{"bike_id":"ef43e318-c00c-44b5-9fb0-7afc200a5f51","system_id":"levelo_inurba_marseille","lat":43.29957,"lon":5.41297,"is_reserved":false,"is_disabled":false,"rental_uris":{"android":"levelo://app?vid=ef43e318-c00c-44b5-9fb0-7afc200a5f51","ios":"levelo://app?vid=ef43e318-c00c-44b5-9fb0-7afc200a5f51"},"vehicle_type_id":"4","last_reported":1773119404,"current_range_meters":39200,"station_id":"ce4bhp12rcd13ifvqh9g","pricing_plan_id":"cebpf4jnsgd1na2vs0mg"},{"bike_id":"9773c21d-15dd-4f09-9002-96f0e192fcb4","system_id":"levelo_inurba_marseille","lat":43.26566,"lon":5.38986,"is_reserved":false,"is_disabled":false,"rental_uris":{"android":"levelo://app?vid=9773c21d-15dd-4f09-9002-96f0e192fcb4","ios":"levelo://app?vid=9773c21d-15dd-4f09-9002-96f0e192fcb4"},"vehicle_type_id":"4","last_reported":1773119404,"current_range_meters":28000,"station_id":"ce4bhe12rcd13ifvqf30","pricing_plan_id":"cebpf4jnsgd1na2vs0mg"},{"bike_id":"5a9a3fa3-bc27-48fb-a713-87d9023196a6","system_id":"levelo_inurba_marseille","lat":43.28921,"lon":5.37166,"is_reserved":false,"is_disabled":false,"rental_uris":{"android":"levelo://app?vid=5a9a3fa3-bc27-48fb-a713-87d9023196a6","ios":"levelo://app?vid=5a9a3fa3-bc27-48fb-a713-87d9023196a6"},"vehicle_type_id":"4","last_reported":1773119404,"current_range_meters":39200,"station_id":"","pricing_plan_id":"cebpf4jnsgd1na2vs0mg"},{"bike_id":"a8d838b1-81db-4135-ae08-3f328b8a355a","system_id":"levelo_inurba_marseille","lat":43.27178,"lon":5.40978,"is_reserved":false,"is_disabled":false,"rental_uris":{"android":"levelo://app?vid=a8d838b1-81db-4135-ae08-3f328b8a355a","ios":"levelo://app?vid=a8d838b1-81db-4135-ae08-3f328b8a355a"},"vehicle_type_id":"4","last_reported":1773119404,"current_range_meters":36400,"station_id":"ce4bhl12rcd13ifvqgf0","pricing_plan_id":"cebpf4jnsgd1na2vs0mg"},{"bike_id":"e594ab4f-99d7-486f-a0b3-3cdbb6a3f196","system_id":"levelo_inurba_marseille","lat":43.28491,"lon":5.48398,"is_reserved":false,"is_disabled":false,"rental_uris":{"android":"levelo://app?vid=e594ab4f-99d7-486f-a0b3-3cdbb6a3f196","ios":"levelo://app?vid=e594ab4f-99d7-486f-a0b3-3cdbb6a3f196"},"vehicle_type_id":"4","last_reported":1773119404,"current_range_meters":34800,"station_id":"","pricing_plan_id":"cebpf4jnsgd1na2vs0mg"},{"bike_id":"8e86a251-f883-4082-b49c-0efb8be3f59d","system_id":"levelo_inurba_marseille","lat":43.28101,"lon":5.37836,"is_reserved":false,"is_disabled":false,"rental_uris":{"android":"levelo://app?vid=8e86a251-f883-4082-b49c-0efb8be3f59d","ios":"levelo://app?vid=8e86a251-f883-4082-b49c-0efb8be3f59d"},"vehicle_type_id":"4","last_reported":1773119404,"current_range_meters":39200,"station_id":"ce4bha12rcd13ifvqee0","pricing_plan_id":"cebpf4jnsgd1na2vs0mg"},{"bike_id":"2ffa9ea0-f1a9-43f3-b241-4236e2f53826","system_id":"levelo_inurba_marseille","lat":43.2918,"lon":5.3715,"is_reserved":false,"is_disabled":false,"rental_uris":{"android":"levelo://app?vid=2ffa9ea0-f1a9-43f3-b241-4236e2f53826","ios":"levelo://app?vid=2ffa9ea0-f1a9-43f3-b241-4236e2f53826"},"vehicle_type_id":"4","last_reported":1773119404,"current_range_meters":38400,"station_id":"ce4bha92rcd13ifvqeh0","pricing_plan_id":"cebpf4jnsgd1na2vs0mg"},{"bike_id":"11f1fdce-9987-446d-9ecb-d09d969f4ba8","system_id":"levelo_inurba_marseille","lat":43.28488,"lon":5.48386,"is_reserved":false,"is_disabled":false,"rental_uris":{"android":"levelo://app?vid=11f1fdce-9987-446d-9ecb-d09d969f4ba8","ios":"levelo://app?vid=11f1fdce-9987-446d-9ecb-d09d969f4ba8"},"vehicle_type_id":"4","last_reported":1773119404,"current_range_meters":38800,"station_id":"","pricing_plan_id":"cebpf4jnsgd1na2vs0mg"},{"bike_id":"2f1b0985-eceb-43a5-8b8f-ddfc4a21782d","system_id":"levelo_inurba_marseille","lat":43.29728,"lon":5.37137,"is_reserved":false,"is_disabled":false,"rental_uris":{"android":"levelo://app?vid=2f1b0985-eceb-43a5-8b8f-ddfc4a21782d","ios":"levelo://app?vid=2f1b0985-eceb-43a5-8b8f-ddfc4a21782d"},"vehicle_type_id":"4","last_reported":1773119404,"current_range_meters":20400,"station_id":"","pricing_plan_id":"cebpf4jnsgd1na2vs0mg"},{"bike_id":"08c4662f-b8a6-4676-a2aa-27498ff34122","system_id":"levelo_inurba_marseille","lat":43.32104,"lon":5.36783,"is_reserved":false,"is_disabled":false,"rental_uris":{"android":"levelo://app?vid=08c4662f-b8a6-4676-a2aa-27498ff34122","ios":"levelo://app?vid=08c4662f-b8a6-4676-a2aa-27498ff34122"},"vehicle_type_id":"4","last_reported":1773119404,"current_range_meters":27200,"station_id":"ce4bhrh2rcd13ifvqhug","pricing_plan_id":"cebpf4jnsgd1na2vs0mg"},{"bike_id":"9a0031d7-25bf-4e8c-94ff-4784503d9cac","system_id":"levelo_inurba_marseille","lat":43.24364,"lon":5.44125,"is_reserved":false,"is_disabled":false,"rental_uris":{"android":"levelo://app?vid=9a0031d7-25bf-4e8c-94ff-4784503d9cac","ios":"levelo://app?vid=9a0031d7-25bf-4e8c-94ff-4784503d9cac"},"vehicle_type_id":"4","last_reported":1773119404,"current_range_meters":13600,"station_id":"","pricing_plan_id":"cebpf4jnsgd1na2vs0mg"},{"bike_id":"32b10d97-901d-4313-bf41-dd84fb9be96f","system_id":"levelo_inurba_marseille","lat":43.27943,"lon":5.41038,"is_reserved":false,"is_disabled":false,"rental_uris":{"android":"levelo://app?vid=32b10d97-901d-4313-bf41-dd84fb9be96f","ios":"levelo://app?vid=32b10d97-901d-4313-bf41-dd84fb9be96f"},"vehicle_type_id":"4","last_reported":1773119404,"current_range_meters":24400,"station_id":"ce4bhnp2rcd13ifvqh0g","pricing_plan_id":"cebpf4jnsgd1na2vs0mg"},{"bike_id":"71bd1d5d-a7cd-4a5e-9bbe-315af3ec60a8","system_id":"levelo_inurba_marseille","lat":43.28463,"lon":5.38434,"is_reserved":false,"is_disabled":true,"rental_uris":{"android":"levelo://app?vid=71bd1d5d-a7cd-4a5e-9bbe-315af3ec60a8","ios":"levelo://app?vid=71bd1d5d-a7cd-4a5e-9bbe-315af3ec60a8"},"vehicle_type_id":"4","last_reported":1773119404,"current_range_meters":16400,"station_id":"ce4bh512rcd13ifvqe3g","pricing_plan_id":"cebpf4jnsgd1na2vs0mg"},{"bike_id":"a089d132-4ca7-4e22-b487-b543c4acdb4e","system_id":"levelo_inurba_marseille","lat":43.25578,"lon":5.38229,"is_reserved":false,"is_disabled":false,"rental_uris":{"android":"levelo://app?vid=a089d132-4ca7-4e22-b487-b543c4acdb4e","ios":"levelo://app?vid=a089d132-4ca7-4e22-b487-b543c4acdb4e"},"vehicle_type_id":"4","last_reported":1773119404,"current_range_meters":16400,"station_id":"ce4bhih2rcd13ifvqfs0","pricing_plan_id":"cebpf4jnsgd1na2vs0mg"},{"bike_id":"7fa44e60-80ac-4495-b7f0-a615d5fdfc83","system_id":"levelo_inurba_marseille","lat":43.24653,"lon":5.38893,"is_reserved":false,"is_disabled":false,"rental_uris":{"android":"levelo://app?vid=7fa44e60-80ac-4495-b7f0-a615d5fdfc83","ios":"levelo://app?vid=7fa44e60-80ac-4495-b7f0-a615d5fdfc83"},"vehicle_type_id":"4","last_reported":1773119404,"current_range_meters":26800,"station_id":"ce4bhg12rcd13ifvqf60","pricing_plan_id":"cebpf4jnsgd1na2vs0mg"},{"bike_id":"bf9150c5-4720-4f8f-9d5c-b7e44e74e779","system_id":"levelo_inurba_marseille","lat":43.27931,"lon":5.3878,"is_reserved":false,"is_disabled":false,"rental_uris":{"android":"levelo://app?vid=bf9150c5-4720-4f8f-9d5c-b7e44e74e779","ios":"levelo://app?vid=bf9150c5-4720-4f8f-9d5c-b7e44e74e779"},"vehicle_type_id":"4","last_reported":1773119404,"current_range_meters":28000,"station_id":"ce4bhg12rcd13ifvqf80","pricing_plan_id":"cebpf4jnsgd1na2vs0mg"},{"bike_id":"aee5635f-19c8-46c3-95d5-b087e8decb9c","system_id":"levelo_inurba_marseille","lat":43.25523,"lon":5.37642,"is_reserved":false,"is_disabled":false,"rental_uris":{"android":"levelo://app?vid=aee5635f-19c8-46c3-95d5-b087e8decb9c","ios":"levelo://app?vid=aee5635f-19c8-46c3-95d5-b087e8decb9c"},"vehicle_type_id":"4","last_reported":1773119404,"current_range_meters":17600,"station_id":"ce4bhh12rcd13ifvqff0","pricing_plan_id":"cebpf4jnsgd1na2vs0mg"},{"bike_id":"ea21537d-918a-492c-a00d-aa6c3e5c9df0","system_id":"levelo_inurba_marseille","lat":43.2257,"lon":5.41636,"is_reserved":false,"is_disabled":false,"rental_uris":{"android":"levelo://app?vid=ea21537d-918a-492c-a00d-aa6c3e5c9df0","ios":"levelo://app?vid=ea21537d-918a-492c-a00d-aa6c3e5c9df0"},"vehicle_type_id":"4","last_reported":1773119404,"current_range_meters":24400,"station_id":"st_d2o4gvlbi1j2169b742g","pricing_plan_id":"cebpf4jnsgd1na2vs0mg"},{"bike_id":"04d68502-e0df-44ef-98ff-8751e9131415","system_id":"levelo_inurba_marseille","lat":43.24161,"lon":5.36402,"is_reserved":false,"is_disabled":false,"rental_uris":{"android":"levelo://app?vid=04d68502-e0df-44ef-98ff-8751e9131415","ios":"levelo://app?vid=04d68502-e0df-44ef-98ff-8751e9131415"},"vehicle_type_id":"4","last_reported":1773119404,"current_range_meters":20400,"station_id":"cpo36qri1sfpv3e86is0","pricing_plan_id":"cebpf4jnsgd1na2vs0mg"},{"bike_id":"4b1eedab-9328-4fd4-854b-e5259f8f4581","system_id":"levelo_inurba_marseille","lat":43.28934,"lon":5.36307,"is_reserved":false,"is_disabled":false,"rental_uris":{"android":"levelo://app?vid=4b1eedab-9328-4fd4-854b-e5259f8f4581","ios":"levelo://app?vid=4b1eedab-9328-4fd4-854b-e5259f8f4581"},"vehicle_type_id":"4","last_reported":1773119404,"current_range_meters":39200,"station_id":"ce4bhc92rcd13ifvqetg","pricing_plan_id":"cebpf4jnsgd1na2vs0mg"},{"bike_id":"c393786b-e1c7-4f9a-af8f-f10bab8d48ad","system_id":"levelo_inurba_marseille","lat":43.30403,"lon":5.4131,"is_reserved":false,"is_disabled":false,"rental_uris":{"android":"levelo://app?vid=c393786b-e1c7-4f9a-af8f-f10bab8d48ad","ios":"levelo://app?vid=c393786b-e1c7-4f9a-af8f-f10bab8d48ad"},"vehicle_type_id":"4","last_reported":1773119404,"current_range_meters":39200,"station_id":"ce4bhop2rcd13ifvqh8g","pricing_plan_id":"cebpf4jnsgd1na2vs0mg"},{"bike_id":"d9711e1f-640f-4286-b616-380759d221d0","system_id":"levelo_inurba_marseille","lat":43.27928,"lon":5.38708,"is_reserved":false,"is_disabled":false,"rental_uris":{"android":"levelo://app?vid=d9711e1f-640f-4286-b616-380759d221d0","ios":"levelo://app?vid=d9711e1f-640f-4286-b616-380759d221d0"},"vehicle_type_id":"4","last_reported":1773119404,"current_range_meters":5600,"station_id":"ce4bhg12rcd13ifvqf80","pricing_plan_id":"cebpf4jnsgd1na2vs0mg"},{"bike_id":"41f0b40d-cf2c-40c2-99dc-0f7d17b0264c","system_id":"levelo_inurba_marseille","lat":43.30534,"lon":5.36706,"is_reserved":false,"is_disabled":false,"rental_uris":{"android":"levelo://app?vid=41f0b40d-cf2c-40c2-99dc-0f7d17b0264c","ios":"levelo://app?vid=41f0b40d-cf2c-40c2-99dc-0f7d17b0264c"},"vehicle_type_id":"4","last_reported":1773119404,"current_range_meters":34800,"station_id":"ce4bgrp2rcd13ifvqc9g","pricing_plan_id":"cebpf4jnsgd1na2vs0mg"},{"bike_id":"072f5be3-e2d3-4243-a280-aa67dfb573ae","system_id":"levelo_inurba_marseille","lat":43.31179,"lon":5.37727,"is_reserved":false,"is_disabled":false,"rental_uris":{"android":"levelo://app?vid=072f5be3-e2d3-4243-a280-aa67dfb573ae","ios":"levelo://app?vid=072f5be3-e2d3-4243-a280-aa67dfb573ae"},"vehicle_type_id":"4","last_reported":1773119404,"current_range_meters":35200,"station_id":"","pricing_plan_id":"cebpf4jnsgd1na2vs0mg"},{"bike_id":"50e85fa9-0c31-4149-b0da-3ca65d2e1281","system_id":"levelo_inurba_marseille","lat":43.29708,"lon":5.36625,"is_reserved":false,"is_disabled":false,"rental_uris":{"android":"levelo://app?vid=50e85fa9-0c31-4149-b0da-3ca65d2e1281","ios":"levelo://app?vid=50e85fa9-0c31-4149-b0da-3ca65d2e1281"},"vehicle_type_id":"4","last_reported":1773119404,"current_range_meters":38800,"station_id":"ce4bgn12rcd13ifvqbt0","pricing_plan_id":"cebpf4jnsgd1na2vs0mg"},{"bike_id":"1dbef04d-eee4-4229-adae-d0e5e0acd1ba","system_id":"levelo_inurba_marseille","lat":43.28415,"lon":5.35,"is_reserved":false,"is_disabled":false,"rental_uris":{"android":"levelo://app?vid=1dbef04d-eee4-4229-adae-d0e5e0acd1ba","ios":"levelo://app?vid=1dbef04d-eee4-4229-adae-d0e5e0acd1ba"},"vehicle_type_id":"4","last_reported":1773119404,"current_range_meters":32800,"station_id":"ce4bhbh2rcd13ifvqepg","pricing_plan_id":"cebpf4jnsgd1na2vs0mg"},{"bike_id":"df427871-eef3-4ff7-bb83-ffbb52f2406f","system_id":"levelo_inurba_marseille","lat":43.25005,"lon":5.38926,"is_reserved":false,"is_disabled":false,"rental_uris":{"android":"levelo://app?vid=df427871-eef3-4ff7-bb83-ffbb52f2406f","ios":"levelo://app?vid=df427871-eef3-4ff7-bb83-ffbb52f2406f"},"vehicle_type_id":"4","last_reported":1773119404,"current_range_meters":30000,"station_id":"ce4bhgp2rcd13ifvqfd0","pricing_plan_id":"cebpf4jnsgd1na2vs0mg"},{"bike_id":"87059e36-628e-402b-ac8c-052706aa8da3","system_id":"levelo_inurba_marseille","lat":43.29259,"lon":5.40903,"is_reserved":false,"is_disabled":false,"rental_uris":{"android":"levelo://app?vid=87059e36-628e-402b-ac8c-052706aa8da3","ios":"levelo://app?vid=87059e36-628e-402b-ac8c-052706aa8da3"},"vehicle_type_id":"4","last_reported":1773119404,"current_range_meters":5600,"station_id":"ce4bh192rcd13ifvqdc0","pricing_plan_id":"cebpf4jnsgd1na2vs0mg"},{"bike_id":"9a704c89-3974-4454-bf74-22ddbd07e1ec","system_id":"levelo_inurba_marseille","lat":43.30152,"lon":5.38098,"is_reserved":false,"is_disabled":false,"rental_uris":{"android":"levelo://app?vid=9a704c89-3974-4454-bf74-22ddbd07e1ec","ios":"levelo://app?vid=9a704c89-3974-4454-bf74-22ddbd07e1ec"},"vehicle_type_id":"4","last_reported":1773119404,"current_range_meters":27200,"station_id":"ce4bgjp2rcd13ifvqbh0","pricing_plan_id":"cebpf4jnsgd1na2vs0mg"},{"bike_id":"7e3bb1c1-f504-4b29-b169-7e546daec31f","system_id":"levelo_inurba_marseille","lat":43.24819,"lon":5.37493,"is_reserved":false,"is_disabled":true,"rental_uris":{"android":"levelo://app?vid=7e3bb1c1-f504-4b29-b169-7e546daec31f","ios":"levelo://app?vid=7e3bb1c1-f504-4b29-b169-7e546daec31f"},"vehicle_type_id":"4","last_reported":1773119404,"current_range_meters":0,"station_id":"","pricing_plan_id":"cebpf4jnsgd1na2vs0mg"},{"bike_id":"46044485-4db2-4815-a27e-f4df9d8c05b7","system_id":"levelo_inurba_marseille","lat":43.28547,"lon":5.39517,"is_reserved":false,"is_disabled":false,"rental_uris":{"android":"levelo://app?vid=46044485-4db2-4815-a27e-f4df9d8c05b7","ios":"levelo://app?vid=46044485-4db2-4815-a27e-f4df9d8c05b7"},"vehicle_type_id":"4","last_reported":1773119404,"current_range_meters":39200,"station_id":"ce4bh292rcd13ifvqdg0","pricing_plan_id":"cebpf4jnsgd1na2vs0mg"},{"bike_id":"79ce6a44-61dd-477c-aa0b-1a849bd10fcb","system_id":"levelo_inurba_marseille","lat":43.28486,"lon":5.48388,"is_reserved":false,"is_disabled":false,"rental_uris":{"android":"levelo://app?vid=79ce6a44-61dd-477c-aa0b-1a849bd10fcb","ios":"levelo://app?vid=79ce6a44-61dd-477c-aa0b-1a849bd10fcb"},"vehicle_type_id":"4","last_reported":1773119404,"current_range_meters":28000,"station_id":"","pricing_plan_id":"cebpf4jnsgd1na2vs0mg"},{"bike_id":"1e0af4c0-3b15-4244-9dec-190b02d7b0d0","system_id":"levelo_inurba_marseille","lat":43.24668,"lon":5.38175,"is_reserved":false,"is_disabled":false,"rental_uris":{"android":"levelo://app?vid=1e0af4c0-3b15-4244-9dec-190b02d7b0d0","ios":"levelo://app?vid=1e0af4c0-3b15-4244-9dec-190b02d7b0d0"},"vehicle_type_id":"4","last_reported":1773119404,"current_range_meters":36400,"station_id":"ce4bhih2rcd13ifvqfr0","pricing_plan_id":"cebpf4jnsgd1na2vs0mg"},{"bike_id":"ac8308a4-f739-4875-98d8-249fe4c0d891","system_id":"levelo_inurba_marseille","lat":43.32472,"lon":5.3659,"is_reserved":false,"is_disabled":false,"rental_uris":{"android":"levelo://app?vid=ac8308a4-f739-4875-98d8-249fe4c0d891","ios":"levelo://app?vid=ac8308a4-f739-4875-98d8-249fe4c0d891"},"vehicle_type_id":"4","last_reported":1773119404,"current_range_meters":38400,"station_id":"ce4bhs12rcd13ifvqhvg","pricing_plan_id":"cebpf4jnsgd1na2vs0mg"},{"bike_id":"8bfb4316-e026-40d2-bc62-75f687ce6f83","system_id":"levelo_inurba_marseille","lat":43.31114,"lon":5.37774,"is_reserved":false,"is_disabled":false,"rental_uris":{"android":"levelo://app?vid=8bfb4316-e026-40d2-bc62-75f687ce6f83","ios":"levelo://app?vid=8bfb4316-e026-40d2-bc62-75f687ce6f83"},"vehicle_type_id":"4","last_reported":1773119404,"current_range_meters":11200,"station_id":"ce4bgt92rcd13ifvqcg0","pricing_plan_id":"cebpf4jnsgd1na2vs0mg"},{"bike_id":"efc90542-48d5-4d7f-af77-db2a2b913bdc","system_id":"levelo_inurba_marseille","lat":43.27824,"lon":5.39204,"is_reserved":false,"is_disabled":false,"rental_uris":{"android":"levelo://app?vid=efc90542-48d5-4d7f-af77-db2a2b913bdc","ios":"levelo://app?vid=efc90542-48d5-4d7f-af77-db2a2b913bdc"},"vehicle_type_id":"4","last_reported":1773119404,"current_range_meters":30400,"station_id":"ce4bhjp2rcd13ifvqga0","pricing_plan_id":"cebpf4jnsgd1na2vs0mg"},{"bike_id":"177670a4-e9e2-4a2f-aee4-3a08332f5a7e","system_id":"levelo_inurba_marseille","lat":43.29443,"lon":5.39757,"is_reserved":false,"is_disabled":false,"rental_uris":{"android":"levelo://app?vid=177670a4-e9e2-4a2f-aee4-3a08332f5a7e","ios":"levelo://app?vid=177670a4-e9e2-4a2f-aee4-3a08332f5a7e"},"vehicle_type_id":"4","last_reported":1773119404,"current_range_meters":32400,"station_id":"ce4bh3h2rcd13ifvqdo0","pricing_plan_id":"cebpf4jnsgd1na2vs0mg"},{"bike_id":"dd11b5db-7b35-4df3-8a3a-d7161b3ca943","system_id":"levelo_inurba_marseille","lat":43.30588,"lon":5.37206,"is_reserved":false,"is_disabled":false,"rental_uris":{"android":"levelo://app?vid=dd11b5db-7b35-4df3-8a3a-d7161b3ca943","ios":"levelo://app?vid=dd11b5db-7b35-4df3-8a3a-d7161b3ca943"},"vehicle_type_id":"4","last_reported":1773119404,"current_range_meters":31200,"station_id":"ce4bgqh2rcd13ifvqc4g","pricing_plan_id":"cebpf4jnsgd1na2vs0mg"},{"bike_id":"6966191e-2a59-4d90-83f5-9dbb328087a0","system_id":"levelo_inurba_marseille","lat":43.28474,"lon":5.4839,"is_reserved":false,"is_disabled":false,"rental_uris":{"android":"levelo://app?vid=6966191e-2a59-4d90-83f5-9dbb328087a0","ios":"levelo://app?vid=6966191e-2a59-4d90-83f5-9dbb328087a0"},"vehicle_type_id":"4","last_reported":1773119404,"current_range_meters":6400,"station_id":"","pricing_plan_id":"cebpf4jnsgd1na2vs0mg"},{"bike_id":"664572f5-5ae7-4382-a82f-3d389db05bba","system_id":"levelo_inurba_marseille","lat":43.28654,"lon":5.38678,"is_reserved":false,"is_disabled":true,"rental_uris":{"android":"levelo://app?vid=664572f5-5ae7-4382-a82f-3d389db05bba","ios":"levelo://app?vid=664572f5-5ae7-4382-a82f-3d389db05bba"},"vehicle_type_id":"4","last_reported":1773119404,"current_range_meters":6800,"station_id":"ce4bh492rcd13ifvqdug","pricing_plan_id":"cebpf4jnsgd1na2vs0mg"},{"bike_id":"f344142f-ce0d-47f4-9845-8c62b9eba0c7","system_id":"levelo_inurba_marseille","lat":43.27827,"lon":5.40724,"is_reserved":false,"is_disabled":false,"rental_uris":{"android":"levelo://app?vid=f344142f-ce0d-47f4-9845-8c62b9eba0c7","ios":"levelo://app?vid=f344142f-ce0d-47f4-9845-8c62b9eba0c7"},"vehicle_type_id":"4","last_reported":1773119404,"current_range_meters":24000,"station_id":"ce4bhnh2rcd13ifvqgtg","pricing_plan_id":"cebpf4jnsgd1na2vs0mg"},{"bike_id":"c67245cb-2170-4bce-8da2-b23385e30ee9","system_id":"levelo_inurba_marseille","lat":43.29709,"lon":5.4255,"is_reserved":false,"is_disabled":false,"rental_uris":{"android":"levelo://app?vid=c67245cb-2170-4bce-8da2-b23385e30ee9","ios":"levelo://app?vid=c67245cb-2170-4bce-8da2-b23385e30ee9"},"vehicle_type_id":"4","last_reported":1773119404,"current_range_meters":17200,"station_id":"","pricing_plan_id":"cebpf4jnsgd1na2vs0mg"},{"bike_id":"798a0e21-50c4-4555-b49f-b20174375eb4","system_id":"levelo_inurba_marseille","lat":43.28993,"lon":5.3561,"is_reserved":false,"is_disabled":false,"rental_uris":{"android":"levelo://app?vid=798a0e21-50c4-4555-b49f-b20174375eb4","ios":"levelo://app?vid=798a0e21-50c4-4555-b49f-b20174375eb4"},"vehicle_type_id":"4","last_reported":1773119404,"current_range_meters":23200,"station_id":"ce4bhb92rcd13ifvqen0","pricing_plan_id":"cebpf4jnsgd1na2vs0mg"},{"bike_id":"e0bbf2e0-16d1-4c17-aafc-25816111e281","system_id":"levelo_inurba_marseille","lat":43.32188,"lon":5.38708,"is_reserved":false,"is_disabled":false,"rental_uris":{"android":"levelo://app?vid=e0bbf2e0-16d1-4c17-aafc-25816111e281","ios":"levelo://app?vid=e0bbf2e0-16d1-4c17-aafc-25816111e281"},"vehicle_type_id":"4","last_reported":1773119404,"current_range_meters":2800,"station_id":"","pricing_plan_id":"cebpf4jnsgd1na2vs0mg"},{"bike_id":"7efcf4c7-49f4-4be3-9e95-91715385053b","system_id":"levelo_inurba_marseille","lat":43.30313,"lon":5.3686,"is_reserved":false,"is_disabled":false,"rental_uris":{"android":"levelo://app?vid=7efcf4c7-49f4-4be3-9e95-91715385053b","ios":"levelo://app?vid=7efcf4c7-49f4-4be3-9e95-91715385053b"},"vehicle_type_id":"4","last_reported":1773119404,"current_range_meters":19200,"station_id":"ce4bgqh2rcd13ifvqc5g","pricing_plan_id":"cebpf4jnsgd1na2vs0mg"},{"bike_id":"b7e35d72-969e-4bf5-a3a7-5c6489e97a1a","system_id":"levelo_inurba_marseille","lat":43.23208,"lon":5.35578,"is_reserved":false,"is_disabled":false,"rental_uris":{"android":"levelo://app?vid=b7e35d72-969e-4bf5-a3a7-5c6489e97a1a","ios":"levelo://app?vid=b7e35d72-969e-4bf5-a3a7-5c6489e97a1a"},"vehicle_type_id":"4","last_reported":1773119404,"current_range_meters":38800,"station_id":"ce4bhu92rcd13ifvqi70","pricing_plan_id":"cebpf4jnsgd1na2vs0mg"},{"bike_id":"481d7f35-e3b3-4df8-80f2-d627e15bc73b","system_id":"levelo_inurba_marseille","lat":43.26205,"lon":5.3745,"is_reserved":false,"is_disabled":false,"rental_uris":{"android":"levelo://app?vid=481d7f35-e3b3-4df8-80f2-d627e15bc73b","ios":"levelo://app?vid=481d7f35-e3b3-4df8-80f2-d627e15bc73b"},"vehicle_type_id":"4","last_reported":1773119404,"current_range_meters":32400,"station_id":"ce4bhgp2rcd13ifvqfc0","pricing_plan_id":"cebpf4jnsgd1na2vs0mg"},{"bike_id":"d216debe-13ad-497c-9809-383a47cc5ef9","system_id":"levelo_inurba_marseille","lat":43.3235,"lon":5.36737,"is_reserved":false,"is_disabled":false,"rental_uris":{"android":"levelo://app?vid=d216debe-13ad-497c-9809-383a47cc5ef9","ios":"levelo://app?vid=d216debe-13ad-497c-9809-383a47cc5ef9"},"vehicle_type_id":"4","last_reported":1773119404,"current_range_meters":32000,"station_id":"ce4bhsh2rcd13ifvqi2g","pricing_plan_id":"cebpf4jnsgd1na2vs0mg"},{"bike_id":"32c4f1f7-17c8-4a03-b0d8-54ddb0b13de5","system_id":"levelo_inurba_marseille","lat":43.33545,"lon":5.37479,"is_reserved":false,"is_disabled":false,"rental_uris":{"android":"levelo://app?vid=32c4f1f7-17c8-4a03-b0d8-54ddb0b13de5","ios":"levelo://app?vid=32c4f1f7-17c8-4a03-b0d8-54ddb0b13de5"},"vehicle_type_id":"4","last_reported":1773119404,"current_range_meters":35600,"station_id":"st_d46tts09ee8s73dlu43g","pricing_plan_id":"cebpf4jnsgd1na2vs0mg"},{"bike_id":"d59f2af4-848c-4817-b526-29ae1e90f418","system_id":"levelo_inurba_marseille","lat":43.2719,"lon":5.41009,"is_reserved":false,"is_disabled":false,"rental_uris":{"android":"levelo://app?vid=d59f2af4-848c-4817-b526-29ae1e90f418","ios":"levelo://app?vid=d59f2af4-848c-4817-b526-29ae1e90f418"},"vehicle_type_id":"4","last_reported":1773119404,"current_range_meters":39200,"station_id":"ce4bhl12rcd13ifvqgf0","pricing_plan_id":"cebpf4jnsgd1na2vs0mg"},{"bike_id":"77cce443-3f90-4239-836a-70a21471f733","system_id":"levelo_inurba_marseille","lat":43.27064,"lon":5.38316,"is_reserved":false,"is_disabled":false,"rental_uris":{"android":"levelo://app?vid=77cce443-3f90-4239-836a-70a21471f733","ios":"levelo://app?vid=77cce443-3f90-4239-836a-70a21471f733"},"vehicle_type_id":"4","last_reported":1773119404,"current_range_meters":35600,"station_id":"st_d3n2fo6cfp8s73cte1j0","pricing_plan_id":"cebpf4jnsgd1na2vs0mg"},{"bike_id":"b4d84b00-0680-45b7-8f48-8216c80f430c","system_id":"levelo_inurba_marseille","lat":43.2512,"lon":5.40346,"is_reserved":false,"is_disabled":false,"rental_uris":{"android":"levelo://app?vid=b4d84b00-0680-45b7-8f48-8216c80f430c","ios":"levelo://app?vid=b4d84b00-0680-45b7-8f48-8216c80f430c"},"vehicle_type_id":"4","last_reported":1773119404,"current_range_meters":35200,"station_id":"ce4bhlh2rcd13ifvqgig","pricing_plan_id":"cebpf4jnsgd1na2vs0mg"},{"bike_id":"b1b72e65-4541-4aa5-9464-619c22b58492","system_id":"levelo_inurba_marseille","lat":43.27574,"lon":5.39612,"is_reserved":false,"is_disabled":false,"rental_uris":{"android":"levelo://app?vid=b1b72e65-4541-4aa5-9464-619c22b58492","ios":"levelo://app?vid=b1b72e65-4541-4aa5-9464-619c22b58492"},"vehicle_type_id":"4","last_reported":1773119404,"current_range_meters":28400,"station_id":"","pricing_plan_id":"cebpf4jnsgd1na2vs0mg"},{"bike_id":"e056f7fe-1aa1-4ee3-a49a-a31b3a99ef22","system_id":"levelo_inurba_marseille","lat":43.30241,"lon":5.40059,"is_reserved":false,"is_disabled":false,"rental_uris":{"android":"levelo://app?vid=e056f7fe-1aa1-4ee3-a49a-a31b3a99ef22","ios":"levelo://app?vid=e056f7fe-1aa1-4ee3-a49a-a31b3a99ef22"},"vehicle_type_id":"4","last_reported":1773119404,"current_range_meters":39200,"station_id":"ce4bgvh2rcd13ifvqcs0","pricing_plan_id":"cebpf4jnsgd1na2vs0mg"},{"bike_id":"2882ff64-4b69-4646-94c7-860d0be78035","system_id":"levelo_inurba_marseille","lat":43.29265,"lon":5.36841,"is_reserved":false,"is_disabled":false,"rental_uris":{"android":"levelo://app?vid=2882ff64-4b69-4646-94c7-860d0be78035","ios":"levelo://app?vid=2882ff64-4b69-4646-94c7-860d0be78035"},"vehicle_type_id":"4","last_reported":1773119404,"current_range_meters":30800,"station_id":"ce4bhbp2rcd13ifvqesg","pricing_plan_id":"cebpf4jnsgd1na2vs0mg"},{"bike_id":"beae6932-1cb2-42f4-a0be-e7fa4a6e5cad","system_id":"levelo_inurba_marseille","lat":43.24997,"lon":5.38947,"is_reserved":false,"is_disabled":false,"rental_uris":{"android":"levelo://app?vid=beae6932-1cb2-42f4-a0be-e7fa4a6e5cad","ios":"levelo://app?vid=beae6932-1cb2-42f4-a0be-e7fa4a6e5cad"},"vehicle_type_id":"4","last_reported":1773119404,"current_range_meters":38000,"station_id":"ce4bhgp2rcd13ifvqfd0","pricing_plan_id":"cebpf4jnsgd1na2vs0mg"},{"bike_id":"41e6d6bd-61a4-4ca0-9297-ee039bf7ddfc","system_id":"levelo_inurba_marseille","lat":43.28406,"lon":5.37514,"is_reserved":false,"is_disabled":false,"rental_uris":{"android":"levelo://app?vid=41e6d6bd-61a4-4ca0-9297-ee039bf7ddfc","ios":"levelo://app?vid=41e6d6bd-61a4-4ca0-9297-ee039bf7ddfc"},"vehicle_type_id":"4","last_reported":1773119404,"current_range_meters":27200,"station_id":"ce4bh412rcd13ifvqds0","pricing_plan_id":"cebpf4jnsgd1na2vs0mg"},{"bike_id":"0976d995-0bd5-4a37-a12f-7573097cdbbf","system_id":"levelo_inurba_marseille","lat":43.24371,"lon":5.37077,"is_reserved":false,"is_disabled":false,"rental_uris":{"android":"levelo://app?vid=0976d995-0bd5-4a37-a12f-7573097cdbbf","ios":"levelo://app?vid=0976d995-0bd5-4a37-a12f-7573097cdbbf"},"vehicle_type_id":"4","last_reported":1773119404,"current_range_meters":38000,"station_id":"ce4bhhh2rcd13ifvqfk0","pricing_plan_id":"cebpf4jnsgd1na2vs0mg"},{"bike_id":"d3b471e2-eaea-40d6-b207-95b0d07845f0","system_id":"levelo_inurba_marseille","lat":43.2795,"lon":5.41042,"is_reserved":false,"is_disabled":false,"rental_uris":{"android":"levelo://app?vid=d3b471e2-eaea-40d6-b207-95b0d07845f0","ios":"levelo://app?vid=d3b471e2-eaea-40d6-b207-95b0d07845f0"},"vehicle_type_id":"4","last_reported":1773119404,"current_range_meters":8000,"station_id":"ce4bhnp2rcd13ifvqh0g","pricing_plan_id":"cebpf4jnsgd1na2vs0mg"},{"bike_id":"6adc31c4-5cfa-4d5b-a4ca-9f1f649c5b2c","system_id":"levelo_inurba_marseille","lat":43.29787,"lon":5.42563,"is_reserved":false,"is_disabled":false,"rental_uris":{"android":"levelo://app?vid=6adc31c4-5cfa-4d5b-a4ca-9f1f649c5b2c","ios":"levelo://app?vid=6adc31c4-5cfa-4d5b-a4ca-9f1f649c5b2c"},"vehicle_type_id":"4","last_reported":1773119404,"current_range_meters":6000,"station_id":"","pricing_plan_id":"cebpf4jnsgd1na2vs0mg"},{"bike_id":"7e52b541-9282-4e35-bf29-3d8c8574d5ef","system_id":"levelo_inurba_marseille","lat":43.30361,"lon":5.41887,"is_reserved":false,"is_disabled":false,"rental_uris":{"android":"levelo://app?vid=7e52b541-9282-4e35-bf29-3d8c8574d5ef","ios":"levelo://app?vid=7e52b541-9282-4e35-bf29-3d8c8574d5ef"},"vehicle_type_id":"4","last_reported":1773119404,"current_range_meters":38400,"station_id":"ce4bhop2rcd13ifvqh7g","pricing_plan_id":"cebpf4jnsgd1na2vs0mg"},{"bike_id":"412537d7-18e3-4ebc-8d62-e2d177d5abe7","system_id":"levelo_inurba_marseille","lat":43.29532,"lon":5.38571,"is_reserved":false,"is_disabled":true,"rental_uris":{"android":"levelo://app?vid=412537d7-18e3-4ebc-8d62-e2d177d5abe7","ios":"levelo://app?vid=412537d7-18e3-4ebc-8d62-e2d177d5abe7"},"vehicle_type_id":"4","last_reported":1773119404,"current_range_meters":11200,"station_id":"ce4bgih2rcd13ifvqba0","pricing_plan_id":"cebpf4jnsgd1na2vs0mg"},{"bike_id":"f6bf9564-52b6-4a7a-a275-e35fdff422de","system_id":"levelo_inurba_marseille","lat":43.32352,"lon":5.36759,"is_reserved":false,"is_disabled":false,"rental_uris":{"android":"levelo://app?vid=f6bf9564-52b6-4a7a-a275-e35fdff422de","ios":"levelo://app?vid=f6bf9564-52b6-4a7a-a275-e35fdff422de"},"vehicle_type_id":"4","last_reported":1773119404,"current_range_meters":6800,"station_id":"ce4bhsh2rcd13ifvqi2g","pricing_plan_id":"cebpf4jnsgd1na2vs0mg"},{"bike_id":"2564c1c9-01d0-4cc8-af33-cb04d53dfb74","system_id":"levelo_inurba_marseille","lat":43.27063,"lon":5.42267,"is_reserved":false,"is_disabled":false,"rental_uris":{"android":"levelo://app?vid=2564c1c9-01d0-4cc8-af33-cb04d53dfb74","ios":"levelo://app?vid=2564c1c9-01d0-4cc8-af33-cb04d53dfb74"},"vehicle_type_id":"4","last_reported":1773119404,"current_range_meters":12800,"station_id":"ce4bhk92rcd13ifvqgb0","pricing_plan_id":"cebpf4jnsgd1na2vs0mg"},{"bike_id":"5bc6211b-84c1-4842-9976-b0e6b27f32ef","system_id":"levelo_inurba_marseille","lat":43.24386,"lon":5.37071,"is_reserved":false,"is_disabled":false,"rental_uris":{"android":"levelo://app?vid=5bc6211b-84c1-4842-9976-b0e6b27f32ef","ios":"levelo://app?vid=5bc6211b-84c1-4842-9976-b0e6b27f32ef"},"vehicle_type_id":"4","last_reported":1773119404,"current_range_meters":38800,"station_id":"ce4bhhh2rcd13ifvqfk0","pricing_plan_id":"cebpf4jnsgd1na2vs0mg"},{"bike_id":"2b600d18-0571-4b49-b97b-78818a345e50","system_id":"levelo_inurba_marseille","lat":43.29205,"lon":5.36036,"is_reserved":false,"is_disabled":false,"rental_uris":{"android":"levelo://app?vid=2b600d18-0571-4b49-b97b-78818a345e50","ios":"levelo://app?vid=2b600d18-0571-4b49-b97b-78818a345e50"},"vehicle_type_id":"4","last_reported":1773119404,"current_range_meters":11600,"station_id":"ce4bhbh2rcd13ifvqeqg","pricing_plan_id":"cebpf4jnsgd1na2vs0mg"},{"bike_id":"1ed78316-1378-4cf1-89dc-82486992174d","system_id":"levelo_inurba_marseille","lat":43.279694,"lon":5.387333,"is_reserved":false,"is_disabled":false,"rental_uris":{"android":"levelo://app?vid=1ed78316-1378-4cf1-89dc-82486992174d","ios":"levelo://app?vid=1ed78316-1378-4cf1-89dc-82486992174d"},"vehicle_type_id":"4","last_reported":1773119404,"current_range_meters":20000,"station_id":"ce4bhg12rcd13ifvqf80","pricing_plan_id":"cebpf4jnsgd1na2vs0mg"},{"bike_id":"a0940ab7-a6be-4654-afa7-fdf7a5194097","system_id":"levelo_inurba_marseille","lat":43.30601,"lon":5.37208,"is_reserved":false,"is_disabled":false,"rental_uris":{"android":"levelo://app?vid=a0940ab7-a6be-4654-afa7-fdf7a5194097","ios":"levelo://app?vid=a0940ab7-a6be-4654-afa7-fdf7a5194097"},"vehicle_type_id":"4","last_reported":1773119404,"current_range_meters":35600,"station_id":"ce4bgqh2rcd13ifvqc4g","pricing_plan_id":"cebpf4jnsgd1na2vs0mg"},{"bike_id":"a4607f20-82df-489a-b070-89f19f12ea83","system_id":"levelo_inurba_marseille","lat":43.26224,"lon":5.37444,"is_reserved":false,"is_disabled":false,"rental_uris":{"android":"levelo://app?vid=a4607f20-82df-489a-b070-89f19f12ea83","ios":"levelo://app?vid=a4607f20-82df-489a-b070-89f19f12ea83"},"vehicle_type_id":"4","last_reported":1773119404,"current_range_meters":11200,"station_id":"ce4bhgp2rcd13ifvqfc0","pricing_plan_id":"cebpf4jnsgd1na2vs0mg"},{"bike_id":"9b6ecef8-4c13-457c-9858-b7eca0d7cafe","system_id":"levelo_inurba_marseille","lat":43.3064,"lon":5.40064,"is_reserved":false,"is_disabled":false,"rental_uris":{"android":"levelo://app?vid=9b6ecef8-4c13-457c-9858-b7eca0d7cafe","ios":"levelo://app?vid=9b6ecef8-4c13-457c-9858-b7eca0d7cafe"},"vehicle_type_id":"4","last_reported":1773119404,"current_range_meters":39200,"station_id":"ce4bh112rcd13ifvqda0","pricing_plan_id":"cebpf4jnsgd1na2vs0mg"},{"bike_id":"99dd58ec-7939-4e7e-94d4-537aa06724ca","system_id":"levelo_inurba_marseille","lat":43.28726,"lon":5.40022,"is_reserved":false,"is_disabled":false,"rental_uris":{"android":"levelo://app?vid=99dd58ec-7939-4e7e-94d4-537aa06724ca","ios":"levelo://app?vid=99dd58ec-7939-4e7e-94d4-537aa06724ca"},"vehicle_type_id":"4","last_reported":1773119404,"current_range_meters":7200,"station_id":"ce4bho92rcd13ifvqh3g","pricing_plan_id":"cebpf4jnsgd1na2vs0mg"},{"bike_id":"7492f64a-feec-4475-a8ac-d4bd70e8ae1e","system_id":"levelo_inurba_marseille","lat":43.23143,"lon":5.43725,"is_reserved":false,"is_disabled":false,"rental_uris":{"android":"levelo://app?vid=7492f64a-feec-4475-a8ac-d4bd70e8ae1e","ios":"levelo://app?vid=7492f64a-feec-4475-a8ac-d4bd70e8ae1e"},"vehicle_type_id":"4","last_reported":1773119404,"current_range_meters":23200,"station_id":"ce4bhmp2rcd13ifvqgog","pricing_plan_id":"cebpf4jnsgd1na2vs0mg"},{"bike_id":"348e79b5-7b2e-44ab-94d8-fe4db07d86fb","system_id":"levelo_inurba_marseille","lat":43.28966,"lon":5.37837,"is_reserved":false,"is_disabled":false,"rental_uris":{"android":"levelo://app?vid=348e79b5-7b2e-44ab-94d8-fe4db07d86fb","ios":"levelo://app?vid=348e79b5-7b2e-44ab-94d8-fe4db07d86fb"},"vehicle_type_id":"4","last_reported":1773119404,"current_range_meters":36000,"station_id":"ce4bh9p2rcd13ifvqed0","pricing_plan_id":"cebpf4jnsgd1na2vs0mg"},{"bike_id":"0deff542-0b2f-4a86-adce-d3f72549095d","system_id":"levelo_inurba_marseille","lat":43.30514,"lon":5.38425,"is_reserved":false,"is_disabled":false,"rental_uris":{"android":"levelo://app?vid=0deff542-0b2f-4a86-adce-d3f72549095d","ios":"levelo://app?vid=0deff542-0b2f-4a86-adce-d3f72549095d"},"vehicle_type_id":"4","last_reported":1773119404,"current_range_meters":33200,"station_id":"ce4bgg92rcd13ifvqb30","pricing_plan_id":"cebpf4jnsgd1na2vs0mg"},{"bike_id":"cffd85c8-6101-4396-9915-27535bd5490b","system_id":"levelo_inurba_marseille","lat":43.2877,"lon":5.41205,"is_reserved":false,"is_disabled":false,"rental_uris":{"android":"levelo://app?vid=cffd85c8-6101-4396-9915-27535bd5490b","ios":"levelo://app?vid=cffd85c8-6101-4396-9915-27535bd5490b"},"vehicle_type_id":"4","last_reported":1773119404,"current_range_meters":38800,"station_id":"","pricing_plan_id":"cebpf4jnsgd1na2vs0mg"},{"bike_id":"9643ed68-b2ff-4c6f-a383-ab6df8fbc9cd","system_id":"levelo_inurba_marseille","lat":43.27515,"lon":5.42394,"is_reserved":false,"is_disabled":false,"rental_uris":{"android":"levelo://app?vid=9643ed68-b2ff-4c6f-a383-ab6df8fbc9cd","ios":"levelo://app?vid=9643ed68-b2ff-4c6f-a383-ab6df8fbc9cd"},"vehicle_type_id":"4","last_reported":1773119404,"current_range_meters":15200,"station_id":"ce4bhn92rcd13ifvqgrg","pricing_plan_id":"cebpf4jnsgd1na2vs0mg"},{"bike_id":"8ca337dd-ef84-408c-8abc-cff0ac9bce2d","system_id":"levelo_inurba_marseille","lat":43.29691,"lon":5.366,"is_reserved":false,"is_disabled":false,"rental_uris":{"android":"levelo://app?vid=8ca337dd-ef84-408c-8abc-cff0ac9bce2d","ios":"levelo://app?vid=8ca337dd-ef84-408c-8abc-cff0ac9bce2d"},"vehicle_type_id":"4","last_reported":1773119404,"current_range_meters":6400,"station_id":"ce4bgn12rcd13ifvqbt0","pricing_plan_id":"cebpf4jnsgd1na2vs0mg"},{"bike_id":"a6152a37-0e0f-4342-85ea-20dd708f93ee","system_id":"levelo_inurba_marseille","lat":43.23144,"lon":5.43705,"is_reserved":false,"is_disabled":false,"rental_uris":{"android":"levelo://app?vid=a6152a37-0e0f-4342-85ea-20dd708f93ee","ios":"levelo://app?vid=a6152a37-0e0f-4342-85ea-20dd708f93ee"},"vehicle_type_id":"4","last_reported":1773119404,"current_range_meters":37600,"station_id":"ce4bhmp2rcd13ifvqgog","pricing_plan_id":"cebpf4jnsgd1na2vs0mg"},{"bike_id":"15725ca9-d837-4610-978f-2a031eec332a","system_id":"levelo_inurba_marseille","lat":43.27495,"lon":5.4248,"is_reserved":false,"is_disabled":false,"rental_uris":{"android":"levelo://app?vid=15725ca9-d837-4610-978f-2a031eec332a","ios":"levelo://app?vid=15725ca9-d837-4610-978f-2a031eec332a"},"vehicle_type_id":"4","last_reported":1773119404,"current_range_meters":38800,"station_id":"ce4bhn92rcd13ifvqgrg","pricing_plan_id":"cebpf4jnsgd1na2vs0mg"},{"bike_id":"50212de8-a421-4895-a21f-25f199919153","system_id":"levelo_inurba_marseille","lat":43.26055,"lon":5.39396,"is_reserved":false,"is_disabled":false,"rental_uris":{"android":"levelo://app?vid=50212de8-a421-4895-a21f-25f199919153","ios":"levelo://app?vid=50212de8-a421-4895-a21f-25f199919153"},"vehicle_type_id":"4","last_reported":1773119404,"current_range_meters":37600,"station_id":"ce4bhh92rcd13ifvqfj0","pricing_plan_id":"cebpf4jnsgd1na2vs0mg"},{"bike_id":"9d5dab95-42e0-47db-91db-ee2c6c1256b0","system_id":"levelo_inurba_marseille","lat":43.25518,"lon":5.37694,"is_reserved":false,"is_disabled":false,"rental_uris":{"android":"levelo://app?vid=9d5dab95-42e0-47db-91db-ee2c6c1256b0","ios":"levelo://app?vid=9d5dab95-42e0-47db-91db-ee2c6c1256b0"},"vehicle_type_id":"4","last_reported":1773119404,"current_range_meters":38400,"station_id":"ce4bhh12rcd13ifvqff0","pricing_plan_id":"cebpf4jnsgd1na2vs0mg"},{"bike_id":"bcc0bdc0-b417-418c-b79e-7ddab1d1b3e7","system_id":"levelo_inurba_marseille","lat":43.30235,"lon":5.40038,"is_reserved":false,"is_disabled":true,"rental_uris":{"android":"levelo://app?vid=bcc0bdc0-b417-418c-b79e-7ddab1d1b3e7","ios":"levelo://app?vid=bcc0bdc0-b417-418c-b79e-7ddab1d1b3e7"},"vehicle_type_id":"4","last_reported":1773119404,"current_range_meters":28000,"station_id":"ce4bgvh2rcd13ifvqcs0","pricing_plan_id":"cebpf4jnsgd1na2vs0mg"},{"bike_id":"8ca6652a-fcec-46dc-8ce0-6d44fd5d8e0e","system_id":"levelo_inurba_marseille","lat":43.26237,"lon":5.40463,"is_reserved":false,"is_disabled":false,"rental_uris":{"android":"levelo://app?vid=8ca6652a-fcec-46dc-8ce0-6d44fd5d8e0e","ios":"levelo://app?vid=8ca6652a-fcec-46dc-8ce0-6d44fd5d8e0e"},"vehicle_type_id":"4","last_reported":1773119404,"current_range_meters":3600,"station_id":"ce4bhmh2rcd13ifvqgmg","pricing_plan_id":"cebpf4jnsgd1na2vs0mg"},{"bike_id":"b8da4884-6859-419a-ad81-36567ecd6325","system_id":"levelo_inurba_marseille","lat":43.29004,"lon":5.35607,"is_reserved":false,"is_disabled":false,"rental_uris":{"android":"levelo://app?vid=b8da4884-6859-419a-ad81-36567ecd6325","ios":"levelo://app?vid=b8da4884-6859-419a-ad81-36567ecd6325"},"vehicle_type_id":"4","last_reported":1773119404,"current_range_meters":33600,"station_id":"ce4bhb92rcd13ifvqen0","pricing_plan_id":"cebpf4jnsgd1na2vs0mg"},{"bike_id":"e707495e-622c-4229-a0f6-d0989695e0c1","system_id":"levelo_inurba_marseille","lat":43.24485,"lon":5.42558,"is_reserved":false,"is_disabled":false,"rental_uris":{"android":"levelo://app?vid=e707495e-622c-4229-a0f6-d0989695e0c1","ios":"levelo://app?vid=e707495e-622c-4229-a0f6-d0989695e0c1"},"vehicle_type_id":"4","last_reported":1773119404,"current_range_meters":16800,"station_id":"st_d4a3vfp97mjs738cd8kg","pricing_plan_id":"cebpf4jnsgd1na2vs0mg"},{"bike_id":"d44d6705-8b07-4c99-8be2-a9a0fdc34e2f","system_id":"levelo_inurba_marseille","lat":43.3204,"lon":5.37012,"is_reserved":false,"is_disabled":false,"rental_uris":{"android":"levelo://app?vid=d44d6705-8b07-4c99-8be2-a9a0fdc34e2f","ios":"levelo://app?vid=d44d6705-8b07-4c99-8be2-a9a0fdc34e2f"},"vehicle_type_id":"4","last_reported":1773119404,"current_range_meters":8400,"station_id":"","pricing_plan_id":"cebpf4jnsgd1na2vs0mg"},{"bike_id":"673ecb1c-3c74-40ab-9a00-6cbdc45f6105","system_id":"levelo_inurba_marseille","lat":43.31191,"lon":5.38747,"is_reserved":false,"is_disabled":false,"rental_uris":{"android":"levelo://app?vid=673ecb1c-3c74-40ab-9a00-6cbdc45f6105","ios":"levelo://app?vid=673ecb1c-3c74-40ab-9a00-6cbdc45f6105"},"vehicle_type_id":"4","last_reported":1773119404,"current_range_meters":10000,"station_id":"ce4bgv12rcd13ifvqcp0","pricing_plan_id":"cebpf4jnsgd1na2vs0mg"},{"bike_id":"5c273636-369d-4efb-9366-f2e5aaee6cc2","system_id":"levelo_inurba_marseille","lat":43.28611,"lon":5.35117,"is_reserved":false,"is_disabled":false,"rental_uris":{"android":"levelo://app?vid=5c273636-369d-4efb-9366-f2e5aaee6cc2","ios":"levelo://app?vid=5c273636-369d-4efb-9366-f2e5aaee6cc2"},"vehicle_type_id":"4","last_reported":1773119404,"current_range_meters":28400,"station_id":"ce4bhch2rcd13ifvqeug","pricing_plan_id":"cebpf4jnsgd1na2vs0mg"},{"bike_id":"d9c877ad-2745-4872-959b-5e145e9ec22d","system_id":"levelo_inurba_marseille","lat":43.29626,"lon":5.37168,"is_reserved":false,"is_disabled":true,"rental_uris":{"android":"levelo://app?vid=d9c877ad-2745-4872-959b-5e145e9ec22d","ios":"levelo://app?vid=d9c877ad-2745-4872-959b-5e145e9ec22d"},"vehicle_type_id":"4","last_reported":1773119404,"current_range_meters":18800,"station_id":"ce4bgnh2rcd13ifvqc0g","pricing_plan_id":"cebpf4jnsgd1na2vs0mg"},{"bike_id":"0ecda699-8b02-4d20-95be-6ef5eca1ff06","system_id":"levelo_inurba_marseille","lat":43.27938,"lon":5.4105,"is_reserved":false,"is_disabled":false,"rental_uris":{"android":"levelo://app?vid=0ecda699-8b02-4d20-95be-6ef5eca1ff06","ios":"levelo://app?vid=0ecda699-8b02-4d20-95be-6ef5eca1ff06"},"vehicle_type_id":"4","last_reported":1773119404,"current_range_meters":35200,"station_id":"ce4bhnp2rcd13ifvqh0g","pricing_plan_id":"cebpf4jnsgd1na2vs0mg"},{"bike_id":"44188d4d-0454-4ff4-a00c-e668f2c93144","system_id":"levelo_inurba_marseille","lat":43.29763,"lon":5.371,"is_reserved":false,"is_disabled":false,"rental_uris":{"android":"levelo://app?vid=44188d4d-0454-4ff4-a00c-e668f2c93144","ios":"levelo://app?vid=44188d4d-0454-4ff4-a00c-e668f2c93144"},"vehicle_type_id":"4","last_reported":1773119404,"current_range_meters":39200,"station_id":"ce4bgop2rcd13ifvqc1g","pricing_plan_id":"cebpf4jnsgd1na2vs0mg"},{"bike_id":"c0a8d39f-33d4-4764-96bd-51661ab48a16","system_id":"levelo_inurba_marseille","lat":43.24805,"lon":5.37462,"is_reserved":false,"is_disabled":false,"rental_uris":{"android":"levelo://app?vid=c0a8d39f-33d4-4764-96bd-51661ab48a16","ios":"levelo://app?vid=c0a8d39f-33d4-4764-96bd-51661ab48a16"},"vehicle_type_id":"4","last_reported":1773119404,"current_range_meters":25200,"station_id":"ce4bhgh2rcd13ifvqfb0","pricing_plan_id":"cebpf4jnsgd1na2vs0mg"},{"bike_id":"204d42a9-563d-4c76-915f-f87f91c21570","system_id":"levelo_inurba_marseille","lat":43.31489,"lon":5.37307,"is_reserved":false,"is_disabled":false,"rental_uris":{"android":"levelo://app?vid=204d42a9-563d-4c76-915f-f87f91c21570","ios":"levelo://app?vid=204d42a9-563d-4c76-915f-f87f91c21570"},"vehicle_type_id":"4","last_reported":1773119404,"current_range_meters":32800,"station_id":"ce4bgt12rcd13ifvqcd0","pricing_plan_id":"cebpf4jnsgd1na2vs0mg"},{"bike_id":"b708976c-2a36-497f-8637-f1523d59ea21","system_id":"levelo_inurba_marseille","lat":43.26681,"lon":5.38279,"is_reserved":false,"is_disabled":false,"rental_uris":{"android":"levelo://app?vid=b708976c-2a36-497f-8637-f1523d59ea21","ios":"levelo://app?vid=b708976c-2a36-497f-8637-f1523d59ea21"},"vehicle_type_id":"4","last_reported":1773119404,"current_range_meters":24000,"station_id":"ce4bhg92rcd13ifvqf90","pricing_plan_id":"cebpf4jnsgd1na2vs0mg"},{"bike_id":"e7067358-a3a2-46fb-b7fb-a3dd0ca39f7e","system_id":"levelo_inurba_marseille","lat":43.29984,"lon":5.38519,"is_reserved":false,"is_disabled":false,"rental_uris":{"android":"levelo://app?vid=e7067358-a3a2-46fb-b7fb-a3dd0ca39f7e","ios":"levelo://app?vid=e7067358-a3a2-46fb-b7fb-a3dd0ca39f7e"},"vehicle_type_id":"4","last_reported":1773119404,"current_range_meters":8400,"station_id":"ce4bgj92rcd13ifvqbd0","pricing_plan_id":"cebpf4jnsgd1na2vs0mg"},{"bike_id":"23fc598d-f808-4287-a2fb-dcbe6bd11524","system_id":"levelo_inurba_marseille","lat":43.2848,"lon":5.4841,"is_reserved":false,"is_disabled":false,"rental_uris":{"android":"levelo://app?vid=23fc598d-f808-4287-a2fb-dcbe6bd11524","ios":"levelo://app?vid=23fc598d-f808-4287-a2fb-dcbe6bd11524"},"vehicle_type_id":"4","last_reported":1773119404,"current_range_meters":39200,"station_id":"","pricing_plan_id":"cebpf4jnsgd1na2vs0mg"},{"bike_id":"f0d85e77-c78a-4899-b931-126b1bdccc38","system_id":"levelo_inurba_marseille","lat":43.22561,"lon":5.41627,"is_reserved":false,"is_disabled":false,"rental_uris":{"android":"levelo://app?vid=f0d85e77-c78a-4899-b931-126b1bdccc38","ios":"levelo://app?vid=f0d85e77-c78a-4899-b931-126b1bdccc38"},"vehicle_type_id":"4","last_reported":1773119404,"current_range_meters":11600,"station_id":"st_d2o4gvlbi1j2169b742g","pricing_plan_id":"cebpf4jnsgd1na2vs0mg"},{"bike_id":"8ca68117-4e19-4785-89f3-c2c347118044","system_id":"levelo_inurba_marseille","lat":43.30782,"lon":5.37663,"is_reserved":false,"is_disabled":false,"rental_uris":{"android":"levelo://app?vid=8ca68117-4e19-4785-89f3-c2c347118044","ios":"levelo://app?vid=8ca68117-4e19-4785-89f3-c2c347118044"},"vehicle_type_id":"4","last_reported":1773119404,"current_range_meters":38800,"station_id":"ce4bgv92rcd13ifvqcq0","pricing_plan_id":"cebpf4jnsgd1na2vs0mg"},{"bike_id":"e9604475-f41d-43cc-88ba-d2046a144fb1","system_id":"levelo_inurba_marseille","lat":43.29532,"lon":5.38549,"is_reserved":false,"is_disabled":true,"rental_uris":{"android":"levelo://app?vid=e9604475-f41d-43cc-88ba-d2046a144fb1","ios":"levelo://app?vid=e9604475-f41d-43cc-88ba-d2046a144fb1"},"vehicle_type_id":"4","last_reported":1773119404,"current_range_meters":4000,"station_id":"ce4bgih2rcd13ifvqba0","pricing_plan_id":"cebpf4jnsgd1na2vs0mg"},{"bike_id":"1cb3384f-6f44-4c55-b1c9-12417786f9c6","system_id":"levelo_inurba_marseille","lat":43.29047,"lon":5.359,"is_reserved":false,"is_disabled":false,"rental_uris":{"android":"levelo://app?vid=1cb3384f-6f44-4c55-b1c9-12417786f9c6","ios":"levelo://app?vid=1cb3384f-6f44-4c55-b1c9-12417786f9c6"},"vehicle_type_id":"4","last_reported":1773119404,"current_range_meters":38400,"station_id":"ce4bha92rcd13ifvqeg0","pricing_plan_id":"cebpf4jnsgd1na2vs0mg"},{"bike_id":"40e0d2e9-37fe-4a04-bb36-4e76f8c7199c","system_id":"levelo_inurba_marseille","lat":43.32098,"lon":5.36793,"is_reserved":false,"is_disabled":false,"rental_uris":{"android":"levelo://app?vid=40e0d2e9-37fe-4a04-bb36-4e76f8c7199c","ios":"levelo://app?vid=40e0d2e9-37fe-4a04-bb36-4e76f8c7199c"},"vehicle_type_id":"4","last_reported":1773119404,"current_range_meters":29600,"station_id":"ce4bhrh2rcd13ifvqhug","pricing_plan_id":"cebpf4jnsgd1na2vs0mg"},{"bike_id":"35a73586-0b7c-4587-8739-0b1dd2e2c89c","system_id":"levelo_inurba_marseille","lat":43.2973,"lon":5.37713,"is_reserved":false,"is_disabled":false,"rental_uris":{"android":"levelo://app?vid=35a73586-0b7c-4587-8739-0b1dd2e2c89c","ios":"levelo://app?vid=35a73586-0b7c-4587-8739-0b1dd2e2c89c"},"vehicle_type_id":"4","last_reported":1773119404,"current_range_meters":39200,"station_id":"ce4bgkh2rcd13ifvqbl0","pricing_plan_id":"cebpf4jnsgd1na2vs0mg"},{"bike_id":"600f0194-1759-4450-9e6b-dbdac2ac53b7","system_id":"levelo_inurba_marseille","lat":43.28874,"lon":5.42517,"is_reserved":false,"is_disabled":false,"rental_uris":{"android":"levelo://app?vid=600f0194-1759-4450-9e6b-dbdac2ac53b7","ios":"levelo://app?vid=600f0194-1759-4450-9e6b-dbdac2ac53b7"},"vehicle_type_id":"4","last_reported":1773119404,"current_range_meters":6000,"station_id":"st_d3b462108ojc7389ooeg","pricing_plan_id":"cebpf4jnsgd1na2vs0mg"},{"bike_id":"684e94f2-2589-410b-b6b7-b8394f60141e","system_id":"levelo_inurba_marseille","lat":43.30584,"lon":5.3937,"is_reserved":false,"is_disabled":false,"rental_uris":{"android":"levelo://app?vid=684e94f2-2589-410b-b6b7-b8394f60141e","ios":"levelo://app?vid=684e94f2-2589-410b-b6b7-b8394f60141e"},"vehicle_type_id":"4","last_reported":1773119404,"current_range_meters":38400,"station_id":"ce4bh0p2rcd13ifvqd80","pricing_plan_id":"cebpf4jnsgd1na2vs0mg"},{"bike_id":"0cf99106-cd6a-448d-aff8-27512a7f97f4","system_id":"levelo_inurba_marseille","lat":43.24677,"lon":5.38162,"is_reserved":false,"is_disabled":false,"rental_uris":{"android":"levelo://app?vid=0cf99106-cd6a-448d-aff8-27512a7f97f4","ios":"levelo://app?vid=0cf99106-cd6a-448d-aff8-27512a7f97f4"},"vehicle_type_id":"4","last_reported":1773119404,"current_range_meters":38000,"station_id":"ce4bhih2rcd13ifvqfr0","pricing_plan_id":"cebpf4jnsgd1na2vs0mg"},{"bike_id":"d59f6bda-e40b-42f3-90c3-d9ad1181f0c5","system_id":"levelo_inurba_marseille","lat":43.24652,"lon":5.38883,"is_reserved":false,"is_disabled":false,"rental_uris":{"android":"levelo://app?vid=d59f6bda-e40b-42f3-90c3-d9ad1181f0c5","ios":"levelo://app?vid=d59f6bda-e40b-42f3-90c3-d9ad1181f0c5"},"vehicle_type_id":"4","last_reported":1773119404,"current_range_meters":19200,"station_id":"ce4bhg12rcd13ifvqf60","pricing_plan_id":"cebpf4jnsgd1na2vs0mg"},{"bike_id":"5d323465-5cff-4ff4-bee5-e4d77c6b0042","system_id":"levelo_inurba_marseille","lat":43.2905,"lon":5.35913,"is_reserved":false,"is_disabled":false,"rental_uris":{"android":"levelo://app?vid=5d323465-5cff-4ff4-bee5-e4d77c6b0042","ios":"levelo://app?vid=5d323465-5cff-4ff4-bee5-e4d77c6b0042"},"vehicle_type_id":"4","last_reported":1773119404,"current_range_meters":19200,"station_id":"ce4bha92rcd13ifvqeg0","pricing_plan_id":"cebpf4jnsgd1na2vs0mg"},{"bike_id":"a8247268-887b-4788-8297-8a5ea6c85260","system_id":"levelo_inurba_marseille","lat":43.30119,"lon":5.39872,"is_reserved":false,"is_disabled":false,"rental_uris":{"android":"levelo://app?vid=a8247268-887b-4788-8297-8a5ea6c85260","ios":"levelo://app?vid=a8247268-887b-4788-8297-8a5ea6c85260"},"vehicle_type_id":"4","last_reported":1773119404,"current_range_meters":38400,"station_id":"ce4bh0h2rcd13ifvqd40","pricing_plan_id":"cebpf4jnsgd1na2vs0mg"},{"bike_id":"9a4c9fe6-93e6-431c-8db6-1a67b0134b2c","system_id":"levelo_inurba_marseille","lat":43.26551,"lon":5.37316,"is_reserved":false,"is_disabled":false,"rental_uris":{"android":"levelo://app?vid=9a4c9fe6-93e6-431c-8db6-1a67b0134b2c","ios":"levelo://app?vid=9a4c9fe6-93e6-431c-8db6-1a67b0134b2c"},"vehicle_type_id":"4","last_reported":1773119404,"current_range_meters":39200,"station_id":"ce4bhg12rcd13ifvqf70","pricing_plan_id":"cebpf4jnsgd1na2vs0mg"},{"bike_id":"54aa5aea-6018-471a-96e1-3c75b95f3618","system_id":"levelo_inurba_marseille","lat":43.29917,"lon":5.38607,"is_reserved":false,"is_disabled":false,"rental_uris":{"android":"levelo://app?vid=54aa5aea-6018-471a-96e1-3c75b95f3618","ios":"levelo://app?vid=54aa5aea-6018-471a-96e1-3c75b95f3618"},"vehicle_type_id":"4","last_reported":1773119404,"current_range_meters":32400,"station_id":"","pricing_plan_id":"cebpf4jnsgd1na2vs0mg"},{"bike_id":"e22cffa9-ae57-4fe2-b9be-b70d692bac5d","system_id":"levelo_inurba_marseille","lat":43.29197,"lon":5.39332,"is_reserved":false,"is_disabled":false,"rental_uris":{"android":"levelo://app?vid=e22cffa9-ae57-4fe2-b9be-b70d692bac5d","ios":"levelo://app?vid=e22cffa9-ae57-4fe2-b9be-b70d692bac5d"},"vehicle_type_id":"4","last_reported":1773119404,"current_range_meters":39200,"station_id":"ce4bh192rcd13ifvqdd0","pricing_plan_id":"cebpf4jnsgd1na2vs0mg"},{"bike_id":"4d650b84-4c87-42d2-8dd7-e4c822bb0148","system_id":"levelo_inurba_marseille","lat":43.2958,"lon":5.37508,"is_reserved":false,"is_disabled":false,"rental_uris":{"android":"levelo://app?vid=4d650b84-4c87-42d2-8dd7-e4c822bb0148","ios":"levelo://app?vid=4d650b84-4c87-42d2-8dd7-e4c822bb0148"},