{"last_updated":1747484267,"ttl":60,"version":"2.2","data":{"bikes":[{"bike_id":"e1e6f58a-da04-4ede-80bc-2c8e46a27eef","system_id":"levelo_inurba_marseille","lat":43.23185,"lon":5.35553,"is_reserved":false,"is_disabled":false,"rental_uris":{"android":"levelo://app?vid=e1e6f58a-da04-4ede-80bc-2c8e46a27eef","ios":"levelo://app?vid=e1e6f58a-da04-4ede-80bc-2c8e46a27eef"},"vehicle_type_id":"4","last_reported":1747484267,"current_range_meters":2800,"station_id":"ce4bhu92rcd13ifvqi70","pricing_plan_id":"cebpf4jnsgd1na2vs0mg"},{"bike_id":"f03cbb86-1380-4293-8567-f7212ddf3dc6","system_id":"levelo_inurba_marseille","lat":43.23143,"lon":5.43714,"is_reserved":false,"is_disabled":false,"rental_uris":{"android":"levelo://app?vid=f03cbb86-1380-4293-8567-f7212ddf3dc6","ios":"levelo://app?vid=f03cbb86-1380-4293-8567-f7212ddf3dc6"},"vehicle_type_id":"4","last_reported":1747484267,"current_range_meters":2800,"station_id":"ce4bhmp2rcd13ifvqgog","pricing_plan_id":"cebpf4jnsgd1na2vs0mg"},{"bike_id":"8db3239e-b521-4507-bece-c783e73b4bf0","system_id":"levelo_inurba_marseille","lat":43.24069,"lon":5.37763,"is_reserved":false,"is_disabled":true,"rental_uris":{"android":"levelo://app?vid=8db3239e-b521-4507-bece-c783e73b4bf0","ios":"levelo://app?vid=8db3239e-b521-4507-bece-c783e73b4bf0"},"vehicle_type_id":"4","last_reported":1747484267,"current_range_meters":2800,"station_id":"ce4bhnp2rcd13ifvqgvg","pricing_plan_id":"cebpf4jnsgd1na2vs0mg"},{"bike_id":"65f695fc-894a-427e-86f7-a2b254b896dd","system_id":"levelo_inurba_marseille","lat":43.29769,"lon":5.37093,"is_reserved":false,"is_disabled":false,"rental_uris":{"android":"levelo://app?vid=65f695fc-894a-427e-86f7-a2b254b896dd","ios":"levelo://app?vid=65f695fc-894a-427e-86f7-a2b254b896dd"},"vehicle_type_id":"4","last_reported":1747484267,"current_range_meters":2800,"station_id":"ce4bgop2rcd13ifvqc1g","pricing_plan_id":"cebpf4jnsgd1na2vs0mg"},{"bike_id":"5fb95ce7-d329-40d2-bd36-e1aa7291159e","system_id":"levelo_inurba_marseille","lat":43.29584,"lon":5.36749,"is_reserved":false,"is_disabled":false,"rental_uris":{"android":"levelo://app?vid=5fb95ce7-d329-40d2-bd36-e1aa7291159e","ios":"levelo://app?vid=5fb95ce7-d329-40d2-bd36-e1aa7291159e"},"vehicle_type_id":"4","last_reported":1747484267,"current_range_meters":2800,"station_id":"ce4bgph2rcd13ifvqc2g","pricing_plan_id":"cebpf4jnsgd1na2vs0mg"},{"bike_id":"a4e393aa-bd2c-4b76-ab71-125453ac0062","system_id":"levelo_inurba_marseille","lat":43.28269,"lon":5.35073,"is_reserved":false,"is_disabled":false,"rental_uris":{"android":"levelo://app?vid=a4e393aa-bd2c-4b76-ab71-125453ac0062","ios":"levelo://app?vid=a4e393aa-bd2c-4b76-ab71-125453ac0062"},"vehicle_type_id":"4","last_reported":1747484267,"current_range_meters":2000,"station_id":"ce4bhbp2rcd13ifvqerg","pricing_plan_id":"cebpf4jnsgd1na2vs0mg"},{"bike_id":"a4254f33-dfdc-4beb-9ee4-21271a8a3aac","system_id":"levelo_inurba_marseille","lat":43.30406,"lon":5.41268,"is_reserved":false,"is_disabled":true,"rental_uris":{"android":"levelo://app?vid=a4254f33-dfdc-4beb-9ee4-21271a8a3aac","ios":"levelo://app?vid=a4254f33-dfdc-4beb-9ee4-21271a8a3aac"},"vehicle_type_id":"4","last_reported":1747484267,"current_range_meters":2800,"station_id":"ce4bhop2rcd13ifvqh8g","pricing_plan_id":"cebpf4jnsgd1na2vs0mg"},{"bike_id":"761aac47-4e84-4135-b752-c5990dfcd565","system_id":"levelo_inurba_marseille","lat":43.23183,"lon":5.39976,"is_reserved":false,"is_disabled":false,"rental_uris":{"android":"levelo://app?vid=761aac47-4e84-4135-b752-c5990dfcd565","ios":"levelo://app?vid=761aac47-4e84-4135-b752-c5990dfcd565"},"vehicle_type_id":"4","last_reported":1747484267,"current_range_meters":2800,"station_id":"ce4bhn12rcd13ifvqgqg","pricing_plan_id":"cebpf4jnsgd1na2vs0mg"},{"bike_id":"1c24402a-3fe8-43d2-80c4-f7d5ab9479d7","system_id":"levelo_inurba_marseille","lat":43.28259,"lon":5.35074,"is_reserved":false,"is_disabled":false,"rental_uris":{"android":"levelo://app?vid=1c24402a-3fe8-43d2-80c4-f7d5ab9479d7","ios":"levelo://app?vid=1c24402a-3fe8-43d2-80c4-f7d5ab9479d7"},"vehicle_type_id":"4","last_reported":1747484267,"current_range_meters":3200,"station_id":"ce4bhbp2rcd13ifvqerg","pricing_plan_id":"cebpf4jnsgd1na2vs0mg"},{"bike_id":"0432f1f1-77d9-44f2-ad72-c85ba49890d8","system_id":"levelo_inurba_marseille","lat":43.3058,"lon":5.37229,"is_reserved":false,"is_disabled":false,"rental_uris":{"android":"levelo://app?vid=0432f1f1-77d9-44f2-ad72-c85ba49890d8","ios":"levelo://app?vid=0432f1f1-77d9-44f2-ad72-c85ba49890d8"},"vehicle_type_id":"4","last_reported":1747484267,"current_range_meters":2800,"station_id":"ce4bgqh2rcd13ifvqc4g","pricing_plan_id":"cebpf4jnsgd1na2vs0mg"},{"bike_id":"ddf407ea-46b1-4567-b207-4287b58d8b38","system_id":"levelo_inurba_marseille","lat":43.29005,"lon":5.35613,"is_reserved":false,"is_disabled":false,"rental_uris":{"android":"levelo://app?vid=ddf407ea-46b1-4567-b207-4287b58d8b38","ios":"levelo://app?vid=ddf407ea-46b1-4567-b207-4287b58d8b38"},"vehicle_type_id":"4","last_reported":1747484267,"current_range_meters":3200,"station_id":"ce4bhb92rcd13ifvqen0","pricing_plan_id":"cebpf4jnsgd1na2vs0mg"},{"bike_id":"8923128d-157c-47db-a90e-cf035ed6ee32","system_id":"levelo_inurba_marseille","lat":43.2318,"lon":5.39992,"is_reserved":false,"is_disabled":false,"rental_uris":{"android":"levelo://app?vid=8923128d-157c-47db-a90e-cf035ed6ee32","ios":"levelo://app?vid=8923128d-157c-47db-a90e-cf035ed6ee32"},"vehicle_type_id":"4","last_reported":1747484267,"current_range_meters":3200,"station_id":"ce4bhn12rcd13ifvqgqg","pricing_plan_id":"cebpf4jnsgd1na2vs0mg"},{"bike_id":"527a7f53-cdc7-461d-b3a2-6261a971fabc","system_id":"levelo_inurba_marseille","lat":43.2319,"lon":5.3555,"is_reserved":false,"is_disabled":false,"rental_uris":{"android":"levelo://app?vid=527a7f53-cdc7-461d-b3a2-6261a971fabc","ios":"levelo://app?vid=527a7f53-cdc7-461d-b3a2-6261a971fabc"},"vehicle_type_id":"4","last_reported":1747484267,"current_range_meters":3200,"station_id":"ce4bhu92rcd13ifvqi70","pricing_plan_id":"cebpf4jnsgd1na2vs0mg"},{"bike_id":"7a57db59-487b-48f4-91d6-7ac0920927b0","system_id":"levelo_inurba_marseille","lat":43.23202,"lon":5.35558,"is_reserved":false,"is_disabled":false,"rental_uris":{"android":"levelo://app?vid=7a57db59-487b-48f4-91d6-7ac0920927b0","ios":"levelo://app?vid=7a57db59-487b-48f4-91d6-7ac0920927b0"},"vehicle_type_id":"4","last_reported":1747484267,"current_range_meters":3200,"station_id":"ce4bhu92rcd13ifvqi70","pricing_plan_id":"cebpf4jnsgd1na2vs0mg"},{"bike_id":"286afc86-edeb-4df2-925a-f34e433925f3","system_id":"levelo_inurba_marseille","lat":43.22927,"lon":5.35371,"is_reserved":false,"is_disabled":false,"rental_uris":{"android":"levelo://app?vid=286afc86-edeb-4df2-925a-f34e433925f3","ios":"levelo://app?vid=286afc86-edeb-4df2-925a-f34e433925f3"},"vehicle_type_id":"4","last_reported":1747484267,"current_range_meters":3600,"station_id":"cpo3532slgdg3j2ikp40","pricing_plan_id":"cebpf4jnsgd1na2vs0mg"},{"bike_id":"f2f6833a-8194-48b1-82da-61de66ee6c8d","system_id":"levelo_inurba_marseille","lat":43.23191,"lon":5.35542,"is_reserved":false,"is_disabled":false,"rental_uris":{"android":"levelo://app?vid=f2f6833a-8194-48b1-82da-61de66ee6c8d","ios":"levelo://app?vid=f2f6833a-8194-48b1-82da-61de66ee6c8d"},"vehicle_type_id":"4","last_reported":1747484267,"current_range_meters":3600,"station_id":"ce4bhu92rcd13ifvqi70","pricing_plan_id":"cebpf4jnsgd1na2vs0mg"},{"bike_id":"59e33bab-443b-4b82-946a-94b602858b07","system_id":"levelo_inurba_marseille","lat":43.30543,"lon":5.36526,"is_reserved":false,"is_disabled":false,"rental_uris":{"android":"levelo://app?vid=59e33bab-443b-4b82-946a-94b602858b07","ios":"levelo://app?vid=59e33bab-443b-4b82-946a-94b602858b07"},"vehicle_type_id":"4","last_reported":1747484267,"current_range_meters":3600,"station_id":"ce4bgs12rcd13ifvqcag","pricing_plan_id":"cebpf4jnsgd1na2vs0mg"},{"bike_id":"1fe9f4eb-69dc-4a09-8da0-22f8aa4a6f7c","system_id":"levelo_inurba_marseille","lat":43.28408,"lon":5.34986,"is_reserved":false,"is_disabled":false,"rental_uris":{"android":"levelo://app?vid=1fe9f4eb-69dc-4a09-8da0-22f8aa4a6f7c","ios":"levelo://app?vid=1fe9f4eb-69dc-4a09-8da0-22f8aa4a6f7c"},"vehicle_type_id":"4","last_reported":1747484267,"current_range_meters":4000,"station_id":"ce4bhbh2rcd13ifvqepg","pricing_plan_id":"cebpf4jnsgd1na2vs0mg"},{"bike_id":"58c31871-bfff-4d86-8b25-70a8f95e2f92","system_id":"levelo_inurba_marseille","lat":43.28413,"lon":5.34979,"is_reserved":false,"is_disabled":false,"rental_uris":{"android":"levelo://app?vid=58c31871-bfff-4d86-8b25-70a8f95e2f92","ios":"levelo://app?vid=58c31871-bfff-4d86-8b25-70a8f95e2f92"},"vehicle_type_id":"4","last_reported":1747484267,"current_range_meters":4000,"station_id":"ce4bhbh2rcd13ifvqepg","pricing_plan_id":"cebpf4jnsgd1na2vs0mg"},{"bike_id":"6ab72219-d702-45c7-a970-f288de87e547","system_id":"levelo_inurba_marseille","lat":43.28265,"lon":5.35056,"is_reserved":false,"is_disabled":false,"rental_uris":{"android":"levelo://app?vid=6ab72219-d702-45c7-a970-f288de87e547","ios":"levelo://app?vid=6ab72219-d702-45c7-a970-f288de87e547"},"vehicle_type_id":"4","last_reported":1747484267,"current_range_meters":4000,"station_id":"ce4bhbp2rcd13ifvqerg","pricing_plan_id":"cebpf4jnsgd1na2vs0mg"},{"bike_id":"7bcc745c-14c3-433f-8f69-70aec284b7ba","system_id":"levelo_inurba_marseille","lat":43.29846,"lon":5.36282,"is_reserved":false,"is_disabled":false,"rental_uris":{"android":"levelo://app?vid=7bcc745c-14c3-433f-8f69-70aec284b7ba","ios":"levelo://app?vid=7bcc745c-14c3-433f-8f69-70aec284b7ba"},"vehicle_type_id":"4","last_reported":1747484267,"current_range_meters":4000,"station_id":"ce4bgpp2rcd13ifvqc3g","pricing_plan_id":"cebpf4jnsgd1na2vs0mg"},{"bike_id":"2a9eb810-c7fb-4a86-8b44-5a497a96550e","system_id":"levelo_inurba_marseille","lat":43.27381,"lon":5.36252,"is_reserved":false,"is_disabled":false,"rental_uris":{"android":"levelo://app?vid=2a9eb810-c7fb-4a86-8b44-5a497a96550e","ios":"levelo://app?vid=2a9eb810-c7fb-4a86-8b44-5a497a96550e"},"vehicle_type_id":"4","last_reported":1747484267,"current_range_meters":4000,"station_id":"ce4bhbh2rcd13ifvqeo0","pricing_plan_id":"cebpf4jnsgd1na2vs0mg"},{"bike_id":"b297b32b-72f1-47a4-9e2e-44162528f5e1","system_id":"levelo_inurba_marseille","lat":43.229361,"lon":5.353846,"is_reserved":false,"is_disabled":false,"rental_uris":{"android":"levelo://app?vid=b297b32b-72f1-47a4-9e2e-44162528f5e1","ios":"levelo://app?vid=b297b32b-72f1-47a4-9e2e-44162528f5e1"},"vehicle_type_id":"4","last_reported":1747484267,"current_range_meters":4000,"station_id":"cpo3532slgdg3j2ikp40","pricing_plan_id":"cebpf4jnsgd1na2vs0mg"},{"bike_id":"82029b52-52ed-4789-8f93-a19fa73d2e2c","system_id":"levelo_inurba_marseille","lat":43.23189,"lon":5.3555,"is_reserved":false,"is_disabled":false,"rental_uris":{"android":"levelo://app?vid=82029b52-52ed-4789-8f93-a19fa73d2e2c","ios":"levelo://app?vid=82029b52-52ed-4789-8f93-a19fa73d2e2c"},"vehicle_type_id":"4","last_reported":1747484267,"current_range_meters":4000,"station_id":"ce4bhu92rcd13ifvqi70","pricing_plan_id":"cebpf4jnsgd1na2vs0mg"},{"bike_id":"06e20113-a5f1-4fe5-b188-f647ff408cc7","system_id":"levelo_inurba_marseille","lat":43.27682,"lon":5.41962,"is_reserved":false,"is_disabled":false,"rental_uris":{"android":"levelo://app?vid=06e20113-a5f1-4fe5-b188-f647ff408cc7","ios":"levelo://app?vid=06e20113-a5f1-4fe5-b188-f647ff408cc7"},"vehicle_type_id":"4","last_reported":1747484267,"current_range_meters":4400,"station_id":"","pricing_plan_id":"cebpf4jnsgd1na2vs0mg"},{"bike_id":"cb9b0e40-e3fa-4959-953e-a8207c4d980e","system_id":"levelo_inurba_marseille","lat":43.27991,"lon":5.400103,"is_reserved":false,"is_disabled":false,"rental_uris":{"android":"levelo://app?vid=cb9b0e40-e3fa-4959-953e-a8207c4d980e","ios":"levelo://app?vid=cb9b0e40-e3fa-4959-953e-a8207c4d980e"},"vehicle_type_id":"4","last_reported":1747484267,"current_range_meters":4400,"station_id":"ce4bho92rcd13ifvqh4g","pricing_plan_id":"cebpf4jnsgd1na2vs0mg"},{"bike_id":"bc63f2c9-c890-445f-9d10-29cfa536525f","system_id":"levelo_inurba_marseille","lat":43.2603,"lon":5.37545,"is_reserved":false,"is_disabled":false,"rental_uris":{"android":"levelo://app?vid=bc63f2c9-c890-445f-9d10-29cfa536525f","ios":"levelo://app?vid=bc63f2c9-c890-445f-9d10-29cfa536525f"},"vehicle_type_id":"4","last_reported":1747484267,"current_range_meters":4800,"station_id":"ce4bhgh2rcd13ifvqfa0","pricing_plan_id":"cebpf4jnsgd1na2vs0mg"},{"bike_id":"d06a81f7-6bbe-4687-bfbe-932949dc466c","system_id":"levelo_inurba_marseille","lat":43.26107,"lon":5.38767,"is_reserved":false,"is_disabled":false,"rental_uris":{"android":"levelo://app?vid=d06a81f7-6bbe-4687-bfbe-932949dc466c","ios":"levelo://app?vid=d06a81f7-6bbe-4687-bfbe-932949dc466c"},"vehicle_type_id":"4","last_reported":1747484267,"current_range_meters":4800,"station_id":"","pricing_plan_id":"cebpf4jnsgd1na2vs0mg"},{"bike_id":"61159754-233e-4c9f-9a88-ae2a620745c1","system_id":"levelo_inurba_marseille","lat":43.2924,"lon":5.4012,"is_reserved":false,"is_disabled":true,"rental_uris":{"android":"levelo://app?vid=61159754-233e-4c9f-9a88-ae2a620745c1","ios":"levelo://app?vid=61159754-233e-4c9f-9a88-ae2a620745c1"},"vehicle_type_id":"4","last_reported":1747484267,"current_range_meters":4800,"station_id":"ce4bh312rcd13ifvqdk0","pricing_plan_id":"cebpf4jnsgd1na2vs0mg"},{"bike_id":"f60743d0-8cbf-4386-87d9-1cc250dcb7e9","system_id":"levelo_inurba_marseille","lat":43.319983,"lon":5.38161,"is_reserved":false,"is_disabled":false,"rental_uris":{"android":"levelo://app?vid=f60743d0-8cbf-4386-87d9-1cc250dcb7e9","ios":"levelo://app?vid=f60743d0-8cbf-4386-87d9-1cc250dcb7e9"},"vehicle_type_id":"4","last_reported":1747484267,"current_range_meters":4800,"station_id":"ce4bhr12rcd13ifvqhpg","pricing_plan_id":"cebpf4jnsgd1na2vs0mg"},{"bike_id":"9978a605-f18f-4dd7-835a-77a8a7f4f3dc","system_id":"levelo_inurba_marseille","lat":43.28618,"lon":5.35101,"is_reserved":false,"is_disabled":false,"rental_uris":{"android":"levelo://app?vid=9978a605-f18f-4dd7-835a-77a8a7f4f3dc","ios":"levelo://app?vid=9978a605-f18f-4dd7-835a-77a8a7f4f3dc"},"vehicle_type_id":"4","last_reported":1747484267,"current_range_meters":4800,"station_id":"ce4bhch2rcd13ifvqeug","pricing_plan_id":"cebpf4jnsgd1na2vs0mg"},{"bike_id":"53ae4f8b-68fd-44fb-b4a8-162027bff52f","system_id":"levelo_inurba_marseille","lat":43.21186,"lon":5.35066,"is_reserved":false,"is_disabled":false,"rental_uris":{"android":"levelo://app?vid=53ae4f8b-68fd-44fb-b4a8-162027bff52f","ios":"levelo://app?vid=53ae4f8b-68fd-44fb-b4a8-162027bff52f"},"vehicle_type_id":"4","last_reported":1747484267,"current_range_meters":4800,"station_id":"st_cvj6sg6p6f1abm77japg","pricing_plan_id":"cebpf4jnsgd1na2vs0mg"},{"bike_id":"1e51600d-5b0b-4a10-970b-8d68d7f27dd7","system_id":"levelo_inurba_marseille","lat":43.23054,"lon":5.35487,"is_reserved":false,"is_disabled":true,"rental_uris":{"android":"levelo://app?vid=1e51600d-5b0b-4a10-970b-8d68d7f27dd7","ios":"levelo://app?vid=1e51600d-5b0b-4a10-970b-8d68d7f27dd7"},"vehicle_type_id":"4","last_reported":1747484267,"current_range_meters":4800,"station_id":"cpo3342slgdg3j2ifvpg","pricing_plan_id":"cebpf4jnsgd1na2vs0mg"},{"bike_id":"2e74be5f-20f2-44a2-bc00-047bfe1be06d","system_id":"levelo_inurba_marseille","lat":43.27818,"lon":5.407159,"is_reserved":false,"is_disabled":true,"rental_uris":{"android":"levelo://app?vid=2e74be5f-20f2-44a2-bc00-047bfe1be06d","ios":"levelo://app?vid=2e74be5f-20f2-44a2-bc00-047bfe1be06d"},"vehicle_type_id":"4","last_reported":1747484267,"current_range_meters":5600,"station_id":"ce4bhnh2rcd13ifvqgtg","pricing_plan_id":"cebpf4jnsgd1na2vs0mg"},{"bike_id":"6578c4df-dc14-4337-9faf-245a6b84ba5b","system_id":"levelo_inurba_marseille","lat":43.30185,"lon":5.36612,"is_reserved":false,"is_disabled":false,"rental_uris":{"android":"levelo://app?vid=6578c4df-dc14-4337-9faf-245a6b84ba5b","ios":"levelo://app?vid=6578c4df-dc14-4337-9faf-245a6b84ba5b"},"vehicle_type_id":"4","last_reported":1747484267,"current_range_meters":5600,"station_id":"ce4bgrh2rcd13ifvqc8g","pricing_plan_id":"cebpf4jnsgd1na2vs0mg"},{"bike_id":"05cfed21-0c71-4180-b280-607cd28c9c9a","system_id":"levelo_inurba_marseille","lat":43.23072,"lon":5.35492,"is_reserved":false,"is_disabled":false,"rental_uris":{"android":"levelo://app?vid=05cfed21-0c71-4180-b280-607cd28c9c9a","ios":"levelo://app?vid=05cfed21-0c71-4180-b280-607cd28c9c9a"},"vehicle_type_id":"4","last_reported":1747484267,"current_range_meters":5600,"station_id":"cpo3342slgdg3j2ifvpg","pricing_plan_id":"cebpf4jnsgd1na2vs0mg"},{"bike_id":"851dfc32-e798-47a2-bd2e-2fef9ffeb756","system_id":"levelo_inurba_marseille","lat":43.27621,"lon":5.36114,"is_reserved":false,"is_disabled":false,"rental_uris":{"android":"levelo://app?vid=851dfc32-e798-47a2-bd2e-2fef9ffeb756","ios":"levelo://app?vid=851dfc32-e798-47a2-bd2e-2fef9ffeb756"},"vehicle_type_id":"4","last_reported":1747484267,"current_range_meters":5600,"station_id":"ce4bgj92rcd13ifvqbe0","pricing_plan_id":"cebpf4jnsgd1na2vs0mg"},{"bike_id":"505ae8f0-0382-476b-94bc-5bed482793da","system_id":"levelo_inurba_marseille","lat":43.284183,"lon":5.349964,"is_reserved":false,"is_disabled":false,"rental_uris":{"android":"levelo://app?vid=505ae8f0-0382-476b-94bc-5bed482793da","ios":"levelo://app?vid=505ae8f0-0382-476b-94bc-5bed482793da"},"vehicle_type_id":"4","last_reported":1747484267,"current_range_meters":5600,"station_id":"","pricing_plan_id":"cebpf4jnsgd1na2vs0mg"},{"bike_id":"cd6e7f44-387b-4761-88a1-ce1b1cc531e4","system_id":"levelo_inurba_marseille","lat":43.28262,"lon":5.35055,"is_reserved":false,"is_disabled":false,"rental_uris":{"android":"levelo://app?vid=cd6e7f44-387b-4761-88a1-ce1b1cc531e4","ios":"levelo://app?vid=cd6e7f44-387b-4761-88a1-ce1b1cc531e4"},"vehicle_type_id":"4","last_reported":1747484267,"current_range_meters":5600,"station_id":"ce4bhbp2rcd13ifvqerg","pricing_plan_id":"cebpf4jnsgd1na2vs0mg"},{"bike_id":"c0b9fd4f-e181-46ce-b0bf-f5119973334f","system_id":"levelo_inurba_marseille","lat":43.33771,"lon":5.37424,"is_reserved":false,"is_disabled":false,"rental_uris":{"android":"levelo://app?vid=c0b9fd4f-e181-46ce-b0bf-f5119973334f","ios":"levelo://app?vid=c0b9fd4f-e181-46ce-b0bf-f5119973334f"},"vehicle_type_id":"4","last_reported":1747484267,"current_range_meters":5600,"station_id":"","pricing_plan_id":"cebpf4jnsgd1na2vs0mg"},{"bike_id":"9216c492-a7fc-4bb0-a87f-56625a38104b","system_id":"levelo_inurba_marseille","lat":43.28261,"lon":5.35059,"is_reserved":false,"is_disabled":false,"rental_uris":{"android":"levelo://app?vid=9216c492-a7fc-4bb0-a87f-56625a38104b","ios":"levelo://app?vid=9216c492-a7fc-4bb0-a87f-56625a38104b"},"vehicle_type_id":"4","last_reported":1747484267,"current_range_meters":6000,"station_id":"ce4bhbp2rcd13ifvqerg","pricing_plan_id":"cebpf4jnsgd1na2vs0mg"},{"bike_id":"923d62b3-a026-40be-89fc-11fd8181b7f9","system_id":"levelo_inurba_marseille","lat":43.26028,"lon":5.37545,"is_reserved":false,"is_disabled":false,"rental_uris":{"android":"levelo://app?vid=923d62b3-a026-40be-89fc-11fd8181b7f9","ios":"levelo://app?vid=923d62b3-a026-40be-89fc-11fd8181b7f9"},"vehicle_type_id":"4","last_reported":1747484267,"current_range_meters":6000,"station_id":"ce4bhgh2rcd13ifvqfa0","pricing_plan_id":"cebpf4jnsgd1na2vs0mg"},{"bike_id":"c2ecf7b3-bb1a-4d27-9138-19d083b55690","system_id":"levelo_inurba_marseille","lat":43.26209,"lon":5.37439,"is_reserved":false,"is_disabled":false,"rental_uris":{"android":"levelo://app?vid=c2ecf7b3-bb1a-4d27-9138-19d083b55690","ios":"levelo://app?vid=c2ecf7b3-bb1a-4d27-9138-19d083b55690"},"vehicle_type_id":"4","last_reported":1747484267,"current_range_meters":6000,"station_id":"ce4bhgp2rcd13ifvqfc0","pricing_plan_id":"cebpf4jnsgd1na2vs0mg"},{"bike_id":"70d3b1f9-5fc9-41d6-a648-045864f09d20","system_id":"levelo_inurba_marseille","lat":43.21753,"lon":5.34607,"is_reserved":false,"is_disabled":false,"rental_uris":{"android":"levelo://app?vid=70d3b1f9-5fc9-41d6-a648-045864f09d20","ios":"levelo://app?vid=70d3b1f9-5fc9-41d6-a648-045864f09d20"},"vehicle_type_id":"4","last_reported":1747484267,"current_range_meters":6400,"station_id":"st_cvj6r9ubvosntc0bgbag","pricing_plan_id":"cebpf4jnsgd1na2vs0mg"},{"bike_id":"05a7e669-0380-43f9-801b-1c4902f6fd6d","system_id":"levelo_inurba_marseille","lat":43.30377,"lon":5.42485,"is_reserved":false,"is_disabled":false,"rental_uris":{"android":"levelo://app?vid=05a7e669-0380-43f9-801b-1c4902f6fd6d","ios":"levelo://app?vid=05a7e669-0380-43f9-801b-1c4902f6fd6d"},"vehicle_type_id":"4","last_reported":1747484267,"current_range_meters":6400,"station_id":"ce4bhoh2rcd13ifvqh6g","pricing_plan_id":"cebpf4jnsgd1na2vs0mg"},{"bike_id":"27372271-ef96-4e49-a4e0-ad228605e572","system_id":"levelo_inurba_marseille","lat":43.30942,"lon":5.37256,"is_reserved":false,"is_disabled":false,"rental_uris":{"android":"levelo://app?vid=27372271-ef96-4e49-a4e0-ad228605e572","ios":"levelo://app?vid=27372271-ef96-4e49-a4e0-ad228605e572"},"vehicle_type_id":"4","last_reported":1747484267,"current_range_meters":6400,"station_id":"","pricing_plan_id":"cebpf4jnsgd1na2vs0mg"},{"bike_id":"7ddc6283-72bf-43a6-ab3b-fa4cee576bfd","system_id":"levelo_inurba_marseille","lat":43.28929,"lon":5.36644,"is_reserved":false,"is_disabled":false,"rental_uris":{"android":"levelo://app?vid=7ddc6283-72bf-43a6-ab3b-fa4cee576bfd","ios":"levelo://app?vid=7ddc6283-72bf-43a6-ab3b-fa4cee576bfd"},"vehicle_type_id":"4","last_reported":1747484267,"current_range_meters":6800,"station_id":"ce4bhap2rcd13ifvqek0","pricing_plan_id":"cebpf4jnsgd1na2vs0mg"},{"bike_id":"7438a3dc-7e35-453e-ba33-c11c46a43ab5","system_id":"levelo_inurba_marseille","lat":43.33735,"lon":5.39182,"is_reserved":false,"is_disabled":false,"rental_uris":{"android":"levelo://app?vid=7438a3dc-7e35-453e-ba33-c11c46a43ab5","ios":"levelo://app?vid=7438a3dc-7e35-453e-ba33-c11c46a43ab5"},"vehicle_type_id":"4","last_reported":1747484267,"current_range_meters":6800,"station_id":"ce4bhr92rcd13ifvqhsg","pricing_plan_id":"cebpf4jnsgd1na2vs0mg"},{"bike_id":"fb9287f8-936b-45a3-8914-0e3dcc1b1c82","system_id":"levelo_inurba_marseille","lat":43.32332,"lon":5.40625,"is_reserved":false,"is_disabled":false,"rental_uris":{"android":"levelo://app?vid=fb9287f8-936b-45a3-8914-0e3dcc1b1c82","ios":"levelo://app?vid=fb9287f8-936b-45a3-8914-0e3dcc1b1c82"},"vehicle_type_id":"4","last_reported":1747484267,"current_range_meters":6800,"station_id":"ce4bhq92rcd13ifvqhjg","pricing_plan_id":"cebpf4jnsgd1na2vs0mg"},{"bike_id":"38a37840-6c6f-4f0c-8f0f-dd034362a7fe","system_id":"levelo_inurba_marseille","lat":43.2418,"lon":5.3972,"is_reserved":false,"is_disabled":false,"rental_uris":{"android":"levelo://app?vid=38a37840-6c6f-4f0c-8f0f-dd034362a7fe","ios":"levelo://app?vid=38a37840-6c6f-4f0c-8f0f-dd034362a7fe"},"vehicle_type_id":"4","last_reported":1747484267,"current_range_meters":6800,"station_id":"ce4bhn12rcd13ifvqgpg","pricing_plan_id":"cebpf4jnsgd1na2vs0mg"},{"bike_id":"cadcc7eb-3c98-4799-8f9a-ac959cde8cc5","system_id":"levelo_inurba_marseille","lat":43.27564,"lon":5.38417,"is_reserved":false,"is_disabled":false,"rental_uris":{"android":"levelo://app?vid=cadcc7eb-3c98-4799-8f9a-ac959cde8cc5","ios":"levelo://app?vid=cadcc7eb-3c98-4799-8f9a-ac959cde8cc5"},"vehicle_type_id":"4","last_reported":1747484267,"current_range_meters":6800,"station_id":"ce4bhh92rcd13ifvqfi0","pricing_plan_id":"cebpf4jnsgd1na2vs0mg"},{"bike_id":"a42a8c75-7b20-419f-8cf0-df97d1891c04","system_id":"levelo_inurba_marseille","lat":43.2847,"lon":5.38408,"is_reserved":false,"is_disabled":false,"rental_uris":{"android":"levelo://app?vid=a42a8c75-7b20-419f-8cf0-df97d1891c04","ios":"levelo://app?vid=a42a8c75-7b20-419f-8cf0-df97d1891c04"},"vehicle_type_id":"4","last_reported":1747484267,"current_range_meters":6800,"station_id":"ce4bh512rcd13ifvqe3g","pricing_plan_id":"cebpf4jnsgd1na2vs0mg"},{"bike_id":"502d7f86-43ad-493b-898e-82ae0d47764c","system_id":"levelo_inurba_marseille","lat":43.23161,"lon":5.43727,"is_reserved":false,"is_disabled":false,"rental_uris":{"android":"levelo://app?vid=502d7f86-43ad-493b-898e-82ae0d47764c","ios":"levelo://app?vid=502d7f86-43ad-493b-898e-82ae0d47764c"},"vehicle_type_id":"4","last_reported":1747484267,"current_range_meters":7200,"station_id":"ce4bhmp2rcd13ifvqgog","pricing_plan_id":"cebpf4jnsgd1na2vs0mg"},{"bike_id":"2048b275-7c01-4de8-8755-e189dc4cb174","system_id":"levelo_inurba_marseille","lat":43.22505,"lon":5.34782,"is_reserved":false,"is_disabled":false,"rental_uris":{"android":"levelo://app?vid=2048b275-7c01-4de8-8755-e189dc4cb174","ios":"levelo://app?vid=2048b275-7c01-4de8-8755-e189dc4cb174"},"vehicle_type_id":"4","last_reported":1747484267,"current_range_meters":7200,"station_id":"st_cvj5dfep6f1abm77gieg","pricing_plan_id":"cebpf4jnsgd1na2vs0mg"},{"bike_id":"9d29eb8a-633f-4a3f-bd84-0754a56c14c4","system_id":"levelo_inurba_marseille","lat":43.32471,"lon":5.36553,"is_reserved":false,"is_disabled":false,"rental_uris":{"android":"levelo://app?vid=9d29eb8a-633f-4a3f-bd84-0754a56c14c4","ios":"levelo://app?vid=9d29eb8a-633f-4a3f-bd84-0754a56c14c4"},"vehicle_type_id":"4","last_reported":1747484267,"current_range_meters":7200,"station_id":"ce4bhs12rcd13ifvqhvg","pricing_plan_id":"cebpf4jnsgd1na2vs0mg"},{"bike_id":"5cf74a5b-3237-4306-8708-835ce896cf40","system_id":"levelo_inurba_marseille","lat":43.319987,"lon":5.381533,"is_reserved":false,"is_disabled":false,"rental_uris":{"android":"levelo://app?vid=5cf74a5b-3237-4306-8708-835ce896cf40","ios":"levelo://app?vid=5cf74a5b-3237-4306-8708-835ce896cf40"},"vehicle_type_id":"4","last_reported":1747484267,"current_range_meters":7200,"station_id":"ce4bhr12rcd13ifvqhpg","pricing_plan_id":"cebpf4jnsgd1na2vs0mg"},{"bike_id":"56a10ad3-c52a-4ee6-9c8f-09e859550d56","system_id":"levelo_inurba_marseille","lat":43.23965,"lon":5.3663,"is_reserved":false,"is_disabled":false,"rental_uris":{"android":"levelo://app?vid=56a10ad3-c52a-4ee6-9c8f-09e859550d56","ios":"levelo://app?vid=56a10ad3-c52a-4ee6-9c8f-09e859550d56"},"vehicle_type_id":"4","last_reported":1747484267,"current_range_meters":7200,"station_id":"ce4bhi12rcd13ifvqfp0","pricing_plan_id":"cebpf4jnsgd1na2vs0mg"},{"bike_id":"a6d45b9a-c5a7-43db-99b6-73ae89c3b3ae","system_id":"levelo_inurba_marseille","lat":43.27617,"lon":5.36102,"is_reserved":false,"is_disabled":false,"rental_uris":{"android":"levelo://app?vid=a6d45b9a-c5a7-43db-99b6-73ae89c3b3ae","ios":"levelo://app?vid=a6d45b9a-c5a7-43db-99b6-73ae89c3b3ae"},"vehicle_type_id":"4","last_reported":1747484267,"current_range_meters":8000,"station_id":"ce4bgj92rcd13ifvqbe0","pricing_plan_id":"cebpf4jnsgd1na2vs0mg"},{"bike_id":"adf775ca-e2d4-4abc-a173-6454a5518da9","system_id":"levelo_inurba_marseille","lat":43.2306,"lon":5.35485,"is_reserved":false,"is_disabled":false,"rental_uris":{"android":"levelo://app?vid=adf775ca-e2d4-4abc-a173-6454a5518da9","ios":"levelo://app?vid=adf775ca-e2d4-4abc-a173-6454a5518da9"},"vehicle_type_id":"4","last_reported":1747484267,"current_range_meters":7200,"station_id":"cpo3342slgdg3j2ifvpg","pricing_plan_id":"cebpf4jnsgd1na2vs0mg"},{"bike_id":"8cc48dbb-7946-4698-8aaa-510366a1e92a","system_id":"levelo_inurba_marseille","lat":43.22924,"lon":5.35371,"is_reserved":false,"is_disabled":false,"rental_uris":{"android":"levelo://app?vid=8cc48dbb-7946-4698-8aaa-510366a1e92a","ios":"levelo://app?vid=8cc48dbb-7946-4698-8aaa-510366a1e92a"},"vehicle_type_id":"4","last_reported":1747484267,"current_range_meters":8000,"station_id":"cpo3532slgdg3j2ikp40","pricing_plan_id":"cebpf4jnsgd1na2vs0mg"},{"bike_id":"d62c9541-67bb-43da-9e38-23b2aede0118","system_id":"levelo_inurba_marseille","lat":43.28941,"lon":5.39633,"is_reserved":false,"is_disabled":false,"rental_uris":{"android":"levelo://app?vid=d62c9541-67bb-43da-9e38-23b2aede0118","ios":"levelo://app?vid=d62c9541-67bb-43da-9e38-23b2aede0118"},"vehicle_type_id":"4","last_reported":1747484267,"current_range_meters":8000,"station_id":"ce4bh3h2rcd13ifvqdn0","pricing_plan_id":"cebpf4jnsgd1na2vs0mg"},{"bike_id":"96971d47-bec0-4125-a9ea-50c1d6ac0667","system_id":"levelo_inurba_marseille","lat":43.25502,"lon":5.3765,"is_reserved":false,"is_disabled":false,"rental_uris":{"android":"levelo://app?vid=96971d47-bec0-4125-a9ea-50c1d6ac0667","ios":"levelo://app?vid=96971d47-bec0-4125-a9ea-50c1d6ac0667"},"vehicle_type_id":"4","last_reported":1747484267,"current_range_meters":7200,"station_id":"ce4bhh12rcd13ifvqff0","pricing_plan_id":"cebpf4jnsgd1na2vs0mg"},{"bike_id":"6e612e7b-28be-478c-9618-97651a5de57b","system_id":"levelo_inurba_marseille","lat":43.24641,"lon":5.39532,"is_reserved":false,"is_disabled":false,"rental_uris":{"android":"levelo://app?vid=6e612e7b-28be-478c-9618-97651a5de57b","ios":"levelo://app?vid=6e612e7b-28be-478c-9618-97651a5de57b"},"vehicle_type_id":"4","last_reported":1747484267,"current_range_meters":8000,"station_id":"","pricing_plan_id":"cebpf4jnsgd1na2vs0mg"},{"bike_id":"cc0dd266-2c7f-48b1-be6c-1f08e0dda62a","system_id":"levelo_inurba_marseille","lat":43.24702,"lon":5.38162,"is_reserved":false,"is_disabled":false,"rental_uris":{"android":"levelo://app?vid=cc0dd266-2c7f-48b1-be6c-1f08e0dda62a","ios":"levelo://app?vid=cc0dd266-2c7f-48b1-be6c-1f08e0dda62a"},"vehicle_type_id":"4","last_reported":1747484267,"current_range_meters":8000,"station_id":"ce4bhih2rcd13ifvqfr0","pricing_plan_id":"cebpf4jnsgd1na2vs0mg"},{"bike_id":"3d6b5b36-a314-45fa-8bc0-68e5f98a5dde","system_id":"levelo_inurba_marseille","lat":43.22938,"lon":5.35371,"is_reserved":false,"is_disabled":false,"rental_uris":{"android":"levelo://app?vid=3d6b5b36-a314-45fa-8bc0-68e5f98a5dde","ios":"levelo://app?vid=3d6b5b36-a314-45fa-8bc0-68e5f98a5dde"},"vehicle_type_id":"4","last_reported":1747484267,"current_range_meters":8000,"station_id":"cpo3532slgdg3j2ikp40","pricing_plan_id":"cebpf4jnsgd1na2vs0mg"},{"bike_id":"5758b797-b64f-4852-b4ae-e853a0662949","system_id":"levelo_inurba_marseille","lat":43.24069,"lon":5.37757,"is_reserved":false,"is_disabled":false,"rental_uris":{"android":"levelo://app?vid=5758b797-b64f-4852-b4ae-e853a0662949","ios":"levelo://app?vid=5758b797-b64f-4852-b4ae-e853a0662949"},"vehicle_type_id":"4","last_reported":1747484267,"current_range_meters":8000,"station_id":"ce4bhnp2rcd13ifvqgvg","pricing_plan_id":"cebpf4jnsgd1na2vs0mg"},{"bike_id":"9e18f4a3-f159-4832-88dd-33959db3b440","system_id":"levelo_inurba_marseille","lat":43.29225,"lon":5.36074,"is_reserved":false,"is_disabled":false,"rental_uris":{"android":"levelo://app?vid=9e18f4a3-f159-4832-88dd-33959db3b440","ios":"levelo://app?vid=9e18f4a3-f159-4832-88dd-33959db3b440"},"vehicle_type_id":"4","last_reported":1747484267,"current_range_meters":7200,"station_id":"ce4bhbh2rcd13ifvqeqg","pricing_plan_id":"cebpf4jnsgd1na2vs0mg"},{"bike_id":"7b7e72f6-267c-4cb5-a0ec-d33198a95264","system_id":"levelo_inurba_marseille","lat":43.24179,"lon":5.39731,"is_reserved":false,"is_disabled":false,"rental_uris":{"android":"levelo://app?vid=7b7e72f6-267c-4cb5-a0ec-d33198a95264","ios":"levelo://app?vid=7b7e72f6-267c-4cb5-a0ec-d33198a95264"},"vehicle_type_id":"4","last_reported":1747484267,"current_range_meters":8000,"station_id":"ce4bhn12rcd13ifvqgpg","pricing_plan_id":"cebpf4jnsgd1na2vs0mg"},{"bike_id":"b9b2a1e8-dc7d-4b82-80b7-5d071bfa1c86","system_id":"levelo_inurba_marseille","lat":43.27381,"lon":5.36256,"is_reserved":false,"is_disabled":false,"rental_uris":{"android":"levelo://app?vid=b9b2a1e8-dc7d-4b82-80b7-5d071bfa1c86","ios":"levelo://app?vid=b9b2a1e8-dc7d-4b82-80b7-5d071bfa1c86"},"vehicle_type_id":"4","last_reported":1747484267,"current_range_meters":8000,"station_id":"ce4bhbh2rcd13ifvqeo0","pricing_plan_id":"cebpf4jnsgd1na2vs0mg"},{"bike_id":"13a627e2-7100-4331-9e16-0b5956e548fc","system_id":"levelo_inurba_marseille","lat":43.24651,"lon":5.38897,"is_reserved":false,"is_disabled":false,"rental_uris":{"android":"levelo://app?vid=13a627e2-7100-4331-9e16-0b5956e548fc","ios":"levelo://app?vid=13a627e2-7100-4331-9e16-0b5956e548fc"},"vehicle_type_id":"4","last_reported":1747484267,"current_range_meters":8000,"station_id":"ce4bhg12rcd13ifvqf60","pricing_plan_id":"cebpf4jnsgd1na2vs0mg"},{"bike_id":"909bf468-8243-48b2-ac27-99ea5fc52727","system_id":"levelo_inurba_marseille","lat":43.26566,"lon":5.37305,"is_reserved":false,"is_disabled":false,"rental_uris":{"android":"levelo://app?vid=909bf468-8243-48b2-ac27-99ea5fc52727","ios":"levelo://app?vid=909bf468-8243-48b2-ac27-99ea5fc52727"},"vehicle_type_id":"4","last_reported":1747484267,"current_range_meters":8400,"station_id":"ce4bhg12rcd13ifvqf70","pricing_plan_id":"cebpf4jnsgd1na2vs0mg"},{"bike_id":"6175e696-3b3f-4fda-952a-560bce936bbd","system_id":"levelo_inurba_marseille","lat":43.31228,"lon":5.36863,"is_reserved":false,"is_disabled":false,"rental_uris":{"android":"levelo://app?vid=6175e696-3b3f-4fda-952a-560bce936bbd","ios":"levelo://app?vid=6175e696-3b3f-4fda-952a-560bce936bbd"},"vehicle_type_id":"4","last_reported":1747484267,"current_range_meters":8400,"station_id":"ce4bgl92rcd13ifvqbq0","pricing_plan_id":"cebpf4jnsgd1na2vs0mg"},{"bike_id":"3d50d707-bb8a-4329-a7cb-48dae4e42631","system_id":"levelo_inurba_marseille","lat":43.21187,"lon":5.35065,"is_reserved":false,"is_disabled":false,"rental_uris":{"android":"levelo://app?vid=3d50d707-bb8a-4329-a7cb-48dae4e42631","ios":"levelo://app?vid=3d50d707-bb8a-4329-a7cb-48dae4e42631"},"vehicle_type_id":"4","last_reported":1747484267,"current_range_meters":8400,"station_id":"st_cvj6sg6p6f1abm77japg","pricing_plan_id":"cebpf4jnsgd1na2vs0mg"},{"bike_id":"5098123d-b36f-482a-a74d-7b81fd65e534","system_id":"levelo_inurba_marseille","lat":43.239631,"lon":5.366268,"is_reserved":false,"is_disabled":false,"rental_uris":{"android":"levelo://app?vid=5098123d-b36f-482a-a74d-7b81fd65e534","ios":"levelo://app?vid=5098123d-b36f-482a-a74d-7b81fd65e534"},"vehicle_type_id":"4","last_reported":1747484267,"current_range_meters":8400,"station_id":"ce4bhi12rcd13ifvqfp0","pricing_plan_id":"cebpf4jnsgd1na2vs0mg"},{"bike_id":"6cd5c425-f8ac-4068-b8ea-a8bfbef29ee5","system_id":"levelo_inurba_marseille","lat":43.24998,"lon":5.37942,"is_reserved":false,"is_disabled":false,"rental_uris":{"android":"levelo://app?vid=6cd5c425-f8ac-4068-b8ea-a8bfbef29ee5","ios":"levelo://app?vid=6cd5c425-f8ac-4068-b8ea-a8bfbef29ee5"},"vehicle_type_id":"4","last_reported":1747484267,"current_range_meters":8400,"station_id":"","pricing_plan_id":"cebpf4jnsgd1na2vs0mg"},{"bike_id":"e5944721-5fad-422d-8125-34de276e9f30","system_id":"levelo_inurba_marseille","lat":43.32533,"lon":5.41421,"is_reserved":false,"is_disabled":false,"rental_uris":{"android":"levelo://app?vid=e5944721-5fad-422d-8125-34de276e9f30","ios":"levelo://app?vid=e5944721-5fad-422d-8125-34de276e9f30"},"vehicle_type_id":"4","last_reported":1747484267,"current_range_meters":8400,"station_id":"ce4bhq12rcd13ifvqhhg","pricing_plan_id":"cebpf4jnsgd1na2vs0mg"},{"bike_id":"efeed315-f6e1-4397-ba06-5302bc942d23","system_id":"levelo_inurba_marseille","lat":43.28261,"lon":5.3505,"is_reserved":false,"is_disabled":false,"rental_uris":{"android":"levelo://app?vid=efeed315-f6e1-4397-ba06-5302bc942d23","ios":"levelo://app?vid=efeed315-f6e1-4397-ba06-5302bc942d23"},"vehicle_type_id":"4","last_reported":1747484267,"current_range_meters":8400,"station_id":"ce4bhbp2rcd13ifvqerg","pricing_plan_id":"cebpf4jnsgd1na2vs0mg"},{"bike_id":"47bbe163-b716-4f8e-bece-40135bc082ce","system_id":"levelo_inurba_marseille","lat":43.2825,"lon":5.35068,"is_reserved":false,"is_disabled":false,"rental_uris":{"android":"levelo://app?vid=47bbe163-b716-4f8e-bece-40135bc082ce","ios":"levelo://app?vid=47bbe163-b716-4f8e-bece-40135bc082ce"},"vehicle_type_id":"4","last_reported":1747484267,"current_range_meters":8400,"station_id":"ce4bhbp2rcd13ifvqerg","pricing_plan_id":"cebpf4jnsgd1na2vs0mg"},{"bike_id":"6dc41c7d-d886-4d51-bd29-ec1aa88f4fac","system_id":"levelo_inurba_marseille","lat":43.24156,"lon":5.36406,"is_reserved":false,"is_disabled":false,"rental_uris":{"android":"levelo://app?vid=6dc41c7d-d886-4d51-bd29-ec1aa88f4fac","ios":"levelo://app?vid=6dc41c7d-d886-4d51-bd29-ec1aa88f4fac"},"vehicle_type_id":"4","last_reported":1747484267,"current_range_meters":8800,"station_id":"cpo36qri1sfpv3e86is0","pricing_plan_id":"cebpf4jnsgd1na2vs0mg"},{"bike_id":"79b0f212-a412-4d78-9698-18a7ce0ce6cd","system_id":"levelo_inurba_marseille","lat":43.23372,"lon":5.36059,"is_reserved":false,"is_disabled":false,"rental_uris":{"android":"levelo://app?vid=79b0f212-a412-4d78-9698-18a7ce0ce6cd","ios":"levelo://app?vid=79b0f212-a412-4d78-9698-18a7ce0ce6cd"},"vehicle_type_id":"4","last_reported":1747484267,"current_range_meters":8800,"station_id":"","pricing_plan_id":"cebpf4jnsgd1na2vs0mg"},{"bike_id":"74474192-b673-460d-b9f7-b5f9d54e2f31","system_id":"levelo_inurba_marseille","lat":43.28276,"lon":5.35055,"is_reserved":false,"is_disabled":false,"rental_uris":{"android":"levelo://app?vid=74474192-b673-460d-b9f7-b5f9d54e2f31","ios":"levelo://app?vid=74474192-b673-460d-b9f7-b5f9d54e2f31"},"vehicle_type_id":"4","last_reported":1747484267,"current_range_meters":8800,"station_id":"ce4bhbp2rcd13ifvqerg","pricing_plan_id":"cebpf4jnsgd1na2vs0mg"},{"bike_id":"4faa877d-2aed-4ac7-b249-f53d870f481d","system_id":"levelo_inurba_marseille","lat":43.28284,"lon":5.35079,"is_reserved":false,"is_disabled":false,"rental_uris":{"android":"levelo://app?vid=4faa877d-2aed-4ac7-b249-f53d870f481d","ios":"levelo://app?vid=4faa877d-2aed-4ac7-b249-f53d870f481d"},"vehicle_type_id":"4","last_reported":1747484267,"current_range_meters":8800,"station_id":"ce4bhbp2rcd13ifvqerg","pricing_plan_id":"cebpf4jnsgd1na2vs0mg"},{"bike_id":"a1ebb40c-08ca-44aa-8190-f0bfa9cf2bb4","system_id":"levelo_inurba_marseille","lat":43.225055,"lon":5.34786,"is_reserved":false,"is_disabled":false,"rental_uris":{"android":"levelo://app?vid=a1ebb40c-08ca-44aa-8190-f0bfa9cf2bb4","ios":"levelo://app?vid=a1ebb40c-08ca-44aa-8190-f0bfa9cf2bb4"},"vehicle_type_id":"4","last_reported":1747484267,"current_range_meters":8800,"station_id":"","pricing_plan_id":"cebpf4jnsgd1na2vs0mg"},{"bike_id":"194a8af0-e763-4736-813e-48fcf1182a7f","system_id":"levelo_inurba_marseille","lat":43.23964,"lon":5.36626,"is_reserved":false,"is_disabled":false,"rental_uris":{"android":"levelo://app?vid=194a8af0-e763-4736-813e-48fcf1182a7f","ios":"levelo://app?vid=194a8af0-e763-4736-813e-48fcf1182a7f"},"vehicle_type_id":"4","last_reported":1747484267,"current_range_meters":8800,"station_id":"ce4bhi12rcd13ifvqfp0","pricing_plan_id":"cebpf4jnsgd1na2vs0mg"},{"bike_id":"4627f3d1-17fd-49b2-9a60-3f90cc9b16e5","system_id":"levelo_inurba_marseille","lat":43.317096,"lon":5.436999,"is_reserved":false,"is_disabled":false,"rental_uris":{"android":"levelo://app?vid=4627f3d1-17fd-49b2-9a60-3f90cc9b16e5","ios":"levelo://app?vid=4627f3d1-17fd-49b2-9a60-3f90cc9b16e5"},"vehicle_type_id":"4","last_reported":1747484267,"current_range_meters":8800,"station_id":"ce4bhp92rcd13ifvqhcg","pricing_plan_id":"cebpf4jnsgd1na2vs0mg"},{"bike_id":"6d5e4d62-ec94-462c-af15-b51534e29a15","system_id":"levelo_inurba_marseille","lat":43.25504,"lon":5.37639,"is_reserved":false,"is_disabled":false,"rental_uris":{"android":"levelo://app?vid=6d5e4d62-ec94-462c-af15-b51534e29a15","ios":"levelo://app?vid=6d5e4d62-ec94-462c-af15-b51534e29a15"},"vehicle_type_id":"4","last_reported":1747484267,"current_range_meters":9200,"station_id":"ce4bhh12rcd13ifvqff0","pricing_plan_id":"cebpf4jnsgd1na2vs0mg"},{"bike_id":"e53e3e78-9822-41fd-8f00-6edbf36f5acc","system_id":"levelo_inurba_marseille","lat":43.28618,"lon":5.35103,"is_reserved":false,"is_disabled":false,"rental_uris":{"android":"levelo://app?vid=e53e3e78-9822-41fd-8f00-6edbf36f5acc","ios":"levelo://app?vid=e53e3e78-9822-41fd-8f00-6edbf36f5acc"},"vehicle_type_id":"4","last_reported":1747484267,"current_range_meters":9200,"station_id":"ce4bhch2rcd13ifvqeug","pricing_plan_id":"cebpf4jnsgd1na2vs0mg"},{"bike_id":"fd36f2b2-ab3f-4773-a649-0c532c529c78","system_id":"levelo_inurba_marseille","lat":43.26557,"lon":5.37278,"is_reserved":false,"is_disabled":false,"rental_uris":{"android":"levelo://app?vid=fd36f2b2-ab3f-4773-a649-0c532c529c78","ios":"levelo://app?vid=fd36f2b2-ab3f-4773-a649-0c532c529c78"},"vehicle_type_id":"4","last_reported":1747484267,"current_range_meters":9200,"station_id":"ce4bhg12rcd13ifvqf70","pricing_plan_id":"cebpf4jnsgd1na2vs0mg"},{"bike_id":"b0b86df5-924c-4749-8abe-857a22f2dd7e","system_id":"levelo_inurba_marseille","lat":43.24994,"lon":5.38929,"is_reserved":false,"is_disabled":false,"rental_uris":{"android":"levelo://app?vid=b0b86df5-924c-4749-8abe-857a22f2dd7e","ios":"levelo://app?vid=b0b86df5-924c-4749-8abe-857a22f2dd7e"},"vehicle_type_id":"4","last_reported":1747484267,"current_range_meters":9200,"station_id":"ce4bhgp2rcd13ifvqfd0","pricing_plan_id":"cebpf4jnsgd1na2vs0mg"},{"bike_id":"90591abb-7b55-402d-9e91-38c9fdccb477","system_id":"levelo_inurba_marseille","lat":43.23198,"lon":5.35569,"is_reserved":false,"is_disabled":false,"rental_uris":{"android":"levelo://app?vid=90591abb-7b55-402d-9e91-38c9fdccb477","ios":"levelo://app?vid=90591abb-7b55-402d-9e91-38c9fdccb477"},"vehicle_type_id":"4","last_reported":1747484267,"current_range_meters":9200,"station_id":"ce4bhu92rcd13ifvqi70","pricing_plan_id":"cebpf4jnsgd1na2vs0mg"},{"bike_id":"a68f9539-d7f7-431a-8b13-de39585015ad","system_id":"levelo_inurba_marseille","lat":43.23198,"lon":5.35535,"is_reserved":false,"is_disabled":false,"rental_uris":{"android":"levelo://app?vid=a68f9539-d7f7-431a-8b13-de39585015ad","ios":"levelo://app?vid=a68f9539-d7f7-431a-8b13-de39585015ad"},"vehicle_type_id":"4","last_reported":1747484267,"current_range_meters":9600,"station_id":"ce4bhu92rcd13ifvqi70","pricing_plan_id":"cebpf4jnsgd1na2vs0mg"},{"bike_id":"bd357349-f50a-4ec4-8b4f-cede750cc2d6","system_id":"levelo_inurba_marseille","lat":43.32652,"lon":5.40995,"is_reserved":false,"is_disabled":false,"rental_uris":{"android":"levelo://app?vid=bd357349-f50a-4ec4-8b4f-cede750cc2d6","ios":"levelo://app?vid=bd357349-f50a-4ec4-8b4f-cede750cc2d6"},"vehicle_type_id":"4","last_reported":1747484267,"current_range_meters":9600,"station_id":"ce4bhpp2rcd13ifvqhgg","pricing_plan_id":"cebpf4jnsgd1na2vs0mg"},{"bike_id":"cece552b-4517-4bf2-91bb-3973e8434ebb","system_id":"levelo_inurba_marseille","lat":43.32657,"lon":5.40999,"is_reserved":false,"is_disabled":false,"rental_uris":{"android":"levelo://app?vid=cece552b-4517-4bf2-91bb-3973e8434ebb","ios":"levelo://app?vid=cece552b-4517-4bf2-91bb-3973e8434ebb"},"vehicle_type_id":"4","last_reported":1747484267,"current_range_meters":9600,"station_id":"ce4bhpp2rcd13ifvqhgg","pricing_plan_id":"cebpf4jnsgd1na2vs0mg"},{"bike_id":"16c445b5-986f-42e2-ab9a-268f484bf15d","system_id":"levelo_inurba_marseille","lat":43.230554,"lon":5.354864,"is_reserved":false,"is_disabled":false,"rental_uris":{"android":"levelo://app?vid=16c445b5-986f-42e2-ab9a-268f484bf15d","ios":"levelo://app?vid=16c445b5-986f-42e2-ab9a-268f484bf15d"},"vehicle_type_id":"4","last_reported":1747484267,"current_range_meters":9600,"station_id":"cpo3342slgdg3j2ifvpg","pricing_plan_id":"cebpf4jnsgd1na2vs0mg"},{"bike_id":"7dd76eb4-ba60-47b7-b3b5-7d6bcea59360","system_id":"levelo_inurba_marseille","lat":43.30797,"lon":5.38145,"is_reserved":false,"is_disabled":false,"rental_uris":{"android":"levelo://app?vid=7dd76eb4-ba60-47b7-b3b5-7d6bcea59360","ios":"levelo://app?vid=7dd76eb4-ba60-47b7-b3b5-7d6bcea59360"},"vehicle_type_id":"4","last_reported":1747484267,"current_range_meters":9600,"station_id":"ce4bgt12rcd13ifvqce0","pricing_plan_id":"cebpf4jnsgd1na2vs0mg"},{"bike_id":"39a5ed3e-451f-4328-be11-120996094544","system_id":"levelo_inurba_marseille","lat":43.30361,"lon":5.4185,"is_reserved":false,"is_disabled":false,"rental_uris":{"android":"levelo://app?vid=39a5ed3e-451f-4328-be11-120996094544","ios":"levelo://app?vid=39a5ed3e-451f-4328-be11-120996094544"},"vehicle_type_id":"4","last_reported":1747484267,"current_range_meters":10000,"station_id":"ce4bhop2rcd13ifvqh7g","pricing_plan_id":"cebpf4jnsgd1na2vs0mg"},{"bike_id":"7a3b073b-1e87-4773-873b-339f5d26a18a","system_id":"levelo_inurba_marseille","lat":43.30792,"lon":5.38157,"is_reserved":false,"is_disabled":false,"rental_uris":{"android":"levelo://app?vid=7a3b073b-1e87-4773-873b-339f5d26a18a","ios":"levelo://app?vid=7a3b073b-1e87-4773-873b-339f5d26a18a"},"vehicle_type_id":"4","last_reported":1747484267,"current_range_meters":9600,"station_id":"ce4bgt12rcd13ifvqce0","pricing_plan_id":"cebpf4jnsgd1na2vs0mg"},{"bike_id":"df21fa0f-b89d-4c7d-91ca-06a4db163261","system_id":"levelo_inurba_marseille","lat":43.211901,"lon":5.350716,"is_reserved":false,"is_disabled":false,"rental_uris":{"android":"levelo://app?vid=df21fa0f-b89d-4c7d-91ca-06a4db163261","ios":"levelo://app?vid=df21fa0f-b89d-4c7d-91ca-06a4db163261"},"vehicle_type_id":"4","last_reported":1747484267,"current_range_meters":10000,"station_id":"st_cvj6sg6p6f1abm77japg","pricing_plan_id":"cebpf4jnsgd1na2vs0mg"},{"bike_id":"03d738e0-a21c-4fa1-b87d-77e197aceeb9","system_id":"levelo_inurba_marseille","lat":43.26551,"lon":5.37292,"is_reserved":false,"is_disabled":false,"rental_uris":{"android":"levelo://app?vid=03d738e0-a21c-4fa1-b87d-77e197aceeb9","ios":"levelo://app?vid=03d738e0-a21c-4fa1-b87d-77e197aceeb9"},"vehicle_type_id":"4","last_reported":1747484267,"current_range_meters":10000,"station_id":"ce4bhg12rcd13ifvqf70","pricing_plan_id":"cebpf4jnsgd1na2vs0mg"},{"bike_id":"2dec80d9-a68d-4dd3-a087-3f3bcd3db7cb","system_id":"levelo_inurba_marseille","lat":43.27616,"lon":5.36111,"is_reserved":false,"is_disabled":false,"rental_uris":{"android":"levelo://app?vid=2dec80d9-a68d-4dd3-a087-3f3bcd3db7cb","ios":"levelo://app?vid=2dec80d9-a68d-4dd3-a087-3f3bcd3db7cb"},"vehicle_type_id":"4","last_reported":1747484267,"current_range_meters":10000,"station_id":"ce4bgj92rcd13ifvqbe0","pricing_plan_id":"cebpf4jnsgd1na2vs0mg"},{"bike_id":"7db4950a-1d68-44bb-9abf-6f82ddfd17e0","system_id":"levelo_inurba_marseille","lat":43.2826,"lon":5.35073,"is_reserved":false,"is_disabled":false,"rental_uris":{"android":"levelo://app?vid=7db4950a-1d68-44bb-9abf-6f82ddfd17e0","ios":"levelo://app?vid=7db4950a-1d68-44bb-9abf-6f82ddfd17e0"},"vehicle_type_id":"4","last_reported":1747484267,"current_range_meters":10000,"station_id":"ce4bhbp2rcd13ifvqerg","pricing_plan_id":"cebpf4jnsgd1na2vs0mg"},{"bike_id":"21658823-ea3c-428a-91b4-01a250e7b14c","system_id":"levelo_inurba_marseille","lat":43.24166,"lon":5.36383,"is_reserved":false,"is_disabled":false,"rental_uris":{"android":"levelo://app?vid=21658823-ea3c-428a-91b4-01a250e7b14c","ios":"levelo://app?vid=21658823-ea3c-428a-91b4-01a250e7b14c"},"vehicle_type_id":"4","last_reported":1747484267,"current_range_meters":10000,"station_id":"cpo36qri1sfpv3e86is0","pricing_plan_id":"cebpf4jnsgd1na2vs0mg"},{"bike_id":"6f7da022-e381-4617-9c99-86adc761a953","system_id":"levelo_inurba_marseille","lat":43.23142,"lon":5.43721,"is_reserved":false,"is_disabled":false,"rental_uris":{"android":"levelo://app?vid=6f7da022-e381-4617-9c99-86adc761a953","ios":"levelo://app?vid=6f7da022-e381-4617-9c99-86adc761a953"},"vehicle_type_id":"4","last_reported":1747484267,"current_range_meters":10800,"station_id":"ce4bhmp2rcd13ifvqgog","pricing_plan_id":"cebpf4jnsgd1na2vs0mg"},{"bike_id":"9311a62b-4ccf-4ad2-83dc-2c2cfc931553","system_id":"levelo_inurba_marseille","lat":43.2119,"lon":5.35067,"is_reserved":false,"is_disabled":false,"rental_uris":{"android":"levelo://app?vid=9311a62b-4ccf-4ad2-83dc-2c2cfc931553","ios":"levelo://app?vid=9311a62b-4ccf-4ad2-83dc-2c2cfc931553"},"vehicle_type_id":"4","last_reported":1747484267,"current_range_meters":10800,"station_id":"st_cvj6sg6p6f1abm77japg","pricing_plan_id":"cebpf4jnsgd1na2vs0mg"},{"bike_id":"7913fe90-a0f6-4bd0-a4d2-362fc782da30","system_id":"levelo_inurba_marseille","lat":43.282553,"lon":5.35068,"is_reserved":false,"is_disabled":false,"rental_uris":{"android":"levelo://app?vid=7913fe90-a0f6-4bd0-a4d2-362fc782da30","ios":"levelo://app?vid=7913fe90-a0f6-4bd0-a4d2-362fc782da30"},"vehicle_type_id":"4","last_reported":1747484267,"current_range_meters":10800,"station_id":"ce4bhbp2rcd13ifvqerg","pricing_plan_id":"cebpf4jnsgd1na2vs0mg"},{"bike_id":"f5c3d704-6dd9-430b-be6d-d13ed0323d6f","system_id":"levelo_inurba_marseille","lat":43.24991,"lon":5.38924,"is_reserved":false,"is_disabled":false,"rental_uris":{"android":"levelo://app?vid=f5c3d704-6dd9-430b-be6d-d13ed0323d6f","ios":"levelo://app?vid=f5c3d704-6dd9-430b-be6d-d13ed0323d6f"},"vehicle_type_id":"4","last_reported":1747484267,"current_range_meters":10800,"station_id":"ce4bhgp2rcd13ifvqfd0","pricing_plan_id":"cebpf4jnsgd1na2vs0mg"},{"bike_id":"8287cb41-960c-469e-b5e8-f44a2b717386","system_id":"levelo_inurba_marseille","lat":43.30625,"lon":5.36536,"is_reserved":false,"is_disabled":false,"rental_uris":{"android":"levelo://app?vid=8287cb41-960c-469e-b5e8-f44a2b717386","ios":"levelo://app?vid=8287cb41-960c-469e-b5e8-f44a2b717386"},"vehicle_type_id":"4","last_reported":1747484267,"current_range_meters":10800,"station_id":"","pricing_plan_id":"cebpf4jnsgd1na2vs0mg"},{"bike_id":"b04bd58d-ab68-46b4-9085-1ddf540e912e","system_id":"levelo_inurba_marseille","lat":43.24082,"lon":5.37744,"is_reserved":false,"is_disabled":false,"rental_uris":{"android":"levelo://app?vid=b04bd58d-ab68-46b4-9085-1ddf540e912e","ios":"levelo://app?vid=b04bd58d-ab68-46b4-9085-1ddf540e912e"},"vehicle_type_id":"4","last_reported":1747484267,"current_range_meters":10800,"station_id":"ce4bhnp2rcd13ifvqgvg","pricing_plan_id":"cebpf4jnsgd1na2vs0mg"},{"bike_id":"fa91815a-11ad-403f-9bb8-a0484a31d93c","system_id":"levelo_inurba_marseille","lat":43.24399,"lon":5.37064,"is_reserved":false,"is_disabled":false,"rental_uris":{"android":"levelo://app?vid=fa91815a-11ad-403f-9bb8-a0484a31d93c","ios":"levelo://app?vid=fa91815a-11ad-403f-9bb8-a0484a31d93c"},"vehicle_type_id":"4","last_reported":1747484267,"current_range_meters":11200,"station_id":"ce4bhhh2rcd13ifvqfk0","pricing_plan_id":"cebpf4jnsgd1na2vs0mg"},{"bike_id":"68a98967-4cbd-4af3-9506-803051750aa2","system_id":"levelo_inurba_marseille","lat":43.2861,"lon":5.35096,"is_reserved":false,"is_disabled":false,"rental_uris":{"android":"levelo://app?vid=68a98967-4cbd-4af3-9506-803051750aa2","ios":"levelo://app?vid=68a98967-4cbd-4af3-9506-803051750aa2"},"vehicle_type_id":"4","last_reported":1747484267,"current_range_meters":11200,"station_id":"ce4bhch2rcd13ifvqeug","pricing_plan_id":"cebpf4jnsgd1na2vs0mg"},{"bike_id":"4d3d3fc6-2156-4d05-8dea-c700ee44889b","system_id":"levelo_inurba_marseille","lat":43.24809,"lon":5.37453,"is_reserved":false,"is_disabled":false,"rental_uris":{"android":"levelo://app?vid=4d3d3fc6-2156-4d05-8dea-c700ee44889b","ios":"levelo://app?vid=4d3d3fc6-2156-4d05-8dea-c700ee44889b"},"vehicle_type_id":"4","last_reported":1747484267,"current_range_meters":11200,"station_id":"ce4bhgh2rcd13ifvqfb0","pricing_plan_id":"cebpf4jnsgd1na2vs0mg"},{"bike_id":"6da655b8-0421-4e8a-ae32-6637af746f6a","system_id":"levelo_inurba_marseille","lat":43.268182,"lon":5.411076,"is_reserved":false,"is_disabled":false,"rental_uris":{"android":"levelo://app?vid=6da655b8-0421-4e8a-ae32-6637af746f6a","ios":"levelo://app?vid=6da655b8-0421-4e8a-ae32-6637af746f6a"},"vehicle_type_id":"4","last_reported":1747484267,"current_range_meters":11200,"station_id":"","pricing_plan_id":"cebpf4jnsgd1na2vs0mg"},{"bike_id":"725252ae-7146-493c-b329-1699e4d14e34","system_id":"levelo_inurba_marseille","lat":43.28396,"lon":5.3499,"is_reserved":false,"is_disabled":false,"rental_uris":{"android":"levelo://app?vid=725252ae-7146-493c-b329-1699e4d14e34","ios":"levelo://app?vid=725252ae-7146-493c-b329-1699e4d14e34"},"vehicle_type_id":"4","last_reported":1747484267,"current_range_meters":11200,"station_id":"ce4bhbh2rcd13ifvqepg","pricing_plan_id":"cebpf4jnsgd1na2vs0mg"},{"bike_id":"13d5a06f-0e0c-454c-8014-811570a62462","system_id":"levelo_inurba_marseille","lat":43.2827,"lon":5.35069,"is_reserved":false,"is_disabled":false,"rental_uris":{"android":"levelo://app?vid=13d5a06f-0e0c-454c-8014-811570a62462","ios":"levelo://app?vid=13d5a06f-0e0c-454c-8014-811570a62462"},"vehicle_type_id":"4","last_reported":1747484267,"current_range_meters":11200,"station_id":"ce4bhbp2rcd13ifvqerg","pricing_plan_id":"cebpf4jnsgd1na2vs0mg"},{"bike_id":"3e630e9a-3c06-4dcc-97d5-ae78a4ea1500","system_id":"levelo_inurba_marseille","lat":43.29895,"lon":5.436632,"is_reserved":false,"is_disabled":false,"rental_uris":{"android":"levelo://app?vid=3e630e9a-3c06-4dcc-97d5-ae78a4ea1500","ios":"levelo://app?vid=3e630e9a-3c06-4dcc-97d5-ae78a4ea1500"},"vehicle_type_id":"4","last_reported":1747484267,"current_range_meters":11200,"station_id":"ce4bhpp2rcd13ifvqhfg","pricing_plan_id":"cebpf4jnsgd1na2vs0mg"},{"bike_id":"ed1bfeca-751e-457c-81ee-825d51d3e55b","system_id":"levelo_inurba_marseille","lat":43.30411,"lon":5.39753,"is_reserved":false,"is_disabled":true,"rental_uris":{"android":"levelo://app?vid=ed1bfeca-751e-457c-81ee-825d51d3e55b","ios":"levelo://app?vid=ed1bfeca-751e-457c-81ee-825d51d3e55b"},"vehicle_type_id":"4","last_reported":1747484267,"current_range_meters":11200,"station_id":"ce4bh092rcd13ifvqd20","pricing_plan_id":"cebpf4jnsgd1na2vs0mg"},{"bike_id":"93d8643c-2d77-4f6b-81d9-10d012270165","system_id":"levelo_inurba_marseille","lat":43.239606,"lon":5.366267,"is_reserved":false,"is_disabled":false,"rental_uris":{"android":"levelo://app?vid=93d8643c-2d77-4f6b-81d9-10d012270165","ios":"levelo://app?vid=93d8643c-2d77-4f6b-81d9-10d012270165"},"vehicle_type_id":"4","last_reported":1747484267,"current_range_meters":11200,"station_id":"ce4bhi12rcd13ifvqfp0","pricing_plan_id":"cebpf4jnsgd1na2vs0mg"},{"bike_id":"33acbd93-531b-4bae-92c2-573399f188a4","system_id":"levelo_inurba_marseille","lat":43.27377,"lon":5.36249,"is_reserved":false,"is_disabled":false,"rental_uris":{"android":"levelo://app?vid=33acbd93-531b-4bae-92c2-573399f188a4","ios":"levelo://app?vid=33acbd93-531b-4bae-92c2-573399f188a4"},"vehicle_type_id":"4","last_reported":1747484267,"current_range_meters":11200,"station_id":"ce4bhbh2rcd13ifvqeo0","pricing_plan_id":"cebpf4jnsgd1na2vs0mg"},{"bike_id":"58967947-b61e-4e85-a092-47c333d01030","system_id":"levelo_inurba_marseille","lat":43.27383,"lon":5.3625,"is_reserved":false,"is_disabled":false,"rental_uris":{"android":"levelo://app?vid=58967947-b61e-4e85-a092-47c333d01030","ios":"levelo://app?vid=58967947-b61e-4e85-a092-47c333d01030"},"vehicle_type_id":"4","last_reported":1747484267,"current_range_meters":11600,"station_id":"ce4bhbh2rcd13ifvqeo0","pricing_plan_id":"cebpf4jnsgd1na2vs0mg"},{"bike_id":"b8e6468b-87db-4ff6-8122-ef13bf5b7c8c","system_id":"levelo_inurba_marseille","lat":43.31379,"lon":5.37916,"is_reserved":false,"is_disabled":false,"rental_uris":{"android":"levelo://app?vid=b8e6468b-87db-4ff6-8122-ef13bf5b7c8c","ios":"levelo://app?vid=b8e6468b-87db-4ff6-8122-ef13bf5b7c8c"},"vehicle_type_id":"4","last_reported":1747484267,"current_range_meters":11600,"station_id":"","pricing_plan_id":"cebpf4jnsgd1na2vs0mg"},{"bike_id":"9942c917-d1ca-4caa-ac21-44b11c439b3e","system_id":"levelo_inurba_marseille","lat":43.28626,"lon":5.35093,"is_reserved":false,"is_disabled":false,"rental_uris":{"android":"levelo://app?vid=9942c917-d1ca-4caa-ac21-44b11c439b3e","ios":"levelo://app?vid=9942c917-d1ca-4caa-ac21-44b11c439b3e"},"vehicle_type_id":"4","last_reported":1747484267,"current_range_meters":11600,"station_id":"ce4bhch2rcd13ifvqeug","pricing_plan_id":"cebpf4jnsgd1na2vs0mg"},{"bike_id":"5306a7db-c8fc-42df-9830-edc1af21a7b8","system_id":"levelo_inurba_marseille","lat":43.25579,"lon":5.38227,"is_reserved":false,"is_disabled":false,"rental_uris":{"android":"levelo://app?vid=5306a7db-c8fc-42df-9830-edc1af21a7b8","ios":"levelo://app?vid=5306a7db-c8fc-42df-9830-edc1af21a7b8"},"vehicle_type_id":"4","last_reported":1747484267,"current_range_meters":11600,"station_id":"ce4bhih2rcd13ifvqfs0","pricing_plan_id":"cebpf4jnsgd1na2vs0mg"},{"bike_id":"7d0bdab5-039c-42f3-a355-bb5a63114b97","system_id":"levelo_inurba_marseille","lat":43.22505,"lon":5.34782,"is_reserved":false,"is_disabled":false,"rental_uris":{"android":"levelo://app?vid=7d0bdab5-039c-42f3-a355-bb5a63114b97","ios":"levelo://app?vid=7d0bdab5-039c-42f3-a355-bb5a63114b97"},"vehicle_type_id":"4","last_reported":1747484267,"current_range_meters":11600,"station_id":"st_cvj5dfep6f1abm77gieg","pricing_plan_id":"cebpf4jnsgd1na2vs0mg"},{"bike_id":"497cc2cf-fcc5-463f-8221-b4f7c50802f4","system_id":"levelo_inurba_marseille","lat":43.261933,"lon":5.374491,"is_reserved":false,"is_disabled":false,"rental_uris":{"android":"levelo://app?vid=497cc2cf-fcc5-463f-8221-b4f7c50802f4","ios":"levelo://app?vid=497cc2cf-fcc5-463f-8221-b4f7c50802f4"},"vehicle_type_id":"4","last_reported":1747484267,"current_range_meters":11600,"station_id":"ce4bhgp2rcd13ifvqfc0","pricing_plan_id":"cebpf4jnsgd1na2vs0mg"},{"bike_id":"8b427a95-be4e-495d-8d78-85f0afa3d26b","system_id":"levelo_inurba_marseille","lat":43.28276,"lon":5.35052,"is_reserved":false,"is_disabled":false,"rental_uris":{"android":"levelo://app?vid=8b427a95-be4e-495d-8d78-85f0afa3d26b","ios":"levelo://app?vid=8b427a95-be4e-495d-8d78-85f0afa3d26b"},"vehicle_type_id":"4","last_reported":1747484267,"current_range_meters":11600,"station_id":"ce4bhbp2rcd13ifvqerg","pricing_plan_id":"cebpf4jnsgd1na2vs0mg"},{"bike_id":"83be837d-42e9-4d17-9ca1-8064b89c1538","system_id":"levelo_inurba_marseille","lat":43.21195,"lon":5.350683,"is_reserved":false,"is_disabled":false,"rental_uris":{"android":"levelo://app?vid=83be837d-42e9-4d17-9ca1-8064b89c1538","ios":"levelo://app?vid=83be837d-42e9-4d17-9ca1-8064b89c1538"},"vehicle_type_id":"4","last_reported":1747484267,"current_range_meters":12000,"station_id":"st_cvj6sg6p6f1abm77japg","pricing_plan_id":"cebpf4jnsgd1na2vs0mg"},{"bike_id":"71ed6c90-5849-41a0-b699-145817e7ac92","system_id":"levelo_inurba_marseille","lat":43.28417,"lon":5.34987,"is_reserved":false,"is_disabled":false,"rental_uris":{"android":"levelo://app?vid=71ed6c90-5849-41a0-b699-145817e7ac92","ios":"levelo://app?vid=71ed6c90-5849-41a0-b699-145817e7ac92"},"vehicle_type_id":"4","last_reported":1747484267,"current_range_meters":12000,"station_id":"ce4bhbh2rcd13ifvqepg","pricing_plan_id":"cebpf4jnsgd1na2vs0mg"},{"bike_id":"0639139f-ff95-4f18-85bf-83e790f0d5fd","system_id":"levelo_inurba_marseille","lat":43.2738,"lon":5.36256,"is_reserved":false,"is_disabled":true,"rental_uris":{"android":"levelo://app?vid=0639139f-ff95-4f18-85bf-83e790f0d5fd","ios":"levelo://app?vid=0639139f-ff95-4f18-85bf-83e790f0d5fd"},"vehicle_type_id":"4","last_reported":1747484267,"current_range_meters":12000,"station_id":"ce4bhbh2rcd13ifvqeo0","pricing_plan_id":"cebpf4jnsgd1na2vs0mg"},{"bike_id":"8707b7c1-83a9-4ba5-9a76-57736571d201","system_id":"levelo_inurba_marseille","lat":43.28268,"lon":5.35071,"is_reserved":false,"is_disabled":false,"rental_uris":{"android":"levelo://app?vid=8707b7c1-83a9-4ba5-9a76-57736571d201","ios":"levelo://app?vid=8707b7c1-83a9-4ba5-9a76-57736571d201"},"vehicle_type_id":"4","last_reported":1747484267,"current_range_meters":12400,"station_id":"ce4bhbp2rcd13ifvqerg","pricing_plan_id":"cebpf4jnsgd1na2vs0mg"},{"bike_id":"e3da0429-fee7-4b18-b245-0c396679c769","system_id":"levelo_inurba_marseille","lat":43.28259,"lon":5.35067,"is_reserved":false,"is_disabled":false,"rental_uris":{"android":"levelo://app?vid=e3da0429-fee7-4b18-b245-0c396679c769","ios":"levelo://app?vid=e3da0429-fee7-4b18-b245-0c396679c769"},"vehicle_type_id":"4","last_reported":1747484267,"current_range_meters":12400,"station_id":"ce4bhbp2rcd13ifvqerg","pricing_plan_id":"cebpf4jnsgd1na2vs0mg"},{"bike_id":"5f0cd101-e911-44b5-9e57-25adf1cf8c35","system_id":"levelo_inurba_marseille","lat":43.23152,"lon":5.43703,"is_reserved":false,"is_disabled":false,"rental_uris":{"android":"levelo://app?vid=5f0cd101-e911-44b5-9e57-25adf1cf8c35","ios":"levelo://app?vid=5f0cd101-e911-44b5-9e57-25adf1cf8c35"},"vehicle_type_id":"4","last_reported":1747484267,"current_range_meters":12000,"station_id":"ce4bhmp2rcd13ifvqgog","pricing_plan_id":"cebpf4jnsgd1na2vs0mg"},{"bike_id":"81a9455a-3e2a-4c4a-be15-7a450dcad848","system_id":"levelo_inurba_marseille","lat":43.239648,"lon":5.366275,"is_reserved":false,"is_disabled":false,"rental_uris":{"android":"levelo://app?vid=81a9455a-3e2a-4c4a-be15-7a450dcad848","ios":"levelo://app?vid=81a9455a-3e2a-4c4a-be15-7a450dcad848"},"vehicle_type_id":"4","last_reported":1747484267,"current_range_meters":12400,"station_id":"ce4bhi12rcd13ifvqfp0","pricing_plan_id":"cebpf4jnsgd1na2vs0mg"},{"bike_id":"7f198fbd-e0e0-425b-9796-9a2feab13d1b","system_id":"levelo_inurba_marseille","lat":43.21186,"lon":5.35069,"is_reserved":false,"is_disabled":false,"rental_uris":{"android":"levelo://app?vid=7f198fbd-e0e0-425b-9796-9a2feab13d1b","ios":"levelo://app?vid=7f198fbd-e0e0-425b-9796-9a2feab13d1b"},"vehicle_type_id":"4","last_reported":1747484267,"current_range_meters":12400,"station_id":"st_cvj6sg6p6f1abm77japg","pricing_plan_id":"cebpf4jnsgd1na2vs0mg"},{"bike_id":"85912e61-e868-471c-af4f-dc3d4547daf1","system_id":"levelo_inurba_marseille","lat":43.28416,"lon":5.3499,"is_reserved":false,"is_disabled":false,"rental_uris":{"android":"levelo://app?vid=85912e61-e868-471c-af4f-dc3d4547daf1","ios":"levelo://app?vid=85912e61-e868-471c-af4f-dc3d4547daf1"},"vehicle_type_id":"4","last_reported":1747484267,"current_range_meters":12400,"station_id":"ce4bhbh2rcd13ifvqepg","pricing_plan_id":"cebpf4jnsgd1na2vs0mg"},{"bike_id":"6e1bd625-3ec1-43df-9657-36d71ae09f8d","system_id":"levelo_inurba_marseille","lat":43.33741,"lon":5.37449,"is_reserved":false,"is_disabled":false,"rental_uris":{"android":"levelo://app?vid=6e1bd625-3ec1-43df-9657-36d71ae09f8d","ios":"levelo://app?vid=6e1bd625-3ec1-43df-9657-36d71ae09f8d"},"vehicle_type_id":"4","last_reported":1747484267,"current_range_meters":12400,"station_id":"","pricing_plan_id":"cebpf4jnsgd1na2vs0mg"},{"bike_id":"a4d7457e-a382-4ab7-9876-e9ba20692ec9","system_id":"levelo_inurba_marseille","lat":43.319919,"lon":5.381629,"is_reserved":false,"is_disabled":false,"rental_uris":{"android":"levelo://app?vid=a4d7457e-a382-4ab7-9876-e9ba20692ec9","ios":"levelo://app?vid=a4d7457e-a382-4ab7-9876-e9ba20692ec9"},"vehicle_type_id":"4","last_reported":1747484267,"current_range_meters":12400,"station_id":"ce4bhr12rcd13ifvqhpg","pricing_plan_id":"cebpf4jnsgd1na2vs0mg"},{"bike_id":"46c4ba03-4382-41c0-9bae-f8b360ae58bf","system_id":"levelo_inurba_marseille","lat":43.31988,"lon":5.38119,"is_reserved":false,"is_disabled":false,"rental_uris":{"android":"levelo://app?vid=46c4ba03-4382-41c0-9bae-f8b360ae58bf","ios":"levelo://app?vid=46c4ba03-4382-41c0-9bae-f8b360ae58bf"},"vehicle_type_id":"4","last_reported":1747484267,"current_range_meters":12800,"station_id":"ce4bhr12rcd13ifvqhpg","pricing_plan_id":"cebpf4jnsgd1na2vs0mg"},{"bike_id":"c3738dc5-3166-43ed-915b-7f1a4cfa4f63","system_id":"levelo_inurba_marseille","lat":43.28259,"lon":5.35083,"is_reserved":false,"is_disabled":false,"rental_uris":{"android":"levelo://app?vid=c3738dc5-3166-43ed-915b-7f1a4cfa4f63","ios":"levelo://app?vid=c3738dc5-3166-43ed-915b-7f1a4cfa4f63"},"vehicle_type_id":"4","last_reported":1747484267,"current_range_meters":12800,"station_id":"ce4bhbp2rcd13ifvqerg","pricing_plan_id":"cebpf4jnsgd1na2vs0mg"},{"bike_id":"1fde5096-214e-4c05-81c8-64064a75d26b","system_id":"levelo_inurba_marseille","lat":43.28154,"lon":5.42644,"is_reserved":false,"is_disabled":false,"rental_uris":{"android":"levelo://app?vid=1fde5096-214e-4c05-81c8-64064a75d26b","ios":"levelo://app?vid=1fde5096-214e-4c05-81c8-64064a75d26b"},"vehicle_type_id":"4","last_reported":1747484267,"current_range_meters":12800,"station_id":"ce4bhnh2rcd13ifvqgug","pricing_plan_id":"cebpf4jnsgd1na2vs0mg"},{"bike_id":"0a0fa568-f7d9-4be3-98a5-36c64d6ae6e0","system_id":"levelo_inurba_marseille","lat":43.21194,"lon":5.35065,"is_reserved":false,"is_disabled":false,"rental_uris":{"android":"levelo://app?vid=0a0fa568-f7d9-4be3-98a5-36c64d6ae6e0","ios":"levelo://app?vid=0a0fa568-f7d9-4be3-98a5-36c64d6ae6e0"},"vehicle_type_id":"4","last_reported":1747484267,"current_range_meters":12800,"station_id":"st_cvj6sg6p6f1abm77japg","pricing_plan_id":"cebpf4jnsgd1na2vs0mg"},{"bike_id":"08461517-c731-4536-b80b-c62ece1a8db0","system_id":"levelo_inurba_marseille","lat":43.2603,"lon":5.37544,"is_reserved":false,"is_disabled":false,"rental_uris":{"android":"levelo://app?vid=08461517-c731-4536-b80b-c62ece1a8db0","ios":"levelo://app?vid=08461517-c731-4536-b80b-c62ece1a8db0"},"vehicle_type_id":"4","last_reported":1747484267,"current_range_meters":12800,"station_id":"ce4bhgh2rcd13ifvqfa0","pricing_plan_id":"cebpf4jnsgd1na2vs0mg"},{"bike_id":"c7f97100-10ab-40ad-9987-b68451235665","system_id":"levelo_inurba_marseille","lat":43.27955,"lon":5.38748,"is_reserved":false,"is_disabled":false,"rental_uris":{"android":"levelo://app?vid=c7f97100-10ab-40ad-9987-b68451235665","ios":"levelo://app?vid=c7f97100-10ab-40ad-9987-b68451235665"},"vehicle_type_id":"4","last_reported":1747484267,"current_range_meters":14000,"station_id":"ce4bhg12rcd13ifvqf80","pricing_plan_id":"cebpf4jnsgd1na2vs0mg"},{"bike_id":"8f61d24d-bf10-46ab-aa3b-114655a14ebe","system_id":"levelo_inurba_marseille","lat":43.25495,"lon":5.37658,"is_reserved":false,"is_disabled":false,"rental_uris":{"android":"levelo://app?vid=8f61d24d-bf10-46ab-aa3b-114655a14ebe","ios":"levelo://app?vid=8f61d24d-bf10-46ab-aa3b-114655a14ebe"},"vehicle_type_id":"4","last_reported":1747484267,"current_range_meters":13600,"station_id":"ce4bhh12rcd13ifvqff0","pricing_plan_id":"cebpf4jnsgd1na2vs0mg"},{"bike_id":"289e4c47-953e-4fc5-90da-4bc51ffadd6a","system_id":"levelo_inurba_marseille","lat":43.29618,"lon":5.37147,"is_reserved":false,"is_disabled":false,"rental_uris":{"android":"levelo://app?vid=289e4c47-953e-4fc5-90da-4bc51ffadd6a","ios":"levelo://app?vid=289e4c47-953e-4fc5-90da-4bc51ffadd6a"},"vehicle_type_id":"4","last_reported":1747484267,"current_range_meters":13600,"station_id":"ce4bgnh2rcd13ifvqc0g","pricing_plan_id":"cebpf4jnsgd1na2vs0mg"},{"bike_id":"f63203cc-3db4-4da9-b727-3ca3702bb76a","system_id":"levelo_inurba_marseille","lat":43.26031,"lon":5.37547,"is_reserved":false,"is_disabled":false,"rental_uris":{"android":"levelo://app?vid=f63203cc-3db4-4da9-b727-3ca3702bb76a","ios":"levelo://app?vid=f63203cc-3db4-4da9-b727-3ca3702bb76a"},"vehicle_type_id":"4","last_reported":1747484267,"current_range_meters":13600,"station_id":"ce4bhgh2rcd13ifvqfa0","pricing_plan_id":"cebpf4jnsgd1na2vs0mg"},{"bike_id":"170e228a-e539-4101-a8b2-9fc8775ebc99","system_id":"levelo_inurba_marseille","lat":43.284119,"lon":5.349739,"is_reserved":false,"is_disabled":false,"rental_uris":{"android":"levelo://app?vid=170e228a-e539-4101-a8b2-9fc8775ebc99","ios":"levelo://app?vid=170e228a-e539-4101-a8b2-9fc8775ebc99"},"vehicle_type_id":"4","last_reported":1747484267,"current_range_meters":13600,"station_id":"ce4bhbp2rcd13ifvqerg","pricing_plan_id":"cebpf4jnsgd1na2vs0mg"},{"bike_id":"8023a99b-17c6-4172-98d6-a8a3314ce86b","system_id":"levelo_inurba_marseille","lat":43.30592,"lon":5.37235,"is_reserved":false,"is_disabled":false,"rental_uris":{"android":"levelo://app?vid=8023a99b-17c6-4172-98d6-a8a3314ce86b","ios":"levelo://app?vid=8023a99b-17c6-4172-98d6-a8a3314ce86b"},"vehicle_type_id":"4","last_reported":1747484267,"current_range_meters":13600,"station_id":"ce4bgqh2rcd13ifvqc4g","pricing_plan_id":"cebpf4jnsgd1na2vs0mg"},{"bike_id":"14603e41-b2dd-4757-a53c-2e366aa4f983","system_id":"levelo_inurba_marseille","lat":43.26993,"lon":5.42829,"is_reserved":false,"is_disabled":false,"rental_uris":{"android":"levelo://app?vid=14603e41-b2dd-4757-a53c-2e366aa4f983","ios":"levelo://app?vid=14603e41-b2dd-4757-a53c-2e366aa4f983"},"vehicle_type_id":"4","last_reported":1747484267,"current_range_meters":13600,"station_id":"","pricing_plan_id":"cebpf4jnsgd1na2vs0mg"},{"bike_id":"460e8303-29a3-4406-83d3-19c607823160","system_id":"levelo_inurba_marseille","lat":43.29191,"lon":5.35803,"is_reserved":false,"is_disabled":false,"rental_uris":{"android":"levelo://app?vid=460e8303-29a3-4406-83d3-19c607823160","ios":"levelo://app?vid=460e8303-29a3-4406-83d3-19c607823160"},"vehicle_type_id":"4","last_reported":1747484267,"current_range_meters":13600,"station_id":"ce4bhb12rcd13ifvqel0","pricing_plan_id":"cebpf4jnsgd1na2vs0mg"},{"bike_id":"8dc84081-423e-499f-8243-020d24558319","system_id":"levelo_inurba_marseille","lat":43.28265,"lon":5.35057,"is_reserved":false,"is_disabled":false,"rental_uris":{"android":"levelo://app?vid=8dc84081-423e-499f-8243-020d24558319","ios":"levelo://app?vid=8dc84081-423e-499f-8243-020d24558319"},"vehicle_type_id":"4","last_reported":1747484267,"current_range_meters":14000,"station_id":"ce4bhbp2rcd13ifvqerg","pricing_plan_id":"cebpf4jnsgd1na2vs0mg"},{"bike_id":"7138af59-1380-475f-9add-da10355761e2","system_id":"levelo_inurba_marseille","lat":43.269628,"lon":5.40288,"is_reserved":false,"is_disabled":true,"rental_uris":{"android":"levelo://app?vid=7138af59-1380-475f-9add-da10355761e2","ios":"levelo://app?vid=7138af59-1380-475f-9add-da10355761e2"},"vehicle_type_id":"4","last_reported":1747484267,"current_range_meters":14000,"station_id":"cjm6bp8fraef2m0cb0m0","pricing_plan_id":"cebpf4jnsgd1na2vs0mg"},{"bike_id":"489edee8-4cda-48e4-b99a-51c31ccac25e","system_id":"levelo_inurba_marseille","lat":43.27615,"lon":5.36113,"is_reserved":false,"is_disabled":false,"rental_uris":{"android":"levelo://app?vid=489edee8-4cda-48e4-b99a-51c31ccac25e","ios":"levelo://app?vid=489edee8-4cda-48e4-b99a-51c31ccac25e"},"vehicle_type_id":"4","last_reported":1747484267,"current_range_meters":14000,"station_id":"ce4bgj92rcd13ifvqbe0","pricing_plan_id":"cebpf4jnsgd1na2vs0mg"},{"bike_id":"2896f744-2283-4a2a-affb-fe4d3a18bbd3","system_id":"levelo_inurba_marseille","lat":43.3148,"lon":5.37302,"is_reserved":false,"is_disabled":false,"rental_uris":{"android":"levelo://app?vid=2896f744-2283-4a2a-affb-fe4d3a18bbd3","ios":"levelo://app?vid=2896f744-2283-4a2a-affb-fe4d3a18bbd3"},"vehicle_type_id":"4","last_reported":1747484267,"current_range_meters":14000,"station_id":"ce4bgt12rcd13ifvqcd0","pricing_plan_id":"cebpf4jnsgd1na2vs0mg"},{"bike_id":"26063710-cc3f-4398-a21d-4a330fd7250d","system_id":"levelo_inurba_marseille","lat":43.26189,"lon":5.37456,"is_reserved":false,"is_disabled":false,"rental_uris":{"android":"levelo://app?vid=26063710-cc3f-4398-a21d-4a330fd7250d","ios":"levelo://app?vid=26063710-cc3f-4398-a21d-4a330fd7250d"},"vehicle_type_id":"4","last_reported":1747484267,"current_range_meters":14000,"station_id":"ce4bhgp2rcd13ifvqfc0","pricing_plan_id":"cebpf4jnsgd1na2vs0mg"},{"bike_id":"6b6aed47-fd34-448b-9994-4612dcb5b96a","system_id":"levelo_inurba_marseille","lat":43.28266,"lon":5.35075,"is_reserved":false,"is_disabled":false,"rental_uris":{"android":"levelo://app?vid=6b6aed47-fd34-448b-9994-4612dcb5b96a","ios":"levelo://app?vid=6b6aed47-fd34-448b-9994-4612dcb5b96a"},"vehicle_type_id":"4","last_reported":1747484267,"current_range_meters":14000,"station_id":"ce4bhbp2rcd13ifvqerg","pricing_plan_id":"cebpf4jnsgd1na2vs0mg"},{"bike_id":"353fc0e4-539f-4488-be2f-4554d7b26470","system_id":"levelo_inurba_marseille","lat":43.24166,"lon":5.36392,"is_reserved":false,"is_disabled":false,"rental_uris":{"android":"levelo://app?vid=353fc0e4-539f-4488-be2f-4554d7b26470","ios":"levelo://app?vid=353fc0e4-539f-4488-be2f-4554d7b26470"},"vehicle_type_id":"4","last_reported":1747484267,"current_range_meters":14000,"station_id":"cpo36qri1sfpv3e86is0","pricing_plan_id":"cebpf4jnsgd1na2vs0mg"},{"bike_id":"0861c99d-4281-4419-a2c7-71d96aadb620","system_id":"levelo_inurba_marseille","lat":43.23146,"lon":5.43714,"is_reserved":false,"is_disabled":false,"rental_uris":{"android":"levelo://app?vid=0861c99d-4281-4419-a2c7-71d96aadb620","ios":"levelo://app?vid=0861c99d-4281-4419-a2c7-71d96aadb620"},"vehicle_type_id":"4","last_reported":1747484267,"current_range_meters":14000,"station_id":"ce4bhmp2rcd13ifvqgog","pricing_plan_id":"cebpf4jnsgd1na2vs0mg"},{"bike_id":"54ce2771-ff73-4624-a884-80e0ade20d1c","system_id":"levelo_inurba_marseille","lat":43.27372,"lon":5.36255,"is_reserved":false,"is_disabled":false,"rental_uris":{"android":"levelo://app?vid=54ce2771-ff73-4624-a884-80e0ade20d1c","ios":"levelo://app?vid=54ce2771-ff73-4624-a884-80e0ade20d1c"},"vehicle_type_id":"4","last_reported":1747484267,"current_range_meters":14400,"station_id":"ce4bhbh2rcd13ifvqeo0","pricing_plan_id":"cebpf4jnsgd1na2vs0mg"},{"bike_id":"9f3b5c9c-0f0d-4657-b087-717245d4fb68","system_id":"levelo_inurba_marseille","lat":43.27374,"lon":5.36255,"is_reserved":false,"is_disabled":false,"rental_uris":{"android":"levelo://app?vid=9f3b5c9c-0f0d-4657-b087-717245d4fb68","ios":"levelo://app?vid=9f3b5c9c-0f0d-4657-b087-717245d4fb68"},"vehicle_type_id":"4","last_reported":1747484267,"current_range_meters":14400,"station_id":"ce4bhbh2rcd13ifvqeo0","pricing_plan_id":"cebpf4jnsgd1na2vs0mg"},{"bike_id":"0bb19ac2-0b62-4439-9151-b3f6367a952d","system_id":"levelo_inurba_marseille","lat":43.28409,"lon":5.34993,"is_reserved":false,"is_disabled":false,"rental_uris":{"android":"levelo://app?vid=0bb19ac2-0b62-4439-9151-b3f6367a952d","ios":"levelo://app?vid=0bb19ac2-0b62-4439-9151-b3f6367a952d"},"vehicle_type_id":"4","last_reported":1747484267,"current_range_meters":14400,"station_id":"ce4bhbh2rcd13ifvqepg","pricing_plan_id":"cebpf4jnsgd1na2vs0mg"},{"bike_id":"f948109f-a829-41ed-aa38-29e765ca5245","system_id":"levelo_inurba_marseille","lat":43.21187,"lon":5.35077,"is_reserved":false,"is_disabled":false,"rental_uris":{"android":"levelo://app?vid=f948109f-a829-41ed-aa38-29e765ca5245","ios":"levelo://app?vid=f948109f-a829-41ed-aa38-29e765ca5245"},"vehicle_type_id":"4","last_reported":1747484267,"current_range_meters":14400,"station_id":"st_cvj6sg6p6f1abm77japg","pricing_plan_id":"cebpf4jnsgd1na2vs0mg"},{"bike_id":"a080fa2b-c9b1-408a-9236-025ac0f77890","system_id":"levelo_inurba_marseille","lat":43.28414,"lon":5.34991,"is_reserved":false,"is_disabled":false,"rental_uris":{"android":"levelo://app?vid=a080fa2b-c9b1-408a-9236-025ac0f77890","ios":"levelo://app?vid=a080fa2b-c9b1-408a-9236-025ac0f77890"},"vehicle_type_id":"4","last_reported":1747484267,"current_range_meters":14400,"station_id":"ce4bhbh2rcd13ifvqepg","pricing_plan_id":"cebpf4jnsgd1na2vs0mg"},{"bike_id":"6cc33ac6-5ba5-4cd3-91a4-13bf7dd6d0f7","system_id":"levelo_inurba_marseille","lat":43.28341,"lon":5.38111,"is_reserved":false,"is_disabled":true,"rental_uris":{"android":"levelo://app?vid=6cc33ac6-5ba5-4cd3-91a4-13bf7dd6d0f7","ios":"levelo://app?vid=6cc33ac6-5ba5-4cd3-91a4-13bf7dd6d0f7"},"vehicle_type_id":"4","last_reported":1747484267,"current_range_meters":15200,"station_id":"ce4bh412rcd13ifvqdr0","pricing_plan_id":"cebpf4jnsgd1na2vs0mg"},{"bike_id":"dae4c5bf-2c1c-4572-9b48-b310cb0234ea","system_id":"levelo_inurba_marseille","lat":43.27626,"lon":5.36114,"is_reserved":false,"is_disabled":false,"rental_uris":{"android":"levelo://app?vid=dae4c5bf-2c1c-4572-9b48-b310cb0234ea","ios":"levelo://app?vid=dae4c5bf-2c1c-4572-9b48-b310cb0234ea"},"vehicle_type_id":"4","last_reported":1747484267,"current_range_meters":14800,"station_id":"ce4bgj92rcd13ifvqbe0","pricing_plan_id":"cebpf4jnsgd1na2vs0mg"},{"bike_id":"59bc5337-9bbf-4753-bfe2-0b20b15a8458","system_id":"levelo_inurba_marseille","lat":43.2842,"lon":5.34989,"is_reserved":false,"is_disabled":false,"rental_uris":{"android":"levelo://app?vid=59bc5337-9bbf-4753-bfe2-0b20b15a8458","ios":"levelo://app?vid=59bc5337-9bbf-4753-bfe2-0b20b15a8458"},"vehicle_type_id":"4","last_reported":1747484267,"current_range_meters":14800,"station_id":"ce4bhbh2rcd13ifvqepg","pricing_plan_id":"cebpf4jnsgd1na2vs0mg"},{"bike_id":"82abce6d-5931-4a18-802a-3aa698611a44","system_id":"levelo_inurba_marseille","lat":43.23556,"lon":5.36085,"is_reserved":false,"is_disabled":false,"rental_uris":{"android":"levelo://app?vid=82abce6d-5931-4a18-802a-3aa698611a44","ios":"levelo://app?vid=82abce6d-5931-4a18-802a-3aa698611a44"},"vehicle_type_id":"4","last_reported":1747484267,"current_range_meters":14800,"station_id":"","pricing_plan_id":"cebpf4jnsgd1na2vs0mg"},{"bike_id":"f2a2c599-50c1-4a61-a3d1-6022bdf2202f","system_id":"levelo_inurba_marseille","lat":43.258011,"lon":5.394429,"is_reserved":false,"is_disabled":false,"rental_uris":{"android":"levelo://app?vid=f2a2c599-50c1-4a61-a3d1-6022bdf2202f","ios":"levelo://app?vid=f2a2c599-50c1-4a61-a3d1-6022bdf2202f"},"vehicle_type_id":"4","last_reported":1747484267,"current_range_meters":14400,"station_id":"ce4bhip2rcd13ifvqft0","pricing_plan_id":"cebpf4jnsgd1na2vs0mg"},{"bike_id":"aea6abbb-808d-4679-8460-9edefcd3496b","system_id":"levelo_inurba_marseille","lat":43.27358,"lon":5.36265,"is_reserved":false,"is_disabled":false,"rental_uris":{"android":"levelo://app?vid=aea6abbb-808d-4679-8460-9edefcd3496b","ios":"levelo://app?vid=aea6abbb-808d-4679-8460-9edefcd3496b"},"vehicle_type_id":"4","last_reported":1747484267,"current_range_meters":14800,"station_id":"","pricing_plan_id":"cebpf4jnsgd1na2vs0mg"},{"bike_id":"2e7b5d76-1823-4707-b1df-c3d734346f86","system_id":"levelo_inurba_marseille","lat":43.26036,"lon":5.3754,"is_reserved":false,"is_disabled":false,"rental_uris":{"android":"levelo://app?vid=2e7b5d76-1823-4707-b1df-c3d734346f86","ios":"levelo://app?vid=2e7b5d76-1823-4707-b1df-c3d734346f86"},"vehicle_type_id":"4","last_reported":1747484267,"current_range_meters":15200,"station_id":"ce4bhgh2rcd13ifvqfa0","pricing_plan_id":"cebpf4jnsgd1na2vs0mg"},{"bike_id":"09b3eb29-a917-4cfd-803f-f199cab89b4d","system_id":"levelo_inurba_marseille","lat":43.25546,"lon":5.37658,"is_reserved":false,"is_disabled":false,"rental_uris":{"android":"levelo://app?vid=09b3eb29-a917-4cfd-803f-f199cab89b4d","ios":"levelo://app?vid=09b3eb29-a917-4cfd-803f-f199cab89b4d"},"vehicle_type_id":"4","last_reported":1747484267,"current_range_meters":15200,"station_id":"","pricing_plan_id":"cebpf4jnsgd1na2vs0mg"},{"bike_id":"4865257b-1033-4281-9cf7-0352d758bedc","system_id":"levelo_inurba_marseille","lat":43.23193,"lon":5.35547,"is_reserved":false,"is_disabled":false,"rental_uris":{"android":"levelo://app?vid=4865257b-1033-4281-9cf7-0352d758bedc","ios":"levelo://app?vid=4865257b-1033-4281-9cf7-0352d758bedc"},"vehicle_type_id":"4","last_reported":1747484267,"current_range_meters":15200,"station_id":"ce4bhu92rcd13ifvqi70","pricing_plan_id":"cebpf4jnsgd1na2vs0mg"},{"bike_id":"195b2f38-3583-46c4-9a59-e3288cc1c915","system_id":"levelo_inurba_marseille","lat":43.211913,"lon":5.350726,"is_reserved":false,"is_disabled":false,"rental_uris":{"android":"levelo://app?vid=195b2f38-3583-46c4-9a59-e3288cc1c915","ios":"levelo://app?vid=195b2f38-3583-46c4-9a59-e3288cc1c915"},"vehicle_type_id":"4","last_reported":1747484267,"current_range_meters":15200,"station_id":"st_cvj6sg6p6f1abm77japg","pricing_plan_id":"cebpf4jnsgd1na2vs0mg"},{"bike_id":"03162788-b520-4bfe-b2f2-98dd7a312990","system_id":"levelo_inurba_marseille","lat":43.24396,"lon":5.37058,"is_reserved":false,"is_disabled":false,"rental_uris":{"android":"levelo://app?vid=03162788-b520-4bfe-b2f2-98dd7a312990","ios":"levelo://app?vid=03162788-b520-4bfe-b2f2-98dd7a312990"},"vehicle_type_id":"4","last_reported":1747484267,"current_range_meters":15200,"station_id":"ce4bhhh2rcd13ifvqfk0","pricing_plan_id":"cebpf4jnsgd1na2vs0mg"},{"bike_id":"31826e3a-9cdb-4340-8e16-2182669d9a74","system_id":"levelo_inurba_marseille","lat":43.21194,"lon":5.35061,"is_reserved":false,"is_disabled":false,"rental_uris":{"android":"levelo://app?vid=31826e3a-9cdb-4340-8e16-2182669d9a74","ios":"levelo://app?vid=31826e3a-9cdb-4340-8e16-2182669d9a74"},"vehicle_type_id":"4","last_reported":1747484267,"current_range_meters":16000,"station_id":"st_cvj6sg6p6f1abm77japg","pricing_plan_id":"cebpf4jnsgd1na2vs0mg"},{"bike_id":"e87b5e61-1c66-43dd-a7f7-cb519d50bae3","system_id":"levelo_inurba_marseille","lat":43.25493,"lon":5.37646,"is_reserved":false,"is_disabled":false,"rental_uris":{"android":"levelo://app?vid=e87b5e61-1c66-43dd-a7f7-cb519d50bae3","ios":"levelo://app?vid=e87b5e61-1c66-43dd-a7f7-cb519d50bae3"},"vehicle_type_id":"4","last_reported":1747484267,"current_range_meters":16400,"station_id":"ce4bhh12rcd13ifvqff0","pricing_plan_id":"cebpf4jnsgd1na2vs0mg"},{"bike_id":"78338216-0a2b-4e99-8b78-cff8b95a208b","system_id":"levelo_inurba_marseille","lat":43.23193,"lon":5.35528,"is_reserved":false,"is_disabled":false,"rental_uris":{"android":"levelo://app?vid=78338216-0a2b-4e99-8b78-cff8b95a208b","ios":"levelo://app?vid=78338216-0a2b-4e99-8b78-cff8b95a208b"},"vehicle_type_id":"4","last_reported":1747484267,"current_range_meters":16000,"station_id":"ce4bhu92rcd13ifvqi70","pricing_plan_id":"cebpf4jnsgd1na2vs0mg"},{"bike_id":"1cb13a59-cf26-426e-814a-8c24150875c1","system_id":"levelo_inurba_marseille","lat":43.22502,"lon":5.34781,"is_reserved":false,"is_disabled":false,"rental_uris":{"android":"levelo://app?vid=1cb13a59-cf26-426e-814a-8c24150875c1","ios":"levelo://app?vid=1cb13a59-cf26-426e-814a-8c24150875c1"},"vehicle_type_id":"4","last_reported":1747484267,"current_range_meters":16000,"station_id":"st_cvj5dfep6f1abm77gieg","pricing_plan_id":"cebpf4jnsgd1na2vs0mg"},{"bike_id":"f2734867-7f22-4f8b-b4d3-f1d49fde0469","system_id":"levelo_inurba_marseille","lat":43.26558,"lon":5.37312,"is_reserved":false,"is_disabled":false,"rental_uris":{"android":"levelo://app?vid=f2734867-7f22-4f8b-b4d3-f1d49fde0469","ios":"levelo://app?vid=f2734867-7f22-4f8b-b4d3-f1d49fde0469"},"vehicle_type_id":"4","last_reported":1747484267,"current_range_meters":16000,"station_id":"ce4bhg12rcd13ifvqf70","pricing_plan_id":"cebpf4jnsgd1na2vs0mg"},{"bike_id":"6a17746b-8af9-4e87-95b3-394e2a3404dd","system_id":"levelo_inurba_marseille","lat":43.3033,"lon":5.40431,"is_reserved":false,"is_disabled":false,"rental_uris":{"android":"levelo://app?vid=6a17746b-8af9-4e87-95b3-394e2a3404dd","ios":"levelo://app?vid=6a17746b-8af9-4e87-95b3-394e2a3404dd"},"vehicle_type_id":"4","last_reported":1747484267,"current_range_meters":15200,"station_id":"ce4bh012rcd13ifvqd10","pricing_plan_id":"cebpf4jnsgd1na2vs0mg"},{"bike_id":"fd13ec93-3958-43fa-9fca-e9cf0e1fcf33","system_id":"levelo_inurba_marseille","lat":43.26034,"lon":5.37543,"is_reserved":false,"is_disabled":false,"rental_uris":{"android":"levelo://app?vid=fd13ec93-3958-43fa-9fca-e9cf0e1fcf33","ios":"levelo://app?vid=fd13ec93-3958-43fa-9fca-e9cf0e1fcf33"},"vehicle_type_id":"4","last_reported":1747484267,"current_range_meters":16000,"station_id":"ce4bhgh2rcd13ifvqfa0","pricing_plan_id":"cebpf4jnsgd1na2vs0mg"},{"bike_id":"89e39e15-8b59-46f4-a25b-4488827aea3a","system_id":"levelo_inurba_marseille","lat":43.2841,"lon":5.34982,"is_reserved":false,"is_disabled":false,"rental_uris":{"android":"levelo://app?vid=89e39e15-8b59-46f4-a25b-4488827aea3a","ios":"levelo://app?vid=89e39e15-8b59-46f4-a25b-4488827aea3a"},"vehicle_type_id":"4","last_reported":1747484267,"current_range_meters":16000,"station_id":"ce4bhbh2rcd13ifvqepg","pricing_plan_id":"cebpf4jnsgd1na2vs0mg"},{"bike_id":"da4dcaf1-514d-4835-829d-abd8e5229eab","system_id":"levelo_inurba_marseille","lat":43.24156,"lon":5.39735,"is_reserved":false,"is_disabled":false,"rental_uris":{"android":"levelo://app?vid=da4dcaf1-514d-4835-829d-abd8e5229eab","ios":"levelo://app?vid=da4dcaf1-514d-4835-829d-abd8e5229eab"},"vehicle_type_id":"4","last_reported":1747484267,"current_range_meters":16400,"station_id":"ce4bhn12rcd13ifvqgpg","pricing_plan_id":"cebpf4jnsgd1na2vs0mg"},{"bike_id":"c6ea5f8a-3ad6-414b-b2d8-bbca034829eb","system_id":"levelo_inurba_marseille","lat":43.2117,"lon":5.35036,"is_reserved":false,"is_disabled":false,"rental_uris":{"android":"levelo://app?vid=c6ea5f8a-3ad6-414b-b2d8-bbca034829eb","ios":"levelo://app?vid=c6ea5f8a-3ad6-414b-b2d8-bbca034829eb"},"vehicle_type_id":"4","last_reported":1747484267,"current_range_meters":16400,"station_id":"st_cvj6sg6p6f1abm77japg","pricing_plan_id":"cebpf4jnsgd1na2vs0mg"},{"bike_id":"bf1e2539-561c-4594-8bd7-8077e928ff09","system_id":"levelo_inurba_marseille","lat":43.28609,"lon":5.351,"is_reserved":false,"is_disabled":false,"rental_uris":{"android":"levelo://app?vid=bf1e2539-561c-4594-8bd7-8077e928ff09","ios":"levelo://app?vid=bf1e2539-561c-4594-8bd7-8077e928ff09"},"vehicle_type_id":"4","last_reported":1747484267,"current_range_meters":16400,"station_id":"ce4bhch2rcd13ifvqeug","pricing_plan_id":"cebpf4jnsgd1na2vs0mg"},{"bike_id":"37a58ba4-f952-4e8c-bf4f-38c5a8a4dd9e","system_id":"levelo_inurba_marseille","lat":43.2119,"lon":5.35076,"is_reserved":false,"is_disabled":false,"rental_uris":{"android":"levelo://app?vid=37a58ba4-f952-4e8c-bf4f-38c5a8a4dd9e","ios":"levelo://app?vid=37a58ba4-f952-4e8c-bf4f-38c5a8a4dd9e"},"vehicle_type_id":"4","last_reported":1747484267,"current_range_meters":16400,"station_id":"st_cvj6sg6p6f1abm77japg","pricing_plan_id":"cebpf4jnsgd1na2vs0mg"},{"bike_id":"117b718e-109a-41ba-9966-d0a27c8abb38","system_id":"levelo_inurba_marseille","lat":43.30331,"lon":5.4043,"is_reserved":false,"is_disabled":false,"rental_uris":{"android":"levelo://app?vid=117b718e-109a-41ba-9966-d0a27c8abb38","ios":"levelo://app?vid=117b718e-109a-41ba-9966-d0a27c8abb38"},"vehicle_type_id":"4","last_reported":1747484267,"current_range_meters":16400,"station_id":"ce4bh012rcd13ifvqd10","pricing_plan_id":"cebpf4jnsgd1na2vs0mg"},{"bike_id":"a2f1c1a4-b83d-4b2e-816c-ba16132a59e3","system_id":"levelo_inurba_marseille","lat":43.21187,"lon":5.35053,"is_reserved":false,"is_disabled":false,"rental_uris":{"android":"levelo://app?vid=a2f1c1a4-b83d-4b2e-816c-ba16132a59e3","ios":"levelo://app?vid=a2f1c1a4-b83d-4b2e-816c-ba16132a59e3"},"vehicle_type_id":"4","last_reported":1747484267,"current_range_meters":16400,"station_id":"st_cvj6sg6p6f1abm77japg","pricing_plan_id":"cebpf4jnsgd1na2vs0mg"},{"bike_id":"1168ec19-0d78-4c4c-8928-db49bbe3191b","system_id":"levelo_inurba_marseille","lat":43.2994,"lon":5.36543,"is_reserved":false,"is_disabled":false,"rental_uris":{"android":"levelo://app?vid=1168ec19-0d78-4c4c-8928-db49bbe3191b","ios":"levelo://app?vid=1168ec19-0d78-4c4c-8928-db49bbe3191b"},"vehicle_type_id":"4","last_reported":1747484267,"current_range_meters":16400,"station_id":"ce4bgm92rcd13ifvqbr0","pricing_plan_id":"cebpf4jnsgd1na2vs0mg"},{"bike_id":"f24b48a1-1f35-4788-9479-75c399db8925","system_id":"levelo_inurba_marseille","lat":43.29706,"lon":5.36611,"is_reserved":false,"is_disabled":false,"rental_uris":{"android":"levelo://app?vid=f24b48a1-1f35-4788-9479-75c399db8925","ios":"levelo://app?vid=f24b48a1-1f35-4788-9479-75c399db8925"},"vehicle_type_id":"4","last_reported":1747484267,"current_range_meters":16400,"station_id":"ce4bgn12rcd13ifvqbt0","pricing_plan_id":"cebpf4jnsgd1na2vs0mg"},{"bike_id":"93e4eb0f-d439-40a0-8857-ce150a01f705","system_id":"levelo_inurba_marseille","lat":43.21189,"lon":5.35073,"is_reserved":false,"is_disabled":false,"rental_uris":{"android":"levelo://app?vid=93e4eb0f-d439-40a0-8857-ce150a01f705","ios":"levelo://app?vid=93e4eb0f-d439-40a0-8857-ce150a01f705"},"vehicle_type_id":"4","last_reported":1747484267,"current_range_meters":16400,"station_id":"st_cvj6sg6p6f1abm77japg","pricing_plan_id":"cebpf4jnsgd1na2vs0mg"},{"bike_id":"3392d225-018e-43d8-9706-fdda843e3b5a","system_id":"levelo_inurba_marseille","lat":43.27372,"lon":5.36268,"is_reserved":false,"is_disabled":false,"rental_uris":{"android":"levelo://app?vid=3392d225-018e-43d8-9706-fdda843e3b5a","ios":"levelo://app?vid=3392d225-018e-43d8-9706-fdda843e3b5a"},"vehicle_type_id":"4","last_reported":1747484267,"current_range_meters":16400,"station_id":"ce4bhbh2rcd13ifvqeo0","pricing_plan_id":"cebpf4jnsgd1na2vs0mg"},{"bike_id":"3a60f69b-b400-42ec-a46d-b32f5a56fe36","system_id":"levelo_inurba_marseille","lat":43.28906,"lon":5.38392,"is_reserved":false,"is_disabled":false,"rental_uris":{"android":"levelo://app?vid=3a60f69b-b400-42ec-a46d-b32f5a56fe36","ios":"levelo://app?vid=3a60f69b-b400-42ec-a46d-b32f5a56fe36"},"vehicle_type_id":"4","last_reported":1747484267,"current_range_meters":16400,"station_id":"ce4bh612rcd13ifvqe6g","pricing_plan_id":"cebpf4jnsgd1na2vs0mg"},{"bike_id":"a5fd722f-bc64-477b-aed1-1ef1371d72cf","system_id":"levelo_inurba_marseille","lat":43.337444,"lon":5.374475,"is_reserved":false,"is_disabled":false,"rental_uris":{"android":"levelo://app?vid=a5fd722f-bc64-477b-aed1-1ef1371d72cf","ios":"levelo://app?vid=a5fd722f-bc64-477b-aed1-1ef1371d72cf"},"vehicle_type_id":"4","last_reported":1747484267,"current_range_meters":16400,"station_id":"","pricing_plan_id":"cebpf4jnsgd1na2vs0mg"},{"bike_id":"41944601-1a6e-4073-bb7f-7b29bef40dc1","system_id":"levelo_inurba_marseille","lat":43.22486,"lon":5.34759,"is_reserved":false,"is_disabled":false,"rental_uris":{"android":"levelo://app?vid=41944601-1a6e-4073-bb7f-7b29bef40dc1","ios":"levelo://app?vid=41944601-1a6e-4073-bb7f-7b29bef40dc1"},"vehicle_type_id":"4","last_reported":1747484267,"current_range_meters":16800,"station_id":"st_cvj5dfep6f1abm77gieg","pricing_plan_id":"cebpf4jnsgd1na2vs0mg"},{"bike_id":"e3ccfdf2-8984-4f17-a6ad-0d3351116e1d","system_id":"levelo_inurba_marseille","lat":43.26219,"lon":5.37925,"is_reserved":false,"is_disabled":false,"rental_uris":{"android":"levelo://app?vid=e3ccfdf2-8984-4f17-a6ad-0d3351116e1d","ios":"levelo://app?vid=e3ccfdf2-8984-4f17-a6ad-0d3351116e1d"},"vehicle_type_id":"4","last_reported":1747484267,"current_range_meters":16800,"station_id":"ce4bhjp2rcd13ifvqg90","pricing_plan_id":"cebpf4jnsgd1na2vs0mg"},{"bike_id":"9e12480d-8f01-406b-b412-1f96fb15bc17","system_id":"levelo_inurba_marseille","lat":43.28256,"lon":5.35081,"is_reserved":false,"is_disabled":false,"rental_uris":{"android":"levelo://app?vid=9e12480d-8f01-406b-b412-1f96fb15bc17","ios":"levelo://app?vid=9e12480d-8f01-406b-b412-1f96fb15bc17"},"vehicle_type_id":"4","last_reported":1747484267,"current_range_meters":16800,"station_id":"ce4bhbp2rcd13ifvqerg","pricing_plan_id":"cebpf4jnsgd1na2vs0mg"},{"bike_id":"d55f9225-e6ff-4e45-92e4-2cc2ba495a7c","system_id":"levelo_inurba_marseille","lat":43.308584,"lon":5.382691,"is_reserved":false,"is_disabled":false,"rental_uris":{"android":"levelo://app?vid=d55f9225-e6ff-4e45-92e4-2cc2ba495a7c","ios":"levelo://app?vid=d55f9225-e6ff-4e45-92e4-2cc2ba495a7c"},"vehicle_type_id":"4","last_reported":1747484267,"current_range_meters":16800,"station_id":"","pricing_plan_id":"cebpf4jnsgd1na2vs0mg"},{"bike_id":"86bc1e75-eef2-4545-b02d-94c0de854c50","system_id":"levelo_inurba_marseille","lat":43.25168,"lon":5.41113,"is_reserved":false,"is_disabled":false,"rental_uris":{"android":"levelo://app?vid=86bc1e75-eef2-4545-b02d-94c0de854c50","ios":"levelo://app?vid=86bc1e75-eef2-4545-b02d-94c0de854c50"},"vehicle_type_id":"4","last_reported":1747484267,"current_range_meters":16800,"station_id":"","pricing_plan_id":"cebpf4jnsgd1na2vs0mg"},{"bike_id":"f74fbd10-2908-4b9f-befc-b405acfe2189","system_id":"levelo_inurba_marseille","lat":43.28271,"lon":5.3507,"is_reserved":false,"is_disabled":false,"rental_uris":{"android":"levelo://app?vid=f74fbd10-2908-4b9f-befc-b405acfe2189","ios":"levelo://app?vid=f74fbd10-2908-4b9f-befc-b405acfe2189"},"vehicle_type_id":"4","last_reported":1747484267,"current_range_meters":16800,"station_id":"ce4bhbp2rcd13ifvqerg","pricing_plan_id":"cebpf4jnsgd1na2vs0mg"},{"bike_id":"699abd9d-d224-400f-817a-8ea7faf46092","system_id":"levelo_inurba_marseille","lat":43.23149,"lon":5.43711,"is_reserved":false,"is_disabled":false,"rental_uris":{"android":"levelo://app?vid=699abd9d-d224-400f-817a-8ea7faf46092","ios":"levelo://app?vid=699abd9d-d224-400f-817a-8ea7faf46092"},"vehicle_type_id":"4","last_reported":1747484267,"current_range_meters":16800,"station_id":"ce4bhmp2rcd13ifvqgog","pricing_plan_id":"cebpf4jnsgd1na2vs0mg"},{"bike_id":"6fcfd778-53a8-4a73-9e9b-098ea75e4fbe","system_id":"levelo_inurba_marseille","lat":43.2707,"lon":5.42284,"is_reserved":false,"is_disabled":false,"rental_uris":{"android":"levelo://app?vid=6fcfd778-53a8-4a73-9e9b-098ea75e4fbe","ios":"levelo://app?vid=6fcfd778-53a8-4a73-9e9b-098ea75e4fbe"},"vehicle_type_id":"4","last_reported":1747484267,"current_range_meters":17200,"station_id":"ce4bhk92rcd13ifvqgb0","pricing_plan_id":"cebpf4jnsgd1na2vs0mg"},{"bike_id":"b26a0dd7-cbdc-4ab7-8def-31c4b88b224a","system_id":"levelo_inurba_marseille","lat":43.31206,"lon":5.3927,"is_reserved":false,"is_disabled":false,"rental_uris":{"android":"levelo://app?vid=b26a0dd7-cbdc-4ab7-8def-31c4b88b224a","ios":"levelo://app?vid=b26a0dd7-cbdc-4ab7-8def-31c4b88b224a"},"vehicle_type_id":"4","last_reported":1747484267,"current_range_meters":17200,"station_id":"","pricing_plan_id":"cebpf4jnsgd1na2vs0mg"},{"bike_id":"8176fba3-11fb-42ab-9ef0-8943cd30998b","system_id":"levelo_inurba_marseille","lat":43.27377,"lon":5.36246,"is_reserved":false,"is_disabled":false,"rental_uris":{"android":"levelo://app?vid=8176fba3-11fb-42ab-9ef0-8943cd30998b","ios":"levelo://app?vid=8176fba3-11fb-42ab-9ef0-8943cd30998b"},"vehicle_type_id":"4","last_reported":1747484267,"current_range_meters":17200,"station_id":"ce4bhbh2rcd13ifvqeo0","pricing_plan_id":"cebpf4jnsgd1na2vs0mg"},{"bike_id":"c8740d75-4f95-49f6-afab-d5a8762b2e79","system_id":"levelo_inurba_marseille","lat":43.21191,"lon":5.35066,"is_reserved":false,"is_disabled":false,"rental_uris":{"android":"levelo://app?vid=c8740d75-4f95-49f6-afab-d5a8762b2e79","ios":"levelo://app?vid=c8740d75-4f95-49f6-afab-d5a8762b2e79"},"vehicle_type_id":"4","last_reported":1747484267,"current_range_meters":17200,"station_id":"st_cvj6sg6p6f1abm77japg","pricing_plan_id":"cebpf4jnsgd1na2vs0mg"},{"bike_id":"699d068d-8fbb-40ec-9df0-b007af55d5b2","system_id":"levelo_inurba_marseille","lat":43.32343,"lon":5.40623,"is_reserved":false,"is_disabled":false,"rental_uris":{"android":"levelo://app?vid=699d068d-8fbb-40ec-9df0-b007af55d5b2","ios":"levelo://app?vid=699d068d-8fbb-40ec-9df0-b007af55d5b2"},"vehicle_type_id":"4","last_reported":1747484267,"current_range_meters":17200,"station_id":"ce4bhq92rcd13ifvqhjg","pricing_plan_id":"cebpf4jnsgd1na2vs0mg"},{"bike_id":"a672b288-693a-4908-9406-b5ca3ca8e07a","system_id":"levelo_inurba_marseille","lat":43.27051,"lon":5.40259,"is_reserved":false,"is_disabled":false,"rental_uris":{"android":"levelo://app?vid=a672b288-693a-4908-9406-b5ca3ca8e07a","ios":"levelo://app?vid=a672b288-693a-4908-9406-b5ca3ca8e07a"},"vehicle_type_id":"4","last_reported":1747484267,"current_range_meters":17200,"station_id":"ce4bhk92rcd13ifvqgc0","pricing_plan_id":"cebpf4jnsgd1na2vs0mg"},{"bike_id":"ac51e091-21fa-4075-be7a-7e5369bf321d","system_id":"levelo_inurba_marseille","lat":43.24165,"lon":5.3639,"is_reserved":false,"is_disabled":false,"rental_uris":{"android":"levelo://app?vid=ac51e091-21fa-4075-be7a-7e5369bf321d","ios":"levelo://app?vid=ac51e091-21fa-4075-be7a-7e5369bf321d"},"vehicle_type_id":"4","last_reported":1747484267,"current_range_meters":17200,"station_id":"cpo36qri1sfpv3e86is0","pricing_plan_id":"cebpf4jnsgd1na2vs0mg"},{"bike_id":"5593c7f2-36a3-497f-99da-64fa53a52ee8","system_id":"levelo_inurba_marseille","lat":43.28047,"lon":5.37806,"is_reserved":false,"is_disabled":false,"rental_uris":{"android":"levelo://app?vid=5593c7f2-36a3-497f-99da-64fa53a52ee8","ios":"levelo://app?vid=5593c7f2-36a3-497f-99da-64fa53a52ee8"},"vehicle_type_id":"4","last_reported":1747484267,"current_range_meters":17600,"station_id":"","pricing_plan_id":"cebpf4jnsgd1na2vs0mg"},{"bike_id":"2ee295cb-96c4-4610-8663-e4188fc8c038","system_id":"levelo_inurba_marseille","lat":43.21757,"lon":5.34593,"is_reserved":false,"is_disabled":false,"rental_uris":{"android":"levelo://app?vid=2ee295cb-96c4-4610-8663-e4188fc8c038","ios":"levelo://app?vid=2ee295cb-96c4-4610-8663-e4188fc8c038"},"vehicle_type_id":"4","last_reported":1747484267,"current_range_meters":17600,"station_id":"st_cvj6r9ubvosntc0bgbag","pricing_plan_id":"cebpf4jnsgd1na2vs0mg"},{"bike_id":"d34c355c-cb3e-4df0-bfab-ce8bcf55ba6d","system_id":"levelo_inurba_marseille","lat":43.21742,"lon":5.34613,"is_reserved":false,"is_disabled":false,"rental_uris":{"android":"levelo://app?vid=d34c355c-cb3e-4df0-bfab-ce8bcf55ba6d","ios":"levelo://app?vid=d34c355c-cb3e-4df0-bfab-ce8bcf55ba6d"},"vehicle_type_id":"4","last_reported":1747484267,"current_range_meters":17600,"station_id":"st_cvj6r9ubvosntc0bgbag","pricing_plan_id":"cebpf4jnsgd1na2vs0mg"},{"bike_id":"ae379463-bd7d-46a1-9335-5d1bd7e44759","system_id":"levelo_inurba_marseille","lat":43.30742,"lon":5.42456,"is_reserved":false,"is_disabled":true,"rental_uris":{"android":"levelo://app?vid=ae379463-bd7d-46a1-9335-5d1bd7e44759","ios":"levelo://app?vid=ae379463-bd7d-46a1-9335-5d1bd7e44759"},"vehicle_type_id":"4","last_reported":1747484267,"current_range_meters":17600,"station_id":"st_cvj6ca6bvosntc0bfgr0","pricing_plan_id":"cebpf4jnsgd1na2vs0mg"},{"bike_id":"0c0db44c-c12b-4b2c-a876-ba3fd365d935","system_id":"levelo_inurba_marseille","lat":43.26197,"lon":5.37928,"is_reserved":false,"is_disabled":false,"rental_uris":{"android":"levelo://app?vid=0c0db44c-c12b-4b2c-a876-ba3fd365d935","ios":"levelo://app?vid=0c0db44c-c12b-4b2c-a876-ba3fd365d935"},"vehicle_type_id":"4","last_reported":1747484267,"current_range_meters":17600,"station_id":"ce4bhjp2rcd13ifvqg90","pricing_plan_id":"cebpf4jnsgd1na2vs0mg"},{"bike_id":"63b69a18-fede-4e10-ab4e-8dc63e90647b","system_id":"levelo_inurba_marseille","lat":43.28413,"lon":5.34994,"is_reserved":false,"is_disabled":false,"rental_uris":{"android":"levelo://app?vid=63b69a18-fede-4e10-ab4e-8dc63e90647b","ios":"levelo://app?vid=63b69a18-fede-4e10-ab4e-8dc63e90647b"},"vehicle_type_id":"4","last_reported":1747484267,"current_range_meters":17600,"station_id":"ce4bhbh2rcd13ifvqepg","pricing_plan_id":"cebpf4jnsgd1na2vs0mg"},{"bike_id":"9f31a443-9839-46dc-a886-f9f8426b011d","system_id":"levelo_inurba_marseille","lat":43.2175,"lon":5.34599,"is_reserved":false,"is_disabled":false,"rental_uris":{"android":"levelo://app?vid=9f31a443-9839-46dc-a886-f9f8426b011d","ios":"levelo://app?vid=9f31a443-9839-46dc-a886-f9f8426b011d"},"vehicle_type_id":"4","last_reported":1747484267,"current_range_meters":18000,"station_id":"st_cvj6r9ubvosntc0bgbag","pricing_plan_id":"cebpf4jnsgd1na2vs0mg"},{"bike_id":"46325a72-c54e-4e5c-be06-9808bf81730b","system_id":"levelo_inurba_marseille","lat":43.27068,"lon":5.42277,"is_reserved":false,"is_disabled":false,"rental_uris":{"android":"levelo://app?vid=46325a72-c54e-4e5c-be06-9808bf81730b","ios":"levelo://app?vid=46325a72-c54e-4e5c-be06-9808bf81730b"},"vehicle_type_id":"4","last_reported":1747484267,"current_range_meters":18000,"station_id":"ce4bhk92rcd13ifvqgb0","pricing_plan_id":"cebpf4jnsgd1na2vs0mg"},{"bike_id":"e634c0a5-82a9-4f06-9b19-d7d549895e44","system_id":"levelo_inurba_marseille","lat":43.30294,"lon":5.36865,"is_reserved":false,"is_disabled":false,"rental_uris":{"android":"levelo://app?vid=e634c0a5-82a9-4f06-9b19-d7d549895e44","ios":"levelo://app?vid=e634c0a5-82a9-4f06-9b19-d7d549895e44"},"vehicle_type_id":"4","last_reported":1747484267,"current_range_meters":18000,"station_id":"ce4bgqh2rcd13ifvqc5g","pricing_plan_id":"cebpf4jnsgd1na2vs0mg"},{"bike_id":"c2014c47-39f4-44ef-a881-d785884e0a31","system_id":"levelo_inurba_marseille","lat":43.2827,"lon":5.35056,"is_reserved":false,"is_disabled":false,"rental_uris":{"android":"levelo://app?vid=c2014c47-39f4-44ef-a881-d785884e0a31","ios":"levelo://app?vid=c2014c47-39f4-44ef-a881-d785884e0a31"},"vehicle_type_id":"4","last_reported":1747484267,"current_range_meters":18000,"station_id":"ce4bhbp2rcd13ifvqerg","pricing_plan_id":"cebpf4jnsgd1na2vs0mg"},{"bike_id":"94c3f302-180f-4574-af3d-fd7930442d64","system_id":"levelo_inurba_marseille","lat":43.31709,"lon":5.40434,"is_reserved":false,"is_disabled":false,"rental_uris":{"android":"levelo://app?vid=94c3f302-180f-4574-af3d-fd7930442d64","ios":"levelo://app?vid=94c3f302-180f-4574-af3d-fd7930442d64"},"vehicle_type_id":"4","last_reported":1747484267,"current_range_meters":18000,"station_id":"ce4bh012rcd13ifvqd00","pricing_plan_id":"cebpf4jnsgd1na2vs0mg"},{"bike_id":"22249aa8-0b9a-4b19-9307-e50d75cc0032","system_id":"levelo_inurba_marseille","lat":43.26562,"lon":5.37287,"is_reserved":false,"is_disabled":false,"rental_uris":{"android":"levelo://app?vid=22249aa8-0b9a-4b19-9307-e50d75cc0032","ios":"levelo://app?vid=22249aa8-0b9a-4b19-9307-e50d75cc0032"},"vehicle_type_id":"4","last_reported":1747484267,"current_range_meters":18000,"station_id":"ce4bhg12rcd13ifvqf70","pricing_plan_id":"cebpf4jnsgd1na2vs0mg"},{"bike_id":"78536e3a-547a-49dd-8135-6e1368a54099","system_id":"levelo_inurba_marseille","lat":43.29364,"lon":5.37845,"is_reserved":false,"is_disabled":false,"rental_uris":{"android":"levelo://app?vid=78536e3a-547a-49dd-8135-6e1368a54099","ios":"levelo://app?vid=78536e3a-547a-49dd-8135-6e1368a54099"},