{"last_updated":1730290641,"ttl":60,"version":"2.2","data":{"bikes":[{"bike_id":"e0594c9b-1912-4f09-958a-91f8a4561c29","system_id":"levelo_inurba_marseille","lat":43.24389,"lon":5.37045,"is_reserved":false,"is_disabled":false,"rental_uris":{"android":"levelo://app?vid=e0594c9b-1912-4f09-958a-91f8a4561c29","ios":"levelo://app?vid=e0594c9b-1912-4f09-958a-91f8a4561c29"},"vehicle_type_id":"4","last_reported":1730290641,"current_range_meters":40000,"station_id":"ce4bhhh2rcd13ifvqfk0","pricing_plan_id":"cebpf4jnsgd1na2vs0mg"},{"bike_id":"c57ce94c-04f2-4bfe-aaf7-3e4fb68771ea","system_id":"levelo_inurba_marseille","lat":43.27322,"lon":5.39095,"is_reserved":false,"is_disabled":false,"rental_uris":{"android":"levelo://app?vid=c57ce94c-04f2-4bfe-aaf7-3e4fb68771ea","ios":"levelo://app?vid=c57ce94c-04f2-4bfe-aaf7-3e4fb68771ea"},"vehicle_type_id":"4","last_reported":1730290641,"current_range_meters":14000,"station_id":"ce4bhgp2rcd13ifvqfe0","pricing_plan_id":"cebpf4jnsgd1na2vs0mg"},{"bike_id":"9932cb1a-63a4-4e1c-a11b-c6a6ee00d266","system_id":"levelo_inurba_marseille","lat":43.31226,"lon":5.36856,"is_reserved":false,"is_disabled":false,"rental_uris":{"android":"levelo://app?vid=9932cb1a-63a4-4e1c-a11b-c6a6ee00d266","ios":"levelo://app?vid=9932cb1a-63a4-4e1c-a11b-c6a6ee00d266"},"vehicle_type_id":"4","last_reported":1730290641,"current_range_meters":11200,"station_id":"ce4bgl92rcd13ifvqbq0","pricing_plan_id":"cebpf4jnsgd1na2vs0mg"},{"bike_id":"6daefb7d-890b-4927-bca4-1e9b57c2727d","system_id":"levelo_inurba_marseille","lat":43.27181,"lon":5.40997,"is_reserved":false,"is_disabled":false,"rental_uris":{"android":"levelo://app?vid=6daefb7d-890b-4927-bca4-1e9b57c2727d","ios":"levelo://app?vid=6daefb7d-890b-4927-bca4-1e9b57c2727d"},"vehicle_type_id":"4","last_reported":1730290641,"current_range_meters":36800,"station_id":"ce4bhl12rcd13ifvqgf0","pricing_plan_id":"cebpf4jnsgd1na2vs0mg"},{"bike_id":"e1d18b81-986d-4e87-b61a-22535be9c7fe","system_id":"levelo_inurba_marseille","lat":43.27073,"lon":5.42281,"is_reserved":false,"is_disabled":false,"rental_uris":{"android":"levelo://app?vid=e1d18b81-986d-4e87-b61a-22535be9c7fe","ios":"levelo://app?vid=e1d18b81-986d-4e87-b61a-22535be9c7fe"},"vehicle_type_id":"4","last_reported":1730290641,"current_range_meters":38800,"station_id":"ce4bhk92rcd13ifvqgb0","pricing_plan_id":"cebpf4jnsgd1na2vs0mg"},{"bike_id":"a1bb42ca-48af-4ecf-84af-9ae8e4bb73f6","system_id":"levelo_inurba_marseille","lat":43.28413,"lon":5.34998,"is_reserved":false,"is_disabled":false,"rental_uris":{"android":"levelo://app?vid=a1bb42ca-48af-4ecf-84af-9ae8e4bb73f6","ios":"levelo://app?vid=a1bb42ca-48af-4ecf-84af-9ae8e4bb73f6"},"vehicle_type_id":"4","last_reported":1730290641,"current_range_meters":32400,"station_id":"ce4bhbh2rcd13ifvqepg","pricing_plan_id":"cebpf4jnsgd1na2vs0mg"},{"bike_id":"37dc950c-d10c-4d30-ad2d-9471c36f529f","system_id":"levelo_inurba_marseille","lat":43.28673,"lon":5.38655,"is_reserved":false,"is_disabled":false,"rental_uris":{"android":"levelo://app?vid=37dc950c-d10c-4d30-ad2d-9471c36f529f","ios":"levelo://app?vid=37dc950c-d10c-4d30-ad2d-9471c36f529f"},"vehicle_type_id":"4","last_reported":1730290641,"current_range_meters":20400,"station_id":"ce4bh492rcd13ifvqdug","pricing_plan_id":"cebpf4jnsgd1na2vs0mg"},{"bike_id":"c07496c8-7732-4a67-bc20-d52ad79c0a4d","system_id":"levelo_inurba_marseille","lat":43.30785,"lon":5.37628,"is_reserved":false,"is_disabled":false,"rental_uris":{"android":"levelo://app?vid=c07496c8-7732-4a67-bc20-d52ad79c0a4d","ios":"levelo://app?vid=c07496c8-7732-4a67-bc20-d52ad79c0a4d"},"vehicle_type_id":"4","last_reported":1730290641,"current_range_meters":24400,"station_id":"ce4bgv92rcd13ifvqcq0","pricing_plan_id":"cebpf4jnsgd1na2vs0mg"},{"bike_id":"122308d7-9770-4e4b-b7e7-f3f1e6c322cb","system_id":"levelo_inurba_marseille","lat":43.29728,"lon":5.37682,"is_reserved":false,"is_disabled":false,"rental_uris":{"android":"levelo://app?vid=122308d7-9770-4e4b-b7e7-f3f1e6c322cb","ios":"levelo://app?vid=122308d7-9770-4e4b-b7e7-f3f1e6c322cb"},"vehicle_type_id":"4","last_reported":1730290641,"current_range_meters":34000,"station_id":"ce4bgkh2rcd13ifvqbl0","pricing_plan_id":"cebpf4jnsgd1na2vs0mg"},{"bike_id":"35f83c08-ebc5-4846-95d6-0036239c76d8","system_id":"levelo_inurba_marseille","lat":43.33021,"lon":5.39043,"is_reserved":false,"is_disabled":false,"rental_uris":{"android":"levelo://app?vid=35f83c08-ebc5-4846-95d6-0036239c76d8","ios":"levelo://app?vid=35f83c08-ebc5-4846-95d6-0036239c76d8"},"vehicle_type_id":"4","last_reported":1730290641,"current_range_meters":20000,"station_id":"ce4bhr92rcd13ifvqhrg","pricing_plan_id":"cebpf4jnsgd1na2vs0mg"},{"bike_id":"b240039e-c50d-4884-bbaf-45c1fe416cf2","system_id":"levelo_inurba_marseille","lat":43.24168,"lon":5.3639,"is_reserved":false,"is_disabled":false,"rental_uris":{"android":"levelo://app?vid=b240039e-c50d-4884-bbaf-45c1fe416cf2","ios":"levelo://app?vid=b240039e-c50d-4884-bbaf-45c1fe416cf2"},"vehicle_type_id":"4","last_reported":1730290641,"current_range_meters":32000,"station_id":"cpo36qri1sfpv3e86is0","pricing_plan_id":"cebpf4jnsgd1na2vs0mg"},{"bike_id":"0f237200-9f2c-4569-b096-745ca33d76d3","system_id":"levelo_inurba_marseille","lat":43.30549,"lon":5.36525,"is_reserved":false,"is_disabled":false,"rental_uris":{"android":"levelo://app?vid=0f237200-9f2c-4569-b096-745ca33d76d3","ios":"levelo://app?vid=0f237200-9f2c-4569-b096-745ca33d76d3"},"vehicle_type_id":"4","last_reported":1730290641,"current_range_meters":30400,"station_id":"ce4bgs12rcd13ifvqcag","pricing_plan_id":"cebpf4jnsgd1na2vs0mg"},{"bike_id":"4d9ffd59-58df-4281-a787-e81b3c651c6f","system_id":"levelo_inurba_marseille","lat":43.31757,"lon":5.3901,"is_reserved":false,"is_disabled":false,"rental_uris":{"android":"levelo://app?vid=4d9ffd59-58df-4281-a787-e81b3c651c6f","ios":"levelo://app?vid=4d9ffd59-58df-4281-a787-e81b3c651c6f"},"vehicle_type_id":"4","last_reported":1730290641,"current_range_meters":38800,"station_id":"ce4bhqp2rcd13ifvqhng","pricing_plan_id":"cebpf4jnsgd1na2vs0mg"},{"bike_id":"58ce08b5-61d6-4053-a653-c68db61c2fa6","system_id":"levelo_inurba_marseille","lat":43.23189,"lon":5.39997,"is_reserved":false,"is_disabled":false,"rental_uris":{"android":"levelo://app?vid=58ce08b5-61d6-4053-a653-c68db61c2fa6","ios":"levelo://app?vid=58ce08b5-61d6-4053-a653-c68db61c2fa6"},"vehicle_type_id":"4","last_reported":1730290641,"current_range_meters":9600,"station_id":"ce4bhn12rcd13ifvqgqg","pricing_plan_id":"cebpf4jnsgd1na2vs0mg"},{"bike_id":"eaa53304-badd-42f8-97bd-969a099b34cb","system_id":"levelo_inurba_marseille","lat":43.246541,"lon":5.381532,"is_reserved":false,"is_disabled":false,"rental_uris":{"android":"levelo://app?vid=eaa53304-badd-42f8-97bd-969a099b34cb","ios":"levelo://app?vid=eaa53304-badd-42f8-97bd-969a099b34cb"},"vehicle_type_id":"4","last_reported":1730290641,"current_range_meters":22000,"station_id":"ce4bhih2rcd13ifvqfr0","pricing_plan_id":"cebpf4jnsgd1na2vs0mg"},{"bike_id":"ed6ebae4-26da-43c9-a905-882eea9cc459","system_id":"levelo_inurba_marseille","lat":43.29513,"lon":5.37507,"is_reserved":false,"is_disabled":false,"rental_uris":{"android":"levelo://app?vid=ed6ebae4-26da-43c9-a905-882eea9cc459","ios":"levelo://app?vid=ed6ebae4-26da-43c9-a905-882eea9cc459"},"vehicle_type_id":"4","last_reported":1730290641,"current_range_meters":23200,"station_id":"ce4bgkp2rcd13ifvqbmg","pricing_plan_id":"cebpf4jnsgd1na2vs0mg"},{"bike_id":"0c074560-8ac3-46f4-bbf6-3d47e9833728","system_id":"levelo_inurba_marseille","lat":43.25007,"lon":5.38924,"is_reserved":false,"is_disabled":false,"rental_uris":{"android":"levelo://app?vid=0c074560-8ac3-46f4-bbf6-3d47e9833728","ios":"levelo://app?vid=0c074560-8ac3-46f4-bbf6-3d47e9833728"},"vehicle_type_id":"4","last_reported":1730290641,"current_range_meters":37600,"station_id":"ce4bhgp2rcd13ifvqfd0","pricing_plan_id":"cebpf4jnsgd1na2vs0mg"},{"bike_id":"cbc2c2b7-5d99-4200-ae7d-c69b14b90b48","system_id":"levelo_inurba_marseille","lat":43.30306,"lon":5.36892,"is_reserved":false,"is_disabled":false,"rental_uris":{"android":"levelo://app?vid=cbc2c2b7-5d99-4200-ae7d-c69b14b90b48","ios":"levelo://app?vid=cbc2c2b7-5d99-4200-ae7d-c69b14b90b48"},"vehicle_type_id":"4","last_reported":1730290641,"current_range_meters":38000,"station_id":"ce4bgqh2rcd13ifvqc5g","pricing_plan_id":"cebpf4jnsgd1na2vs0mg"},{"bike_id":"fc8a8b80-934e-4729-8982-ed8c2ff44c4b","system_id":"levelo_inurba_marseille","lat":43.30888,"lon":5.37195,"is_reserved":false,"is_disabled":false,"rental_uris":{"android":"levelo://app?vid=fc8a8b80-934e-4729-8982-ed8c2ff44c4b","ios":"levelo://app?vid=fc8a8b80-934e-4729-8982-ed8c2ff44c4b"},"vehicle_type_id":"4","last_reported":1730290641,"current_range_meters":27600,"station_id":"ce4bguh2rcd13ifvqckg","pricing_plan_id":"cebpf4jnsgd1na2vs0mg"},{"bike_id":"897b9f0e-fdd3-4e93-9255-82d376a1e549","system_id":"levelo_inurba_marseille","lat":43.32111,"lon":5.36765,"is_reserved":false,"is_disabled":false,"rental_uris":{"android":"levelo://app?vid=897b9f0e-fdd3-4e93-9255-82d376a1e549","ios":"levelo://app?vid=897b9f0e-fdd3-4e93-9255-82d376a1e549"},"vehicle_type_id":"4","last_reported":1730290641,"current_range_meters":33200,"station_id":"ce4bhrh2rcd13ifvqhug","pricing_plan_id":"cebpf4jnsgd1na2vs0mg"},{"bike_id":"c6b8984c-4dca-4296-9a56-9a3d0a2c06e8","system_id":"levelo_inurba_marseille","lat":43.2656,"lon":5.37282,"is_reserved":false,"is_disabled":false,"rental_uris":{"android":"levelo://app?vid=c6b8984c-4dca-4296-9a56-9a3d0a2c06e8","ios":"levelo://app?vid=c6b8984c-4dca-4296-9a56-9a3d0a2c06e8"},"vehicle_type_id":"4","last_reported":1730290641,"current_range_meters":14000,"station_id":"ce4bhg12rcd13ifvqf70","pricing_plan_id":"cebpf4jnsgd1na2vs0mg"},{"bike_id":"ac51678e-b2a6-4abe-8675-b8f36677cab5","system_id":"levelo_inurba_marseille","lat":43.29367,"lon":5.37816,"is_reserved":false,"is_disabled":false,"rental_uris":{"android":"levelo://app?vid=ac51678e-b2a6-4abe-8675-b8f36677cab5","ios":"levelo://app?vid=ac51678e-b2a6-4abe-8675-b8f36677cab5"},"vehicle_type_id":"4","last_reported":1730290641,"current_range_meters":36000,"station_id":"ce4bgjh2rcd13ifvqbf0","pricing_plan_id":"cebpf4jnsgd1na2vs0mg"},{"bike_id":"caf349c8-ed3b-4304-909b-160d602b00a5","system_id":"levelo_inurba_marseille","lat":43.317007,"lon":5.377459,"is_reserved":false,"is_disabled":false,"rental_uris":{"android":"levelo://app?vid=caf349c8-ed3b-4304-909b-160d602b00a5","ios":"levelo://app?vid=caf349c8-ed3b-4304-909b-160d602b00a5"},"vehicle_type_id":"4","last_reported":1730290641,"current_range_meters":31200,"station_id":"ce4bgth2rcd13ifvqch0","pricing_plan_id":"cebpf4jnsgd1na2vs0mg"},{"bike_id":"74df42bc-22c9-4384-8bbc-4904bc13c3d1","system_id":"levelo_inurba_marseille","lat":43.31444,"lon":5.37371,"is_reserved":false,"is_disabled":false,"rental_uris":{"android":"levelo://app?vid=74df42bc-22c9-4384-8bbc-4904bc13c3d1","ios":"levelo://app?vid=74df42bc-22c9-4384-8bbc-4904bc13c3d1"},"vehicle_type_id":"4","last_reported":1730290641,"current_range_meters":33200,"station_id":"","pricing_plan_id":"cebpf4jnsgd1na2vs0mg"},{"bike_id":"8d1620e7-e5ab-4df0-827f-1b7a5189e865","system_id":"levelo_inurba_marseille","lat":43.27996,"lon":5.40018,"is_reserved":false,"is_disabled":false,"rental_uris":{"android":"levelo://app?vid=8d1620e7-e5ab-4df0-827f-1b7a5189e865","ios":"levelo://app?vid=8d1620e7-e5ab-4df0-827f-1b7a5189e865"},"vehicle_type_id":"4","last_reported":1730290641,"current_range_meters":38000,"station_id":"ce4bho92rcd13ifvqh4g","pricing_plan_id":"cebpf4jnsgd1na2vs0mg"},{"bike_id":"82a16fa2-3542-4820-b609-018ed6790cc4","system_id":"levelo_inurba_marseille","lat":43.25583,"lon":5.38239,"is_reserved":false,"is_disabled":false,"rental_uris":{"android":"levelo://app?vid=82a16fa2-3542-4820-b609-018ed6790cc4","ios":"levelo://app?vid=82a16fa2-3542-4820-b609-018ed6790cc4"},"vehicle_type_id":"4","last_reported":1730290641,"current_range_meters":34000,"station_id":"ce4bhih2rcd13ifvqfs0","pricing_plan_id":"cebpf4jnsgd1na2vs0mg"},{"bike_id":"3bc032b3-6f92-4d20-918e-813d29881b9d","system_id":"levelo_inurba_marseille","lat":43.31495,"lon":5.37312,"is_reserved":false,"is_disabled":false,"rental_uris":{"android":"levelo://app?vid=3bc032b3-6f92-4d20-918e-813d29881b9d","ios":"levelo://app?vid=3bc032b3-6f92-4d20-918e-813d29881b9d"},"vehicle_type_id":"4","last_reported":1730290641,"current_range_meters":37600,"station_id":"ce4bgt12rcd13ifvqcd0","pricing_plan_id":"cebpf4jnsgd1na2vs0mg"},{"bike_id":"61790486-aea0-493b-b598-52adcbbca850","system_id":"levelo_inurba_marseille","lat":43.30652,"lon":5.40084,"is_reserved":false,"is_disabled":false,"rental_uris":{"android":"levelo://app?vid=61790486-aea0-493b-b598-52adcbbca850","ios":"levelo://app?vid=61790486-aea0-493b-b598-52adcbbca850"},"vehicle_type_id":"4","last_reported":1730290641,"current_range_meters":38400,"station_id":"ce4bh112rcd13ifvqda0","pricing_plan_id":"cebpf4jnsgd1na2vs0mg"},{"bike_id":"0cc68399-e4c5-4e56-99fe-6218e60aedcd","system_id":"levelo_inurba_marseille","lat":43.26221,"lon":5.37444,"is_reserved":false,"is_disabled":false,"rental_uris":{"android":"levelo://app?vid=0cc68399-e4c5-4e56-99fe-6218e60aedcd","ios":"levelo://app?vid=0cc68399-e4c5-4e56-99fe-6218e60aedcd"},"vehicle_type_id":"4","last_reported":1730290641,"current_range_meters":38800,"station_id":"ce4bhgp2rcd13ifvqfc0","pricing_plan_id":"cebpf4jnsgd1na2vs0mg"},{"bike_id":"dddd6f82-50c1-487f-9ac3-ca4f03caeb90","system_id":"levelo_inurba_marseille","lat":43.29612,"lon":5.37724,"is_reserved":false,"is_disabled":false,"rental_uris":{"android":"levelo://app?vid=dddd6f82-50c1-487f-9ac3-ca4f03caeb90","ios":"levelo://app?vid=dddd6f82-50c1-487f-9ac3-ca4f03caeb90"},"vehicle_type_id":"4","last_reported":1730290641,"current_range_meters":32800,"station_id":"ce4bgi92rcd13ifvqb90","pricing_plan_id":"cebpf4jnsgd1na2vs0mg"},{"bike_id":"3bd430ea-f3a4-406f-95d7-17646a78b140","system_id":"levelo_inurba_marseille","lat":43.28268,"lon":5.35066,"is_reserved":false,"is_disabled":false,"rental_uris":{"android":"levelo://app?vid=3bd430ea-f3a4-406f-95d7-17646a78b140","ios":"levelo://app?vid=3bd430ea-f3a4-406f-95d7-17646a78b140"},"vehicle_type_id":"4","last_reported":1730290641,"current_range_meters":17600,"station_id":"ce4bhbp2rcd13ifvqerg","pricing_plan_id":"cebpf4jnsgd1na2vs0mg"},{"bike_id":"ba43a7e9-f26a-4c2c-b71f-c14ca3846b93","system_id":"levelo_inurba_marseille","lat":43.2717,"lon":5.40991,"is_reserved":false,"is_disabled":false,"rental_uris":{"android":"levelo://app?vid=ba43a7e9-f26a-4c2c-b71f-c14ca3846b93","ios":"levelo://app?vid=ba43a7e9-f26a-4c2c-b71f-c14ca3846b93"},"vehicle_type_id":"4","last_reported":1730290641,"current_range_meters":20400,"station_id":"ce4bhl12rcd13ifvqgf0","pricing_plan_id":"cebpf4jnsgd1na2vs0mg"},{"bike_id":"b716834f-53c4-426a-ae7f-a08629dee012","system_id":"levelo_inurba_marseille","lat":43.23059,"lon":5.35494,"is_reserved":false,"is_disabled":false,"rental_uris":{"android":"levelo://app?vid=b716834f-53c4-426a-ae7f-a08629dee012","ios":"levelo://app?vid=b716834f-53c4-426a-ae7f-a08629dee012"},"vehicle_type_id":"4","last_reported":1730290641,"current_range_meters":20000,"station_id":"cpo3342slgdg3j2ifvpg","pricing_plan_id":"cebpf4jnsgd1na2vs0mg"},{"bike_id":"34630d18-75dd-4aec-9bb1-0ce7aab0afdf","system_id":"levelo_inurba_marseille","lat":43.24663,"lon":5.38163,"is_reserved":false,"is_disabled":false,"rental_uris":{"android":"levelo://app?vid=34630d18-75dd-4aec-9bb1-0ce7aab0afdf","ios":"levelo://app?vid=34630d18-75dd-4aec-9bb1-0ce7aab0afdf"},"vehicle_type_id":"4","last_reported":1730290641,"current_range_meters":40000,"station_id":"ce4bhih2rcd13ifvqfr0","pricing_plan_id":"cebpf4jnsgd1na2vs0mg"},{"bike_id":"fca70fb1-2c2b-46bb-a35c-c4971041e2df","system_id":"levelo_inurba_marseille","lat":43.2319,"lon":5.39976,"is_reserved":false,"is_disabled":false,"rental_uris":{"android":"levelo://app?vid=fca70fb1-2c2b-46bb-a35c-c4971041e2df","ios":"levelo://app?vid=fca70fb1-2c2b-46bb-a35c-c4971041e2df"},"vehicle_type_id":"4","last_reported":1730290641,"current_range_meters":20800,"station_id":"ce4bhn12rcd13ifvqgqg","pricing_plan_id":"cebpf4jnsgd1na2vs0mg"},{"bike_id":"94ddc1d2-b94e-412d-840b-da90f0ce712c","system_id":"levelo_inurba_marseille","lat":43.305343,"lon":5.365311,"is_reserved":false,"is_disabled":false,"rental_uris":{"android":"levelo://app?vid=94ddc1d2-b94e-412d-840b-da90f0ce712c","ios":"levelo://app?vid=94ddc1d2-b94e-412d-840b-da90f0ce712c"},"vehicle_type_id":"4","last_reported":1730290641,"current_range_meters":40000,"station_id":"ce4bgs12rcd13ifvqcag","pricing_plan_id":"cebpf4jnsgd1na2vs0mg"},{"bike_id":"c5ab8f86-3c93-447c-b767-f885bdebd2ff","system_id":"levelo_inurba_marseille","lat":43.27071,"lon":5.42276,"is_reserved":false,"is_disabled":false,"rental_uris":{"android":"levelo://app?vid=c5ab8f86-3c93-447c-b767-f885bdebd2ff","ios":"levelo://app?vid=c5ab8f86-3c93-447c-b767-f885bdebd2ff"},"vehicle_type_id":"4","last_reported":1730290641,"current_range_meters":38800,"station_id":"ce4bhk92rcd13ifvqgb0","pricing_plan_id":"cebpf4jnsgd1na2vs0mg"},{"bike_id":"a732b8c0-1e75-4144-a2c1-dde3b6a4a416","system_id":"levelo_inurba_marseille","lat":43.27805,"lon":5.40724,"is_reserved":false,"is_disabled":false,"rental_uris":{"android":"levelo://app?vid=a732b8c0-1e75-4144-a2c1-dde3b6a4a416","ios":"levelo://app?vid=a732b8c0-1e75-4144-a2c1-dde3b6a4a416"},"vehicle_type_id":"4","last_reported":1730290641,"current_range_meters":33200,"station_id":"ce4bhnh2rcd13ifvqgtg","pricing_plan_id":"cebpf4jnsgd1na2vs0mg"},{"bike_id":"70bb78fe-4bef-4d56-a833-affc0bdfc9f3","system_id":"levelo_inurba_marseille","lat":43.23202,"lon":5.35558,"is_reserved":false,"is_disabled":false,"rental_uris":{"android":"levelo://app?vid=70bb78fe-4bef-4d56-a833-affc0bdfc9f3","ios":"levelo://app?vid=70bb78fe-4bef-4d56-a833-affc0bdfc9f3"},"vehicle_type_id":"4","last_reported":1730290641,"current_range_meters":37600,"station_id":"ce4bhu92rcd13ifvqi70","pricing_plan_id":"cebpf4jnsgd1na2vs0mg"},{"bike_id":"48e377f6-5c9b-4e82-83ef-c3c239402dd6","system_id":"levelo_inurba_marseille","lat":43.29004,"lon":5.35612,"is_reserved":false,"is_disabled":false,"rental_uris":{"android":"levelo://app?vid=48e377f6-5c9b-4e82-83ef-c3c239402dd6","ios":"levelo://app?vid=48e377f6-5c9b-4e82-83ef-c3c239402dd6"},"vehicle_type_id":"4","last_reported":1730290641,"current_range_meters":30800,"station_id":"ce4bhb92rcd13ifvqen0","pricing_plan_id":"cebpf4jnsgd1na2vs0mg"},{"bike_id":"71e63771-7f8f-4359-9c17-bb1c07499de8","system_id":"levelo_inurba_marseille","lat":43.28714,"lon":5.37938,"is_reserved":false,"is_disabled":false,"rental_uris":{"android":"levelo://app?vid=71e63771-7f8f-4359-9c17-bb1c07499de8","ios":"levelo://app?vid=71e63771-7f8f-4359-9c17-bb1c07499de8"},"vehicle_type_id":"4","last_reported":1730290641,"current_range_meters":24400,"station_id":"ce4bh9p2rcd13ifvqec0","pricing_plan_id":"cebpf4jnsgd1na2vs0mg"},{"bike_id":"9740dbb1-bc54-41d2-b0ae-d5a56089a946","system_id":"levelo_inurba_marseille","lat":43.29932,"lon":5.36553,"is_reserved":false,"is_disabled":false,"rental_uris":{"android":"levelo://app?vid=9740dbb1-bc54-41d2-b0ae-d5a56089a946","ios":"levelo://app?vid=9740dbb1-bc54-41d2-b0ae-d5a56089a946"},"vehicle_type_id":"4","last_reported":1730290641,"current_range_meters":38000,"station_id":"ce4bgm92rcd13ifvqbr0","pricing_plan_id":"cebpf4jnsgd1na2vs0mg"},{"bike_id":"9c4e8573-fe6e-4614-b7af-9a36717ed9b9","system_id":"levelo_inurba_marseille","lat":43.27916,"lon":5.39582,"is_reserved":false,"is_disabled":false,"rental_uris":{"android":"levelo://app?vid=9c4e8573-fe6e-4614-b7af-9a36717ed9b9","ios":"levelo://app?vid=9c4e8573-fe6e-4614-b7af-9a36717ed9b9"},"vehicle_type_id":"4","last_reported":1730290641,"current_range_meters":22800,"station_id":"ce4bhf92rcd13ifvqf40","pricing_plan_id":"cebpf4jnsgd1na2vs0mg"},{"bike_id":"5c244c3d-8fd7-4c95-b825-2f7fe2f15994","system_id":"levelo_inurba_marseille","lat":43.23205,"lon":5.3556,"is_reserved":false,"is_disabled":false,"rental_uris":{"android":"levelo://app?vid=5c244c3d-8fd7-4c95-b825-2f7fe2f15994","ios":"levelo://app?vid=5c244c3d-8fd7-4c95-b825-2f7fe2f15994"},"vehicle_type_id":"4","last_reported":1730290641,"current_range_meters":40000,"station_id":"ce4bhu92rcd13ifvqi70","pricing_plan_id":"cebpf4jnsgd1na2vs0mg"},{"bike_id":"5efd5148-f738-4c82-8164-c1739863b28d","system_id":"levelo_inurba_marseille","lat":43.26942,"lon":5.4024,"is_reserved":false,"is_disabled":false,"rental_uris":{"android":"levelo://app?vid=5efd5148-f738-4c82-8164-c1739863b28d","ios":"levelo://app?vid=5efd5148-f738-4c82-8164-c1739863b28d"},"vehicle_type_id":"4","last_reported":1730290641,"current_range_meters":16000,"station_id":"cjm6bp8fraef2m0cb0m0","pricing_plan_id":"cebpf4jnsgd1na2vs0mg"},{"bike_id":"3c014cc3-cc58-443d-9431-d81708824364","system_id":"levelo_inurba_marseille","lat":43.29729,"lon":5.37692,"is_reserved":false,"is_disabled":false,"rental_uris":{"android":"levelo://app?vid=3c014cc3-cc58-443d-9431-d81708824364","ios":"levelo://app?vid=3c014cc3-cc58-443d-9431-d81708824364"},"vehicle_type_id":"4","last_reported":1730290641,"current_range_meters":37600,"station_id":"ce4bgkh2rcd13ifvqbl0","pricing_plan_id":"cebpf4jnsgd1na2vs0mg"},{"bike_id":"a300f71c-e40b-498c-9876-f8423a6103af","system_id":"levelo_inurba_marseille","lat":43.28949,"lon":5.366331,"is_reserved":false,"is_disabled":false,"rental_uris":{"android":"levelo://app?vid=a300f71c-e40b-498c-9876-f8423a6103af","ios":"levelo://app?vid=a300f71c-e40b-498c-9876-f8423a6103af"},"vehicle_type_id":"4","last_reported":1730290641,"current_range_meters":25600,"station_id":"ce4bhap2rcd13ifvqek0","pricing_plan_id":"cebpf4jnsgd1na2vs0mg"},{"bike_id":"3f889266-10e4-4ae0-84ed-9407bf1acee5","system_id":"levelo_inurba_marseille","lat":43.34142,"lon":5.40902,"is_reserved":false,"is_disabled":false,"rental_uris":{"android":"levelo://app?vid=3f889266-10e4-4ae0-84ed-9407bf1acee5","ios":"levelo://app?vid=3f889266-10e4-4ae0-84ed-9407bf1acee5"},"vehicle_type_id":"4","last_reported":1730290641,"current_range_meters":35600,"station_id":"ce4bhqh2rcd13ifvqhlg","pricing_plan_id":"cebpf4jnsgd1na2vs0mg"},{"bike_id":"5b1bc621-d31c-4d57-8fd4-6a0e83b3abf9","system_id":"levelo_inurba_marseille","lat":43.25108,"lon":5.40323,"is_reserved":false,"is_disabled":false,"rental_uris":{"android":"levelo://app?vid=5b1bc621-d31c-4d57-8fd4-6a0e83b3abf9","ios":"levelo://app?vid=5b1bc621-d31c-4d57-8fd4-6a0e83b3abf9"},"vehicle_type_id":"4","last_reported":1730290641,"current_range_meters":8800,"station_id":"ce4bhlh2rcd13ifvqgig","pricing_plan_id":"cebpf4jnsgd1na2vs0mg"},{"bike_id":"c6472a4b-15fb-475c-a800-9db188055ce2","system_id":"levelo_inurba_marseille","lat":43.25827,"lon":5.39427,"is_reserved":false,"is_disabled":false,"rental_uris":{"android":"levelo://app?vid=c6472a4b-15fb-475c-a800-9db188055ce2","ios":"levelo://app?vid=c6472a4b-15fb-475c-a800-9db188055ce2"},"vehicle_type_id":"4","last_reported":1730290641,"current_range_meters":12800,"station_id":"ce4bhip2rcd13ifvqft0","pricing_plan_id":"cebpf4jnsgd1na2vs0mg"},{"bike_id":"54d427eb-aa52-4532-89bb-f73dafe7559a","system_id":"levelo_inurba_marseille","lat":43.31758,"lon":5.39019,"is_reserved":false,"is_disabled":false,"rental_uris":{"android":"levelo://app?vid=54d427eb-aa52-4532-89bb-f73dafe7559a","ios":"levelo://app?vid=54d427eb-aa52-4532-89bb-f73dafe7559a"},"vehicle_type_id":"4","last_reported":1730290641,"current_range_meters":24400,"station_id":"ce4bhqp2rcd13ifvqhng","pricing_plan_id":"cebpf4jnsgd1na2vs0mg"},{"bike_id":"18ce801b-e13f-40a5-bfd7-22a5034f3c09","system_id":"levelo_inurba_marseille","lat":43.30465,"lon":5.3791,"is_reserved":false,"is_disabled":false,"rental_uris":{"android":"levelo://app?vid=18ce801b-e13f-40a5-bfd7-22a5034f3c09","ios":"levelo://app?vid=18ce801b-e13f-40a5-bfd7-22a5034f3c09"},"vehicle_type_id":"4","last_reported":1730290641,"current_range_meters":38000,"station_id":"ce4bgup2rcd13ifvqcn0","pricing_plan_id":"cebpf4jnsgd1na2vs0mg"},{"bike_id":"9869a0dd-7d15-4b11-8372-e0fa162c1ae6","system_id":"levelo_inurba_marseille","lat":43.30124,"lon":5.39857,"is_reserved":false,"is_disabled":false,"rental_uris":{"android":"levelo://app?vid=9869a0dd-7d15-4b11-8372-e0fa162c1ae6","ios":"levelo://app?vid=9869a0dd-7d15-4b11-8372-e0fa162c1ae6"},"vehicle_type_id":"4","last_reported":1730290641,"current_range_meters":37600,"station_id":"ce4bh0h2rcd13ifvqd40","pricing_plan_id":"cebpf4jnsgd1na2vs0mg"},{"bike_id":"92adf987-4779-4b78-ad9c-8e29ab9175f3","system_id":"levelo_inurba_marseille","lat":43.23197,"lon":5.35554,"is_reserved":false,"is_disabled":false,"rental_uris":{"android":"levelo://app?vid=92adf987-4779-4b78-ad9c-8e29ab9175f3","ios":"levelo://app?vid=92adf987-4779-4b78-ad9c-8e29ab9175f3"},"vehicle_type_id":"4","last_reported":1730290641,"current_range_meters":12800,"station_id":"ce4bhu92rcd13ifvqi70","pricing_plan_id":"cebpf4jnsgd1na2vs0mg"},{"bike_id":"dcd20a77-dc87-46c2-88cd-d8f705e67a5b","system_id":"levelo_inurba_marseille","lat":43.248,"lon":5.37453,"is_reserved":false,"is_disabled":false,"rental_uris":{"android":"levelo://app?vid=dcd20a77-dc87-46c2-88cd-d8f705e67a5b","ios":"levelo://app?vid=dcd20a77-dc87-46c2-88cd-d8f705e67a5b"},"vehicle_type_id":"4","last_reported":1730290641,"current_range_meters":10800,"station_id":"ce4bhgh2rcd13ifvqfb0","pricing_plan_id":"cebpf4jnsgd1na2vs0mg"},{"bike_id":"fcdefb32-7ad9-41ee-82ce-0512d087f8dc","system_id":"levelo_inurba_marseille","lat":43.31765,"lon":5.39019,"is_reserved":false,"is_disabled":false,"rental_uris":{"android":"levelo://app?vid=fcdefb32-7ad9-41ee-82ce-0512d087f8dc","ios":"levelo://app?vid=fcdefb32-7ad9-41ee-82ce-0512d087f8dc"},"vehicle_type_id":"4","last_reported":1730290641,"current_range_meters":38800,"station_id":"ce4bhqp2rcd13ifvqhng","pricing_plan_id":"cebpf4jnsgd1na2vs0mg"},{"bike_id":"68c90b15-3804-4fe8-b8a3-76ad2d85055e","system_id":"levelo_inurba_marseille","lat":43.26191,"lon":5.37447,"is_reserved":false,"is_disabled":false,"rental_uris":{"android":"levelo://app?vid=68c90b15-3804-4fe8-b8a3-76ad2d85055e","ios":"levelo://app?vid=68c90b15-3804-4fe8-b8a3-76ad2d85055e"},"vehicle_type_id":"4","last_reported":1730290641,"current_range_meters":36800,"station_id":"ce4bhgp2rcd13ifvqfc0","pricing_plan_id":"cebpf4jnsgd1na2vs0mg"},{"bike_id":"48ea6b16-c532-4fec-9e3c-c037b7803c09","system_id":"levelo_inurba_marseille","lat":43.30541,"lon":5.36554,"is_reserved":false,"is_disabled":false,"rental_uris":{"android":"levelo://app?vid=48ea6b16-c532-4fec-9e3c-c037b7803c09","ios":"levelo://app?vid=48ea6b16-c532-4fec-9e3c-c037b7803c09"},"vehicle_type_id":"4","last_reported":1730290641,"current_range_meters":27600,"station_id":"ce4bgs12rcd13ifvqcag","pricing_plan_id":"cebpf4jnsgd1na2vs0mg"},{"bike_id":"269a4193-03a6-4fe1-93c0-2b8610ca1e7f","system_id":"levelo_inurba_marseille","lat":43.24393,"lon":5.37054,"is_reserved":false,"is_disabled":false,"rental_uris":{"android":"levelo://app?vid=269a4193-03a6-4fe1-93c0-2b8610ca1e7f","ios":"levelo://app?vid=269a4193-03a6-4fe1-93c0-2b8610ca1e7f"},"vehicle_type_id":"4","last_reported":1730290641,"current_range_meters":18000,"station_id":"ce4bhhh2rcd13ifvqfk0","pricing_plan_id":"cebpf4jnsgd1na2vs0mg"},{"bike_id":"3928d2b2-5322-4bfc-935c-f02931565366","system_id":"levelo_inurba_marseille","lat":43.27999,"lon":5.41656,"is_reserved":false,"is_disabled":false,"rental_uris":{"android":"levelo://app?vid=3928d2b2-5322-4bfc-935c-f02931565366","ios":"levelo://app?vid=3928d2b2-5322-4bfc-935c-f02931565366"},"vehicle_type_id":"4","last_reported":1730290641,"current_range_meters":10800,"station_id":"ce4bho12rcd13ifvqh1g","pricing_plan_id":"cebpf4jnsgd1na2vs0mg"},{"bike_id":"543928cc-3e55-4213-9c4b-486705ef0a1b","system_id":"levelo_inurba_marseille","lat":43.299617,"lon":5.384934,"is_reserved":false,"is_disabled":false,"rental_uris":{"android":"levelo://app?vid=543928cc-3e55-4213-9c4b-486705ef0a1b","ios":"levelo://app?vid=543928cc-3e55-4213-9c4b-486705ef0a1b"},"vehicle_type_id":"4","last_reported":1730290641,"current_range_meters":37600,"station_id":"ce4bgup2rcd13ifvqco0","pricing_plan_id":"cebpf4jnsgd1na2vs0mg"},{"bike_id":"87d4cda7-2b7e-47cf-854a-98224e62b405","system_id":"levelo_inurba_marseille","lat":43.312252,"lon":5.368547,"is_reserved":false,"is_disabled":false,"rental_uris":{"android":"levelo://app?vid=87d4cda7-2b7e-47cf-854a-98224e62b405","ios":"levelo://app?vid=87d4cda7-2b7e-47cf-854a-98224e62b405"},"vehicle_type_id":"4","last_reported":1730290641,"current_range_meters":40000,"station_id":"ce4bgl92rcd13ifvqbq0","pricing_plan_id":"cebpf4jnsgd1na2vs0mg"},{"bike_id":"cc855eba-35d1-4e86-a06b-48f4f48e424a","system_id":"levelo_inurba_marseille","lat":43.27997,"lon":5.41656,"is_reserved":false,"is_disabled":false,"rental_uris":{"android":"levelo://app?vid=cc855eba-35d1-4e86-a06b-48f4f48e424a","ios":"levelo://app?vid=cc855eba-35d1-4e86-a06b-48f4f48e424a"},"vehicle_type_id":"4","last_reported":1730290641,"current_range_meters":30800,"station_id":"ce4bho12rcd13ifvqh1g","pricing_plan_id":"cebpf4jnsgd1na2vs0mg"},{"bike_id":"d7012743-7323-4d36-a6a0-94c8a1e5fc2c","system_id":"levelo_inurba_marseille","lat":43.28424,"lon":5.34993,"is_reserved":false,"is_disabled":false,"rental_uris":{"android":"levelo://app?vid=d7012743-7323-4d36-a6a0-94c8a1e5fc2c","ios":"levelo://app?vid=d7012743-7323-4d36-a6a0-94c8a1e5fc2c"},"vehicle_type_id":"4","last_reported":1730290641,"current_range_meters":38000,"station_id":"ce4bhbh2rcd13ifvqepg","pricing_plan_id":"cebpf4jnsgd1na2vs0mg"},{"bike_id":"fd7611d7-6917-42fc-bee5-43c05b37808d","system_id":"levelo_inurba_marseille","lat":43.306549,"lon":5.37441,"is_reserved":false,"is_disabled":false,"rental_uris":{"android":"levelo://app?vid=fd7611d7-6917-42fc-bee5-43c05b37808d","ios":"levelo://app?vid=fd7611d7-6917-42fc-bee5-43c05b37808d"},"vehicle_type_id":"4","last_reported":1730290641,"current_range_meters":38000,"station_id":"","pricing_plan_id":"cebpf4jnsgd1na2vs0mg"},{"bike_id":"c1b9fa0c-e0b0-4d90-965f-49343b4b8c16","system_id":"levelo_inurba_marseille","lat":43.31225,"lon":5.36861,"is_reserved":false,"is_disabled":false,"rental_uris":{"android":"levelo://app?vid=c1b9fa0c-e0b0-4d90-965f-49343b4b8c16","ios":"levelo://app?vid=c1b9fa0c-e0b0-4d90-965f-49343b4b8c16"},"vehicle_type_id":"4","last_reported":1730290641,"current_range_meters":40000,"station_id":"ce4bgl92rcd13ifvqbq0","pricing_plan_id":"cebpf4jnsgd1na2vs0mg"},{"bike_id":"92b1fee1-36c3-45ad-8fd9-216ac48d3c8b","system_id":"levelo_inurba_marseille","lat":43.32538,"lon":5.41453,"is_reserved":false,"is_disabled":false,"rental_uris":{"android":"levelo://app?vid=92b1fee1-36c3-45ad-8fd9-216ac48d3c8b","ios":"levelo://app?vid=92b1fee1-36c3-45ad-8fd9-216ac48d3c8b"},"vehicle_type_id":"4","last_reported":1730290641,"current_range_meters":24400,"station_id":"ce4bhq12rcd13ifvqhhg","pricing_plan_id":"cebpf4jnsgd1na2vs0mg"},{"bike_id":"5058221a-106c-4738-91d8-0e0e2a79e832","system_id":"levelo_inurba_marseille","lat":43.30889,"lon":5.37186,"is_reserved":false,"is_disabled":false,"rental_uris":{"android":"levelo://app?vid=5058221a-106c-4738-91d8-0e0e2a79e832","ios":"levelo://app?vid=5058221a-106c-4738-91d8-0e0e2a79e832"},"vehicle_type_id":"4","last_reported":1730290641,"current_range_meters":36000,"station_id":"ce4bguh2rcd13ifvqckg","pricing_plan_id":"cebpf4jnsgd1na2vs0mg"},{"bike_id":"5233d0cb-1089-47a9-9ec0-c7252e08ea0e","system_id":"levelo_inurba_marseille","lat":43.29292,"lon":5.37459,"is_reserved":false,"is_disabled":false,"rental_uris":{"android":"levelo://app?vid=5233d0cb-1089-47a9-9ec0-c7252e08ea0e","ios":"levelo://app?vid=5233d0cb-1089-47a9-9ec0-c7252e08ea0e"},"vehicle_type_id":"4","last_reported":1730290641,"current_range_meters":22400,"station_id":"ce4bgi12rcd13ifvqb70","pricing_plan_id":"cebpf4jnsgd1na2vs0mg"},{"bike_id":"38b8d321-8fd9-4111-be22-688ce65298c2","system_id":"levelo_inurba_marseille","lat":43.26571,"lon":5.39007,"is_reserved":false,"is_disabled":false,"rental_uris":{"android":"levelo://app?vid=38b8d321-8fd9-4111-be22-688ce65298c2","ios":"levelo://app?vid=38b8d321-8fd9-4111-be22-688ce65298c2"},"vehicle_type_id":"4","last_reported":1730290641,"current_range_meters":24800,"station_id":"ce4bhe12rcd13ifvqf30","pricing_plan_id":"cebpf4jnsgd1na2vs0mg"},{"bike_id":"2370a04e-d358-4a29-b67a-890bf50b34fd","system_id":"levelo_inurba_marseille","lat":43.24171,"lon":5.36403,"is_reserved":false,"is_disabled":false,"rental_uris":{"android":"levelo://app?vid=2370a04e-d358-4a29-b67a-890bf50b34fd","ios":"levelo://app?vid=2370a04e-d358-4a29-b67a-890bf50b34fd"},"vehicle_type_id":"4","last_reported":1730290641,"current_range_meters":6800,"station_id":"cpo36qri1sfpv3e86is0","pricing_plan_id":"cebpf4jnsgd1na2vs0mg"},{"bike_id":"5a3470ac-7831-4bac-92a0-8fcf659d9633","system_id":"levelo_inurba_marseille","lat":43.29914,"lon":5.37472,"is_reserved":false,"is_disabled":false,"rental_uris":{"android":"levelo://app?vid=5a3470ac-7831-4bac-92a0-8fcf659d9633","ios":"levelo://app?vid=5a3470ac-7831-4bac-92a0-8fcf659d9633"},"vehicle_type_id":"4","last_reported":1730290641,"current_range_meters":38800,"station_id":"ce4bgjh2rcd13ifvqbg0","pricing_plan_id":"cebpf4jnsgd1na2vs0mg"},{"bike_id":"538c6c97-8738-4e40-afde-1ced2fc6b778","system_id":"levelo_inurba_marseille","lat":43.33726,"lon":5.39179,"is_reserved":false,"is_disabled":false,"rental_uris":{"android":"levelo://app?vid=538c6c97-8738-4e40-afde-1ced2fc6b778","ios":"levelo://app?vid=538c6c97-8738-4e40-afde-1ced2fc6b778"},"vehicle_type_id":"4","last_reported":1730290641,"current_range_meters":36800,"station_id":"ce4bhr92rcd13ifvqhsg","pricing_plan_id":"cebpf4jnsgd1na2vs0mg"},{"bike_id":"691dda05-523e-473b-a193-f2f1e74c2656","system_id":"levelo_inurba_marseille","lat":43.26551,"lon":5.37283,"is_reserved":false,"is_disabled":false,"rental_uris":{"android":"levelo://app?vid=691dda05-523e-473b-a193-f2f1e74c2656","ios":"levelo://app?vid=691dda05-523e-473b-a193-f2f1e74c2656"},"vehicle_type_id":"4","last_reported":1730290641,"current_range_meters":24800,"station_id":"ce4bhg12rcd13ifvqf70","pricing_plan_id":"cebpf4jnsgd1na2vs0mg"},{"bike_id":"ba9f94e2-ba1b-4b8f-b7f1-62670c392268","system_id":"levelo_inurba_marseille","lat":43.29305,"lon":5.37166,"is_reserved":false,"is_disabled":false,"rental_uris":{"android":"levelo://app?vid=ba9f94e2-ba1b-4b8f-b7f1-62670c392268","ios":"levelo://app?vid=ba9f94e2-ba1b-4b8f-b7f1-62670c392268"},"vehicle_type_id":"4","last_reported":1730290641,"current_range_meters":9600,"station_id":"ce4bgh92rcd13ifvqb40","pricing_plan_id":"cebpf4jnsgd1na2vs0mg"},{"bike_id":"03e26363-1adc-494c-8098-91070571fba5","system_id":"levelo_inurba_marseille","lat":43.23202,"lon":5.35546,"is_reserved":false,"is_disabled":false,"rental_uris":{"android":"levelo://app?vid=03e26363-1adc-494c-8098-91070571fba5","ios":"levelo://app?vid=03e26363-1adc-494c-8098-91070571fba5"},"vehicle_type_id":"4","last_reported":1730290641,"current_range_meters":30800,"station_id":"ce4bhu92rcd13ifvqi70","pricing_plan_id":"cebpf4jnsgd1na2vs0mg"},{"bike_id":"c497513d-9d1d-4320-a1e3-875a8b21d4c5","system_id":"levelo_inurba_marseille","lat":43.27173,"lon":5.40989,"is_reserved":false,"is_disabled":false,"rental_uris":{"android":"levelo://app?vid=c497513d-9d1d-4320-a1e3-875a8b21d4c5","ios":"levelo://app?vid=c497513d-9d1d-4320-a1e3-875a8b21d4c5"},"vehicle_type_id":"4","last_reported":1730290641,"current_range_meters":32400,"station_id":"ce4bhl12rcd13ifvqgf0","pricing_plan_id":"cebpf4jnsgd1na2vs0mg"},{"bike_id":"0b1f0722-5382-42ba-9e40-d0c4c15b450f","system_id":"levelo_inurba_marseille","lat":43.248016,"lon":5.374611,"is_reserved":false,"is_disabled":false,"rental_uris":{"android":"levelo://app?vid=0b1f0722-5382-42ba-9e40-d0c4c15b450f","ios":"levelo://app?vid=0b1f0722-5382-42ba-9e40-d0c4c15b450f"},"vehicle_type_id":"4","last_reported":1730290641,"current_range_meters":28800,"station_id":"ce4bhb12rcd13ifvqem0","pricing_plan_id":"cebpf4jnsgd1na2vs0mg"},{"bike_id":"454b4309-2021-41e5-80f3-844d5245adae","system_id":"levelo_inurba_marseille","lat":43.25503,"lon":5.37648,"is_reserved":false,"is_disabled":false,"rental_uris":{"android":"levelo://app?vid=454b4309-2021-41e5-80f3-844d5245adae","ios":"levelo://app?vid=454b4309-2021-41e5-80f3-844d5245adae"},"vehicle_type_id":"4","last_reported":1730290641,"current_range_meters":18800,"station_id":"ce4bhh12rcd13ifvqff0","pricing_plan_id":"cebpf4jnsgd1na2vs0mg"},{"bike_id":"81e191dc-36a3-4dd3-a48a-138cae2d571f","system_id":"levelo_inurba_marseille","lat":43.23152,"lon":5.43708,"is_reserved":false,"is_disabled":false,"rental_uris":{"android":"levelo://app?vid=81e191dc-36a3-4dd3-a48a-138cae2d571f","ios":"levelo://app?vid=81e191dc-36a3-4dd3-a48a-138cae2d571f"},"vehicle_type_id":"4","last_reported":1730290641,"current_range_meters":38800,"station_id":"ce4bhmp2rcd13ifvqgog","pricing_plan_id":"cebpf4jnsgd1na2vs0mg"},{"bike_id":"e9141b44-30ab-459c-94b2-99dbe6b7a845","system_id":"levelo_inurba_marseille","lat":43.2955,"lon":5.42284,"is_reserved":false,"is_disabled":false,"rental_uris":{"android":"levelo://app?vid=e9141b44-30ab-459c-94b2-99dbe6b7a845","ios":"levelo://app?vid=e9141b44-30ab-459c-94b2-99dbe6b7a845"},"vehicle_type_id":"4","last_reported":1730290641,"current_range_meters":36400,"station_id":"ce4bhph2rcd13ifvqhdg","pricing_plan_id":"cebpf4jnsgd1na2vs0mg"},{"bike_id":"28de54ce-5fc5-46ae-b20b-432d9ecf7098","system_id":"levelo_inurba_marseille","lat":43.32547,"lon":5.41424,"is_reserved":false,"is_disabled":false,"rental_uris":{"android":"levelo://app?vid=28de54ce-5fc5-46ae-b20b-432d9ecf7098","ios":"levelo://app?vid=28de54ce-5fc5-46ae-b20b-432d9ecf7098"},"vehicle_type_id":"4","last_reported":1730290641,"current_range_meters":10800,"station_id":"ce4bhq12rcd13ifvqhhg","pricing_plan_id":"cebpf4jnsgd1na2vs0mg"},{"bike_id":"8fc8f69f-228e-4754-8013-e3713d197b92","system_id":"levelo_inurba_marseille","lat":43.24664,"lon":5.38166,"is_reserved":false,"is_disabled":false,"rental_uris":{"android":"levelo://app?vid=8fc8f69f-228e-4754-8013-e3713d197b92","ios":"levelo://app?vid=8fc8f69f-228e-4754-8013-e3713d197b92"},"vehicle_type_id":"4","last_reported":1730290641,"current_range_meters":40000,"station_id":"ce4bhih2rcd13ifvqfr0","pricing_plan_id":"cebpf4jnsgd1na2vs0mg"},{"bike_id":"bb2a7d96-9d28-4524-aeb4-a1488923c01a","system_id":"levelo_inurba_marseille","lat":43.30145,"lon":5.38099,"is_reserved":false,"is_disabled":false,"rental_uris":{"android":"levelo://app?vid=bb2a7d96-9d28-4524-aeb4-a1488923c01a","ios":"levelo://app?vid=bb2a7d96-9d28-4524-aeb4-a1488923c01a"},"vehicle_type_id":"4","last_reported":1730290641,"current_range_meters":38800,"station_id":"ce4bgjp2rcd13ifvqbh0","pricing_plan_id":"cebpf4jnsgd1na2vs0mg"},{"bike_id":"a306c469-7544-4489-af82-e9fb1e9b4215","system_id":"levelo_inurba_marseille","lat":43.23176,"lon":5.39981,"is_reserved":false,"is_disabled":false,"rental_uris":{"android":"levelo://app?vid=a306c469-7544-4489-af82-e9fb1e9b4215","ios":"levelo://app?vid=a306c469-7544-4489-af82-e9fb1e9b4215"},"vehicle_type_id":"4","last_reported":1730290641,"current_range_meters":38800,"station_id":"ce4bhn12rcd13ifvqgqg","pricing_plan_id":"cebpf4jnsgd1na2vs0mg"},{"bike_id":"fc5766bd-ddb1-45f7-9512-1c23af076e46","system_id":"levelo_inurba_marseille","lat":43.309998,"lon":5.383047,"is_reserved":false,"is_disabled":false,"rental_uris":{"android":"levelo://app?vid=fc5766bd-ddb1-45f7-9512-1c23af076e46","ios":"levelo://app?vid=fc5766bd-ddb1-45f7-9512-1c23af076e46"},"vehicle_type_id":"4","last_reported":1730290641,"current_range_meters":34800,"station_id":"ce4bgv92rcd13ifvqcr0","pricing_plan_id":"cebpf4jnsgd1na2vs0mg"},{"bike_id":"b72913b6-9d4a-45c6-9992-146504dc2537","system_id":"levelo_inurba_marseille","lat":43.31229,"lon":5.3685,"is_reserved":false,"is_disabled":false,"rental_uris":{"android":"levelo://app?vid=b72913b6-9d4a-45c6-9992-146504dc2537","ios":"levelo://app?vid=b72913b6-9d4a-45c6-9992-146504dc2537"},"vehicle_type_id":"4","last_reported":1730290641,"current_range_meters":28000,"station_id":"ce4bgl92rcd13ifvqbq0","pricing_plan_id":"cebpf4jnsgd1na2vs0mg"},{"bike_id":"7eed9b8a-8640-496c-a16d-abb0b51e54cb","system_id":"levelo_inurba_marseille","lat":43.29422,"lon":5.38622,"is_reserved":false,"is_disabled":false,"rental_uris":{"android":"levelo://app?vid=7eed9b8a-8640-496c-a16d-abb0b51e54cb","ios":"levelo://app?vid=7eed9b8a-8640-496c-a16d-abb0b51e54cb"},"vehicle_type_id":"4","last_reported":1730290641,"current_range_meters":2800,"station_id":"ce4bh2h2rcd13ifvqdh0","pricing_plan_id":"cebpf4jnsgd1na2vs0mg"},{"bike_id":"1c8653b8-822d-4908-8cf4-86271b095a05","system_id":"levelo_inurba_marseille","lat":43.23149,"lon":5.437,"is_reserved":false,"is_disabled":false,"rental_uris":{"android":"levelo://app?vid=1c8653b8-822d-4908-8cf4-86271b095a05","ios":"levelo://app?vid=1c8653b8-822d-4908-8cf4-86271b095a05"},"vehicle_type_id":"4","last_reported":1730290641,"current_range_meters":38800,"station_id":"ce4bhmp2rcd13ifvqgog","pricing_plan_id":"cebpf4jnsgd1na2vs0mg"},{"bike_id":"1baf27ab-da94-4ebb-b01c-4e8e8449400e","system_id":"levelo_inurba_marseille","lat":43.29593,"lon":5.37749,"is_reserved":false,"is_disabled":false,"rental_uris":{"android":"levelo://app?vid=1baf27ab-da94-4ebb-b01c-4e8e8449400e","ios":"levelo://app?vid=1baf27ab-da94-4ebb-b01c-4e8e8449400e"},"vehicle_type_id":"4","last_reported":1730290641,"current_range_meters":23200,"station_id":"ce4bgi92rcd13ifvqb90","pricing_plan_id":"cebpf4jnsgd1na2vs0mg"},{"bike_id":"df1e5d7b-1674-4908-8308-f4c2659689be","system_id":"levelo_inurba_marseille","lat":43.299875,"lon":5.384949,"is_reserved":false,"is_disabled":false,"rental_uris":{"android":"levelo://app?vid=df1e5d7b-1674-4908-8308-f4c2659689be","ios":"levelo://app?vid=df1e5d7b-1674-4908-8308-f4c2659689be"},"vehicle_type_id":"4","last_reported":1730290641,"current_range_meters":3600,"station_id":"ce4bgk12rcd13ifvqbi0","pricing_plan_id":"cebpf4jnsgd1na2vs0mg"},{"bike_id":"28be2e90-3ac6-4686-ae54-ecfc500be0fc","system_id":"levelo_inurba_marseille","lat":43.24799,"lon":5.37446,"is_reserved":false,"is_disabled":false,"rental_uris":{"android":"levelo://app?vid=28be2e90-3ac6-4686-ae54-ecfc500be0fc","ios":"levelo://app?vid=28be2e90-3ac6-4686-ae54-ecfc500be0fc"},"vehicle_type_id":"4","last_reported":1730290641,"current_range_meters":38800,"station_id":"ce4bhgh2rcd13ifvqfb0","pricing_plan_id":"cebpf4jnsgd1na2vs0mg"},{"bike_id":"829d8f5c-87a3-4c2a-92be-f2bab3fcdd57","system_id":"levelo_inurba_marseille","lat":43.2925,"lon":5.40908,"is_reserved":false,"is_disabled":false,"rental_uris":{"android":"levelo://app?vid=829d8f5c-87a3-4c2a-92be-f2bab3fcdd57","ios":"levelo://app?vid=829d8f5c-87a3-4c2a-92be-f2bab3fcdd57"},"vehicle_type_id":"4","last_reported":1730290641,"current_range_meters":32800,"station_id":"ce4bh192rcd13ifvqdc0","pricing_plan_id":"cebpf4jnsgd1na2vs0mg"},{"bike_id":"ba131206-8f98-4bcf-a0d2-5799b4b8f3ac","system_id":"levelo_inurba_marseille","lat":43.23158,"lon":5.437,"is_reserved":false,"is_disabled":false,"rental_uris":{"android":"levelo://app?vid=ba131206-8f98-4bcf-a0d2-5799b4b8f3ac","ios":"levelo://app?vid=ba131206-8f98-4bcf-a0d2-5799b4b8f3ac"},"vehicle_type_id":"4","last_reported":1730290641,"current_range_meters":19200,"station_id":"ce4bhmp2rcd13ifvqgog","pricing_plan_id":"cebpf4jnsgd1na2vs0mg"},{"bike_id":"25b08271-8b63-4641-85f0-3311a70d45c5","system_id":"levelo_inurba_marseille","lat":43.2756,"lon":5.38415,"is_reserved":false,"is_disabled":false,"rental_uris":{"android":"levelo://app?vid=25b08271-8b63-4641-85f0-3311a70d45c5","ios":"levelo://app?vid=25b08271-8b63-4641-85f0-3311a70d45c5"},"vehicle_type_id":"4","last_reported":1730290641,"current_range_meters":24400,"station_id":"ce4bhh92rcd13ifvqfi0","pricing_plan_id":"cebpf4jnsgd1na2vs0mg"},{"bike_id":"efff9536-59b2-4bcf-a4a7-657704feb679","system_id":"levelo_inurba_marseille","lat":43.296208,"lon":5.367213,"is_reserved":false,"is_disabled":false,"rental_uris":{"android":"levelo://app?vid=efff9536-59b2-4bcf-a4a7-657704feb679","ios":"levelo://app?vid=efff9536-59b2-4bcf-a4a7-657704feb679"},"vehicle_type_id":"4","last_reported":1730290641,"current_range_meters":14800,"station_id":"ce4bgi92rcd13ifvqb90","pricing_plan_id":"cebpf4jnsgd1na2vs0mg"},{"bike_id":"a64c4bd1-0283-471c-9ad4-96f8bc63ef8b","system_id":"levelo_inurba_marseille","lat":43.32489,"lon":5.36578,"is_reserved":false,"is_disabled":false,"rental_uris":{"android":"levelo://app?vid=a64c4bd1-0283-471c-9ad4-96f8bc63ef8b","ios":"levelo://app?vid=a64c4bd1-0283-471c-9ad4-96f8bc63ef8b"},"vehicle_type_id":"4","last_reported":1730290641,"current_range_meters":24800,"station_id":"ce4bhs12rcd13ifvqhvg","pricing_plan_id":"cebpf4jnsgd1na2vs0mg"},{"bike_id":"129b2b35-7dcc-4184-b1b7-71a6fcc54dab","system_id":"levelo_inurba_marseille","lat":43.31486,"lon":5.37312,"is_reserved":false,"is_disabled":false,"rental_uris":{"android":"levelo://app?vid=129b2b35-7dcc-4184-b1b7-71a6fcc54dab","ios":"levelo://app?vid=129b2b35-7dcc-4184-b1b7-71a6fcc54dab"},"vehicle_type_id":"4","last_reported":1730290641,"current_range_meters":36800,"station_id":"ce4bgt12rcd13ifvqcd0","pricing_plan_id":"cebpf4jnsgd1na2vs0mg"},{"bike_id":"85f5aa88-fc01-4556-924e-bb24d8f90e2f","system_id":"levelo_inurba_marseille","lat":43.309227,"lon":5.401418,"is_reserved":false,"is_disabled":false,"rental_uris":{"android":"levelo://app?vid=85f5aa88-fc01-4556-924e-bb24d8f90e2f","ios":"levelo://app?vid=85f5aa88-fc01-4556-924e-bb24d8f90e2f"},"vehicle_type_id":"4","last_reported":1730290641,"current_range_meters":30400,"station_id":"ce4bgkh2rcd13ifvqbk0","pricing_plan_id":"cebpf4jnsgd1na2vs0mg"},{"bike_id":"c77336ff-a3cf-4c9d-938b-3a434201eaa6","system_id":"levelo_inurba_marseille","lat":43.31359,"lon":5.38486,"is_reserved":false,"is_disabled":false,"rental_uris":{"android":"levelo://app?vid=c77336ff-a3cf-4c9d-938b-3a434201eaa6","ios":"levelo://app?vid=c77336ff-a3cf-4c9d-938b-3a434201eaa6"},"vehicle_type_id":"4","last_reported":1730290641,"current_range_meters":29600,"station_id":"ce4bgup2rcd13ifvqco0","pricing_plan_id":"cebpf4jnsgd1na2vs0mg"},{"bike_id":"49e992da-5dea-4cb6-ac8e-afa6272c6a08","system_id":"levelo_inurba_marseille","lat":43.27944,"lon":5.41034,"is_reserved":false,"is_disabled":false,"rental_uris":{"android":"levelo://app?vid=49e992da-5dea-4cb6-ac8e-afa6272c6a08","ios":"levelo://app?vid=49e992da-5dea-4cb6-ac8e-afa6272c6a08"},"vehicle_type_id":"4","last_reported":1730290641,"current_range_meters":9200,"station_id":"ce4bhnp2rcd13ifvqh0g","pricing_plan_id":"cebpf4jnsgd1na2vs0mg"},{"bike_id":"9a9a7908-1e3b-4e98-8177-586035058191","system_id":"levelo_inurba_marseille","lat":43.24666,"lon":5.38165,"is_reserved":false,"is_disabled":false,"rental_uris":{"android":"levelo://app?vid=9a9a7908-1e3b-4e98-8177-586035058191","ios":"levelo://app?vid=9a9a7908-1e3b-4e98-8177-586035058191"},"vehicle_type_id":"4","last_reported":1730290641,"current_range_meters":20000,"station_id":"ce4bhih2rcd13ifvqfr0","pricing_plan_id":"cebpf4jnsgd1na2vs0mg"},{"bike_id":"5f0c1f6e-db1c-47f0-ad65-4da59ea5f4d0","system_id":"levelo_inurba_marseille","lat":43.26056,"lon":5.39395,"is_reserved":false,"is_disabled":false,"rental_uris":{"android":"levelo://app?vid=5f0c1f6e-db1c-47f0-ad65-4da59ea5f4d0","ios":"levelo://app?vid=5f0c1f6e-db1c-47f0-ad65-4da59ea5f4d0"},"vehicle_type_id":"4","last_reported":1730290641,"current_range_meters":38000,"station_id":"ce4bhh92rcd13ifvqfj0","pricing_plan_id":"cebpf4jnsgd1na2vs0mg"},{"bike_id":"2fc6a991-2f9a-4501-aaba-9d84c568ae9c","system_id":"levelo_inurba_marseille","lat":43.31223,"lon":5.36851,"is_reserved":false,"is_disabled":false,"rental_uris":{"android":"levelo://app?vid=2fc6a991-2f9a-4501-aaba-9d84c568ae9c","ios":"levelo://app?vid=2fc6a991-2f9a-4501-aaba-9d84c568ae9c"},"vehicle_type_id":"4","last_reported":1730290641,"current_range_meters":31200,"station_id":"ce4bgl92rcd13ifvqbq0","pricing_plan_id":"cebpf4jnsgd1na2vs0mg"},{"bike_id":"87d23bf7-4e73-43b2-8adf-83be3477f5aa","system_id":"levelo_inurba_marseille","lat":43.23192,"lon":5.35542,"is_reserved":false,"is_disabled":false,"rental_uris":{"android":"levelo://app?vid=87d23bf7-4e73-43b2-8adf-83be3477f5aa","ios":"levelo://app?vid=87d23bf7-4e73-43b2-8adf-83be3477f5aa"},"vehicle_type_id":"4","last_reported":1730290641,"current_range_meters":33600,"station_id":"ce4bhu92rcd13ifvqi70","pricing_plan_id":"cebpf4jnsgd1na2vs0mg"},{"bike_id":"c25f12b5-8556-4de3-856b-65a2f951174f","system_id":"levelo_inurba_marseille","lat":43.30118,"lon":5.37155,"is_reserved":false,"is_disabled":false,"rental_uris":{"android":"levelo://app?vid=c25f12b5-8556-4de3-856b-65a2f951174f","ios":"levelo://app?vid=c25f12b5-8556-4de3-856b-65a2f951174f"},"vehicle_type_id":"4","last_reported":1730290641,"current_range_meters":27600,"station_id":"","pricing_plan_id":"cebpf4jnsgd1na2vs0mg"},{"bike_id":"8c4376ad-9337-49aa-85e9-e4eeb9afa767","system_id":"levelo_inurba_marseille","lat":43.29799,"lon":5.40389,"is_reserved":false,"is_disabled":false,"rental_uris":{"android":"levelo://app?vid=8c4376ad-9337-49aa-85e9-e4eeb9afa767","ios":"levelo://app?vid=8c4376ad-9337-49aa-85e9-e4eeb9afa767"},"vehicle_type_id":"4","last_reported":1730290641,"current_range_meters":3600,"station_id":"ce4bh112rcd13ifvqd90","pricing_plan_id":"cebpf4jnsgd1na2vs0mg"},{"bike_id":"249f4139-b1bb-4fc2-87b9-dd8c4909e5b1","system_id":"levelo_inurba_marseille","lat":43.29547,"lon":5.42281,"is_reserved":false,"is_disabled":false,"rental_uris":{"android":"levelo://app?vid=249f4139-b1bb-4fc2-87b9-dd8c4909e5b1","ios":"levelo://app?vid=249f4139-b1bb-4fc2-87b9-dd8c4909e5b1"},"vehicle_type_id":"4","last_reported":1730290641,"current_range_meters":40000,"station_id":"ce4bhph2rcd13ifvqhdg","pricing_plan_id":"cebpf4jnsgd1na2vs0mg"},{"bike_id":"a1a29727-28d8-49e4-bec7-62b1dc6114ed","system_id":"levelo_inurba_marseille","lat":43.23192,"lon":5.39979,"is_reserved":false,"is_disabled":false,"rental_uris":{"android":"levelo://app?vid=a1a29727-28d8-49e4-bec7-62b1dc6114ed","ios":"levelo://app?vid=a1a29727-28d8-49e4-bec7-62b1dc6114ed"},"vehicle_type_id":"4","last_reported":1730290641,"current_range_meters":25600,"station_id":"ce4bhn12rcd13ifvqgqg","pricing_plan_id":"cebpf4jnsgd1na2vs0mg"},{"bike_id":"15e517f1-ebec-47c6-9ffd-2a035f728a02","system_id":"levelo_inurba_marseille","lat":43.24809,"lon":5.37456,"is_reserved":false,"is_disabled":false,"rental_uris":{"android":"levelo://app?vid=15e517f1-ebec-47c6-9ffd-2a035f728a02","ios":"levelo://app?vid=15e517f1-ebec-47c6-9ffd-2a035f728a02"},"vehicle_type_id":"4","last_reported":1730290641,"current_range_meters":26000,"station_id":"ce4bhgh2rcd13ifvqfb0","pricing_plan_id":"cebpf4jnsgd1na2vs0mg"},{"bike_id":"e6895f5f-e9a4-4da1-a3ae-1e541bf504db","system_id":"levelo_inurba_marseille","lat":43.29408,"lon":5.37399,"is_reserved":false,"is_disabled":false,"rental_uris":{"android":"levelo://app?vid=e6895f5f-e9a4-4da1-a3ae-1e541bf504db","ios":"levelo://app?vid=e6895f5f-e9a4-4da1-a3ae-1e541bf504db"},"vehicle_type_id":"4","last_reported":1730290641,"current_range_meters":9600,"station_id":"ce4bgi12rcd13ifvqb70","pricing_plan_id":"cebpf4jnsgd1na2vs0mg"},{"bike_id":"9445a670-8cad-4552-a342-d1a968da3c5a","system_id":"levelo_inurba_marseille","lat":43.320583,"lon":5.41548,"is_reserved":false,"is_disabled":false,"rental_uris":{"android":"levelo://app?vid=9445a670-8cad-4552-a342-d1a968da3c5a","ios":"levelo://app?vid=9445a670-8cad-4552-a342-d1a968da3c5a"},"vehicle_type_id":"4","last_reported":1730290641,"current_range_meters":38800,"station_id":"ce4bhq92rcd13ifvqhkg","pricing_plan_id":"cebpf4jnsgd1na2vs0mg"},{"bike_id":"5b1c67bf-6e86-4490-9386-0c6a37f36229","system_id":"levelo_inurba_marseille","lat":43.29913,"lon":5.37484,"is_reserved":false,"is_disabled":false,"rental_uris":{"android":"levelo://app?vid=5b1c67bf-6e86-4490-9386-0c6a37f36229","ios":"levelo://app?vid=5b1c67bf-6e86-4490-9386-0c6a37f36229"},"vehicle_type_id":"4","last_reported":1730290641,"current_range_meters":38800,"station_id":"ce4bgjh2rcd13ifvqbg0","pricing_plan_id":"cebpf4jnsgd1na2vs0mg"},{"bike_id":"0a4665aa-5f09-43f0-8c9c-ee7193e2915e","system_id":"levelo_inurba_marseille","lat":43.255,"lon":5.37651,"is_reserved":false,"is_disabled":false,"rental_uris":{"android":"levelo://app?vid=0a4665aa-5f09-43f0-8c9c-ee7193e2915e","ios":"levelo://app?vid=0a4665aa-5f09-43f0-8c9c-ee7193e2915e"},"vehicle_type_id":"4","last_reported":1730290641,"current_range_meters":34000,"station_id":"ce4bhh12rcd13ifvqff0","pricing_plan_id":"cebpf4jnsgd1na2vs0mg"},{"bike_id":"4fc7f475-2600-47d1-9781-722c83c9fb7e","system_id":"levelo_inurba_marseille","lat":43.24812,"lon":5.37462,"is_reserved":false,"is_disabled":false,"rental_uris":{"android":"levelo://app?vid=4fc7f475-2600-47d1-9781-722c83c9fb7e","ios":"levelo://app?vid=4fc7f475-2600-47d1-9781-722c83c9fb7e"},"vehicle_type_id":"4","last_reported":1730290641,"current_range_meters":24800,"station_id":"ce4bhgh2rcd13ifvqfb0","pricing_plan_id":"cebpf4jnsgd1na2vs0mg"},{"bike_id":"5597021c-68f2-406a-bed3-776acbf8e8bf","system_id":"levelo_inurba_marseille","lat":43.29006,"lon":5.35605,"is_reserved":false,"is_disabled":false,"rental_uris":{"android":"levelo://app?vid=5597021c-68f2-406a-bed3-776acbf8e8bf","ios":"levelo://app?vid=5597021c-68f2-406a-bed3-776acbf8e8bf"},"vehicle_type_id":"4","last_reported":1730290641,"current_range_meters":26000,"station_id":"ce4bhb92rcd13ifvqen0","pricing_plan_id":"cebpf4jnsgd1na2vs0mg"},{"bike_id":"a3380b74-d7c1-4a05-98d2-dd31ab032453","system_id":"levelo_inurba_marseille","lat":43.29255,"lon":5.4091,"is_reserved":false,"is_disabled":false,"rental_uris":{"android":"levelo://app?vid=a3380b74-d7c1-4a05-98d2-dd31ab032453","ios":"levelo://app?vid=a3380b74-d7c1-4a05-98d2-dd31ab032453"},"vehicle_type_id":"4","last_reported":1730290641,"current_range_meters":30400,"station_id":"ce4bh192rcd13ifvqdc0","pricing_plan_id":"cebpf4jnsgd1na2vs0mg"},{"bike_id":"e4ff3c52-73dc-458c-8024-1873c8f5875c","system_id":"levelo_inurba_marseille","lat":43.2679,"lon":5.39423,"is_reserved":false,"is_disabled":false,"rental_uris":{"android":"levelo://app?vid=e4ff3c52-73dc-458c-8024-1873c8f5875c","ios":"levelo://app?vid=e4ff3c52-73dc-458c-8024-1873c8f5875c"},"vehicle_type_id":"4","last_reported":1730290641,"current_range_meters":38800,"station_id":"ce4bhh12rcd13ifvqfg0","pricing_plan_id":"cebpf4jnsgd1na2vs0mg"},{"bike_id":"fc013c53-7dfe-4b4b-99fd-b5bbd0306ece","system_id":"levelo_inurba_marseille","lat":43.33762,"lon":5.37442,"is_reserved":false,"is_disabled":false,"rental_uris":{"android":"levelo://app?vid=fc013c53-7dfe-4b4b-99fd-b5bbd0306ece","ios":"levelo://app?vid=fc013c53-7dfe-4b4b-99fd-b5bbd0306ece"},"vehicle_type_id":"4","last_reported":1730290641,"current_range_meters":38400,"station_id":"","pricing_plan_id":"cebpf4jnsgd1na2vs0mg"},{"bike_id":"766801a5-7dbd-464a-bc56-398e14b9cf78","system_id":"levelo_inurba_marseille","lat":43.29805,"lon":5.37136,"is_reserved":false,"is_disabled":false,"rental_uris":{"android":"levelo://app?vid=766801a5-7dbd-464a-bc56-398e14b9cf78","ios":"levelo://app?vid=766801a5-7dbd-464a-bc56-398e14b9cf78"},"vehicle_type_id":"4","last_reported":1730290641,"current_range_meters":6400,"station_id":"","pricing_plan_id":"cebpf4jnsgd1na2vs0mg"},{"bike_id":"afc8a59e-718c-432c-b226-d6be0903e5fb","system_id":"levelo_inurba_marseille","lat":43.24388,"lon":5.3706,"is_reserved":false,"is_disabled":false,"rental_uris":{"android":"levelo://app?vid=afc8a59e-718c-432c-b226-d6be0903e5fb","ios":"levelo://app?vid=afc8a59e-718c-432c-b226-d6be0903e5fb"},"vehicle_type_id":"4","last_reported":1730290641,"current_range_meters":33200,"station_id":"ce4bhhh2rcd13ifvqfk0","pricing_plan_id":"cebpf4jnsgd1na2vs0mg"},{"bike_id":"c6d24e19-b858-4bcc-91b4-9221404bb4a6","system_id":"levelo_inurba_marseille","lat":43.31225,"lon":5.36854,"is_reserved":false,"is_disabled":false,"rental_uris":{"android":"levelo://app?vid=c6d24e19-b858-4bcc-91b4-9221404bb4a6","ios":"levelo://app?vid=c6d24e19-b858-4bcc-91b4-9221404bb4a6"},"vehicle_type_id":"4","last_reported":1730290641,"current_range_meters":36400,"station_id":"ce4bgl92rcd13ifvqbq0","pricing_plan_id":"cebpf4jnsgd1na2vs0mg"},{"bike_id":"72e37474-1bc8-4568-aec8-ce5464e6b828","system_id":"levelo_inurba_marseille","lat":43.23197,"lon":5.355484,"is_reserved":false,"is_disabled":false,"rental_uris":{"android":"levelo://app?vid=72e37474-1bc8-4568-aec8-ce5464e6b828","ios":"levelo://app?vid=72e37474-1bc8-4568-aec8-ce5464e6b828"},"vehicle_type_id":"4","last_reported":1730290641,"current_range_meters":28800,"station_id":"ce4bhu92rcd13ifvqi70","pricing_plan_id":"cebpf4jnsgd1na2vs0mg"},{"bike_id":"f60c22c9-8859-4064-a562-7bc4d70b8b13","system_id":"levelo_inurba_marseille","lat":43.28427,"lon":5.3499,"is_reserved":false,"is_disabled":false,"rental_uris":{"android":"levelo://app?vid=f60c22c9-8859-4064-a562-7bc4d70b8b13","ios":"levelo://app?vid=f60c22c9-8859-4064-a562-7bc4d70b8b13"},"vehicle_type_id":"4","last_reported":1730290641,"current_range_meters":40000,"station_id":"ce4bhbh2rcd13ifvqepg","pricing_plan_id":"cebpf4jnsgd1na2vs0mg"},{"bike_id":"f10428f8-36fa-4d26-9b61-10f7ba852f56","system_id":"levelo_inurba_marseille","lat":43.267883,"lon":5.384342,"is_reserved":false,"is_disabled":false,"rental_uris":{"android":"levelo://app?vid=f10428f8-36fa-4d26-9b61-10f7ba852f56","ios":"levelo://app?vid=f10428f8-36fa-4d26-9b61-10f7ba852f56"},"vehicle_type_id":"4","last_reported":1730290641,"current_range_meters":30000,"station_id":"ce4bhg92rcd13ifvqf90","pricing_plan_id":"cebpf4jnsgd1na2vs0mg"},{"bike_id":"c2964dd9-86d7-477b-837f-6d5fbdb82788","system_id":"levelo_inurba_marseille","lat":43.24392,"lon":5.37052,"is_reserved":false,"is_disabled":false,"rental_uris":{"android":"levelo://app?vid=c2964dd9-86d7-477b-837f-6d5fbdb82788","ios":"levelo://app?vid=c2964dd9-86d7-477b-837f-6d5fbdb82788"},"vehicle_type_id":"4","last_reported":1730290641,"current_range_meters":16800,"station_id":"ce4bhhh2rcd13ifvqfk0","pricing_plan_id":"cebpf4jnsgd1na2vs0mg"},{"bike_id":"d0ebd923-d942-4677-baf1-3a671ebb9755","system_id":"levelo_inurba_marseille","lat":43.31758,"lon":5.39014,"is_reserved":false,"is_disabled":false,"rental_uris":{"android":"levelo://app?vid=d0ebd923-d942-4677-baf1-3a671ebb9755","ios":"levelo://app?vid=d0ebd923-d942-4677-baf1-3a671ebb9755"},"vehicle_type_id":"4","last_reported":1730290641,"current_range_meters":37600,"station_id":"ce4bhqp2rcd13ifvqhng","pricing_plan_id":"cebpf4jnsgd1na2vs0mg"},{"bike_id":"54d2e7c1-0997-4e85-b497-01eca9eb4f00","system_id":"levelo_inurba_marseille","lat":43.2319,"lon":5.35555,"is_reserved":false,"is_disabled":false,"rental_uris":{"android":"levelo://app?vid=54d2e7c1-0997-4e85-b497-01eca9eb4f00","ios":"levelo://app?vid=54d2e7c1-0997-4e85-b497-01eca9eb4f00"},"vehicle_type_id":"4","last_reported":1730290641,"current_range_meters":16400,"station_id":"ce4bhu92rcd13ifvqi70","pricing_plan_id":"cebpf4jnsgd1na2vs0mg"},{"bike_id":"e675a6fb-cdb1-482c-beca-19b0cf026634","system_id":"levelo_inurba_marseille","lat":43.230865,"lon":5.354816,"is_reserved":false,"is_disabled":false,"rental_uris":{"android":"levelo://app?vid=e675a6fb-cdb1-482c-beca-19b0cf026634","ios":"levelo://app?vid=e675a6fb-cdb1-482c-beca-19b0cf026634"},"vehicle_type_id":"4","last_reported":1730290641,"current_range_meters":24400,"station_id":"cpo3342slgdg3j2ifvpg","pricing_plan_id":"cebpf4jnsgd1na2vs0mg"},{"bike_id":"06c0f560-8272-40b5-9b56-aad1e3768786","system_id":"levelo_inurba_marseille","lat":43.29934,"lon":5.36525,"is_reserved":false,"is_disabled":false,"rental_uris":{"android":"levelo://app?vid=06c0f560-8272-40b5-9b56-aad1e3768786","ios":"levelo://app?vid=06c0f560-8272-40b5-9b56-aad1e3768786"},"vehicle_type_id":"4","last_reported":1730290641,"current_range_meters":14800,"station_id":"ce4bgm92rcd13ifvqbr0","pricing_plan_id":"cebpf4jnsgd1na2vs0mg"},{"bike_id":"cf1bf93e-b987-4f03-9549-b984bb838aa3","system_id":"levelo_inurba_marseille","lat":43.26783,"lon":5.39417,"is_reserved":false,"is_disabled":false,"rental_uris":{"android":"levelo://app?vid=cf1bf93e-b987-4f03-9549-b984bb838aa3","ios":"levelo://app?vid=cf1bf93e-b987-4f03-9549-b984bb838aa3"},"vehicle_type_id":"4","last_reported":1730290641,"current_range_meters":38000,"station_id":"ce4bhh12rcd13ifvqfg0","pricing_plan_id":"cebpf4jnsgd1na2vs0mg"},{"bike_id":"e74d5bb5-71e1-4c61-a5ef-f3253bb4afbf","system_id":"levelo_inurba_marseille","lat":43.23062,"lon":5.35487,"is_reserved":false,"is_disabled":false,"rental_uris":{"android":"levelo://app?vid=e74d5bb5-71e1-4c61-a5ef-f3253bb4afbf","ios":"levelo://app?vid=e74d5bb5-71e1-4c61-a5ef-f3253bb4afbf"},"vehicle_type_id":"4","last_reported":1730290641,"current_range_meters":32400,"station_id":"cpo3342slgdg3j2ifvpg","pricing_plan_id":"cebpf4jnsgd1na2vs0mg"},{"bike_id":"ae30f0e4-509e-44a9-a275-eda04247b6f3","system_id":"levelo_inurba_marseille","lat":43.290192,"lon":5.381325,"is_reserved":false,"is_disabled":false,"rental_uris":{"android":"levelo://app?vid=ae30f0e4-509e-44a9-a275-eda04247b6f3","ios":"levelo://app?vid=ae30f0e4-509e-44a9-a275-eda04247b6f3"},"vehicle_type_id":"4","last_reported":1730290641,"current_range_meters":30400,"station_id":"ce4bhmp2rcd13ifvqgog","pricing_plan_id":"cebpf4jnsgd1na2vs0mg"},{"bike_id":"3e7ccb55-c2c4-4413-99cd-f5ca3288a764","system_id":"levelo_inurba_marseille","lat":43.30155,"lon":5.37421,"is_reserved":false,"is_disabled":false,"rental_uris":{"android":"levelo://app?vid=3e7ccb55-c2c4-4413-99cd-f5ca3288a764","ios":"levelo://app?vid=3e7ccb55-c2c4-4413-99cd-f5ca3288a764"},"vehicle_type_id":"4","last_reported":1730290641,"current_range_meters":29600,"station_id":"ce4bgs92rcd13ifvqcc0","pricing_plan_id":"cebpf4jnsgd1na2vs0mg"},{"bike_id":"ed4542ec-a766-43c5-bc78-9617bcbbe71c","system_id":"levelo_inurba_marseille","lat":43.2587,"lon":5.39899,"is_reserved":false,"is_disabled":false,"rental_uris":{"android":"levelo://app?vid=ed4542ec-a766-43c5-bc78-9617bcbbe71c","ios":"levelo://app?vid=ed4542ec-a766-43c5-bc78-9617bcbbe71c"},"vehicle_type_id":"4","last_reported":1730290641,"current_range_meters":9200,"station_id":"ce4bhl92rcd13ifvqghg","pricing_plan_id":"cebpf4jnsgd1na2vs0mg"},{"bike_id":"9961bfda-95b1-458b-8f57-d90a1a5ff389","system_id":"levelo_inurba_marseille","lat":43.28481,"lon":5.38405,"is_reserved":false,"is_disabled":false,"rental_uris":{"android":"levelo://app?vid=9961bfda-95b1-458b-8f57-d90a1a5ff389","ios":"levelo://app?vid=9961bfda-95b1-458b-8f57-d90a1a5ff389"},"vehicle_type_id":"4","last_reported":1730290641,"current_range_meters":35200,"station_id":"ce4bh512rcd13ifvqe3g","pricing_plan_id":"cebpf4jnsgd1na2vs0mg"},{"bike_id":"586be2bd-1094-425b-a7f1-57736469de57","system_id":"levelo_inurba_marseille","lat":43.2694,"lon":5.40258,"is_reserved":false,"is_disabled":false,"rental_uris":{"android":"levelo://app?vid=586be2bd-1094-425b-a7f1-57736469de57","ios":"levelo://app?vid=586be2bd-1094-425b-a7f1-57736469de57"},"vehicle_type_id":"4","last_reported":1730290641,"current_range_meters":8400,"station_id":"cjm6bp8fraef2m0cb0m0","pricing_plan_id":"cebpf4jnsgd1na2vs0mg"},{"bike_id":"fdd05917-2456-4f3e-aeef-455fc8b74ff8","system_id":"levelo_inurba_marseille","lat":43.28154,"lon":5.42645,"is_reserved":false,"is_disabled":false,"rental_uris":{"android":"levelo://app?vid=fdd05917-2456-4f3e-aeef-455fc8b74ff8","ios":"levelo://app?vid=fdd05917-2456-4f3e-aeef-455fc8b74ff8"},"vehicle_type_id":"4","last_reported":1730290641,"current_range_meters":21600,"station_id":"ce4bhnh2rcd13ifvqgug","pricing_plan_id":"cebpf4jnsgd1na2vs0mg"},{"bike_id":"52719170-d1b5-45cd-a89c-ec619cbbf1a9","system_id":"levelo_inurba_marseille","lat":43.30353,"lon":5.41879,"is_reserved":false,"is_disabled":false,"rental_uris":{"android":"levelo://app?vid=52719170-d1b5-45cd-a89c-ec619cbbf1a9","ios":"levelo://app?vid=52719170-d1b5-45cd-a89c-ec619cbbf1a9"},"vehicle_type_id":"4","last_reported":1730290641,"current_range_meters":28400,"station_id":"ce4bhop2rcd13ifvqh7g","pricing_plan_id":"cebpf4jnsgd1na2vs0mg"},{"bike_id":"c2883fcc-8d99-4862-9a80-bcf2e22a2ee2","system_id":"levelo_inurba_marseille","lat":43.29778,"lon":5.37091,"is_reserved":false,"is_disabled":false,"rental_uris":{"android":"levelo://app?vid=c2883fcc-8d99-4862-9a80-bcf2e22a2ee2","ios":"levelo://app?vid=c2883fcc-8d99-4862-9a80-bcf2e22a2ee2"},"vehicle_type_id":"4","last_reported":1730290641,"current_range_meters":24800,"station_id":"ce4bgop2rcd13ifvqc1g","pricing_plan_id":"cebpf4jnsgd1na2vs0mg"},{"bike_id":"90b87ab5-0676-4c7a-bd4c-c425937fd4a5","system_id":"levelo_inurba_marseille","lat":43.29936,"lon":5.36534,"is_reserved":false,"is_disabled":false,"rental_uris":{"android":"levelo://app?vid=90b87ab5-0676-4c7a-bd4c-c425937fd4a5","ios":"levelo://app?vid=90b87ab5-0676-4c7a-bd4c-c425937fd4a5"},"vehicle_type_id":"4","last_reported":1730290641,"current_range_meters":22800,"station_id":"ce4bgm92rcd13ifvqbr0","pricing_plan_id":"cebpf4jnsgd1na2vs0mg"},{"bike_id":"d3834406-5180-48ae-986e-7eca8f9a66e3","system_id":"levelo_inurba_marseille","lat":43.27066,"lon":5.42269,"is_reserved":false,"is_disabled":false,"rental_uris":{"android":"levelo://app?vid=d3834406-5180-48ae-986e-7eca8f9a66e3","ios":"levelo://app?vid=d3834406-5180-48ae-986e-7eca8f9a66e3"},"vehicle_type_id":"4","last_reported":1730290641,"current_range_meters":20000,"station_id":"ce4bhk92rcd13ifvqgb0","pricing_plan_id":"cebpf4jnsgd1na2vs0mg"},{"bike_id":"1995d42f-9bb2-423e-a419-1706f5fab24e","system_id":"levelo_inurba_marseille","lat":43.27067,"lon":5.42272,"is_reserved":false,"is_disabled":false,"rental_uris":{"android":"levelo://app?vid=1995d42f-9bb2-423e-a419-1706f5fab24e","ios":"levelo://app?vid=1995d42f-9bb2-423e-a419-1706f5fab24e"},"vehicle_type_id":"4","last_reported":1730290641,"current_range_meters":34000,"station_id":"ce4bhk92rcd13ifvqgb0","pricing_plan_id":"cebpf4jnsgd1na2vs0mg"},{"bike_id":"5b54ae5c-2f67-41f3-8035-2314f9596429","system_id":"levelo_inurba_marseille","lat":43.23153,"lon":5.43716,"is_reserved":false,"is_disabled":false,"rental_uris":{"android":"levelo://app?vid=5b54ae5c-2f67-41f3-8035-2314f9596429","ios":"levelo://app?vid=5b54ae5c-2f67-41f3-8035-2314f9596429"},"vehicle_type_id":"4","last_reported":1730290641,"current_range_meters":30800,"station_id":"ce4bhmp2rcd13ifvqgog","pricing_plan_id":"cebpf4jnsgd1na2vs0mg"},{"bike_id":"4e202761-f484-4f98-a2c5-f29995d30b81","system_id":"levelo_inurba_marseille","lat":43.2622,"lon":5.37441,"is_reserved":false,"is_disabled":false,"rental_uris":{"android":"levelo://app?vid=4e202761-f484-4f98-a2c5-f29995d30b81","ios":"levelo://app?vid=4e202761-f484-4f98-a2c5-f29995d30b81"},"vehicle_type_id":"4","last_reported":1730290641,"current_range_meters":14000,"station_id":"ce4bhgp2rcd13ifvqfc0","pricing_plan_id":"cebpf4jnsgd1na2vs0mg"},{"bike_id":"47dc37cc-4028-4324-a454-9fe7d62692c5","system_id":"levelo_inurba_marseille","lat":43.31715,"lon":5.37751,"is_reserved":false,"is_disabled":false,"rental_uris":{"android":"levelo://app?vid=47dc37cc-4028-4324-a454-9fe7d62692c5","ios":"levelo://app?vid=47dc37cc-4028-4324-a454-9fe7d62692c5"},"vehicle_type_id":"4","last_reported":1730290641,"current_range_meters":8800,"station_id":"ce4bgth2rcd13ifvqch0","pricing_plan_id":"cebpf4jnsgd1na2vs0mg"},{"bike_id":"8162e4a8-23c1-4020-bbef-be4a2e70aefe","system_id":"levelo_inurba_marseille","lat":43.23187,"lon":5.35545,"is_reserved":false,"is_disabled":false,"rental_uris":{"android":"levelo://app?vid=8162e4a8-23c1-4020-bbef-be4a2e70aefe","ios":"levelo://app?vid=8162e4a8-23c1-4020-bbef-be4a2e70aefe"},"vehicle_type_id":"4","last_reported":1730290641,"current_range_meters":9200,"station_id":"ce4bhu92rcd13ifvqi70","pricing_plan_id":"cebpf4jnsgd1na2vs0mg"},{"bike_id":"cf6e46fb-07e4-4259-8796-fece3f1717ca","system_id":"levelo_inurba_marseille","lat":43.2657,"lon":5.39,"is_reserved":false,"is_disabled":false,"rental_uris":{"android":"levelo://app?vid=cf6e46fb-07e4-4259-8796-fece3f1717ca","ios":"levelo://app?vid=cf6e46fb-07e4-4259-8796-fece3f1717ca"},"vehicle_type_id":"4","last_reported":1730290641,"current_range_meters":38000,"station_id":"ce4bhe12rcd13ifvqf30","pricing_plan_id":"cebpf4jnsgd1na2vs0mg"},{"bike_id":"2be9bc22-5c5c-4737-9da1-744ca95ac8b4","system_id":"levelo_inurba_marseille","lat":43.32662,"lon":5.40992,"is_reserved":false,"is_disabled":false,"rental_uris":{"android":"levelo://app?vid=2be9bc22-5c5c-4737-9da1-744ca95ac8b4","ios":"levelo://app?vid=2be9bc22-5c5c-4737-9da1-744ca95ac8b4"},"vehicle_type_id":"4","last_reported":1730290641,"current_range_meters":4800,"station_id":"ce4bhpp2rcd13ifvqhgg","pricing_plan_id":"cebpf4jnsgd1na2vs0mg"},{"bike_id":"59c7403a-36af-4ab9-a8fb-4e8f180bdcbe","system_id":"levelo_inurba_marseille","lat":43.2408,"lon":5.37748,"is_reserved":false,"is_disabled":false,"rental_uris":{"android":"levelo://app?vid=59c7403a-36af-4ab9-a8fb-4e8f180bdcbe","ios":"levelo://app?vid=59c7403a-36af-4ab9-a8fb-4e8f180bdcbe"},"vehicle_type_id":"4","last_reported":1730290641,"current_range_meters":7200,"station_id":"ce4bhnp2rcd13ifvqgvg","pricing_plan_id":"cebpf4jnsgd1na2vs0mg"},{"bike_id":"d51efe01-f815-43b3-9d20-9aec572cc74c","system_id":"levelo_inurba_marseille","lat":43.2901,"lon":5.35606,"is_reserved":false,"is_disabled":false,"rental_uris":{"android":"levelo://app?vid=d51efe01-f815-43b3-9d20-9aec572cc74c","ios":"levelo://app?vid=d51efe01-f815-43b3-9d20-9aec572cc74c"},"vehicle_type_id":"4","last_reported":1730290641,"current_range_meters":25200,"station_id":"ce4bhb92rcd13ifvqen0","pricing_plan_id":"cebpf4jnsgd1na2vs0mg"},{"bike_id":"96f1fe2b-27b3-45a5-8e58-f339dd6c49b1","system_id":"levelo_inurba_marseille","lat":43.30547,"lon":5.36525,"is_reserved":false,"is_disabled":false,"rental_uris":{"android":"levelo://app?vid=96f1fe2b-27b3-45a5-8e58-f339dd6c49b1","ios":"levelo://app?vid=96f1fe2b-27b3-45a5-8e58-f339dd6c49b1"},"vehicle_type_id":"4","last_reported":1730290641,"current_range_meters":31200,"station_id":"ce4bgs12rcd13ifvqcag","pricing_plan_id":"cebpf4jnsgd1na2vs0mg"},{"bike_id":"9093d695-bec2-4727-9c9c-01c6d9e2075a","system_id":"levelo_inurba_marseille","lat":43.25938,"lon":5.40899,"is_reserved":false,"is_disabled":false,"rental_uris":{"android":"levelo://app?vid=9093d695-bec2-4727-9c9c-01c6d9e2075a","ios":"levelo://app?vid=9093d695-bec2-4727-9c9c-01c6d9e2075a"},"vehicle_type_id":"4","last_reported":1730290641,"current_range_meters":28800,"station_id":"ce4bhm92rcd13ifvqglg","pricing_plan_id":"cebpf4jnsgd1na2vs0mg"},{"bike_id":"2a59e468-664b-4487-a13d-372ee2a99421","system_id":"levelo_inurba_marseille","lat":43.30284,"lon":5.3771,"is_reserved":false,"is_disabled":false,"rental_uris":{"android":"levelo://app?vid=2a59e468-664b-4487-a13d-372ee2a99421","ios":"levelo://app?vid=2a59e468-664b-4487-a13d-372ee2a99421"},"vehicle_type_id":"4","last_reported":1730290641,"current_range_meters":40000,"station_id":"ce4bguh2rcd13ifvqcj0","pricing_plan_id":"cebpf4jnsgd1na2vs0mg"},{"bike_id":"9dacdad8-0a44-49eb-98f5-702daced0b65","system_id":"levelo_inurba_marseille","lat":43.2827,"lon":5.35073,"is_reserved":false,"is_disabled":false,"rental_uris":{"android":"levelo://app?vid=9dacdad8-0a44-49eb-98f5-702daced0b65","ios":"levelo://app?vid=9dacdad8-0a44-49eb-98f5-702daced0b65"},"vehicle_type_id":"4","last_reported":1730290641,"current_range_meters":31200,"station_id":"ce4bhbp2rcd13ifvqerg","pricing_plan_id":"cebpf4jnsgd1na2vs0mg"},{"bike_id":"b4d42bc3-7f8c-4f43-9381-013fc48a6128","system_id":"levelo_inurba_marseille","lat":43.30152,"lon":5.38082,"is_reserved":false,"is_disabled":false,"rental_uris":{"android":"levelo://app?vid=b4d42bc3-7f8c-4f43-9381-013fc48a6128","ios":"levelo://app?vid=b4d42bc3-7f8c-4f43-9381-013fc48a6128"},"vehicle_type_id":"4","last_reported":1730290641,"current_range_meters":8000,"station_id":"ce4bgjp2rcd13ifvqbh0","pricing_plan_id":"cebpf4jnsgd1na2vs0mg"},{"bike_id":"9f92a8d6-16e8-47fd-b9cf-b4492ff9a570","system_id":"levelo_inurba_marseille","lat":43.29934,"lon":5.36525,"is_reserved":false,"is_disabled":false,"rental_uris":{"android":"levelo://app?vid=9f92a8d6-16e8-47fd-b9cf-b4492ff9a570","ios":"levelo://app?vid=9f92a8d6-16e8-47fd-b9cf-b4492ff9a570"},"vehicle_type_id":"4","last_reported":1730290641,"current_range_meters":25200,"station_id":"ce4bgm92rcd13ifvqbr0","pricing_plan_id":"cebpf4jnsgd1na2vs0mg"},{"bike_id":"6d1a8af2-f4de-48cb-a977-7b302720a352","system_id":"levelo_inurba_marseille","lat":43.27375,"lon":5.36253,"is_reserved":false,"is_disabled":false,"rental_uris":{"android":"levelo://app?vid=6d1a8af2-f4de-48cb-a977-7b302720a352","ios":"levelo://app?vid=6d1a8af2-f4de-48cb-a977-7b302720a352"},"vehicle_type_id":"4","last_reported":1730290641,"current_range_meters":22000,"station_id":"ce4bhbh2rcd13ifvqeo0","pricing_plan_id":"cebpf4jnsgd1na2vs0mg"},{"bike_id":"100574e4-423d-46d0-a60e-0b106eb28f41","system_id":"levelo_inurba_marseille","lat":43.29711,"lon":5.37701,"is_reserved":false,"is_disabled":false,"rental_uris":{"android":"levelo://app?vid=100574e4-423d-46d0-a60e-0b106eb28f41","ios":"levelo://app?vid=100574e4-423d-46d0-a60e-0b106eb28f41"},"vehicle_type_id":"4","last_reported":1730290641,"current_range_meters":32800,"station_id":"ce4bgkh2rcd13ifvqbl0","pricing_plan_id":"cebpf4jnsgd1na2vs0mg"},{"bike_id":"b6939b8e-b1e2-4e9e-8ea8-b1389a8ac153","system_id":"levelo_inurba_marseille","lat":43.29594,"lon":5.38104,"is_reserved":false,"is_disabled":false,"rental_uris":{"android":"levelo://app?vid=b6939b8e-b1e2-4e9e-8ea8-b1389a8ac153","ios":"levelo://app?vid=b6939b8e-b1e2-4e9e-8ea8-b1389a8ac153"},"vehicle_type_id":"4","last_reported":1730290641,"current_range_meters":22800,"station_id":"ce4bgl12rcd13ifvqbo0","pricing_plan_id":"cebpf4jnsgd1na2vs0mg"},{"bike_id":"0602e7e1-3528-4abf-9fd9-c6e0b9f6d0f9","system_id":"levelo_inurba_marseille","lat":43.28856,"lon":5.35861,"is_reserved":false,"is_disabled":false,"rental_uris":{"android":"levelo://app?vid=0602e7e1-3528-4abf-9fd9-c6e0b9f6d0f9","ios":"levelo://app?vid=0602e7e1-3528-4abf-9fd9-c6e0b9f6d0f9"},"vehicle_type_id":"4","last_reported":1730290641,"current_range_meters":18000,"station_id":"ce4bhb12rcd13ifvqem0","pricing_plan_id":"cebpf4jnsgd1na2vs0mg"},{"bike_id":"3a58aead-6e7f-468c-9d9d-4429d714b1be","system_id":"levelo_inurba_marseille","lat":43.27424,"lon":5.39418,"is_reserved":false,"is_disabled":false,"rental_uris":{"android":"levelo://app?vid=3a58aead-6e7f-468c-9d9d-4429d714b1be","ios":"levelo://app?vid=3a58aead-6e7f-468c-9d9d-4429d714b1be"},"vehicle_type_id":"4","last_reported":1730290641,"current_range_meters":35600,"station_id":"ce4bhdp2rcd13ifvqf20","pricing_plan_id":"cebpf4jnsgd1na2vs0mg"},{"bike_id":"90d46870-9f40-4b4b-88a4-7acd7fb37a95","system_id":"levelo_inurba_marseille","lat":43.3053,"lon":5.36535,"is_reserved":false,"is_disabled":false,"rental_uris":{"android":"levelo://app?vid=90d46870-9f40-4b4b-88a4-7acd7fb37a95","ios":"levelo://app?vid=90d46870-9f40-4b4b-88a4-7acd7fb37a95"},"vehicle_type_id":"4","last_reported":1730290641,"current_range_meters":27600,"station_id":"ce4bgs12rcd13ifvqcag","pricing_plan_id":"cebpf4jnsgd1na2vs0mg"},{"bike_id":"d721ff6d-485d-48c6-84c6-b1a6b8d95c72","system_id":"levelo_inurba_marseille","lat":43.30531,"lon":5.36528,"is_reserved":false,"is_disabled":false,"rental_uris":{"android":"levelo://app?vid=d721ff6d-485d-48c6-84c6-b1a6b8d95c72","ios":"levelo://app?vid=d721ff6d-485d-48c6-84c6-b1a6b8d95c72"},"vehicle_type_id":"4","last_reported":1730290641,"current_range_meters":38800,"station_id":"ce4bgs12rcd13ifvqcag","pricing_plan_id":"cebpf4jnsgd1na2vs0mg"},{"bike_id":"7e2d913f-7f08-4215-a3cb-47a17a76d295","system_id":"levelo_inurba_marseille","lat":43.29003,"lon":5.35604,"is_reserved":false,"is_disabled":false,"rental_uris":{"android":"levelo://app?vid=7e2d913f-7f08-4215-a3cb-47a17a76d295","ios":"levelo://app?vid=7e2d913f-7f08-4215-a3cb-47a17a76d295"},"vehicle_type_id":"4","last_reported":1730290641,"current_range_meters":8400,"station_id":"ce4bhb92rcd13ifvqen0","pricing_plan_id":"cebpf4jnsgd1na2vs0mg"},{"bike_id":"c30c20a3-a003-4e47-981b-d4a01d18b8ed","system_id":"levelo_inurba_marseille","lat":43.24172,"lon":5.364,"is_reserved":false,"is_disabled":false,"rental_uris":{"android":"levelo://app?vid=c30c20a3-a003-4e47-981b-d4a01d18b8ed","ios":"levelo://app?vid=c30c20a3-a003-4e47-981b-d4a01d18b8ed"},"vehicle_type_id":"4","last_reported":1730290641,"current_range_meters":16800,"station_id":"cpo36qri1sfpv3e86is0","pricing_plan_id":"cebpf4jnsgd1na2vs0mg"},{"bike_id":"ca5947f3-f8c7-4501-8fcf-25546b008bb3","system_id":"levelo_inurba_marseille","lat":43.2315,"lon":5.43722,"is_reserved":false,"is_disabled":false,"rental_uris":{"android":"levelo://app?vid=ca5947f3-f8c7-4501-8fcf-25546b008bb3","ios":"levelo://app?vid=ca5947f3-f8c7-4501-8fcf-25546b008bb3"},"vehicle_type_id":"4","last_reported":1730290641,"current_range_meters":14000,"station_id":"ce4bhmp2rcd13ifvqgog","pricing_plan_id":"cebpf4jnsgd1na2vs0mg"},{"bike_id":"72b220b0-b000-49ef-9068-321f901337c6","system_id":"levelo_inurba_marseille","lat":43.30146,"lon":5.38084,"is_reserved":false,"is_disabled":false,"rental_uris":{"android":"levelo://app?vid=72b220b0-b000-49ef-9068-321f901337c6","ios":"levelo://app?vid=72b220b0-b000-49ef-9068-321f901337c6"},"vehicle_type_id":"4","last_reported":1730290641,"current_range_meters":6800,"station_id":"ce4bgjp2rcd13ifvqbh0","pricing_plan_id":"cebpf4jnsgd1na2vs0mg"},{"bike_id":"49d33390-fa07-4d41-a9f4-eae21c993bc5","system_id":"levelo_inurba_marseille","lat":43.27566,"lon":5.389345,"is_reserved":false,"is_disabled":false,"rental_uris":{"android":"levelo://app?vid=49d33390-fa07-4d41-a9f4-eae21c993bc5","ios":"levelo://app?vid=49d33390-fa07-4d41-a9f4-eae21c993bc5"},"vehicle_type_id":"4","last_reported":1730290641,"current_range_meters":25600,"station_id":"ce4bhh92rcd13ifvqfh0","pricing_plan_id":"cebpf4jnsgd1na2vs0mg"},{"bike_id":"a3355cf1-61b3-474a-bd04-4451e98e44dc","system_id":"levelo_inurba_marseille","lat":43.29908,"lon":5.37474,"is_reserved":false,"is_disabled":false,"rental_uris":{"android":"levelo://app?vid=a3355cf1-61b3-474a-bd04-4451e98e44dc","ios":"levelo://app?vid=a3355cf1-61b3-474a-bd04-4451e98e44dc"},"vehicle_type_id":"4","last_reported":1730290641,"current_range_meters":40000,"station_id":"ce4bgjh2rcd13ifvqbg0","pricing_plan_id":"cebpf4jnsgd1na2vs0mg"},{"bike_id":"984c117f-c23a-4193-9164-e03fe3fbc549","system_id":"levelo_inurba_marseille","lat":43.26791,"lon":5.39409,"is_reserved":false,"is_disabled":false,"rental_uris":{"android":"levelo://app?vid=984c117f-c23a-4193-9164-e03fe3fbc549","ios":"levelo://app?vid=984c117f-c23a-4193-9164-e03fe3fbc549"},"vehicle_type_id":"4","last_reported":1730290641,"current_range_meters":27600,"station_id":"ce4bhh12rcd13ifvqfg0","pricing_plan_id":"cebpf4jnsgd1na2vs0mg"},{"bike_id":"03f9e53e-7a03-4a95-9ef4-373c86c54ed6","system_id":"levelo_inurba_marseille","lat":43.25939,"lon":5.40902,"is_reserved":false,"is_disabled":false,"rental_uris":{"android":"levelo://app?vid=03f9e53e-7a03-4a95-9ef4-373c86c54ed6","ios":"levelo://app?vid=03f9e53e-7a03-4a95-9ef4-373c86c54ed6"},"vehicle_type_id":"4","last_reported":1730290641,"current_range_meters":36800,"station_id":"ce4bhm92rcd13ifvqglg","pricing_plan_id":"cebpf4jnsgd1na2vs0mg"},{"bike_id":"e3baddfa-96f0-46ad-b708-ceb31993a23c","system_id":"levelo_inurba_marseille","lat":43.33747,"lon":5.37432,"is_reserved":false,"is_disabled":false,"rental_uris":{"android":"levelo://app?vid=e3baddfa-96f0-46ad-b708-ceb31993a23c","ios":"levelo://app?vid=e3baddfa-96f0-46ad-b708-ceb31993a23c"},"vehicle_type_id":"4","last_reported":1730290641,"current_range_meters":27600,"station_id":"","pricing_plan_id":"cebpf4jnsgd1na2vs0mg"},{"bike_id":"a0a2b278-3c52-4c26-9330-91fb0b590d02","system_id":"levelo_inurba_marseille","lat":43.30155,"lon":5.38084,"is_reserved":false,"is_disabled":false,"rental_uris":{"android":"levelo://app?vid=a0a2b278-3c52-4c26-9330-91fb0b590d02","ios":"levelo://app?vid=a0a2b278-3c52-4c26-9330-91fb0b590d02"},"vehicle_type_id":"4","last_reported":1730290641,"current_range_meters":32000,"station_id":"ce4bgjp2rcd13ifvqbh0","pricing_plan_id":"cebpf4jnsgd1na2vs0mg"},{"bike_id":"ca471b80-8d95-48df-88a2-5ea37fef7ad5","system_id":"levelo_inurba_marseille","lat":43.25119,"lon":5.40333,"is_reserved":false,"is_disabled":false,"rental_uris":{"android":"levelo://app?vid=ca471b80-8d95-48df-88a2-5ea37fef7ad5","ios":"levelo://app?vid=ca471b80-8d95-48df-88a2-5ea37fef7ad5"},"vehicle_type_id":"4","last_reported":1730290641,"current_range_meters":20000,"station_id":"ce4bhlh2rcd13ifvqgig","pricing_plan_id":"cebpf4jnsgd1na2vs0mg"},{"bike_id":"160c3125-d109-49e3-a687-ede78b99dea2","system_id":"levelo_inurba_marseille","lat":43.23198,"lon":5.35546,"is_reserved":false,"is_disabled":false,"rental_uris":{"android":"levelo://app?vid=160c3125-d109-49e3-a687-ede78b99dea2","ios":"levelo://app?vid=160c3125-d109-49e3-a687-ede78b99dea2"},"vehicle_type_id":"4","last_reported":1730290641,"current_range_meters":10000,"station_id":"ce4bhu92rcd13ifvqi70","pricing_plan_id":"cebpf4jnsgd1na2vs0mg"},{"bike_id":"33abac7c-5e8d-4b59-8d40-1ebbd5bcae09","system_id":"levelo_inurba_marseille","lat":43.23056,"lon":5.35489,"is_reserved":false,"is_disabled":false,"rental_uris":{"android":"levelo://app?vid=33abac7c-5e8d-4b59-8d40-1ebbd5bcae09","ios":"levelo://app?vid=33abac7c-5e8d-4b59-8d40-1ebbd5bcae09"},"vehicle_type_id":"4","last_reported":1730290641,"current_range_meters":36400,"station_id":"cpo3342slgdg3j2ifvpg","pricing_plan_id":"cebpf4jnsgd1na2vs0mg"},{"bike_id":"d15e5a3a-5812-42ae-8a22-b064b9e316b7","system_id":"levelo_inurba_marseille","lat":43.27994,"lon":5.40014,"is_reserved":false,"is_disabled":false,"rental_uris":{"android":"levelo://app?vid=d15e5a3a-5812-42ae-8a22-b064b9e316b7","ios":"levelo://app?vid=d15e5a3a-5812-42ae-8a22-b064b9e316b7"},"vehicle_type_id":"4","last_reported":1730290641,"current_range_meters":36400,"station_id":"ce4bho92rcd13ifvqh4g","pricing_plan_id":"cebpf4jnsgd1na2vs0mg"},{"bike_id":"739b4853-178e-41f7-83b4-94764ed98225","system_id":"levelo_inurba_marseille","lat":43.29034,"lon":5.37569,"is_reserved":false,"is_disabled":false,"rental_uris":{"android":"levelo://app?vid=739b4853-178e-41f7-83b4-94764ed98225","ios":"levelo://app?vid=739b4853-178e-41f7-83b4-94764ed98225"},"vehicle_type_id":"4","last_reported":1730290641,"current_range_meters":24000,"station_id":"ce4bh692rcd13ifvqe90","pricing_plan_id":"cebpf4jnsgd1na2vs0mg"},{"bike_id":"143aba29-6707-47df-82a7-64aa905bf1ee","system_id":"levelo_inurba_marseille","lat":43.29934,"lon":5.36546,"is_reserved":false,"is_disabled":false,"rental_uris":{"android":"levelo://app?vid=143aba29-6707-47df-82a7-64aa905bf1ee","ios":"levelo://app?vid=143aba29-6707-47df-82a7-64aa905bf1ee"},"vehicle_type_id":"4","last_reported":1730290641,"current_range_meters":34800,"station_id":"ce4bgm92rcd13ifvqbr0","pricing_plan_id":"cebpf4jnsgd1na2vs0mg"},{"bike_id":"0f9e8580-1852-4ccd-9aec-19ac97e6960d","system_id":"levelo_inurba_marseille","lat":43.2808,"lon":5.39664,"is_reserved":false,"is_disabled":false,"rental_uris":{"android":"levelo://app?vid=0f9e8580-1852-4ccd-9aec-19ac97e6960d","ios":"levelo://app?vid=0f9e8580-1852-4ccd-9aec-19ac97e6960d"},"vehicle_type_id":"4","last_reported":1730290641,"current_range_meters":24000,"station_id":"ce4bho12rcd13ifvqh2g","pricing_plan_id":"cebpf4jnsgd1na2vs0mg"},{"bike_id":"76ae65e7-1304-4c14-b23b-fa35af4a2ade","system_id":"levelo_inurba_marseille","lat":43.28415,"lon":5.34988,"is_reserved":false,"is_disabled":false,"rental_uris":{"android":"levelo://app?vid=76ae65e7-1304-4c14-b23b-fa35af4a2ade","ios":"levelo://app?vid=76ae65e7-1304-4c14-b23b-fa35af4a2ade"},"vehicle_type_id":"4","last_reported":1730290641,"current_range_meters":39200,"station_id":"ce4bhbh2rcd13ifvqepg","pricing_plan_id":"cebpf4jnsgd1na2vs0mg"},{"bike_id":"00fc6167-d48a-42a9-9a79-d385136a56a2","system_id":"levelo_inurba_marseille","lat":43.29001,"lon":5.35614,"is_reserved":false,"is_disabled":false,"rental_uris":{"android":"levelo://app?vid=00fc6167-d48a-42a9-9a79-d385136a56a2","ios":"levelo://app?vid=00fc6167-d48a-42a9-9a79-d385136a56a2"},"vehicle_type_id":"4","last_reported":1730290641,"current_range_meters":14800,"station_id":"ce4bhb92rcd13ifvqen0","pricing_plan_id":"cebpf4jnsgd1na2vs0mg"},{"bike_id":"ccdfd319-6908-4ad8-9315-50628bb4a478","system_id":"levelo_inurba_marseille","lat":43.27173,"lon":5.40987,"is_reserved":false,"is_disabled":false,"rental_uris":{"android":"levelo://app?vid=ccdfd319-6908-4ad8-9315-50628bb4a478","ios":"levelo://app?vid=ccdfd319-6908-4ad8-9315-50628bb4a478"},"vehicle_type_id":"4","last_reported":1730290641,"current_range_meters":38800,"station_id":"ce4bhl12rcd13ifvqgf0","pricing_plan_id":"cebpf4jnsgd1na2vs0mg"},{"bike_id":"7d7c7b0a-2e7f-435e-9a0b-9fedc54eb71b","system_id":"levelo_inurba_marseille","lat":43.32534,"lon":5.41448,"is_reserved":false,"is_disabled":false,"rental_uris":{"android":"levelo://app?vid=7d7c7b0a-2e7f-435e-9a0b-9fedc54eb71b","ios":"levelo://app?vid=7d7c7b0a-2e7f-435e-9a0b-9fedc54eb71b"},"vehicle_type_id":"4","last_reported":1730290641,"current_range_meters":20000,"station_id":"ce4bhq12rcd13ifvqhhg","pricing_plan_id":"cebpf4jnsgd1na2vs0mg"},{"bike_id":"72607bf4-bf02-4d9e-a724-b2a1cbfa169d","system_id":"levelo_inurba_marseille","lat":43.24074,"lon":5.37756,"is_reserved":false,"is_disabled":false,"rental_uris":{"android":"levelo://app?vid=72607bf4-bf02-4d9e-a724-b2a1cbfa169d","ios":"levelo://app?vid=72607bf4-bf02-4d9e-a724-b2a1cbfa169d"},"vehicle_type_id":"4","last_reported":1730290641,"current_range_meters":38800,"station_id":"ce4bhnp2rcd13ifvqgvg","pricing_plan_id":"cebpf4jnsgd1na2vs0mg"},{"bike_id":"b1a99226-ccc1-4db9-a7fd-eb25c9449489","system_id":"levelo_inurba_marseille","lat":43.32049,"lon":5.41534,"is_reserved":false,"is_disabled":false,"rental_uris":{"android":"levelo://app?vid=b1a99226-ccc1-4db9-a7fd-eb25c9449489","ios":"levelo://app?vid=b1a99226-ccc1-4db9-a7fd-eb25c9449489"},"vehicle_type_id":"4","last_reported":1730290641,"current_range_meters":30400,"station_id":"ce4bhq92rcd13ifvqhkg","pricing_plan_id":"cebpf4jnsgd1na2vs0mg"},{"bike_id":"83346ad2-1f5f-479d-843e-899ab63acbfd","system_id":"levelo_inurba_marseille","lat":43.30883,"lon":5.37188,"is_reserved":false,"is_disabled":false,"rental_uris":{"android":"levelo://app?vid=83346ad2-1f5f-479d-843e-899ab63acbfd","ios":"levelo://app?vid=83346ad2-1f5f-479d-843e-899ab63acbfd"},"vehicle_type_id":"4","last_reported":1730290641,"current_range_meters":11200,"station_id":"ce4bguh2rcd13ifvqckg","pricing_plan_id":"cebpf4jnsgd1na2vs0mg"},{"bike_id":"bfabe21b-9deb-4a7c-999a-4d79dd2062e6","system_id":"levelo_inurba_marseille","lat":43.28659,"lon":5.36348,"is_reserved":false,"is_disabled":false,"rental_uris":{"android":"levelo://app?vid=bfabe21b-9deb-4a7c-999a-4d79dd2062e6","ios":"levelo://app?vid=bfabe21b-9deb-4a7c-999a-4d79dd2062e6"},"vehicle_type_id":"4","last_reported":1730290641,"current_range_meters":27600,"station_id":"ce4bhah2rcd13ifvqej0","pricing_plan_id":"cebpf4jnsgd1na2vs0mg"},{"bike_id":"4bc9394d-c6cd-4d99-859f-264adf40ffc6","system_id":"levelo_inurba_marseille","lat":43.2594,"lon":5.40902,"is_reserved":false,"is_disabled":false,"rental_uris":{"android":"levelo://app?vid=4bc9394d-c6cd-4d99-859f-264adf40ffc6","ios":"levelo://app?vid=4bc9394d-c6cd-4d99-859f-264adf40ffc6"},"vehicle_type_id":"4","last_reported":1730290641,"current_range_meters":36800,"station_id":"ce4bhm92rcd13ifvqglg","pricing_plan_id":"cebpf4jnsgd1na2vs0mg"},{"bike_id":"9bded445-f63f-4599-8405-d6dd79872538","system_id":"levelo_inurba_marseille","lat":43.295767,"lon":5.375239,"is_reserved":false,"is_disabled":false,"rental_uris":{"android":"levelo://app?vid=9bded445-f63f-4599-8405-d6dd79872538","ios":"levelo://app?vid=9bded445-f63f-4599-8405-d6dd79872538"},"vehicle_type_id":"4","last_reported":1730290641,"current_range_meters":16000,"station_id":"ce4bha92rcd13ifvqeh0","pricing_plan_id":"cebpf4jnsgd1na2vs0mg"},{"bike_id":"2b7478b7-886e-4bf0-9251-71e385d862fb","system_id":"levelo_inurba_marseille","lat":43.29558,"lon":5.42281,"is_reserved":false,"is_disabled":false,"rental_uris":{"android":"levelo://app?vid=2b7478b7-886e-4bf0-9251-71e385d862fb","ios":"levelo://app?vid=2b7478b7-886e-4bf0-9251-71e385d862fb"},"vehicle_type_id":"4","last_reported":1730290641,"current_range_meters":38000,"station_id":"ce4bhph2rcd13ifvqhdg","pricing_plan_id":"cebpf4jnsgd1na2vs0mg"},{"bike_id":"bfb1a2f2-5dd7-404a-90bb-be56759f829f","system_id":"levelo_inurba_marseille","lat":43.28006,"lon":5.41647,"is_reserved":false,"is_disabled":false,"rental_uris":{"android":"levelo://app?vid=bfb1a2f2-5dd7-404a-90bb-be56759f829f","ios":"levelo://app?vid=bfb1a2f2-5dd7-404a-90bb-be56759f829f"},"vehicle_type_id":"4","last_reported":1730290641,"current_range_meters":36800,"station_id":"ce4bho12rcd13ifvqh1g","pricing_plan_id":"cebpf4jnsgd1na2vs0mg"},{"bike_id":"1097ea7a-71e1-4111-b371-a2750b27bc0e","system_id":"levelo_inurba_marseille","lat":43.28263,"lon":5.35063,"is_reserved":false,"is_disabled":false,"rental_uris":{"android":"levelo://app?vid=1097ea7a-71e1-4111-b371-a2750b27bc0e","ios":"levelo://app?vid=1097ea7a-71e1-4111-b371-a2750b27bc0e"},"vehicle_type_id":"4","last_reported":1730290641,"current_range_meters":8400,"station_id":"ce4bhbp2rcd13ifvqerg","pricing_plan_id":"cebpf4jnsgd1na2vs0mg"},{"bike_id":"dc7045d2-bec0-4322-a3c4-87bbcb88bc25","system_id":"levelo_inurba_marseille","lat":43.26787,"lon":5.39418,"is_reserved":false,"is_disabled":false,"rental_uris":{"android":"levelo://app?vid=dc7045d2-bec0-4322-a3c4-87bbcb88bc25","ios":"levelo://app?vid=dc7045d2-bec0-4322-a3c4-87bbcb88bc25"},"vehicle_type_id":"4","last_reported":1730290641,"current_range_meters":38800,"station_id":"ce4bhh12rcd13ifvqfg0","pricing_plan_id":"cebpf4jnsgd1na2vs0mg"},{"bike_id":"9248cf01-eb15-4e68-bcac-901a03c5bf70","system_id":"levelo_inurba_marseille","lat":43.311,"lon":5.37864,"is_reserved":false,"is_disabled":false,"rental_uris":{"android":"levelo://app?vid=9248cf01-eb15-4e68-bcac-901a03c5bf70","ios":"levelo://app?vid=9248cf01-eb15-4e68-bcac-901a03c5bf70"},"vehicle_type_id":"4","last_reported":1730290641,"current_range_meters":38400,"station_id":"","pricing_plan_id":"cebpf4jnsgd1na2vs0mg"},{"bike_id":"d89741ea-d183-4a0d-bccf-a835833bf0e6","system_id":"levelo_inurba_marseille","lat":43.28413,"lon":5.34988,"is_reserved":false,"is_disabled":false,"rental_uris":{"android":"levelo://app?vid=d89741ea-d183-4a0d-bccf-a835833bf0e6","ios":"levelo://app?vid=d89741ea-d183-4a0d-bccf-a835833bf0e6"},"vehicle_type_id":"4","last_reported":1730290641,"current_range_meters":36400,"station_id":"ce4bhbh2rcd13ifvqepg","pricing_plan_id":"cebpf4jnsgd1na2vs0mg"},{"bike_id":"dd31be35-09f9-4b89-b149-3ff9cdce4487","system_id":"levelo_inurba_marseille","lat":43.27844,"lon":5.39205,"is_reserved":false,"is_disabled":false,"rental_uris":{"android":"levelo://app?vid=dd31be35-09f9-4b89-b149-3ff9cdce4487","ios":"levelo://app?vid=dd31be35-09f9-4b89-b149-3ff9cdce4487"},"vehicle_type_id":"4","last_reported":1730290641,"current_range_meters":18800,"station_id":"ce4bhjp2rcd13ifvqga0","pricing_plan_id":"cebpf4jnsgd1na2vs0mg"},{"bike_id":"0e92daca-d2a5-4dc1-8671-285db531f27f","system_id":"levelo_inurba_marseille","lat":43.30899,"lon":5.37187,"is_reserved":false,"is_disabled":false,"rental_uris":{"android":"levelo://app?vid=0e92daca-d2a5-4dc1-8671-285db531f27f","ios":"levelo://app?vid=0e92daca-d2a5-4dc1-8671-285db531f27f"},"vehicle_type_id":"4","last_reported":1730290641,"current_range_meters":35600,"station_id":"ce4bguh2rcd13ifvqckg","pricing_plan_id":"cebpf4jnsgd1na2vs0mg"},{"bike_id":"2fec06cf-9d64-4a42-8b48-e61a5f55109c","system_id":"levelo_inurba_marseille","lat":43.31997,"lon":5.38151,"is_reserved":false,"is_disabled":false,"rental_uris":{"android":"levelo://app?vid=2fec06cf-9d64-4a42-8b48-e61a5f55109c","ios":"levelo://app?vid=2fec06cf-9d64-4a42-8b48-e61a5f55109c"},"vehicle_type_id":"4","last_reported":1730290641,"current_range_meters":37600,"station_id":"ce4bhr12rcd13ifvqhpg","pricing_plan_id":"cebpf4jnsgd1na2vs0mg"},{"bike_id":"0af11032-507c-4c4e-8310-2cb274997220","system_id":"levelo_inurba_marseille","lat":43.30957,"lon":5.39045,"is_reserved":false,"is_disabled":false,"rental_uris":{"android":"levelo://app?vid=0af11032-507c-4c4e-8310-2cb274997220","ios":"levelo://app?vid=0af11032-507c-4c4e-8310-2cb274997220"},"vehicle_type_id":"4","last_reported":1730290641,"current_range_meters":27600,"station_id":"ce4bgup2rcd13ifvqco0","pricing_plan_id":"cebpf4jnsgd1na2vs0mg"},{"bike_id":"9a79c046-ffbd-430c-9b08-0a56da8292f5","system_id":"levelo_inurba_marseille","lat":43.23186,"lon":5.39981,"is_reserved":false,"is_disabled":false,"rental_uris":{"android":"levelo://app?vid=9a79c046-ffbd-430c-9b08-0a56da8292f5","ios":"levelo://app?vid=9a79c046-ffbd-430c-9b08-0a56da8292f5"},"vehicle_type_id":"4","last_reported":1730290641,"current_range_meters":38800,"station_id":"ce4bhn12rcd13ifvqgqg","pricing_plan_id":"cebpf4jnsgd1na2vs0mg"},{"bike_id":"874129d9-be5b-4874-8f39-6ff329b7d7b7","system_id":"levelo_inurba_marseille","lat":43.2942,"lon":5.38612,"is_reserved":false,"is_disabled":false,"rental_uris":{"android":"levelo://app?vid=874129d9-be5b-4874-8f39-6ff329b7d7b7","ios":"levelo://app?vid=874129d9-be5b-4874-8f39-6ff329b7d7b7"},"vehicle_type_id":"4","last_reported":1730290641,"current_range_meters":33600,"station_id":"ce4bh2h2rcd13ifvqdh0","pricing_plan_id":"cebpf4jnsgd1na2vs0mg"},{"bike_id":"00570a9a-70dc-4fd9-a21d-b33665529146","system_id":"levelo_inurba_marseille","lat":43.23968,"lon":5.36634,"is_reserved":false,"is_disabled":false,"rental_uris":{"android":"levelo://app?vid=00570a9a-70dc-4fd9-a21d-b33665529146","ios":"levelo://app?vid=00570a9a-70dc-4fd9-a21d-b33665529146"},"vehicle_type_id":"4","last_reported":1730290641,"current_range_meters":40000,"station_id":"ce4bhi12rcd13ifvqfp0","pricing_plan_id":"cebpf4jnsgd1na2vs0mg"},{"bike_id":"13733b6d-2562-481b-8b69-d205523f08c4","system_id":"levelo_inurba_marseille","lat":43.32053,"lon":5.41535,"is_reserved":false,"is_disabled":false,"rental_uris":{"android":"levelo://app?vid=13733b6d-2562-481b-8b69-d205523f08c4","ios":"levelo://app?vid=13733b6d-2562-481b-8b69-d205523f08c4"},"vehicle_type_id":"4","last_reported":1730290641,"current_range_meters":37600,"station_id":"ce4bhq92rcd13ifvqhkg","pricing_plan_id":"cebpf4jnsgd1na2vs0mg"},{"bike_id":"9592eb1a-4a46-4535-b3fe-0af141dace43","system_id":"levelo_inurba_marseille","lat":43.23968,"lon":5.36625,"is_reserved":false,"is_disabled":false,"rental_uris":{"android":"levelo://app?vid=9592eb1a-4a46-4535-b3fe-0af141dace43","ios":"levelo://app?vid=9592eb1a-4a46-4535-b3fe-0af141dace43"},"vehicle_type_id":"4","last_reported":1730290641,"current_range_meters":32000,"station_id":"ce4bhi12rcd13ifvqfp0","pricing_plan_id":"cebpf4jnsgd1na2vs0mg"},{"bike_id":"4cdf0d83-1fab-4098-b6b8-6013a929f2d5","system_id":"levelo_inurba_marseille","lat":43.29779,"lon":5.37086,"is_reserved":false,"is_disabled":false,"rental_uris":{"android":"levelo://app?vid=4cdf0d83-1fab-4098-b6b8-6013a929f2d5","ios":"levelo://app?vid=4cdf0d83-1fab-4098-b6b8-6013a929f2d5"},"vehicle_type_id":"4","last_reported":1730290641,"current_range_meters":34000,"station_id":"ce4bgop2rcd13ifvqc1g","pricing_plan_id":"cebpf4jnsgd1na2vs0mg"},{"bike_id":"222a4be3-636f-4777-ac4c-ca7ad7606c3a","system_id":"levelo_inurba_marseille","lat":43.29635,"lon":5.40598,"is_reserved":false,"is_disabled":false,"rental_uris":{"android":"levelo://app?vid=222a4be3-636f-4777-ac4c-ca7ad7606c3a","ios":"levelo://app?vid=222a4be3-636f-4777-ac4c-ca7ad7606c3a"},"vehicle_type_id":"4","last_reported":1730290641,"current_range_meters":38800,"station_id":"ce4bh0h2rcd13ifvqd60","pricing_plan_id":"cebpf4jnsgd1na2vs0mg"},{"bike_id":"9e46708d-d725-4de5-b98b-401586e420e4","system_id":"levelo_inurba_marseille","lat":43.32542,"lon":5.41452,"is_reserved":false,"is_disabled":false,"rental_uris":{"android":"levelo://app?vid=9e46708d-d725-4de5-b98b-401586e420e4","ios":"levelo://app?vid=9e46708d-d725-4de5-b98b-401586e420e4"},"vehicle_type_id":"4","last_reported":1730290641,"current_range_meters":40000,"station_id":"ce4bhq12rcd13ifvqhhg","pricing_plan_id":"cebpf4jnsgd1na2vs0mg"},{"bike_id":"bb209a14-0516-46da-b310-e4db230e95a3","system_id":"levelo_inurba_marseille","lat":43.27305,"lon":5.3907,"is_reserved":false,"is_disabled":false,"rental_uris":{"android":"levelo://app?vid=bb209a14-0516-46da-b310-e4db230e95a3","ios":"levelo://app?vid=bb209a14-0516-46da-b310-e4db230e95a3"},"vehicle_type_id":"4","last_reported":1730290641,"current_range_meters":35600,"station_id":"ce4bhgp2rcd13ifvqfe0","pricing_plan_id":"cebpf4jnsgd1na2vs0mg"},{"bike_id":"b8d0303d-abed-418a-bba4-b9e591c0e5d6","system_id":"levelo_inurba_marseille","lat":43.30349,"lon":5.4188,"is_reserved":false,"is_disabled":false,"rental_uris":{"android":"levelo://app?vid=b8d0303d-abed-418a-bba4-b9e591c0e5d6","ios":"levelo://app?vid=b8d0303d-abed-418a-bba4-b9e591c0e5d6"},"vehicle_type_id":"4","last_reported":1730290641,"current_range_meters":36400,"station_id":"ce4bhop2rcd13ifvqh7g","pricing_plan_id":"cebpf4jnsgd1na2vs0mg"},{"bike_id":"21d8cab5-b890-49ff-b193-0034e262f2ef","system_id":"levelo_inurba_marseille","lat":43.2293,"lon":5.35378,"is_reserved":false,"is_disabled":false,"rental_uris":{"android":"levelo://app?vid=21d8cab5-b890-49ff-b193-0034e262f2ef","ios":"levelo://app?vid=21d8cab5-b890-49ff-b193-0034e262f2ef"},"vehicle_type_id":"4","last_reported":1730290641,"current_range_meters":24400,"station_id":"cpo3532slgdg3j2ikp40","pricing_plan_id":"cebpf4jnsgd1na2vs0mg"},{"bike_id":"d6f5a7fd-861b-4d50-a6c0-8a83d04976ed","system_id":"levelo_inurba_marseille","lat":43.28259,"lon":5.35068,"is_reserved":false,"is_disabled":false,"rental_uris":{"android":"levelo://app?vid=d6f5a7fd-861b-4d50-a6c0-8a83d04976ed","ios":"levelo://app?vid=d6f5a7fd-861b-4d50-a6c0-8a83d04976ed"},"vehicle_type_id":"4","last_reported":1730290641,"current_range_meters":30800,"station_id":"ce4bhbp2rcd13ifvqerg","pricing_plan_id":"cebpf4jnsgd1na2vs0mg"},{"bike_id":"00230415-7e52-4c44-be9f-c7b241250dcc","system_id":"levelo_inurba_marseille","lat":43.26561,"lon":5.39013,"is_reserved":false,"is_disabled":false,"rental_uris":{"android":"levelo://app?vid=00230415-7e52-4c44-be9f-c7b241250dcc","ios":"levelo://app?vid=00230415-7e52-4c44-be9f-c7b241250dcc"},"vehicle_type_id":"4","last_reported":1730290641,"current_range_meters":38400,"station_id":"ce4bhe12rcd13ifvqf30","pricing_plan_id":"cebpf4jnsgd1na2vs0mg"},{"bike_id":"f8eed8c0-3ee9-4ecd-b4af-c1ae7a7b4c67","system_id":"levelo_inurba_marseille","lat":43.2781,"lon":5.40713,"is_reserved":false,"is_disabled":false,"rental_uris":{"android":"levelo://app?vid=f8eed8c0-3ee9-4ecd-b4af-c1ae7a7b4c67","ios":"levelo://app?vid=f8eed8c0-3ee9-4ecd-b4af-c1ae7a7b4c67"},"vehicle_type_id":"4","last_reported":1730290641,"current_range_meters":39200,"station_id":"ce4bhnh2rcd13ifvqgtg","pricing_plan_id":"cebpf4jnsgd1na2vs0mg"},{"bike_id":"20c86bf3-6a79-4d4e-8c7d-34a050ed8920","system_id":"levelo_inurba_marseille","lat":43.30549,"lon":5.36524,"is_reserved":false,"is_disabled":false,"rental_uris":{"android":"levelo://app?vid=20c86bf3-6a79-4d4e-8c7d-34a050ed8920","ios":"levelo://app?vid=20c86bf3-6a79-4d4e-8c7d-34a050ed8920"},"vehicle_type_id":"4","last_reported":1730290641,"current_range_meters":38800,"station_id":"ce4bgs12rcd13ifvqcag","pricing_plan_id":"cebpf4jnsgd1na2vs0mg"},{"bike_id":"e3cd6848-1b39-42a6-a77f-3f37adf1b23a","system_id":"levelo_inurba_marseille","lat":43.27493,"lon":5.42457,"is_reserved":false,"is_disabled":false,"rental_uris":{"android":"levelo://app?vid=e3cd6848-1b39-42a6-a77f-3f37adf1b23a","ios":"levelo://app?vid=e3cd6848-1b39-42a6-a77f-3f37adf1b23a"},"vehicle_type_id":"4","last_reported":1730290641,"current_range_meters":35600,"station_id":"ce4bhn92rcd13ifvqgrg","pricing_plan_id":"cebpf4jnsgd1na2vs0mg"},{"bike_id":"520a9551-b03c-4322-a45b-0362c62d111e","system_id":"levelo_inurba_marseille","lat":43.27379,"lon":5.36255,"is_reserved":false,"is_disabled":false,"rental_uris":{"android":"levelo://app?vid=520a9551-b03c-4322-a45b-0362c62d111e","ios":"levelo://app?vid=520a9551-b03c-4322-a45b-0362c62d111e"},"vehicle_type_id":"4","last_reported":1730290641,"current_range_meters":3600,"station_id":"ce4bhbh2rcd13ifvqeo0","pricing_plan_id":"cebpf4jnsgd1na2vs0mg"},{"bike_id":"8cdf364b-bace-48cf-9f26-c4aba9ec8c52","system_id":"levelo_inurba_marseille","lat":43.28267,"lon":5.35062,"is_reserved":false,"is_disabled":false,"rental_uris":{"android":"levelo://app?vid=8cdf364b-bace-48cf-9f26-c4aba9ec8c52","ios":"levelo://app?vid=8cdf364b-bace-48cf-9f26-c4aba9ec8c52"},"vehicle_type_id":"4","last_reported":1730290641,"current_range_meters":8400,"station_id":"ce4bhbp2rcd13ifvqerg","pricing_plan_id":"cebpf4jnsgd1na2vs0mg"},