{"last_updated":1762096110,"ttl":60,"version":"2.2","data":{"bikes":[{"bike_id":"87502ded-de71-4300-9ef7-45a45c09e68e","system_id":"levelo_inurba_marseille","lat":43.30951,"lon":5.39032,"is_reserved":false,"is_disabled":false,"rental_uris":{"android":"levelo://app?vid=87502ded-de71-4300-9ef7-45a45c09e68e","ios":"levelo://app?vid=87502ded-de71-4300-9ef7-45a45c09e68e"},"vehicle_type_id":"4","last_reported":1762096110,"current_range_meters":2800,"station_id":"ce4bgup2rcd13ifvqco0","pricing_plan_id":"cebpf4jnsgd1na2vs0mg"},{"bike_id":"e6dda435-f363-4b1e-9dbd-dd36a7fead39","system_id":"levelo_inurba_marseille","lat":43.241769,"lon":5.397301,"is_reserved":false,"is_disabled":false,"rental_uris":{"android":"levelo://app?vid=e6dda435-f363-4b1e-9dbd-dd36a7fead39","ios":"levelo://app?vid=e6dda435-f363-4b1e-9dbd-dd36a7fead39"},"vehicle_type_id":"4","last_reported":1762096110,"current_range_meters":2800,"station_id":"ce4bhn12rcd13ifvqgpg","pricing_plan_id":"cebpf4jnsgd1na2vs0mg"},{"bike_id":"e1196ee9-9c25-4674-a5fe-d3b7ddaa8e88","system_id":"levelo_inurba_marseille","lat":43.2257,"lon":5.41655,"is_reserved":false,"is_disabled":false,"rental_uris":{"android":"levelo://app?vid=e1196ee9-9c25-4674-a5fe-d3b7ddaa8e88","ios":"levelo://app?vid=e1196ee9-9c25-4674-a5fe-d3b7ddaa8e88"},"vehicle_type_id":"4","last_reported":1762096110,"current_range_meters":3200,"station_id":"st_d2o4gvlbi1j2169b742g","pricing_plan_id":"cebpf4jnsgd1na2vs0mg"},{"bike_id":"c16ca171-3e5e-49d0-a567-1645c2374376","system_id":"levelo_inurba_marseille","lat":43.30531,"lon":5.36549,"is_reserved":false,"is_disabled":true,"rental_uris":{"android":"levelo://app?vid=c16ca171-3e5e-49d0-a567-1645c2374376","ios":"levelo://app?vid=c16ca171-3e5e-49d0-a567-1645c2374376"},"vehicle_type_id":"4","last_reported":1762096110,"current_range_meters":3600,"station_id":"ce4bgs12rcd13ifvqcag","pricing_plan_id":"cebpf4jnsgd1na2vs0mg"},{"bike_id":"2ede54f6-bdc1-41b7-b2d1-997ad29cdffa","system_id":"levelo_inurba_marseille","lat":43.2894,"lon":5.36382,"is_reserved":false,"is_disabled":false,"rental_uris":{"android":"levelo://app?vid=2ede54f6-bdc1-41b7-b2d1-997ad29cdffa","ios":"levelo://app?vid=2ede54f6-bdc1-41b7-b2d1-997ad29cdffa"},"vehicle_type_id":"4","last_reported":1762096110,"current_range_meters":3600,"station_id":"ce4bhc92rcd13ifvqetg","pricing_plan_id":"cebpf4jnsgd1na2vs0mg"},{"bike_id":"8770240d-bb96-422a-ab2d-125c37b5c82e","system_id":"levelo_inurba_marseille","lat":43.30953,"lon":5.39043,"is_reserved":false,"is_disabled":false,"rental_uris":{"android":"levelo://app?vid=8770240d-bb96-422a-ab2d-125c37b5c82e","ios":"levelo://app?vid=8770240d-bb96-422a-ab2d-125c37b5c82e"},"vehicle_type_id":"4","last_reported":1762096110,"current_range_meters":4000,"station_id":"ce4bgup2rcd13ifvqco0","pricing_plan_id":"cebpf4jnsgd1na2vs0mg"},{"bike_id":"91284968-51fd-4d5d-a93f-4901e81431a8","system_id":"levelo_inurba_marseille","lat":43.251976,"lon":5.374335,"is_reserved":false,"is_disabled":false,"rental_uris":{"android":"levelo://app?vid=91284968-51fd-4d5d-a93f-4901e81431a8","ios":"levelo://app?vid=91284968-51fd-4d5d-a93f-4901e81431a8"},"vehicle_type_id":"4","last_reported":1762096110,"current_range_meters":4000,"station_id":"","pricing_plan_id":"cebpf4jnsgd1na2vs0mg"},{"bike_id":"a4dac4fa-66e6-48be-a654-6e17cdc7ca0b","system_id":"levelo_inurba_marseille","lat":43.337571,"lon":5.374323,"is_reserved":false,"is_disabled":false,"rental_uris":{"android":"levelo://app?vid=a4dac4fa-66e6-48be-a654-6e17cdc7ca0b","ios":"levelo://app?vid=a4dac4fa-66e6-48be-a654-6e17cdc7ca0b"},"vehicle_type_id":"4","last_reported":1762096110,"current_range_meters":4400,"station_id":"","pricing_plan_id":"cebpf4jnsgd1na2vs0mg"},{"bike_id":"8a759722-19f7-4a56-9646-2c26a5e7e25d","system_id":"levelo_inurba_marseille","lat":43.27966,"lon":5.38694,"is_reserved":false,"is_disabled":true,"rental_uris":{"android":"levelo://app?vid=8a759722-19f7-4a56-9646-2c26a5e7e25d","ios":"levelo://app?vid=8a759722-19f7-4a56-9646-2c26a5e7e25d"},"vehicle_type_id":"4","last_reported":1762096110,"current_range_meters":4400,"station_id":"ce4bhg12rcd13ifvqf80","pricing_plan_id":"cebpf4jnsgd1na2vs0mg"},{"bike_id":"8fcd260f-16b3-4c1d-9613-2d206079f071","system_id":"levelo_inurba_marseille","lat":43.29597,"lon":5.38641,"is_reserved":false,"is_disabled":false,"rental_uris":{"android":"levelo://app?vid=8fcd260f-16b3-4c1d-9613-2d206079f071","ios":"levelo://app?vid=8fcd260f-16b3-4c1d-9613-2d206079f071"},"vehicle_type_id":"4","last_reported":1762096110,"current_range_meters":4400,"station_id":"","pricing_plan_id":"cebpf4jnsgd1na2vs0mg"},{"bike_id":"995c398a-192b-4e7d-923c-0e5720d4a0ab","system_id":"levelo_inurba_marseille","lat":43.21748,"lon":5.34613,"is_reserved":false,"is_disabled":false,"rental_uris":{"android":"levelo://app?vid=995c398a-192b-4e7d-923c-0e5720d4a0ab","ios":"levelo://app?vid=995c398a-192b-4e7d-923c-0e5720d4a0ab"},"vehicle_type_id":"4","last_reported":1762096110,"current_range_meters":4800,"station_id":"st_cvj6r9ubvosntc0bgbag","pricing_plan_id":"cebpf4jnsgd1na2vs0mg"},{"bike_id":"27abc7d1-dd85-495f-9415-aa00cef4846e","system_id":"levelo_inurba_marseille","lat":43.27784,"lon":5.39553,"is_reserved":false,"is_disabled":false,"rental_uris":{"android":"levelo://app?vid=27abc7d1-dd85-495f-9415-aa00cef4846e","ios":"levelo://app?vid=27abc7d1-dd85-495f-9415-aa00cef4846e"},"vehicle_type_id":"4","last_reported":1762096110,"current_range_meters":4800,"station_id":"","pricing_plan_id":"cebpf4jnsgd1na2vs0mg"},{"bike_id":"d62a4e30-2a8a-47de-9d7a-fd92f829db09","system_id":"levelo_inurba_marseille","lat":43.29029,"lon":5.37058,"is_reserved":false,"is_disabled":false,"rental_uris":{"android":"levelo://app?vid=d62a4e30-2a8a-47de-9d7a-fd92f829db09","ios":"levelo://app?vid=d62a4e30-2a8a-47de-9d7a-fd92f829db09"},"vehicle_type_id":"4","last_reported":1762096110,"current_range_meters":4800,"station_id":"","pricing_plan_id":"cebpf4jnsgd1na2vs0mg"},{"bike_id":"cd6f2d04-98c5-42b9-aa5b-b8110e64b304","system_id":"levelo_inurba_marseille","lat":43.29844,"lon":5.36334,"is_reserved":false,"is_disabled":false,"rental_uris":{"android":"levelo://app?vid=cd6f2d04-98c5-42b9-aa5b-b8110e64b304","ios":"levelo://app?vid=cd6f2d04-98c5-42b9-aa5b-b8110e64b304"},"vehicle_type_id":"4","last_reported":1762096110,"current_range_meters":5600,"station_id":"ce4bgpp2rcd13ifvqc3g","pricing_plan_id":"cebpf4jnsgd1na2vs0mg"},{"bike_id":"52b117f2-4c01-4f66-887d-006722496528","system_id":"levelo_inurba_marseille","lat":43.30862,"lon":5.37132,"is_reserved":false,"is_disabled":false,"rental_uris":{"android":"levelo://app?vid=52b117f2-4c01-4f66-887d-006722496528","ios":"levelo://app?vid=52b117f2-4c01-4f66-887d-006722496528"},"vehicle_type_id":"4","last_reported":1762096110,"current_range_meters":5600,"station_id":"","pricing_plan_id":"cebpf4jnsgd1na2vs0mg"},{"bike_id":"0f3dfe1a-3559-4296-8dc7-e6440f70d2c9","system_id":"levelo_inurba_marseille","lat":43.292097,"lon":5.359067,"is_reserved":false,"is_disabled":false,"rental_uris":{"android":"levelo://app?vid=0f3dfe1a-3559-4296-8dc7-e6440f70d2c9","ios":"levelo://app?vid=0f3dfe1a-3559-4296-8dc7-e6440f70d2c9"},"vehicle_type_id":"4","last_reported":1762096110,"current_range_meters":5600,"station_id":"ce4bha92rcd13ifvqeh0","pricing_plan_id":"cebpf4jnsgd1na2vs0mg"},{"bike_id":"e0759873-c1f7-4ea1-a558-cc8cc8cf031a","system_id":"levelo_inurba_marseille","lat":43.28152,"lon":5.42644,"is_reserved":false,"is_disabled":false,"rental_uris":{"android":"levelo://app?vid=e0759873-c1f7-4ea1-a558-cc8cc8cf031a","ios":"levelo://app?vid=e0759873-c1f7-4ea1-a558-cc8cc8cf031a"},"vehicle_type_id":"4","last_reported":1762096110,"current_range_meters":5600,"station_id":"ce4bhnh2rcd13ifvqgug","pricing_plan_id":"cebpf4jnsgd1na2vs0mg"},{"bike_id":"e6af6e52-f6a1-49a9-a522-c03e87901a02","system_id":"levelo_inurba_marseille","lat":43.29275,"lon":5.4014,"is_reserved":false,"is_disabled":false,"rental_uris":{"android":"levelo://app?vid=e6af6e52-f6a1-49a9-a522-c03e87901a02","ios":"levelo://app?vid=e6af6e52-f6a1-49a9-a522-c03e87901a02"},"vehicle_type_id":"4","last_reported":1762096110,"current_range_meters":5600,"station_id":"ce4bh312rcd13ifvqdk0","pricing_plan_id":"cebpf4jnsgd1na2vs0mg"},{"bike_id":"6558f6f3-2ce6-4ae5-bd7c-b9fd3b9c52a6","system_id":"levelo_inurba_marseille","lat":43.2841,"lon":5.37516,"is_reserved":false,"is_disabled":false,"rental_uris":{"android":"levelo://app?vid=6558f6f3-2ce6-4ae5-bd7c-b9fd3b9c52a6","ios":"levelo://app?vid=6558f6f3-2ce6-4ae5-bd7c-b9fd3b9c52a6"},"vehicle_type_id":"4","last_reported":1762096110,"current_range_meters":6000,"station_id":"ce4bh412rcd13ifvqds0","pricing_plan_id":"cebpf4jnsgd1na2vs0mg"},{"bike_id":"86dbaa0a-fb3b-4963-ac08-2297dc161bff","system_id":"levelo_inurba_marseille","lat":43.31014,"lon":5.38335,"is_reserved":false,"is_disabled":false,"rental_uris":{"android":"levelo://app?vid=86dbaa0a-fb3b-4963-ac08-2297dc161bff","ios":"levelo://app?vid=86dbaa0a-fb3b-4963-ac08-2297dc161bff"},"vehicle_type_id":"4","last_reported":1762096110,"current_range_meters":6000,"station_id":"","pricing_plan_id":"cebpf4jnsgd1na2vs0mg"},{"bike_id":"24eefa79-51ac-4550-a52f-bc6bcc72ed85","system_id":"levelo_inurba_marseille","lat":43.30621,"lon":5.40089,"is_reserved":false,"is_disabled":false,"rental_uris":{"android":"levelo://app?vid=24eefa79-51ac-4550-a52f-bc6bcc72ed85","ios":"levelo://app?vid=24eefa79-51ac-4550-a52f-bc6bcc72ed85"},"vehicle_type_id":"4","last_reported":1762096110,"current_range_meters":6000,"station_id":"ce4bh112rcd13ifvqda0","pricing_plan_id":"cebpf4jnsgd1na2vs0mg"},{"bike_id":"2bad0336-9bfa-4a87-838a-f50992203d65","system_id":"levelo_inurba_marseille","lat":43.28935,"lon":5.36639,"is_reserved":false,"is_disabled":false,"rental_uris":{"android":"levelo://app?vid=2bad0336-9bfa-4a87-838a-f50992203d65","ios":"levelo://app?vid=2bad0336-9bfa-4a87-838a-f50992203d65"},"vehicle_type_id":"4","last_reported":1762096110,"current_range_meters":6000,"station_id":"ce4bhap2rcd13ifvqek0","pricing_plan_id":"cebpf4jnsgd1na2vs0mg"},{"bike_id":"fca252be-68c3-40cc-92d4-0eb23191f310","system_id":"levelo_inurba_marseille","lat":43.31889,"lon":5.40748,"is_reserved":false,"is_disabled":false,"rental_uris":{"android":"levelo://app?vid=fca252be-68c3-40cc-92d4-0eb23191f310","ios":"levelo://app?vid=fca252be-68c3-40cc-92d4-0eb23191f310"},"vehicle_type_id":"4","last_reported":1762096110,"current_range_meters":6000,"station_id":"ce4bhq12rcd13ifvqhig","pricing_plan_id":"cebpf4jnsgd1na2vs0mg"},{"bike_id":"a4c9cc49-bea1-4907-81b7-901e6b675c70","system_id":"levelo_inurba_marseille","lat":43.292787,"lon":5.376493,"is_reserved":false,"is_disabled":false,"rental_uris":{"android":"levelo://app?vid=a4c9cc49-bea1-4907-81b7-901e6b675c70","ios":"levelo://app?vid=a4c9cc49-bea1-4907-81b7-901e6b675c70"},"vehicle_type_id":"4","last_reported":1762096110,"current_range_meters":6400,"station_id":"ce4bgi12rcd13ifvqb80","pricing_plan_id":"cebpf4jnsgd1na2vs0mg"},{"bike_id":"f3aa2b01-0a4c-4939-9943-856a2be759f0","system_id":"levelo_inurba_marseille","lat":43.21737,"lon":5.3462,"is_reserved":false,"is_disabled":false,"rental_uris":{"android":"levelo://app?vid=f3aa2b01-0a4c-4939-9943-856a2be759f0","ios":"levelo://app?vid=f3aa2b01-0a4c-4939-9943-856a2be759f0"},"vehicle_type_id":"4","last_reported":1762096110,"current_range_meters":6400,"station_id":"st_cvj6r9ubvosntc0bgbag","pricing_plan_id":"cebpf4jnsgd1na2vs0mg"},{"bike_id":"dcb5f4d6-a57a-45ea-b185-de3fe952058c","system_id":"levelo_inurba_marseille","lat":43.281005,"lon":5.378399,"is_reserved":false,"is_disabled":true,"rental_uris":{"android":"levelo://app?vid=dcb5f4d6-a57a-45ea-b185-de3fe952058c","ios":"levelo://app?vid=dcb5f4d6-a57a-45ea-b185-de3fe952058c"},"vehicle_type_id":"4","last_reported":1762096110,"current_range_meters":6400,"station_id":"ce4bha12rcd13ifvqee0","pricing_plan_id":"cebpf4jnsgd1na2vs0mg"},{"bike_id":"5cc2bb32-79f2-47f2-8967-73e6e9db0b63","system_id":"levelo_inurba_marseille","lat":43.31082,"lon":5.42432,"is_reserved":false,"is_disabled":false,"rental_uris":{"android":"levelo://app?vid=5cc2bb32-79f2-47f2-8967-73e6e9db0b63","ios":"levelo://app?vid=5cc2bb32-79f2-47f2-8967-73e6e9db0b63"},"vehicle_type_id":"4","last_reported":1762096110,"current_range_meters":6400,"station_id":"ce4bhp92rcd13ifvqhag","pricing_plan_id":"cebpf4jnsgd1na2vs0mg"},{"bike_id":"843ce3a9-fc46-4709-aef4-1f70e7b7839d","system_id":"levelo_inurba_marseille","lat":43.26566,"lon":5.39023,"is_reserved":false,"is_disabled":false,"rental_uris":{"android":"levelo://app?vid=843ce3a9-fc46-4709-aef4-1f70e7b7839d","ios":"levelo://app?vid=843ce3a9-fc46-4709-aef4-1f70e7b7839d"},"vehicle_type_id":"4","last_reported":1762096110,"current_range_meters":6800,"station_id":"ce4bhe12rcd13ifvqf30","pricing_plan_id":"cebpf4jnsgd1na2vs0mg"},{"bike_id":"fe211fee-df04-4312-bc0a-d625bf6086ab","system_id":"levelo_inurba_marseille","lat":43.29046,"lon":5.40434,"is_reserved":false,"is_disabled":true,"rental_uris":{"android":"levelo://app?vid=fe211fee-df04-4312-bc0a-d625bf6086ab","ios":"levelo://app?vid=fe211fee-df04-4312-bc0a-d625bf6086ab"},"vehicle_type_id":"4","last_reported":1762096110,"current_range_meters":6800,"station_id":"","pricing_plan_id":"cebpf4jnsgd1na2vs0mg"},{"bike_id":"74a1dde6-a596-4e1d-a642-bf93c290026f","system_id":"levelo_inurba_marseille","lat":43.30424,"lon":5.38902,"is_reserved":false,"is_disabled":false,"rental_uris":{"android":"levelo://app?vid=74a1dde6-a596-4e1d-a642-bf93c290026f","ios":"levelo://app?vid=74a1dde6-a596-4e1d-a642-bf93c290026f"},"vehicle_type_id":"4","last_reported":1762096110,"current_range_meters":7200,"station_id":"ce4bgk12rcd13ifvqbi0","pricing_plan_id":"cebpf4jnsgd1na2vs0mg"},{"bike_id":"6eb813db-37a2-40c7-894e-0173620cae7c","system_id":"levelo_inurba_marseille","lat":43.29789,"lon":5.37096,"is_reserved":false,"is_disabled":false,"rental_uris":{"android":"levelo://app?vid=6eb813db-37a2-40c7-894e-0173620cae7c","ios":"levelo://app?vid=6eb813db-37a2-40c7-894e-0173620cae7c"},"vehicle_type_id":"4","last_reported":1762096110,"current_range_meters":7200,"station_id":"ce4bgop2rcd13ifvqc1g","pricing_plan_id":"cebpf4jnsgd1na2vs0mg"},{"bike_id":"b1e81361-2b17-4ef1-8a58-6def5753471b","system_id":"levelo_inurba_marseille","lat":43.33753,"lon":5.37484,"is_reserved":false,"is_disabled":false,"rental_uris":{"android":"levelo://app?vid=b1e81361-2b17-4ef1-8a58-6def5753471b","ios":"levelo://app?vid=b1e81361-2b17-4ef1-8a58-6def5753471b"},"vehicle_type_id":"4","last_reported":1762096110,"current_range_meters":7200,"station_id":"","pricing_plan_id":"cebpf4jnsgd1na2vs0mg"},{"bike_id":"a220e166-3bdf-4a0e-834d-fd366254b1d1","system_id":"levelo_inurba_marseille","lat":43.30595,"lon":5.39361,"is_reserved":false,"is_disabled":false,"rental_uris":{"android":"levelo://app?vid=a220e166-3bdf-4a0e-834d-fd366254b1d1","ios":"levelo://app?vid=a220e166-3bdf-4a0e-834d-fd366254b1d1"},"vehicle_type_id":"4","last_reported":1762096110,"current_range_meters":7200,"station_id":"ce4bh0p2rcd13ifvqd80","pricing_plan_id":"cebpf4jnsgd1na2vs0mg"},{"bike_id":"ab665b93-dfc1-43b0-aa01-0f4645b76cda","system_id":"levelo_inurba_marseille","lat":43.30966,"lon":5.39058,"is_reserved":false,"is_disabled":false,"rental_uris":{"android":"levelo://app?vid=ab665b93-dfc1-43b0-aa01-0f4645b76cda","ios":"levelo://app?vid=ab665b93-dfc1-43b0-aa01-0f4645b76cda"},"vehicle_type_id":"4","last_reported":1762096110,"current_range_meters":8000,"station_id":"ce4bgup2rcd13ifvqco0","pricing_plan_id":"cebpf4jnsgd1na2vs0mg"},{"bike_id":"603f84c7-55e1-4d19-8f37-178ddadc668f","system_id":"levelo_inurba_marseille","lat":43.21179,"lon":5.35091,"is_reserved":false,"is_disabled":false,"rental_uris":{"android":"levelo://app?vid=603f84c7-55e1-4d19-8f37-178ddadc668f","ios":"levelo://app?vid=603f84c7-55e1-4d19-8f37-178ddadc668f"},"vehicle_type_id":"4","last_reported":1762096110,"current_range_meters":8000,"station_id":"st_cvj6sg6p6f1abm77japg","pricing_plan_id":"cebpf4jnsgd1na2vs0mg"},{"bike_id":"604afcfd-c32f-49c6-b883-1aaf98e0a3da","system_id":"levelo_inurba_marseille","lat":43.28701,"lon":5.39984,"is_reserved":false,"is_disabled":false,"rental_uris":{"android":"levelo://app?vid=604afcfd-c32f-49c6-b883-1aaf98e0a3da","ios":"levelo://app?vid=604afcfd-c32f-49c6-b883-1aaf98e0a3da"},"vehicle_type_id":"4","last_reported":1762096110,"current_range_meters":8000,"station_id":"ce4bho92rcd13ifvqh3g","pricing_plan_id":"cebpf4jnsgd1na2vs0mg"},{"bike_id":"ed890a36-02ef-4914-b497-b0b60f616f2a","system_id":"levelo_inurba_marseille","lat":43.28148,"lon":5.42655,"is_reserved":false,"is_disabled":false,"rental_uris":{"android":"levelo://app?vid=ed890a36-02ef-4914-b497-b0b60f616f2a","ios":"levelo://app?vid=ed890a36-02ef-4914-b497-b0b60f616f2a"},"vehicle_type_id":"4","last_reported":1762096110,"current_range_meters":8000,"station_id":"ce4bhnh2rcd13ifvqgug","pricing_plan_id":"cebpf4jnsgd1na2vs0mg"},{"bike_id":"a8c37853-0b1d-4686-a393-5126f07eea8e","system_id":"levelo_inurba_marseille","lat":43.288147,"lon":5.391652,"is_reserved":false,"is_disabled":false,"rental_uris":{"android":"levelo://app?vid=a8c37853-0b1d-4686-a393-5126f07eea8e","ios":"levelo://app?vid=a8c37853-0b1d-4686-a393-5126f07eea8e"},"vehicle_type_id":"4","last_reported":1762096110,"current_range_meters":8000,"station_id":"","pricing_plan_id":"cebpf4jnsgd1na2vs0mg"},{"bike_id":"b594c1cf-aa69-473e-b9fc-baf5aeb44f81","system_id":"levelo_inurba_marseille","lat":43.29292,"lon":5.37446,"is_reserved":false,"is_disabled":false,"rental_uris":{"android":"levelo://app?vid=b594c1cf-aa69-473e-b9fc-baf5aeb44f81","ios":"levelo://app?vid=b594c1cf-aa69-473e-b9fc-baf5aeb44f81"},"vehicle_type_id":"4","last_reported":1762096110,"current_range_meters":8400,"station_id":"ce4bgi12rcd13ifvqb70","pricing_plan_id":"cebpf4jnsgd1na2vs0mg"},{"bike_id":"1da56141-654f-442c-b20c-6c2bd52c2965","system_id":"levelo_inurba_marseille","lat":43.31253,"lon":5.38196,"is_reserved":false,"is_disabled":true,"rental_uris":{"android":"levelo://app?vid=1da56141-654f-442c-b20c-6c2bd52c2965","ios":"levelo://app?vid=1da56141-654f-442c-b20c-6c2bd52c2965"},"vehicle_type_id":"4","last_reported":1762096110,"current_range_meters":8400,"station_id":"","pricing_plan_id":"cebpf4jnsgd1na2vs0mg"},{"bike_id":"f74318f8-a56a-4139-a09e-c2ae64b87960","system_id":"levelo_inurba_marseille","lat":43.25088,"lon":5.39522,"is_reserved":false,"is_disabled":false,"rental_uris":{"android":"levelo://app?vid=f74318f8-a56a-4139-a09e-c2ae64b87960","ios":"levelo://app?vid=f74318f8-a56a-4139-a09e-c2ae64b87960"},"vehicle_type_id":"4","last_reported":1762096110,"current_range_meters":8400,"station_id":"ce4bhm12rcd13ifvqgkg","pricing_plan_id":"cebpf4jnsgd1na2vs0mg"},{"bike_id":"a8a8b5c5-a2b7-4730-b27c-f583ca097384","system_id":"levelo_inurba_marseille","lat":43.30423,"lon":5.38888,"is_reserved":false,"is_disabled":false,"rental_uris":{"android":"levelo://app?vid=a8a8b5c5-a2b7-4730-b27c-f583ca097384","ios":"levelo://app?vid=a8a8b5c5-a2b7-4730-b27c-f583ca097384"},"vehicle_type_id":"4","last_reported":1762096110,"current_range_meters":8400,"station_id":"ce4bgk12rcd13ifvqbi0","pricing_plan_id":"cebpf4jnsgd1na2vs0mg"},{"bike_id":"3695dada-c717-4c75-8d88-7f241ecf1c1c","system_id":"levelo_inurba_marseille","lat":43.248048,"lon":5.374597,"is_reserved":false,"is_disabled":false,"rental_uris":{"android":"levelo://app?vid=3695dada-c717-4c75-8d88-7f241ecf1c1c","ios":"levelo://app?vid=3695dada-c717-4c75-8d88-7f241ecf1c1c"},"vehicle_type_id":"4","last_reported":1762096110,"current_range_meters":8400,"station_id":"ce4bhgh2rcd13ifvqfb0","pricing_plan_id":"cebpf4jnsgd1na2vs0mg"},{"bike_id":"afba2e7c-0dbc-4820-b93f-fdd58168ba1f","system_id":"levelo_inurba_marseille","lat":43.28765,"lon":5.385455,"is_reserved":false,"is_disabled":false,"rental_uris":{"android":"levelo://app?vid=afba2e7c-0dbc-4820-b93f-fdd58168ba1f","ios":"levelo://app?vid=afba2e7c-0dbc-4820-b93f-fdd58168ba1f"},"vehicle_type_id":"4","last_reported":1762096110,"current_range_meters":8800,"station_id":"","pricing_plan_id":"cebpf4jnsgd1na2vs0mg"},{"bike_id":"ea26fc17-fccc-4837-9b1c-f8df3995f8f1","system_id":"levelo_inurba_marseille","lat":43.256034,"lon":5.38229,"is_reserved":false,"is_disabled":false,"rental_uris":{"android":"levelo://app?vid=ea26fc17-fccc-4837-9b1c-f8df3995f8f1","ios":"levelo://app?vid=ea26fc17-fccc-4837-9b1c-f8df3995f8f1"},"vehicle_type_id":"4","last_reported":1762096110,"current_range_meters":8800,"station_id":"ce4bhih2rcd13ifvqfs0","pricing_plan_id":"cebpf4jnsgd1na2vs0mg"},{"bike_id":"5c5d00f7-57c0-47e3-a866-6e4cc593a186","system_id":"levelo_inurba_marseille","lat":43.28978,"lon":5.37844,"is_reserved":false,"is_disabled":false,"rental_uris":{"android":"levelo://app?vid=5c5d00f7-57c0-47e3-a866-6e4cc593a186","ios":"levelo://app?vid=5c5d00f7-57c0-47e3-a866-6e4cc593a186"},"vehicle_type_id":"4","last_reported":1762096110,"current_range_meters":9200,"station_id":"ce4bh9p2rcd13ifvqed0","pricing_plan_id":"cebpf4jnsgd1na2vs0mg"},{"bike_id":"eedb88a9-71f6-4c26-81cc-c6d3937e9bca","system_id":"levelo_inurba_marseille","lat":43.29596,"lon":5.38109,"is_reserved":false,"is_disabled":false,"rental_uris":{"android":"levelo://app?vid=eedb88a9-71f6-4c26-81cc-c6d3937e9bca","ios":"levelo://app?vid=eedb88a9-71f6-4c26-81cc-c6d3937e9bca"},"vehicle_type_id":"4","last_reported":1762096110,"current_range_meters":9600,"station_id":"ce4bgl12rcd13ifvqbo0","pricing_plan_id":"cebpf4jnsgd1na2vs0mg"},{"bike_id":"fa3b64d7-a90e-4223-bbda-99e448bde06e","system_id":"levelo_inurba_marseille","lat":43.29545,"lon":5.38542,"is_reserved":false,"is_disabled":true,"rental_uris":{"android":"levelo://app?vid=fa3b64d7-a90e-4223-bbda-99e448bde06e","ios":"levelo://app?vid=fa3b64d7-a90e-4223-bbda-99e448bde06e"},"vehicle_type_id":"4","last_reported":1762096110,"current_range_meters":9600,"station_id":"ce4bgih2rcd13ifvqba0","pricing_plan_id":"cebpf4jnsgd1na2vs0mg"},{"bike_id":"7537a068-ff9d-4684-9fe2-ff5e1c2ded02","system_id":"levelo_inurba_marseille","lat":43.29261,"lon":5.38436,"is_reserved":false,"is_disabled":false,"rental_uris":{"android":"levelo://app?vid=7537a068-ff9d-4684-9fe2-ff5e1c2ded02","ios":"levelo://app?vid=7537a068-ff9d-4684-9fe2-ff5e1c2ded02"},"vehicle_type_id":"4","last_reported":1762096110,"current_range_meters":9600,"station_id":"ce4bh692rcd13ifvqea0","pricing_plan_id":"cebpf4jnsgd1na2vs0mg"},{"bike_id":"286ad519-f2bc-490b-aed2-03856cc4baf4","system_id":"levelo_inurba_marseille","lat":43.30799,"lon":5.38153,"is_reserved":false,"is_disabled":false,"rental_uris":{"android":"levelo://app?vid=286ad519-f2bc-490b-aed2-03856cc4baf4","ios":"levelo://app?vid=286ad519-f2bc-490b-aed2-03856cc4baf4"},"vehicle_type_id":"4","last_reported":1762096110,"current_range_meters":9600,"station_id":"ce4bgt12rcd13ifvqce0","pricing_plan_id":"cebpf4jnsgd1na2vs0mg"},{"bike_id":"6fed60fb-cf2f-4644-8107-50d63da5e34d","system_id":"levelo_inurba_marseille","lat":43.28152,"lon":5.42655,"is_reserved":false,"is_disabled":false,"rental_uris":{"android":"levelo://app?vid=6fed60fb-cf2f-4644-8107-50d63da5e34d","ios":"levelo://app?vid=6fed60fb-cf2f-4644-8107-50d63da5e34d"},"vehicle_type_id":"4","last_reported":1762096110,"current_range_meters":9600,"station_id":"ce4bhnh2rcd13ifvqgug","pricing_plan_id":"cebpf4jnsgd1na2vs0mg"},{"bike_id":"9161159f-47e1-4255-b85e-b0510639bf14","system_id":"levelo_inurba_marseille","lat":43.287333,"lon":5.36091,"is_reserved":false,"is_disabled":false,"rental_uris":{"android":"levelo://app?vid=9161159f-47e1-4255-b85e-b0510639bf14","ios":"levelo://app?vid=9161159f-47e1-4255-b85e-b0510639bf14"},"vehicle_type_id":"4","last_reported":1762096110,"current_range_meters":9600,"station_id":"cki0cbj6b192h4jlfktg","pricing_plan_id":"cebpf4jnsgd1na2vs0mg"},{"bike_id":"ccbb9b89-ebba-4c6c-b9fe-acafe29ddb47","system_id":"levelo_inurba_marseille","lat":43.33468,"lon":5.42819,"is_reserved":false,"is_disabled":false,"rental_uris":{"android":"levelo://app?vid=ccbb9b89-ebba-4c6c-b9fe-acafe29ddb47","ios":"levelo://app?vid=ccbb9b89-ebba-4c6c-b9fe-acafe29ddb47"},"vehicle_type_id":"4","last_reported":1762096110,"current_range_meters":10000,"station_id":"","pricing_plan_id":"cebpf4jnsgd1na2vs0mg"},{"bike_id":"748a54a2-4939-47c5-abfb-a58706e94d70","system_id":"levelo_inurba_marseille","lat":43.247527,"lon":5.383649,"is_reserved":false,"is_disabled":false,"rental_uris":{"android":"levelo://app?vid=748a54a2-4939-47c5-abfb-a58706e94d70","ios":"levelo://app?vid=748a54a2-4939-47c5-abfb-a58706e94d70"},"vehicle_type_id":"4","last_reported":1762096110,"current_range_meters":10000,"station_id":"ce4bhih2rcd13ifvqfs0","pricing_plan_id":"cebpf4jnsgd1na2vs0mg"},{"bike_id":"097459de-f531-4e45-8427-37c18277619c","system_id":"levelo_inurba_marseille","lat":43.2677,"lon":5.39419,"is_reserved":false,"is_disabled":false,"rental_uris":{"android":"levelo://app?vid=097459de-f531-4e45-8427-37c18277619c","ios":"levelo://app?vid=097459de-f531-4e45-8427-37c18277619c"},"vehicle_type_id":"4","last_reported":1762096110,"current_range_meters":10000,"station_id":"ce4bhh12rcd13ifvqfg0","pricing_plan_id":"cebpf4jnsgd1na2vs0mg"},{"bike_id":"cf31b803-57ad-4760-bfbe-5c91168e3cf6","system_id":"levelo_inurba_marseille","lat":43.324813,"lon":5.365661,"is_reserved":false,"is_disabled":false,"rental_uris":{"android":"levelo://app?vid=cf31b803-57ad-4760-bfbe-5c91168e3cf6","ios":"levelo://app?vid=cf31b803-57ad-4760-bfbe-5c91168e3cf6"},"vehicle_type_id":"4","last_reported":1762096110,"current_range_meters":10000,"station_id":"ce4bhs12rcd13ifvqhvg","pricing_plan_id":"cebpf4jnsgd1na2vs0mg"},{"bike_id":"1d29646a-da1f-4f66-b008-0838ffb2fa84","system_id":"levelo_inurba_marseille","lat":43.29991,"lon":5.37225,"is_reserved":false,"is_disabled":false,"rental_uris":{"android":"levelo://app?vid=1d29646a-da1f-4f66-b008-0838ffb2fa84","ios":"levelo://app?vid=1d29646a-da1f-4f66-b008-0838ffb2fa84"},"vehicle_type_id":"4","last_reported":1762096110,"current_range_meters":10000,"station_id":"ce4bgr92rcd13ifvqc7g","pricing_plan_id":"cebpf4jnsgd1na2vs0mg"},{"bike_id":"87bf0f62-f5e5-4586-abe4-d7bb497c069f","system_id":"levelo_inurba_marseille","lat":43.32354,"lon":5.3675,"is_reserved":false,"is_disabled":false,"rental_uris":{"android":"levelo://app?vid=87bf0f62-f5e5-4586-abe4-d7bb497c069f","ios":"levelo://app?vid=87bf0f62-f5e5-4586-abe4-d7bb497c069f"},"vehicle_type_id":"4","last_reported":1762096110,"current_range_meters":10800,"station_id":"ce4bhsh2rcd13ifvqi2g","pricing_plan_id":"cebpf4jnsgd1na2vs0mg"},{"bike_id":"08c3972c-0e2b-4bb4-8867-68ac29fdaad8","system_id":"levelo_inurba_marseille","lat":43.30304,"lon":5.39255,"is_reserved":false,"is_disabled":false,"rental_uris":{"android":"levelo://app?vid=08c3972c-0e2b-4bb4-8867-68ac29fdaad8","ios":"levelo://app?vid=08c3972c-0e2b-4bb4-8867-68ac29fdaad8"},"vehicle_type_id":"4","last_reported":1762096110,"current_range_meters":10800,"station_id":"ce4bgkh2rcd13ifvqbk0","pricing_plan_id":"cebpf4jnsgd1na2vs0mg"},{"bike_id":"cf845589-174c-4c3c-87f3-c357f0f04d8a","system_id":"levelo_inurba_marseille","lat":43.2795,"lon":5.41046,"is_reserved":false,"is_disabled":false,"rental_uris":{"android":"levelo://app?vid=cf845589-174c-4c3c-87f3-c357f0f04d8a","ios":"levelo://app?vid=cf845589-174c-4c3c-87f3-c357f0f04d8a"},"vehicle_type_id":"4","last_reported":1762096110,"current_range_meters":10800,"station_id":"ce4bhnp2rcd13ifvqh0g","pricing_plan_id":"cebpf4jnsgd1na2vs0mg"},{"bike_id":"d971e331-e07f-4330-b3e8-6aee3569a31c","system_id":"levelo_inurba_marseille","lat":43.29443,"lon":5.3975,"is_reserved":false,"is_disabled":false,"rental_uris":{"android":"levelo://app?vid=d971e331-e07f-4330-b3e8-6aee3569a31c","ios":"levelo://app?vid=d971e331-e07f-4330-b3e8-6aee3569a31c"},"vehicle_type_id":"4","last_reported":1762096110,"current_range_meters":11200,"station_id":"ce4bh3h2rcd13ifvqdo0","pricing_plan_id":"cebpf4jnsgd1na2vs0mg"},{"bike_id":"1ab28b89-9044-4228-9804-fd088c3b7d1b","system_id":"levelo_inurba_marseille","lat":43.31349,"lon":5.36713,"is_reserved":false,"is_disabled":false,"rental_uris":{"android":"levelo://app?vid=1ab28b89-9044-4228-9804-fd088c3b7d1b","ios":"levelo://app?vid=1ab28b89-9044-4228-9804-fd088c3b7d1b"},"vehicle_type_id":"4","last_reported":1762096110,"current_range_meters":11200,"station_id":"ce4bgr92rcd13ifvqc6g","pricing_plan_id":"cebpf4jnsgd1na2vs0mg"},{"bike_id":"41598790-345d-414f-9e87-720cb432f278","system_id":"levelo_inurba_marseille","lat":43.29477,"lon":5.36227,"is_reserved":false,"is_disabled":false,"rental_uris":{"android":"levelo://app?vid=41598790-345d-414f-9e87-720cb432f278","ios":"levelo://app?vid=41598790-345d-414f-9e87-720cb432f278"},"vehicle_type_id":"4","last_reported":1762096110,"current_range_meters":11200,"station_id":"","pricing_plan_id":"cebpf4jnsgd1na2vs0mg"},{"bike_id":"09aa8f06-ffeb-4dc5-b1e3-4dfaaa5d105e","system_id":"levelo_inurba_marseille","lat":43.270604,"lon":5.383098,"is_reserved":false,"is_disabled":false,"rental_uris":{"android":"levelo://app?vid=09aa8f06-ffeb-4dc5-b1e3-4dfaaa5d105e","ios":"levelo://app?vid=09aa8f06-ffeb-4dc5-b1e3-4dfaaa5d105e"},"vehicle_type_id":"4","last_reported":1762096110,"current_range_meters":11200,"station_id":"st_d3n2fo6cfp8s73cte1j0","pricing_plan_id":"cebpf4jnsgd1na2vs0mg"},{"bike_id":"b5b60fa5-213c-4130-9fd5-8dd925abde21","system_id":"levelo_inurba_marseille","lat":43.290237,"lon":5.3815,"is_reserved":false,"is_disabled":false,"rental_uris":{"android":"levelo://app?vid=b5b60fa5-213c-4130-9fd5-8dd925abde21","ios":"levelo://app?vid=b5b60fa5-213c-4130-9fd5-8dd925abde21"},"vehicle_type_id":"4","last_reported":1762096110,"current_range_meters":11600,"station_id":"","pricing_plan_id":"cebpf4jnsgd1na2vs0mg"},{"bike_id":"7022304c-fe14-4404-86c3-2992461225b0","system_id":"levelo_inurba_marseille","lat":43.2949,"lon":5.43301,"is_reserved":false,"is_disabled":false,"rental_uris":{"android":"levelo://app?vid=7022304c-fe14-4404-86c3-2992461225b0","ios":"levelo://app?vid=7022304c-fe14-4404-86c3-2992461225b0"},"vehicle_type_id":"4","last_reported":1762096110,"current_range_meters":11600,"station_id":"st_d3j5ugp08ojc73fj9d10","pricing_plan_id":"cebpf4jnsgd1na2vs0mg"},{"bike_id":"6fe8defd-7365-4870-9fd8-a61adc4c20bd","system_id":"levelo_inurba_marseille","lat":43.29875,"lon":5.39765,"is_reserved":false,"is_disabled":true,"rental_uris":{"android":"levelo://app?vid=6fe8defd-7365-4870-9fd8-a61adc4c20bd","ios":"levelo://app?vid=6fe8defd-7365-4870-9fd8-a61adc4c20bd"},"vehicle_type_id":"4","last_reported":1762096110,"current_range_meters":11600,"station_id":"ce4bh0h2rcd13ifvqd50","pricing_plan_id":"cebpf4jnsgd1na2vs0mg"},{"bike_id":"f556ad88-b0ef-4d15-8048-f36fbe8e026c","system_id":"levelo_inurba_marseille","lat":43.285264,"lon":5.441067,"is_reserved":false,"is_disabled":false,"rental_uris":{"android":"levelo://app?vid=f556ad88-b0ef-4d15-8048-f36fbe8e026c","ios":"levelo://app?vid=f556ad88-b0ef-4d15-8048-f36fbe8e026c"},"vehicle_type_id":"4","last_reported":1762096110,"current_range_meters":11600,"station_id":"st_d3j3df2ikq2c7380ej80","pricing_plan_id":"cebpf4jnsgd1na2vs0mg"},{"bike_id":"c4f2ef56-a448-4bb1-9320-6136c50246c9","system_id":"levelo_inurba_marseille","lat":43.24805,"lon":5.37453,"is_reserved":false,"is_disabled":true,"rental_uris":{"android":"levelo://app?vid=c4f2ef56-a448-4bb1-9320-6136c50246c9","ios":"levelo://app?vid=c4f2ef56-a448-4bb1-9320-6136c50246c9"},"vehicle_type_id":"4","last_reported":1762096110,"current_range_meters":11600,"station_id":"ce4bhgh2rcd13ifvqfb0","pricing_plan_id":"cebpf4jnsgd1na2vs0mg"},{"bike_id":"9ed83576-2cd9-4d25-ba69-eddb8df93a38","system_id":"levelo_inurba_marseille","lat":43.2396,"lon":5.36642,"is_reserved":false,"is_disabled":false,"rental_uris":{"android":"levelo://app?vid=9ed83576-2cd9-4d25-ba69-eddb8df93a38","ios":"levelo://app?vid=9ed83576-2cd9-4d25-ba69-eddb8df93a38"},"vehicle_type_id":"4","last_reported":1762096110,"current_range_meters":12000,"station_id":"ce4bhi12rcd13ifvqfp0","pricing_plan_id":"cebpf4jnsgd1na2vs0mg"},{"bike_id":"f032dcd8-9da5-4d43-9733-2e1aaa8ea167","system_id":"levelo_inurba_marseille","lat":43.25334,"lon":5.42176,"is_reserved":false,"is_disabled":false,"rental_uris":{"android":"levelo://app?vid=f032dcd8-9da5-4d43-9733-2e1aaa8ea167","ios":"levelo://app?vid=f032dcd8-9da5-4d43-9733-2e1aaa8ea167"},"vehicle_type_id":"4","last_reported":1762096110,"current_range_meters":12000,"station_id":"st_d2m65c5bi1j21697t3ng","pricing_plan_id":"cebpf4jnsgd1na2vs0mg"},{"bike_id":"a677447f-fc82-47d8-b7c0-71d7eed4d01f","system_id":"levelo_inurba_marseille","lat":43.29521,"lon":5.38546,"is_reserved":false,"is_disabled":false,"rental_uris":{"android":"levelo://app?vid=a677447f-fc82-47d8-b7c0-71d7eed4d01f","ios":"levelo://app?vid=a677447f-fc82-47d8-b7c0-71d7eed4d01f"},"vehicle_type_id":"4","last_reported":1762096110,"current_range_meters":12000,"station_id":"ce4bgih2rcd13ifvqba0","pricing_plan_id":"cebpf4jnsgd1na2vs0mg"},{"bike_id":"12c24c1a-5f34-4e4f-b6c0-f07cd6755b8d","system_id":"levelo_inurba_marseille","lat":43.24936,"lon":5.40516,"is_reserved":false,"is_disabled":false,"rental_uris":{"android":"levelo://app?vid=12c24c1a-5f34-4e4f-b6c0-f07cd6755b8d","ios":"levelo://app?vid=12c24c1a-5f34-4e4f-b6c0-f07cd6755b8d"},"vehicle_type_id":"4","last_reported":1762096110,"current_range_meters":12000,"station_id":"st_d2ngiaodas8pm72gd1h0","pricing_plan_id":"cebpf4jnsgd1na2vs0mg"},{"bike_id":"c7d57f9b-8ba9-4435-ac3b-54d333c0b4c7","system_id":"levelo_inurba_marseille","lat":43.323358,"lon":5.367153,"is_reserved":false,"is_disabled":false,"rental_uris":{"android":"levelo://app?vid=c7d57f9b-8ba9-4435-ac3b-54d333c0b4c7","ios":"levelo://app?vid=c7d57f9b-8ba9-4435-ac3b-54d333c0b4c7"},"vehicle_type_id":"4","last_reported":1762096110,"current_range_meters":12000,"station_id":"ce4bhsh2rcd13ifvqi2g","pricing_plan_id":"cebpf4jnsgd1na2vs0mg"},{"bike_id":"8826ede5-ae30-4091-839e-dd39c3609359","system_id":"levelo_inurba_marseille","lat":43.29794,"lon":5.39335,"is_reserved":false,"is_disabled":true,"rental_uris":{"android":"levelo://app?vid=8826ede5-ae30-4091-839e-dd39c3609359","ios":"levelo://app?vid=8826ede5-ae30-4091-839e-dd39c3609359"},"vehicle_type_id":"4","last_reported":1762096110,"current_range_meters":12000,"station_id":"chh1huq6cuj3fo74tm60","pricing_plan_id":"cebpf4jnsgd1na2vs0mg"},{"bike_id":"84f1bfac-8d21-499b-b8e1-fdc8049e10ac","system_id":"levelo_inurba_marseille","lat":43.31253,"lon":5.37788,"is_reserved":false,"is_disabled":false,"rental_uris":{"android":"levelo://app?vid=84f1bfac-8d21-499b-b8e1-fdc8049e10ac","ios":"levelo://app?vid=84f1bfac-8d21-499b-b8e1-fdc8049e10ac"},"vehicle_type_id":"4","last_reported":1762096110,"current_range_meters":12000,"station_id":"","pricing_plan_id":"cebpf4jnsgd1na2vs0mg"},{"bike_id":"5f336b60-f344-4d17-8bde-3d24435f4cd0","system_id":"levelo_inurba_marseille","lat":43.21753,"lon":5.34605,"is_reserved":false,"is_disabled":false,"rental_uris":{"android":"levelo://app?vid=5f336b60-f344-4d17-8bde-3d24435f4cd0","ios":"levelo://app?vid=5f336b60-f344-4d17-8bde-3d24435f4cd0"},"vehicle_type_id":"4","last_reported":1762096110,"current_range_meters":12000,"station_id":"st_cvj6r9ubvosntc0bgbag","pricing_plan_id":"cebpf4jnsgd1na2vs0mg"},{"bike_id":"0f583a9b-84b4-45e2-a280-f0ff1282968e","system_id":"levelo_inurba_marseille","lat":43.27667,"lon":5.38908,"is_reserved":false,"is_disabled":true,"rental_uris":{"android":"levelo://app?vid=0f583a9b-84b4-45e2-a280-f0ff1282968e","ios":"levelo://app?vid=0f583a9b-84b4-45e2-a280-f0ff1282968e"},"vehicle_type_id":"4","last_reported":1762096110,"current_range_meters":12000,"station_id":"ce4bhi12rcd13ifvqfo0","pricing_plan_id":"cebpf4jnsgd1na2vs0mg"},{"bike_id":"332d60e1-3ade-4a44-88fe-7fbfe9355b82","system_id":"levelo_inurba_marseille","lat":43.27428,"lon":5.39416,"is_reserved":false,"is_disabled":false,"rental_uris":{"android":"levelo://app?vid=332d60e1-3ade-4a44-88fe-7fbfe9355b82","ios":"levelo://app?vid=332d60e1-3ade-4a44-88fe-7fbfe9355b82"},"vehicle_type_id":"4","last_reported":1762096110,"current_range_meters":12000,"station_id":"ce4bhdp2rcd13ifvqf20","pricing_plan_id":"cebpf4jnsgd1na2vs0mg"},{"bike_id":"0b532f30-5f00-4113-94ad-b706b61e0154","system_id":"levelo_inurba_marseille","lat":43.23137,"lon":5.43724,"is_reserved":false,"is_disabled":false,"rental_uris":{"android":"levelo://app?vid=0b532f30-5f00-4113-94ad-b706b61e0154","ios":"levelo://app?vid=0b532f30-5f00-4113-94ad-b706b61e0154"},"vehicle_type_id":"4","last_reported":1762096110,"current_range_meters":12000,"station_id":"ce4bhmp2rcd13ifvqgog","pricing_plan_id":"cebpf4jnsgd1na2vs0mg"},{"bike_id":"ba541a52-7e4e-4241-9791-ae6f1fb03dcd","system_id":"levelo_inurba_marseille","lat":43.31994,"lon":5.41591,"is_reserved":false,"is_disabled":false,"rental_uris":{"android":"levelo://app?vid=ba541a52-7e4e-4241-9791-ae6f1fb03dcd","ios":"levelo://app?vid=ba541a52-7e4e-4241-9791-ae6f1fb03dcd"},"vehicle_type_id":"4","last_reported":1762096110,"current_range_meters":12000,"station_id":"","pricing_plan_id":"cebpf4jnsgd1na2vs0mg"},{"bike_id":"de0ca7a8-116a-46c8-8c50-6b445a473423","system_id":"levelo_inurba_marseille","lat":43.28863,"lon":5.42531,"is_reserved":false,"is_disabled":false,"rental_uris":{"android":"levelo://app?vid=de0ca7a8-116a-46c8-8c50-6b445a473423","ios":"levelo://app?vid=de0ca7a8-116a-46c8-8c50-6b445a473423"},"vehicle_type_id":"4","last_reported":1762096110,"current_range_meters":12400,"station_id":"st_d3b462108ojc7389ooeg","pricing_plan_id":"cebpf4jnsgd1na2vs0mg"},{"bike_id":"63f252f3-ffdc-4384-ac89-a4e9be0dfd03","system_id":"levelo_inurba_marseille","lat":43.31168,"lon":5.39341,"is_reserved":false,"is_disabled":false,"rental_uris":{"android":"levelo://app?vid=63f252f3-ffdc-4384-ac89-a4e9be0dfd03","ios":"levelo://app?vid=63f252f3-ffdc-4384-ac89-a4e9be0dfd03"},"vehicle_type_id":"4","last_reported":1762096110,"current_range_meters":12400,"station_id":"","pricing_plan_id":"cebpf4jnsgd1na2vs0mg"},{"bike_id":"7e22b25d-d57c-4a5b-8960-675f69daacd8","system_id":"levelo_inurba_marseille","lat":43.279083,"lon":5.380124,"is_reserved":false,"is_disabled":false,"rental_uris":{"android":"levelo://app?vid=7e22b25d-d57c-4a5b-8960-675f69daacd8","ios":"levelo://app?vid=7e22b25d-d57c-4a5b-8960-675f69daacd8"},"vehicle_type_id":"4","last_reported":1762096110,"current_range_meters":12400,"station_id":"ce4bhf92rcd13ifvqf50","pricing_plan_id":"cebpf4jnsgd1na2vs0mg"},{"bike_id":"af89aaee-c9e5-45e6-91a4-7d9839521401","system_id":"levelo_inurba_marseille","lat":43.28674,"lon":5.36352,"is_reserved":false,"is_disabled":false,"rental_uris":{"android":"levelo://app?vid=af89aaee-c9e5-45e6-91a4-7d9839521401","ios":"levelo://app?vid=af89aaee-c9e5-45e6-91a4-7d9839521401"},"vehicle_type_id":"4","last_reported":1762096110,"current_range_meters":12400,"station_id":"ce4bhah2rcd13ifvqej0","pricing_plan_id":"cebpf4jnsgd1na2vs0mg"},{"bike_id":"91891e2b-3c04-410a-b47f-e4a2d35addbb","system_id":"levelo_inurba_marseille","lat":43.248065,"lon":5.374488,"is_reserved":false,"is_disabled":false,"rental_uris":{"android":"levelo://app?vid=91891e2b-3c04-410a-b47f-e4a2d35addbb","ios":"levelo://app?vid=91891e2b-3c04-410a-b47f-e4a2d35addbb"},"vehicle_type_id":"4","last_reported":1762096110,"current_range_meters":12400,"station_id":"ce4bhgh2rcd13ifvqfb0","pricing_plan_id":"cebpf4jnsgd1na2vs0mg"},{"bike_id":"d87e8435-a903-4228-b33e-bd6d66e6673b","system_id":"levelo_inurba_marseille","lat":43.24633,"lon":5.4315,"is_reserved":false,"is_disabled":false,"rental_uris":{"android":"levelo://app?vid=d87e8435-a903-4228-b33e-bd6d66e6673b","ios":"levelo://app?vid=d87e8435-a903-4228-b33e-bd6d66e6673b"},"vehicle_type_id":"4","last_reported":1762096110,"current_range_meters":12400,"station_id":"st_d2m6c4gdas8pm72e190g","pricing_plan_id":"cebpf4jnsgd1na2vs0mg"},{"bike_id":"b9e574de-e7b2-4b68-9f10-e39b30bee0b3","system_id":"levelo_inurba_marseille","lat":43.2861,"lon":5.35107,"is_reserved":false,"is_disabled":false,"rental_uris":{"android":"levelo://app?vid=b9e574de-e7b2-4b68-9f10-e39b30bee0b3","ios":"levelo://app?vid=b9e574de-e7b2-4b68-9f10-e39b30bee0b3"},"vehicle_type_id":"4","last_reported":1762096110,"current_range_meters":12800,"station_id":"ce4bhch2rcd13ifvqeug","pricing_plan_id":"cebpf4jnsgd1na2vs0mg"},{"bike_id":"492fd055-89bb-42a2-a751-ef8d256755f9","system_id":"levelo_inurba_marseille","lat":43.29578,"lon":5.39962,"is_reserved":false,"is_disabled":false,"rental_uris":{"android":"levelo://app?vid=492fd055-89bb-42a2-a751-ef8d256755f9","ios":"levelo://app?vid=492fd055-89bb-42a2-a751-ef8d256755f9"},"vehicle_type_id":"4","last_reported":1762096110,"current_range_meters":12800,"station_id":"ce4bh312rcd13ifvqdj0","pricing_plan_id":"cebpf4jnsgd1na2vs0mg"},{"bike_id":"e674e599-fd74-496b-88d1-c0da372626e9","system_id":"levelo_inurba_marseille","lat":43.21743,"lon":5.34619,"is_reserved":false,"is_disabled":false,"rental_uris":{"android":"levelo://app?vid=e674e599-fd74-496b-88d1-c0da372626e9","ios":"levelo://app?vid=e674e599-fd74-496b-88d1-c0da372626e9"},"vehicle_type_id":"4","last_reported":1762096110,"current_range_meters":12800,"station_id":"st_cvj6r9ubvosntc0bgbag","pricing_plan_id":"cebpf4jnsgd1na2vs0mg"},{"bike_id":"ebf85bdb-1a2b-49af-a88d-03e90d4c31b8","system_id":"levelo_inurba_marseille","lat":43.24107,"lon":5.36292,"is_reserved":false,"is_disabled":true,"rental_uris":{"android":"levelo://app?vid=ebf85bdb-1a2b-49af-a88d-03e90d4c31b8","ios":"levelo://app?vid=ebf85bdb-1a2b-49af-a88d-03e90d4c31b8"},"vehicle_type_id":"4","last_reported":1762096110,"current_range_meters":12800,"station_id":"","pricing_plan_id":"cebpf4jnsgd1na2vs0mg"},{"bike_id":"88cc8157-46ac-474b-823d-4fe837eeef51","system_id":"levelo_inurba_marseille","lat":43.2904,"lon":5.39963,"is_reserved":false,"is_disabled":false,"rental_uris":{"android":"levelo://app?vid=88cc8157-46ac-474b-823d-4fe837eeef51","ios":"levelo://app?vid=88cc8157-46ac-474b-823d-4fe837eeef51"},"vehicle_type_id":"4","last_reported":1762096110,"current_range_meters":12800,"station_id":"ce4bh392rcd13ifvqdm0","pricing_plan_id":"cebpf4jnsgd1na2vs0mg"},{"bike_id":"1ac41d76-5302-4530-8a0e-13b1069fc461","system_id":"levelo_inurba_marseille","lat":43.30252,"lon":5.40088,"is_reserved":false,"is_disabled":false,"rental_uris":{"android":"levelo://app?vid=1ac41d76-5302-4530-8a0e-13b1069fc461","ios":"levelo://app?vid=1ac41d76-5302-4530-8a0e-13b1069fc461"},"vehicle_type_id":"4","last_reported":1762096110,"current_range_meters":12800,"station_id":"ce4bgvh2rcd13ifvqcs0","pricing_plan_id":"cebpf4jnsgd1na2vs0mg"},{"bike_id":"8adef542-af60-4b61-8a5b-4b604c3bcfe4","system_id":"levelo_inurba_marseille","lat":43.246335,"lon":5.431462,"is_reserved":false,"is_disabled":false,"rental_uris":{"android":"levelo://app?vid=8adef542-af60-4b61-8a5b-4b604c3bcfe4","ios":"levelo://app?vid=8adef542-af60-4b61-8a5b-4b604c3bcfe4"},"vehicle_type_id":"4","last_reported":1762096110,"current_range_meters":12800,"station_id":"st_d2m6c4gdas8pm72e190g","pricing_plan_id":"cebpf4jnsgd1na2vs0mg"},{"bike_id":"079d2352-ba60-4c63-b7a4-6ec0ccf76dcc","system_id":"levelo_inurba_marseille","lat":43.25726,"lon":5.41138,"is_reserved":false,"is_disabled":false,"rental_uris":{"android":"levelo://app?vid=079d2352-ba60-4c63-b7a4-6ec0ccf76dcc","ios":"levelo://app?vid=079d2352-ba60-4c63-b7a4-6ec0ccf76dcc"},"vehicle_type_id":"4","last_reported":1762096110,"current_range_meters":13600,"station_id":"ce4bhkp2rcd13ifvqgd0","pricing_plan_id":"cebpf4jnsgd1na2vs0mg"},{"bike_id":"77679107-31f6-4769-888c-bfa8b6d2bccd","system_id":"levelo_inurba_marseille","lat":43.28865,"lon":5.42528,"is_reserved":false,"is_disabled":false,"rental_uris":{"android":"levelo://app?vid=77679107-31f6-4769-888c-bfa8b6d2bccd","ios":"levelo://app?vid=77679107-31f6-4769-888c-bfa8b6d2bccd"},"vehicle_type_id":"4","last_reported":1762096110,"current_range_meters":13600,"station_id":"st_d3b462108ojc7389ooeg","pricing_plan_id":"cebpf4jnsgd1na2vs0mg"},{"bike_id":"8f37d7b9-05da-4937-8327-280e878574fe","system_id":"levelo_inurba_marseille","lat":43.30423,"lon":5.397558,"is_reserved":false,"is_disabled":true,"rental_uris":{"android":"levelo://app?vid=8f37d7b9-05da-4937-8327-280e878574fe","ios":"levelo://app?vid=8f37d7b9-05da-4937-8327-280e878574fe"},"vehicle_type_id":"4","last_reported":1762096110,"current_range_meters":13600,"station_id":"","pricing_plan_id":"cebpf4jnsgd1na2vs0mg"},{"bike_id":"25b8b9c6-92a5-43d3-8767-0700e7c7de1c","system_id":"levelo_inurba_marseille","lat":43.294583,"lon":5.375817,"is_reserved":false,"is_disabled":false,"rental_uris":{"android":"levelo://app?vid=25b8b9c6-92a5-43d3-8767-0700e7c7de1c","ios":"levelo://app?vid=25b8b9c6-92a5-43d3-8767-0700e7c7de1c"},"vehicle_type_id":"4","last_reported":1762096110,"current_range_meters":13600,"station_id":"","pricing_plan_id":"cebpf4jnsgd1na2vs0mg"},{"bike_id":"223dd6ae-6301-4245-b56b-7f9481b6fc9e","system_id":"levelo_inurba_marseille","lat":43.26557,"lon":5.39009,"is_reserved":false,"is_disabled":false,"rental_uris":{"android":"levelo://app?vid=223dd6ae-6301-4245-b56b-7f9481b6fc9e","ios":"levelo://app?vid=223dd6ae-6301-4245-b56b-7f9481b6fc9e"},"vehicle_type_id":"4","last_reported":1762096110,"current_range_meters":13600,"station_id":"ce4bhe12rcd13ifvqf30","pricing_plan_id":"cebpf4jnsgd1na2vs0mg"},{"bike_id":"56db4af6-5ebe-4c8e-89fe-c2f84e3bd7df","system_id":"levelo_inurba_marseille","lat":43.305936,"lon":5.393648,"is_reserved":false,"is_disabled":false,"rental_uris":{"android":"levelo://app?vid=56db4af6-5ebe-4c8e-89fe-c2f84e3bd7df","ios":"levelo://app?vid=56db4af6-5ebe-4c8e-89fe-c2f84e3bd7df"},"vehicle_type_id":"4","last_reported":1762096110,"current_range_meters":13600,"station_id":"ce4bh0p2rcd13ifvqd80","pricing_plan_id":"cebpf4jnsgd1na2vs0mg"},{"bike_id":"14b92a7a-0805-475a-abfd-8c979184b42b","system_id":"levelo_inurba_marseille","lat":43.30994,"lon":5.370295,"is_reserved":false,"is_disabled":false,"rental_uris":{"android":"levelo://app?vid=14b92a7a-0805-475a-abfd-8c979184b42b","ios":"levelo://app?vid=14b92a7a-0805-475a-abfd-8c979184b42b"},"vehicle_type_id":"4","last_reported":1762096110,"current_range_meters":14000,"station_id":"","pricing_plan_id":"cebpf4jnsgd1na2vs0mg"},{"bike_id":"423802bb-722e-4533-9018-c0f75cce34a6","system_id":"levelo_inurba_marseille","lat":43.30668,"lon":5.381741,"is_reserved":false,"is_disabled":false,"rental_uris":{"android":"levelo://app?vid=423802bb-722e-4533-9018-c0f75cce34a6","ios":"levelo://app?vid=423802bb-722e-4533-9018-c0f75cce34a6"},"vehicle_type_id":"4","last_reported":1762096110,"current_range_meters":14400,"station_id":"","pricing_plan_id":"cebpf4jnsgd1na2vs0mg"},{"bike_id":"c53984a3-a237-456c-9fd4-09478c03ddbc","system_id":"levelo_inurba_marseille","lat":43.248024,"lon":5.374547,"is_reserved":false,"is_disabled":false,"rental_uris":{"android":"levelo://app?vid=c53984a3-a237-456c-9fd4-09478c03ddbc","ios":"levelo://app?vid=c53984a3-a237-456c-9fd4-09478c03ddbc"},"vehicle_type_id":"4","last_reported":1762096110,"current_range_meters":14400,"station_id":"ce4bhgh2rcd13ifvqfb0","pricing_plan_id":"cebpf4jnsgd1na2vs0mg"},{"bike_id":"9a8800fa-24be-4848-a250-19e32415acb4","system_id":"levelo_inurba_marseille","lat":43.2119,"lon":5.35074,"is_reserved":false,"is_disabled":false,"rental_uris":{"android":"levelo://app?vid=9a8800fa-24be-4848-a250-19e32415acb4","ios":"levelo://app?vid=9a8800fa-24be-4848-a250-19e32415acb4"},"vehicle_type_id":"4","last_reported":1762096110,"current_range_meters":14400,"station_id":"st_cvj6sg6p6f1abm77japg","pricing_plan_id":"cebpf4jnsgd1na2vs0mg"},{"bike_id":"6a291482-a99a-41d7-bc23-cf97de15042d","system_id":"levelo_inurba_marseille","lat":43.32453,"lon":5.36547,"is_reserved":false,"is_disabled":false,"rental_uris":{"android":"levelo://app?vid=6a291482-a99a-41d7-bc23-cf97de15042d","ios":"levelo://app?vid=6a291482-a99a-41d7-bc23-cf97de15042d"},"vehicle_type_id":"4","last_reported":1762096110,"current_range_meters":14400,"station_id":"ce4bhs12rcd13ifvqhvg","pricing_plan_id":"cebpf4jnsgd1na2vs0mg"},{"bike_id":"aad6a064-c048-4ba9-a156-1745b89548aa","system_id":"levelo_inurba_marseille","lat":43.28326,"lon":5.41073,"is_reserved":false,"is_disabled":false,"rental_uris":{"android":"levelo://app?vid=aad6a064-c048-4ba9-a156-1745b89548aa","ios":"levelo://app?vid=aad6a064-c048-4ba9-a156-1745b89548aa"},"vehicle_type_id":"4","last_reported":1762096110,"current_range_meters":14400,"station_id":"","pricing_plan_id":"cebpf4jnsgd1na2vs0mg"},{"bike_id":"6e244977-02fa-4467-8283-e82939440e39","system_id":"levelo_inurba_marseille","lat":43.27209,"lon":5.39181,"is_reserved":false,"is_disabled":false,"rental_uris":{"android":"levelo://app?vid=6e244977-02fa-4467-8283-e82939440e39","ios":"levelo://app?vid=6e244977-02fa-4467-8283-e82939440e39"},"vehicle_type_id":"4","last_reported":1762096110,"current_range_meters":14400,"station_id":"ce4bhhp2rcd13ifvqfm0","pricing_plan_id":"cebpf4jnsgd1na2vs0mg"},{"bike_id":"60b10b0c-dda4-443c-95a6-fb16f29b9b08","system_id":"levelo_inurba_marseille","lat":43.30889,"lon":5.37199,"is_reserved":false,"is_disabled":false,"rental_uris":{"android":"levelo://app?vid=60b10b0c-dda4-443c-95a6-fb16f29b9b08","ios":"levelo://app?vid=60b10b0c-dda4-443c-95a6-fb16f29b9b08"},"vehicle_type_id":"4","last_reported":1762096110,"current_range_meters":14800,"station_id":"ce4bguh2rcd13ifvqckg","pricing_plan_id":"cebpf4jnsgd1na2vs0mg"},{"bike_id":"066ede02-47a2-4c83-bcb1-7eb633a370fb","system_id":"levelo_inurba_marseille","lat":43.31272,"lon":5.377539,"is_reserved":false,"is_disabled":false,"rental_uris":{"android":"levelo://app?vid=066ede02-47a2-4c83-bcb1-7eb633a370fb","ios":"levelo://app?vid=066ede02-47a2-4c83-bcb1-7eb633a370fb"},"vehicle_type_id":"4","last_reported":1762096110,"current_range_meters":14800,"station_id":"","pricing_plan_id":"cebpf4jnsgd1na2vs0mg"},{"bike_id":"3b2cc102-fff5-4749-acc0-fdc81b1a6263","system_id":"levelo_inurba_marseille","lat":43.24178,"lon":5.39732,"is_reserved":false,"is_disabled":false,"rental_uris":{"android":"levelo://app?vid=3b2cc102-fff5-4749-acc0-fdc81b1a6263","ios":"levelo://app?vid=3b2cc102-fff5-4749-acc0-fdc81b1a6263"},"vehicle_type_id":"4","last_reported":1762096110,"current_range_meters":14800,"station_id":"ce4bhn12rcd13ifvqgpg","pricing_plan_id":"cebpf4jnsgd1na2vs0mg"},{"bike_id":"3b002663-f7ae-4299-aebb-5ad94154d485","system_id":"levelo_inurba_marseille","lat":43.2957,"lon":5.39968,"is_reserved":false,"is_disabled":false,"rental_uris":{"android":"levelo://app?vid=3b002663-f7ae-4299-aebb-5ad94154d485","ios":"levelo://app?vid=3b002663-f7ae-4299-aebb-5ad94154d485"},"vehicle_type_id":"4","last_reported":1762096110,"current_range_meters":14800,"station_id":"ce4bh312rcd13ifvqdj0","pricing_plan_id":"cebpf4jnsgd1na2vs0mg"},{"bike_id":"2ff20ab9-b52b-4e51-beea-738711729e0e","system_id":"levelo_inurba_marseille","lat":43.21193,"lon":5.35076,"is_reserved":false,"is_disabled":false,"rental_uris":{"android":"levelo://app?vid=2ff20ab9-b52b-4e51-beea-738711729e0e","ios":"levelo://app?vid=2ff20ab9-b52b-4e51-beea-738711729e0e"},"vehicle_type_id":"4","last_reported":1762096110,"current_range_meters":14800,"station_id":"st_cvj6sg6p6f1abm77japg","pricing_plan_id":"cebpf4jnsgd1na2vs0mg"},{"bike_id":"c3aec372-8e56-4d71-9f57-0beca3c25b47","system_id":"levelo_inurba_marseille","lat":43.301238,"lon":5.398583,"is_reserved":false,"is_disabled":false,"rental_uris":{"android":"levelo://app?vid=c3aec372-8e56-4d71-9f57-0beca3c25b47","ios":"levelo://app?vid=c3aec372-8e56-4d71-9f57-0beca3c25b47"},"vehicle_type_id":"4","last_reported":1762096110,"current_range_meters":14800,"station_id":"ce4bh0h2rcd13ifvqd40","pricing_plan_id":"cebpf4jnsgd1na2vs0mg"},{"bike_id":"547cb632-8ca9-4277-bd16-a49ce0865b4b","system_id":"levelo_inurba_marseille","lat":43.28427,"lon":5.34991,"is_reserved":false,"is_disabled":false,"rental_uris":{"android":"levelo://app?vid=547cb632-8ca9-4277-bd16-a49ce0865b4b","ios":"levelo://app?vid=547cb632-8ca9-4277-bd16-a49ce0865b4b"},"vehicle_type_id":"4","last_reported":1762096110,"current_range_meters":15200,"station_id":"ce4bhbh2rcd13ifvqepg","pricing_plan_id":"cebpf4jnsgd1na2vs0mg"},{"bike_id":"aef75ae5-d606-43b6-8ba5-d53a35c16de5","system_id":"levelo_inurba_marseille","lat":43.27425,"lon":5.39422,"is_reserved":false,"is_disabled":true,"rental_uris":{"android":"levelo://app?vid=aef75ae5-d606-43b6-8ba5-d53a35c16de5","ios":"levelo://app?vid=aef75ae5-d606-43b6-8ba5-d53a35c16de5"},"vehicle_type_id":"4","last_reported":1762096110,"current_range_meters":15200,"station_id":"ce4bhdp2rcd13ifvqf20","pricing_plan_id":"cebpf4jnsgd1na2vs0mg"},{"bike_id":"99077205-201b-471a-9cf6-9deaeb0da8bc","system_id":"levelo_inurba_marseille","lat":43.30955,"lon":5.39039,"is_reserved":false,"is_disabled":false,"rental_uris":{"android":"levelo://app?vid=99077205-201b-471a-9cf6-9deaeb0da8bc","ios":"levelo://app?vid=99077205-201b-471a-9cf6-9deaeb0da8bc"},"vehicle_type_id":"4","last_reported":1762096110,"current_range_meters":15200,"station_id":"ce4bgup2rcd13ifvqco0","pricing_plan_id":"cebpf4jnsgd1na2vs0mg"},{"bike_id":"a86e4117-515a-45fd-a9ae-9bf165d5c212","system_id":"levelo_inurba_marseille","lat":43.312825,"lon":5.378081,"is_reserved":false,"is_disabled":false,"rental_uris":{"android":"levelo://app?vid=a86e4117-515a-45fd-a9ae-9bf165d5c212","ios":"levelo://app?vid=a86e4117-515a-45fd-a9ae-9bf165d5c212"},"vehicle_type_id":"4","last_reported":1762096110,"current_range_meters":15200,"station_id":"ce4bhc92rcd13ifvqetg","pricing_plan_id":"cebpf4jnsgd1na2vs0mg"},{"bike_id":"6a1cc001-3bc9-4225-8e3c-d058d9b19e8e","system_id":"levelo_inurba_marseille","lat":43.24635,"lon":5.4315,"is_reserved":false,"is_disabled":false,"rental_uris":{"android":"levelo://app?vid=6a1cc001-3bc9-4225-8e3c-d058d9b19e8e","ios":"levelo://app?vid=6a1cc001-3bc9-4225-8e3c-d058d9b19e8e"},"vehicle_type_id":"4","last_reported":1762096110,"current_range_meters":15200,"station_id":"st_d2m6c4gdas8pm72e190g","pricing_plan_id":"cebpf4jnsgd1na2vs0mg"},{"bike_id":"6eb523a4-350d-4959-ac5e-1335d8f70954","system_id":"levelo_inurba_marseille","lat":43.315717,"lon":5.406423,"is_reserved":false,"is_disabled":false,"rental_uris":{"android":"levelo://app?vid=6eb523a4-350d-4959-ac5e-1335d8f70954","ios":"levelo://app?vid=6eb523a4-350d-4959-ac5e-1335d8f70954"},"vehicle_type_id":"4","last_reported":1762096110,"current_range_meters":15200,"station_id":"","pricing_plan_id":"cebpf4jnsgd1na2vs0mg"},{"bike_id":"1638106e-aab3-49a6-8ec3-b8f59470730f","system_id":"levelo_inurba_marseille","lat":43.29578,"lon":5.3674,"is_reserved":false,"is_disabled":false,"rental_uris":{"android":"levelo://app?vid=1638106e-aab3-49a6-8ec3-b8f59470730f","ios":"levelo://app?vid=1638106e-aab3-49a6-8ec3-b8f59470730f"},"vehicle_type_id":"4","last_reported":1762096110,"current_range_meters":15200,"station_id":"ce4bgph2rcd13ifvqc2g","pricing_plan_id":"cebpf4jnsgd1na2vs0mg"},{"bike_id":"ea981441-de44-4e91-a60f-0f3605343256","system_id":"levelo_inurba_marseille","lat":43.32361,"lon":5.3675,"is_reserved":false,"is_disabled":false,"rental_uris":{"android":"levelo://app?vid=ea981441-de44-4e91-a60f-0f3605343256","ios":"levelo://app?vid=ea981441-de44-4e91-a60f-0f3605343256"},"vehicle_type_id":"4","last_reported":1762096110,"current_range_meters":15200,"station_id":"ce4bhsh2rcd13ifvqi2g","pricing_plan_id":"cebpf4jnsgd1na2vs0mg"},{"bike_id":"8ab76212-fee3-44ef-96fc-b0d52e0d24a0","system_id":"levelo_inurba_marseille","lat":43.269304,"lon":5.389194,"is_reserved":false,"is_disabled":false,"rental_uris":{"android":"levelo://app?vid=8ab76212-fee3-44ef-96fc-b0d52e0d24a0","ios":"levelo://app?vid=8ab76212-fee3-44ef-96fc-b0d52e0d24a0"},"vehicle_type_id":"4","last_reported":1762096110,"current_range_meters":16000,"station_id":"ce4bhhh2rcd13ifvqfl0","pricing_plan_id":"cebpf4jnsgd1na2vs0mg"},{"bike_id":"59218245-3e1f-42b9-a47b-aac4d2062124","system_id":"levelo_inurba_marseille","lat":43.23147,"lon":5.43716,"is_reserved":false,"is_disabled":false,"rental_uris":{"android":"levelo://app?vid=59218245-3e1f-42b9-a47b-aac4d2062124","ios":"levelo://app?vid=59218245-3e1f-42b9-a47b-aac4d2062124"},"vehicle_type_id":"4","last_reported":1762096110,"current_range_meters":16000,"station_id":"ce4bhmp2rcd13ifvqgog","pricing_plan_id":"cebpf4jnsgd1na2vs0mg"},{"bike_id":"8015b7d6-bc9b-4269-b31c-ac60ba8c2053","system_id":"levelo_inurba_marseille","lat":43.21195,"lon":5.3507,"is_reserved":false,"is_disabled":false,"rental_uris":{"android":"levelo://app?vid=8015b7d6-bc9b-4269-b31c-ac60ba8c2053","ios":"levelo://app?vid=8015b7d6-bc9b-4269-b31c-ac60ba8c2053"},"vehicle_type_id":"4","last_reported":1762096110,"current_range_meters":16000,"station_id":"st_cvj6sg6p6f1abm77japg","pricing_plan_id":"cebpf4jnsgd1na2vs0mg"},{"bike_id":"1c7e9560-2754-4a88-b1cb-cdee38fc1289","system_id":"levelo_inurba_marseille","lat":43.26939,"lon":5.40265,"is_reserved":false,"is_disabled":true,"rental_uris":{"android":"levelo://app?vid=1c7e9560-2754-4a88-b1cb-cdee38fc1289","ios":"levelo://app?vid=1c7e9560-2754-4a88-b1cb-cdee38fc1289"},"vehicle_type_id":"4","last_reported":1762096110,"current_range_meters":16000,"station_id":"cjm6bp8fraef2m0cb0m0","pricing_plan_id":"cebpf4jnsgd1na2vs0mg"},{"bike_id":"4910d7c4-d705-49db-9cc8-a10f1ea5e134","system_id":"levelo_inurba_marseille","lat":43.29903,"lon":5.37189,"is_reserved":false,"is_disabled":false,"rental_uris":{"android":"levelo://app?vid=4910d7c4-d705-49db-9cc8-a10f1ea5e134","ios":"levelo://app?vid=4910d7c4-d705-49db-9cc8-a10f1ea5e134"},"vehicle_type_id":"4","last_reported":1762096110,"current_range_meters":16000,"station_id":"","pricing_plan_id":"cebpf4jnsgd1na2vs0mg"},{"bike_id":"fcc7a5b9-eb88-45bf-aebf-cf96cca8c3ef","system_id":"levelo_inurba_marseille","lat":43.24662,"lon":5.3816,"is_reserved":false,"is_disabled":false,"rental_uris":{"android":"levelo://app?vid=fcc7a5b9-eb88-45bf-aebf-cf96cca8c3ef","ios":"levelo://app?vid=fcc7a5b9-eb88-45bf-aebf-cf96cca8c3ef"},"vehicle_type_id":"4","last_reported":1762096110,"current_range_meters":16000,"station_id":"ce4bhih2rcd13ifvqfr0","pricing_plan_id":"cebpf4jnsgd1na2vs0mg"},{"bike_id":"fe2272ea-7316-4280-b90c-d8c4db7bc73e","system_id":"levelo_inurba_marseille","lat":43.27926,"lon":5.39316,"is_reserved":false,"is_disabled":false,"rental_uris":{"android":"levelo://app?vid=fe2272ea-7316-4280-b90c-d8c4db7bc73e","ios":"levelo://app?vid=fe2272ea-7316-4280-b90c-d8c4db7bc73e"},"vehicle_type_id":"4","last_reported":1762096110,"current_range_meters":16000,"station_id":"","pricing_plan_id":"cebpf4jnsgd1na2vs0mg"},{"bike_id":"aa56963e-5f6a-4043-b1c7-23e4d9f05d8c","system_id":"levelo_inurba_marseille","lat":43.313499,"lon":5.379119,"is_reserved":false,"is_disabled":false,"rental_uris":{"android":"levelo://app?vid=aa56963e-5f6a-4043-b1c7-23e4d9f05d8c","ios":"levelo://app?vid=aa56963e-5f6a-4043-b1c7-23e4d9f05d8c"},"vehicle_type_id":"4","last_reported":1762096110,"current_range_meters":16000,"station_id":"","pricing_plan_id":"cebpf4jnsgd1na2vs0mg"},{"bike_id":"0da2336f-28bf-4133-bfe7-ad4a93be72a9","system_id":"levelo_inurba_marseille","lat":43.29311,"lon":5.37187,"is_reserved":false,"is_disabled":false,"rental_uris":{"android":"levelo://app?vid=0da2336f-28bf-4133-bfe7-ad4a93be72a9","ios":"levelo://app?vid=0da2336f-28bf-4133-bfe7-ad4a93be72a9"},"vehicle_type_id":"4","last_reported":1762096110,"current_range_meters":16000,"station_id":"ce4bgh92rcd13ifvqb40","pricing_plan_id":"cebpf4jnsgd1na2vs0mg"},{"bike_id":"02ab0480-1393-487e-95a2-314141ae01bf","system_id":"levelo_inurba_marseille","lat":43.28149,"lon":5.42653,"is_reserved":false,"is_disabled":false,"rental_uris":{"android":"levelo://app?vid=02ab0480-1393-487e-95a2-314141ae01bf","ios":"levelo://app?vid=02ab0480-1393-487e-95a2-314141ae01bf"},"vehicle_type_id":"4","last_reported":1762096110,"current_range_meters":16400,"station_id":"ce4bhnh2rcd13ifvqgug","pricing_plan_id":"cebpf4jnsgd1na2vs0mg"},{"bike_id":"85d8043d-b929-43f8-9188-ad421047c360","system_id":"levelo_inurba_marseille","lat":43.25337,"lon":5.4219,"is_reserved":false,"is_disabled":false,"rental_uris":{"android":"levelo://app?vid=85d8043d-b929-43f8-9188-ad421047c360","ios":"levelo://app?vid=85d8043d-b929-43f8-9188-ad421047c360"},"vehicle_type_id":"4","last_reported":1762096110,"current_range_meters":16400,"station_id":"st_d2m65c5bi1j21697t3ng","pricing_plan_id":"cebpf4jnsgd1na2vs0mg"},{"bike_id":"6dbae8fb-b558-4de5-931e-260b80081062","system_id":"levelo_inurba_marseille","lat":43.298975,"lon":5.436556,"is_reserved":false,"is_disabled":false,"rental_uris":{"android":"levelo://app?vid=6dbae8fb-b558-4de5-931e-260b80081062","ios":"levelo://app?vid=6dbae8fb-b558-4de5-931e-260b80081062"},"vehicle_type_id":"4","last_reported":1762096110,"current_range_meters":16400,"station_id":"ce4bhpp2rcd13ifvqhfg","pricing_plan_id":"cebpf4jnsgd1na2vs0mg"},{"bike_id":"b0f13743-8000-4cf9-9975-6d3a0b7effc8","system_id":"levelo_inurba_marseille","lat":43.30614,"lon":5.37175,"is_reserved":false,"is_disabled":false,"rental_uris":{"android":"levelo://app?vid=b0f13743-8000-4cf9-9975-6d3a0b7effc8","ios":"levelo://app?vid=b0f13743-8000-4cf9-9975-6d3a0b7effc8"},"vehicle_type_id":"4","last_reported":1762096110,"current_range_meters":16400,"station_id":"ce4bgqh2rcd13ifvqc4g","pricing_plan_id":"cebpf4jnsgd1na2vs0mg"},{"bike_id":"36459938-6c95-4b4c-a1a2-3e0f1fc043f2","system_id":"levelo_inurba_marseille","lat":43.2925,"lon":5.40906,"is_reserved":false,"is_disabled":false,"rental_uris":{"android":"levelo://app?vid=36459938-6c95-4b4c-a1a2-3e0f1fc043f2","ios":"levelo://app?vid=36459938-6c95-4b4c-a1a2-3e0f1fc043f2"},"vehicle_type_id":"4","last_reported":1762096110,"current_range_meters":16400,"station_id":"ce4bh192rcd13ifvqdc0","pricing_plan_id":"cebpf4jnsgd1na2vs0mg"},{"bike_id":"cc475582-0cc3-4b14-a66c-6041b0d2e976","system_id":"levelo_inurba_marseille","lat":43.29335,"lon":5.41178,"is_reserved":false,"is_disabled":false,"rental_uris":{"android":"levelo://app?vid=cc475582-0cc3-4b14-a66c-6041b0d2e976","ios":"levelo://app?vid=cc475582-0cc3-4b14-a66c-6041b0d2e976"},"vehicle_type_id":"4","last_reported":1762096110,"current_range_meters":16400,"station_id":"","pricing_plan_id":"cebpf4jnsgd1na2vs0mg"},{"bike_id":"9419aa04-20ae-4387-a35b-f1f108525401","system_id":"levelo_inurba_marseille","lat":43.29845,"lon":5.3629,"is_reserved":false,"is_disabled":false,"rental_uris":{"android":"levelo://app?vid=9419aa04-20ae-4387-a35b-f1f108525401","ios":"levelo://app?vid=9419aa04-20ae-4387-a35b-f1f108525401"},"vehicle_type_id":"4","last_reported":1762096110,"current_range_meters":16400,"station_id":"ce4bgpp2rcd13ifvqc3g","pricing_plan_id":"cebpf4jnsgd1na2vs0mg"},{"bike_id":"e6d1d7dd-5312-4741-8958-9c50f732d056","system_id":"levelo_inurba_marseille","lat":43.2848,"lon":5.38429,"is_reserved":false,"is_disabled":false,"rental_uris":{"android":"levelo://app?vid=e6d1d7dd-5312-4741-8958-9c50f732d056","ios":"levelo://app?vid=e6d1d7dd-5312-4741-8958-9c50f732d056"},"vehicle_type_id":"4","last_reported":1762096110,"current_range_meters":16400,"station_id":"ce4bh512rcd13ifvqe3g","pricing_plan_id":"cebpf4jnsgd1na2vs0mg"},{"bike_id":"d195f369-678f-4631-9fc7-7fcedc7e3963","system_id":"levelo_inurba_marseille","lat":43.290314,"lon":5.375464,"is_reserved":false,"is_disabled":false,"rental_uris":{"android":"levelo://app?vid=d195f369-678f-4631-9fc7-7fcedc7e3963","ios":"levelo://app?vid=d195f369-678f-4631-9fc7-7fcedc7e3963"},"vehicle_type_id":"4","last_reported":1762096110,"current_range_meters":16400,"station_id":"ce4bh692rcd13ifvqe90","pricing_plan_id":"cebpf4jnsgd1na2vs0mg"},{"bike_id":"5477c7f8-a772-48db-a5b3-ba769641e22b","system_id":"levelo_inurba_marseille","lat":43.32484,"lon":5.36563,"is_reserved":false,"is_disabled":false,"rental_uris":{"android":"levelo://app?vid=5477c7f8-a772-48db-a5b3-ba769641e22b","ios":"levelo://app?vid=5477c7f8-a772-48db-a5b3-ba769641e22b"},"vehicle_type_id":"4","last_reported":1762096110,"current_range_meters":16400,"station_id":"ce4bhs12rcd13ifvqhvg","pricing_plan_id":"cebpf4jnsgd1na2vs0mg"},{"bike_id":"0a54d18f-fe43-4be5-a009-461a89594788","system_id":"levelo_inurba_marseille","lat":43.28268,"lon":5.35061,"is_reserved":false,"is_disabled":true,"rental_uris":{"android":"levelo://app?vid=0a54d18f-fe43-4be5-a009-461a89594788","ios":"levelo://app?vid=0a54d18f-fe43-4be5-a009-461a89594788"},"vehicle_type_id":"4","last_reported":1762096110,"current_range_meters":16800,"station_id":"ce4bhbp2rcd13ifvqerg","pricing_plan_id":"cebpf4jnsgd1na2vs0mg"},{"bike_id":"65959e76-2dec-43d3-b15c-b4e7433182fd","system_id":"levelo_inurba_marseille","lat":43.293631,"lon":5.371955,"is_reserved":false,"is_disabled":false,"rental_uris":{"android":"levelo://app?vid=65959e76-2dec-43d3-b15c-b4e7433182fd","ios":"levelo://app?vid=65959e76-2dec-43d3-b15c-b4e7433182fd"},"vehicle_type_id":"4","last_reported":1762096110,"current_range_meters":16800,"station_id":"","pricing_plan_id":"cebpf4jnsgd1na2vs0mg"},{"bike_id":"123ec047-d6a2-4308-aee4-8ec0b2bea538","system_id":"levelo_inurba_marseille","lat":43.231946,"lon":5.35556,"is_reserved":false,"is_disabled":false,"rental_uris":{"android":"levelo://app?vid=123ec047-d6a2-4308-aee4-8ec0b2bea538","ios":"levelo://app?vid=123ec047-d6a2-4308-aee4-8ec0b2bea538"},"vehicle_type_id":"4","last_reported":1762096110,"current_range_meters":16800,"station_id":"ce4bhu92rcd13ifvqi70","pricing_plan_id":"cebpf4jnsgd1na2vs0mg"},{"bike_id":"098d7ae5-5b2b-4d49-ad2f-d14f29937957","system_id":"levelo_inurba_marseille","lat":43.289657,"lon":5.37833,"is_reserved":false,"is_disabled":true,"rental_uris":{"android":"levelo://app?vid=098d7ae5-5b2b-4d49-ad2f-d14f29937957","ios":"levelo://app?vid=098d7ae5-5b2b-4d49-ad2f-d14f29937957"},"vehicle_type_id":"4","last_reported":1762096110,"current_range_meters":16800,"station_id":"ce4bh9p2rcd13ifvqed0","pricing_plan_id":"cebpf4jnsgd1na2vs0mg"},{"bike_id":"f10c1fd0-819c-4bcb-a779-837cb537741a","system_id":"levelo_inurba_marseille","lat":43.29486,"lon":5.37466,"is_reserved":false,"is_disabled":false,"rental_uris":{"android":"levelo://app?vid=f10c1fd0-819c-4bcb-a779-837cb537741a","ios":"levelo://app?vid=f10c1fd0-819c-4bcb-a779-837cb537741a"},"vehicle_type_id":"4","last_reported":1762096110,"current_range_meters":16800,"station_id":"","pricing_plan_id":"cebpf4jnsgd1na2vs0mg"},{"bike_id":"ba8b4c9a-b12c-4a72-9794-a260a35ff235","system_id":"levelo_inurba_marseille","lat":43.23962,"lon":5.36641,"is_reserved":false,"is_disabled":false,"rental_uris":{"android":"levelo://app?vid=ba8b4c9a-b12c-4a72-9794-a260a35ff235","ios":"levelo://app?vid=ba8b4c9a-b12c-4a72-9794-a260a35ff235"},"vehicle_type_id":"4","last_reported":1762096110,"current_range_meters":16800,"station_id":"ce4bhi12rcd13ifvqfp0","pricing_plan_id":"cebpf4jnsgd1na2vs0mg"},{"bike_id":"cb8fab9a-57cb-465f-a68e-9b97f842a5ea","system_id":"levelo_inurba_marseille","lat":43.292676,"lon":5.368345,"is_reserved":false,"is_disabled":false,"rental_uris":{"android":"levelo://app?vid=cb8fab9a-57cb-465f-a68e-9b97f842a5ea","ios":"levelo://app?vid=cb8fab9a-57cb-465f-a68e-9b97f842a5ea"},"vehicle_type_id":"4","last_reported":1762096110,"current_range_meters":16800,"station_id":"ce4bhbp2rcd13ifvqesg","pricing_plan_id":"cebpf4jnsgd1na2vs0mg"},{"bike_id":"ce6e326b-e5a7-43ba-83ca-34195df4695b","system_id":"levelo_inurba_marseille","lat":43.246287,"lon":5.431474,"is_reserved":false,"is_disabled":false,"rental_uris":{"android":"levelo://app?vid=ce6e326b-e5a7-43ba-83ca-34195df4695b","ios":"levelo://app?vid=ce6e326b-e5a7-43ba-83ca-34195df4695b"},"vehicle_type_id":"4","last_reported":1762096110,"current_range_meters":16800,"station_id":"st_d2m6c4gdas8pm72e190g","pricing_plan_id":"cebpf4jnsgd1na2vs0mg"},{"bike_id":"1f4bf620-5a86-4131-b1aa-491aa828d1ad","system_id":"levelo_inurba_marseille","lat":43.25109,"lon":5.39468,"is_reserved":false,"is_disabled":false,"rental_uris":{"android":"levelo://app?vid=1f4bf620-5a86-4131-b1aa-491aa828d1ad","ios":"levelo://app?vid=1f4bf620-5a86-4131-b1aa-491aa828d1ad"},"vehicle_type_id":"4","last_reported":1762096110,"current_range_meters":17200,"station_id":"ce4bhm12rcd13ifvqgkg","pricing_plan_id":"cebpf4jnsgd1na2vs0mg"},{"bike_id":"082a1fc9-fa33-4385-8dc2-797cf958a64d","system_id":"levelo_inurba_marseille","lat":43.30791,"lon":5.43535,"is_reserved":false,"is_disabled":false,"rental_uris":{"android":"levelo://app?vid=082a1fc9-fa33-4385-8dc2-797cf958a64d","ios":"levelo://app?vid=082a1fc9-fa33-4385-8dc2-797cf958a64d"},"vehicle_type_id":"4","last_reported":1762096110,"current_range_meters":17200,"station_id":"","pricing_plan_id":"cebpf4jnsgd1na2vs0mg"},{"bike_id":"e37a3e06-24f5-4130-8d50-b62005271d50","system_id":"levelo_inurba_marseille","lat":43.241617,"lon":5.363934,"is_reserved":false,"is_disabled":false,"rental_uris":{"android":"levelo://app?vid=e37a3e06-24f5-4130-8d50-b62005271d50","ios":"levelo://app?vid=e37a3e06-24f5-4130-8d50-b62005271d50"},"vehicle_type_id":"4","last_reported":1762096110,"current_range_meters":17200,"station_id":"cpo36qri1sfpv3e86is0","pricing_plan_id":"cebpf4jnsgd1na2vs0mg"},{"bike_id":"71d30f73-c7cf-460d-bade-562daa7e1043","system_id":"levelo_inurba_marseille","lat":43.273155,"lon":5.39058,"is_reserved":false,"is_disabled":false,"rental_uris":{"android":"levelo://app?vid=71d30f73-c7cf-460d-bade-562daa7e1043","ios":"levelo://app?vid=71d30f73-c7cf-460d-bade-562daa7e1043"},"vehicle_type_id":"4","last_reported":1762096110,"current_range_meters":17200,"station_id":"ce4bhmh2rcd13ifvqgmg","pricing_plan_id":"cebpf4jnsgd1na2vs0mg"},{"bike_id":"41a0e05b-05bf-4f74-92d2-741c85fb6fe4","system_id":"levelo_inurba_marseille","lat":43.25514,"lon":5.37695,"is_reserved":false,"is_disabled":true,"rental_uris":{"android":"levelo://app?vid=41a0e05b-05bf-4f74-92d2-741c85fb6fe4","ios":"levelo://app?vid=41a0e05b-05bf-4f74-92d2-741c85fb6fe4"},"vehicle_type_id":"4","last_reported":1762096110,"current_range_meters":17200,"station_id":"ce4bhh12rcd13ifvqff0","pricing_plan_id":"cebpf4jnsgd1na2vs0mg"},{"bike_id":"b2514755-0f11-4833-b225-7d1f8289efa4","system_id":"levelo_inurba_marseille","lat":43.22919,"lon":5.35385,"is_reserved":false,"is_disabled":false,"rental_uris":{"android":"levelo://app?vid=b2514755-0f11-4833-b225-7d1f8289efa4","ios":"levelo://app?vid=b2514755-0f11-4833-b225-7d1f8289efa4"},"vehicle_type_id":"4","last_reported":1762096110,"current_range_meters":17200,"station_id":"cpo3532slgdg3j2ikp40","pricing_plan_id":"cebpf4jnsgd1na2vs0mg"},{"bike_id":"609aa62b-6b42-43fc-b33d-a59982117e81","system_id":"levelo_inurba_marseille","lat":43.27444,"lon":5.39356,"is_reserved":false,"is_disabled":true,"rental_uris":{"android":"levelo://app?vid=609aa62b-6b42-43fc-b33d-a59982117e81","ios":"levelo://app?vid=609aa62b-6b42-43fc-b33d-a59982117e81"},"vehicle_type_id":"4","last_reported":1762096110,"current_range_meters":17200,"station_id":"ce4bhdp2rcd13ifvqf20","pricing_plan_id":"cebpf4jnsgd1na2vs0mg"},{"bike_id":"ac6fb5ab-2bf5-4938-b19e-f037b143495c","system_id":"levelo_inurba_marseille","lat":43.270705,"lon":5.422766,"is_reserved":false,"is_disabled":false,"rental_uris":{"android":"levelo://app?vid=ac6fb5ab-2bf5-4938-b19e-f037b143495c","ios":"levelo://app?vid=ac6fb5ab-2bf5-4938-b19e-f037b143495c"},"vehicle_type_id":"4","last_reported":1762096110,"current_range_meters":17200,"station_id":"ce4bhk92rcd13ifvqgb0","pricing_plan_id":"cebpf4jnsgd1na2vs0mg"},{"bike_id":"28f5c609-94bd-4f1d-9186-f66e4c2140b5","system_id":"levelo_inurba_marseille","lat":43.30736,"lon":5.42454,"is_reserved":false,"is_disabled":false,"rental_uris":{"android":"levelo://app?vid=28f5c609-94bd-4f1d-9186-f66e4c2140b5","ios":"levelo://app?vid=28f5c609-94bd-4f1d-9186-f66e4c2140b5"},"vehicle_type_id":"4","last_reported":1762096110,"current_range_meters":17200,"station_id":"st_cvj6ca6bvosntc0bfgr0","pricing_plan_id":"cebpf4jnsgd1na2vs0mg"},{"bike_id":"fa26f30c-f4d8-4ef3-973f-f6b6f33bca8a","system_id":"levelo_inurba_marseille","lat":43.33005,"lon":5.40331,"is_reserved":false,"is_disabled":false,"rental_uris":{"android":"levelo://app?vid=fa26f30c-f4d8-4ef3-973f-f6b6f33bca8a","ios":"levelo://app?vid=fa26f30c-f4d8-4ef3-973f-f6b6f33bca8a"},"vehicle_type_id":"4","last_reported":1762096110,"current_range_meters":17200,"station_id":"","pricing_plan_id":"cebpf4jnsgd1na2vs0mg"},{"bike_id":"6dd18053-e3ac-4ec6-8544-7b6c95a61457","system_id":"levelo_inurba_marseille","lat":43.24165,"lon":5.36409,"is_reserved":false,"is_disabled":false,"rental_uris":{"android":"levelo://app?vid=6dd18053-e3ac-4ec6-8544-7b6c95a61457","ios":"levelo://app?vid=6dd18053-e3ac-4ec6-8544-7b6c95a61457"},"vehicle_type_id":"4","last_reported":1762096110,"current_range_meters":17600,"station_id":"cpo36qri1sfpv3e86is0","pricing_plan_id":"cebpf4jnsgd1na2vs0mg"},{"bike_id":"0eda17b3-30d9-4700-a725-bf9c1dacb19d","system_id":"levelo_inurba_marseille","lat":43.31218,"lon":5.36862,"is_reserved":false,"is_disabled":false,"rental_uris":{"android":"levelo://app?vid=0eda17b3-30d9-4700-a725-bf9c1dacb19d","ios":"levelo://app?vid=0eda17b3-30d9-4700-a725-bf9c1dacb19d"},"vehicle_type_id":"4","last_reported":1762096110,"current_range_meters":17600,"station_id":"ce4bgl92rcd13ifvqbq0","pricing_plan_id":"cebpf4jnsgd1na2vs0mg"},{"bike_id":"4c2e795a-4ac2-4fba-b47e-7412c196e673","system_id":"levelo_inurba_marseille","lat":43.32075,"lon":5.36855,"is_reserved":false,"is_disabled":false,"rental_uris":{"android":"levelo://app?vid=4c2e795a-4ac2-4fba-b47e-7412c196e673","ios":"levelo://app?vid=4c2e795a-4ac2-4fba-b47e-7412c196e673"},"vehicle_type_id":"4","last_reported":1762096110,"current_range_meters":17600,"station_id":"","pricing_plan_id":"cebpf4jnsgd1na2vs0mg"},{"bike_id":"4316ebb6-af9e-414e-ba87-072103d4da75","system_id":"levelo_inurba_marseille","lat":43.33035,"lon":5.39044,"is_reserved":false,"is_disabled":false,"rental_uris":{"android":"levelo://app?vid=4316ebb6-af9e-414e-ba87-072103d4da75","ios":"levelo://app?vid=4316ebb6-af9e-414e-ba87-072103d4da75"},"vehicle_type_id":"4","last_reported":1762096110,"current_range_meters":17600,"station_id":"ce4bhr92rcd13ifvqhrg","pricing_plan_id":"cebpf4jnsgd1na2vs0mg"},{"bike_id":"bc97e72b-f479-4cfb-ba90-458ce1432bd8","system_id":"levelo_inurba_marseille","lat":43.30296,"lon":5.37694,"is_reserved":false,"is_disabled":true,"rental_uris":{"android":"levelo://app?vid=bc97e72b-f479-4cfb-ba90-458ce1432bd8","ios":"levelo://app?vid=bc97e72b-f479-4cfb-ba90-458ce1432bd8"},"vehicle_type_id":"4","last_reported":1762096110,"current_range_meters":17600,"station_id":"ce4bguh2rcd13ifvqcj0","pricing_plan_id":"cebpf4jnsgd1na2vs0mg"},{"bike_id":"0e99dd80-18ad-4ee8-83a1-8b1f36894f7d","system_id":"levelo_inurba_marseille","lat":43.21191,"lon":5.35074,"is_reserved":false,"is_disabled":false,"rental_uris":{"android":"levelo://app?vid=0e99dd80-18ad-4ee8-83a1-8b1f36894f7d","ios":"levelo://app?vid=0e99dd80-18ad-4ee8-83a1-8b1f36894f7d"},"vehicle_type_id":"4","last_reported":1762096110,"current_range_meters":18000,"station_id":"st_cvj6sg6p6f1abm77japg","pricing_plan_id":"cebpf4jnsgd1na2vs0mg"},{"bike_id":"a0a724b1-d1e8-4dcf-b940-10f63e2008db","system_id":"levelo_inurba_marseille","lat":43.28398,"lon":5.34999,"is_reserved":false,"is_disabled":false,"rental_uris":{"android":"levelo://app?vid=a0a724b1-d1e8-4dcf-b940-10f63e2008db","ios":"levelo://app?vid=a0a724b1-d1e8-4dcf-b940-10f63e2008db"},"vehicle_type_id":"4","last_reported":1762096110,"current_range_meters":18000,"station_id":"ce4bhbh2rcd13ifvqepg","pricing_plan_id":"cebpf4jnsgd1na2vs0mg"},{"bike_id":"75214922-1e7d-4be3-84ae-23b8d8279199","system_id":"levelo_inurba_marseille","lat":43.32499,"lon":5.36553,"is_reserved":false,"is_disabled":false,"rental_uris":{"android":"levelo://app?vid=75214922-1e7d-4be3-84ae-23b8d8279199","ios":"levelo://app?vid=75214922-1e7d-4be3-84ae-23b8d8279199"},"vehicle_type_id":"4","last_reported":1762096110,"current_range_meters":18000,"station_id":"ce4bhs12rcd13ifvqhvg","pricing_plan_id":"cebpf4jnsgd1na2vs0mg"},{"bike_id":"cfc27691-61f7-4b7d-9c2b-fa331c214f26","system_id":"levelo_inurba_marseille","lat":43.280335,"lon":5.369477,"is_reserved":false,"is_disabled":false,"rental_uris":{"android":"levelo://app?vid=cfc27691-61f7-4b7d-9c2b-fa331c214f26","ios":"levelo://app?vid=cfc27691-61f7-4b7d-9c2b-fa331c214f26"},"vehicle_type_id":"4","last_reported":1762096110,"current_range_meters":18000,"station_id":"ce4bha12rcd13ifvqef0","pricing_plan_id":"cebpf4jnsgd1na2vs0mg"},{"bike_id":"5ad2272b-e726-4bf7-a8ba-871c93ae1226","system_id":"levelo_inurba_marseille","lat":43.27367,"lon":5.36262,"is_reserved":false,"is_disabled":false,"rental_uris":{"android":"levelo://app?vid=5ad2272b-e726-4bf7-a8ba-871c93ae1226","ios":"levelo://app?vid=5ad2272b-e726-4bf7-a8ba-871c93ae1226"},"vehicle_type_id":"4","last_reported":1762096110,"current_range_meters":18000,"station_id":"ce4bhbh2rcd13ifvqeo0","pricing_plan_id":"cebpf4jnsgd1na2vs0mg"},{"bike_id":"af4f7b47-7d8e-4840-b717-1f79462c0609","system_id":"levelo_inurba_marseille","lat":43.29685,"lon":5.37854,"is_reserved":false,"is_disabled":false,"rental_uris":{"android":"levelo://app?vid=af4f7b47-7d8e-4840-b717-1f79462c0609","ios":"levelo://app?vid=af4f7b47-7d8e-4840-b717-1f79462c0609"},"vehicle_type_id":"4","last_reported":1762096110,"current_range_meters":18000,"station_id":"","pricing_plan_id":"cebpf4jnsgd1na2vs0mg"},{"bike_id":"ef3051ac-87a4-400e-a432-5bfc2a83a3e3","system_id":"levelo_inurba_marseille","lat":43.324691,"lon":5.365621,"is_reserved":false,"is_disabled":false,"rental_uris":{"android":"levelo://app?vid=ef3051ac-87a4-400e-a432-5bfc2a83a3e3","ios":"levelo://app?vid=ef3051ac-87a4-400e-a432-5bfc2a83a3e3"},"vehicle_type_id":"4","last_reported":1762096110,"current_range_meters":18000,"station_id":"ce4bhs12rcd13ifvqhvg","pricing_plan_id":"cebpf4jnsgd1na2vs0mg"},{"bike_id":"1b1e71cc-c221-4e91-89c8-2d987f944d9c","system_id":"levelo_inurba_marseille","lat":43.241682,"lon":5.364107,"is_reserved":false,"is_disabled":true,"rental_uris":{"android":"levelo://app?vid=1b1e71cc-c221-4e91-89c8-2d987f944d9c","ios":"levelo://app?vid=1b1e71cc-c221-4e91-89c8-2d987f944d9c"},"vehicle_type_id":"4","last_reported":1762096110,"current_range_meters":18000,"station_id":"cpo36qri1sfpv3e86is0","pricing_plan_id":"cebpf4jnsgd1na2vs0mg"},{"bike_id":"88518052-44e4-4486-a814-c8e987810fd6","system_id":"levelo_inurba_marseille","lat":43.293406,"lon":5.382219,"is_reserved":false,"is_disabled":false,"rental_uris":{"android":"levelo://app?vid=88518052-44e4-4486-a814-c8e987810fd6","ios":"levelo://app?vid=88518052-44e4-4486-a814-c8e987810fd6"},"vehicle_type_id":"4","last_reported":1762096110,"current_range_meters":18000,"station_id":"","pricing_plan_id":"cebpf4jnsgd1na2vs0mg"},{"bike_id":"054e5513-a18a-4fec-bab2-96a168188b7d","system_id":"levelo_inurba_marseille","lat":43.31178,"lon":5.3737,"is_reserved":false,"is_disabled":false,"rental_uris":{"android":"levelo://app?vid=054e5513-a18a-4fec-bab2-96a168188b7d","ios":"levelo://app?vid=054e5513-a18a-4fec-bab2-96a168188b7d"},"vehicle_type_id":"4","last_reported":1762096110,"current_range_meters":18000,"station_id":"","pricing_plan_id":"cebpf4jnsgd1na2vs0mg"},{"bike_id":"1a9255c3-f809-427d-b153-cdb99d824189","system_id":"levelo_inurba_marseille","lat":43.249507,"lon":5.404946,"is_reserved":false,"is_disabled":false,"rental_uris":{"android":"levelo://app?vid=1a9255c3-f809-427d-b153-cdb99d824189","ios":"levelo://app?vid=1a9255c3-f809-427d-b153-cdb99d824189"},"vehicle_type_id":"4","last_reported":1762096110,"current_range_meters":18000,"station_id":"st_d2ngiaodas8pm72gd1h0","pricing_plan_id":"cebpf4jnsgd1na2vs0mg"},{"bike_id":"fe53c802-e0ca-4d93-a56c-b0a36b2108de","system_id":"levelo_inurba_marseille","lat":43.315804,"lon":5.403907,"is_reserved":false,"is_disabled":false,"rental_uris":{"android":"levelo://app?vid=fe53c802-e0ca-4d93-a56c-b0a36b2108de","ios":"levelo://app?vid=fe53c802-e0ca-4d93-a56c-b0a36b2108de"},"vehicle_type_id":"4","last_reported":1762096110,"current_range_meters":18000,"station_id":"ce4bhg92rcd13ifvqf90","pricing_plan_id":"cebpf4jnsgd1na2vs0mg"},{"bike_id":"d1b7e294-8ae6-48ef-89d0-e05e23f9f8e0","system_id":"levelo_inurba_marseille","lat":43.29538,"lon":5.36125,"is_reserved":false,"is_disabled":false,"rental_uris":{"android":"levelo://app?vid=d1b7e294-8ae6-48ef-89d0-e05e23f9f8e0","ios":"levelo://app?vid=d1b7e294-8ae6-48ef-89d0-e05e23f9f8e0"},"vehicle_type_id":"4","last_reported":1762096110,"current_range_meters":18000,"station_id":"","pricing_plan_id":"cebpf4jnsgd1na2vs0mg"},{"bike_id":"a198e793-539d-426d-8edf-b6ea068f220e","system_id":"levelo_inurba_marseille","lat":43.29629,"lon":5.37712,"is_reserved":false,"is_disabled":false,"rental_uris":{"android":"levelo://app?vid=a198e793-539d-426d-8edf-b6ea068f220e","ios":"levelo://app?vid=a198e793-539d-426d-8edf-b6ea068f220e"},"vehicle_type_id":"4","last_reported":1762096110,"current_range_meters":18800,"station_id":"ce4bgi92rcd13ifvqb90","pricing_plan_id":"cebpf4jnsgd1na2vs0mg"},{"bike_id":"32d4a401-7eac-4706-9e22-d4c2a7e55b17","system_id":"levelo_inurba_marseille","lat":43.24628,"lon":5.43154,"is_reserved":false,"is_disabled":false,"rental_uris":{"android":"levelo://app?vid=32d4a401-7eac-4706-9e22-d4c2a7e55b17","ios":"levelo://app?vid=32d4a401-7eac-4706-9e22-d4c2a7e55b17"},"vehicle_type_id":"4","last_reported":1762096110,"current_range_meters":18800,"station_id":"st_d2m6c4gdas8pm72e190g","pricing_plan_id":"cebpf4jnsgd1na2vs0mg"},{"bike_id":"2457a6da-e737-4e7a-9c85-e9723cf378b9","system_id":"levelo_inurba_marseille","lat":43.271942,"lon":5.409912,"is_reserved":false,"is_disabled":false,"rental_uris":{"android":"levelo://app?vid=2457a6da-e737-4e7a-9c85-e9723cf378b9","ios":"levelo://app?vid=2457a6da-e737-4e7a-9c85-e9723cf378b9"},"vehicle_type_id":"4","last_reported":1762096110,"current_range_meters":18800,"station_id":"ce4bhl12rcd13ifvqgf0","pricing_plan_id":"cebpf4jnsgd1na2vs0mg"},{"bike_id":"06756d68-f601-4313-a049-fec54d37d722","system_id":"levelo_inurba_marseille","lat":43.336107,"lon":5.410388,"is_reserved":false,"is_disabled":false,"rental_uris":{"android":"levelo://app?vid=06756d68-f601-4313-a049-fec54d37d722","ios":"levelo://app?vid=06756d68-f601-4313-a049-fec54d37d722"},"vehicle_type_id":"4","last_reported":1762096110,"current_range_meters":18800,"station_id":"ce4bhq92rcd13ifvqhkg","pricing_plan_id":"cebpf4jnsgd1na2vs0mg"},{"bike_id":"4783effa-47d9-4829-abf2-d657d8184199","system_id":"levelo_inurba_marseille","lat":43.28615,"lon":5.35106,"is_reserved":false,"is_disabled":false,"rental_uris":{"android":"levelo://app?vid=4783effa-47d9-4829-abf2-d657d8184199","ios":"levelo://app?vid=4783effa-47d9-4829-abf2-d657d8184199"},"vehicle_type_id":"4","last_reported":1762096110,"current_range_meters":18800,"station_id":"ce4bhch2rcd13ifvqeug","pricing_plan_id":"cebpf4jnsgd1na2vs0mg"},{"bike_id":"4c4b8bcf-4ef8-4551-8b0c-0892f8af6559","system_id":"levelo_inurba_marseille","lat":43.22568,"lon":5.41634,"is_reserved":false,"is_disabled":false,"rental_uris":{"android":"levelo://app?vid=4c4b8bcf-4ef8-4551-8b0c-0892f8af6559","ios":"levelo://app?vid=4c4b8bcf-4ef8-4551-8b0c-0892f8af6559"},"vehicle_type_id":"4","last_reported":1762096110,"current_range_meters":18800,"station_id":"st_d2o4gvlbi1j2169b742g","pricing_plan_id":"cebpf4jnsgd1na2vs0mg"},{"bike_id":"1d7108dd-7bf8-4a9f-aa56-ea989e2fff39","system_id":"levelo_inurba_marseille","lat":43.23133,"lon":5.43728,"is_reserved":false,"is_disabled":false,"rental_uris":{"android":"levelo://app?vid=1d7108dd-7bf8-4a9f-aa56-ea989e2fff39","ios":"levelo://app?vid=1d7108dd-7bf8-4a9f-aa56-ea989e2fff39"},"vehicle_type_id":"4","last_reported":1762096110,"current_range_meters":18800,"station_id":"ce4bhmp2rcd13ifvqgog","pricing_plan_id":"cebpf4jnsgd1na2vs0mg"},{"bike_id":"45178dd9-b960-4161-871b-52bd5ff2bc66","system_id":"levelo_inurba_marseille","lat":43.25509,"lon":5.3767,"is_reserved":false,"is_disabled":false,"rental_uris":{"android":"levelo://app?vid=45178dd9-b960-4161-871b-52bd5ff2bc66","ios":"levelo://app?vid=45178dd9-b960-4161-871b-52bd5ff2bc66"},"vehicle_type_id":"4","last_reported":1762096110,"current_range_meters":18800,"station_id":"ce4bhh12rcd13ifvqff0","pricing_plan_id":"cebpf4jnsgd1na2vs0mg"},{"bike_id":"7c2e1dd0-781f-4876-a060-0d576f2acc81","system_id":"levelo_inurba_marseille","lat":43.298497,"lon":5.362968,"is_reserved":false,"is_disabled":false,"rental_uris":{"android":"levelo://app?vid=7c2e1dd0-781f-4876-a060-0d576f2acc81","ios":"levelo://app?vid=7c2e1dd0-781f-4876-a060-0d576f2acc81"},"vehicle_type_id":"4","last_reported":1762096110,"current_range_meters":18800,"station_id":"ce4bgpp2rcd13ifvqc3g","pricing_plan_id":"cebpf4jnsgd1na2vs0mg"},{"bike_id":"9cf7e28f-7b0d-4c2c-a2b9-f3633fadfc11","system_id":"levelo_inurba_marseille","lat":43.31896,"lon":5.40737,"is_reserved":false,"is_disabled":false,"rental_uris":{"android":"levelo://app?vid=9cf7e28f-7b0d-4c2c-a2b9-f3633fadfc11","ios":"levelo://app?vid=9cf7e28f-7b0d-4c2c-a2b9-f3633fadfc11"},"vehicle_type_id":"4","last_reported":1762096110,"current_range_meters":18800,"station_id":"ce4bhq12rcd13ifvqhig","pricing_plan_id":"cebpf4jnsgd1na2vs0mg"},{"bike_id":"88a37c3f-2822-4e65-9019-f92712cd5915","system_id":"levelo_inurba_marseille","lat":43.21192,"lon":5.35075,"is_reserved":false,"is_disabled":true,"rental_uris":{"android":"levelo://app?vid=88a37c3f-2822-4e65-9019-f92712cd5915","ios":"levelo://app?vid=88a37c3f-2822-4e65-9019-f92712cd5915"},"vehicle_type_id":"4","last_reported":1762096110,"current_range_meters":18800,"station_id":"st_cvj6sg6p6f1abm77japg","pricing_plan_id":"cebpf4jnsgd1na2vs0mg"},{"bike_id":"b5b418f4-b55b-4870-a08a-74c7f7b42e9b","system_id":"levelo_inurba_marseille","lat":43.211793,"lon":5.35096,"is_reserved":false,"is_disabled":false,"rental_uris":{"android":"levelo://app?vid=b5b418f4-b55b-4870-a08a-74c7f7b42e9b","ios":"levelo://app?vid=b5b418f4-b55b-4870-a08a-74c7f7b42e9b"},"vehicle_type_id":"4","last_reported":1762096110,"current_range_meters":18800,"station_id":"st_cvj6sg6p6f1abm77japg","pricing_plan_id":"cebpf4jnsgd1na2vs0mg"},{"bike_id":"2236ee54-7ac3-4822-ba45-d9a551ce32cb","system_id":"levelo_inurba_marseille","lat":43.28071,"lon":5.39666,"is_reserved":false,"is_disabled":false,"rental_uris":{"android":"levelo://app?vid=2236ee54-7ac3-4822-ba45-d9a551ce32cb","ios":"levelo://app?vid=2236ee54-7ac3-4822-ba45-d9a551ce32cb"},"vehicle_type_id":"4","last_reported":1762096110,"current_range_meters":18800,"station_id":"ce4bho12rcd13ifvqh2g","pricing_plan_id":"cebpf4jnsgd1na2vs0mg"},{"bike_id":"a3409d40-98ca-4239-b286-51499c4f5590","system_id":"levelo_inurba_marseille","lat":43.28691,"lon":5.38658,"is_reserved":false,"is_disabled":false,"rental_uris":{"android":"levelo://app?vid=a3409d40-98ca-4239-b286-51499c4f5590","ios":"levelo://app?vid=a3409d40-98ca-4239-b286-51499c4f5590"},"vehicle_type_id":"4","last_reported":1762096110,"current_range_meters":19200,"station_id":"ce4bh492rcd13ifvqdug","pricing_plan_id":"cebpf4jnsgd1na2vs0mg"},{"bike_id":"6d91648c-e5ff-403d-bfdd-a4dfa274490c","system_id":"levelo_inurba_marseille","lat":43.3052,"lon":5.3654,"is_reserved":false,"is_disabled":false,"rental_uris":{"android":"levelo://app?vid=6d91648c-e5ff-403d-bfdd-a4dfa274490c","ios":"levelo://app?vid=6d91648c-e5ff-403d-bfdd-a4dfa274490c"},"vehicle_type_id":"4","last_reported":1762096110,"current_range_meters":19200,"station_id":"","pricing_plan_id":"cebpf4jnsgd1na2vs0mg"},{"bike_id":"6dbb625e-7a21-414b-b9bb-7cbd12dbb9b0","system_id":"levelo_inurba_marseille","lat":43.292139,"lon":5.359694,"is_reserved":false,"is_disabled":false,"rental_uris":{"android":"levelo://app?vid=6dbb625e-7a21-414b-b9bb-7cbd12dbb9b0","ios":"levelo://app?vid=6dbb625e-7a21-414b-b9bb-7cbd12dbb9b0"},"vehicle_type_id":"4","last_reported":1762096110,"current_range_meters":19200,"station_id":"ce4bhb12rcd13ifvqel0","pricing_plan_id":"cebpf4jnsgd1na2vs0mg"},{"bike_id":"14e0fcd6-488b-4da1-b9ec-2f06247e9652","system_id":"levelo_inurba_marseille","lat":43.30731,"lon":5.42451,"is_reserved":false,"is_disabled":false,"rental_uris":{"android":"levelo://app?vid=14e0fcd6-488b-4da1-b9ec-2f06247e9652","ios":"levelo://app?vid=14e0fcd6-488b-4da1-b9ec-2f06247e9652"},"vehicle_type_id":"4","last_reported":1762096110,"current_range_meters":19200,"station_id":"st_cvj6ca6bvosntc0bfgr0","pricing_plan_id":"cebpf4jnsgd1na2vs0mg"},{"bike_id":"580e559c-3107-42fc-9c6d-a7d94bd39d44","system_id":"levelo_inurba_marseille","lat":43.28535,"lon":5.44101,"is_reserved":false,"is_disabled":false,"rental_uris":{"android":"levelo://app?vid=580e559c-3107-42fc-9c6d-a7d94bd39d44","ios":"levelo://app?vid=580e559c-3107-42fc-9c6d-a7d94bd39d44"},"vehicle_type_id":"4","last_reported":1762096110,"current_range_meters":19200,"station_id":"st_d3j3df2ikq2c7380ej80","pricing_plan_id":"cebpf4jnsgd1na2vs0mg"},{"bike_id":"3f026d9f-5d5e-4e07-8d95-e006607fa497","system_id":"levelo_inurba_marseille","lat":43.32536,"lon":5.4144,"is_reserved":false,"is_disabled":false,"rental_uris":{"android":"levelo://app?vid=3f026d9f-5d5e-4e07-8d95-e006607fa497","ios":"levelo://app?vid=3f026d9f-5d5e-4e07-8d95-e006607fa497"},"vehicle_type_id":"4","last_reported":1762096110,"current_range_meters":19200,"station_id":"ce4bhq12rcd13ifvqhhg","pricing_plan_id":"cebpf4jnsgd1na2vs0mg"},{"bike_id":"8ddff015-adbb-4f07-8778-137067ff26d9","system_id":"levelo_inurba_marseille","lat":43.22569,"lon":5.41622,"is_reserved":false,"is_disabled":false,"rental_uris":{"android":"levelo://app?vid=8ddff015-adbb-4f07-8778-137067ff26d9","ios":"levelo://app?vid=8ddff015-adbb-4f07-8778-137067ff26d9"},"vehicle_type_id":"4","last_reported":1762096110,"current_range_meters":19200,"station_id":"st_d2o4gvlbi1j2169b742g","pricing_plan_id":"cebpf4jnsgd1na2vs0mg"},{"bike_id":"03518348-a473-43a5-aebe-4dbf2f87920e","system_id":"levelo_inurba_marseille","lat":43.2849,"lon":5.37876,"is_reserved":false,"is_disabled":false,"rental_uris":{"android":"levelo://app?vid=03518348-a473-43a5-aebe-4dbf2f87920e","ios":"levelo://app?vid=03518348-a473-43a5-aebe-4dbf2f87920e"},"vehicle_type_id":"4","last_reported":1762096110,"current_range_meters":19200,"station_id":"","pricing_plan_id":"cebpf4jnsgd1na2vs0mg"},{"bike_id":"a8ec203b-d616-4825-acb4-ec9a8037e9f2","system_id":"levelo_inurba_marseille","lat":43.28124,"lon":5.38329,"is_reserved":false,"is_disabled":false,"rental_uris":{"android":"levelo://app?vid=a8ec203b-d616-4825-acb4-ec9a8037e9f2","ios":"levelo://app?vid=a8ec203b-d616-4825-acb4-ec9a8037e9f2"},"vehicle_type_id":"4","last_reported":1762096110,"current_range_meters":19200,"station_id":"","pricing_plan_id":"cebpf4jnsgd1na2vs0mg"},{"bike_id":"600594a6-be69-4e43-ad17-c2d891da9a62","system_id":"levelo_inurba_marseille","lat":43.290341,"lon":5.381429,"is_reserved":false,"is_disabled":true,"rental_uris":{"android":"levelo://app?vid=600594a6-be69-4e43-ad17-c2d891da9a62","ios":"levelo://app?vid=600594a6-be69-4e43-ad17-c2d891da9a62"},"vehicle_type_id":"4","last_reported":1762096110,"current_range_meters":19600,"station_id":"ce4bh4p2rcd13ifvqe1g","pricing_plan_id":"cebpf4jnsgd1na2vs0mg"},{"bike_id":"145adec1-02ad-4d16-a5dd-42bf80721343","system_id":"levelo_inurba_marseille","lat":43.30079,"lon":5.38452,"is_reserved":false,"is_disabled":false,"rental_uris":{"android":"levelo://app?vid=145adec1-02ad-4d16-a5dd-42bf80721343","ios":"levelo://app?vid=145adec1-02ad-4d16-a5dd-42bf80721343"},"vehicle_type_id":"4","last_reported":1762096110,"current_range_meters":19600,"station_id":"","pricing_plan_id":"cebpf4jnsgd1na2vs0mg"},{"bike_id":"5eb9db26-abf8-4b3a-a40c-77af04cc957e","system_id":"levelo_inurba_marseille","lat":43.2416,"lon":5.3641,"is_reserved":false,"is_disabled":false,"rental_uris":{"android":"levelo://app?vid=5eb9db26-abf8-4b3a-a40c-77af04cc957e","ios":"levelo://app?vid=5eb9db26-abf8-4b3a-a40c-77af04cc957e"},"vehicle_type_id":"4","last_reported":1762096110,"current_range_meters":19600,"station_id":"cpo36qri1sfpv3e86is0","pricing_plan_id":"cebpf4jnsgd1na2vs0mg"},{"bike_id":"457010f7-3a4b-4f80-acdd-8c8ff7908be4","system_id":"levelo_inurba_marseille","lat":43.251,"lon":5.40331,"is_reserved":false,"is_disabled":false,"rental_uris":{"android":"levelo://app?vid=457010f7-3a4b-4f80-acdd-8c8ff7908be4","ios":"levelo://app?vid=457010f7-3a4b-4f80-acdd-8c8ff7908be4"},"vehicle_type_id":"4","last_reported":1762096110,"current_range_meters":19600,"station_id":"ce4bhlh2rcd13ifvqgig","pricing_plan_id":"cebpf4jnsgd1na2vs0mg"},{"bike_id":"f206557e-4a8f-4b3e-910d-0a8dac996987","system_id":"levelo_inurba_marseille","lat":43.21741,"lon":5.34604,"is_reserved":false,"is_disabled":false,"rental_uris":{"android":"levelo://app?vid=f206557e-4a8f-4b3e-910d-0a8dac996987","ios":"levelo://app?vid=f206557e-4a8f-4b3e-910d-0a8dac996987"},"vehicle_type_id":"4","last_reported":1762096110,"current_range_meters":19600,"station_id":"st_cvj6r9ubvosntc0bgbag","pricing_plan_id":"cebpf4jnsgd1na2vs0mg"},{"bike_id":"ac608659-32bd-4c26-a588-e088cf7a5dc3","system_id":"levelo_inurba_marseille","lat":43.301276,"lon":5.39852,"is_reserved":false,"is_disabled":false,"rental_uris":{"android":"levelo://app?vid=ac608659-32bd-4c26-a588-e088cf7a5dc3","ios":"levelo://app?vid=ac608659-32bd-4c26-a588-e088cf7a5dc3"},"vehicle_type_id":"4","last_reported":1762096110,"current_range_meters":19600,"station_id":"ce4bh0h2rcd13ifvqd40","pricing_plan_id":"cebpf4jnsgd1na2vs0mg"},{"bike_id":"7d29e189-d1a2-4543-b815-e8c8b283bc2a","system_id":"levelo_inurba_marseille","lat":43.32462,"lon":5.36567,"is_reserved":false,"is_disabled":false,"rental_uris":{"android":"levelo://app?vid=7d29e189-d1a2-4543-b815-e8c8b283bc2a","ios":"levelo://app?vid=7d29e189-d1a2-4543-b815-e8c8b283bc2a"},"vehicle_type_id":"4","last_reported":1762096110,"current_range_meters":19600,"station_id":"ce4bhs12rcd13ifvqhvg","pricing_plan_id":"cebpf4jnsgd1na2vs0mg"},{"bike_id":"fb194ebe-852a-4289-ab20-b3d22149b1bf","system_id":"levelo_inurba_marseille","lat":43.250007,"lon":5.38926,"is_reserved":false,"is_disabled":false,"rental_uris":{"android":"levelo://app?vid=fb194ebe-852a-4289-ab20-b3d22149b1bf","ios":"levelo://app?vid=fb194ebe-852a-4289-ab20-b3d22149b1bf"},"vehicle_type_id":"4","last_reported":1762096110,"current_range_meters":19600,"station_id":"ce4bhgp2rcd13ifvqfd0","pricing_plan_id":"cebpf4jnsgd1na2vs0mg"},{"bike_id":"ef3903f5-f41f-4bb0-8df2-617a23b9d57b","system_id":"levelo_inurba_marseille","lat":43.2676,"lon":5.39388,"is_reserved":false,"is_disabled":false,"rental_uris":{"android":"levelo://app?vid=ef3903f5-f41f-4bb0-8df2-617a23b9d57b","ios":"levelo://app?vid=ef3903f5-f41f-4bb0-8df2-617a23b9d57b"},"vehicle_type_id":"4","last_reported":1762096110,"current_range_meters":19600,"station_id":"ce4bhh12rcd13ifvqfg0","pricing_plan_id":"cebpf4jnsgd1na2vs0mg"},{"bike_id":"7aef1029-9880-4ac1-bc62-5df1ae769dad","system_id":"levelo_inurba_marseille","lat":43.30998,"lon":5.37062,"is_reserved":false,"is_disabled":false,"rental_uris":{"android":"levelo://app?vid=7aef1029-9880-4ac1-bc62-5df1ae769dad","ios":"levelo://app?vid=7aef1029-9880-4ac1-bc62-5df1ae769dad"},"vehicle_type_id":"4","last_reported":1762096110,"current_range_meters":19600,"station_id":"","pricing_plan_id":"cebpf4jnsgd1na2vs0mg"},{"bike_id":"05d6a3f7-b83a-4da1-9593-ef5015b8f8ec","system_id":"levelo_inurba_marseille","lat":43.27943,"lon":5.39958,"is_reserved":false,"is_disabled":false,"rental_uris":{"android":"levelo://app?vid=05d6a3f7-b83a-4da1-9593-ef5015b8f8ec","ios":"levelo://app?vid=05d6a3f7-b83a-4da1-9593-ef5015b8f8ec"},"vehicle_type_id":"4","last_reported":1762096110,"current_range_meters":19600,"station_id":"","pricing_plan_id":"cebpf4jnsgd1na2vs0mg"},{"bike_id":"3d5f71b0-8163-4024-a936-8aaa5ca0ec3e","system_id":"levelo_inurba_marseille","lat":43.29222,"lon":5.36061,"is_reserved":false,"is_disabled":false,"rental_uris":{"android":"levelo://app?vid=3d5f71b0-8163-4024-a936-8aaa5ca0ec3e","ios":"levelo://app?vid=3d5f71b0-8163-4024-a936-8aaa5ca0ec3e"},"vehicle_type_id":"4","last_reported":1762096110,"current_range_meters":20000,"station_id":"ce4bhbh2rcd13ifvqeqg","pricing_plan_id":"cebpf4jnsgd1na2vs0mg"},{"bike_id":"782a02c9-f51b-4b61-89b2-ec2ecf7d0e40","system_id":"levelo_inurba_marseille","lat":43.24933,"lon":5.40551,"is_reserved":false,"is_disabled":false,"rental_uris":{"android":"levelo://app?vid=782a02c9-f51b-4b61-89b2-ec2ecf7d0e40","ios":"levelo://app?vid=782a02c9-f51b-4b61-89b2-ec2ecf7d0e40"},"vehicle_type_id":"4","last_reported":1762096110,"current_range_meters":20000,"station_id":"","pricing_plan_id":"cebpf4jnsgd1na2vs0mg"},{"bike_id":"5eee67bb-3614-4f3b-ab22-554d031d3012","system_id":"levelo_inurba_marseille","lat":43.257175,"lon":5.411233,"is_reserved":false,"is_disabled":false,"rental_uris":{"android":"levelo://app?vid=5eee67bb-3614-4f3b-ab22-554d031d3012","ios":"levelo://app?vid=5eee67bb-3614-4f3b-ab22-554d031d3012"},"vehicle_type_id":"4","last_reported":1762096110,"current_range_meters":20000,"station_id":"ce4bhkp2rcd13ifvqgd0","pricing_plan_id":"cebpf4jnsgd1na2vs0mg"},{"bike_id":"7697f83b-11c1-4978-89f1-e9d9aca50ac7","system_id":"levelo_inurba_marseille","lat":43.24686,"lon":5.38155,"is_reserved":false,"is_disabled":true,"rental_uris":{"android":"levelo://app?vid=7697f83b-11c1-4978-89f1-e9d9aca50ac7","ios":"levelo://app?vid=7697f83b-11c1-4978-89f1-e9d9aca50ac7"},"vehicle_type_id":"4","last_reported":1762096110,"current_range_meters":20000,"station_id":"ce4bhih2rcd13ifvqfr0","pricing_plan_id":"cebpf4jnsgd1na2vs0mg"},{"bike_id":"78fd86d5-da4c-4278-affd-7283f0275d72","system_id":"levelo_inurba_marseille","lat":43.278037,"lon":5.407244,"is_reserved":false,"is_disabled":false,"rental_uris":{"android":"levelo://app?vid=78fd86d5-da4c-4278-affd-7283f0275d72","ios":"levelo://app?vid=78fd86d5-da4c-4278-affd-7283f0275d72"},"vehicle_type_id":"4","last_reported":1762096110,"current_range_meters":20000,"station_id":"ce4bhnh2rcd13ifvqgtg","pricing_plan_id":"cebpf4jnsgd1na2vs0mg"},{"bike_id":"2919fe27-cd0f-4d33-a0d5-c120c66c283e","system_id":"levelo_inurba_marseille","lat":43.29791,"lon":5.38115,"is_reserved":false,"is_disabled":false,"rental_uris":{"android":"levelo://app?vid=2919fe27-cd0f-4d33-a0d5-c120c66c283e","ios":"levelo://app?vid=2919fe27-cd0f-4d33-a0d5-c120c66c283e"},"vehicle_type_id":"4","last_reported":1762096110,"current_range_meters":20000,"station_id":"ce4bgip2rcd13ifvqbb0","pricing_plan_id":"cebpf4jnsgd1na2vs0mg"},{"bike_id":"ac2f2e0c-7f3a-4615-95a9-755ddbeafcff","system_id":"levelo_inurba_marseille","lat":43.27371,"lon":5.3625,"is_reserved":false,"is_disabled":true,"rental_uris":{"android":"levelo://app?vid=ac2f2e0c-7f3a-4615-95a9-755ddbeafcff","ios":"levelo://app?vid=ac2f2e0c-7f3a-4615-95a9-755ddbeafcff"},"vehicle_type_id":"4","last_reported":1762096110,"current_range_meters":20000,"station_id":"ce4bhbh2rcd13ifvqeo0","pricing_plan_id":"cebpf4jnsgd1na2vs0mg"},{"bike_id":"e00f9968-cd2f-499b-b966-5465c6212e5a","system_id":"levelo_inurba_marseille","lat":43.30137,"lon":5.3877,"is_reserved":false,"is_disabled":false,"rental_uris":{"android":"levelo://app?vid=e00f9968-cd2f-499b-b966-5465c6212e5a","ios":"levelo://app?vid=e00f9968-cd2f-499b-b966-5465c6212e5a"},"vehicle_type_id":"4","last_reported":1762096110,"current_range_meters":20000,"station_id":"ce4bghh2rcd13ifvqb60","pricing_plan_id":"cebpf4jnsgd1na2vs0mg"},{"bike_id":"f234ad47-0901-40bf-a06a-e46adc6b907e","system_id":"levelo_inurba_marseille","lat":43.231889,"lon":5.355573,"is_reserved":false,"is_disabled":true,"rental_uris":{"android":"levelo://app?vid=f234ad47-0901-40bf-a06a-e46adc6b907e","ios":"levelo://app?vid=f234ad47-0901-40bf-a06a-e46adc6b907e"},"vehicle_type_id":"4","last_reported":1762096110,"current_range_meters":20000,"station_id":"ce4bhu92rcd13ifvqi70","pricing_plan_id":"cebpf4jnsgd1na2vs0mg"},{"bike_id":"a8d0be4c-3e38-4247-b462-6e35f9043fea","system_id":"levelo_inurba_marseille","lat":43.2572,"lon":5.4111,"is_reserved":false,"is_disabled":true,"rental_uris":{"android":"levelo://app?vid=a8d0be4c-3e38-4247-b462-6e35f9043fea","ios":"levelo://app?vid=a8d0be4c-3e38-4247-b462-6e35f9043fea"},"vehicle_type_id":"4","last_reported":1762096110,"current_range_meters":20000,"station_id":"ce4bhkp2rcd13ifvqgd0","pricing_plan_id":"cebpf4jnsgd1na2vs0mg"},{"bike_id":"e833de4e-d324-41b2-a42b-9d69e53b17b5","system_id":"levelo_inurba_marseille","lat":43.27993,"lon":5.40018,"is_reserved":false,"is_disabled":false,"rental_uris":{"android":"levelo://app?vid=e833de4e-d324-41b2-a42b-9d69e53b17b5","ios":"levelo://app?vid=e833de4e-d324-41b2-a42b-9d69e53b17b5"},"vehicle_type_id":"4","last_reported":1762096110,"current_range_meters":20000,"station_id":"ce4bho92rcd13ifvqh4g","pricing_plan_id":"cebpf4jnsgd1na2vs0mg"},