{"last_updated":1759212977,"ttl":60,"version":"2.2","data":{"bikes":[{"bike_id":"ba04909b-0d7c-4892-b859-e0ca7e0fbb9f","system_id":"levelo_inurba_marseille","lat":43.27361,"lon":5.42402,"is_reserved":false,"is_disabled":false,"rental_uris":{"android":"levelo://app?vid=ba04909b-0d7c-4892-b859-e0ca7e0fbb9f","ios":"levelo://app?vid=ba04909b-0d7c-4892-b859-e0ca7e0fbb9f"},"vehicle_type_id":"4","last_reported":1759212977,"current_range_meters":2800,"station_id":"","pricing_plan_id":"cebpf4jnsgd1na2vs0mg"},{"bike_id":"20c97ce0-7e3e-46a1-849b-43d5d5a0a0f6","system_id":"levelo_inurba_marseille","lat":43.25003,"lon":5.38927,"is_reserved":false,"is_disabled":false,"rental_uris":{"android":"levelo://app?vid=20c97ce0-7e3e-46a1-849b-43d5d5a0a0f6","ios":"levelo://app?vid=20c97ce0-7e3e-46a1-849b-43d5d5a0a0f6"},"vehicle_type_id":"4","last_reported":1759212977,"current_range_meters":2800,"station_id":"ce4bhgp2rcd13ifvqfd0","pricing_plan_id":"cebpf4jnsgd1na2vs0mg"},{"bike_id":"908e1318-dd18-47cf-a37d-3c6a0590e11e","system_id":"levelo_inurba_marseille","lat":43.3042,"lon":5.39757,"is_reserved":false,"is_disabled":false,"rental_uris":{"android":"levelo://app?vid=908e1318-dd18-47cf-a37d-3c6a0590e11e","ios":"levelo://app?vid=908e1318-dd18-47cf-a37d-3c6a0590e11e"},"vehicle_type_id":"4","last_reported":1759212977,"current_range_meters":2800,"station_id":"ce4bh092rcd13ifvqd20","pricing_plan_id":"cebpf4jnsgd1na2vs0mg"},{"bike_id":"5f4b338b-3b79-4f7f-98fb-5debee930212","system_id":"levelo_inurba_marseille","lat":43.29606,"lon":5.38115,"is_reserved":false,"is_disabled":false,"rental_uris":{"android":"levelo://app?vid=5f4b338b-3b79-4f7f-98fb-5debee930212","ios":"levelo://app?vid=5f4b338b-3b79-4f7f-98fb-5debee930212"},"vehicle_type_id":"4","last_reported":1759212977,"current_range_meters":2800,"station_id":"ce4bgl12rcd13ifvqbo0","pricing_plan_id":"cebpf4jnsgd1na2vs0mg"},{"bike_id":"ba1cfbb3-555c-4e6c-85db-b50e9395062e","system_id":"levelo_inurba_marseille","lat":43.23876,"lon":5.36558,"is_reserved":false,"is_disabled":false,"rental_uris":{"android":"levelo://app?vid=ba1cfbb3-555c-4e6c-85db-b50e9395062e","ios":"levelo://app?vid=ba1cfbb3-555c-4e6c-85db-b50e9395062e"},"vehicle_type_id":"4","last_reported":1759212977,"current_range_meters":3200,"station_id":"","pricing_plan_id":"cebpf4jnsgd1na2vs0mg"},{"bike_id":"384b917a-432a-4b59-b8f7-7340e529e88e","system_id":"levelo_inurba_marseille","lat":43.27496,"lon":5.42454,"is_reserved":false,"is_disabled":false,"rental_uris":{"android":"levelo://app?vid=384b917a-432a-4b59-b8f7-7340e529e88e","ios":"levelo://app?vid=384b917a-432a-4b59-b8f7-7340e529e88e"},"vehicle_type_id":"4","last_reported":1759212977,"current_range_meters":3200,"station_id":"ce4bhn92rcd13ifvqgrg","pricing_plan_id":"cebpf4jnsgd1na2vs0mg"},{"bike_id":"f0c40e5f-3384-41f3-8cc9-5de6548adce7","system_id":"levelo_inurba_marseille","lat":43.25944,"lon":5.40906,"is_reserved":false,"is_disabled":false,"rental_uris":{"android":"levelo://app?vid=f0c40e5f-3384-41f3-8cc9-5de6548adce7","ios":"levelo://app?vid=f0c40e5f-3384-41f3-8cc9-5de6548adce7"},"vehicle_type_id":"4","last_reported":1759212977,"current_range_meters":3200,"station_id":"ce4bhm92rcd13ifvqglg","pricing_plan_id":"cebpf4jnsgd1na2vs0mg"},{"bike_id":"95f02cd1-b0cf-4e3d-8708-b9107583e9a0","system_id":"levelo_inurba_marseille","lat":43.27495,"lon":5.42455,"is_reserved":false,"is_disabled":false,"rental_uris":{"android":"levelo://app?vid=95f02cd1-b0cf-4e3d-8708-b9107583e9a0","ios":"levelo://app?vid=95f02cd1-b0cf-4e3d-8708-b9107583e9a0"},"vehicle_type_id":"4","last_reported":1759212977,"current_range_meters":4000,"station_id":"ce4bhn92rcd13ifvqgrg","pricing_plan_id":"cebpf4jnsgd1na2vs0mg"},{"bike_id":"c6b4c897-54ea-488f-bfc3-5f74d7748ef1","system_id":"levelo_inurba_marseille","lat":43.2904,"lon":5.39962,"is_reserved":false,"is_disabled":false,"rental_uris":{"android":"levelo://app?vid=c6b4c897-54ea-488f-bfc3-5f74d7748ef1","ios":"levelo://app?vid=c6b4c897-54ea-488f-bfc3-5f74d7748ef1"},"vehicle_type_id":"4","last_reported":1759212977,"current_range_meters":4000,"station_id":"ce4bh392rcd13ifvqdm0","pricing_plan_id":"cebpf4jnsgd1na2vs0mg"},{"bike_id":"be7dae0d-94d7-4a0d-89d8-07c528e32b57","system_id":"levelo_inurba_marseille","lat":43.32594,"lon":5.39078,"is_reserved":false,"is_disabled":false,"rental_uris":{"android":"levelo://app?vid=be7dae0d-94d7-4a0d-89d8-07c528e32b57","ios":"levelo://app?vid=be7dae0d-94d7-4a0d-89d8-07c528e32b57"},"vehicle_type_id":"4","last_reported":1759212977,"current_range_meters":4000,"station_id":"","pricing_plan_id":"cebpf4jnsgd1na2vs0mg"},{"bike_id":"cefe59df-2426-4a68-83cf-fcecbb3c8c98","system_id":"levelo_inurba_marseille","lat":43.30281,"lon":5.39648,"is_reserved":false,"is_disabled":true,"rental_uris":{"android":"levelo://app?vid=cefe59df-2426-4a68-83cf-fcecbb3c8c98","ios":"levelo://app?vid=cefe59df-2426-4a68-83cf-fcecbb3c8c98"},"vehicle_type_id":"4","last_reported":1759212977,"current_range_meters":4400,"station_id":"","pricing_plan_id":"cebpf4jnsgd1na2vs0mg"},{"bike_id":"8a4a8404-2223-404b-b9d6-fda388efd3eb","system_id":"levelo_inurba_marseille","lat":43.225399,"lon":5.348524,"is_reserved":false,"is_disabled":false,"rental_uris":{"android":"levelo://app?vid=8a4a8404-2223-404b-b9d6-fda388efd3eb","ios":"levelo://app?vid=8a4a8404-2223-404b-b9d6-fda388efd3eb"},"vehicle_type_id":"4","last_reported":1759212977,"current_range_meters":4400,"station_id":"","pricing_plan_id":"cebpf4jnsgd1na2vs0mg"},{"bike_id":"2dff6920-cf38-44b7-a98d-fcf5af85634c","system_id":"levelo_inurba_marseille","lat":43.26234,"lon":5.40461,"is_reserved":false,"is_disabled":false,"rental_uris":{"android":"levelo://app?vid=2dff6920-cf38-44b7-a98d-fcf5af85634c","ios":"levelo://app?vid=2dff6920-cf38-44b7-a98d-fcf5af85634c"},"vehicle_type_id":"4","last_reported":1759212977,"current_range_meters":4800,"station_id":"ce4bhmh2rcd13ifvqgmg","pricing_plan_id":"cebpf4jnsgd1na2vs0mg"},{"bike_id":"258ab053-1083-4ca9-a32a-1e85f085fc22","system_id":"levelo_inurba_marseille","lat":43.337444,"lon":5.374475,"is_reserved":false,"is_disabled":false,"rental_uris":{"android":"levelo://app?vid=258ab053-1083-4ca9-a32a-1e85f085fc22","ios":"levelo://app?vid=258ab053-1083-4ca9-a32a-1e85f085fc22"},"vehicle_type_id":"4","last_reported":1759212977,"current_range_meters":4800,"station_id":"","pricing_plan_id":"cebpf4jnsgd1na2vs0mg"},{"bike_id":"8b353c9e-13c5-42ee-a76f-ccbd6269a3dc","system_id":"levelo_inurba_marseille","lat":43.30444,"lon":5.36689,"is_reserved":false,"is_disabled":false,"rental_uris":{"android":"levelo://app?vid=8b353c9e-13c5-42ee-a76f-ccbd6269a3dc","ios":"levelo://app?vid=8b353c9e-13c5-42ee-a76f-ccbd6269a3dc"},"vehicle_type_id":"4","last_reported":1759212977,"current_range_meters":5600,"station_id":"","pricing_plan_id":"cebpf4jnsgd1na2vs0mg"},{"bike_id":"8eba698c-1343-4776-a7ef-1194c9c853da","system_id":"levelo_inurba_marseille","lat":43.266,"lon":5.39346,"is_reserved":false,"is_disabled":false,"rental_uris":{"android":"levelo://app?vid=8eba698c-1343-4776-a7ef-1194c9c853da","ios":"levelo://app?vid=8eba698c-1343-4776-a7ef-1194c9c853da"},"vehicle_type_id":"4","last_reported":1759212977,"current_range_meters":5600,"station_id":"","pricing_plan_id":"cebpf4jnsgd1na2vs0mg"},{"bike_id":"f261b19b-ff3d-466d-b546-7e65d4cb8903","system_id":"levelo_inurba_marseille","lat":43.27491,"lon":5.42449,"is_reserved":false,"is_disabled":false,"rental_uris":{"android":"levelo://app?vid=f261b19b-ff3d-466d-b546-7e65d4cb8903","ios":"levelo://app?vid=f261b19b-ff3d-466d-b546-7e65d4cb8903"},"vehicle_type_id":"4","last_reported":1759212977,"current_range_meters":5600,"station_id":"ce4bhn92rcd13ifvqgrg","pricing_plan_id":"cebpf4jnsgd1na2vs0mg"},{"bike_id":"c4eb1c89-dc1f-4ae4-b68c-0a9f98b1b4b3","system_id":"levelo_inurba_marseille","lat":43.24631,"lon":5.43151,"is_reserved":false,"is_disabled":false,"rental_uris":{"android":"levelo://app?vid=c4eb1c89-dc1f-4ae4-b68c-0a9f98b1b4b3","ios":"levelo://app?vid=c4eb1c89-dc1f-4ae4-b68c-0a9f98b1b4b3"},"vehicle_type_id":"4","last_reported":1759212977,"current_range_meters":5600,"station_id":"st_d2m6c4gdas8pm72e190g","pricing_plan_id":"cebpf4jnsgd1na2vs0mg"},{"bike_id":"6342acd9-df84-4d84-a47e-b36df5d7d6cb","system_id":"levelo_inurba_marseille","lat":43.30902,"lon":5.37187,"is_reserved":false,"is_disabled":false,"rental_uris":{"android":"levelo://app?vid=6342acd9-df84-4d84-a47e-b36df5d7d6cb","ios":"levelo://app?vid=6342acd9-df84-4d84-a47e-b36df5d7d6cb"},"vehicle_type_id":"4","last_reported":1759212977,"current_range_meters":5600,"station_id":"ce4bguh2rcd13ifvqckg","pricing_plan_id":"cebpf4jnsgd1na2vs0mg"},{"bike_id":"ff4701d5-8d6c-4626-b841-effcfcac7863","system_id":"levelo_inurba_marseille","lat":43.25721,"lon":5.41118,"is_reserved":false,"is_disabled":false,"rental_uris":{"android":"levelo://app?vid=ff4701d5-8d6c-4626-b841-effcfcac7863","ios":"levelo://app?vid=ff4701d5-8d6c-4626-b841-effcfcac7863"},"vehicle_type_id":"4","last_reported":1759212977,"current_range_meters":5600,"station_id":"ce4bhkp2rcd13ifvqgd0","pricing_plan_id":"cebpf4jnsgd1na2vs0mg"},{"bike_id":"2c6518be-b3f0-42d2-93c9-c1de9e54885f","system_id":"levelo_inurba_marseille","lat":43.29227,"lon":5.38219,"is_reserved":false,"is_disabled":false,"rental_uris":{"android":"levelo://app?vid=2c6518be-b3f0-42d2-93c9-c1de9e54885f","ios":"levelo://app?vid=2c6518be-b3f0-42d2-93c9-c1de9e54885f"},"vehicle_type_id":"4","last_reported":1759212977,"current_range_meters":6000,"station_id":"","pricing_plan_id":"cebpf4jnsgd1na2vs0mg"},{"bike_id":"c0919a30-7885-49f6-aa86-4b68eadf1e70","system_id":"levelo_inurba_marseille","lat":43.31533,"lon":5.38038,"is_reserved":false,"is_disabled":false,"rental_uris":{"android":"levelo://app?vid=c0919a30-7885-49f6-aa86-4b68eadf1e70","ios":"levelo://app?vid=c0919a30-7885-49f6-aa86-4b68eadf1e70"},"vehicle_type_id":"4","last_reported":1759212977,"current_range_meters":5600,"station_id":"ce4bhsp2rcd13ifvqi50","pricing_plan_id":"cebpf4jnsgd1na2vs0mg"},{"bike_id":"4c2e44d3-c4fa-48a1-9aec-0499be36448e","system_id":"levelo_inurba_marseille","lat":43.29594,"lon":5.38101,"is_reserved":false,"is_disabled":false,"rental_uris":{"android":"levelo://app?vid=4c2e44d3-c4fa-48a1-9aec-0499be36448e","ios":"levelo://app?vid=4c2e44d3-c4fa-48a1-9aec-0499be36448e"},"vehicle_type_id":"4","last_reported":1759212977,"current_range_meters":6000,"station_id":"ce4bgl12rcd13ifvqbo0","pricing_plan_id":"cebpf4jnsgd1na2vs0mg"},{"bike_id":"f3b2555d-54a8-43a2-8c8a-e94a9b40bbe4","system_id":"levelo_inurba_marseille","lat":43.29024,"lon":5.39981,"is_reserved":false,"is_disabled":false,"rental_uris":{"android":"levelo://app?vid=f3b2555d-54a8-43a2-8c8a-e94a9b40bbe4","ios":"levelo://app?vid=f3b2555d-54a8-43a2-8c8a-e94a9b40bbe4"},"vehicle_type_id":"4","last_reported":1759212977,"current_range_meters":6000,"station_id":"ce4bh392rcd13ifvqdm0","pricing_plan_id":"cebpf4jnsgd1na2vs0mg"},{"bike_id":"1dad2113-89e2-44fc-a0b6-ddd6a09baff1","system_id":"levelo_inurba_marseille","lat":43.337444,"lon":5.374475,"is_reserved":false,"is_disabled":false,"rental_uris":{"android":"levelo://app?vid=1dad2113-89e2-44fc-a0b6-ddd6a09baff1","ios":"levelo://app?vid=1dad2113-89e2-44fc-a0b6-ddd6a09baff1"},"vehicle_type_id":"4","last_reported":1759212977,"current_range_meters":6000,"station_id":"","pricing_plan_id":"cebpf4jnsgd1na2vs0mg"},{"bike_id":"da0f26e9-0bdb-4063-b9f5-dcfb6728a88e","system_id":"levelo_inurba_marseille","lat":43.22918,"lon":5.35384,"is_reserved":false,"is_disabled":false,"rental_uris":{"android":"levelo://app?vid=da0f26e9-0bdb-4063-b9f5-dcfb6728a88e","ios":"levelo://app?vid=da0f26e9-0bdb-4063-b9f5-dcfb6728a88e"},"vehicle_type_id":"4","last_reported":1759212977,"current_range_meters":6400,"station_id":"cpo3532slgdg3j2ikp40","pricing_plan_id":"cebpf4jnsgd1na2vs0mg"},{"bike_id":"8e4cec19-15f2-4735-99f3-e5945794ae5f","system_id":"levelo_inurba_marseille","lat":43.29372,"lon":5.37839,"is_reserved":false,"is_disabled":false,"rental_uris":{"android":"levelo://app?vid=8e4cec19-15f2-4735-99f3-e5945794ae5f","ios":"levelo://app?vid=8e4cec19-15f2-4735-99f3-e5945794ae5f"},"vehicle_type_id":"4","last_reported":1759212977,"current_range_meters":6800,"station_id":"ce4bgjh2rcd13ifvqbf0","pricing_plan_id":"cebpf4jnsgd1na2vs0mg"},{"bike_id":"ca660db5-13a2-4b17-89f6-c4a43f402701","system_id":"levelo_inurba_marseille","lat":43.3186,"lon":5.37076,"is_reserved":false,"is_disabled":false,"rental_uris":{"android":"levelo://app?vid=ca660db5-13a2-4b17-89f6-c4a43f402701","ios":"levelo://app?vid=ca660db5-13a2-4b17-89f6-c4a43f402701"},"vehicle_type_id":"4","last_reported":1759212977,"current_range_meters":6800,"station_id":"","pricing_plan_id":"cebpf4jnsgd1na2vs0mg"},{"bike_id":"511cc80f-04a6-4a9f-afdd-004129d93b1f","system_id":"levelo_inurba_marseille","lat":43.26615,"lon":5.39392,"is_reserved":false,"is_disabled":false,"rental_uris":{"android":"levelo://app?vid=511cc80f-04a6-4a9f-afdd-004129d93b1f","ios":"levelo://app?vid=511cc80f-04a6-4a9f-afdd-004129d93b1f"},"vehicle_type_id":"4","last_reported":1759212977,"current_range_meters":6800,"station_id":"","pricing_plan_id":"cebpf4jnsgd1na2vs0mg"},{"bike_id":"35e8f722-b82a-4247-beb8-7e2827829ce6","system_id":"levelo_inurba_marseille","lat":43.32405,"lon":5.3911,"is_reserved":false,"is_disabled":false,"rental_uris":{"android":"levelo://app?vid=35e8f722-b82a-4247-beb8-7e2827829ce6","ios":"levelo://app?vid=35e8f722-b82a-4247-beb8-7e2827829ce6"},"vehicle_type_id":"4","last_reported":1759212977,"current_range_meters":6800,"station_id":"","pricing_plan_id":"cebpf4jnsgd1na2vs0mg"},{"bike_id":"a3d9178f-11e9-459b-8824-e5c615f912af","system_id":"levelo_inurba_marseille","lat":43.24649,"lon":5.38886,"is_reserved":false,"is_disabled":false,"rental_uris":{"android":"levelo://app?vid=a3d9178f-11e9-459b-8824-e5c615f912af","ios":"levelo://app?vid=a3d9178f-11e9-459b-8824-e5c615f912af"},"vehicle_type_id":"4","last_reported":1759212977,"current_range_meters":6800,"station_id":"ce4bhg12rcd13ifvqf60","pricing_plan_id":"cebpf4jnsgd1na2vs0mg"},{"bike_id":"e5378695-fba9-432a-9cfb-3b5b05e40fec","system_id":"levelo_inurba_marseille","lat":43.337986,"lon":5.374304,"is_reserved":false,"is_disabled":false,"rental_uris":{"android":"levelo://app?vid=e5378695-fba9-432a-9cfb-3b5b05e40fec","ios":"levelo://app?vid=e5378695-fba9-432a-9cfb-3b5b05e40fec"},"vehicle_type_id":"4","last_reported":1759212977,"current_range_meters":6800,"station_id":"","pricing_plan_id":"cebpf4jnsgd1na2vs0mg"},{"bike_id":"d119d65d-795f-45bf-bd8e-3830d3e90497","system_id":"levelo_inurba_marseille","lat":43.30908,"lon":5.36835,"is_reserved":false,"is_disabled":false,"rental_uris":{"android":"levelo://app?vid=d119d65d-795f-45bf-bd8e-3830d3e90497","ios":"levelo://app?vid=d119d65d-795f-45bf-bd8e-3830d3e90497"},"vehicle_type_id":"4","last_reported":1759212977,"current_range_meters":6800,"station_id":"ce4bgn92rcd13ifvqbvg","pricing_plan_id":"cebpf4jnsgd1na2vs0mg"},{"bike_id":"7c53bf77-5ee6-4314-a7f8-082583d2fe40","system_id":"levelo_inurba_marseille","lat":43.2693,"lon":5.40271,"is_reserved":false,"is_disabled":false,"rental_uris":{"android":"levelo://app?vid=7c53bf77-5ee6-4314-a7f8-082583d2fe40","ios":"levelo://app?vid=7c53bf77-5ee6-4314-a7f8-082583d2fe40"},"vehicle_type_id":"4","last_reported":1759212977,"current_range_meters":7200,"station_id":"cjm6bp8fraef2m0cb0m0","pricing_plan_id":"cebpf4jnsgd1na2vs0mg"},{"bike_id":"51df5b33-5885-4556-bb94-9e0de00b0006","system_id":"levelo_inurba_marseille","lat":43.28474,"lon":5.38564,"is_reserved":false,"is_disabled":false,"rental_uris":{"android":"levelo://app?vid=51df5b33-5885-4556-bb94-9e0de00b0006","ios":"levelo://app?vid=51df5b33-5885-4556-bb94-9e0de00b0006"},"vehicle_type_id":"4","last_reported":1759212977,"current_range_meters":8000,"station_id":"ce4bh8p2rcd13ifvqeb0","pricing_plan_id":"cebpf4jnsgd1na2vs0mg"},{"bike_id":"661d20ac-9f64-42de-904c-5d33d3dfdc81","system_id":"levelo_inurba_marseille","lat":43.26782,"lon":5.39414,"is_reserved":false,"is_disabled":false,"rental_uris":{"android":"levelo://app?vid=661d20ac-9f64-42de-904c-5d33d3dfdc81","ios":"levelo://app?vid=661d20ac-9f64-42de-904c-5d33d3dfdc81"},"vehicle_type_id":"4","last_reported":1759212977,"current_range_meters":8000,"station_id":"ce4bhh12rcd13ifvqfg0","pricing_plan_id":"cebpf4jnsgd1na2vs0mg"},{"bike_id":"1463beb0-7119-4c7d-a720-8a25cada9056","system_id":"levelo_inurba_marseille","lat":43.296035,"lon":5.381053,"is_reserved":false,"is_disabled":false,"rental_uris":{"android":"levelo://app?vid=1463beb0-7119-4c7d-a720-8a25cada9056","ios":"levelo://app?vid=1463beb0-7119-4c7d-a720-8a25cada9056"},"vehicle_type_id":"4","last_reported":1759212977,"current_range_meters":8000,"station_id":"ce4bgl12rcd13ifvqbo0","pricing_plan_id":"cebpf4jnsgd1na2vs0mg"},{"bike_id":"f97b6db1-adf6-403e-8acb-a6bc78512da2","system_id":"levelo_inurba_marseille","lat":43.27498,"lon":5.42455,"is_reserved":false,"is_disabled":true,"rental_uris":{"android":"levelo://app?vid=f97b6db1-adf6-403e-8acb-a6bc78512da2","ios":"levelo://app?vid=f97b6db1-adf6-403e-8acb-a6bc78512da2"},"vehicle_type_id":"4","last_reported":1759212977,"current_range_meters":8000,"station_id":"ce4bhn92rcd13ifvqgrg","pricing_plan_id":"cebpf4jnsgd1na2vs0mg"},{"bike_id":"6093b3f8-a4c1-4fdd-bec4-9f2700248cd0","system_id":"levelo_inurba_marseille","lat":43.28357,"lon":5.38103,"is_reserved":false,"is_disabled":false,"rental_uris":{"android":"levelo://app?vid=6093b3f8-a4c1-4fdd-bec4-9f2700248cd0","ios":"levelo://app?vid=6093b3f8-a4c1-4fdd-bec4-9f2700248cd0"},"vehicle_type_id":"4","last_reported":1759212977,"current_range_meters":8000,"station_id":"ce4bh412rcd13ifvqdr0","pricing_plan_id":"cebpf4jnsgd1na2vs0mg"},{"bike_id":"2eee1887-ae27-43ab-8438-ead571655b92","system_id":"levelo_inurba_marseille","lat":43.32555,"lon":5.41456,"is_reserved":false,"is_disabled":false,"rental_uris":{"android":"levelo://app?vid=2eee1887-ae27-43ab-8438-ead571655b92","ios":"levelo://app?vid=2eee1887-ae27-43ab-8438-ead571655b92"},"vehicle_type_id":"4","last_reported":1759212977,"current_range_meters":8400,"station_id":"ce4bhq12rcd13ifvqhhg","pricing_plan_id":"cebpf4jnsgd1na2vs0mg"},{"bike_id":"d5bdd3e1-9e4f-4d1e-b0df-75532e00a0ac","system_id":"levelo_inurba_marseille","lat":43.297929,"lon":5.380957,"is_reserved":false,"is_disabled":false,"rental_uris":{"android":"levelo://app?vid=d5bdd3e1-9e4f-4d1e-b0df-75532e00a0ac","ios":"levelo://app?vid=d5bdd3e1-9e4f-4d1e-b0df-75532e00a0ac"},"vehicle_type_id":"4","last_reported":1759212977,"current_range_meters":8400,"station_id":"ce4bgip2rcd13ifvqbb0","pricing_plan_id":"cebpf4jnsgd1na2vs0mg"},{"bike_id":"b17feaf8-f1f6-4569-a6fc-fc60277ff4ff","system_id":"levelo_inurba_marseille","lat":43.32374,"lon":5.36788,"is_reserved":false,"is_disabled":true,"rental_uris":{"android":"levelo://app?vid=b17feaf8-f1f6-4569-a6fc-fc60277ff4ff","ios":"levelo://app?vid=b17feaf8-f1f6-4569-a6fc-fc60277ff4ff"},"vehicle_type_id":"4","last_reported":1759212977,"current_range_meters":8400,"station_id":"ce4bhsh2rcd13ifvqi2g","pricing_plan_id":"cebpf4jnsgd1na2vs0mg"},{"bike_id":"6594f366-3d36-44e8-adef-34162af3f75c","system_id":"levelo_inurba_marseille","lat":43.28947,"lon":5.36409,"is_reserved":false,"is_disabled":false,"rental_uris":{"android":"levelo://app?vid=6594f366-3d36-44e8-adef-34162af3f75c","ios":"levelo://app?vid=6594f366-3d36-44e8-adef-34162af3f75c"},"vehicle_type_id":"4","last_reported":1759212977,"current_range_meters":8400,"station_id":"ce4bhc92rcd13ifvqetg","pricing_plan_id":"cebpf4jnsgd1na2vs0mg"},{"bike_id":"80b98ce0-3233-47ce-84db-722943723d1e","system_id":"levelo_inurba_marseille","lat":43.269329,"lon":5.38928,"is_reserved":false,"is_disabled":false,"rental_uris":{"android":"levelo://app?vid=80b98ce0-3233-47ce-84db-722943723d1e","ios":"levelo://app?vid=80b98ce0-3233-47ce-84db-722943723d1e"},"vehicle_type_id":"4","last_reported":1759212977,"current_range_meters":8400,"station_id":"","pricing_plan_id":"cebpf4jnsgd1na2vs0mg"},{"bike_id":"1afa9d61-f83e-4462-ae09-7392651c8364","system_id":"levelo_inurba_marseille","lat":43.295266,"lon":5.393939,"is_reserved":false,"is_disabled":false,"rental_uris":{"android":"levelo://app?vid=1afa9d61-f83e-4462-ae09-7392651c8364","ios":"levelo://app?vid=1afa9d61-f83e-4462-ae09-7392651c8364"},"vehicle_type_id":"4","last_reported":1759212977,"current_range_meters":8400,"station_id":"ce4bh292rcd13ifvqdf0","pricing_plan_id":"cebpf4jnsgd1na2vs0mg"},{"bike_id":"ea59b303-6900-42ad-9e79-5b0f95bedd6c","system_id":"levelo_inurba_marseille","lat":43.3047,"lon":5.36856,"is_reserved":false,"is_disabled":false,"rental_uris":{"android":"levelo://app?vid=ea59b303-6900-42ad-9e79-5b0f95bedd6c","ios":"levelo://app?vid=ea59b303-6900-42ad-9e79-5b0f95bedd6c"},"vehicle_type_id":"4","last_reported":1759212977,"current_range_meters":8400,"station_id":"","pricing_plan_id":"cebpf4jnsgd1na2vs0mg"},{"bike_id":"03350417-1098-4d6c-b8fe-9e64358744bf","system_id":"levelo_inurba_marseille","lat":43.31134,"lon":5.37592,"is_reserved":false,"is_disabled":true,"rental_uris":{"android":"levelo://app?vid=03350417-1098-4d6c-b8fe-9e64358744bf","ios":"levelo://app?vid=03350417-1098-4d6c-b8fe-9e64358744bf"},"vehicle_type_id":"4","last_reported":1759212977,"current_range_meters":8400,"station_id":"","pricing_plan_id":"cebpf4jnsgd1na2vs0mg"},{"bike_id":"ee6406f7-9f33-4935-a835-0f3904e54bc4","system_id":"levelo_inurba_marseille","lat":43.31875,"lon":5.37317,"is_reserved":false,"is_disabled":true,"rental_uris":{"android":"levelo://app?vid=ee6406f7-9f33-4935-a835-0f3904e54bc4","ios":"levelo://app?vid=ee6406f7-9f33-4935-a835-0f3904e54bc4"},"vehicle_type_id":"4","last_reported":1759212977,"current_range_meters":8800,"station_id":"ce4bgt12rcd13ifvqcd0","pricing_plan_id":"cebpf4jnsgd1na2vs0mg"},{"bike_id":"44cc4359-e7b3-48af-83b4-65edd912ef63","system_id":"levelo_inurba_marseille","lat":43.281494,"lon":5.426473,"is_reserved":false,"is_disabled":true,"rental_uris":{"android":"levelo://app?vid=44cc4359-e7b3-48af-83b4-65edd912ef63","ios":"levelo://app?vid=44cc4359-e7b3-48af-83b4-65edd912ef63"},"vehicle_type_id":"4","last_reported":1759212977,"current_range_meters":8800,"station_id":"ce4bhnh2rcd13ifvqgug","pricing_plan_id":"cebpf4jnsgd1na2vs0mg"},{"bike_id":"e3703459-a2e9-45e2-9a60-2739fe1dc922","system_id":"levelo_inurba_marseille","lat":43.33613,"lon":5.41038,"is_reserved":false,"is_disabled":false,"rental_uris":{"android":"levelo://app?vid=e3703459-a2e9-45e2-9a60-2739fe1dc922","ios":"levelo://app?vid=e3703459-a2e9-45e2-9a60-2739fe1dc922"},"vehicle_type_id":"4","last_reported":1759212977,"current_range_meters":8800,"station_id":"ce4bhqh2rcd13ifvqhmg","pricing_plan_id":"cebpf4jnsgd1na2vs0mg"},{"bike_id":"9c4235da-d3d0-4056-aa6b-c6aa6e8e7367","system_id":"levelo_inurba_marseille","lat":43.3066,"lon":5.37503,"is_reserved":false,"is_disabled":false,"rental_uris":{"android":"levelo://app?vid=9c4235da-d3d0-4056-aa6b-c6aa6e8e7367","ios":"levelo://app?vid=9c4235da-d3d0-4056-aa6b-c6aa6e8e7367"},"vehicle_type_id":"4","last_reported":1759212977,"current_range_meters":8800,"station_id":"","pricing_plan_id":"cebpf4jnsgd1na2vs0mg"},{"bike_id":"ce5e157e-4ef2-4c41-9b3b-54d3eecbfa45","system_id":"levelo_inurba_marseille","lat":43.22539,"lon":5.34835,"is_reserved":false,"is_disabled":false,"rental_uris":{"android":"levelo://app?vid=ce5e157e-4ef2-4c41-9b3b-54d3eecbfa45","ios":"levelo://app?vid=ce5e157e-4ef2-4c41-9b3b-54d3eecbfa45"},"vehicle_type_id":"4","last_reported":1759212977,"current_range_meters":8800,"station_id":"","pricing_plan_id":"cebpf4jnsgd1na2vs0mg"},{"bike_id":"a2411a4b-e5ef-475f-b05a-622f2fcb8ba4","system_id":"levelo_inurba_marseille","lat":43.314843,"lon":5.37311,"is_reserved":false,"is_disabled":false,"rental_uris":{"android":"levelo://app?vid=a2411a4b-e5ef-475f-b05a-622f2fcb8ba4","ios":"levelo://app?vid=a2411a4b-e5ef-475f-b05a-622f2fcb8ba4"},"vehicle_type_id":"4","last_reported":1759212977,"current_range_meters":9200,"station_id":"ce4bgt12rcd13ifvqcd0","pricing_plan_id":"cebpf4jnsgd1na2vs0mg"},{"bike_id":"3d28bd7d-7463-4d14-9a1d-5eeaf9ab6245","system_id":"levelo_inurba_marseille","lat":43.2873,"lon":5.37949,"is_reserved":false,"is_disabled":false,"rental_uris":{"android":"levelo://app?vid=3d28bd7d-7463-4d14-9a1d-5eeaf9ab6245","ios":"levelo://app?vid=3d28bd7d-7463-4d14-9a1d-5eeaf9ab6245"},"vehicle_type_id":"4","last_reported":1759212977,"current_range_meters":9200,"station_id":"ce4bh9p2rcd13ifvqec0","pricing_plan_id":"cebpf4jnsgd1na2vs0mg"},{"bike_id":"831e6a54-bde0-4f77-80bc-8857d66d3744","system_id":"levelo_inurba_marseille","lat":43.27953,"lon":5.41065,"is_reserved":false,"is_disabled":true,"rental_uris":{"android":"levelo://app?vid=831e6a54-bde0-4f77-80bc-8857d66d3744","ios":"levelo://app?vid=831e6a54-bde0-4f77-80bc-8857d66d3744"},"vehicle_type_id":"4","last_reported":1759212977,"current_range_meters":9200,"station_id":"ce4bhnp2rcd13ifvqh0g","pricing_plan_id":"cebpf4jnsgd1na2vs0mg"},{"bike_id":"10176dad-e77f-4f18-8cea-556decfc72aa","system_id":"levelo_inurba_marseille","lat":43.21761,"lon":5.34622,"is_reserved":false,"is_disabled":true,"rental_uris":{"android":"levelo://app?vid=10176dad-e77f-4f18-8cea-556decfc72aa","ios":"levelo://app?vid=10176dad-e77f-4f18-8cea-556decfc72aa"},"vehicle_type_id":"4","last_reported":1759212977,"current_range_meters":9200,"station_id":"st_cvj6r9ubvosntc0bgbag","pricing_plan_id":"cebpf4jnsgd1na2vs0mg"},{"bike_id":"ce34c1db-26b4-4671-a294-44ecb0a516f9","system_id":"levelo_inurba_marseille","lat":43.28939,"lon":5.36395,"is_reserved":false,"is_disabled":false,"rental_uris":{"android":"levelo://app?vid=ce34c1db-26b4-4671-a294-44ecb0a516f9","ios":"levelo://app?vid=ce34c1db-26b4-4671-a294-44ecb0a516f9"},"vehicle_type_id":"4","last_reported":1759212977,"current_range_meters":9200,"station_id":"ce4bhc92rcd13ifvqetg","pricing_plan_id":"cebpf4jnsgd1na2vs0mg"},{"bike_id":"ee96a502-9b76-492e-840a-498b02aefe72","system_id":"levelo_inurba_marseille","lat":43.32358,"lon":5.39224,"is_reserved":false,"is_disabled":false,"rental_uris":{"android":"levelo://app?vid=ee96a502-9b76-492e-840a-498b02aefe72","ios":"levelo://app?vid=ee96a502-9b76-492e-840a-498b02aefe72"},"vehicle_type_id":"4","last_reported":1759212977,"current_range_meters":9200,"station_id":"","pricing_plan_id":"cebpf4jnsgd1na2vs0mg"},{"bike_id":"448c6987-f284-4d11-b218-c0822cd9813a","system_id":"levelo_inurba_marseille","lat":43.24813,"lon":5.37449,"is_reserved":false,"is_disabled":false,"rental_uris":{"android":"levelo://app?vid=448c6987-f284-4d11-b218-c0822cd9813a","ios":"levelo://app?vid=448c6987-f284-4d11-b218-c0822cd9813a"},"vehicle_type_id":"4","last_reported":1759212977,"current_range_meters":9200,"station_id":"ce4bhgh2rcd13ifvqfb0","pricing_plan_id":"cebpf4jnsgd1na2vs0mg"},{"bike_id":"17bbf4dd-fba9-4826-8c7d-9be0609a6e2f","system_id":"levelo_inurba_marseille","lat":43.30963,"lon":5.37628,"is_reserved":false,"is_disabled":false,"rental_uris":{"android":"levelo://app?vid=17bbf4dd-fba9-4826-8c7d-9be0609a6e2f","ios":"levelo://app?vid=17bbf4dd-fba9-4826-8c7d-9be0609a6e2f"},"vehicle_type_id":"4","last_reported":1759212977,"current_range_meters":9200,"station_id":"","pricing_plan_id":"cebpf4jnsgd1na2vs0mg"},{"bike_id":"c47f5c3e-1ff3-43b7-b740-1c081ef57305","system_id":"levelo_inurba_marseille","lat":43.29675,"lon":5.37648,"is_reserved":false,"is_disabled":false,"rental_uris":{"android":"levelo://app?vid=c47f5c3e-1ff3-43b7-b740-1c081ef57305","ios":"levelo://app?vid=c47f5c3e-1ff3-43b7-b740-1c081ef57305"},"vehicle_type_id":"4","last_reported":1759212977,"current_range_meters":9600,"station_id":"ce4bgkh2rcd13ifvqbl0","pricing_plan_id":"cebpf4jnsgd1na2vs0mg"},{"bike_id":"5026301c-a54c-4a52-9329-6cffc3c28ddb","system_id":"levelo_inurba_marseille","lat":43.2706,"lon":5.40246,"is_reserved":false,"is_disabled":false,"rental_uris":{"android":"levelo://app?vid=5026301c-a54c-4a52-9329-6cffc3c28ddb","ios":"levelo://app?vid=5026301c-a54c-4a52-9329-6cffc3c28ddb"},"vehicle_type_id":"4","last_reported":1759212977,"current_range_meters":9600,"station_id":"ce4bhk92rcd13ifvqgc0","pricing_plan_id":"cebpf4jnsgd1na2vs0mg"},{"bike_id":"23c18ed5-1575-40ff-8b60-c8091fa4f5e0","system_id":"levelo_inurba_marseille","lat":43.295223,"lon":5.375039,"is_reserved":false,"is_disabled":false,"rental_uris":{"android":"levelo://app?vid=23c18ed5-1575-40ff-8b60-c8091fa4f5e0","ios":"levelo://app?vid=23c18ed5-1575-40ff-8b60-c8091fa4f5e0"},"vehicle_type_id":"4","last_reported":1759212977,"current_range_meters":9600,"station_id":"","pricing_plan_id":"cebpf4jnsgd1na2vs0mg"},{"bike_id":"7952d0c5-c3b4-4c29-bacd-f59ef155894d","system_id":"levelo_inurba_marseille","lat":43.309025,"lon":5.381673,"is_reserved":false,"is_disabled":false,"rental_uris":{"android":"levelo://app?vid=7952d0c5-c3b4-4c29-bacd-f59ef155894d","ios":"levelo://app?vid=7952d0c5-c3b4-4c29-bacd-f59ef155894d"},"vehicle_type_id":"4","last_reported":1759212977,"current_range_meters":9600,"station_id":"","pricing_plan_id":"cebpf4jnsgd1na2vs0mg"},{"bike_id":"3f0dfec8-8716-4391-96b2-34b10b881d16","system_id":"levelo_inurba_marseille","lat":43.28742,"lon":5.37959,"is_reserved":false,"is_disabled":false,"rental_uris":{"android":"levelo://app?vid=3f0dfec8-8716-4391-96b2-34b10b881d16","ios":"levelo://app?vid=3f0dfec8-8716-4391-96b2-34b10b881d16"},"vehicle_type_id":"4","last_reported":1759212977,"current_range_meters":9600,"station_id":"ce4bh9p2rcd13ifvqec0","pricing_plan_id":"cebpf4jnsgd1na2vs0mg"},{"bike_id":"0eda2527-f3ce-4552-96df-04220f592c11","system_id":"levelo_inurba_marseille","lat":43.21191,"lon":5.35085,"is_reserved":false,"is_disabled":false,"rental_uris":{"android":"levelo://app?vid=0eda2527-f3ce-4552-96df-04220f592c11","ios":"levelo://app?vid=0eda2527-f3ce-4552-96df-04220f592c11"},"vehicle_type_id":"4","last_reported":1759212977,"current_range_meters":9600,"station_id":"st_cvj6sg6p6f1abm77japg","pricing_plan_id":"cebpf4jnsgd1na2vs0mg"},{"bike_id":"fd1b3dbb-3614-4e72-a96b-9e727dfb4f98","system_id":"levelo_inurba_marseille","lat":43.28943,"lon":5.36386,"is_reserved":false,"is_disabled":false,"rental_uris":{"android":"levelo://app?vid=fd1b3dbb-3614-4e72-a96b-9e727dfb4f98","ios":"levelo://app?vid=fd1b3dbb-3614-4e72-a96b-9e727dfb4f98"},"vehicle_type_id":"4","last_reported":1759212977,"current_range_meters":9600,"station_id":"ce4bhc92rcd13ifvqetg","pricing_plan_id":"cebpf4jnsgd1na2vs0mg"},{"bike_id":"a07a513e-e5a9-4481-8592-d991379bc662","system_id":"levelo_inurba_marseille","lat":43.33735,"lon":5.37481,"is_reserved":false,"is_disabled":false,"rental_uris":{"android":"levelo://app?vid=a07a513e-e5a9-4481-8592-d991379bc662","ios":"levelo://app?vid=a07a513e-e5a9-4481-8592-d991379bc662"},"vehicle_type_id":"4","last_reported":1759212977,"current_range_meters":9600,"station_id":"","pricing_plan_id":"cebpf4jnsgd1na2vs0mg"},{"bike_id":"d46c4dc8-11f7-4ca9-839e-51ecd45dd195","system_id":"levelo_inurba_marseille","lat":43.27494,"lon":5.4245,"is_reserved":false,"is_disabled":false,"rental_uris":{"android":"levelo://app?vid=d46c4dc8-11f7-4ca9-839e-51ecd45dd195","ios":"levelo://app?vid=d46c4dc8-11f7-4ca9-839e-51ecd45dd195"},"vehicle_type_id":"4","last_reported":1759212977,"current_range_meters":10000,"station_id":"ce4bhn92rcd13ifvqgrg","pricing_plan_id":"cebpf4jnsgd1na2vs0mg"},{"bike_id":"de465f74-b2e1-47fa-8954-0564a43f223d","system_id":"levelo_inurba_marseille","lat":43.32544,"lon":5.41434,"is_reserved":false,"is_disabled":false,"rental_uris":{"android":"levelo://app?vid=de465f74-b2e1-47fa-8954-0564a43f223d","ios":"levelo://app?vid=de465f74-b2e1-47fa-8954-0564a43f223d"},"vehicle_type_id":"4","last_reported":1759212977,"current_range_meters":10000,"station_id":"ce4bhq12rcd13ifvqhhg","pricing_plan_id":"cebpf4jnsgd1na2vs0mg"},{"bike_id":"0030cf69-75f8-4719-a372-efc52bdb748a","system_id":"levelo_inurba_marseille","lat":43.32937,"lon":5.45408,"is_reserved":false,"is_disabled":true,"rental_uris":{"android":"levelo://app?vid=0030cf69-75f8-4719-a372-efc52bdb748a","ios":"levelo://app?vid=0030cf69-75f8-4719-a372-efc52bdb748a"},"vehicle_type_id":"4","last_reported":1759212977,"current_range_meters":10000,"station_id":"","pricing_plan_id":"cebpf4jnsgd1na2vs0mg"},{"bike_id":"d1b2fc8a-0d38-426d-8c2e-82091a6a0647","system_id":"levelo_inurba_marseille","lat":43.25336,"lon":5.42179,"is_reserved":false,"is_disabled":false,"rental_uris":{"android":"levelo://app?vid=d1b2fc8a-0d38-426d-8c2e-82091a6a0647","ios":"levelo://app?vid=d1b2fc8a-0d38-426d-8c2e-82091a6a0647"},"vehicle_type_id":"4","last_reported":1759212977,"current_range_meters":10000,"station_id":"st_d2m65c5bi1j21697t3ng","pricing_plan_id":"cebpf4jnsgd1na2vs0mg"},{"bike_id":"63eb2666-52a5-4795-b65c-d5dbc7d05701","system_id":"levelo_inurba_marseille","lat":43.27501,"lon":5.42426,"is_reserved":false,"is_disabled":false,"rental_uris":{"android":"levelo://app?vid=63eb2666-52a5-4795-b65c-d5dbc7d05701","ios":"levelo://app?vid=63eb2666-52a5-4795-b65c-d5dbc7d05701"},"vehicle_type_id":"4","last_reported":1759212977,"current_range_meters":10000,"station_id":"ce4bhn92rcd13ifvqgrg","pricing_plan_id":"cebpf4jnsgd1na2vs0mg"},{"bike_id":"7dc10ae7-7366-4aef-afb3-946c513f88ef","system_id":"levelo_inurba_marseille","lat":43.279961,"lon":5.363993,"is_reserved":false,"is_disabled":false,"rental_uris":{"android":"levelo://app?vid=7dc10ae7-7366-4aef-afb3-946c513f88ef","ios":"levelo://app?vid=7dc10ae7-7366-4aef-afb3-946c513f88ef"},"vehicle_type_id":"4","last_reported":1759212977,"current_range_meters":10000,"station_id":"ce4bha12rcd13ifvqef0","pricing_plan_id":"cebpf4jnsgd1na2vs0mg"},{"bike_id":"f6e8cf02-4ec8-4f47-83dd-ddd84fe62208","system_id":"levelo_inurba_marseille","lat":43.23186,"lon":5.40003,"is_reserved":false,"is_disabled":false,"rental_uris":{"android":"levelo://app?vid=f6e8cf02-4ec8-4f47-83dd-ddd84fe62208","ios":"levelo://app?vid=f6e8cf02-4ec8-4f47-83dd-ddd84fe62208"},"vehicle_type_id":"4","last_reported":1759212977,"current_range_meters":10000,"station_id":"ce4bhn12rcd13ifvqgqg","pricing_plan_id":"cebpf4jnsgd1na2vs0mg"},{"bike_id":"9ab004ea-6c95-4dea-9e60-98e0d5f644be","system_id":"levelo_inurba_marseille","lat":43.30154,"lon":5.38079,"is_reserved":false,"is_disabled":false,"rental_uris":{"android":"levelo://app?vid=9ab004ea-6c95-4dea-9e60-98e0d5f644be","ios":"levelo://app?vid=9ab004ea-6c95-4dea-9e60-98e0d5f644be"},"vehicle_type_id":"4","last_reported":1759212977,"current_range_meters":10000,"station_id":"ce4bgjp2rcd13ifvqbh0","pricing_plan_id":"cebpf4jnsgd1na2vs0mg"},{"bike_id":"c627b34a-8e81-4438-af3b-4fd0aab1c160","system_id":"levelo_inurba_marseille","lat":43.29669,"lon":5.360098,"is_reserved":false,"is_disabled":false,"rental_uris":{"android":"levelo://app?vid=c627b34a-8e81-4438-af3b-4fd0aab1c160","ios":"levelo://app?vid=c627b34a-8e81-4438-af3b-4fd0aab1c160"},"vehicle_type_id":"4","last_reported":1759212977,"current_range_meters":10000,"station_id":"","pricing_plan_id":"cebpf4jnsgd1na2vs0mg"},{"bike_id":"d349fb08-7cb1-4196-8d05-a7f856b77b49","system_id":"levelo_inurba_marseille","lat":43.24987,"lon":5.38929,"is_reserved":false,"is_disabled":false,"rental_uris":{"android":"levelo://app?vid=d349fb08-7cb1-4196-8d05-a7f856b77b49","ios":"levelo://app?vid=d349fb08-7cb1-4196-8d05-a7f856b77b49"},"vehicle_type_id":"4","last_reported":1759212977,"current_range_meters":10000,"station_id":"ce4bhgp2rcd13ifvqfd0","pricing_plan_id":"cebpf4jnsgd1na2vs0mg"},{"bike_id":"ca3c29b9-5730-4583-993b-e1307f859d7a","system_id":"levelo_inurba_marseille","lat":43.32051,"lon":5.41554,"is_reserved":false,"is_disabled":false,"rental_uris":{"android":"levelo://app?vid=ca3c29b9-5730-4583-993b-e1307f859d7a","ios":"levelo://app?vid=ca3c29b9-5730-4583-993b-e1307f859d7a"},"vehicle_type_id":"4","last_reported":1759212977,"current_range_meters":10800,"station_id":"ce4bhq92rcd13ifvqhkg","pricing_plan_id":"cebpf4jnsgd1na2vs0mg"},{"bike_id":"385fa573-6758-43e7-a2f4-f27be30ea572","system_id":"levelo_inurba_marseille","lat":43.3211,"lon":5.36785,"is_reserved":false,"is_disabled":false,"rental_uris":{"android":"levelo://app?vid=385fa573-6758-43e7-a2f4-f27be30ea572","ios":"levelo://app?vid=385fa573-6758-43e7-a2f4-f27be30ea572"},"vehicle_type_id":"4","last_reported":1759212977,"current_range_meters":10800,"station_id":"ce4bhrh2rcd13ifvqhug","pricing_plan_id":"cebpf4jnsgd1na2vs0mg"},{"bike_id":"cb560dc5-3481-46ba-9bbe-3e3027c9ead9","system_id":"levelo_inurba_marseille","lat":43.27996,"lon":5.41668,"is_reserved":false,"is_disabled":false,"rental_uris":{"android":"levelo://app?vid=cb560dc5-3481-46ba-9bbe-3e3027c9ead9","ios":"levelo://app?vid=cb560dc5-3481-46ba-9bbe-3e3027c9ead9"},"vehicle_type_id":"4","last_reported":1759212977,"current_range_meters":10800,"station_id":"ce4bho12rcd13ifvqh1g","pricing_plan_id":"cebpf4jnsgd1na2vs0mg"},{"bike_id":"0af50543-32d0-4753-b660-d7121b76f356","system_id":"levelo_inurba_marseille","lat":43.27505,"lon":5.42462,"is_reserved":false,"is_disabled":false,"rental_uris":{"android":"levelo://app?vid=0af50543-32d0-4753-b660-d7121b76f356","ios":"levelo://app?vid=0af50543-32d0-4753-b660-d7121b76f356"},"vehicle_type_id":"4","last_reported":1759212977,"current_range_meters":11200,"station_id":"ce4bhn92rcd13ifvqgrg","pricing_plan_id":"cebpf4jnsgd1na2vs0mg"},{"bike_id":"d60dc148-253b-4625-ae0c-8c88dcdb4260","system_id":"levelo_inurba_marseille","lat":43.272127,"lon":5.391798,"is_reserved":false,"is_disabled":true,"rental_uris":{"android":"levelo://app?vid=d60dc148-253b-4625-ae0c-8c88dcdb4260","ios":"levelo://app?vid=d60dc148-253b-4625-ae0c-8c88dcdb4260"},"vehicle_type_id":"4","last_reported":1759212977,"current_range_meters":11200,"station_id":"","pricing_plan_id":"cebpf4jnsgd1na2vs0mg"},{"bike_id":"78edd212-3bd8-4a45-bced-089e3907902a","system_id":"levelo_inurba_marseille","lat":43.32734,"lon":5.4237,"is_reserved":false,"is_disabled":true,"rental_uris":{"android":"levelo://app?vid=78edd212-3bd8-4a45-bced-089e3907902a","ios":"levelo://app?vid=78edd212-3bd8-4a45-bced-089e3907902a"},"vehicle_type_id":"4","last_reported":1759212977,"current_range_meters":11200,"station_id":"","pricing_plan_id":"cebpf4jnsgd1na2vs0mg"},{"bike_id":"539c9b9d-e43f-4f9e-aab8-3a5d4f43884c","system_id":"levelo_inurba_marseille","lat":43.2762,"lon":5.36106,"is_reserved":false,"is_disabled":false,"rental_uris":{"android":"levelo://app?vid=539c9b9d-e43f-4f9e-aab8-3a5d4f43884c","ios":"levelo://app?vid=539c9b9d-e43f-4f9e-aab8-3a5d4f43884c"},"vehicle_type_id":"4","last_reported":1759212977,"current_range_meters":11200,"station_id":"ce4bgj92rcd13ifvqbe0","pricing_plan_id":"cebpf4jnsgd1na2vs0mg"},{"bike_id":"42fe4fc1-aaad-41c5-9eee-de813f970dda","system_id":"levelo_inurba_marseille","lat":43.31054,"lon":5.38344,"is_reserved":false,"is_disabled":false,"rental_uris":{"android":"levelo://app?vid=42fe4fc1-aaad-41c5-9eee-de813f970dda","ios":"levelo://app?vid=42fe4fc1-aaad-41c5-9eee-de813f970dda"},"vehicle_type_id":"4","last_reported":1759212977,"current_range_meters":11200,"station_id":"ce4bgv92rcd13ifvqcr0","pricing_plan_id":"cebpf4jnsgd1na2vs0mg"},{"bike_id":"2e49e988-42fa-4abd-93ae-2866429a756f","system_id":"levelo_inurba_marseille","lat":43.31473,"lon":5.3732,"is_reserved":false,"is_disabled":false,"rental_uris":{"android":"levelo://app?vid=2e49e988-42fa-4abd-93ae-2866429a756f","ios":"levelo://app?vid=2e49e988-42fa-4abd-93ae-2866429a756f"},"vehicle_type_id":"4","last_reported":1759212977,"current_range_meters":11200,"station_id":"ce4bgt12rcd13ifvqcd0","pricing_plan_id":"cebpf4jnsgd1na2vs0mg"},{"bike_id":"498de633-1978-409b-aa35-b617d56ba506","system_id":"levelo_inurba_marseille","lat":43.289401,"lon":5.366452,"is_reserved":false,"is_disabled":false,"rental_uris":{"android":"levelo://app?vid=498de633-1978-409b-aa35-b617d56ba506","ios":"levelo://app?vid=498de633-1978-409b-aa35-b617d56ba506"},"vehicle_type_id":"4","last_reported":1759212977,"current_range_meters":11200,"station_id":"ce4bhap2rcd13ifvqek0","pricing_plan_id":"cebpf4jnsgd1na2vs0mg"},{"bike_id":"8bb101c2-278d-4e44-8377-e6edafc0c996","system_id":"levelo_inurba_marseille","lat":43.27505,"lon":5.4245,"is_reserved":false,"is_disabled":false,"rental_uris":{"android":"levelo://app?vid=8bb101c2-278d-4e44-8377-e6edafc0c996","ios":"levelo://app?vid=8bb101c2-278d-4e44-8377-e6edafc0c996"},"vehicle_type_id":"4","last_reported":1759212977,"current_range_meters":11200,"station_id":"ce4bhn92rcd13ifvqgrg","pricing_plan_id":"cebpf4jnsgd1na2vs0mg"},{"bike_id":"9691d79b-9c90-49e1-a00d-32a3a75d45fb","system_id":"levelo_inurba_marseille","lat":43.30214,"lon":5.39467,"is_reserved":false,"is_disabled":false,"rental_uris":{"android":"levelo://app?vid=9691d79b-9c90-49e1-a00d-32a3a75d45fb","ios":"levelo://app?vid=9691d79b-9c90-49e1-a00d-32a3a75d45fb"},"vehicle_type_id":"4","last_reported":1759212977,"current_range_meters":10800,"station_id":"ce4bh0p2rcd13ifvqd70","pricing_plan_id":"cebpf4jnsgd1na2vs0mg"},{"bike_id":"3d325c0a-452a-40b6-b976-7af3843b4d54","system_id":"levelo_inurba_marseille","lat":43.21745,"lon":5.346008,"is_reserved":false,"is_disabled":false,"rental_uris":{"android":"levelo://app?vid=3d325c0a-452a-40b6-b976-7af3843b4d54","ios":"levelo://app?vid=3d325c0a-452a-40b6-b976-7af3843b4d54"},"vehicle_type_id":"4","last_reported":1759212977,"current_range_meters":11600,"station_id":"","pricing_plan_id":"cebpf4jnsgd1na2vs0mg"},{"bike_id":"c95c82d6-0ac9-4b40-8bc0-d3e521c7a56e","system_id":"levelo_inurba_marseille","lat":43.32331,"lon":5.36715,"is_reserved":false,"is_disabled":false,"rental_uris":{"android":"levelo://app?vid=c95c82d6-0ac9-4b40-8bc0-d3e521c7a56e","ios":"levelo://app?vid=c95c82d6-0ac9-4b40-8bc0-d3e521c7a56e"},"vehicle_type_id":"4","last_reported":1759212977,"current_range_meters":11600,"station_id":"ce4bhsh2rcd13ifvqi2g","pricing_plan_id":"cebpf4jnsgd1na2vs0mg"},{"bike_id":"90b4c2c6-74ed-4bc2-b762-05e29dca864f","system_id":"levelo_inurba_marseille","lat":43.24655,"lon":5.38889,"is_reserved":false,"is_disabled":false,"rental_uris":{"android":"levelo://app?vid=90b4c2c6-74ed-4bc2-b762-05e29dca864f","ios":"levelo://app?vid=90b4c2c6-74ed-4bc2-b762-05e29dca864f"},"vehicle_type_id":"4","last_reported":1759212977,"current_range_meters":11600,"station_id":"ce4bhg12rcd13ifvqf60","pricing_plan_id":"cebpf4jnsgd1na2vs0mg"},{"bike_id":"aa123961-c527-4db0-9350-7d548f67905a","system_id":"levelo_inurba_marseille","lat":43.27946,"lon":5.38753,"is_reserved":false,"is_disabled":false,"rental_uris":{"android":"levelo://app?vid=aa123961-c527-4db0-9350-7d548f67905a","ios":"levelo://app?vid=aa123961-c527-4db0-9350-7d548f67905a"},"vehicle_type_id":"4","last_reported":1759212977,"current_range_meters":11600,"station_id":"ce4bh492rcd13ifvqdvg","pricing_plan_id":"cebpf4jnsgd1na2vs0mg"},{"bike_id":"4fcb0f1d-01f2-4136-94b8-b45efaa34c30","system_id":"levelo_inurba_marseille","lat":43.24631,"lon":5.43147,"is_reserved":false,"is_disabled":false,"rental_uris":{"android":"levelo://app?vid=4fcb0f1d-01f2-4136-94b8-b45efaa34c30","ios":"levelo://app?vid=4fcb0f1d-01f2-4136-94b8-b45efaa34c30"},"vehicle_type_id":"4","last_reported":1759212977,"current_range_meters":11600,"station_id":"st_d2m6c4gdas8pm72e190g","pricing_plan_id":"cebpf4jnsgd1na2vs0mg"},{"bike_id":"56d6a008-a903-4bd5-8ee3-1cec5d05c634","system_id":"levelo_inurba_marseille","lat":43.31749,"lon":5.39024,"is_reserved":false,"is_disabled":false,"rental_uris":{"android":"levelo://app?vid=56d6a008-a903-4bd5-8ee3-1cec5d05c634","ios":"levelo://app?vid=56d6a008-a903-4bd5-8ee3-1cec5d05c634"},"vehicle_type_id":"4","last_reported":1759212977,"current_range_meters":11600,"station_id":"ce4bhqp2rcd13ifvqhng","pricing_plan_id":"cebpf4jnsgd1na2vs0mg"},{"bike_id":"8757dd6f-abcc-4c4e-8084-37e29828ba88","system_id":"levelo_inurba_marseille","lat":43.27054,"lon":5.40265,"is_reserved":false,"is_disabled":true,"rental_uris":{"android":"levelo://app?vid=8757dd6f-abcc-4c4e-8084-37e29828ba88","ios":"levelo://app?vid=8757dd6f-abcc-4c4e-8084-37e29828ba88"},"vehicle_type_id":"4","last_reported":1759212977,"current_range_meters":11600,"station_id":"","pricing_plan_id":"cebpf4jnsgd1na2vs0mg"},{"bike_id":"cb8737f5-9915-4005-98ee-fd2aa1c38d9f","system_id":"levelo_inurba_marseille","lat":43.231831,"lon":5.399826,"is_reserved":false,"is_disabled":false,"rental_uris":{"android":"levelo://app?vid=cb8737f5-9915-4005-98ee-fd2aa1c38d9f","ios":"levelo://app?vid=cb8737f5-9915-4005-98ee-fd2aa1c38d9f"},"vehicle_type_id":"4","last_reported":1759212977,"current_range_meters":11600,"station_id":"ce4bhn12rcd13ifvqgqg","pricing_plan_id":"cebpf4jnsgd1na2vs0mg"},{"bike_id":"211afd9f-58b0-436e-9b6b-1acbadc34392","system_id":"levelo_inurba_marseille","lat":43.3236,"lon":5.36754,"is_reserved":false,"is_disabled":false,"rental_uris":{"android":"levelo://app?vid=211afd9f-58b0-436e-9b6b-1acbadc34392","ios":"levelo://app?vid=211afd9f-58b0-436e-9b6b-1acbadc34392"},"vehicle_type_id":"4","last_reported":1759212977,"current_range_meters":11600,"station_id":"ce4bhsh2rcd13ifvqi2g","pricing_plan_id":"cebpf4jnsgd1na2vs0mg"},{"bike_id":"aebf0e68-ba27-412a-9ce2-11cc42127dee","system_id":"levelo_inurba_marseille","lat":43.337444,"lon":5.374475,"is_reserved":false,"is_disabled":false,"rental_uris":{"android":"levelo://app?vid=aebf0e68-ba27-412a-9ce2-11cc42127dee","ios":"levelo://app?vid=aebf0e68-ba27-412a-9ce2-11cc42127dee"},"vehicle_type_id":"4","last_reported":1759212977,"current_range_meters":11600,"station_id":"","pricing_plan_id":"cebpf4jnsgd1na2vs0mg"},{"bike_id":"e17857ef-9057-4d30-b1e9-4ab6ead4c304","system_id":"levelo_inurba_marseille","lat":43.246492,"lon":5.388917,"is_reserved":false,"is_disabled":true,"rental_uris":{"android":"levelo://app?vid=e17857ef-9057-4d30-b1e9-4ab6ead4c304","ios":"levelo://app?vid=e17857ef-9057-4d30-b1e9-4ab6ead4c304"},"vehicle_type_id":"4","last_reported":1759212977,"current_range_meters":12000,"station_id":"ce4bhg12rcd13ifvqf60","pricing_plan_id":"cebpf4jnsgd1na2vs0mg"},{"bike_id":"8cbcf5e7-b804-4925-bbed-5f57e8580ccf","system_id":"levelo_inurba_marseille","lat":43.31519,"lon":5.36803,"is_reserved":false,"is_disabled":false,"rental_uris":{"android":"levelo://app?vid=8cbcf5e7-b804-4925-bbed-5f57e8580ccf","ios":"levelo://app?vid=8cbcf5e7-b804-4925-bbed-5f57e8580ccf"},"vehicle_type_id":"4","last_reported":1759212977,"current_range_meters":12000,"station_id":"","pricing_plan_id":"cebpf4jnsgd1na2vs0mg"},{"bike_id":"deca1fa1-67bc-4208-81e8-8ff5162ccae3","system_id":"levelo_inurba_marseille","lat":43.32106,"lon":5.36776,"is_reserved":false,"is_disabled":true,"rental_uris":{"android":"levelo://app?vid=deca1fa1-67bc-4208-81e8-8ff5162ccae3","ios":"levelo://app?vid=deca1fa1-67bc-4208-81e8-8ff5162ccae3"},"vehicle_type_id":"4","last_reported":1759212977,"current_range_meters":12000,"station_id":"ce4bhrh2rcd13ifvqhug","pricing_plan_id":"cebpf4jnsgd1na2vs0mg"},{"bike_id":"96520869-d013-4e0c-a355-f7bbd728ba84","system_id":"levelo_inurba_marseille","lat":43.32364,"lon":5.36752,"is_reserved":false,"is_disabled":false,"rental_uris":{"android":"levelo://app?vid=96520869-d013-4e0c-a355-f7bbd728ba84","ios":"levelo://app?vid=96520869-d013-4e0c-a355-f7bbd728ba84"},"vehicle_type_id":"4","last_reported":1759212977,"current_range_meters":12400,"station_id":"ce4bhsh2rcd13ifvqi2g","pricing_plan_id":"cebpf4jnsgd1na2vs0mg"},{"bike_id":"7141d5c0-e60c-44f1-bfa8-47000c17aa41","system_id":"levelo_inurba_marseille","lat":43.32047,"lon":5.38117,"is_reserved":false,"is_disabled":false,"rental_uris":{"android":"levelo://app?vid=7141d5c0-e60c-44f1-bfa8-47000c17aa41","ios":"levelo://app?vid=7141d5c0-e60c-44f1-bfa8-47000c17aa41"},"vehicle_type_id":"4","last_reported":1759212977,"current_range_meters":12400,"station_id":"","pricing_plan_id":"cebpf4jnsgd1na2vs0mg"},{"bike_id":"99ce2063-5dfb-4ed3-a4a6-8fc3a54c4890","system_id":"levelo_inurba_marseille","lat":43.337444,"lon":5.374475,"is_reserved":false,"is_disabled":false,"rental_uris":{"android":"levelo://app?vid=99ce2063-5dfb-4ed3-a4a6-8fc3a54c4890","ios":"levelo://app?vid=99ce2063-5dfb-4ed3-a4a6-8fc3a54c4890"},"vehicle_type_id":"4","last_reported":1759212977,"current_range_meters":12400,"station_id":"","pricing_plan_id":"cebpf4jnsgd1na2vs0mg"},{"bike_id":"716ec372-1e32-4564-8f0e-da5da7c66c4a","system_id":"levelo_inurba_marseille","lat":43.25736,"lon":5.41128,"is_reserved":false,"is_disabled":false,"rental_uris":{"android":"levelo://app?vid=716ec372-1e32-4564-8f0e-da5da7c66c4a","ios":"levelo://app?vid=716ec372-1e32-4564-8f0e-da5da7c66c4a"},"vehicle_type_id":"4","last_reported":1759212977,"current_range_meters":12800,"station_id":"ce4bhkp2rcd13ifvqgd0","pricing_plan_id":"cebpf4jnsgd1na2vs0mg"},{"bike_id":"738a51a6-02d0-4def-8f3f-9c82f6a6dd05","system_id":"levelo_inurba_marseille","lat":43.32339,"lon":5.367,"is_reserved":false,"is_disabled":false,"rental_uris":{"android":"levelo://app?vid=738a51a6-02d0-4def-8f3f-9c82f6a6dd05","ios":"levelo://app?vid=738a51a6-02d0-4def-8f3f-9c82f6a6dd05"},"vehicle_type_id":"4","last_reported":1759212977,"current_range_meters":12800,"station_id":"","pricing_plan_id":"cebpf4jnsgd1na2vs0mg"},{"bike_id":"13604148-437a-4148-9ed9-019ca4e03ec3","system_id":"levelo_inurba_marseille","lat":43.24635,"lon":5.4315,"is_reserved":false,"is_disabled":false,"rental_uris":{"android":"levelo://app?vid=13604148-437a-4148-9ed9-019ca4e03ec3","ios":"levelo://app?vid=13604148-437a-4148-9ed9-019ca4e03ec3"},"vehicle_type_id":"4","last_reported":1759212977,"current_range_meters":12800,"station_id":"st_d2m6c4gdas8pm72e190g","pricing_plan_id":"cebpf4jnsgd1na2vs0mg"},{"bike_id":"56ca0258-bee9-4eb2-b3c5-63b5cd0b9e67","system_id":"levelo_inurba_marseille","lat":43.33737,"lon":5.37445,"is_reserved":false,"is_disabled":false,"rental_uris":{"android":"levelo://app?vid=56ca0258-bee9-4eb2-b3c5-63b5cd0b9e67","ios":"levelo://app?vid=56ca0258-bee9-4eb2-b3c5-63b5cd0b9e67"},"vehicle_type_id":"4","last_reported":1759212977,"current_range_meters":12800,"station_id":"","pricing_plan_id":"cebpf4jnsgd1na2vs0mg"},{"bike_id":"92662833-c6ac-4b02-b7df-1638b54b1972","system_id":"levelo_inurba_marseille","lat":43.33742,"lon":5.37449,"is_reserved":false,"is_disabled":false,"rental_uris":{"android":"levelo://app?vid=92662833-c6ac-4b02-b7df-1638b54b1972","ios":"levelo://app?vid=92662833-c6ac-4b02-b7df-1638b54b1972"},"vehicle_type_id":"4","last_reported":1759212977,"current_range_meters":12800,"station_id":"","pricing_plan_id":"cebpf4jnsgd1na2vs0mg"},{"bike_id":"f8d78e5f-60e1-4623-939f-49e76ff16505","system_id":"levelo_inurba_marseille","lat":43.33742,"lon":5.37448,"is_reserved":false,"is_disabled":false,"rental_uris":{"android":"levelo://app?vid=f8d78e5f-60e1-4623-939f-49e76ff16505","ios":"levelo://app?vid=f8d78e5f-60e1-4623-939f-49e76ff16505"},"vehicle_type_id":"4","last_reported":1759212977,"current_range_meters":12800,"station_id":"","pricing_plan_id":"cebpf4jnsgd1na2vs0mg"},{"bike_id":"1fe9f341-3892-4b86-b7cc-35780bf305e0","system_id":"levelo_inurba_marseille","lat":43.24078,"lon":5.37754,"is_reserved":false,"is_disabled":false,"rental_uris":{"android":"levelo://app?vid=1fe9f341-3892-4b86-b7cc-35780bf305e0","ios":"levelo://app?vid=1fe9f341-3892-4b86-b7cc-35780bf305e0"},"vehicle_type_id":"4","last_reported":1759212977,"current_range_meters":13600,"station_id":"","pricing_plan_id":"cebpf4jnsgd1na2vs0mg"},{"bike_id":"8c889c5e-dbff-42f9-9e9a-56a3d0500fe9","system_id":"levelo_inurba_marseille","lat":43.30292,"lon":5.36994,"is_reserved":false,"is_disabled":false,"rental_uris":{"android":"levelo://app?vid=8c889c5e-dbff-42f9-9e9a-56a3d0500fe9","ios":"levelo://app?vid=8c889c5e-dbff-42f9-9e9a-56a3d0500fe9"},"vehicle_type_id":"4","last_reported":1759212977,"current_range_meters":13600,"station_id":"","pricing_plan_id":"cebpf4jnsgd1na2vs0mg"},{"bike_id":"f44df0c8-3c0a-4103-982e-900169d96e81","system_id":"levelo_inurba_marseille","lat":43.32057,"lon":5.36743,"is_reserved":false,"is_disabled":false,"rental_uris":{"android":"levelo://app?vid=f44df0c8-3c0a-4103-982e-900169d96e81","ios":"levelo://app?vid=f44df0c8-3c0a-4103-982e-900169d96e81"},"vehicle_type_id":"4","last_reported":1759212977,"current_range_meters":13600,"station_id":"ce4bhrh2rcd13ifvqhug","pricing_plan_id":"cebpf4jnsgd1na2vs0mg"},{"bike_id":"5dd1f816-a1a5-41d1-a520-787104446b44","system_id":"levelo_inurba_marseille","lat":43.295574,"lon":5.398094,"is_reserved":false,"is_disabled":false,"rental_uris":{"android":"levelo://app?vid=5dd1f816-a1a5-41d1-a520-787104446b44","ios":"levelo://app?vid=5dd1f816-a1a5-41d1-a520-787104446b44"},"vehicle_type_id":"4","last_reported":1759212977,"current_range_meters":12800,"station_id":"ce4bh0p2rcd13ifvqd70","pricing_plan_id":"cebpf4jnsgd1na2vs0mg"},{"bike_id":"0aba4fe3-5dca-4d79-8b9d-2fc77d6e7d70","system_id":"levelo_inurba_marseille","lat":43.28418,"lon":5.349815,"is_reserved":false,"is_disabled":false,"rental_uris":{"android":"levelo://app?vid=0aba4fe3-5dca-4d79-8b9d-2fc77d6e7d70","ios":"levelo://app?vid=0aba4fe3-5dca-4d79-8b9d-2fc77d6e7d70"},"vehicle_type_id":"4","last_reported":1759212977,"current_range_meters":14000,"station_id":"","pricing_plan_id":"cebpf4jnsgd1na2vs0mg"},{"bike_id":"d95ed39d-3187-478d-893b-49d469c5597d","system_id":"levelo_inurba_marseille","lat":43.29034,"lon":5.39981,"is_reserved":false,"is_disabled":false,"rental_uris":{"android":"levelo://app?vid=d95ed39d-3187-478d-893b-49d469c5597d","ios":"levelo://app?vid=d95ed39d-3187-478d-893b-49d469c5597d"},"vehicle_type_id":"4","last_reported":1759212977,"current_range_meters":14000,"station_id":"ce4bh392rcd13ifvqdm0","pricing_plan_id":"cebpf4jnsgd1na2vs0mg"},{"bike_id":"80eb2e8c-91ca-4f4f-ae30-be43b16ed6da","system_id":"levelo_inurba_marseille","lat":43.30544,"lon":5.36565,"is_reserved":false,"is_disabled":false,"rental_uris":{"android":"levelo://app?vid=80eb2e8c-91ca-4f4f-ae30-be43b16ed6da","ios":"levelo://app?vid=80eb2e8c-91ca-4f4f-ae30-be43b16ed6da"},"vehicle_type_id":"4","last_reported":1759212977,"current_range_meters":14400,"station_id":"ce4bgs12rcd13ifvqcag","pricing_plan_id":"cebpf4jnsgd1na2vs0mg"},{"bike_id":"d2f46c9e-a53c-42a7-ad54-fd7c896f4565","system_id":"levelo_inurba_marseille","lat":43.33797,"lon":5.37428,"is_reserved":false,"is_disabled":false,"rental_uris":{"android":"levelo://app?vid=d2f46c9e-a53c-42a7-ad54-fd7c896f4565","ios":"levelo://app?vid=d2f46c9e-a53c-42a7-ad54-fd7c896f4565"},"vehicle_type_id":"4","last_reported":1759212977,"current_range_meters":14400,"station_id":"","pricing_plan_id":"cebpf4jnsgd1na2vs0mg"},{"bike_id":"76c8ca32-94fb-4666-ac3c-b567aef2c353","system_id":"levelo_inurba_marseille","lat":43.31986,"lon":5.38138,"is_reserved":false,"is_disabled":false,"rental_uris":{"android":"levelo://app?vid=76c8ca32-94fb-4666-ac3c-b567aef2c353","ios":"levelo://app?vid=76c8ca32-94fb-4666-ac3c-b567aef2c353"},"vehicle_type_id":"4","last_reported":1759212977,"current_range_meters":14800,"station_id":"ce4bhr12rcd13ifvqhpg","pricing_plan_id":"cebpf4jnsgd1na2vs0mg"},{"bike_id":"883a65d4-55a9-42dd-99cd-31d67fb4a0f4","system_id":"levelo_inurba_marseille","lat":43.33601,"lon":5.4104,"is_reserved":false,"is_disabled":false,"rental_uris":{"android":"levelo://app?vid=883a65d4-55a9-42dd-99cd-31d67fb4a0f4","ios":"levelo://app?vid=883a65d4-55a9-42dd-99cd-31d67fb4a0f4"},"vehicle_type_id":"4","last_reported":1759212977,"current_range_meters":14800,"station_id":"ce4bhqh2rcd13ifvqhmg","pricing_plan_id":"cebpf4jnsgd1na2vs0mg"},{"bike_id":"0387479e-5b84-466d-bcc1-d540e31e7431","system_id":"levelo_inurba_marseille","lat":43.30534,"lon":5.384257,"is_reserved":false,"is_disabled":false,"rental_uris":{"android":"levelo://app?vid=0387479e-5b84-466d-bcc1-d540e31e7431","ios":"levelo://app?vid=0387479e-5b84-466d-bcc1-d540e31e7431"},"vehicle_type_id":"4","last_reported":1759212977,"current_range_meters":14800,"station_id":"ce4bgg92rcd13ifvqb30","pricing_plan_id":"cebpf4jnsgd1na2vs0mg"},{"bike_id":"149cb654-9e06-44d3-bb84-e380626e80f6","system_id":"levelo_inurba_marseille","lat":43.30242,"lon":5.4006,"is_reserved":false,"is_disabled":false,"rental_uris":{"android":"levelo://app?vid=149cb654-9e06-44d3-bb84-e380626e80f6","ios":"levelo://app?vid=149cb654-9e06-44d3-bb84-e380626e80f6"},"vehicle_type_id":"4","last_reported":1759212977,"current_range_meters":14800,"station_id":"ce4bgvh2rcd13ifvqcs0","pricing_plan_id":"cebpf4jnsgd1na2vs0mg"},{"bike_id":"2ab535df-4c2c-40d8-af4f-189047a67c11","system_id":"levelo_inurba_marseille","lat":43.24618,"lon":5.43149,"is_reserved":false,"is_disabled":false,"rental_uris":{"android":"levelo://app?vid=2ab535df-4c2c-40d8-af4f-189047a67c11","ios":"levelo://app?vid=2ab535df-4c2c-40d8-af4f-189047a67c11"},"vehicle_type_id":"4","last_reported":1759212977,"current_range_meters":14800,"station_id":"st_d2m6c4gdas8pm72e190g","pricing_plan_id":"cebpf4jnsgd1na2vs0mg"},{"bike_id":"929b4fd3-e34f-49d6-b065-6b789d6f4ace","system_id":"levelo_inurba_marseille","lat":43.284716,"lon":5.384212,"is_reserved":false,"is_disabled":false,"rental_uris":{"android":"levelo://app?vid=929b4fd3-e34f-49d6-b065-6b789d6f4ace","ios":"levelo://app?vid=929b4fd3-e34f-49d6-b065-6b789d6f4ace"},"vehicle_type_id":"4","last_reported":1759212977,"current_range_meters":15200,"station_id":"ce4bh512rcd13ifvqe3g","pricing_plan_id":"cebpf4jnsgd1na2vs0mg"},{"bike_id":"1d77b7d7-6c50-47ce-a252-2a4011bccda7","system_id":"levelo_inurba_marseille","lat":43.259516,"lon":5.413679,"is_reserved":false,"is_disabled":false,"rental_uris":{"android":"levelo://app?vid=1d77b7d7-6c50-47ce-a252-2a4011bccda7","ios":"levelo://app?vid=1d77b7d7-6c50-47ce-a252-2a4011bccda7"},"vehicle_type_id":"4","last_reported":1759212977,"current_range_meters":15200,"station_id":"","pricing_plan_id":"cebpf4jnsgd1na2vs0mg"},{"bike_id":"d114139c-60d0-4459-ba3b-cac62be00268","system_id":"levelo_inurba_marseille","lat":43.30176,"lon":5.37421,"is_reserved":false,"is_disabled":true,"rental_uris":{"android":"levelo://app?vid=d114139c-60d0-4459-ba3b-cac62be00268","ios":"levelo://app?vid=d114139c-60d0-4459-ba3b-cac62be00268"},"vehicle_type_id":"4","last_reported":1759212977,"current_range_meters":15200,"station_id":"ce4bgs92rcd13ifvqcc0","pricing_plan_id":"cebpf4jnsgd1na2vs0mg"},{"bike_id":"63aa2455-2da3-4e9c-9e4e-54ed059c09ac","system_id":"levelo_inurba_marseille","lat":43.31661,"lon":5.38984,"is_reserved":false,"is_disabled":false,"rental_uris":{"android":"levelo://app?vid=63aa2455-2da3-4e9c-9e4e-54ed059c09ac","ios":"levelo://app?vid=63aa2455-2da3-4e9c-9e4e-54ed059c09ac"},"vehicle_type_id":"4","last_reported":1759212977,"current_range_meters":15200,"station_id":"","pricing_plan_id":"cebpf4jnsgd1na2vs0mg"},{"bike_id":"adfbe18b-7ca7-424a-9090-23d85cce22c6","system_id":"levelo_inurba_marseille","lat":43.300451,"lon":5.409275,"is_reserved":false,"is_disabled":false,"rental_uris":{"android":"levelo://app?vid=adfbe18b-7ca7-424a-9090-23d85cce22c6","ios":"levelo://app?vid=adfbe18b-7ca7-424a-9090-23d85cce22c6"},"vehicle_type_id":"4","last_reported":1759212977,"current_range_meters":16000,"station_id":"","pricing_plan_id":"cebpf4jnsgd1na2vs0mg"},{"bike_id":"5f8245c1-d6d3-4e20-af8e-6d792fdc04ce","system_id":"levelo_inurba_marseille","lat":43.29852,"lon":5.45608,"is_reserved":false,"is_disabled":false,"rental_uris":{"android":"levelo://app?vid=5f8245c1-d6d3-4e20-af8e-6d792fdc04ce","ios":"levelo://app?vid=5f8245c1-d6d3-4e20-af8e-6d792fdc04ce"},"vehicle_type_id":"4","last_reported":1759212977,"current_range_meters":16000,"station_id":"","pricing_plan_id":"cebpf4jnsgd1na2vs0mg"},{"bike_id":"a29bee59-ea4f-424e-b048-900473be4ae3","system_id":"levelo_inurba_marseille","lat":43.284546,"lon":5.358773,"is_reserved":false,"is_disabled":false,"rental_uris":{"android":"levelo://app?vid=a29bee59-ea4f-424e-b048-900473be4ae3","ios":"levelo://app?vid=a29bee59-ea4f-424e-b048-900473be4ae3"},"vehicle_type_id":"4","last_reported":1759212977,"current_range_meters":16000,"station_id":"","pricing_plan_id":"cebpf4jnsgd1na2vs0mg"},{"bike_id":"d3626de2-8599-4d6e-9423-051de6f3e78a","system_id":"levelo_inurba_marseille","lat":43.29521,"lon":5.38547,"is_reserved":false,"is_disabled":true,"rental_uris":{"android":"levelo://app?vid=d3626de2-8599-4d6e-9423-051de6f3e78a","ios":"levelo://app?vid=d3626de2-8599-4d6e-9423-051de6f3e78a"},"vehicle_type_id":"4","last_reported":1759212977,"current_range_meters":16000,"station_id":"ce4bgih2rcd13ifvqba0","pricing_plan_id":"cebpf4jnsgd1na2vs0mg"},{"bike_id":"467353dc-87e8-41a7-84b6-956858e8b1a7","system_id":"levelo_inurba_marseille","lat":43.31292,"lon":5.39715,"is_reserved":false,"is_disabled":false,"rental_uris":{"android":"levelo://app?vid=467353dc-87e8-41a7-84b6-956858e8b1a7","ios":"levelo://app?vid=467353dc-87e8-41a7-84b6-956858e8b1a7"},"vehicle_type_id":"4","last_reported":1759212977,"current_range_meters":16000,"station_id":"ce4bgvp2rcd13ifvqcu0","pricing_plan_id":"cebpf4jnsgd1na2vs0mg"},{"bike_id":"f6e3da73-c632-453c-b9a7-d01c04f51177","system_id":"levelo_inurba_marseille","lat":43.31497,"lon":5.37266,"is_reserved":false,"is_disabled":false,"rental_uris":{"android":"levelo://app?vid=f6e3da73-c632-453c-b9a7-d01c04f51177","ios":"levelo://app?vid=f6e3da73-c632-453c-b9a7-d01c04f51177"},"vehicle_type_id":"4","last_reported":1759212977,"current_range_meters":16000,"station_id":"ce4bgt12rcd13ifvqcd0","pricing_plan_id":"cebpf4jnsgd1na2vs0mg"},{"bike_id":"daa47724-0bc3-499e-971d-3ffa8820cb5d","system_id":"levelo_inurba_marseille","lat":43.30613,"lon":5.37228,"is_reserved":false,"is_disabled":false,"rental_uris":{"android":"levelo://app?vid=daa47724-0bc3-499e-971d-3ffa8820cb5d","ios":"levelo://app?vid=daa47724-0bc3-499e-971d-3ffa8820cb5d"},"vehicle_type_id":"4","last_reported":1759212977,"current_range_meters":16000,"station_id":"ce4bgqh2rcd13ifvqc4g","pricing_plan_id":"cebpf4jnsgd1na2vs0mg"},{"bike_id":"24117428-89d2-462b-8fe1-35a466fa1bf9","system_id":"levelo_inurba_marseille","lat":43.31499,"lon":5.37285,"is_reserved":false,"is_disabled":false,"rental_uris":{"android":"levelo://app?vid=24117428-89d2-462b-8fe1-35a466fa1bf9","ios":"levelo://app?vid=24117428-89d2-462b-8fe1-35a466fa1bf9"},"vehicle_type_id":"4","last_reported":1759212977,"current_range_meters":15200,"station_id":"ce4bgt12rcd13ifvqcd0","pricing_plan_id":"cebpf4jnsgd1na2vs0mg"},{"bike_id":"44631c7d-87d1-44be-96c2-2a43e54fa7d0","system_id":"levelo_inurba_marseille","lat":43.26196,"lon":5.37451,"is_reserved":false,"is_disabled":false,"rental_uris":{"android":"levelo://app?vid=44631c7d-87d1-44be-96c2-2a43e54fa7d0","ios":"levelo://app?vid=44631c7d-87d1-44be-96c2-2a43e54fa7d0"},"vehicle_type_id":"4","last_reported":1759212977,"current_range_meters":16000,"station_id":"ce4bhgp2rcd13ifvqfc0","pricing_plan_id":"cebpf4jnsgd1na2vs0mg"},{"bike_id":"3d704f10-89f9-4db3-b354-3763cd1401be","system_id":"levelo_inurba_marseille","lat":43.24649,"lon":5.38891,"is_reserved":false,"is_disabled":false,"rental_uris":{"android":"levelo://app?vid=3d704f10-89f9-4db3-b354-3763cd1401be","ios":"levelo://app?vid=3d704f10-89f9-4db3-b354-3763cd1401be"},"vehicle_type_id":"4","last_reported":1759212977,"current_range_meters":16400,"station_id":"ce4bhg12rcd13ifvqf60","pricing_plan_id":"cebpf4jnsgd1na2vs0mg"},{"bike_id":"f752559e-e357-41d0-b0e1-06afd32411be","system_id":"levelo_inurba_marseille","lat":43.27479,"lon":5.40814,"is_reserved":false,"is_disabled":false,"rental_uris":{"android":"levelo://app?vid=f752559e-e357-41d0-b0e1-06afd32411be","ios":"levelo://app?vid=f752559e-e357-41d0-b0e1-06afd32411be"},"vehicle_type_id":"4","last_reported":1759212977,"current_range_meters":16400,"station_id":"","pricing_plan_id":"cebpf4jnsgd1na2vs0mg"},{"bike_id":"8485368a-e956-48a6-b01b-622d6d1d4d64","system_id":"levelo_inurba_marseille","lat":43.2511,"lon":5.40323,"is_reserved":false,"is_disabled":false,"rental_uris":{"android":"levelo://app?vid=8485368a-e956-48a6-b01b-622d6d1d4d64","ios":"levelo://app?vid=8485368a-e956-48a6-b01b-622d6d1d4d64"},"vehicle_type_id":"4","last_reported":1759212977,"current_range_meters":16400,"station_id":"ce4bhlh2rcd13ifvqgig","pricing_plan_id":"cebpf4jnsgd1na2vs0mg"},{"bike_id":"033d752a-0dd3-4803-8f48-6d2823710baf","system_id":"levelo_inurba_marseille","lat":43.23191,"lon":5.40013,"is_reserved":false,"is_disabled":false,"rental_uris":{"android":"levelo://app?vid=033d752a-0dd3-4803-8f48-6d2823710baf","ios":"levelo://app?vid=033d752a-0dd3-4803-8f48-6d2823710baf"},"vehicle_type_id":"4","last_reported":1759212977,"current_range_meters":16400,"station_id":"ce4bhn12rcd13ifvqgqg","pricing_plan_id":"cebpf4jnsgd1na2vs0mg"},{"bike_id":"07c6b8af-64e3-4b73-be60-ffcee0965b15","system_id":"levelo_inurba_marseille","lat":43.25574,"lon":5.38248,"is_reserved":false,"is_disabled":false,"rental_uris":{"android":"levelo://app?vid=07c6b8af-64e3-4b73-be60-ffcee0965b15","ios":"levelo://app?vid=07c6b8af-64e3-4b73-be60-ffcee0965b15"},"vehicle_type_id":"4","last_reported":1759212977,"current_range_meters":16400,"station_id":"ce4bhih2rcd13ifvqfs0","pricing_plan_id":"cebpf4jnsgd1na2vs0mg"},{"bike_id":"84f305ce-7cfe-45d4-9172-1384fd3180f3","system_id":"levelo_inurba_marseille","lat":43.229344,"lon":5.35379,"is_reserved":false,"is_disabled":false,"rental_uris":{"android":"levelo://app?vid=84f305ce-7cfe-45d4-9172-1384fd3180f3","ios":"levelo://app?vid=84f305ce-7cfe-45d4-9172-1384fd3180f3"},"vehicle_type_id":"4","last_reported":1759212977,"current_range_meters":16400,"station_id":"cpo3532slgdg3j2ikp40","pricing_plan_id":"cebpf4jnsgd1na2vs0mg"},{"bike_id":"a850760d-f890-4818-860e-321d70e97b11","system_id":"levelo_inurba_marseille","lat":43.32358,"lon":5.36769,"is_reserved":false,"is_disabled":false,"rental_uris":{"android":"levelo://app?vid=a850760d-f890-4818-860e-321d70e97b11","ios":"levelo://app?vid=a850760d-f890-4818-860e-321d70e97b11"},"vehicle_type_id":"4","last_reported":1759212977,"current_range_meters":16800,"station_id":"ce4bhsh2rcd13ifvqi2g","pricing_plan_id":"cebpf4jnsgd1na2vs0mg"},{"bike_id":"30c6a142-84d7-4430-9dd8-5b1d2794f82e","system_id":"levelo_inurba_marseille","lat":43.3414,"lon":5.40914,"is_reserved":false,"is_disabled":true,"rental_uris":{"android":"levelo://app?vid=30c6a142-84d7-4430-9dd8-5b1d2794f82e","ios":"levelo://app?vid=30c6a142-84d7-4430-9dd8-5b1d2794f82e"},"vehicle_type_id":"4","last_reported":1759212977,"current_range_meters":16800,"station_id":"ce4bhqh2rcd13ifvqhlg","pricing_plan_id":"cebpf4jnsgd1na2vs0mg"},{"bike_id":"7cd433e0-4dc5-4dcb-a5c6-f17936bd4cb6","system_id":"levelo_inurba_marseille","lat":43.315681,"lon":5.40341,"is_reserved":false,"is_disabled":false,"rental_uris":{"android":"levelo://app?vid=7cd433e0-4dc5-4dcb-a5c6-f17936bd4cb6","ios":"levelo://app?vid=7cd433e0-4dc5-4dcb-a5c6-f17936bd4cb6"},"vehicle_type_id":"4","last_reported":1759212977,"current_range_meters":16800,"station_id":"","pricing_plan_id":"cebpf4jnsgd1na2vs0mg"},{"bike_id":"30cbf9c0-d8c9-49e3-afe2-ea0d70b63a10","system_id":"levelo_inurba_marseille","lat":43.28378,"lon":5.38628,"is_reserved":false,"is_disabled":true,"rental_uris":{"android":"levelo://app?vid=30cbf9c0-d8c9-49e3-afe2-ea0d70b63a10","ios":"levelo://app?vid=30cbf9c0-d8c9-49e3-afe2-ea0d70b63a10"},"vehicle_type_id":"4","last_reported":1759212977,"current_range_meters":16800,"station_id":"ce4bh492rcd13ifvqdvg","pricing_plan_id":"cebpf4jnsgd1na2vs0mg"},{"bike_id":"627f0009-c086-4f8a-8406-c08f3975bb85","system_id":"levelo_inurba_marseille","lat":43.337914,"lon":5.374267,"is_reserved":false,"is_disabled":false,"rental_uris":{"android":"levelo://app?vid=627f0009-c086-4f8a-8406-c08f3975bb85","ios":"levelo://app?vid=627f0009-c086-4f8a-8406-c08f3975bb85"},"vehicle_type_id":"4","last_reported":1759212977,"current_range_meters":16800,"station_id":"","pricing_plan_id":"cebpf4jnsgd1na2vs0mg"},{"bike_id":"5145d6e5-24cd-4d0a-ad32-2ad33d30c5df","system_id":"levelo_inurba_marseille","lat":43.3132,"lon":5.39705,"is_reserved":false,"is_disabled":false,"rental_uris":{"android":"levelo://app?vid=5145d6e5-24cd-4d0a-ad32-2ad33d30c5df","ios":"levelo://app?vid=5145d6e5-24cd-4d0a-ad32-2ad33d30c5df"},"vehicle_type_id":"4","last_reported":1759212977,"current_range_meters":17200,"station_id":"ce4bgvp2rcd13ifvqcu0","pricing_plan_id":"cebpf4jnsgd1na2vs0mg"},{"bike_id":"17de40d0-936e-4c2e-bb2c-3c080a46e9d3","system_id":"levelo_inurba_marseille","lat":43.31355,"lon":5.36729,"is_reserved":false,"is_disabled":false,"rental_uris":{"android":"levelo://app?vid=17de40d0-936e-4c2e-bb2c-3c080a46e9d3","ios":"levelo://app?vid=17de40d0-936e-4c2e-bb2c-3c080a46e9d3"},"vehicle_type_id":"4","last_reported":1759212977,"current_range_meters":17200,"station_id":"ce4bgr92rcd13ifvqc6g","pricing_plan_id":"cebpf4jnsgd1na2vs0mg"},{"bike_id":"9559e7fe-91a1-4ac0-a7d8-40fd3c5db739","system_id":"levelo_inurba_marseille","lat":43.33792,"lon":5.37487,"is_reserved":false,"is_disabled":false,"rental_uris":{"android":"levelo://app?vid=9559e7fe-91a1-4ac0-a7d8-40fd3c5db739","ios":"levelo://app?vid=9559e7fe-91a1-4ac0-a7d8-40fd3c5db739"},"vehicle_type_id":"4","last_reported":1759212977,"current_range_meters":17200,"station_id":"","pricing_plan_id":"cebpf4jnsgd1na2vs0mg"},{"bike_id":"fc96277e-6453-4bb0-af0e-c53026f29778","system_id":"levelo_inurba_marseille","lat":43.28538,"lon":5.38426,"is_reserved":false,"is_disabled":false,"rental_uris":{"android":"levelo://app?vid=fc96277e-6453-4bb0-af0e-c53026f29778","ios":"levelo://app?vid=fc96277e-6453-4bb0-af0e-c53026f29778"},"vehicle_type_id":"4","last_reported":1759212977,"current_range_meters":17200,"station_id":"","pricing_plan_id":"cebpf4jnsgd1na2vs0mg"},{"bike_id":"617dca4b-4508-4d52-9e62-d583d919ac44","system_id":"levelo_inurba_marseille","lat":43.29741,"lon":5.37109,"is_reserved":false,"is_disabled":false,"rental_uris":{"android":"levelo://app?vid=617dca4b-4508-4d52-9e62-d583d919ac44","ios":"levelo://app?vid=617dca4b-4508-4d52-9e62-d583d919ac44"},"vehicle_type_id":"4","last_reported":1759212977,"current_range_meters":17200,"station_id":"ce4bgop2rcd13ifvqc1g","pricing_plan_id":"cebpf4jnsgd1na2vs0mg"},{"bike_id":"d88e0d03-a71d-4d69-bfe0-f7906e10eef6","system_id":"levelo_inurba_marseille","lat":43.22932,"lon":5.35416,"is_reserved":false,"is_disabled":false,"rental_uris":{"android":"levelo://app?vid=d88e0d03-a71d-4d69-bfe0-f7906e10eef6","ios":"levelo://app?vid=d88e0d03-a71d-4d69-bfe0-f7906e10eef6"},"vehicle_type_id":"4","last_reported":1759212977,"current_range_meters":17200,"station_id":"cpo3532slgdg3j2ikp40","pricing_plan_id":"cebpf4jnsgd1na2vs0mg"},{"bike_id":"8176a102-a48e-4cff-ae99-5934904216a9","system_id":"levelo_inurba_marseille","lat":43.33719,"lon":5.39187,"is_reserved":false,"is_disabled":false,"rental_uris":{"android":"levelo://app?vid=8176a102-a48e-4cff-ae99-5934904216a9","ios":"levelo://app?vid=8176a102-a48e-4cff-ae99-5934904216a9"},"vehicle_type_id":"4","last_reported":1759212977,"current_range_meters":17200,"station_id":"ce4bhr92rcd13ifvqhsg","pricing_plan_id":"cebpf4jnsgd1na2vs0mg"},{"bike_id":"60ef622e-185c-462f-a003-bde5f8aa6ccf","system_id":"levelo_inurba_marseille","lat":43.30593,"lon":5.39362,"is_reserved":false,"is_disabled":false,"rental_uris":{"android":"levelo://app?vid=60ef622e-185c-462f-a003-bde5f8aa6ccf","ios":"levelo://app?vid=60ef622e-185c-462f-a003-bde5f8aa6ccf"},"vehicle_type_id":"4","last_reported":1759212977,"current_range_meters":17200,"station_id":"ce4bh0p2rcd13ifvqd80","pricing_plan_id":"cebpf4jnsgd1na2vs0mg"},{"bike_id":"6c2e96f0-0d94-4ada-b75d-f16e4d9045a7","system_id":"levelo_inurba_marseille","lat":43.23973,"lon":5.36633,"is_reserved":false,"is_disabled":false,"rental_uris":{"android":"levelo://app?vid=6c2e96f0-0d94-4ada-b75d-f16e4d9045a7","ios":"levelo://app?vid=6c2e96f0-0d94-4ada-b75d-f16e4d9045a7"},"vehicle_type_id":"4","last_reported":1759212977,"current_range_meters":17600,"station_id":"ce4bhi12rcd13ifvqfp0","pricing_plan_id":"cebpf4jnsgd1na2vs0mg"},{"bike_id":"cd226695-e354-45d8-9a5b-bb660f7610be","system_id":"levelo_inurba_marseille","lat":43.23199,"lon":5.35566,"is_reserved":false,"is_disabled":false,"rental_uris":{"android":"levelo://app?vid=cd226695-e354-45d8-9a5b-bb660f7610be","ios":"levelo://app?vid=cd226695-e354-45d8-9a5b-bb660f7610be"},"vehicle_type_id":"4","last_reported":1759212977,"current_range_meters":17600,"station_id":"ce4bhu92rcd13ifvqi70","pricing_plan_id":"cebpf4jnsgd1na2vs0mg"},{"bike_id":"1adf72d4-f2e2-443a-bd81-e3e77d2b1f3e","system_id":"levelo_inurba_marseille","lat":43.26673,"lon":5.40238,"is_reserved":false,"is_disabled":false,"rental_uris":{"android":"levelo://app?vid=1adf72d4-f2e2-443a-bd81-e3e77d2b1f3e","ios":"levelo://app?vid=1adf72d4-f2e2-443a-bd81-e3e77d2b1f3e"},"vehicle_type_id":"4","last_reported":1759212977,"current_range_meters":17600,"station_id":"","pricing_plan_id":"cebpf4jnsgd1na2vs0mg"},{"bike_id":"50a6d9be-879d-4d99-9855-abb98fbce5b8","system_id":"levelo_inurba_marseille","lat":43.337851,"lon":5.374298,"is_reserved":false,"is_disabled":false,"rental_uris":{"android":"levelo://app?vid=50a6d9be-879d-4d99-9855-abb98fbce5b8","ios":"levelo://app?vid=50a6d9be-879d-4d99-9855-abb98fbce5b8"},"vehicle_type_id":"4","last_reported":1759212977,"current_range_meters":17600,"station_id":"","pricing_plan_id":"cebpf4jnsgd1na2vs0mg"},{"bike_id":"6e35eb3a-244d-446e-ba2c-c58465f51251","system_id":"levelo_inurba_marseille","lat":43.32104,"lon":5.36792,"is_reserved":false,"is_disabled":false,"rental_uris":{"android":"levelo://app?vid=6e35eb3a-244d-446e-ba2c-c58465f51251","ios":"levelo://app?vid=6e35eb3a-244d-446e-ba2c-c58465f51251"},"vehicle_type_id":"4","last_reported":1759212977,"current_range_meters":18000,"station_id":"ce4bhrh2rcd13ifvqhug","pricing_plan_id":"cebpf4jnsgd1na2vs0mg"},{"bike_id":"a58a4c94-7754-46be-b35a-a0b84fc468a5","system_id":"levelo_inurba_marseille","lat":43.2999,"lon":5.37331,"is_reserved":false,"is_disabled":false,"rental_uris":{"android":"levelo://app?vid=a58a4c94-7754-46be-b35a-a0b84fc468a5","ios":"levelo://app?vid=a58a4c94-7754-46be-b35a-a0b84fc468a5"},"vehicle_type_id":"4","last_reported":1759212977,"current_range_meters":18000,"station_id":"","pricing_plan_id":"cebpf4jnsgd1na2vs0mg"},{"bike_id":"c7b180ae-a1e7-4a1f-9eac-082ecb2a9464","system_id":"levelo_inurba_marseille","lat":43.30473,"lon":5.37903,"is_reserved":false,"is_disabled":false,"rental_uris":{"android":"levelo://app?vid=c7b180ae-a1e7-4a1f-9eac-082ecb2a9464","ios":"levelo://app?vid=c7b180ae-a1e7-4a1f-9eac-082ecb2a9464"},"vehicle_type_id":"4","last_reported":1759212977,"current_range_meters":18000,"station_id":"ce4bgup2rcd13ifvqcn0","pricing_plan_id":"cebpf4jnsgd1na2vs0mg"},{"bike_id":"b69f459f-9325-4d3a-bdcc-5f63cb1c049b","system_id":"levelo_inurba_marseille","lat":43.25591,"lon":5.38247,"is_reserved":false,"is_disabled":false,"rental_uris":{"android":"levelo://app?vid=b69f459f-9325-4d3a-bdcc-5f63cb1c049b","ios":"levelo://app?vid=b69f459f-9325-4d3a-bdcc-5f63cb1c049b"},"vehicle_type_id":"4","last_reported":1759212977,"current_range_meters":18000,"station_id":"ce4bhih2rcd13ifvqfs0","pricing_plan_id":"cebpf4jnsgd1na2vs0mg"},{"bike_id":"4ee4ab4b-3b48-492f-9ac7-0f4a9fb55462","system_id":"levelo_inurba_marseille","lat":43.292262,"lon":5.360578,"is_reserved":false,"is_disabled":false,"rental_uris":{"android":"levelo://app?vid=4ee4ab4b-3b48-492f-9ac7-0f4a9fb55462","ios":"levelo://app?vid=4ee4ab4b-3b48-492f-9ac7-0f4a9fb55462"},"vehicle_type_id":"4","last_reported":1759212977,"current_range_meters":18000,"station_id":"ce4bhbh2rcd13ifvqeqg","pricing_plan_id":"cebpf4jnsgd1na2vs0mg"},{"bike_id":"de6dd54f-1dbb-43e2-b7d7-3b5b0b201385","system_id":"levelo_inurba_marseille","lat":43.249548,"lon":5.404967,"is_reserved":false,"is_disabled":false,"rental_uris":{"android":"levelo://app?vid=de6dd54f-1dbb-43e2-b7d7-3b5b0b201385","ios":"levelo://app?vid=de6dd54f-1dbb-43e2-b7d7-3b5b0b201385"},"vehicle_type_id":"4","last_reported":1759212977,"current_range_meters":18000,"station_id":"st_d2ngiaodas8pm72gd1h0","pricing_plan_id":"cebpf4jnsgd1na2vs0mg"},{"bike_id":"46f5ee1a-9df0-4b78-a3db-8b2e19124f11","system_id":"levelo_inurba_marseille","lat":43.23185,"lon":5.35561,"is_reserved":false,"is_disabled":false,"rental_uris":{"android":"levelo://app?vid=46f5ee1a-9df0-4b78-a3db-8b2e19124f11","ios":"levelo://app?vid=46f5ee1a-9df0-4b78-a3db-8b2e19124f11"},"vehicle_type_id":"4","last_reported":1759212977,"current_range_meters":18000,"station_id":"ce4bhu92rcd13ifvqi70","pricing_plan_id":"cebpf4jnsgd1na2vs0mg"},{"bike_id":"6b7a80f2-62dd-41b6-b602-c29d9c4a0dff","system_id":"levelo_inurba_marseille","lat":43.30281,"lon":5.37716,"is_reserved":false,"is_disabled":false,"rental_uris":{"android":"levelo://app?vid=6b7a80f2-62dd-41b6-b602-c29d9c4a0dff","ios":"levelo://app?vid=6b7a80f2-62dd-41b6-b602-c29d9c4a0dff"},"vehicle_type_id":"4","last_reported":1759212977,"current_range_meters":18000,"station_id":"ce4bguh2rcd13ifvqcj0","pricing_plan_id":"cebpf4jnsgd1na2vs0mg"},{"bike_id":"3f8a7425-65dd-467a-bda8-36ede2e6a269","system_id":"levelo_inurba_marseille","lat":43.26926,"lon":5.41055,"is_reserved":false,"is_disabled":false,"rental_uris":{"android":"levelo://app?vid=3f8a7425-65dd-467a-bda8-36ede2e6a269","ios":"levelo://app?vid=3f8a7425-65dd-467a-bda8-36ede2e6a269"},"vehicle_type_id":"4","last_reported":1759212977,"current_range_meters":18800,"station_id":"","pricing_plan_id":"cebpf4jnsgd1na2vs0mg"},{"bike_id":"e5db6ea7-283b-495a-aa8b-57f0519ff013","system_id":"levelo_inurba_marseille","lat":43.30603,"lon":5.3936,"is_reserved":false,"is_disabled":false,"rental_uris":{"android":"levelo://app?vid=e5db6ea7-283b-495a-aa8b-57f0519ff013","ios":"levelo://app?vid=e5db6ea7-283b-495a-aa8b-57f0519ff013"},"vehicle_type_id":"4","last_reported":1759212977,"current_range_meters":18800,"station_id":"ce4bh0p2rcd13ifvqd80","pricing_plan_id":"cebpf4jnsgd1na2vs0mg"},{"bike_id":"2410b542-4dbb-4ba2-8de7-3b722fc9a69f","system_id":"levelo_inurba_marseille","lat":43.28468,"lon":5.35931,"is_reserved":false,"is_disabled":true,"rental_uris":{"android":"levelo://app?vid=2410b542-4dbb-4ba2-8de7-3b722fc9a69f","ios":"levelo://app?vid=2410b542-4dbb-4ba2-8de7-3b722fc9a69f"},"vehicle_type_id":"4","last_reported":1759212977,"current_range_meters":18800,"station_id":"ce4bhah2rcd13ifvqei0","pricing_plan_id":"cebpf4jnsgd1na2vs0mg"},{"bike_id":"798edebd-592b-4b4d-b29e-eb433556261e","system_id":"levelo_inurba_marseille","lat":43.22913,"lon":5.35361,"is_reserved":false,"is_disabled":false,"rental_uris":{"android":"levelo://app?vid=798edebd-592b-4b4d-b29e-eb433556261e","ios":"levelo://app?vid=798edebd-592b-4b4d-b29e-eb433556261e"},"vehicle_type_id":"4","last_reported":1759212977,"current_range_meters":18800,"station_id":"cpo3532slgdg3j2ikp40","pricing_plan_id":"cebpf4jnsgd1na2vs0mg"},{"bike_id":"c3e24e7f-fd15-4bb0-a616-096e5fea85aa","system_id":"levelo_inurba_marseille","lat":43.25576,"lon":5.38245,"is_reserved":false,"is_disabled":true,"rental_uris":{"android":"levelo://app?vid=c3e24e7f-fd15-4bb0-a616-096e5fea85aa","ios":"levelo://app?vid=c3e24e7f-fd15-4bb0-a616-096e5fea85aa"},"vehicle_type_id":"4","last_reported":1759212977,"current_range_meters":18800,"station_id":"ce4bhih2rcd13ifvqfs0","pricing_plan_id":"cebpf4jnsgd1na2vs0mg"},{"bike_id":"db3a202b-6514-4a53-892d-e953fc1e9d26","system_id":"levelo_inurba_marseille","lat":43.225369,"lon":5.348573,"is_reserved":false,"is_disabled":false,"rental_uris":{"android":"levelo://app?vid=db3a202b-6514-4a53-892d-e953fc1e9d26","ios":"levelo://app?vid=db3a202b-6514-4a53-892d-e953fc1e9d26"},"vehicle_type_id":"4","last_reported":1759212977,"current_range_meters":18800,"station_id":"","pricing_plan_id":"cebpf4jnsgd1na2vs0mg"},{"bike_id":"b468a5e5-5faf-433c-84f6-e12599e29b43","system_id":"levelo_inurba_marseille","lat":43.28485,"lon":5.3856,"is_reserved":false,"is_disabled":false,"rental_uris":{"android":"levelo://app?vid=b468a5e5-5faf-433c-84f6-e12599e29b43","ios":"levelo://app?vid=b468a5e5-5faf-433c-84f6-e12599e29b43"},"vehicle_type_id":"4","last_reported":1759212977,"current_range_meters":18800,"station_id":"ce4bh8p2rcd13ifvqeb0","pricing_plan_id":"cebpf4jnsgd1na2vs0mg"},{"bike_id":"123e055a-692b-459b-9c4f-970a83ad75be","system_id":"levelo_inurba_marseille","lat":43.32357,"lon":5.36745,"is_reserved":false,"is_disabled":false,"rental_uris":{"android":"levelo://app?vid=123e055a-692b-459b-9c4f-970a83ad75be","ios":"levelo://app?vid=123e055a-692b-459b-9c4f-970a83ad75be"},"vehicle_type_id":"4","last_reported":1759212977,"current_range_meters":18800,"station_id":"ce4bhsh2rcd13ifvqi2g","pricing_plan_id":"cebpf4jnsgd1na2vs0mg"},{"bike_id":"69a18956-8227-442a-a4e9-9b3e6c505e0c","system_id":"levelo_inurba_marseille","lat":43.29278,"lon":5.368463,"is_reserved":false,"is_disabled":true,"rental_uris":{"android":"levelo://app?vid=69a18956-8227-442a-a4e9-9b3e6c505e0c","ios":"levelo://app?vid=69a18956-8227-442a-a4e9-9b3e6c505e0c"},"vehicle_type_id":"4","last_reported":1759212977,"current_range_meters":18800,"station_id":"ce4bhbp2rcd13ifvqesg","pricing_plan_id":"cebpf4jnsgd1na2vs0mg"},{"bike_id":"3b857ea9-4c8b-46f4-8d3b-7945956cc14c","system_id":"levelo_inurba_marseille","lat":43.3015,"lon":5.38085,"is_reserved":false,"is_disabled":false,"rental_uris":{"android":"levelo://app?vid=3b857ea9-4c8b-46f4-8d3b-7945956cc14c","ios":"levelo://app?vid=3b857ea9-4c8b-46f4-8d3b-7945956cc14c"},"vehicle_type_id":"4","last_reported":1759212977,"current_range_meters":18800,"station_id":"ce4bgjp2rcd13ifvqbh0","pricing_plan_id":"cebpf4jnsgd1na2vs0mg"},{"bike_id":"dd96ad11-bc9a-4236-a467-dab6a7e0617d","system_id":"levelo_inurba_marseille","lat":43.25339,"lon":5.42179,"is_reserved":false,"is_disabled":false,"rental_uris":{"android":"levelo://app?vid=dd96ad11-bc9a-4236-a467-dab6a7e0617d","ios":"levelo://app?vid=dd96ad11-bc9a-4236-a467-dab6a7e0617d"},"vehicle_type_id":"4","last_reported":1759212977,"current_range_meters":19200,"station_id":"st_d2m65c5bi1j21697t3ng","pricing_plan_id":"cebpf4jnsgd1na2vs0mg"},{"bike_id":"73e22ed6-f150-4bd5-a7c9-af939e7a8ce9","system_id":"levelo_inurba_marseille","lat":43.290507,"lon":5.419421,"is_reserved":false,"is_disabled":false,"rental_uris":{"android":"levelo://app?vid=73e22ed6-f150-4bd5-a7c9-af939e7a8ce9","ios":"levelo://app?vid=73e22ed6-f150-4bd5-a7c9-af939e7a8ce9"},"vehicle_type_id":"4","last_reported":1759212977,"current_range_meters":19200,"station_id":"","pricing_plan_id":"cebpf4jnsgd1na2vs0mg"},{"bike_id":"f8705e79-5078-4e8b-b69f-2113e9ea62d0","system_id":"levelo_inurba_marseille","lat":43.24809,"lon":5.37454,"is_reserved":false,"is_disabled":true,"rental_uris":{"android":"levelo://app?vid=f8705e79-5078-4e8b-b69f-2113e9ea62d0","ios":"levelo://app?vid=f8705e79-5078-4e8b-b69f-2113e9ea62d0"},"vehicle_type_id":"4","last_reported":1759212977,"current_range_meters":19200,"station_id":"ce4bhgh2rcd13ifvqfb0","pricing_plan_id":"cebpf4jnsgd1na2vs0mg"},{"bike_id":"88f93029-3e5d-4d8a-94bc-3984016787de","system_id":"levelo_inurba_marseille","lat":43.303068,"lon":5.368924,"is_reserved":false,"is_disabled":false,"rental_uris":{"android":"levelo://app?vid=88f93029-3e5d-4d8a-94bc-3984016787de","ios":"levelo://app?vid=88f93029-3e5d-4d8a-94bc-3984016787de"},"vehicle_type_id":"4","last_reported":1759212977,"current_range_meters":19200,"station_id":"ce4bgqh2rcd13ifvqc5g","pricing_plan_id":"cebpf4jnsgd1na2vs0mg"},{"bike_id":"700e2971-7ce2-46cc-996b-6959d72691c7","system_id":"levelo_inurba_marseille","lat":43.22576,"lon":5.41619,"is_reserved":false,"is_disabled":false,"rental_uris":{"android":"levelo://app?vid=700e2971-7ce2-46cc-996b-6959d72691c7","ios":"levelo://app?vid=700e2971-7ce2-46cc-996b-6959d72691c7"},"vehicle_type_id":"4","last_reported":1759212977,"current_range_meters":19200,"station_id":"st_d2o4gvlbi1j2169b742g","pricing_plan_id":"cebpf4jnsgd1na2vs0mg"},{"bike_id":"9ffeee03-e8a5-4cb8-adee-ac30f4b6368a","system_id":"levelo_inurba_marseille","lat":43.27207,"lon":5.39191,"is_reserved":false,"is_disabled":false,"rental_uris":{"android":"levelo://app?vid=9ffeee03-e8a5-4cb8-adee-ac30f4b6368a","ios":"levelo://app?vid=9ffeee03-e8a5-4cb8-adee-ac30f4b6368a"},"vehicle_type_id":"4","last_reported":1759212977,"current_range_meters":19200,"station_id":"ce4bhhp2rcd13ifvqfm0","pricing_plan_id":"cebpf4jnsgd1na2vs0mg"},{"bike_id":"606f665f-1aed-4bfd-9b33-226cd955c1ba","system_id":"levelo_inurba_marseille","lat":43.25936,"lon":5.4091,"is_reserved":false,"is_disabled":false,"rental_uris":{"android":"levelo://app?vid=606f665f-1aed-4bfd-9b33-226cd955c1ba","ios":"levelo://app?vid=606f665f-1aed-4bfd-9b33-226cd955c1ba"},"vehicle_type_id":"4","last_reported":1759212977,"current_range_meters":19200,"station_id":"ce4bhm92rcd13ifvqglg","pricing_plan_id":"cebpf4jnsgd1na2vs0mg"},{"bike_id":"bb80e5da-8df2-462f-8828-7587302fcb86","system_id":"levelo_inurba_marseille","lat":43.29784,"lon":5.37666,"is_reserved":false,"is_disabled":false,"rental_uris":{"android":"levelo://app?vid=bb80e5da-8df2-462f-8828-7587302fcb86","ios":"levelo://app?vid=bb80e5da-8df2-462f-8828-7587302fcb86"},"vehicle_type_id":"4","last_reported":1759212977,"current_range_meters":19200,"station_id":"","pricing_plan_id":"cebpf4jnsgd1na2vs0mg"},{"bike_id":"450844ba-2fc2-47be-9959-8fee61f07fb6","system_id":"levelo_inurba_marseille","lat":43.317354,"lon":5.390403,"is_reserved":false,"is_disabled":false,"rental_uris":{"android":"levelo://app?vid=450844ba-2fc2-47be-9959-8fee61f07fb6","ios":"levelo://app?vid=450844ba-2fc2-47be-9959-8fee61f07fb6"},"vehicle_type_id":"4","last_reported":1759212977,"current_range_meters":19600,"station_id":"ce4bhqp2rcd13ifvqhng","pricing_plan_id":"cebpf4jnsgd1na2vs0mg"},{"bike_id":"b7cd29c1-7e6a-4750-89cf-107360408473","system_id":"levelo_inurba_marseille","lat":43.22542,"lon":5.34824,"is_reserved":false,"is_disabled":false,"rental_uris":{"android":"levelo://app?vid=b7cd29c1-7e6a-4750-89cf-107360408473","ios":"levelo://app?vid=b7cd29c1-7e6a-4750-89cf-107360408473"},"vehicle_type_id":"4","last_reported":1759212977,"current_range_meters":19600,"station_id":"","pricing_plan_id":"cebpf4jnsgd1na2vs0mg"},{"bike_id":"2623ba51-d5c2-4cd3-abc5-4af089d04c1f","system_id":"levelo_inurba_marseille","lat":43.27913,"lon":5.396,"is_reserved":false,"is_disabled":true,"rental_uris":{"android":"levelo://app?vid=2623ba51-d5c2-4cd3-abc5-4af089d04c1f","ios":"levelo://app?vid=2623ba51-d5c2-4cd3-abc5-4af089d04c1f"},"vehicle_type_id":"4","last_reported":1759212977,"current_range_meters":19600,"station_id":"ce4bhf92rcd13ifvqf40","pricing_plan_id":"cebpf4jnsgd1na2vs0mg"},{"bike_id":"5291eb4c-31d8-41c4-84eb-aa82e7e8be34","system_id":"levelo_inurba_marseille","lat":43.2926,"lon":5.409096,"is_reserved":false,"is_disabled":false,"rental_uris":{"android":"levelo://app?vid=5291eb4c-31d8-41c4-84eb-aa82e7e8be34","ios":"levelo://app?vid=5291eb4c-31d8-41c4-84eb-aa82e7e8be34"},"vehicle_type_id":"4","last_reported":1759212977,"current_range_meters":19600,"station_id":"","pricing_plan_id":"cebpf4jnsgd1na2vs0mg"},{"bike_id":"5a9a7dd5-d62a-41e2-addd-e5fd2f39f907","system_id":"levelo_inurba_marseille","lat":43.25945,"lon":5.409,"is_reserved":false,"is_disabled":false,"rental_uris":{"android":"levelo://app?vid=5a9a7dd5-d62a-41e2-addd-e5fd2f39f907","ios":"levelo://app?vid=5a9a7dd5-d62a-41e2-addd-e5fd2f39f907"},"vehicle_type_id":"4","last_reported":1759212977,"current_range_meters":19600,"station_id":"ce4bhm92rcd13ifvqglg","pricing_plan_id":"cebpf4jnsgd1na2vs0mg"},{"bike_id":"d81e7086-a597-422a-8b7f-f9a7c928d9cf","system_id":"levelo_inurba_marseille","lat":43.29755,"lon":5.38889,"is_reserved":false,"is_disabled":false,"rental_uris":{"android":"levelo://app?vid=d81e7086-a597-422a-8b7f-f9a7c928d9cf","ios":"levelo://app?vid=d81e7086-a597-422a-8b7f-f9a7c928d9cf"},"vehicle_type_id":"4","last_reported":1759212977,"current_range_meters":19600,"station_id":"","pricing_plan_id":"cebpf4jnsgd1na2vs0mg"},{"bike_id":"a7d7834a-6060-4214-a66f-8338e20b7942","system_id":"levelo_inurba_marseille","lat":43.29091,"lon":5.3713,"is_reserved":false,"is_disabled":false,"rental_uris":{"android":"levelo://app?vid=a7d7834a-6060-4214-a66f-8338e20b7942","ios":"levelo://app?vid=a7d7834a-6060-4214-a66f-8338e20b7942"},"vehicle_type_id":"4","last_reported":1759212977,"current_range_meters":19600,"station_id":"","pricing_plan_id":"cebpf4jnsgd1na2vs0mg"},{"bike_id":"f637ae10-b632-44e7-8dc3-587139054933","system_id":"levelo_inurba_marseille","lat":43.28367,"lon":5.37673,"is_reserved":false,"is_disabled":false,"rental_uris":{"android":"levelo://app?vid=f637ae10-b632-44e7-8dc3-587139054933","ios":"levelo://app?vid=f637ae10-b632-44e7-8dc3-587139054933"},"vehicle_type_id":"4","last_reported":1759212977,"current_range_meters":19600,"station_id":"","pricing_plan_id":"cebpf4jnsgd1na2vs0mg"},{"bike_id":"abbe8cb0-7830-4fe7-82a9-7402368399e8","system_id":"levelo_inurba_marseille","lat":43.28684,"lon":5.3733,"is_reserved":false,"is_disabled":false,"rental_uris":{"android":"levelo://app?vid=abbe8cb0-7830-4fe7-82a9-7402368399e8","ios":"levelo://app?vid=abbe8cb0-7830-4fe7-82a9-7402368399e8"},"vehicle_type_id":"4","last_reported":1759212977,"current_range_meters":19600,"station_id":"ce4bh3p2rcd13ifvqdq0","pricing_plan_id":"cebpf4jnsgd1na2vs0mg"},{"bike_id":"b96299e5-d688-44da-88e2-93aa7aa0cba4","system_id":"levelo_inurba_marseille","lat":43.29111,"lon":5.382992,"is_reserved":false,"is_disabled":false,"rental_uris":{"android":"levelo://app?vid=b96299e5-d688-44da-88e2-93aa7aa0cba4","ios":"levelo://app?vid=b96299e5-d688-44da-88e2-93aa7aa0cba4"},"vehicle_type_id":"4","last_reported":1759212977,"current_range_meters":20000,"station_id":"","pricing_plan_id":"cebpf4jnsgd1na2vs0mg"},{"bike_id":"a0928d6f-71ef-4520-8162-f0bd558e42fe","system_id":"levelo_inurba_marseille","lat":43.23155,"lon":5.43728,"is_reserved":false,"is_disabled":false,"rental_uris":{"android":"levelo://app?vid=a0928d6f-71ef-4520-8162-f0bd558e42fe","ios":"levelo://app?vid=a0928d6f-71ef-4520-8162-f0bd558e42fe"},"vehicle_type_id":"4","last_reported":1759212977,"current_range_meters":20000,"station_id":"ce4bhmp2rcd13ifvqgog","pricing_plan_id":"cebpf4jnsgd1na2vs0mg"},{"bike_id":"8105eeef-5a4b-46b9-a2ef-666a8dda2a26","system_id":"levelo_inurba_marseille","lat":43.33008,"lon":5.3813,"is_reserved":false,"is_disabled":false,"rental_uris":{"android":"levelo://app?vid=8105eeef-5a4b-46b9-a2ef-666a8dda2a26","ios":"levelo://app?vid=8105eeef-5a4b-46b9-a2ef-666a8dda2a26"},"vehicle_type_id":"4","last_reported":1759212977,"current_range_meters":20000,"station_id":"","pricing_plan_id":"cebpf4jnsgd1na2vs0mg"},{"bike_id":"40b7d4e6-b98a-48ae-a93c-d8c55c3a2e51","system_id":"levelo_inurba_marseille","lat":43.27056,"lon":5.40253,"is_reserved":false,"is_disabled":false,"rental_uris":{"android":"levelo://app?vid=40b7d4e6-b98a-48ae-a93c-d8c55c3a2e51","ios":"levelo://app?vid=40b7d4e6-b98a-48ae-a93c-d8c55c3a2e51"},"vehicle_type_id":"4","last_reported":1759212977,"current_range_meters":20000,"station_id":"ce4bhk92rcd13ifvqgc0","pricing_plan_id":"cebpf4jnsgd1na2vs0mg"},{"bike_id":"d03011dd-36a9-45ab-b0a5-21705e912a58","system_id":"levelo_inurba_marseille","lat":43.29629,"lon":5.36759,"is_reserved":false,"is_disabled":false,"rental_uris":{"android":"levelo://app?vid=d03011dd-36a9-45ab-b0a5-21705e912a58","ios":"levelo://app?vid=d03011dd-36a9-45ab-b0a5-21705e912a58"},"vehicle_type_id":"4","last_reported":1759212977,"current_range_meters":20000,"station_id":"","pricing_plan_id":"cebpf4jnsgd1na2vs0mg"},{"bike_id":"4ca1b7ff-dae5-415f-95fd-bb834789a072","system_id":"levelo_inurba_marseille","lat":43.2732,"lon":5.39075,"is_reserved":false,"is_disabled":false,"rental_uris":{"android":"levelo://app?vid=4ca1b7ff-dae5-415f-95fd-bb834789a072","ios":"levelo://app?vid=4ca1b7ff-dae5-415f-95fd-bb834789a072"},"vehicle_type_id":"4","last_reported":1759212977,"current_range_meters":20000,"station_id":"ce4bhgp2rcd13ifvqfe0","pricing_plan_id":"cebpf4jnsgd1na2vs0mg"},{"bike_id":"12f27fce-c2f3-42cf-b51b-8181230e3721","system_id":"levelo_inurba_marseille","lat":43.3016,"lon":5.38054,"is_reserved":false,"is_disabled":false,"rental_uris":{"android":"levelo://app?vid=12f27fce-c2f3-42cf-b51b-8181230e3721","ios":"levelo://app?vid=12f27fce-c2f3-42cf-b51b-8181230e3721"},"vehicle_type_id":"4","last_reported":1759212977,"current_range_meters":20400,"station_id":"ce4bgjp2rcd13ifvqbh0","pricing_plan_id":"cebpf4jnsgd1na2vs0mg"},{"bike_id":"0a980e9f-bc6f-4ec2-a773-69600206ae92","system_id":"levelo_inurba_marseille","lat":43.256027,"lon":5.38988,"is_reserved":false,"is_disabled":false,"rental_uris":{"android":"levelo://app?vid=0a980e9f-bc6f-4ec2-a773-69600206ae92","ios":"levelo://app?vid=0a980e9f-bc6f-4ec2-a773-69600206ae92"},"vehicle_type_id":"4","last_reported":1759212977,"current_range_meters":20400,"station_id":"","pricing_plan_id":"cebpf4jnsgd1na2vs0mg"},{"bike_id":"25b12f92-ae1d-4063-9b9d-fc27e4d10e90","system_id":"levelo_inurba_marseille","lat":43.296,"lon":5.38119,"is_reserved":false,"is_disabled":false,"rental_uris":{"android":"levelo://app?vid=25b12f92-ae1d-4063-9b9d-fc27e4d10e90","ios":"levelo://app?vid=25b12f92-ae1d-4063-9b9d-fc27e4d10e90"},"vehicle_type_id":"4","last_reported":1759212977,"current_range_meters":20400,"station_id":"ce4bgl12rcd13ifvqbo0","pricing_plan_id":"cebpf4jnsgd1na2vs0mg"},{"bike_id":"8b8b805c-453a-4064-9a0a-973557c57048","system_id":"levelo_inurba_marseille","lat":43.26226,"lon":5.40451,"is_reserved":false,"is_disabled":false,"rental_uris":{"android":"levelo://app?vid=8b8b805c-453a-4064-9a0a-973557c57048","ios":"levelo://app?vid=8b8b805c-453a-4064-9a0a-973557c57048"},"vehicle_type_id":"4","last_reported":1759212977,"current_range_meters":20400,"station_id":"ce4bhmh2rcd13ifvqgmg","pricing_plan_id":"cebpf4jnsgd1na2vs0mg"},{"bike_id":"f6b038f6-3fd2-4781-8003-0f33063760d6","system_id":"levelo_inurba_marseille","lat":43.34143,"lon":5.40866,"is_reserved":false,"is_disabled":false,"rental_uris":{"android":"levelo://app?vid=f6b038f6-3fd2-4781-8003-0f33063760d6","ios":"levelo://app?vid=f6b038f6-3fd2-4781-8003-0f33063760d6"},"vehicle_type_id":"4","last_reported":1759212977,"current_range_meters":20400,"station_id":"ce4bhqh2rcd13ifvqhlg","pricing_plan_id":"cebpf4jnsgd1na2vs0mg"},{"bike_id":"3e504477-8817-4eee-adbb-28434c2ae538","system_id":"levelo_inurba_marseille","lat":43.271771,"lon":5.409919,"is_reserved":false,"is_disabled":false,"rental_uris":{"android":"levelo://app?vid=3e504477-8817-4eee-adbb-28434c2ae538","ios":"levelo://app?vid=3e504477-8817-4eee-adbb-28434c2ae538"},"vehicle_type_id":"4","last_reported":1759212977,"current_range_meters":20400,"station_id":"ce4bhl12rcd13ifvqgf0","pricing_plan_id":"cebpf4jnsgd1na2vs0mg"},{"bike_id":"197c02d7-6366-4390-b0a0-79550744c299","system_id":"levelo_inurba_marseille","lat":43.33785,"lon":5.3746,"is_reserved":false,"is_disabled":false,"rental_uris":{"android":"levelo://app?vid=197c02d7-6366-4390-b0a0-79550744c299","ios":"levelo://app?vid=197c02d7-6366-4390-b0a0-79550744c299"},"vehicle_type_id":"4","last_reported":1759212977,"current_range_meters":20400,"station_id":"","pricing_plan_id":"cebpf4jnsgd1na2vs0mg"},{"bike_id":"26d3d028-1921-4586-9602-206b0a490eb2","system_id":"levelo_inurba_marseille","lat":43.29301,"lon":5.37446,"is_reserved":false,"is_disabled":true,"rental_uris":{"android":"levelo://app?vid=26d3d028-1921-4586-9602-206b0a490eb2","ios":"levelo://app?vid=26d3d028-1921-4586-9602-206b0a490eb2"},"vehicle_type_id":"4","last_reported":1759212977,"current_range_meters":20800,"station_id":"","pricing_plan_id":"cebpf4jnsgd1na2vs0mg"},{"bike_id":"4f5d635c-4b3a-4df6-a4e5-6f13edd0652d","system_id":"levelo_inurba_marseille","lat":43.24073,"lon":5.37763,"is_reserved":false,"is_disabled":false,"rental_uris":{"android":"levelo://app?vid=4f5d635c-4b3a-4df6-a4e5-6f13edd0652d","ios":"levelo://app?vid=4f5d635c-4b3a-4df6-a4e5-6f13edd0652d"},"vehicle_type_id":"4","last_reported":1759212977,"current_range_meters":20800,"station_id":"ce4bhnp2rcd13ifvqgvg","pricing_plan_id":"cebpf4jnsgd1na2vs0mg"},{"bike_id":"8759452f-201d-4077-8be3-279791b763c2","system_id":"levelo_inurba_marseille","lat":43.337964,"lon":5.374253,"is_reserved":false,"is_disabled":false,"rental_uris":{"android":"levelo://app?vid=8759452f-201d-4077-8be3-279791b763c2","ios":"levelo://app?vid=8759452f-201d-4077-8be3-279791b763c2"},"vehicle_type_id":"4","last_reported":1759212977,"current_range_meters":20800,"station_id":"","pricing_plan_id":"cebpf4jnsgd1na2vs0mg"},{"bike_id":"d4e9d280-45a4-4627-8254-0c95b19b596e","system_id":"levelo_inurba_marseille","lat":43.27364,"lon":5.39058,"is_reserved":false,"is_disabled":false,"rental_uris":{"android":"levelo://app?vid=d4e9d280-45a4-4627-8254-0c95b19b596e","ios":"levelo://app?vid=d4e9d280-45a4-4627-8254-0c95b19b596e"},"vehicle_type_id":"4","last_reported":1759212977,"current_range_meters":21600,"station_id":"ce4bhgp2rcd13ifvqfe0","pricing_plan_id":"cebpf4jnsgd1na2vs0mg"},{"bike_id":"07202c59-b66b-4db4-90d3-e05766877c93","system_id":"levelo_inurba_marseille","lat":43.22526,"lon":5.34823,"is_reserved":false,"is_disabled":false,"rental_uris":{"android":"levelo://app?vid=07202c59-b66b-4db4-90d3-e05766877c93","ios":"levelo://app?vid=07202c59-b66b-4db4-90d3-e05766877c93"},"vehicle_type_id":"4","last_reported":1759212977,"current_range_meters":21600,"station_id":"","pricing_plan_id":"cebpf4jnsgd1na2vs0mg"},{"bike_id":"8975ddd9-b072-4619-adfb-e723f7a49a17","system_id":"levelo_inurba_marseille","lat":43.254917,"lon":5.37644,"is_reserved":false,"is_disabled":false,"rental_uris":{"android":"levelo://app?vid=8975ddd9-b072-4619-adfb-e723f7a49a17","ios":"levelo://app?vid=8975ddd9-b072-4619-adfb-e723f7a49a17"},"vehicle_type_id":"4","last_reported":1759212977,"current_range_meters":21600,"station_id":"ce4bhh12rcd13ifvqff0","pricing_plan_id":"cebpf4jnsgd1na2vs0mg"},{"bike_id":"e252fa8f-e559-40e7-9136-98d7400e8c80","system_id":"levelo_inurba_marseille","lat":43.317219,"lon":5.423841,"is_reserved":false,"is_disabled":false,"rental_uris":{"android":"levelo://app?vid=e252fa8f-e559-40e7-9136-98d7400e8c80","ios":"levelo://app?vid=e252fa8f-e559-40e7-9136-98d7400e8c80"},"vehicle_type_id":"4","last_reported":1759212977,"current_range_meters":21600,"station_id":"ce4bhp92rcd13ifvqhbg","pricing_plan_id":"cebpf4jnsgd1na2vs0mg"},{"bike_id":"33fedfa6-f6fd-40a5-9409-971bb5a5bc95","system_id":"levelo_inurba_marseille","lat":43.270568,"lon":5.402382,"is_reserved":false,"is_disabled":false,"rental_uris":{"android":"levelo://app?vid=33fedfa6-f6fd-40a5-9409-971bb5a5bc95","ios":"levelo://app?vid=33fedfa6-f6fd-40a5-9409-971bb5a5bc95"},"vehicle_type_id":"4","last_reported":1759212977,"current_range_meters":21600,"station_id":"ce4bhk92rcd13ifvqgc0","pricing_plan_id":"cebpf4jnsgd1na2vs0mg"},{"bike_id":"9008426e-c7f5-40cb-834c-8e99de8778ad","system_id":"levelo_inurba_marseille","lat":43.3237,"lon":5.36751,"is_reserved":false,"is_disabled":false,"rental_uris":{"android":"levelo://app?vid=9008426e-c7f5-40cb-834c-8e99de8778ad","ios":"levelo://app?vid=9008426e-c7f5-40cb-834c-8e99de8778ad"},"vehicle_type_id":"4","last_reported":1759212977,"current_range_meters":21600,"station_id":"ce4bhsh2rcd13ifvqi2g","pricing_plan_id":"cebpf4jnsgd1na2vs0mg"},{"bike_id":"89d45ac1-1381-43c2-84bb-14bb95782b78","system_id":"levelo_inurba_marseille","lat":43.28938,"lon":5.39638,"is_reserved":false,"is_disabled":false,"rental_uris":{"android":"levelo://app?vid=89d45ac1-1381-43c2-84bb-14bb95782b78","ios":"levelo://app?vid=89d45ac1-1381-43c2-84bb-14bb95782b78"},"vehicle_type_id":"4","last_reported":1759212977,"current_range_meters":21600,"station_id":"ce4bh3h2rcd13ifvqdn0","pricing_plan_id":"cebpf4jnsgd1na2vs0mg"},{"bike_id":"89ff894d-986c-4a68-b39d-142dd38efadf","system_id":"levelo_inurba_marseille","lat":43.29052,"lon":5.37585,"is_reserved":false,"is_disabled":false,"rental_uris":{"android":"levelo://app?vid=89ff894d-986c-4a68-b39d-142dd38efadf","ios":"levelo://app?vid=89ff894d-986c-4a68-b39d-142dd38efadf"},"vehicle_type_id":"4","last_reported":1759212977,"current_range_meters":21600,"station_id":"ce4bh692rcd13ifvqe90","pricing_plan_id":"cebpf4jnsgd1na2vs0mg"},{"bike_id":"fa401301-67c5-4092-aea7-e0af25cd650a","system_id":"levelo_inurba_marseille","lat":43.30462,"lon":5.37904,"is_reserved":false,"is_disabled":false,"rental_uris":{"android":"levelo://app?vid=fa401301-67c5-4092-aea7-e0af25cd650a","ios":"levelo://app?vid=fa401301-67c5-4092-aea7-e0af25cd650a"},"vehicle_type_id":"4","last_reported":1759212977,"current_range_meters":21600,"station_id":"ce4bgup2rcd13ifvqcn0","pricing_plan_id":"cebpf4jnsgd1na2vs0mg"},{"bike_id":"3bccecbe-981a-44ee-b775-dc1e58eae5b3","system_id":"levelo_inurba_marseille","lat":43.25345,"lon":5.42167,"is_reserved":false,"is_disabled":false,"rental_uris":{"android":"levelo://app?vid=3bccecbe-981a-44ee-b775-dc1e58eae5b3","ios":"levelo://app?vid=3bccecbe-981a-44ee-b775-dc1e58eae5b3"},