{"last_updated":1773422747,"ttl":60,"version":"2.2","data":{"bikes":[{"bike_id":"0ad92778-0405-4162-92fa-faf21d3b3fbb","system_id":"levelo_inurba_marseille","lat":43.30137,"lon":5.38779,"is_reserved":false,"is_disabled":false,"rental_uris":{"android":"levelo://app?vid=0ad92778-0405-4162-92fa-faf21d3b3fbb","ios":"levelo://app?vid=0ad92778-0405-4162-92fa-faf21d3b3fbb"},"vehicle_type_id":"4","last_reported":1773422747,"current_range_meters":39200,"station_id":"ce4bghh2rcd13ifvqb60","pricing_plan_id":"cebpf4jnsgd1na2vs0mg"},{"bike_id":"84258842-b27c-44d2-a3e3-a8ab065af084","system_id":"levelo_inurba_marseille","lat":43.26044,"lon":5.39416,"is_reserved":false,"is_disabled":false,"rental_uris":{"android":"levelo://app?vid=84258842-b27c-44d2-a3e3-a8ab065af084","ios":"levelo://app?vid=84258842-b27c-44d2-a3e3-a8ab065af084"},"vehicle_type_id":"4","last_reported":1773422747,"current_range_meters":36800,"station_id":"ce4bhh92rcd13ifvqfj0","pricing_plan_id":"cebpf4jnsgd1na2vs0mg"},{"bike_id":"4ee1719e-9828-41ad-ab0e-ac501a6f8dcb","system_id":"levelo_inurba_marseille","lat":43.26061,"lon":5.39402,"is_reserved":false,"is_disabled":false,"rental_uris":{"android":"levelo://app?vid=4ee1719e-9828-41ad-ab0e-ac501a6f8dcb","ios":"levelo://app?vid=4ee1719e-9828-41ad-ab0e-ac501a6f8dcb"},"vehicle_type_id":"4","last_reported":1773422747,"current_range_meters":12800,"station_id":"ce4bhh92rcd13ifvqfj0","pricing_plan_id":"cebpf4jnsgd1na2vs0mg"},{"bike_id":"6cd05da6-d17e-4256-8a19-ac38600dd9ea","system_id":"levelo_inurba_marseille","lat":43.27376,"lon":5.36269,"is_reserved":false,"is_disabled":false,"rental_uris":{"android":"levelo://app?vid=6cd05da6-d17e-4256-8a19-ac38600dd9ea","ios":"levelo://app?vid=6cd05da6-d17e-4256-8a19-ac38600dd9ea"},"vehicle_type_id":"4","last_reported":1773422747,"current_range_meters":39200,"station_id":"ce4bhbh2rcd13ifvqeo0","pricing_plan_id":"cebpf4jnsgd1na2vs0mg"},{"bike_id":"c0ca0016-4706-4e84-9dd3-8c1ffe3136b4","system_id":"levelo_inurba_marseille","lat":43.27363,"lon":5.36238,"is_reserved":false,"is_disabled":false,"rental_uris":{"android":"levelo://app?vid=c0ca0016-4706-4e84-9dd3-8c1ffe3136b4","ios":"levelo://app?vid=c0ca0016-4706-4e84-9dd3-8c1ffe3136b4"},"vehicle_type_id":"4","last_reported":1773422747,"current_range_meters":25600,"station_id":"ce4bhbh2rcd13ifvqeo0","pricing_plan_id":"cebpf4jnsgd1na2vs0mg"},{"bike_id":"7ffa041c-bc7f-4159-90b7-8ee18db551ca","system_id":"levelo_inurba_marseille","lat":43.29946,"lon":5.37307,"is_reserved":false,"is_disabled":false,"rental_uris":{"android":"levelo://app?vid=7ffa041c-bc7f-4159-90b7-8ee18db551ca","ios":"levelo://app?vid=7ffa041c-bc7f-4159-90b7-8ee18db551ca"},"vehicle_type_id":"4","last_reported":1773422747,"current_range_meters":10800,"station_id":"","pricing_plan_id":"cebpf4jnsgd1na2vs0mg"},{"bike_id":"9f19fa08-7a61-4c1f-bd7f-119fb534b29b","system_id":"levelo_inurba_marseille","lat":43.26936,"lon":5.40247,"is_reserved":false,"is_disabled":false,"rental_uris":{"android":"levelo://app?vid=9f19fa08-7a61-4c1f-bd7f-119fb534b29b","ios":"levelo://app?vid=9f19fa08-7a61-4c1f-bd7f-119fb534b29b"},"vehicle_type_id":"4","last_reported":1773422747,"current_range_meters":16400,"station_id":"cjm6bp8fraef2m0cb0m0","pricing_plan_id":"cebpf4jnsgd1na2vs0mg"},{"bike_id":"1dc6267b-dd59-4bd5-ab2f-c4527daf07d4","system_id":"levelo_inurba_marseille","lat":43.28264,"lon":5.35051,"is_reserved":false,"is_disabled":false,"rental_uris":{"android":"levelo://app?vid=1dc6267b-dd59-4bd5-ab2f-c4527daf07d4","ios":"levelo://app?vid=1dc6267b-dd59-4bd5-ab2f-c4527daf07d4"},"vehicle_type_id":"4","last_reported":1773422747,"current_range_meters":38000,"station_id":"ce4bhbp2rcd13ifvqerg","pricing_plan_id":"cebpf4jnsgd1na2vs0mg"},{"bike_id":"ae540bed-ed3b-4247-abad-fe29acd1fb3e","system_id":"levelo_inurba_marseille","lat":43.32986,"lon":5.39062,"is_reserved":false,"is_disabled":false,"rental_uris":{"android":"levelo://app?vid=ae540bed-ed3b-4247-abad-fe29acd1fb3e","ios":"levelo://app?vid=ae540bed-ed3b-4247-abad-fe29acd1fb3e"},"vehicle_type_id":"4","last_reported":1773422747,"current_range_meters":38400,"station_id":"ce4bhr92rcd13ifvqhrg","pricing_plan_id":"cebpf4jnsgd1na2vs0mg"},{"bike_id":"18f35d94-7133-4b4b-a629-0bec9d48af36","system_id":"levelo_inurba_marseille","lat":43.28473,"lon":5.48394,"is_reserved":false,"is_disabled":false,"rental_uris":{"android":"levelo://app?vid=18f35d94-7133-4b4b-a629-0bec9d48af36","ios":"levelo://app?vid=18f35d94-7133-4b4b-a629-0bec9d48af36"},"vehicle_type_id":"4","last_reported":1773422747,"current_range_meters":28000,"station_id":"","pricing_plan_id":"cebpf4jnsgd1na2vs0mg"},{"bike_id":"b2399a9f-a598-463b-80a6-f3cff6f3600d","system_id":"levelo_inurba_marseille","lat":43.30129,"lon":5.3709,"is_reserved":false,"is_disabled":false,"rental_uris":{"android":"levelo://app?vid=b2399a9f-a598-463b-80a6-f3cff6f3600d","ios":"levelo://app?vid=b2399a9f-a598-463b-80a6-f3cff6f3600d"},"vehicle_type_id":"4","last_reported":1773422747,"current_range_meters":26000,"station_id":"","pricing_plan_id":"cebpf4jnsgd1na2vs0mg"},{"bike_id":"058a40ef-aca0-46a1-b31e-3c5dc3514929","system_id":"levelo_inurba_marseille","lat":43.28425,"lon":5.35004,"is_reserved":false,"is_disabled":false,"rental_uris":{"android":"levelo://app?vid=058a40ef-aca0-46a1-b31e-3c5dc3514929","ios":"levelo://app?vid=058a40ef-aca0-46a1-b31e-3c5dc3514929"},"vehicle_type_id":"4","last_reported":1773422747,"current_range_meters":39200,"station_id":"ce4bhbh2rcd13ifvqepg","pricing_plan_id":"cebpf4jnsgd1na2vs0mg"},{"bike_id":"ead8a8d2-17cb-4cc8-b49b-913bb0907648","system_id":"levelo_inurba_marseille","lat":43.28405,"lon":5.35006,"is_reserved":false,"is_disabled":false,"rental_uris":{"android":"levelo://app?vid=ead8a8d2-17cb-4cc8-b49b-913bb0907648","ios":"levelo://app?vid=ead8a8d2-17cb-4cc8-b49b-913bb0907648"},"vehicle_type_id":"4","last_reported":1773422747,"current_range_meters":13600,"station_id":"ce4bhbh2rcd13ifvqepg","pricing_plan_id":"cebpf4jnsgd1na2vs0mg"},{"bike_id":"7db92065-fd6e-4014-982f-daf9b3e1e88d","system_id":"levelo_inurba_marseille","lat":43.2582,"lon":5.39449,"is_reserved":false,"is_disabled":false,"rental_uris":{"android":"levelo://app?vid=7db92065-fd6e-4014-982f-daf9b3e1e88d","ios":"levelo://app?vid=7db92065-fd6e-4014-982f-daf9b3e1e88d"},"vehicle_type_id":"4","last_reported":1773422747,"current_range_meters":18800,"station_id":"ce4bhip2rcd13ifvqft0","pricing_plan_id":"cebpf4jnsgd1na2vs0mg"},{"bike_id":"2160cf90-c2ed-4bac-8d60-36bbdf94fd16","system_id":"levelo_inurba_marseille","lat":43.31495,"lon":5.37312,"is_reserved":false,"is_disabled":false,"rental_uris":{"android":"levelo://app?vid=2160cf90-c2ed-4bac-8d60-36bbdf94fd16","ios":"levelo://app?vid=2160cf90-c2ed-4bac-8d60-36bbdf94fd16"},"vehicle_type_id":"4","last_reported":1773422747,"current_range_meters":38000,"station_id":"ce4bgt12rcd13ifvqcd0","pricing_plan_id":"cebpf4jnsgd1na2vs0mg"},{"bike_id":"bb59f437-04ce-472a-8259-f42eb5a79dcb","system_id":"levelo_inurba_marseille","lat":43.29933,"lon":5.37484,"is_reserved":false,"is_disabled":false,"rental_uris":{"android":"levelo://app?vid=bb59f437-04ce-472a-8259-f42eb5a79dcb","ios":"levelo://app?vid=bb59f437-04ce-472a-8259-f42eb5a79dcb"},"vehicle_type_id":"4","last_reported":1773422747,"current_range_meters":35600,"station_id":"ce4bgjh2rcd13ifvqbg0","pricing_plan_id":"cebpf4jnsgd1na2vs0mg"},{"bike_id":"85cd8cb8-1572-4483-8d2e-ca06fd40ed7c","system_id":"levelo_inurba_marseille","lat":43.32291,"lon":5.382597,"is_reserved":false,"is_disabled":false,"rental_uris":{"android":"levelo://app?vid=85cd8cb8-1572-4483-8d2e-ca06fd40ed7c","ios":"levelo://app?vid=85cd8cb8-1572-4483-8d2e-ca06fd40ed7c"},"vehicle_type_id":"4","last_reported":1773422747,"current_range_meters":24800,"station_id":"ce4bhr12rcd13ifvqhqg","pricing_plan_id":"cebpf4jnsgd1na2vs0mg"},{"bike_id":"6ce6bc7e-4959-45b9-bda0-88b32a35e3f9","system_id":"levelo_inurba_marseille","lat":43.25868,"lon":5.39898,"is_reserved":false,"is_disabled":false,"rental_uris":{"android":"levelo://app?vid=6ce6bc7e-4959-45b9-bda0-88b32a35e3f9","ios":"levelo://app?vid=6ce6bc7e-4959-45b9-bda0-88b32a35e3f9"},"vehicle_type_id":"4","last_reported":1773422747,"current_range_meters":20800,"station_id":"ce4bhl92rcd13ifvqghg","pricing_plan_id":"cebpf4jnsgd1na2vs0mg"},{"bike_id":"0e81feb6-9532-4ed6-99e4-9e1b06422676","system_id":"levelo_inurba_marseille","lat":43.30509,"lon":5.36733,"is_reserved":false,"is_disabled":false,"rental_uris":{"android":"levelo://app?vid=0e81feb6-9532-4ed6-99e4-9e1b06422676","ios":"levelo://app?vid=0e81feb6-9532-4ed6-99e4-9e1b06422676"},"vehicle_type_id":"4","last_reported":1773422747,"current_range_meters":33600,"station_id":"ce4bgrp2rcd13ifvqc9g","pricing_plan_id":"cebpf4jnsgd1na2vs0mg"},{"bike_id":"3a4ac662-ce3c-41aa-9a77-27b82ac360d5","system_id":"levelo_inurba_marseille","lat":43.31226,"lon":5.36861,"is_reserved":false,"is_disabled":false,"rental_uris":{"android":"levelo://app?vid=3a4ac662-ce3c-41aa-9a77-27b82ac360d5","ios":"levelo://app?vid=3a4ac662-ce3c-41aa-9a77-27b82ac360d5"},"vehicle_type_id":"4","last_reported":1773422747,"current_range_meters":27600,"station_id":"ce4bgl92rcd13ifvqbq0","pricing_plan_id":"cebpf4jnsgd1na2vs0mg"},{"bike_id":"0978fb05-e4c2-4d54-8d7f-1bd60b344ae9","system_id":"levelo_inurba_marseille","lat":43.28279,"lon":5.35083,"is_reserved":false,"is_disabled":true,"rental_uris":{"android":"levelo://app?vid=0978fb05-e4c2-4d54-8d7f-1bd60b344ae9","ios":"levelo://app?vid=0978fb05-e4c2-4d54-8d7f-1bd60b344ae9"},"vehicle_type_id":"4","last_reported":1773422747,"current_range_meters":28000,"station_id":"ce4bhbp2rcd13ifvqerg","pricing_plan_id":"cebpf4jnsgd1na2vs0mg"},{"bike_id":"adf6b9fd-85c1-4b11-a0ae-a9f04c23f348","system_id":"levelo_inurba_marseille","lat":43.31253,"lon":5.4016,"is_reserved":false,"is_disabled":false,"rental_uris":{"android":"levelo://app?vid=adf6b9fd-85c1-4b11-a0ae-a9f04c23f348","ios":"levelo://app?vid=adf6b9fd-85c1-4b11-a0ae-a9f04c23f348"},"vehicle_type_id":"4","last_reported":1773422747,"current_range_meters":16800,"station_id":"ce4bh092rcd13ifvqd30","pricing_plan_id":"cebpf4jnsgd1na2vs0mg"},{"bike_id":"480a954f-db3c-4cd5-acb5-179ba9006c67","system_id":"levelo_inurba_marseille","lat":43.28536,"lon":5.44102,"is_reserved":false,"is_disabled":false,"rental_uris":{"android":"levelo://app?vid=480a954f-db3c-4cd5-acb5-179ba9006c67","ios":"levelo://app?vid=480a954f-db3c-4cd5-acb5-179ba9006c67"},"vehicle_type_id":"4","last_reported":1773422747,"current_range_meters":31200,"station_id":"st_d3j3df2ikq2c7380ej80","pricing_plan_id":"cebpf4jnsgd1na2vs0mg"},{"bike_id":"cee11fd8-2dfb-448c-bea3-f036e8929785","system_id":"levelo_inurba_marseille","lat":43.28491,"lon":5.38566,"is_reserved":false,"is_disabled":false,"rental_uris":{"android":"levelo://app?vid=cee11fd8-2dfb-448c-bea3-f036e8929785","ios":"levelo://app?vid=cee11fd8-2dfb-448c-bea3-f036e8929785"},"vehicle_type_id":"4","last_reported":1773422747,"current_range_meters":33600,"station_id":"ce4bh8p2rcd13ifvqeb0","pricing_plan_id":"cebpf4jnsgd1na2vs0mg"},{"bike_id":"1b8416df-3f6d-4c68-ac11-112b698b39c2","system_id":"levelo_inurba_marseille","lat":43.25864,"lon":5.39905,"is_reserved":false,"is_disabled":false,"rental_uris":{"android":"levelo://app?vid=1b8416df-3f6d-4c68-ac11-112b698b39c2","ios":"levelo://app?vid=1b8416df-3f6d-4c68-ac11-112b698b39c2"},"vehicle_type_id":"4","last_reported":1773422747,"current_range_meters":39200,"station_id":"ce4bhl92rcd13ifvqghg","pricing_plan_id":"cebpf4jnsgd1na2vs0mg"},{"bike_id":"ced05e86-2551-48cf-8692-7f3559e5deac","system_id":"levelo_inurba_marseille","lat":43.29491,"lon":5.43304,"is_reserved":false,"is_disabled":false,"rental_uris":{"android":"levelo://app?vid=ced05e86-2551-48cf-8692-7f3559e5deac","ios":"levelo://app?vid=ced05e86-2551-48cf-8692-7f3559e5deac"},"vehicle_type_id":"4","last_reported":1773422747,"current_range_meters":14000,"station_id":"st_d3j5ugp08ojc73fj9d10","pricing_plan_id":"cebpf4jnsgd1na2vs0mg"},{"bike_id":"e60d08d4-269f-42f9-a2a3-ca188ccfe6bc","system_id":"levelo_inurba_marseille","lat":43.29537,"lon":5.37492,"is_reserved":false,"is_disabled":false,"rental_uris":{"android":"levelo://app?vid=e60d08d4-269f-42f9-a2a3-ca188ccfe6bc","ios":"levelo://app?vid=e60d08d4-269f-42f9-a2a3-ca188ccfe6bc"},"vehicle_type_id":"4","last_reported":1773422747,"current_range_meters":39200,"station_id":"ce4bgkp2rcd13ifvqbmg","pricing_plan_id":"cebpf4jnsgd1na2vs0mg"},{"bike_id":"9f7ba3ca-3697-4878-9cfb-65bb58ea097a","system_id":"levelo_inurba_marseille","lat":43.26225,"lon":5.40447,"is_reserved":false,"is_disabled":false,"rental_uris":{"android":"levelo://app?vid=9f7ba3ca-3697-4878-9cfb-65bb58ea097a","ios":"levelo://app?vid=9f7ba3ca-3697-4878-9cfb-65bb58ea097a"},"vehicle_type_id":"4","last_reported":1773422747,"current_range_meters":24400,"station_id":"ce4bhmh2rcd13ifvqgmg","pricing_plan_id":"cebpf4jnsgd1na2vs0mg"},{"bike_id":"886bcfc7-63ee-4067-a44e-c7f27783757e","system_id":"levelo_inurba_marseille","lat":43.30909,"lon":5.38277,"is_reserved":false,"is_disabled":false,"rental_uris":{"android":"levelo://app?vid=886bcfc7-63ee-4067-a44e-c7f27783757e","ios":"levelo://app?vid=886bcfc7-63ee-4067-a44e-c7f27783757e"},"vehicle_type_id":"4","last_reported":1773422747,"current_range_meters":9600,"station_id":"","pricing_plan_id":"cebpf4jnsgd1na2vs0mg"},{"bike_id":"41ae287c-9cc1-430a-84ca-70506bc523b6","system_id":"levelo_inurba_marseille","lat":43.22559,"lon":5.41629,"is_reserved":false,"is_disabled":false,"rental_uris":{"android":"levelo://app?vid=41ae287c-9cc1-430a-84ca-70506bc523b6","ios":"levelo://app?vid=41ae287c-9cc1-430a-84ca-70506bc523b6"},"vehicle_type_id":"4","last_reported":1773422747,"current_range_meters":39200,"station_id":"st_d2o4gvlbi1j2169b742g","pricing_plan_id":"cebpf4jnsgd1na2vs0mg"},{"bike_id":"21767111-0ac3-435a-87e9-2ddd6b06f1e4","system_id":"levelo_inurba_marseille","lat":43.29549,"lon":5.4226,"is_reserved":false,"is_disabled":false,"rental_uris":{"android":"levelo://app?vid=21767111-0ac3-435a-87e9-2ddd6b06f1e4","ios":"levelo://app?vid=21767111-0ac3-435a-87e9-2ddd6b06f1e4"},"vehicle_type_id":"4","last_reported":1773422747,"current_range_meters":37600,"station_id":"ce4bhph2rcd13ifvqhdg","pricing_plan_id":"cebpf4jnsgd1na2vs0mg"},{"bike_id":"e026bf23-190d-44d5-adf9-2ecf99ac220d","system_id":"levelo_inurba_marseille","lat":43.31467,"lon":5.37243,"is_reserved":false,"is_disabled":false,"rental_uris":{"android":"levelo://app?vid=e026bf23-190d-44d5-adf9-2ecf99ac220d","ios":"levelo://app?vid=e026bf23-190d-44d5-adf9-2ecf99ac220d"},"vehicle_type_id":"4","last_reported":1773422747,"current_range_meters":36400,"station_id":"","pricing_plan_id":"cebpf4jnsgd1na2vs0mg"},{"bike_id":"e74bbc00-a416-4906-b09a-e2ee6dfcbeeb","system_id":"levelo_inurba_marseille","lat":43.2621,"lon":5.37445,"is_reserved":false,"is_disabled":false,"rental_uris":{"android":"levelo://app?vid=e74bbc00-a416-4906-b09a-e2ee6dfcbeeb","ios":"levelo://app?vid=e74bbc00-a416-4906-b09a-e2ee6dfcbeeb"},"vehicle_type_id":"4","last_reported":1773422747,"current_range_meters":25200,"station_id":"ce4bhgp2rcd13ifvqfc0","pricing_plan_id":"cebpf4jnsgd1na2vs0mg"},{"bike_id":"986fb358-6689-4e60-997b-ca6f71d58fdc","system_id":"levelo_inurba_marseille","lat":43.29787,"lon":5.38106,"is_reserved":false,"is_disabled":false,"rental_uris":{"android":"levelo://app?vid=986fb358-6689-4e60-997b-ca6f71d58fdc","ios":"levelo://app?vid=986fb358-6689-4e60-997b-ca6f71d58fdc"},"vehicle_type_id":"4","last_reported":1773422747,"current_range_meters":39200,"station_id":"ce4bgip2rcd13ifvqbb0","pricing_plan_id":"cebpf4jnsgd1na2vs0mg"},{"bike_id":"292697c4-68ac-4040-8e92-1cf78ff38956","system_id":"levelo_inurba_marseille","lat":43.28842,"lon":5.35835,"is_reserved":false,"is_disabled":false,"rental_uris":{"android":"levelo://app?vid=292697c4-68ac-4040-8e92-1cf78ff38956","ios":"levelo://app?vid=292697c4-68ac-4040-8e92-1cf78ff38956"},"vehicle_type_id":"4","last_reported":1773422747,"current_range_meters":11600,"station_id":"ce4bhb12rcd13ifvqem0","pricing_plan_id":"cebpf4jnsgd1na2vs0mg"},{"bike_id":"210de9b4-3033-4c95-a839-e4b62a601c40","system_id":"levelo_inurba_marseille","lat":43.27799,"lon":5.40797,"is_reserved":false,"is_disabled":false,"rental_uris":{"android":"levelo://app?vid=210de9b4-3033-4c95-a839-e4b62a601c40","ios":"levelo://app?vid=210de9b4-3033-4c95-a839-e4b62a601c40"},"vehicle_type_id":"4","last_reported":1773422747,"current_range_meters":8800,"station_id":"","pricing_plan_id":"cebpf4jnsgd1na2vs0mg"},{"bike_id":"ee97d76b-d430-4b45-b3b0-dd8a973c7e77","system_id":"levelo_inurba_marseille","lat":43.23964,"lon":5.3662,"is_reserved":false,"is_disabled":false,"rental_uris":{"android":"levelo://app?vid=ee97d76b-d430-4b45-b3b0-dd8a973c7e77","ios":"levelo://app?vid=ee97d76b-d430-4b45-b3b0-dd8a973c7e77"},"vehicle_type_id":"4","last_reported":1773422747,"current_range_meters":16400,"station_id":"ce4bhi12rcd13ifvqfp0","pricing_plan_id":"cebpf4jnsgd1na2vs0mg"},{"bike_id":"97ecf467-9bc2-4716-8380-618c7c7ef61e","system_id":"levelo_inurba_marseille","lat":43.31591,"lon":5.37365,"is_reserved":false,"is_disabled":false,"rental_uris":{"android":"levelo://app?vid=97ecf467-9bc2-4716-8380-618c7c7ef61e","ios":"levelo://app?vid=97ecf467-9bc2-4716-8380-618c7c7ef61e"},"vehicle_type_id":"4","last_reported":1773422747,"current_range_meters":4400,"station_id":"","pricing_plan_id":"cebpf4jnsgd1na2vs0mg"},{"bike_id":"da488c81-c0d0-4ea6-91c7-ed178b9a3250","system_id":"levelo_inurba_marseille","lat":43.2828,"lon":5.35083,"is_reserved":false,"is_disabled":false,"rental_uris":{"android":"levelo://app?vid=da488c81-c0d0-4ea6-91c7-ed178b9a3250","ios":"levelo://app?vid=da488c81-c0d0-4ea6-91c7-ed178b9a3250"},"vehicle_type_id":"4","last_reported":1773422747,"current_range_meters":18800,"station_id":"ce4bgqh2rcd13ifvqc5g","pricing_plan_id":"cebpf4jnsgd1na2vs0mg"},{"bike_id":"79483cf5-647d-48ac-aac7-04b4eee60681","system_id":"levelo_inurba_marseille","lat":43.31366,"lon":5.36706,"is_reserved":false,"is_disabled":true,"rental_uris":{"android":"levelo://app?vid=79483cf5-647d-48ac-aac7-04b4eee60681","ios":"levelo://app?vid=79483cf5-647d-48ac-aac7-04b4eee60681"},"vehicle_type_id":"4","last_reported":1773422747,"current_range_meters":39200,"station_id":"","pricing_plan_id":"cebpf4jnsgd1na2vs0mg"},{"bike_id":"a32106be-375b-4a35-92db-7951151fd382","system_id":"levelo_inurba_marseille","lat":43.2962,"lon":5.37154,"is_reserved":false,"is_disabled":true,"rental_uris":{"android":"levelo://app?vid=a32106be-375b-4a35-92db-7951151fd382","ios":"levelo://app?vid=a32106be-375b-4a35-92db-7951151fd382"},"vehicle_type_id":"4","last_reported":1773422747,"current_range_meters":28400,"station_id":"ce4bgnh2rcd13ifvqc0g","pricing_plan_id":"cebpf4jnsgd1na2vs0mg"},{"bike_id":"1456d7b8-e2f9-4205-9584-20f6abe58a4d","system_id":"levelo_inurba_marseille","lat":43.30056,"lon":5.43731,"is_reserved":false,"is_disabled":false,"rental_uris":{"android":"levelo://app?vid=1456d7b8-e2f9-4205-9584-20f6abe58a4d","ios":"levelo://app?vid=1456d7b8-e2f9-4205-9584-20f6abe58a4d"},"vehicle_type_id":"4","last_reported":1773422747,"current_range_meters":35200,"station_id":"","pricing_plan_id":"cebpf4jnsgd1na2vs0mg"},{"bike_id":"114e304d-e20d-4f8a-9525-1a164e809dee","system_id":"levelo_inurba_marseille","lat":43.23963,"lon":5.36629,"is_reserved":false,"is_disabled":false,"rental_uris":{"android":"levelo://app?vid=114e304d-e20d-4f8a-9525-1a164e809dee","ios":"levelo://app?vid=114e304d-e20d-4f8a-9525-1a164e809dee"},"vehicle_type_id":"4","last_reported":1773422747,"current_range_meters":29600,"station_id":"ce4bhi12rcd13ifvqfp0","pricing_plan_id":"cebpf4jnsgd1na2vs0mg"},{"bike_id":"f1371b32-07b4-4e9b-a729-77d24c7277a8","system_id":"levelo_inurba_marseille","lat":43.30535,"lon":5.3685,"is_reserved":false,"is_disabled":false,"rental_uris":{"android":"levelo://app?vid=f1371b32-07b4-4e9b-a729-77d24c7277a8","ios":"levelo://app?vid=f1371b32-07b4-4e9b-a729-77d24c7277a8"},"vehicle_type_id":"4","last_reported":1773422747,"current_range_meters":27600,"station_id":"","pricing_plan_id":"cebpf4jnsgd1na2vs0mg"},{"bike_id":"a29ef319-c201-4a0d-88b8-75666b991d70","system_id":"levelo_inurba_marseille","lat":43.30207,"lon":5.39438,"is_reserved":false,"is_disabled":false,"rental_uris":{"android":"levelo://app?vid=a29ef319-c201-4a0d-88b8-75666b991d70","ios":"levelo://app?vid=a29ef319-c201-4a0d-88b8-75666b991d70"},"vehicle_type_id":"4","last_reported":1773422747,"current_range_meters":14400,"station_id":"ce4bh0p2rcd13ifvqd70","pricing_plan_id":"cebpf4jnsgd1na2vs0mg"},{"bike_id":"b3eb5008-db77-4fa1-ad7e-4f507dde5179","system_id":"levelo_inurba_marseille","lat":43.30217,"lon":5.37043,"is_reserved":false,"is_disabled":false,"rental_uris":{"android":"levelo://app?vid=b3eb5008-db77-4fa1-ad7e-4f507dde5179","ios":"levelo://app?vid=b3eb5008-db77-4fa1-ad7e-4f507dde5179"},"vehicle_type_id":"4","last_reported":1773422747,"current_range_meters":28800,"station_id":"","pricing_plan_id":"cebpf4jnsgd1na2vs0mg"},{"bike_id":"a6b0480c-aedd-4d6a-aa8a-c8bd9bbee5b5","system_id":"levelo_inurba_marseille","lat":43.33776,"lon":5.37462,"is_reserved":false,"is_disabled":false,"rental_uris":{"android":"levelo://app?vid=a6b0480c-aedd-4d6a-aa8a-c8bd9bbee5b5","ios":"levelo://app?vid=a6b0480c-aedd-4d6a-aa8a-c8bd9bbee5b5"},"vehicle_type_id":"4","last_reported":1773422747,"current_range_meters":29600,"station_id":"","pricing_plan_id":"cebpf4jnsgd1na2vs0mg"},{"bike_id":"0e2e5fce-efa1-4033-b17e-62982a9ef9a8","system_id":"levelo_inurba_marseille","lat":43.2738,"lon":5.3624,"is_reserved":false,"is_disabled":false,"rental_uris":{"android":"levelo://app?vid=0e2e5fce-efa1-4033-b17e-62982a9ef9a8","ios":"levelo://app?vid=0e2e5fce-efa1-4033-b17e-62982a9ef9a8"},"vehicle_type_id":"4","last_reported":1773422747,"current_range_meters":7200,"station_id":"ce4bhbh2rcd13ifvqeo0","pricing_plan_id":"cebpf4jnsgd1na2vs0mg"},{"bike_id":"84f4a2bf-2617-4f6d-b5b2-52999d43fb4f","system_id":"levelo_inurba_marseille","lat":43.27378,"lon":5.36251,"is_reserved":false,"is_disabled":true,"rental_uris":{"android":"levelo://app?vid=84f4a2bf-2617-4f6d-b5b2-52999d43fb4f","ios":"levelo://app?vid=84f4a2bf-2617-4f6d-b5b2-52999d43fb4f"},"vehicle_type_id":"4","last_reported":1773422747,"current_range_meters":0,"station_id":"ce4bhbh2rcd13ifvqeo0","pricing_plan_id":"cebpf4jnsgd1na2vs0mg"},{"bike_id":"8c4b960d-5954-4172-b115-4532186a219f","system_id":"levelo_inurba_marseille","lat":43.3209,"lon":5.36809,"is_reserved":false,"is_disabled":false,"rental_uris":{"android":"levelo://app?vid=8c4b960d-5954-4172-b115-4532186a219f","ios":"levelo://app?vid=8c4b960d-5954-4172-b115-4532186a219f"},"vehicle_type_id":"4","last_reported":1773422747,"current_range_meters":10800,"station_id":"ce4bhrh2rcd13ifvqhug","pricing_plan_id":"cebpf4jnsgd1na2vs0mg"},{"bike_id":"012bb7fa-e4d0-4138-9c92-350c5c6b2640","system_id":"levelo_inurba_marseille","lat":43.2854,"lon":5.44092,"is_reserved":false,"is_disabled":false,"rental_uris":{"android":"levelo://app?vid=012bb7fa-e4d0-4138-9c92-350c5c6b2640","ios":"levelo://app?vid=012bb7fa-e4d0-4138-9c92-350c5c6b2640"},"vehicle_type_id":"4","last_reported":1773422747,"current_range_meters":29600,"station_id":"st_d3j3df2ikq2c7380ej80","pricing_plan_id":"cebpf4jnsgd1na2vs0mg"},{"bike_id":"959cb468-adf5-492c-a8a7-a3170c99be64","system_id":"levelo_inurba_marseille","lat":43.27056,"lon":5.38307,"is_reserved":false,"is_disabled":false,"rental_uris":{"android":"levelo://app?vid=959cb468-adf5-492c-a8a7-a3170c99be64","ios":"levelo://app?vid=959cb468-adf5-492c-a8a7-a3170c99be64"},"vehicle_type_id":"4","last_reported":1773422747,"current_range_meters":13600,"station_id":"st_d3n2fo6cfp8s73cte1j0","pricing_plan_id":"cebpf4jnsgd1na2vs0mg"},{"bike_id":"e8727353-abb3-4c17-9fed-6e55fc004924","system_id":"levelo_inurba_marseille","lat":43.30333,"lon":5.4043,"is_reserved":false,"is_disabled":true,"rental_uris":{"android":"levelo://app?vid=e8727353-abb3-4c17-9fed-6e55fc004924","ios":"levelo://app?vid=e8727353-abb3-4c17-9fed-6e55fc004924"},"vehicle_type_id":"4","last_reported":1773422747,"current_range_meters":0,"station_id":"ce4bh012rcd13ifvqd10","pricing_plan_id":"cebpf4jnsgd1na2vs0mg"},{"bike_id":"f32212cf-6d01-43e1-9d28-c332d31396c9","system_id":"levelo_inurba_marseille","lat":43.2468,"lon":5.43352,"is_reserved":false,"is_disabled":false,"rental_uris":{"android":"levelo://app?vid=f32212cf-6d01-43e1-9d28-c332d31396c9","ios":"levelo://app?vid=f32212cf-6d01-43e1-9d28-c332d31396c9"},"vehicle_type_id":"4","last_reported":1773422747,"current_range_meters":22000,"station_id":"","pricing_plan_id":"cebpf4jnsgd1na2vs0mg"},{"bike_id":"6acc6294-778e-4389-ae09-ea37b9c06714","system_id":"levelo_inurba_marseille","lat":43.29727,"lon":5.41059,"is_reserved":false,"is_disabled":false,"rental_uris":{"android":"levelo://app?vid=6acc6294-778e-4389-ae09-ea37b9c06714","ios":"levelo://app?vid=6acc6294-778e-4389-ae09-ea37b9c06714"},"vehicle_type_id":"4","last_reported":1773422747,"current_range_meters":19200,"station_id":"","pricing_plan_id":"cebpf4jnsgd1na2vs0mg"},{"bike_id":"268f1035-16d5-4e3e-a9ec-ae1bcad463e4","system_id":"levelo_inurba_marseille","lat":43.27175,"lon":5.40987,"is_reserved":false,"is_disabled":false,"rental_uris":{"android":"levelo://app?vid=268f1035-16d5-4e3e-a9ec-ae1bcad463e4","ios":"levelo://app?vid=268f1035-16d5-4e3e-a9ec-ae1bcad463e4"},"vehicle_type_id":"4","last_reported":1773422747,"current_range_meters":20800,"station_id":"ce4bhl12rcd13ifvqgf0","pricing_plan_id":"cebpf4jnsgd1na2vs0mg"},{"bike_id":"968e0752-94e3-4427-8693-dccfb2dc93c6","system_id":"levelo_inurba_marseille","lat":43.32339,"lon":5.38841,"is_reserved":false,"is_disabled":false,"rental_uris":{"android":"levelo://app?vid=968e0752-94e3-4427-8693-dccfb2dc93c6","ios":"levelo://app?vid=968e0752-94e3-4427-8693-dccfb2dc93c6"},"vehicle_type_id":"4","last_reported":1773422747,"current_range_meters":38000,"station_id":"ce4bhqp2rcd13ifvqhog","pricing_plan_id":"cebpf4jnsgd1na2vs0mg"},{"bike_id":"621872e5-3e93-4965-9b88-87e3d916df40","system_id":"levelo_inurba_marseille","lat":43.27999,"lon":5.40002,"is_reserved":false,"is_disabled":false,"rental_uris":{"android":"levelo://app?vid=621872e5-3e93-4965-9b88-87e3d916df40","ios":"levelo://app?vid=621872e5-3e93-4965-9b88-87e3d916df40"},"vehicle_type_id":"4","last_reported":1773422747,"current_range_meters":17600,"station_id":"ce4bho92rcd13ifvqh4g","pricing_plan_id":"cebpf4jnsgd1na2vs0mg"},{"bike_id":"40cdf2e8-76b5-43fa-bd2e-1a8eb6026b51","system_id":"levelo_inurba_marseille","lat":43.28979,"lon":5.42582,"is_reserved":false,"is_disabled":false,"rental_uris":{"android":"levelo://app?vid=40cdf2e8-76b5-43fa-bd2e-1a8eb6026b51","ios":"levelo://app?vid=40cdf2e8-76b5-43fa-bd2e-1a8eb6026b51"},"vehicle_type_id":"4","last_reported":1773422747,"current_range_meters":25600,"station_id":"","pricing_plan_id":"cebpf4jnsgd1na2vs0mg"},{"bike_id":"5dbc8de5-1746-40c6-890f-29dadb98e0ce","system_id":"levelo_inurba_marseille","lat":43.2843,"lon":5.34984,"is_reserved":false,"is_disabled":false,"rental_uris":{"android":"levelo://app?vid=5dbc8de5-1746-40c6-890f-29dadb98e0ce","ios":"levelo://app?vid=5dbc8de5-1746-40c6-890f-29dadb98e0ce"},"vehicle_type_id":"4","last_reported":1773422747,"current_range_meters":36400,"station_id":"ce4bhbh2rcd13ifvqepg","pricing_plan_id":"cebpf4jnsgd1na2vs0mg"},{"bike_id":"c5cd6bee-ff6a-4f9b-9fb4-3be2cd8497cf","system_id":"levelo_inurba_marseille","lat":43.24389,"lon":5.37122,"is_reserved":false,"is_disabled":false,"rental_uris":{"android":"levelo://app?vid=c5cd6bee-ff6a-4f9b-9fb4-3be2cd8497cf","ios":"levelo://app?vid=c5cd6bee-ff6a-4f9b-9fb4-3be2cd8497cf"},"vehicle_type_id":"4","last_reported":1773422747,"current_range_meters":8000,"station_id":"ce4bhhh2rcd13ifvqfk0","pricing_plan_id":"cebpf4jnsgd1na2vs0mg"},{"bike_id":"89f5dbe6-6654-4428-9446-8207cfa579c5","system_id":"levelo_inurba_marseille","lat":43.29517,"lon":5.38648,"is_reserved":false,"is_disabled":false,"rental_uris":{"android":"levelo://app?vid=89f5dbe6-6654-4428-9446-8207cfa579c5","ios":"levelo://app?vid=89f5dbe6-6654-4428-9446-8207cfa579c5"},"vehicle_type_id":"4","last_reported":1773422747,"current_range_meters":24800,"station_id":"","pricing_plan_id":"cebpf4jnsgd1na2vs0mg"},{"bike_id":"72e16886-e6be-40d7-9db6-717ac812c857","system_id":"levelo_inurba_marseille","lat":43.30181,"lon":5.40076,"is_reserved":false,"is_disabled":true,"rental_uris":{"android":"levelo://app?vid=72e16886-e6be-40d7-9db6-717ac812c857","ios":"levelo://app?vid=72e16886-e6be-40d7-9db6-717ac812c857"},"vehicle_type_id":"4","last_reported":1773422747,"current_range_meters":17200,"station_id":"","pricing_plan_id":"cebpf4jnsgd1na2vs0mg"},{"bike_id":"40278712-bc59-46b4-9496-1ce04e23944b","system_id":"levelo_inurba_marseille","lat":43.27372,"lon":5.36261,"is_reserved":false,"is_disabled":false,"rental_uris":{"android":"levelo://app?vid=40278712-bc59-46b4-9496-1ce04e23944b","ios":"levelo://app?vid=40278712-bc59-46b4-9496-1ce04e23944b"},"vehicle_type_id":"4","last_reported":1773422747,"current_range_meters":28400,"station_id":"ce4bhbh2rcd13ifvqeo0","pricing_plan_id":"cebpf4jnsgd1na2vs0mg"},{"bike_id":"f21918ee-304a-4587-b0a2-d2bc2c3b5ba2","system_id":"levelo_inurba_marseille","lat":43.23957,"lon":5.36636,"is_reserved":false,"is_disabled":false,"rental_uris":{"android":"levelo://app?vid=f21918ee-304a-4587-b0a2-d2bc2c3b5ba2","ios":"levelo://app?vid=f21918ee-304a-4587-b0a2-d2bc2c3b5ba2"},"vehicle_type_id":"4","last_reported":1773422747,"current_range_meters":28800,"station_id":"ce4bhi12rcd13ifvqfp0","pricing_plan_id":"cebpf4jnsgd1na2vs0mg"},{"bike_id":"049d0339-5799-4ade-8ff8-59295e8c39c6","system_id":"levelo_inurba_marseille","lat":43.32495,"lon":5.36583,"is_reserved":false,"is_disabled":false,"rental_uris":{"android":"levelo://app?vid=049d0339-5799-4ade-8ff8-59295e8c39c6","ios":"levelo://app?vid=049d0339-5799-4ade-8ff8-59295e8c39c6"},"vehicle_type_id":"4","last_reported":1773422747,"current_range_meters":38800,"station_id":"ce4bhs12rcd13ifvqhvg","pricing_plan_id":"cebpf4jnsgd1na2vs0mg"},{"bike_id":"8f299aeb-7360-40a0-b18a-af412d315567","system_id":"levelo_inurba_marseille","lat":43.25826,"lon":5.39436,"is_reserved":false,"is_disabled":false,"rental_uris":{"android":"levelo://app?vid=8f299aeb-7360-40a0-b18a-af412d315567","ios":"levelo://app?vid=8f299aeb-7360-40a0-b18a-af412d315567"},"vehicle_type_id":"4","last_reported":1773422747,"current_range_meters":17200,"station_id":"ce4bhip2rcd13ifvqft0","pricing_plan_id":"cebpf4jnsgd1na2vs0mg"},{"bike_id":"1b76ca95-f18f-46ad-b5e2-115c03b09dc0","system_id":"levelo_inurba_marseille","lat":43.29766,"lon":5.42776,"is_reserved":false,"is_disabled":false,"rental_uris":{"android":"levelo://app?vid=1b76ca95-f18f-46ad-b5e2-115c03b09dc0","ios":"levelo://app?vid=1b76ca95-f18f-46ad-b5e2-115c03b09dc0"},"vehicle_type_id":"4","last_reported":1773422747,"current_range_meters":25200,"station_id":"st_d3md5207bmas73dh9klg","pricing_plan_id":"cebpf4jnsgd1na2vs0mg"},{"bike_id":"aa1ea814-effc-4a82-a7ce-fc6b0be25510","system_id":"levelo_inurba_marseille","lat":43.33529,"lon":5.36077,"is_reserved":false,"is_disabled":false,"rental_uris":{"android":"levelo://app?vid=aa1ea814-effc-4a82-a7ce-fc6b0be25510","ios":"levelo://app?vid=aa1ea814-effc-4a82-a7ce-fc6b0be25510"},"vehicle_type_id":"4","last_reported":1773422747,"current_range_meters":38000,"station_id":"","pricing_plan_id":"cebpf4jnsgd1na2vs0mg"},{"bike_id":"7704b38f-82bd-49cd-9941-f2baf8ee666d","system_id":"levelo_inurba_marseille","lat":43.27618,"lon":5.36105,"is_reserved":false,"is_disabled":false,"rental_uris":{"android":"levelo://app?vid=7704b38f-82bd-49cd-9941-f2baf8ee666d","ios":"levelo://app?vid=7704b38f-82bd-49cd-9941-f2baf8ee666d"},"vehicle_type_id":"4","last_reported":1773422747,"current_range_meters":27200,"station_id":"ce4bgj92rcd13ifvqbe0","pricing_plan_id":"cebpf4jnsgd1na2vs0mg"},{"bike_id":"244c6a18-094f-4ad6-88c4-125b33df0ef7","system_id":"levelo_inurba_marseille","lat":43.27836,"lon":5.39208,"is_reserved":false,"is_disabled":false,"rental_uris":{"android":"levelo://app?vid=244c6a18-094f-4ad6-88c4-125b33df0ef7","ios":"levelo://app?vid=244c6a18-094f-4ad6-88c4-125b33df0ef7"},"vehicle_type_id":"4","last_reported":1773422747,"current_range_meters":19600,"station_id":"ce4bhjp2rcd13ifvqga0","pricing_plan_id":"cebpf4jnsgd1na2vs0mg"},{"bike_id":"6b15c594-8ec2-4784-a06b-27dbc1e6b04f","system_id":"levelo_inurba_marseille","lat":43.30562,"lon":5.36523,"is_reserved":false,"is_disabled":false,"rental_uris":{"android":"levelo://app?vid=6b15c594-8ec2-4784-a06b-27dbc1e6b04f","ios":"levelo://app?vid=6b15c594-8ec2-4784-a06b-27dbc1e6b04f"},"vehicle_type_id":"4","last_reported":1773422747,"current_range_meters":32400,"station_id":"ce4bgs12rcd13ifvqcag","pricing_plan_id":"cebpf4jnsgd1na2vs0mg"},{"bike_id":"db95b60a-62b7-46f5-a1fe-226a2cd179f6","system_id":"levelo_inurba_marseille","lat":43.27376,"lon":5.3626,"is_reserved":false,"is_disabled":false,"rental_uris":{"android":"levelo://app?vid=db95b60a-62b7-46f5-a1fe-226a2cd179f6","ios":"levelo://app?vid=db95b60a-62b7-46f5-a1fe-226a2cd179f6"},"vehicle_type_id":"4","last_reported":1773422747,"current_range_meters":8000,"station_id":"ce4bhbh2rcd13ifvqeo0","pricing_plan_id":"cebpf4jnsgd1na2vs0mg"},{"bike_id":"07fd5649-9601-4679-b3fb-1a411c382adc","system_id":"levelo_inurba_marseille","lat":43.27814,"lon":5.40714,"is_reserved":false,"is_disabled":false,"rental_uris":{"android":"levelo://app?vid=07fd5649-9601-4679-b3fb-1a411c382adc","ios":"levelo://app?vid=07fd5649-9601-4679-b3fb-1a411c382adc"},"vehicle_type_id":"4","last_reported":1773422747,"current_range_meters":39200,"station_id":"ce4bhnh2rcd13ifvqgtg","pricing_plan_id":"cebpf4jnsgd1na2vs0mg"},{"bike_id":"9bb58202-02ff-4e31-a3eb-9587f79034ad","system_id":"levelo_inurba_marseille","lat":43.26969,"lon":5.38623,"is_reserved":false,"is_disabled":true,"rental_uris":{"android":"levelo://app?vid=9bb58202-02ff-4e31-a3eb-9587f79034ad","ios":"levelo://app?vid=9bb58202-02ff-4e31-a3eb-9587f79034ad"},"vehicle_type_id":"4","last_reported":1773422747,"current_range_meters":0,"station_id":"ce4bhh92rcd13ifvqfh0","pricing_plan_id":"cebpf4jnsgd1na2vs0mg"},{"bike_id":"eb2f308c-8a12-4604-91b5-c6e7beca1962","system_id":"levelo_inurba_marseille","lat":43.25586,"lon":5.38242,"is_reserved":false,"is_disabled":false,"rental_uris":{"android":"levelo://app?vid=eb2f308c-8a12-4604-91b5-c6e7beca1962","ios":"levelo://app?vid=eb2f308c-8a12-4604-91b5-c6e7beca1962"},"vehicle_type_id":"4","last_reported":1773422747,"current_range_meters":27600,"station_id":"ce4bhih2rcd13ifvqfs0","pricing_plan_id":"cebpf4jnsgd1na2vs0mg"},{"bike_id":"9275d7e0-6f92-4728-99cc-26ef8f5159ad","system_id":"levelo_inurba_marseille","lat":43.29116,"lon":5.43276,"is_reserved":false,"is_disabled":false,"rental_uris":{"android":"levelo://app?vid=9275d7e0-6f92-4728-99cc-26ef8f5159ad","ios":"levelo://app?vid=9275d7e0-6f92-4728-99cc-26ef8f5159ad"},"vehicle_type_id":"4","last_reported":1773422747,"current_range_meters":34800,"station_id":"","pricing_plan_id":"cebpf4jnsgd1na2vs0mg"},{"bike_id":"5182e0f7-eb1a-4c01-9634-90921403e14c","system_id":"levelo_inurba_marseille","lat":43.282337,"lon":5.390673,"is_reserved":false,"is_disabled":true,"rental_uris":{"android":"levelo://app?vid=5182e0f7-eb1a-4c01-9634-90921403e14c","ios":"levelo://app?vid=5182e0f7-eb1a-4c01-9634-90921403e14c"},"vehicle_type_id":"4","last_reported":1773422747,"current_range_meters":2000,"station_id":"ce4bhn92rcd13ifvqgsg","pricing_plan_id":"cebpf4jnsgd1na2vs0mg"},{"bike_id":"96a73756-02c6-4193-a9c9-8708c83aa89f","system_id":"levelo_inurba_marseille","lat":43.28153,"lon":5.42642,"is_reserved":false,"is_disabled":false,"rental_uris":{"android":"levelo://app?vid=96a73756-02c6-4193-a9c9-8708c83aa89f","ios":"levelo://app?vid=96a73756-02c6-4193-a9c9-8708c83aa89f"},"vehicle_type_id":"4","last_reported":1773422747,"current_range_meters":18800,"station_id":"ce4bhnh2rcd13ifvqgug","pricing_plan_id":"cebpf4jnsgd1na2vs0mg"},{"bike_id":"be4b33f3-f666-4b28-9e53-550c3c6e8b23","system_id":"levelo_inurba_marseille","lat":43.28471,"lon":5.48402,"is_reserved":false,"is_disabled":false,"rental_uris":{"android":"levelo://app?vid=be4b33f3-f666-4b28-9e53-550c3c6e8b23","ios":"levelo://app?vid=be4b33f3-f666-4b28-9e53-550c3c6e8b23"},"vehicle_type_id":"4","last_reported":1773422747,"current_range_meters":22000,"station_id":"","pricing_plan_id":"cebpf4jnsgd1na2vs0mg"},{"bike_id":"8d199b1c-0ac9-464d-a0db-db030357808e","system_id":"levelo_inurba_marseille","lat":43.27959,"lon":5.41052,"is_reserved":false,"is_disabled":false,"rental_uris":{"android":"levelo://app?vid=8d199b1c-0ac9-464d-a0db-db030357808e","ios":"levelo://app?vid=8d199b1c-0ac9-464d-a0db-db030357808e"},"vehicle_type_id":"4","last_reported":1773422747,"current_range_meters":12000,"station_id":"ce4bhnp2rcd13ifvqh0g","pricing_plan_id":"cebpf4jnsgd1na2vs0mg"},{"bike_id":"f7ea9ce4-f751-487a-8769-23325fb77f9f","system_id":"levelo_inurba_marseille","lat":43.29042,"lon":5.37582,"is_reserved":false,"is_disabled":false,"rental_uris":{"android":"levelo://app?vid=f7ea9ce4-f751-487a-8769-23325fb77f9f","ios":"levelo://app?vid=f7ea9ce4-f751-487a-8769-23325fb77f9f"},"vehicle_type_id":"4","last_reported":1773422747,"current_range_meters":12800,"station_id":"ce4bh692rcd13ifvqe90","pricing_plan_id":"cebpf4jnsgd1na2vs0mg"},{"bike_id":"24f4e9e7-f5d6-411c-8120-741c23ac34f0","system_id":"levelo_inurba_marseille","lat":43.29987,"lon":5.37182,"is_reserved":false,"is_disabled":false,"rental_uris":{"android":"levelo://app?vid=24f4e9e7-f5d6-411c-8120-741c23ac34f0","ios":"levelo://app?vid=24f4e9e7-f5d6-411c-8120-741c23ac34f0"},"vehicle_type_id":"4","last_reported":1773422747,"current_range_meters":12800,"station_id":"ce4bgr92rcd13ifvqc7g","pricing_plan_id":"cebpf4jnsgd1na2vs0mg"},{"bike_id":"193cbe9d-b7d2-421e-9f76-9c8c86aebb4a","system_id":"levelo_inurba_marseille","lat":43.33544,"lon":5.3748,"is_reserved":false,"is_disabled":false,"rental_uris":{"android":"levelo://app?vid=193cbe9d-b7d2-421e-9f76-9c8c86aebb4a","ios":"levelo://app?vid=193cbe9d-b7d2-421e-9f76-9c8c86aebb4a"},"vehicle_type_id":"4","last_reported":1773422747,"current_range_meters":14400,"station_id":"st_d46tts09ee8s73dlu43g","pricing_plan_id":"cebpf4jnsgd1na2vs0mg"},{"bike_id":"9f555977-ed84-4e25-9c81-1c0c6fccc8b6","system_id":"levelo_inurba_marseille","lat":43.24371,"lon":5.44108,"is_reserved":false,"is_disabled":true,"rental_uris":{"android":"levelo://app?vid=9f555977-ed84-4e25-9c81-1c0c6fccc8b6","ios":"levelo://app?vid=9f555977-ed84-4e25-9c81-1c0c6fccc8b6"},"vehicle_type_id":"4","last_reported":1773422747,"current_range_meters":5600,"station_id":"","pricing_plan_id":"cebpf4jnsgd1na2vs0mg"},{"bike_id":"fb438c9d-6cb5-4722-9a11-a21ee845c0bd","system_id":"levelo_inurba_marseille","lat":43.29794,"lon":5.3709,"is_reserved":false,"is_disabled":false,"rental_uris":{"android":"levelo://app?vid=fb438c9d-6cb5-4722-9a11-a21ee845c0bd","ios":"levelo://app?vid=fb438c9d-6cb5-4722-9a11-a21ee845c0bd"},"vehicle_type_id":"4","last_reported":1773422747,"current_range_meters":39200,"station_id":"ce4bgop2rcd13ifvqc1g","pricing_plan_id":"cebpf4jnsgd1na2vs0mg"},{"bike_id":"769b02b1-1a96-43ec-8c81-9e5d509333a4","system_id":"levelo_inurba_marseille","lat":43.30948,"lon":5.39023,"is_reserved":false,"is_disabled":true,"rental_uris":{"android":"levelo://app?vid=769b02b1-1a96-43ec-8c81-9e5d509333a4","ios":"levelo://app?vid=769b02b1-1a96-43ec-8c81-9e5d509333a4"},"vehicle_type_id":"4","last_reported":1773422747,"current_range_meters":0,"station_id":"ce4bgup2rcd13ifvqco0","pricing_plan_id":"cebpf4jnsgd1na2vs0mg"},{"bike_id":"b9e6c120-ab4a-467d-9fe9-021e3d4fd8a6","system_id":"levelo_inurba_marseille","lat":43.28635,"lon":5.35144,"is_reserved":false,"is_disabled":false,"rental_uris":{"android":"levelo://app?vid=b9e6c120-ab4a-467d-9fe9-021e3d4fd8a6","ios":"levelo://app?vid=b9e6c120-ab4a-467d-9fe9-021e3d4fd8a6"},"vehicle_type_id":"4","last_reported":1773422747,"current_range_meters":24800,"station_id":"ce4bhch2rcd13ifvqeug","pricing_plan_id":"cebpf4jnsgd1na2vs0mg"},{"bike_id":"43a60bde-87c8-4618-bbf6-1e076a5c2dff","system_id":"levelo_inurba_marseille","lat":43.30949,"lon":5.39024,"is_reserved":false,"is_disabled":true,"rental_uris":{"android":"levelo://app?vid=43a60bde-87c8-4618-bbf6-1e076a5c2dff","ios":"levelo://app?vid=43a60bde-87c8-4618-bbf6-1e076a5c2dff"},"vehicle_type_id":"4","last_reported":1773422747,"current_range_meters":800,"station_id":"ce4bgup2rcd13ifvqco0","pricing_plan_id":"cebpf4jnsgd1na2vs0mg"},{"bike_id":"e44ce07f-b4ba-4e55-8858-6faa78a5bb09","system_id":"levelo_inurba_marseille","lat":43.30114,"lon":5.38092,"is_reserved":false,"is_disabled":false,"rental_uris":{"android":"levelo://app?vid=e44ce07f-b4ba-4e55-8858-6faa78a5bb09","ios":"levelo://app?vid=e44ce07f-b4ba-4e55-8858-6faa78a5bb09"},"vehicle_type_id":"4","last_reported":1773422747,"current_range_meters":36800,"station_id":"ce4bgjp2rcd13ifvqbh0","pricing_plan_id":"cebpf4jnsgd1na2vs0mg"},{"bike_id":"d0c0074f-02f7-42ec-b7c8-854eb39e2595","system_id":"levelo_inurba_marseille","lat":43.23754,"lon":5.36723,"is_reserved":false,"is_disabled":false,"rental_uris":{"android":"levelo://app?vid=d0c0074f-02f7-42ec-b7c8-854eb39e2595","ios":"levelo://app?vid=d0c0074f-02f7-42ec-b7c8-854eb39e2595"},"vehicle_type_id":"4","last_reported":1773422747,"current_range_meters":31200,"station_id":"st_d3nk18o9ro0c73en2l3g","pricing_plan_id":"cebpf4jnsgd1na2vs0mg"},{"bike_id":"3115ec2c-0e1c-40e3-beba-8ab26217ce9f","system_id":"levelo_inurba_marseille","lat":43.28238,"lon":5.39046,"is_reserved":false,"is_disabled":true,"rental_uris":{"android":"levelo://app?vid=3115ec2c-0e1c-40e3-beba-8ab26217ce9f","ios":"levelo://app?vid=3115ec2c-0e1c-40e3-beba-8ab26217ce9f"},"vehicle_type_id":"4","last_reported":1773422747,"current_range_meters":35600,"station_id":"ce4bhn92rcd13ifvqgsg","pricing_plan_id":"cebpf4jnsgd1na2vs0mg"},{"bike_id":"1061801b-b18e-4107-b525-c5770c253c61","system_id":"levelo_inurba_marseille","lat":43.26065,"lon":5.39389,"is_reserved":false,"is_disabled":true,"rental_uris":{"android":"levelo://app?vid=1061801b-b18e-4107-b525-c5770c253c61","ios":"levelo://app?vid=1061801b-b18e-4107-b525-c5770c253c61"},"vehicle_type_id":"4","last_reported":1773422747,"current_range_meters":400,"station_id":"ce4bhh92rcd13ifvqfj0","pricing_plan_id":"cebpf4jnsgd1na2vs0mg"},{"bike_id":"483b51bc-13b6-4f8e-bf1c-b113cd698669","system_id":"levelo_inurba_marseille","lat":43.28283,"lon":5.35071,"is_reserved":false,"is_disabled":false,"rental_uris":{"android":"levelo://app?vid=483b51bc-13b6-4f8e-bf1c-b113cd698669","ios":"levelo://app?vid=483b51bc-13b6-4f8e-bf1c-b113cd698669"},"vehicle_type_id":"4","last_reported":1773422747,"current_range_meters":38400,"station_id":"ce4bhbp2rcd13ifvqerg","pricing_plan_id":"cebpf4jnsgd1na2vs0mg"},{"bike_id":"6ca05723-83bc-4e86-87a1-472579d16c69","system_id":"levelo_inurba_marseille","lat":43.29533,"lon":5.42227,"is_reserved":false,"is_disabled":false,"rental_uris":{"android":"levelo://app?vid=6ca05723-83bc-4e86-87a1-472579d16c69","ios":"levelo://app?vid=6ca05723-83bc-4e86-87a1-472579d16c69"},"vehicle_type_id":"4","last_reported":1773422747,"current_range_meters":36800,"station_id":"","pricing_plan_id":"cebpf4jnsgd1na2vs0mg"},{"bike_id":"2ddab465-249a-493c-a75f-64a391d22fe1","system_id":"levelo_inurba_marseille","lat":43.30526,"lon":5.36697,"is_reserved":false,"is_disabled":false,"rental_uris":{"android":"levelo://app?vid=2ddab465-249a-493c-a75f-64a391d22fe1","ios":"levelo://app?vid=2ddab465-249a-493c-a75f-64a391d22fe1"},"vehicle_type_id":"4","last_reported":1773422747,"current_range_meters":22000,"station_id":"ce4bgrp2rcd13ifvqc9g","pricing_plan_id":"cebpf4jnsgd1na2vs0mg"},{"bike_id":"bdbe4329-f51c-4d1f-b311-00a744d0a88e","system_id":"levelo_inurba_marseille","lat":43.24163,"lon":5.36402,"is_reserved":false,"is_disabled":false,"rental_uris":{"android":"levelo://app?vid=bdbe4329-f51c-4d1f-b311-00a744d0a88e","ios":"levelo://app?vid=bdbe4329-f51c-4d1f-b311-00a744d0a88e"},"vehicle_type_id":"4","last_reported":1773422747,"current_range_meters":27200,"station_id":"cpo36qri1sfpv3e86is0","pricing_plan_id":"cebpf4jnsgd1na2vs0mg"},{"bike_id":"3a46d46a-3434-4c09-9481-ae1049d546b0","system_id":"levelo_inurba_marseille","lat":43.31481,"lon":5.37263,"is_reserved":false,"is_disabled":false,"rental_uris":{"android":"levelo://app?vid=3a46d46a-3434-4c09-9481-ae1049d546b0","ios":"levelo://app?vid=3a46d46a-3434-4c09-9481-ae1049d546b0"},"vehicle_type_id":"4","last_reported":1773422747,"current_range_meters":2800,"station_id":"ce4bgt12rcd13ifvqcd0","pricing_plan_id":"cebpf4jnsgd1na2vs0mg"},{"bike_id":"64069c02-c977-4af0-a752-efe4502ec874","system_id":"levelo_inurba_marseille","lat":43.28474,"lon":5.48391,"is_reserved":false,"is_disabled":false,"rental_uris":{"android":"levelo://app?vid=64069c02-c977-4af0-a752-efe4502ec874","ios":"levelo://app?vid=64069c02-c977-4af0-a752-efe4502ec874"},"vehicle_type_id":"4","last_reported":1773422747,"current_range_meters":10000,"station_id":"","pricing_plan_id":"cebpf4jnsgd1na2vs0mg"},{"bike_id":"2deb9309-cf06-408e-bbfa-6ec2d7bc916a","system_id":"levelo_inurba_marseille","lat":43.23198,"lon":5.40002,"is_reserved":false,"is_disabled":false,"rental_uris":{"android":"levelo://app?vid=2deb9309-cf06-408e-bbfa-6ec2d7bc916a","ios":"levelo://app?vid=2deb9309-cf06-408e-bbfa-6ec2d7bc916a"},"vehicle_type_id":"4","last_reported":1773422747,"current_range_meters":17600,"station_id":"ce4bhn12rcd13ifvqgqg","pricing_plan_id":"cebpf4jnsgd1na2vs0mg"},{"bike_id":"08211851-f23d-481c-b60c-b224ceb65cab","system_id":"levelo_inurba_marseille","lat":43.29,"lon":5.35609,"is_reserved":false,"is_disabled":false,"rental_uris":{"android":"levelo://app?vid=08211851-f23d-481c-b60c-b224ceb65cab","ios":"levelo://app?vid=08211851-f23d-481c-b60c-b224ceb65cab"},"vehicle_type_id":"4","last_reported":1773422747,"current_range_meters":24000,"station_id":"ce4bhb92rcd13ifvqen0","pricing_plan_id":"cebpf4jnsgd1na2vs0mg"},{"bike_id":"eeb051a0-17b7-4ff7-9930-2165c702a31c","system_id":"levelo_inurba_marseille","lat":43.3028,"lon":5.41908,"is_reserved":false,"is_disabled":false,"rental_uris":{"android":"levelo://app?vid=eeb051a0-17b7-4ff7-9930-2165c702a31c","ios":"levelo://app?vid=eeb051a0-17b7-4ff7-9930-2165c702a31c"},"vehicle_type_id":"4","last_reported":1773422747,"current_range_meters":28400,"station_id":"","pricing_plan_id":"cebpf4jnsgd1na2vs0mg"},{"bike_id":"2112719d-b334-4f39-899a-a8002e72dcf1","system_id":"levelo_inurba_marseille","lat":43.25119,"lon":5.40316,"is_reserved":false,"is_disabled":false,"rental_uris":{"android":"levelo://app?vid=2112719d-b334-4f39-899a-a8002e72dcf1","ios":"levelo://app?vid=2112719d-b334-4f39-899a-a8002e72dcf1"},"vehicle_type_id":"4","last_reported":1773422747,"current_range_meters":29600,"station_id":"ce4bhlh2rcd13ifvqgig","pricing_plan_id":"cebpf4jnsgd1na2vs0mg"},{"bike_id":"7bf0a830-d498-457c-a030-91c3bd84fed4","system_id":"levelo_inurba_marseille","lat":43.23195,"lon":5.35569,"is_reserved":false,"is_disabled":false,"rental_uris":{"android":"levelo://app?vid=7bf0a830-d498-457c-a030-91c3bd84fed4","ios":"levelo://app?vid=7bf0a830-d498-457c-a030-91c3bd84fed4"},"vehicle_type_id":"4","last_reported":1773422747,"current_range_meters":39200,"station_id":"ce4bhu92rcd13ifvqi70","pricing_plan_id":"cebpf4jnsgd1na2vs0mg"},{"bike_id":"db5fc025-f609-443b-b481-2f6cefb137d4","system_id":"levelo_inurba_marseille","lat":43.28474,"lon":5.48381,"is_reserved":false,"is_disabled":false,"rental_uris":{"android":"levelo://app?vid=db5fc025-f609-443b-b481-2f6cefb137d4","ios":"levelo://app?vid=db5fc025-f609-443b-b481-2f6cefb137d4"},"vehicle_type_id":"4","last_reported":1773422747,"current_range_meters":33200,"station_id":"","pricing_plan_id":"cebpf4jnsgd1na2vs0mg"},{"bike_id":"3b85e9e8-4938-4ae7-a83e-c8e2526a550f","system_id":"levelo_inurba_marseille","lat":43.24168,"lon":5.364,"is_reserved":false,"is_disabled":false,"rental_uris":{"android":"levelo://app?vid=3b85e9e8-4938-4ae7-a83e-c8e2526a550f","ios":"levelo://app?vid=3b85e9e8-4938-4ae7-a83e-c8e2526a550f"},"vehicle_type_id":"4","last_reported":1773422747,"current_range_meters":28800,"station_id":"cpo36qri1sfpv3e86is0","pricing_plan_id":"cebpf4jnsgd1na2vs0mg"},{"bike_id":"d0aa4dba-7fc6-4207-8dbf-1bab60602378","system_id":"levelo_inurba_marseille","lat":43.25602,"lon":5.38226,"is_reserved":false,"is_disabled":false,"rental_uris":{"android":"levelo://app?vid=d0aa4dba-7fc6-4207-8dbf-1bab60602378","ios":"levelo://app?vid=d0aa4dba-7fc6-4207-8dbf-1bab60602378"},"vehicle_type_id":"4","last_reported":1773422747,"current_range_meters":28400,"station_id":"ce4bhih2rcd13ifvqfs0","pricing_plan_id":"cebpf4jnsgd1na2vs0mg"},{"bike_id":"e161126b-4011-47fc-b02a-310f76c9826d","system_id":"levelo_inurba_marseille","lat":43.30494,"lon":5.36712,"is_reserved":false,"is_disabled":false,"rental_uris":{"android":"levelo://app?vid=e161126b-4011-47fc-b02a-310f76c9826d","ios":"levelo://app?vid=e161126b-4011-47fc-b02a-310f76c9826d"},"vehicle_type_id":"4","last_reported":1773422747,"current_range_meters":39200,"station_id":"","pricing_plan_id":"cebpf4jnsgd1na2vs0mg"},{"bike_id":"e6b21269-503d-4428-aac5-606c585837ac","system_id":"levelo_inurba_marseille","lat":43.30643,"lon":5.40101,"is_reserved":false,"is_disabled":false,"rental_uris":{"android":"levelo://app?vid=e6b21269-503d-4428-aac5-606c585837ac","ios":"levelo://app?vid=e6b21269-503d-4428-aac5-606c585837ac"},"vehicle_type_id":"4","last_reported":1773422747,"current_range_meters":25600,"station_id":"ce4bh112rcd13ifvqda0","pricing_plan_id":"cebpf4jnsgd1na2vs0mg"},{"bike_id":"ab7d9189-2568-4974-829e-49dee9a447d5","system_id":"levelo_inurba_marseille","lat":43.23201,"lon":5.35545,"is_reserved":false,"is_disabled":false,"rental_uris":{"android":"levelo://app?vid=ab7d9189-2568-4974-829e-49dee9a447d5","ios":"levelo://app?vid=ab7d9189-2568-4974-829e-49dee9a447d5"},"vehicle_type_id":"4","last_reported":1773422747,"current_range_meters":40000,"station_id":"ce4bhu92rcd13ifvqi70","pricing_plan_id":"cebpf4jnsgd1na2vs0mg"},{"bike_id":"85de2d83-e763-4fcc-8b52-b1a26114d08b","system_id":"levelo_inurba_marseille","lat":43.29707,"lon":5.36614,"is_reserved":false,"is_disabled":false,"rental_uris":{"android":"levelo://app?vid=85de2d83-e763-4fcc-8b52-b1a26114d08b","ios":"levelo://app?vid=85de2d83-e763-4fcc-8b52-b1a26114d08b"},"vehicle_type_id":"4","last_reported":1773422747,"current_range_meters":2800,"station_id":"ce4bgn12rcd13ifvqbt0","pricing_plan_id":"cebpf4jnsgd1na2vs0mg"},{"bike_id":"c0c5d9dc-928d-48b1-bc04-fe5d71707694","system_id":"levelo_inurba_marseille","lat":43.32369,"lon":5.36766,"is_reserved":false,"is_disabled":false,"rental_uris":{"android":"levelo://app?vid=c0c5d9dc-928d-48b1-bc04-fe5d71707694","ios":"levelo://app?vid=c0c5d9dc-928d-48b1-bc04-fe5d71707694"},"vehicle_type_id":"4","last_reported":1773422747,"current_range_meters":39200,"station_id":"ce4bhsh2rcd13ifvqi2g","pricing_plan_id":"cebpf4jnsgd1na2vs0mg"},{"bike_id":"64567b09-a95d-4539-8bcf-6edd932dda62","system_id":"levelo_inurba_marseille","lat":43.27509,"lon":5.41594,"is_reserved":false,"is_disabled":false,"rental_uris":{"android":"levelo://app?vid=64567b09-a95d-4539-8bcf-6edd932dda62","ios":"levelo://app?vid=64567b09-a95d-4539-8bcf-6edd932dda62"},"vehicle_type_id":"4","last_reported":1773422747,"current_range_meters":29600,"station_id":"st_d6im8g6chgec73a5pndg","pricing_plan_id":"cebpf4jnsgd1na2vs0mg"},{"bike_id":"475f6229-3b8f-4eab-b8fd-2fbd86f0fb75","system_id":"levelo_inurba_marseille","lat":43.24168,"lon":5.36387,"is_reserved":false,"is_disabled":false,"rental_uris":{"android":"levelo://app?vid=475f6229-3b8f-4eab-b8fd-2fbd86f0fb75","ios":"levelo://app?vid=475f6229-3b8f-4eab-b8fd-2fbd86f0fb75"},"vehicle_type_id":"4","last_reported":1773422747,"current_range_meters":39200,"station_id":"cpo36qri1sfpv3e86is0","pricing_plan_id":"cebpf4jnsgd1na2vs0mg"},{"bike_id":"aaf56433-ee77-470c-b7b6-221e680ae993","system_id":"levelo_inurba_marseille","lat":43.22559,"lon":5.41642,"is_reserved":false,"is_disabled":false,"rental_uris":{"android":"levelo://app?vid=aaf56433-ee77-470c-b7b6-221e680ae993","ios":"levelo://app?vid=aaf56433-ee77-470c-b7b6-221e680ae993"},"vehicle_type_id":"4","last_reported":1773422747,"current_range_meters":10800,"station_id":"st_d2o4gvlbi1j2169b742g","pricing_plan_id":"cebpf4jnsgd1na2vs0mg"},{"bike_id":"437d14d3-641a-4ae3-a542-be41387a53b8","system_id":"levelo_inurba_marseille","lat":43.26536,"lon":5.39551,"is_reserved":false,"is_disabled":false,"rental_uris":{"android":"levelo://app?vid=437d14d3-641a-4ae3-a542-be41387a53b8","ios":"levelo://app?vid=437d14d3-641a-4ae3-a542-be41387a53b8"},"vehicle_type_id":"4","last_reported":1773422747,"current_range_meters":38800,"station_id":"ce4bhi12rcd13ifvqfq0","pricing_plan_id":"cebpf4jnsgd1na2vs0mg"},{"bike_id":"6737ca02-2d43-49c4-a10a-3e68cea6b2e2","system_id":"levelo_inurba_marseille","lat":43.29765,"lon":5.42776,"is_reserved":false,"is_disabled":false,"rental_uris":{"android":"levelo://app?vid=6737ca02-2d43-49c4-a10a-3e68cea6b2e2","ios":"levelo://app?vid=6737ca02-2d43-49c4-a10a-3e68cea6b2e2"},"vehicle_type_id":"4","last_reported":1773422747,"current_range_meters":30400,"station_id":"st_d3md5207bmas73dh9klg","pricing_plan_id":"cebpf4jnsgd1na2vs0mg"},{"bike_id":"130bfb14-641e-4243-aedb-1640189e2b97","system_id":"levelo_inurba_marseille","lat":43.28413,"lon":5.3499,"is_reserved":false,"is_disabled":false,"rental_uris":{"android":"levelo://app?vid=130bfb14-641e-4243-aedb-1640189e2b97","ios":"levelo://app?vid=130bfb14-641e-4243-aedb-1640189e2b97"},"vehicle_type_id":"4","last_reported":1773422747,"current_range_meters":40000,"station_id":"ce4bhbh2rcd13ifvqepg","pricing_plan_id":"cebpf4jnsgd1na2vs0mg"},{"bike_id":"2a310ade-447f-4c40-bc89-fd5d4594733f","system_id":"levelo_inurba_marseille","lat":43.28672,"lon":5.36352,"is_reserved":false,"is_disabled":false,"rental_uris":{"android":"levelo://app?vid=2a310ade-447f-4c40-bc89-fd5d4594733f","ios":"levelo://app?vid=2a310ade-447f-4c40-bc89-fd5d4594733f"},"vehicle_type_id":"4","last_reported":1773422747,"current_range_meters":29600,"station_id":"ce4bhah2rcd13ifvqej0","pricing_plan_id":"cebpf4jnsgd1na2vs0mg"},{"bike_id":"a60351a9-2b94-4481-b309-1b6444bebde9","system_id":"levelo_inurba_marseille","lat":43.25495,"lon":5.37672,"is_reserved":false,"is_disabled":false,"rental_uris":{"android":"levelo://app?vid=a60351a9-2b94-4481-b309-1b6444bebde9","ios":"levelo://app?vid=a60351a9-2b94-4481-b309-1b6444bebde9"},"vehicle_type_id":"4","last_reported":1773422747,"current_range_meters":38000,"station_id":"ce4bhh12rcd13ifvqff0","pricing_plan_id":"cebpf4jnsgd1na2vs0mg"},{"bike_id":"6b0d7c53-bf69-439d-9f4b-e8ecc2ba0b12","system_id":"levelo_inurba_marseille","lat":43.2695,"lon":5.40186,"is_reserved":false,"is_disabled":false,"rental_uris":{"android":"levelo://app?vid=6b0d7c53-bf69-439d-9f4b-e8ecc2ba0b12","ios":"levelo://app?vid=6b0d7c53-bf69-439d-9f4b-e8ecc2ba0b12"},"vehicle_type_id":"4","last_reported":1773422747,"current_range_meters":21600,"station_id":"","pricing_plan_id":"cebpf4jnsgd1na2vs0mg"},{"bike_id":"e0df2146-c410-41e1-a3ab-272af63851d9","system_id":"levelo_inurba_marseille","lat":43.28272,"lon":5.35081,"is_reserved":false,"is_disabled":false,"rental_uris":{"android":"levelo://app?vid=e0df2146-c410-41e1-a3ab-272af63851d9","ios":"levelo://app?vid=e0df2146-c410-41e1-a3ab-272af63851d9"},"vehicle_type_id":"4","last_reported":1773422747,"current_range_meters":19200,"station_id":"ce4bhbp2rcd13ifvqerg","pricing_plan_id":"cebpf4jnsgd1na2vs0mg"},{"bike_id":"3682c19e-e351-458f-a5f7-c0fe3b0b3b23","system_id":"levelo_inurba_marseille","lat":43.28415,"lon":5.34985,"is_reserved":false,"is_disabled":false,"rental_uris":{"android":"levelo://app?vid=3682c19e-e351-458f-a5f7-c0fe3b0b3b23","ios":"levelo://app?vid=3682c19e-e351-458f-a5f7-c0fe3b0b3b23"},"vehicle_type_id":"4","last_reported":1773422747,"current_range_meters":40000,"station_id":"ce4bhbh2rcd13ifvqepg","pricing_plan_id":"cebpf4jnsgd1na2vs0mg"},{"bike_id":"0175f4bf-6229-42dc-bcb2-24ead313dc60","system_id":"levelo_inurba_marseille","lat":43.25077,"lon":5.39499,"is_reserved":false,"is_disabled":false,"rental_uris":{"android":"levelo://app?vid=0175f4bf-6229-42dc-bcb2-24ead313dc60","ios":"levelo://app?vid=0175f4bf-6229-42dc-bcb2-24ead313dc60"},"vehicle_type_id":"4","last_reported":1773422747,"current_range_meters":24000,"station_id":"ce4bhm12rcd13ifvqgkg","pricing_plan_id":"cebpf4jnsgd1na2vs0mg"},{"bike_id":"407d14ed-b67a-41c0-aa1a-f9b6d2614cd2","system_id":"levelo_inurba_marseille","lat":43.28432,"lon":5.34984,"is_reserved":false,"is_disabled":false,"rental_uris":{"android":"levelo://app?vid=407d14ed-b67a-41c0-aa1a-f9b6d2614cd2","ios":"levelo://app?vid=407d14ed-b67a-41c0-aa1a-f9b6d2614cd2"},"vehicle_type_id":"4","last_reported":1773422747,"current_range_meters":39200,"station_id":"ce4bhbh2rcd13ifvqepg","pricing_plan_id":"cebpf4jnsgd1na2vs0mg"},{"bike_id":"a0bec6d3-1ce6-4a4a-9254-f292f1c1b7f8","system_id":"levelo_inurba_marseille","lat":43.28864,"lon":5.42522,"is_reserved":false,"is_disabled":false,"rental_uris":{"android":"levelo://app?vid=a0bec6d3-1ce6-4a4a-9254-f292f1c1b7f8","ios":"levelo://app?vid=a0bec6d3-1ce6-4a4a-9254-f292f1c1b7f8"},"vehicle_type_id":"4","last_reported":1773422747,"current_range_meters":33200,"station_id":"","pricing_plan_id":"cebpf4jnsgd1na2vs0mg"},{"bike_id":"32358ead-44ff-491d-882b-0c4122b7d796","system_id":"levelo_inurba_marseille","lat":43.21194,"lon":5.35057,"is_reserved":false,"is_disabled":false,"rental_uris":{"android":"levelo://app?vid=32358ead-44ff-491d-882b-0c4122b7d796","ios":"levelo://app?vid=32358ead-44ff-491d-882b-0c4122b7d796"},"vehicle_type_id":"4","last_reported":1773422747,"current_range_meters":8400,"station_id":"st_cvj6sg6p6f1abm77japg","pricing_plan_id":"cebpf4jnsgd1na2vs0mg"},{"bike_id":"ef01c2e4-9e32-4da8-8c57-e56002b85a0d","system_id":"levelo_inurba_marseille","lat":43.23797,"lon":5.36614,"is_reserved":false,"is_disabled":false,"rental_uris":{"android":"levelo://app?vid=ef01c2e4-9e32-4da8-8c57-e56002b85a0d","ios":"levelo://app?vid=ef01c2e4-9e32-4da8-8c57-e56002b85a0d"},"vehicle_type_id":"4","last_reported":1773422747,"current_range_meters":26800,"station_id":"st_d3nk18o9ro0c73en2l3g","pricing_plan_id":"cebpf4jnsgd1na2vs0mg"},{"bike_id":"88baf1fe-4b9b-4c52-81f7-dd067c921a9f","system_id":"levelo_inurba_marseille","lat":43.29819,"lon":5.44086,"is_reserved":false,"is_disabled":false,"rental_uris":{"android":"levelo://app?vid=88baf1fe-4b9b-4c52-81f7-dd067c921a9f","ios":"levelo://app?vid=88baf1fe-4b9b-4c52-81f7-dd067c921a9f"},"vehicle_type_id":"4","last_reported":1773422747,"current_range_meters":16800,"station_id":"st_d3jp68qikq2c7381ktn0","pricing_plan_id":"cebpf4jnsgd1na2vs0mg"},{"bike_id":"0f0d92f0-3031-4109-9545-b12e61aeb8ea","system_id":"levelo_inurba_marseille","lat":43.25502,"lon":5.37642,"is_reserved":false,"is_disabled":false,"rental_uris":{"android":"levelo://app?vid=0f0d92f0-3031-4109-9545-b12e61aeb8ea","ios":"levelo://app?vid=0f0d92f0-3031-4109-9545-b12e61aeb8ea"},"vehicle_type_id":"4","last_reported":1773422747,"current_range_meters":37600,"station_id":"ce4bhh12rcd13ifvqff0","pricing_plan_id":"cebpf4jnsgd1na2vs0mg"},{"bike_id":"60e5ee64-23dd-4b76-ba43-a71a00813c74","system_id":"levelo_inurba_marseille","lat":43.29712,"lon":5.37694,"is_reserved":false,"is_disabled":true,"rental_uris":{"android":"levelo://app?vid=60e5ee64-23dd-4b76-ba43-a71a00813c74","ios":"levelo://app?vid=60e5ee64-23dd-4b76-ba43-a71a00813c74"},"vehicle_type_id":"4","last_reported":1773422747,"current_range_meters":6000,"station_id":"ce4bgkh2rcd13ifvqbl0","pricing_plan_id":"cebpf4jnsgd1na2vs0mg"},{"bike_id":"5ac94716-44b8-4ae4-8f63-01aed3be190f","system_id":"levelo_inurba_marseille","lat":43.23965,"lon":5.36622,"is_reserved":false,"is_disabled":false,"rental_uris":{"android":"levelo://app?vid=5ac94716-44b8-4ae4-8f63-01aed3be190f","ios":"levelo://app?vid=5ac94716-44b8-4ae4-8f63-01aed3be190f"},"vehicle_type_id":"4","last_reported":1773422747,"current_range_meters":12400,"station_id":"ce4bhi12rcd13ifvqfp0","pricing_plan_id":"cebpf4jnsgd1na2vs0mg"},{"bike_id":"fd258194-61c5-419b-9cd1-bff91bbdf076","system_id":"levelo_inurba_marseille","lat":43.29553,"lon":5.4229,"is_reserved":false,"is_disabled":false,"rental_uris":{"android":"levelo://app?vid=fd258194-61c5-419b-9cd1-bff91bbdf076","ios":"levelo://app?vid=fd258194-61c5-419b-9cd1-bff91bbdf076"},"vehicle_type_id":"4","last_reported":1773422747,"current_range_meters":20800,"station_id":"ce4bhph2rcd13ifvqhdg","pricing_plan_id":"cebpf4jnsgd1na2vs0mg"},{"bike_id":"ef39315b-ba39-4fc8-b2c3-1a0d07436c05","system_id":"levelo_inurba_marseille","lat":43.27676,"lon":5.38878,"is_reserved":false,"is_disabled":false,"rental_uris":{"android":"levelo://app?vid=ef39315b-ba39-4fc8-b2c3-1a0d07436c05","ios":"levelo://app?vid=ef39315b-ba39-4fc8-b2c3-1a0d07436c05"},"vehicle_type_id":"4","last_reported":1773422747,"current_range_meters":2800,"station_id":"ce4bhi12rcd13ifvqfo0","pricing_plan_id":"cebpf4jnsgd1na2vs0mg"},{"bike_id":"d008a3ca-bdab-43f7-957e-465391a2d48d","system_id":"levelo_inurba_marseille","lat":43.31733,"lon":5.42366,"is_reserved":false,"is_disabled":false,"rental_uris":{"android":"levelo://app?vid=d008a3ca-bdab-43f7-957e-465391a2d48d","ios":"levelo://app?vid=d008a3ca-bdab-43f7-957e-465391a2d48d"},"vehicle_type_id":"4","last_reported":1773422747,"current_range_meters":39200,"station_id":"ce4bhp92rcd13ifvqhbg","pricing_plan_id":"cebpf4jnsgd1na2vs0mg"},{"bike_id":"e943bf01-3896-4dfc-b6e5-80c8141f2453","system_id":"levelo_inurba_marseille","lat":43.27617,"lon":5.36123,"is_reserved":false,"is_disabled":false,"rental_uris":{"android":"levelo://app?vid=e943bf01-3896-4dfc-b6e5-80c8141f2453","ios":"levelo://app?vid=e943bf01-3896-4dfc-b6e5-80c8141f2453"},"vehicle_type_id":"4","last_reported":1773422747,"current_range_meters":33200,"station_id":"ce4bgj92rcd13ifvqbe0","pricing_plan_id":"cebpf4jnsgd1na2vs0mg"},{"bike_id":"061e265a-0602-40cd-8c80-4693d8e8b09f","system_id":"levelo_inurba_marseille","lat":43.27378,"lon":5.36273,"is_reserved":false,"is_disabled":false,"rental_uris":{"android":"levelo://app?vid=061e265a-0602-40cd-8c80-4693d8e8b09f","ios":"levelo://app?vid=061e265a-0602-40cd-8c80-4693d8e8b09f"},"vehicle_type_id":"4","last_reported":1773422747,"current_range_meters":25200,"station_id":"ce4bhbh2rcd13ifvqeo0","pricing_plan_id":"cebpf4jnsgd1na2vs0mg"},{"bike_id":"d5269923-962d-4916-8c24-381b23861a7a","system_id":"levelo_inurba_marseille","lat":43.2379,"lon":5.36645,"is_reserved":false,"is_disabled":false,"rental_uris":{"android":"levelo://app?vid=d5269923-962d-4916-8c24-381b23861a7a","ios":"levelo://app?vid=d5269923-962d-4916-8c24-381b23861a7a"},"vehicle_type_id":"4","last_reported":1773422747,"current_range_meters":36400,"station_id":"st_d3nk18o9ro0c73en2l3g","pricing_plan_id":"cebpf4jnsgd1na2vs0mg"},{"bike_id":"281ddfef-efb6-422e-ac23-4e0aeaa6ad7d","system_id":"levelo_inurba_marseille","lat":43.24175,"lon":5.39687,"is_reserved":false,"is_disabled":false,"rental_uris":{"android":"levelo://app?vid=281ddfef-efb6-422e-ac23-4e0aeaa6ad7d","ios":"levelo://app?vid=281ddfef-efb6-422e-ac23-4e0aeaa6ad7d"},"vehicle_type_id":"4","last_reported":1773422747,"current_range_meters":39200,"station_id":"ce4bhn12rcd13ifvqgpg","pricing_plan_id":"cebpf4jnsgd1na2vs0mg"},{"bike_id":"d4055767-41fb-4e6f-902b-e9dd15f588d8","system_id":"levelo_inurba_marseille","lat":43.29009,"lon":5.38134,"is_reserved":false,"is_disabled":false,"rental_uris":{"android":"levelo://app?vid=d4055767-41fb-4e6f-902b-e9dd15f588d8","ios":"levelo://app?vid=d4055767-41fb-4e6f-902b-e9dd15f588d8"},"vehicle_type_id":"4","last_reported":1773422747,"current_range_meters":16400,"station_id":"ce4bh4p2rcd13ifvqe1g","pricing_plan_id":"cebpf4jnsgd1na2vs0mg"},{"bike_id":"efb128dc-e91e-4a83-8bca-dcbf05cd518e","system_id":"levelo_inurba_marseille","lat":43.29579,"lon":5.36734,"is_reserved":false,"is_disabled":false,"rental_uris":{"android":"levelo://app?vid=efb128dc-e91e-4a83-8bca-dcbf05cd518e","ios":"levelo://app?vid=efb128dc-e91e-4a83-8bca-dcbf05cd518e"},"vehicle_type_id":"4","last_reported":1773422747,"current_range_meters":21600,"station_id":"ce4bgph2rcd13ifvqc2g","pricing_plan_id":"cebpf4jnsgd1na2vs0mg"},{"bike_id":"18a0fb9e-e224-426e-8d68-1c285ec71ac8","system_id":"levelo_inurba_marseille","lat":43.29265,"lon":5.38429,"is_reserved":false,"is_disabled":true,"rental_uris":{"android":"levelo://app?vid=18a0fb9e-e224-426e-8d68-1c285ec71ac8","ios":"levelo://app?vid=18a0fb9e-e224-426e-8d68-1c285ec71ac8"},"vehicle_type_id":"4","last_reported":1773422747,"current_range_meters":26800,"station_id":"ce4bh692rcd13ifvqea0","pricing_plan_id":"cebpf4jnsgd1na2vs0mg"},{"bike_id":"c2a17675-9b80-458c-926f-27c4412cf3d3","system_id":"levelo_inurba_marseille","lat":43.2901,"lon":5.35613,"is_reserved":false,"is_disabled":false,"rental_uris":{"android":"levelo://app?vid=c2a17675-9b80-458c-926f-27c4412cf3d3","ios":"levelo://app?vid=c2a17675-9b80-458c-926f-27c4412cf3d3"},"vehicle_type_id":"4","last_reported":1773422747,"current_range_meters":4400,"station_id":"ce4bhb92rcd13ifvqen0","pricing_plan_id":"cebpf4jnsgd1na2vs0mg"},{"bike_id":"ea304849-fd51-4961-bfc0-efabcbe3b6ad","system_id":"levelo_inurba_marseille","lat":43.23372,"lon":5.41249,"is_reserved":false,"is_disabled":false,"rental_uris":{"android":"levelo://app?vid=ea304849-fd51-4961-bfc0-efabcbe3b6ad","ios":"levelo://app?vid=ea304849-fd51-4961-bfc0-efabcbe3b6ad"},"vehicle_type_id":"4","last_reported":1773422747,"current_range_meters":19200,"station_id":"","pricing_plan_id":"cebpf4jnsgd1na2vs0mg"},{"bike_id":"186ea412-004f-4c26-8fa5-0b8a69afaafd","system_id":"levelo_inurba_marseille","lat":43.29717,"lon":5.36568,"is_reserved":false,"is_disabled":false,"rental_uris":{"android":"levelo://app?vid=186ea412-004f-4c26-8fa5-0b8a69afaafd","ios":"levelo://app?vid=186ea412-004f-4c26-8fa5-0b8a69afaafd"},"vehicle_type_id":"4","last_reported":1773422747,"current_range_meters":34800,"station_id":"ce4bgn12rcd13ifvqbt0","pricing_plan_id":"cebpf4jnsgd1na2vs0mg"},{"bike_id":"e881bbd0-9e7e-42df-92ca-3190829aa76b","system_id":"levelo_inurba_marseille","lat":43.28404,"lon":5.34989,"is_reserved":false,"is_disabled":false,"rental_uris":{"android":"levelo://app?vid=e881bbd0-9e7e-42df-92ca-3190829aa76b","ios":"levelo://app?vid=e881bbd0-9e7e-42df-92ca-3190829aa76b"},"vehicle_type_id":"4","last_reported":1773422747,"current_range_meters":26800,"station_id":"ce4bhbh2rcd13ifvqepg","pricing_plan_id":"cebpf4jnsgd1na2vs0mg"},{"bike_id":"b4c9e02c-1bbd-41fa-9d44-6eac0348389c","system_id":"levelo_inurba_marseille","lat":43.30878,"lon":5.39633,"is_reserved":false,"is_disabled":false,"rental_uris":{"android":"levelo://app?vid=b4c9e02c-1bbd-41fa-9d44-6eac0348389c","ios":"levelo://app?vid=b4c9e02c-1bbd-41fa-9d44-6eac0348389c"},"vehicle_type_id":"4","last_reported":1773422747,"current_range_meters":32000,"station_id":"ce4bh012rcd13ifvqcv0","pricing_plan_id":"cebpf4jnsgd1na2vs0mg"},{"bike_id":"8617b24d-bdd2-49e3-beda-5d74fc474252","system_id":"levelo_inurba_marseille","lat":43.28477,"lon":5.48401,"is_reserved":false,"is_disabled":false,"rental_uris":{"android":"levelo://app?vid=8617b24d-bdd2-49e3-beda-5d74fc474252","ios":"levelo://app?vid=8617b24d-bdd2-49e3-beda-5d74fc474252"},"vehicle_type_id":"4","last_reported":1773422747,"current_range_meters":29600,"station_id":"","pricing_plan_id":"cebpf4jnsgd1na2vs0mg"},{"bike_id":"fa2bba8a-18e3-4b70-aead-eb8340ccd9cb","system_id":"levelo_inurba_marseille","lat":43.235,"lon":5.41293,"is_reserved":false,"is_disabled":false,"rental_uris":{"android":"levelo://app?vid=fa2bba8a-18e3-4b70-aead-eb8340ccd9cb","ios":"levelo://app?vid=fa2bba8a-18e3-4b70-aead-eb8340ccd9cb"},"vehicle_type_id":"4","last_reported":1773422747,"current_range_meters":27600,"station_id":"","pricing_plan_id":"cebpf4jnsgd1na2vs0mg"},{"bike_id":"25d21de3-a84a-4329-a25e-e561f815782a","system_id":"levelo_inurba_marseille","lat":43.27379,"lon":5.36258,"is_reserved":false,"is_disabled":false,"rental_uris":{"android":"levelo://app?vid=25d21de3-a84a-4329-a25e-e561f815782a","ios":"levelo://app?vid=25d21de3-a84a-4329-a25e-e561f815782a"},"vehicle_type_id":"4","last_reported":1773422747,"current_range_meters":16000,"station_id":"ce4bhbh2rcd13ifvqeo0","pricing_plan_id":"cebpf4jnsgd1na2vs0mg"},{"bike_id":"2c4b9baa-150c-43c0-9983-79477495e674","system_id":"levelo_inurba_marseille","lat":43.31546,"lon":5.38764,"is_reserved":false,"is_disabled":false,"rental_uris":{"android":"levelo://app?vid=2c4b9baa-150c-43c0-9983-79477495e674","ios":"levelo://app?vid=2c4b9baa-150c-43c0-9983-79477495e674"},"vehicle_type_id":"4","last_reported":1773422747,"current_range_meters":6400,"station_id":"","pricing_plan_id":"cebpf4jnsgd1na2vs0mg"},{"bike_id":"09539f8e-6768-469b-976e-6f474e67ef9e","system_id":"levelo_inurba_marseille","lat":43.27994,"lon":5.4166,"is_reserved":false,"is_disabled":false,"rental_uris":{"android":"levelo://app?vid=09539f8e-6768-469b-976e-6f474e67ef9e","ios":"levelo://app?vid=09539f8e-6768-469b-976e-6f474e67ef9e"},"vehicle_type_id":"4","last_reported":1773422747,"current_range_meters":34800,"station_id":"","pricing_plan_id":"cebpf4jnsgd1na2vs0mg"},{"bike_id":"5513dccf-31e4-4825-b6d2-d5fbbde55b2d","system_id":"levelo_inurba_marseille","lat":43.27175,"lon":5.41005,"is_reserved":false,"is_disabled":true,"rental_uris":{"android":"levelo://app?vid=5513dccf-31e4-4825-b6d2-d5fbbde55b2d","ios":"levelo://app?vid=5513dccf-31e4-4825-b6d2-d5fbbde55b2d"},"vehicle_type_id":"4","last_reported":1773422747,"current_range_meters":400,"station_id":"ce4bhl12rcd13ifvqgf0","pricing_plan_id":"cebpf4jnsgd1na2vs0mg"},{"bike_id":"4a09330b-b9bf-424e-8693-aafe00acb3cd","system_id":"levelo_inurba_marseille","lat":43.2953,"lon":5.42219,"is_reserved":false,"is_disabled":false,"rental_uris":{"android":"levelo://app?vid=4a09330b-b9bf-424e-8693-aafe00acb3cd","ios":"levelo://app?vid=4a09330b-b9bf-424e-8693-aafe00acb3cd"},"vehicle_type_id":"4","last_reported":1773422747,"current_range_meters":36800,"station_id":"ce4bhph2rcd13ifvqhdg","pricing_plan_id":"cebpf4jnsgd1na2vs0mg"},{"bike_id":"e0f4c726-c891-4b59-a727-5f7bf2fb4325","system_id":"levelo_inurba_marseille","lat":43.28529,"lon":5.44101,"is_reserved":false,"is_disabled":false,"rental_uris":{"android":"levelo://app?vid=e0f4c726-c891-4b59-a727-5f7bf2fb4325","ios":"levelo://app?vid=e0f4c726-c891-4b59-a727-5f7bf2fb4325"},"vehicle_type_id":"4","last_reported":1773422747,"current_range_meters":3200,"station_id":"st_d3j3df2ikq2c7380ej80","pricing_plan_id":"cebpf4jnsgd1na2vs0mg"},{"bike_id":"fea054e9-9687-462f-a721-42a34c23bbef","system_id":"levelo_inurba_marseille","lat":43.24672,"lon":5.3818,"is_reserved":false,"is_disabled":false,"rental_uris":{"android":"levelo://app?vid=fea054e9-9687-462f-a721-42a34c23bbef","ios":"levelo://app?vid=fea054e9-9687-462f-a721-42a34c23bbef"},"vehicle_type_id":"4","last_reported":1773422747,"current_range_meters":11600,"station_id":"ce4bhih2rcd13ifvqfr0","pricing_plan_id":"cebpf4jnsgd1na2vs0mg"},{"bike_id":"3d4208c2-815f-40bf-8bb0-f78b87ee07d6","system_id":"levelo_inurba_marseille","lat":43.28438,"lon":5.34993,"is_reserved":false,"is_disabled":false,"rental_uris":{"android":"levelo://app?vid=3d4208c2-815f-40bf-8bb0-f78b87ee07d6","ios":"levelo://app?vid=3d4208c2-815f-40bf-8bb0-f78b87ee07d6"},"vehicle_type_id":"4","last_reported":1773422747,"current_range_meters":38800,"station_id":"ce4bhbh2rcd13ifvqepg","pricing_plan_id":"cebpf4jnsgd1na2vs0mg"},{"bike_id":"a0636e33-037d-4b46-b9df-dfe7d5680bf3","system_id":"levelo_inurba_marseille","lat":43.2919,"lon":5.39317,"is_reserved":false,"is_disabled":false,"rental_uris":{"android":"levelo://app?vid=a0636e33-037d-4b46-b9df-dfe7d5680bf3","ios":"levelo://app?vid=a0636e33-037d-4b46-b9df-dfe7d5680bf3"},"vehicle_type_id":"4","last_reported":1773422747,"current_range_meters":25200,"station_id":"ce4bh192rcd13ifvqdd0","pricing_plan_id":"cebpf4jnsgd1na2vs0mg"},{"bike_id":"56fddcda-c541-44a5-8391-f7fbf087f4ed","system_id":"levelo_inurba_marseille","lat":43.22566,"lon":5.41632,"is_reserved":false,"is_disabled":false,"rental_uris":{"android":"levelo://app?vid=56fddcda-c541-44a5-8391-f7fbf087f4ed","ios":"levelo://app?vid=56fddcda-c541-44a5-8391-f7fbf087f4ed"},"vehicle_type_id":"4","last_reported":1773422747,"current_range_meters":39200,"station_id":"st_d2o4gvlbi1j2169b742g","pricing_plan_id":"cebpf4jnsgd1na2vs0mg"},{"bike_id":"7c562c0f-e462-4dbb-aac8-440fd40d84a6","system_id":"levelo_inurba_marseille","lat":43.28403,"lon":5.34977,"is_reserved":false,"is_disabled":false,"rental_uris":{"android":"levelo://app?vid=7c562c0f-e462-4dbb-aac8-440fd40d84a6","ios":"levelo://app?vid=7c562c0f-e462-4dbb-aac8-440fd40d84a6"},"vehicle_type_id":"4","last_reported":1773422747,"current_range_meters":20800,"station_id":"ce4bhbh2rcd13ifvqepg","pricing_plan_id":"cebpf4jnsgd1na2vs0mg"},{"bike_id":"04d16ef4-39d1-4e51-b75d-bfa218adb8ad","system_id":"levelo_inurba_marseille","lat":43.30479,"lon":5.36668,"is_reserved":false,"is_disabled":false,"rental_uris":{"android":"levelo://app?vid=04d16ef4-39d1-4e51-b75d-bfa218adb8ad","ios":"levelo://app?vid=04d16ef4-39d1-4e51-b75d-bfa218adb8ad"},"vehicle_type_id":"4","last_reported":1773422747,"current_range_meters":28000,"station_id":"","pricing_plan_id":"cebpf4jnsgd1na2vs0mg"},{"bike_id":"e6270309-3b77-47ae-885b-fc6b7111ac9b","system_id":"levelo_inurba_marseille","lat":43.30873,"lon":5.39639,"is_reserved":false,"is_disabled":false,"rental_uris":{"android":"levelo://app?vid=e6270309-3b77-47ae-885b-fc6b7111ac9b","ios":"levelo://app?vid=e6270309-3b77-47ae-885b-fc6b7111ac9b"},"vehicle_type_id":"4","last_reported":1773422747,"current_range_meters":39200,"station_id":"ce4bh012rcd13ifvqcv0","pricing_plan_id":"cebpf4jnsgd1na2vs0mg"},{"bike_id":"d9607347-92e1-466e-bdad-c151618ecc8a","system_id":"levelo_inurba_marseille","lat":43.29531,"lon":5.38547,"is_reserved":false,"is_disabled":false,"rental_uris":{"android":"levelo://app?vid=d9607347-92e1-466e-bdad-c151618ecc8a","ios":"levelo://app?vid=d9607347-92e1-466e-bdad-c151618ecc8a"},"vehicle_type_id":"4","last_reported":1773422747,"current_range_meters":39200,"station_id":"ce4bgih2rcd13ifvqba0","pricing_plan_id":"cebpf4jnsgd1na2vs0mg"},{"bike_id":"d213d92d-5289-4183-93be-f84e36b07244","system_id":"levelo_inurba_marseille","lat":43.29002,"lon":5.3562,"is_reserved":false,"is_disabled":true,"rental_uris":{"android":"levelo://app?vid=d213d92d-5289-4183-93be-f84e36b07244","ios":"levelo://app?vid=d213d92d-5289-4183-93be-f84e36b07244"},"vehicle_type_id":"4","last_reported":1773422747,"current_range_meters":28800,"station_id":"ce4bhb92rcd13ifvqen0","pricing_plan_id":"cebpf4jnsgd1na2vs0mg"},{"bike_id":"16e0b14c-5bff-4aea-88ff-d2fdc3091ae6","system_id":"levelo_inurba_marseille","lat":43.28433,"lon":5.34997,"is_reserved":false,"is_disabled":false,"rental_uris":{"android":"levelo://app?vid=16e0b14c-5bff-4aea-88ff-d2fdc3091ae6","ios":"levelo://app?vid=16e0b14c-5bff-4aea-88ff-d2fdc3091ae6"},"vehicle_type_id":"4","last_reported":1773422747,"current_range_meters":8000,"station_id":"ce4bhbh2rcd13ifvqepg","pricing_plan_id":"cebpf4jnsgd1na2vs0mg"},{"bike_id":"7f81016b-7cf0-45dc-aaf5-7e3ee385c6db","system_id":"levelo_inurba_marseille","lat":43.29213,"lon":5.36115,"is_reserved":false,"is_disabled":false,"rental_uris":{"android":"levelo://app?vid=7f81016b-7cf0-45dc-aaf5-7e3ee385c6db","ios":"levelo://app?vid=7f81016b-7cf0-45dc-aaf5-7e3ee385c6db"},"vehicle_type_id":"4","last_reported":1773422747,"current_range_meters":11200,"station_id":"ce4bhbh2rcd13ifvqeqg","pricing_plan_id":"cebpf4jnsgd1na2vs0mg"},{"bike_id":"ae9c9c4e-e2b3-4531-a6f9-74bfdcbc7f58","system_id":"levelo_inurba_marseille","lat":43.29446,"lon":5.39749,"is_reserved":false,"is_disabled":false,"rental_uris":{"android":"levelo://app?vid=ae9c9c4e-e2b3-4531-a6f9-74bfdcbc7f58","ios":"levelo://app?vid=ae9c9c4e-e2b3-4531-a6f9-74bfdcbc7f58"},"vehicle_type_id":"4","last_reported":1773422747,"current_range_meters":6400,"station_id":"ce4bh3h2rcd13ifvqdo0","pricing_plan_id":"cebpf4jnsgd1na2vs0mg"},{"bike_id":"1072a2a8-0c4d-4e1d-a618-9cb5fde068bb","system_id":"levelo_inurba_marseille","lat":43.24389,"lon":5.37071,"is_reserved":false,"is_disabled":false,"rental_uris":{"android":"levelo://app?vid=1072a2a8-0c4d-4e1d-a618-9cb5fde068bb","ios":"levelo://app?vid=1072a2a8-0c4d-4e1d-a618-9cb5fde068bb"},"vehicle_type_id":"4","last_reported":1773422747,"current_range_meters":38800,"station_id":"ce4bhhh2rcd13ifvqfk0","pricing_plan_id":"cebpf4jnsgd1na2vs0mg"},{"bike_id":"8c1a2ee0-01d7-422c-9565-7b9344a4c243","system_id":"levelo_inurba_marseille","lat":43.27368,"lon":5.39113,"is_reserved":false,"is_disabled":false,"rental_uris":{"android":"levelo://app?vid=8c1a2ee0-01d7-422c-9565-7b9344a4c243","ios":"levelo://app?vid=8c1a2ee0-01d7-422c-9565-7b9344a4c243"},"vehicle_type_id":"4","last_reported":1773422747,"current_range_meters":19200,"station_id":"ce4bhgp2rcd13ifvqfe0","pricing_plan_id":"cebpf4jnsgd1na2vs0mg"},{"bike_id":"3503a7ce-be52-4a37-82fa-634165cf7a28","system_id":"levelo_inurba_marseille","lat":43.2737,"lon":5.36252,"is_reserved":false,"is_disabled":true,"rental_uris":{"android":"levelo://app?vid=3503a7ce-be52-4a37-82fa-634165cf7a28","ios":"levelo://app?vid=3503a7ce-be52-4a37-82fa-634165cf7a28"},"vehicle_type_id":"4","last_reported":1773422747,"current_range_meters":1600,"station_id":"ce4bhbh2rcd13ifvqeo0","pricing_plan_id":"cebpf4jnsgd1na2vs0mg"},{"bike_id":"37c368cf-eff3-4518-ab3e-c75f5ff1553c","system_id":"levelo_inurba_marseille","lat":43.28607,"lon":5.37068,"is_reserved":false,"is_disabled":false,"rental_uris":{"android":"levelo://app?vid=37c368cf-eff3-4518-ab3e-c75f5ff1553c","ios":"levelo://app?vid=37c368cf-eff3-4518-ab3e-c75f5ff1553c"},"vehicle_type_id":"4","last_reported":1773422747,"current_range_meters":26000,"station_id":"ce4bht12rcd13ifvqi60","pricing_plan_id":"cebpf4jnsgd1na2vs0mg"},{"bike_id":"d8fc3bc2-055e-4373-a327-9f6c6391bd96","system_id":"levelo_inurba_marseille","lat":43.290716,"lon":5.381461,"is_reserved":false,"is_disabled":false,"rental_uris":{"android":"levelo://app?vid=d8fc3bc2-055e-4373-a327-9f6c6391bd96","ios":"levelo://app?vid=d8fc3bc2-055e-4373-a327-9f6c6391bd96"},"vehicle_type_id":"4","last_reported":1773422747,"current_range_meters":32800,"station_id":"","pricing_plan_id":"cebpf4jnsgd1na2vs0mg"},{"bike_id":"6840f6df-3461-42c8-98d7-357f6584e26f","system_id":"levelo_inurba_marseille","lat":43.27378,"lon":5.36253,"is_reserved":false,"is_disabled":false,"rental_uris":{"android":"levelo://app?vid=6840f6df-3461-42c8-98d7-357f6584e26f","ios":"levelo://app?vid=6840f6df-3461-42c8-98d7-357f6584e26f"},"vehicle_type_id":"4","last_reported":1773422747,"current_range_meters":38000,"station_id":"ce4bhbh2rcd13ifvqeo0","pricing_plan_id":"cebpf4jnsgd1na2vs0mg"},{"bike_id":"9e46f4ed-8ed3-4141-9845-0b582964c24c","system_id":"levelo_inurba_marseille","lat":43.211893,"lon":5.35072,"is_reserved":false,"is_disabled":false,"rental_uris":{"android":"levelo://app?vid=9e46f4ed-8ed3-4141-9845-0b582964c24c","ios":"levelo://app?vid=9e46f4ed-8ed3-4141-9845-0b582964c24c"},"vehicle_type_id":"4","last_reported":1773422747,"current_range_meters":11200,"station_id":"","pricing_plan_id":"cebpf4jnsgd1na2vs0mg"},{"bike_id":"d9fb65fe-fe24-4336-bfc8-6de56befaff1","system_id":"levelo_inurba_marseille","lat":43.28271,"lon":5.35058,"is_reserved":false,"is_disabled":false,"rental_uris":{"android":"levelo://app?vid=d9fb65fe-fe24-4336-bfc8-6de56befaff1","ios":"levelo://app?vid=d9fb65fe-fe24-4336-bfc8-6de56befaff1"},"vehicle_type_id":"4","last_reported":1773422747,"current_range_meters":29600,"station_id":"ce4bhbp2rcd13ifvqerg","pricing_plan_id":"cebpf4jnsgd1na2vs0mg"},{"bike_id":"4750752f-43ad-45f1-98e9-dda63ab4c2f6","system_id":"levelo_inurba_marseille","lat":43.31293,"lon":5.40164,"is_reserved":false,"is_disabled":true,"rental_uris":{"android":"levelo://app?vid=4750752f-43ad-45f1-98e9-dda63ab4c2f6","ios":"levelo://app?vid=4750752f-43ad-45f1-98e9-dda63ab4c2f6"},"vehicle_type_id":"4","last_reported":1773422747,"current_range_meters":800,"station_id":"ce4bh092rcd13ifvqd30","pricing_plan_id":"cebpf4jnsgd1na2vs0mg"},{"bike_id":"93c8107a-44d9-4b92-a485-08cbd24bb80c","system_id":"levelo_inurba_marseille","lat":43.28662,"lon":5.35127,"is_reserved":false,"is_disabled":false,"rental_uris":{"android":"levelo://app?vid=93c8107a-44d9-4b92-a485-08cbd24bb80c","ios":"levelo://app?vid=93c8107a-44d9-4b92-a485-08cbd24bb80c"},"vehicle_type_id":"4","last_reported":1773422747,"current_range_meters":18800,"station_id":"ce4bhch2rcd13ifvqeug","pricing_plan_id":"cebpf4jnsgd1na2vs0mg"},{"bike_id":"4605d0eb-aef4-494c-b103-fe3cbd9a939f","system_id":"levelo_inurba_marseille","lat":43.26063,"lon":5.39395,"is_reserved":false,"is_disabled":false,"rental_uris":{"android":"levelo://app?vid=4605d0eb-aef4-494c-b103-fe3cbd9a939f","ios":"levelo://app?vid=4605d0eb-aef4-494c-b103-fe3cbd9a939f"},"vehicle_type_id":"4","last_reported":1773422747,"current_range_meters":23200,"station_id":"ce4bhh92rcd13ifvqfj0","pricing_plan_id":"cebpf4jnsgd1na2vs0mg"},{"bike_id":"668dc3cb-e39a-4e04-96b2-214a20a52bfd","system_id":"levelo_inurba_marseille","lat":43.27813,"lon":5.40708,"is_reserved":false,"is_disabled":false,"rental_uris":{"android":"levelo://app?vid=668dc3cb-e39a-4e04-96b2-214a20a52bfd","ios":"levelo://app?vid=668dc3cb-e39a-4e04-96b2-214a20a52bfd"},"vehicle_type_id":"4","last_reported":1773422747,"current_range_meters":3200,"station_id":"ce4bhnh2rcd13ifvqgtg","pricing_plan_id":"cebpf4jnsgd1na2vs0mg"},{"bike_id":"b162945b-dffc-4f2b-a118-25abd7844f81","system_id":"levelo_inurba_marseille","lat":43.33024,"lon":5.39044,"is_reserved":false,"is_disabled":false,"rental_uris":{"android":"levelo://app?vid=b162945b-dffc-4f2b-a118-25abd7844f81","ios":"levelo://app?vid=b162945b-dffc-4f2b-a118-25abd7844f81"},"vehicle_type_id":"4","last_reported":1773422747,"current_range_meters":6800,"station_id":"ce4bhr92rcd13ifvqhrg","pricing_plan_id":"cebpf4jnsgd1na2vs0mg"},{"bike_id":"c4bc4c4b-1b65-4f1c-9292-7dbc626f973c","system_id":"levelo_inurba_marseille","lat":43.33779,"lon":5.37461,"is_reserved":false,"is_disabled":false,"rental_uris":{"android":"levelo://app?vid=c4bc4c4b-1b65-4f1c-9292-7dbc626f973c","ios":"levelo://app?vid=c4bc4c4b-1b65-4f1c-9292-7dbc626f973c"},"vehicle_type_id":"4","last_reported":1773422747,"current_range_meters":38000,"station_id":"","pricing_plan_id":"cebpf4jnsgd1na2vs0mg"},{"bike_id":"a4e1eda7-e339-4e89-aeab-5ba3de0c460b","system_id":"levelo_inurba_marseille","lat":43.28308,"lon":5.3807,"is_reserved":false,"is_disabled":true,"rental_uris":{"android":"levelo://app?vid=a4e1eda7-e339-4e89-aeab-5ba3de0c460b","ios":"levelo://app?vid=a4e1eda7-e339-4e89-aeab-5ba3de0c460b"},"vehicle_type_id":"4","last_reported":1773422747,"current_range_meters":38000,"station_id":"ce4bh412rcd13ifvqdr0","pricing_plan_id":"cebpf4jnsgd1na2vs0mg"},{"bike_id":"3020feb6-ca5f-4e58-bdd3-a8c8a201a3ce","system_id":"levelo_inurba_marseille","lat":43.30884,"lon":5.39629,"is_reserved":false,"is_disabled":false,"rental_uris":{"android":"levelo://app?vid=3020feb6-ca5f-4e58-bdd3-a8c8a201a3ce","ios":"levelo://app?vid=3020feb6-ca5f-4e58-bdd3-a8c8a201a3ce"},"vehicle_type_id":"4","last_reported":1773422747,"current_range_meters":30400,"station_id":"ce4bh012rcd13ifvqcv0","pricing_plan_id":"cebpf4jnsgd1na2vs0mg"},{"bike_id":"48358f2d-f55c-46c5-9640-4bd45a2b2905","system_id":"levelo_inurba_marseille","lat":43.24445,"lon":5.37056,"is_reserved":false,"is_disabled":true,"rental_uris":{"android":"levelo://app?vid=48358f2d-f55c-46c5-9640-4bd45a2b2905","ios":"levelo://app?vid=48358f2d-f55c-46c5-9640-4bd45a2b2905"},"vehicle_type_id":"4","last_reported":1773422747,"current_range_meters":33600,"station_id":"","pricing_plan_id":"cebpf4jnsgd1na2vs0mg"},{"bike_id":"04c994cf-f457-4693-8133-467151150b6e","system_id":"levelo_inurba_marseille","lat":43.2549,"lon":5.37649,"is_reserved":false,"is_disabled":false,"rental_uris":{"android":"levelo://app?vid=04c994cf-f457-4693-8133-467151150b6e","ios":"levelo://app?vid=04c994cf-f457-4693-8133-467151150b6e"},"vehicle_type_id":"4","last_reported":1773422747,"current_range_meters":16400,"station_id":"ce4bhh12rcd13ifvqff0","pricing_plan_id":"cebpf4jnsgd1na2vs0mg"},{"bike_id":"e8969e60-75bf-4366-aa90-c87138a8b980","system_id":"levelo_inurba_marseille","lat":43.28928,"lon":5.38387,"is_reserved":false,"is_disabled":false,"rental_uris":{"android":"levelo://app?vid=e8969e60-75bf-4366-aa90-c87138a8b980","ios":"levelo://app?vid=e8969e60-75bf-4366-aa90-c87138a8b980"},"vehicle_type_id":"4","last_reported":1773422747,"current_range_meters":12800,"station_id":"ce4bh612rcd13ifvqe6g","pricing_plan_id":"cebpf4jnsgd1na2vs0mg"},{"bike_id":"626a35f0-447c-4bce-95ad-77821380f26a","system_id":"levelo_inurba_marseille","lat":43.30919,"lon":5.40172,"is_reserved":false,"is_disabled":true,"rental_uris":{"android":"levelo://app?vid=626a35f0-447c-4bce-95ad-77821380f26a","ios":"levelo://app?vid=626a35f0-447c-4bce-95ad-77821380f26a"},"vehicle_type_id":"4","last_reported":1773422747,"current_range_meters":39200,"station_id":"ce4bgvp2rcd13ifvqct0","pricing_plan_id":"cebpf4jnsgd1na2vs0mg"},{"bike_id":"edf8e9bb-dd65-4f5d-9c37-53194300b8b5","system_id":"levelo_inurba_marseille","lat":43.33739,"lon":5.37449,"is_reserved":false,"is_disabled":false,"rental_uris":{"android":"levelo://app?vid=edf8e9bb-dd65-4f5d-9c37-53194300b8b5","ios":"levelo://app?vid=edf8e9bb-dd65-4f5d-9c37-53194300b8b5"},"vehicle_type_id":"4","last_reported":1773422747,"current_range_meters":36000,"station_id":"","pricing_plan_id":"cebpf4jnsgd1na2vs0mg"},{"bike_id":"4eb02ba4-5beb-4f89-a8e9-719efee9c24d","system_id":"levelo_inurba_marseille","lat":43.28632,"lon":5.3514,"is_reserved":false,"is_disabled":false,"rental_uris":{"android":"levelo://app?vid=4eb02ba4-5beb-4f89-a8e9-719efee9c24d","ios":"levelo://app?vid=4eb02ba4-5beb-4f89-a8e9-719efee9c24d"},"vehicle_type_id":"4","last_reported":1773422747,"current_range_meters":32800,"station_id":"ce4bhch2rcd13ifvqeug","pricing_plan_id":"cebpf4jnsgd1na2vs0mg"},{"bike_id":"cc861bc1-1aca-46be-a176-b5ecc6ef06de","system_id":"levelo_inurba_marseille","lat":43.29277,"lon":5.36847,"is_reserved":false,"is_disabled":false,"rental_uris":{"android":"levelo://app?vid=cc861bc1-1aca-46be-a176-b5ecc6ef06de","ios":"levelo://app?vid=cc861bc1-1aca-46be-a176-b5ecc6ef06de"},"vehicle_type_id":"4","last_reported":1773422747,"current_range_meters":6800,"station_id":"ce4bhbp2rcd13ifvqesg","pricing_plan_id":"cebpf4jnsgd1na2vs0mg"},{"bike_id":"2ff56ee1-74c8-415f-a39e-693cde6f53ed","system_id":"levelo_inurba_marseille","lat":43.30883,"lon":5.39651,"is_reserved":false,"is_disabled":false,"rental_uris":{"android":"levelo://app?vid=2ff56ee1-74c8-415f-a39e-693cde6f53ed","ios":"levelo://app?vid=2ff56ee1-74c8-415f-a39e-693cde6f53ed"},"vehicle_type_id":"4","last_reported":1773422747,"current_range_meters":36400,"station_id":"ce4bh012rcd13ifvqcv0","pricing_plan_id":"cebpf4jnsgd1na2vs0mg"},{"bike_id":"03ebd25c-20f7-4152-ac51-be4bca2e30df","system_id":"levelo_inurba_marseille","lat":43.25022,"lon":5.38957,"is_reserved":false,"is_disabled":false,"rental_uris":{"android":"levelo://app?vid=03ebd25c-20f7-4152-ac51-be4bca2e30df","ios":"levelo://app?vid=03ebd25c-20f7-4152-ac51-be4bca2e30df"},"vehicle_type_id":"4","last_reported":1773422747,"current_range_meters":10000,"station_id":"ce4bhgp2rcd13ifvqfd0","pricing_plan_id":"cebpf4jnsgd1na2vs0mg"},{"bike_id":"2c978af2-8b1e-4e06-849b-1f281602edbb","system_id":"levelo_inurba_marseille","lat":43.28458,"lon":5.35882,"is_reserved":false,"is_disabled":true,"rental_uris":{"android":"levelo://app?vid=2c978af2-8b1e-4e06-849b-1f281602edbb","ios":"levelo://app?vid=2c978af2-8b1e-4e06-849b-1f281602edbb"},"vehicle_type_id":"4","last_reported":1773422747,"current_range_meters":1200,"station_id":"ce4bhah2rcd13ifvqei0","pricing_plan_id":"cebpf4jnsgd1na2vs0mg"},{"bike_id":"61a4ae79-d0b6-414f-8906-b833322210b6","system_id":"levelo_inurba_marseille","lat":43.2657,"lon":5.40337,"is_reserved":false,"is_disabled":false,"rental_uris":{"android":"levelo://app?vid=61a4ae79-d0b6-414f-8906-b833322210b6","ios":"levelo://app?vid=61a4ae79-d0b6-414f-8906-b833322210b6"},"vehicle_type_id":"4","last_reported":1773422747,"current_range_meters":39200,"station_id":"ce4bhmp2rcd13ifvqgng","pricing_plan_id":"cebpf4jnsgd1na2vs0mg"},{"bike_id":"6878bea0-b0c2-44f4-bf88-8f7abd70758d","system_id":"levelo_inurba_marseille","lat":43.29896,"lon":5.43667,"is_reserved":false,"is_disabled":false,"rental_uris":{"android":"levelo://app?vid=6878bea0-b0c2-44f4-bf88-8f7abd70758d","ios":"levelo://app?vid=6878bea0-b0c2-44f4-bf88-8f7abd70758d"},"vehicle_type_id":"4","last_reported":1773422747,"current_range_meters":20400,"station_id":"ce4bhpp2rcd13ifvqhfg","pricing_plan_id":"cebpf4jnsgd1na2vs0mg"},{"bike_id":"52af1380-3673-4365-ad93-f0e999752fe4","system_id":"levelo_inurba_marseille","lat":43.28578,"lon":5.39492,"is_reserved":false,"is_disabled":false,"rental_uris":{"android":"levelo://app?vid=52af1380-3673-4365-ad93-f0e999752fe4","ios":"levelo://app?vid=52af1380-3673-4365-ad93-f0e999752fe4"},"vehicle_type_id":"4","last_reported":1773422747,"current_range_meters":19200,"station_id":"ce4bh292rcd13ifvqdg0","pricing_plan_id":"cebpf4jnsgd1na2vs0mg"},{"bike_id":"f3456906-895c-46da-9418-42fdfa3e26ac","system_id":"levelo_inurba_marseille","lat":43.28629,"lon":5.35108,"is_reserved":false,"is_disabled":true,"rental_uris":{"android":"levelo://app?vid=f3456906-895c-46da-9418-42fdfa3e26ac","ios":"levelo://app?vid=f3456906-895c-46da-9418-42fdfa3e26ac"},"vehicle_type_id":"4","last_reported":1773422747,"current_range_meters":28400,"station_id":"ce4bhch2rcd13ifvqeug","pricing_plan_id":"cebpf4jnsgd1na2vs0mg"},{"bike_id":"e441b7b5-962f-465e-aeaa-9e7df115785b","system_id":"levelo_inurba_marseille","lat":43.28466,"lon":5.35869,"is_reserved":false,"is_disabled":false,"rental_uris":{"android":"levelo://app?vid=e441b7b5-962f-465e-aeaa-9e7df115785b","ios":"levelo://app?vid=e441b7b5-962f-465e-aeaa-9e7df115785b"},"vehicle_type_id":"4","last_reported":1773422747,"current_range_meters":7200,"station_id":"ce4bhah2rcd13ifvqei0","pricing_plan_id":"cebpf4jnsgd1na2vs0mg"},{"bike_id":"d2f26d83-dc8d-4b86-be8e-0eef4b5ebbb5","system_id":"levelo_inurba_marseille","lat":43.27413,"lon":5.38957,"is_reserved":false,"is_disabled":false,"rental_uris":{"android":"levelo://app?vid=d2f26d83-dc8d-4b86-be8e-0eef4b5ebbb5","ios":"levelo://app?vid=d2f26d83-dc8d-4b86-be8e-0eef4b5ebbb5"},"vehicle_type_id":"4","last_reported":1773422747,"current_range_meters":18000,"station_id":"","pricing_plan_id":"cebpf4jnsgd1na2vs0mg"},{"bike_id":"ed0157ed-e5ed-4463-a35e-e3af36488bfa","system_id":"levelo_inurba_marseille","lat":43.2396,"lon":5.3664,"is_reserved":false,"is_disabled":false,"rental_uris":{"android":"levelo://app?vid=ed0157ed-e5ed-4463-a35e-e3af36488bfa","ios":"levelo://app?vid=ed0157ed-e5ed-4463-a35e-e3af36488bfa"},"vehicle_type_id":"4","last_reported":1773422747,"current_range_meters":39200,"station_id":"ce4bhi12rcd13ifvqfp0","pricing_plan_id":"cebpf4jnsgd1na2vs0mg"},{"bike_id":"e431a4af-622b-4ada-a37c-11e0c592b348","system_id":"levelo_inurba_marseille","lat":43.24993,"lon":5.38974,"is_reserved":false,"is_disabled":true,"rental_uris":{"android":"levelo://app?vid=e431a4af-622b-4ada-a37c-11e0c592b348","ios":"levelo://app?vid=e431a4af-622b-4ada-a37c-11e0c592b348"},"vehicle_type_id":"4","last_reported":1773422747,"current_range_meters":38000,"station_id":"","pricing_plan_id":"cebpf4jnsgd1na2vs0mg"},{"bike_id":"82259334-367b-4934-949a-719e90f7c9cb","system_id":"levelo_inurba_marseille","lat":43.25506,"lon":5.37649,"is_reserved":false,"is_disabled":true,"rental_uris":{"android":"levelo://app?vid=82259334-367b-4934-949a-719e90f7c9cb","ios":"levelo://app?vid=82259334-367b-4934-949a-719e90f7c9cb"},"vehicle_type_id":"4","last_reported":1773422747,"current_range_meters":0,"station_id":"ce4bhh12rcd13ifvqff0","pricing_plan_id":"cebpf4jnsgd1na2vs0mg"},{"bike_id":"2cc4bff9-1aec-497c-9fcb-b85037507eab","system_id":"levelo_inurba_marseille","lat":43.28258,"lon":5.35068,"is_reserved":false,"is_disabled":false,"rental_uris":{"android":"levelo://app?vid=2cc4bff9-1aec-497c-9fcb-b85037507eab","ios":"levelo://app?vid=2cc4bff9-1aec-497c-9fcb-b85037507eab"},"vehicle_type_id":"4","last_reported":1773422747,"current_range_meters":22400,"station_id":"ce4bhbp2rcd13ifvqerg","pricing_plan_id":"cebpf4jnsgd1na2vs0mg"},{"bike_id":"b6aca5ab-c80f-48cc-8ad7-e5e06c5a92c0","system_id":"levelo_inurba_marseille","lat":43.24854,"lon":5.41626,"is_reserved":false,"is_disabled":false,"rental_uris":{"android":"levelo://app?vid=b6aca5ab-c80f-48cc-8ad7-e5e06c5a92c0","ios":"levelo://app?vid=b6aca5ab-c80f-48cc-8ad7-e5e06c5a92c0"},"vehicle_type_id":"4","last_reported":1773422747,"current_range_meters":10800,"station_id":"","pricing_plan_id":"cebpf4jnsgd1na2vs0mg"},{"bike_id":"3ee82b80-2e50-47d8-a416-2e91ba4f8437","system_id":"levelo_inurba_marseille","lat":43.24394,"lon":5.37066,"is_reserved":false,"is_disabled":false,"rental_uris":{"android":"levelo://app?vid=3ee82b80-2e50-47d8-a416-2e91ba4f8437","ios":"levelo://app?vid=3ee82b80-2e50-47d8-a416-2e91ba4f8437"},"vehicle_type_id":"4","last_reported":1773422747,"current_range_meters":39200,"station_id":"ce4bhhh2rcd13ifvqfk0","pricing_plan_id":"cebpf4jnsgd1na2vs0mg"},{"bike_id":"70a2990c-528a-46cd-b916-698405de1397","system_id":"levelo_inurba_marseille","lat":43.272,"lon":5.39195,"is_reserved":false,"is_disabled":true,"rental_uris":{"android":"levelo://app?vid=70a2990c-528a-46cd-b916-698405de1397","ios":"levelo://app?vid=70a2990c-528a-46cd-b916-698405de1397"},"vehicle_type_id":"4","last_reported":1773422747,"current_range_meters":11200,"station_id":"ce4bhhp2rcd13ifvqfm0","pricing_plan_id":"cebpf4jnsgd1na2vs0mg"},{"bike_id":"a5137f7b-0c87-4637-9faa-e6fa94d4a3f6","system_id":"levelo_inurba_marseille","lat":43.290317,"lon":5.399643,"is_reserved":false,"is_disabled":true,"rental_uris":{"android":"levelo://app?vid=a5137f7b-0c87-4637-9faa-e6fa94d4a3f6","ios":"levelo://app?vid=a5137f7b-0c87-4637-9faa-e6fa94d4a3f6"},"vehicle_type_id":"4","last_reported":1773422747,"current_range_meters":800,"station_id":"","pricing_plan_id":"cebpf4jnsgd1na2vs0mg"},{"bike_id":"90a0e91e-7f14-4c07-b6d8-89cd4bcea9d1","system_id":"levelo_inurba_marseille","lat":43.28498,"lon":5.3857,"is_reserved":false,"is_disabled":false,"rental_uris":{"android":"levelo://app?vid=90a0e91e-7f14-4c07-b6d8-89cd4bcea9d1","ios":"levelo://app?vid=90a0e91e-7f14-4c07-b6d8-89cd4bcea9d1"},"vehicle_type_id":"4","last_reported":1773422747,"current_range_meters":4000,"station_id":"ce4bh8p2rcd13ifvqeb0","pricing_plan_id":"cebpf4jnsgd1na2vs0mg"},{"bike_id":"4f17c9d4-f78f-423b-986e-f84f87a334b3","system_id":"levelo_inurba_marseille","lat":43.29528,"lon":5.38545,"is_reserved":false,"is_disabled":false,"rental_uris":{"android":"levelo://app?vid=4f17c9d4-f78f-423b-986e-f84f87a334b3","ios":"levelo://app?vid=4f17c9d4-f78f-423b-986e-f84f87a334b3"},"vehicle_type_id":"4","last_reported":1773422747,"current_range_meters":18000,"station_id":"ce4bgih2rcd13ifvqba0","pricing_plan_id":"cebpf4jnsgd1na2vs0mg"},{"bike_id":"b269e560-67c1-4a76-be01-f01653fbd08e","system_id":"levelo_inurba_marseille","lat":43.30303,"lon":5.392,"is_reserved":false,"is_disabled":true,"rental_uris":{"android":"levelo://app?vid=b269e560-67c1-4a76-be01-f01653fbd08e","ios":"levelo://app?vid=b269e560-67c1-4a76-be01-f01653fbd08e"},"vehicle_type_id":"4","last_reported":1773422747,"current_range_meters":0,"station_id":"ce4bgkh2rcd13ifvqbk0","pricing_plan_id":"cebpf4jnsgd1na2vs0mg"},{"bike_id":"dc5edf90-041a-4124-a075-468425e57fd2","system_id":"levelo_inurba_marseille","lat":43.29811,"lon":5.38086,"is_reserved":false,"is_disabled":false,"rental_uris":{"android":"levelo://app?vid=dc5edf90-041a-4124-a075-468425e57fd2","ios":"levelo://app?vid=dc5edf90-041a-4124-a075-468425e57fd2"},"vehicle_type_id":"4","last_reported":1773422747,"current_range_meters":36800,"station_id":"ce4bgip2rcd13ifvqbb0","pricing_plan_id":"cebpf4jnsgd1na2vs0mg"},{"bike_id":"fb95f184-c846-4dbc-b489-55ce5a133be6","system_id":"levelo_inurba_marseille","lat":43.29961,"lon":5.38505,"is_reserved":false,"is_disabled":false,"rental_uris":{"android":"levelo://app?vid=fb95f184-c846-4dbc-b489-55ce5a133be6","ios":"levelo://app?vid=fb95f184-c846-4dbc-b489-55ce5a133be6"},"vehicle_type_id":"4","last_reported":1773422747,"current_range_meters":12800,"station_id":"ce4bgj92rcd13ifvqbd0","pricing_plan_id":"cebpf4jnsgd1na2vs0mg"},{"bike_id":"840e62cb-6b01-4dfe-8d3a-ebba0ca6981a","system_id":"levelo_inurba_marseille","lat":43.2948,"lon":5.4331,"is_reserved":false,"is_disabled":false,"rental_uris":{"android":"levelo://app?vid=840e62cb-6b01-4dfe-8d3a-ebba0ca6981a","ios":"levelo://app?vid=840e62cb-6b01-4dfe-8d3a-ebba0ca6981a"},"vehicle_type_id":"4","last_reported":1773422747,"current_range_meters":34800,"station_id":"st_d3j5ugp08ojc73fj9d10","pricing_plan_id":"cebpf4jnsgd1na2vs0mg"},{"bike_id":"907a31b7-ac4d-4a30-abf7-989d72e6cc17","system_id":"levelo_inurba_marseille","lat":43.28154,"lon":5.42648,"is_reserved":false,"is_disabled":false,"rental_uris":{"android":"levelo://app?vid=907a31b7-ac4d-4a30-abf7-989d72e6cc17","ios":"levelo://app?vid=907a31b7-ac4d-4a30-abf7-989d72e6cc17"},"vehicle_type_id":"4","last_reported":1773422747,"current_range_meters":39200,"station_id":"ce4bhnh2rcd13ifvqgug","pricing_plan_id":"cebpf4jnsgd1na2vs0mg"},{"bike_id":"a4d37963-28c6-49df-b2a9-18810e97ca1a","system_id":"levelo_inurba_marseille","lat":43.28411,"lon":5.34981,"is_reserved":false,"is_disabled":false,"rental_uris":{"android":"levelo://app?vid=a4d37963-28c6-49df-b2a9-18810e97ca1a","ios":"levelo://app?vid=a4d37963-28c6-49df-b2a9-18810e97ca1a"},"vehicle_type_id":"4","last_reported":1773422747,"current_range_meters":17200,"station_id":"ce4bhbh2rcd13ifvqepg","pricing_plan_id":"cebpf4jnsgd1na2vs0mg"},{"bike_id":"32a1f21a-4c3e-44f6-b0c1-1466a0b846bb","system_id":"levelo_inurba_marseille","lat":43.297613,"lon":5.427771,"is_reserved":false,"is_disabled":false,"rental_uris":{"android":"levelo://app?vid=32a1f21a-4c3e-44f6-b0c1-1466a0b846bb","ios":"levelo://app?vid=32a1f21a-4c3e-44f6-b0c1-1466a0b846bb"},"vehicle_type_id":"4","last_reported":1773422747,"current_range_meters":36400,"station_id":"st_d3md5207bmas73dh9klg","pricing_plan_id":"cebpf4jnsgd1na2vs0mg"},{"bike_id":"600e8db8-a16f-4397-9868-d74fe2a02bc6","system_id":"levelo_inurba_marseille","lat":43.25495,"lon":5.37649,"is_reserved":false,"is_disabled":false,"rental_uris":{"android":"levelo://app?vid=600e8db8-a16f-4397-9868-d74fe2a02bc6","ios":"levelo://app?vid=600e8db8-a16f-4397-9868-d74fe2a02bc6"},"vehicle_type_id":"4","last_reported":1773422747,"current_range_meters":4400,"station_id":"ce4bhh12rcd13ifvqff0","pricing_plan_id":"cebpf4jnsgd1na2vs0mg"},{"bike_id":"198dc627-4e32-4cc6-8739-3847f027f057","system_id":"levelo_inurba_marseille","lat":43.32099,"lon":5.36801,"is_reserved":false,"is_disabled":false,"rental_uris":{"android":"levelo://app?vid=198dc627-4e32-4cc6-8739-3847f027f057","ios":"levelo://app?vid=198dc627-4e32-4cc6-8739-3847f027f057"},"vehicle_type_id":"4","last_reported":1773422747,"current_range_meters":16000,"station_id":"ce4bhrh2rcd13ifvqhug","pricing_plan_id":"cebpf4jnsgd1na2vs0mg"},{"bike_id":"e21251a8-f382-45c3-b145-d2b84f7e2ed5","system_id":"levelo_inurba_marseille","lat":43.30296,"lon":5.36919,"is_reserved":false,"is_disabled":false,"rental_uris":{"android":"levelo://app?vid=e21251a8-f382-45c3-b145-d2b84f7e2ed5","ios":"levelo://app?vid=e21251a8-f382-45c3-b145-d2b84f7e2ed5"},"vehicle_type_id":"4","last_reported":1773422747,"current_range_meters":24400,"station_id":"ce4bgqh2rcd13ifvqc5g","pricing_plan_id":"cebpf4jnsgd1na2vs0mg"},{"bike_id":"20bf2495-f222-4b65-9743-fdf01dad4b72","system_id":"levelo_inurba_marseille","lat":43.296282,"lon":5.377279,"is_reserved":false,"is_disabled":false,"rental_uris":{"android":"levelo://app?vid=20bf2495-f222-4b65-9743-fdf01dad4b72","ios":"levelo://app?vid=20bf2495-f222-4b65-9743-fdf01dad4b72"},"vehicle_type_id":"4","last_reported":1773422747,"current_range_meters":32400,"station_id":"ce4bgi92rcd13ifvqb90","pricing_plan_id":"cebpf4jnsgd1na2vs0mg"},{"bike_id":"c0f959a5-ed69-48c3-9856-8de1fccfc38a","system_id":"levelo_inurba_marseille","lat":43.291953,"lon":5.393145,"is_reserved":false,"is_disabled":true,"rental_uris":{"android":"levelo://app?vid=c0f959a5-ed69-48c3-9856-8de1fccfc38a","ios":"levelo://app?vid=c0f959a5-ed69-48c3-9856-8de1fccfc38a"},