{"last_updated":1727323904,"ttl":60,"version":"2.2","data":{"bikes":[{"bike_id":"547a4f9e-9961-4337-b703-5e6c9b8943af","system_id":"levelo_inurba_marseille","lat":43.27058,"lon":5.40262,"is_reserved":false,"is_disabled":false,"rental_uris":{"android":"levelo://app?vid=547a4f9e-9961-4337-b703-5e6c9b8943af","ios":"levelo://app?vid=547a4f9e-9961-4337-b703-5e6c9b8943af"},"vehicle_type_id":"4","last_reported":1727323904,"current_range_meters":17600,"station_id":"ce4bhk92rcd13ifvqgc0","pricing_plan_id":"cebpf4jnsgd1na2vs0mg"},{"bike_id":"c36fda85-951a-4b1f-b0af-a9786a66c63e","system_id":"levelo_inurba_marseille","lat":43.31271,"lon":5.40176,"is_reserved":false,"is_disabled":false,"rental_uris":{"android":"levelo://app?vid=c36fda85-951a-4b1f-b0af-a9786a66c63e","ios":"levelo://app?vid=c36fda85-951a-4b1f-b0af-a9786a66c63e"},"vehicle_type_id":"4","last_reported":1727323904,"current_range_meters":38800,"station_id":"ce4bh092rcd13ifvqd30","pricing_plan_id":"cebpf4jnsgd1na2vs0mg"},{"bike_id":"d1bad64d-f6a6-49af-8aa2-13d87bccfeb8","system_id":"levelo_inurba_marseille","lat":43.28698,"lon":5.37384,"is_reserved":false,"is_disabled":false,"rental_uris":{"android":"levelo://app?vid=d1bad64d-f6a6-49af-8aa2-13d87bccfeb8","ios":"levelo://app?vid=d1bad64d-f6a6-49af-8aa2-13d87bccfeb8"},"vehicle_type_id":"4","last_reported":1727323904,"current_range_meters":38800,"station_id":"ce4bh3p2rcd13ifvqdq0","pricing_plan_id":"cebpf4jnsgd1na2vs0mg"},{"bike_id":"74d68aab-dcd1-4d0a-976e-418b8bad0fdd","system_id":"levelo_inurba_marseille","lat":43.23151,"lon":5.43698,"is_reserved":false,"is_disabled":false,"rental_uris":{"android":"levelo://app?vid=74d68aab-dcd1-4d0a-976e-418b8bad0fdd","ios":"levelo://app?vid=74d68aab-dcd1-4d0a-976e-418b8bad0fdd"},"vehicle_type_id":"4","last_reported":1727323904,"current_range_meters":38800,"station_id":"ce4bhmp2rcd13ifvqgog","pricing_plan_id":"cebpf4jnsgd1na2vs0mg"},{"bike_id":"ecb820a8-40c0-4a13-a24e-f7a6f8e34e15","system_id":"levelo_inurba_marseille","lat":43.28414,"lon":5.37511,"is_reserved":false,"is_disabled":false,"rental_uris":{"android":"levelo://app?vid=ecb820a8-40c0-4a13-a24e-f7a6f8e34e15","ios":"levelo://app?vid=ecb820a8-40c0-4a13-a24e-f7a6f8e34e15"},"vehicle_type_id":"4","last_reported":1727323904,"current_range_meters":35600,"station_id":"ce4bh412rcd13ifvqds0","pricing_plan_id":"cebpf4jnsgd1na2vs0mg"},{"bike_id":"00016f13-b63c-43ff-ab5f-39da0fc9f78a","system_id":"levelo_inurba_marseille","lat":43.2854,"lon":5.35773,"is_reserved":false,"is_disabled":false,"rental_uris":{"android":"levelo://app?vid=00016f13-b63c-43ff-ab5f-39da0fc9f78a","ios":"levelo://app?vid=00016f13-b63c-43ff-ab5f-39da0fc9f78a"},"vehicle_type_id":"4","last_reported":1727323904,"current_range_meters":31200,"station_id":"ce4bhah2rcd13ifvqei0","pricing_plan_id":"cebpf4jnsgd1na2vs0mg"},{"bike_id":"45c4ddba-4991-40ad-a3aa-1d2ae521c878","system_id":"levelo_inurba_marseille","lat":43.292869,"lon":5.368408,"is_reserved":false,"is_disabled":false,"rental_uris":{"android":"levelo://app?vid=45c4ddba-4991-40ad-a3aa-1d2ae521c878","ios":"levelo://app?vid=45c4ddba-4991-40ad-a3aa-1d2ae521c878"},"vehicle_type_id":"4","last_reported":1727323904,"current_range_meters":38800,"station_id":"ce4bhbp2rcd13ifvqesg","pricing_plan_id":"cebpf4jnsgd1na2vs0mg"},{"bike_id":"b23afdd4-2489-41c0-b1ad-5711f3898380","system_id":"levelo_inurba_marseille","lat":43.30952,"lon":5.39037,"is_reserved":false,"is_disabled":false,"rental_uris":{"android":"levelo://app?vid=b23afdd4-2489-41c0-b1ad-5711f3898380","ios":"levelo://app?vid=b23afdd4-2489-41c0-b1ad-5711f3898380"},"vehicle_type_id":"4","last_reported":1727323904,"current_range_meters":38800,"station_id":"ce4bgup2rcd13ifvqco0","pricing_plan_id":"cebpf4jnsgd1na2vs0mg"},{"bike_id":"82481425-aff0-4d32-a2fa-96be0c3a0540","system_id":"levelo_inurba_marseille","lat":43.28698,"lon":5.37378,"is_reserved":false,"is_disabled":false,"rental_uris":{"android":"levelo://app?vid=82481425-aff0-4d32-a2fa-96be0c3a0540","ios":"levelo://app?vid=82481425-aff0-4d32-a2fa-96be0c3a0540"},"vehicle_type_id":"4","last_reported":1727323904,"current_range_meters":38800,"station_id":"ce4bh3p2rcd13ifvqdq0","pricing_plan_id":"cebpf4jnsgd1na2vs0mg"},{"bike_id":"bd46753b-4c9a-4376-83bc-9b183a6fcfcc","system_id":"levelo_inurba_marseille","lat":43.26208,"lon":5.37923,"is_reserved":false,"is_disabled":false,"rental_uris":{"android":"levelo://app?vid=bd46753b-4c9a-4376-83bc-9b183a6fcfcc","ios":"levelo://app?vid=bd46753b-4c9a-4376-83bc-9b183a6fcfcc"},"vehicle_type_id":"4","last_reported":1727323904,"current_range_meters":38000,"station_id":"ce4bhjp2rcd13ifvqg90","pricing_plan_id":"cebpf4jnsgd1na2vs0mg"},{"bike_id":"5d48984e-baf8-4188-9a24-86b384dd2876","system_id":"levelo_inurba_marseille","lat":43.30644,"lon":5.40075,"is_reserved":false,"is_disabled":false,"rental_uris":{"android":"levelo://app?vid=5d48984e-baf8-4188-9a24-86b384dd2876","ios":"levelo://app?vid=5d48984e-baf8-4188-9a24-86b384dd2876"},"vehicle_type_id":"4","last_reported":1727323904,"current_range_meters":25200,"station_id":"ce4bh112rcd13ifvqda0","pricing_plan_id":"cebpf4jnsgd1na2vs0mg"},{"bike_id":"311c0952-3a11-42d5-9cb0-6f3ee043b4f3","system_id":"levelo_inurba_marseille","lat":43.28084,"lon":5.39654,"is_reserved":false,"is_disabled":false,"rental_uris":{"android":"levelo://app?vid=311c0952-3a11-42d5-9cb0-6f3ee043b4f3","ios":"levelo://app?vid=311c0952-3a11-42d5-9cb0-6f3ee043b4f3"},"vehicle_type_id":"4","last_reported":1727323904,"current_range_meters":21600,"station_id":"ce4bho12rcd13ifvqh2g","pricing_plan_id":"cebpf4jnsgd1na2vs0mg"},{"bike_id":"d3ce0e04-dccf-4e83-9200-edab7a080f39","system_id":"levelo_inurba_marseille","lat":43.31331,"lon":5.39696,"is_reserved":false,"is_disabled":false,"rental_uris":{"android":"levelo://app?vid=d3ce0e04-dccf-4e83-9200-edab7a080f39","ios":"levelo://app?vid=d3ce0e04-dccf-4e83-9200-edab7a080f39"},"vehicle_type_id":"4","last_reported":1727323904,"current_range_meters":16000,"station_id":"ce4bgvp2rcd13ifvqcu0","pricing_plan_id":"cebpf4jnsgd1na2vs0mg"},{"bike_id":"45eba069-19b2-45c4-a67b-478acc0442e0","system_id":"levelo_inurba_marseille","lat":43.3266,"lon":5.40992,"is_reserved":false,"is_disabled":false,"rental_uris":{"android":"levelo://app?vid=45eba069-19b2-45c4-a67b-478acc0442e0","ios":"levelo://app?vid=45eba069-19b2-45c4-a67b-478acc0442e0"},"vehicle_type_id":"4","last_reported":1727323904,"current_range_meters":38400,"station_id":"ce4bhpp2rcd13ifvqhgg","pricing_plan_id":"cebpf4jnsgd1na2vs0mg"},{"bike_id":"0caf68fe-9464-43a8-a8c7-db8a706f9ec7","system_id":"levelo_inurba_marseille","lat":43.28566,"lon":5.39498,"is_reserved":false,"is_disabled":false,"rental_uris":{"android":"levelo://app?vid=0caf68fe-9464-43a8-a8c7-db8a706f9ec7","ios":"levelo://app?vid=0caf68fe-9464-43a8-a8c7-db8a706f9ec7"},"vehicle_type_id":"4","last_reported":1727323904,"current_range_meters":19600,"station_id":"ce4bh292rcd13ifvqdg0","pricing_plan_id":"cebpf4jnsgd1na2vs0mg"},{"bike_id":"4e970e14-412f-46b5-83dd-1847cb8a1288","system_id":"levelo_inurba_marseille","lat":43.29288,"lon":5.40916,"is_reserved":false,"is_disabled":false,"rental_uris":{"android":"levelo://app?vid=4e970e14-412f-46b5-83dd-1847cb8a1288","ios":"levelo://app?vid=4e970e14-412f-46b5-83dd-1847cb8a1288"},"vehicle_type_id":"4","last_reported":1727323904,"current_range_meters":39200,"station_id":"ce4bh192rcd13ifvqdc0","pricing_plan_id":"cebpf4jnsgd1na2vs0mg"},{"bike_id":"bfc3f37c-4334-4345-8605-c9c3d65d01ef","system_id":"levelo_inurba_marseille","lat":43.31365,"lon":5.38496,"is_reserved":false,"is_disabled":false,"rental_uris":{"android":"levelo://app?vid=bfc3f37c-4334-4345-8605-c9c3d65d01ef","ios":"levelo://app?vid=bfc3f37c-4334-4345-8605-c9c3d65d01ef"},"vehicle_type_id":"4","last_reported":1727323904,"current_range_meters":16800,"station_id":"ce4bgt92rcd13ifvqcf0","pricing_plan_id":"cebpf4jnsgd1na2vs0mg"},{"bike_id":"98373285-3173-4bbe-8e57-f713c79568b2","system_id":"levelo_inurba_marseille","lat":43.31707,"lon":5.43704,"is_reserved":false,"is_disabled":false,"rental_uris":{"android":"levelo://app?vid=98373285-3173-4bbe-8e57-f713c79568b2","ios":"levelo://app?vid=98373285-3173-4bbe-8e57-f713c79568b2"},"vehicle_type_id":"4","last_reported":1727323904,"current_range_meters":38800,"station_id":"ce4bhp92rcd13ifvqhcg","pricing_plan_id":"cebpf4jnsgd1na2vs0mg"},{"bike_id":"9fa4f99d-a411-4ef4-b6c8-d9fd7e40a915","system_id":"levelo_inurba_marseille","lat":43.231925,"lon":5.355449,"is_reserved":false,"is_disabled":false,"rental_uris":{"android":"levelo://app?vid=9fa4f99d-a411-4ef4-b6c8-d9fd7e40a915","ios":"levelo://app?vid=9fa4f99d-a411-4ef4-b6c8-d9fd7e40a915"},"vehicle_type_id":"4","last_reported":1727323904,"current_range_meters":28400,"station_id":"ce4bhu92rcd13ifvqi70","pricing_plan_id":"cebpf4jnsgd1na2vs0mg"},{"bike_id":"e9d87efa-13c2-49f8-91ee-e7fa5f8feef8","system_id":"levelo_inurba_marseille","lat":43.28856,"lon":5.35841,"is_reserved":false,"is_disabled":false,"rental_uris":{"android":"levelo://app?vid=e9d87efa-13c2-49f8-91ee-e7fa5f8feef8","ios":"levelo://app?vid=e9d87efa-13c2-49f8-91ee-e7fa5f8feef8"},"vehicle_type_id":"4","last_reported":1727323904,"current_range_meters":38800,"station_id":"ce4bhb12rcd13ifvqem0","pricing_plan_id":"cebpf4jnsgd1na2vs0mg"},{"bike_id":"7f1a02ed-5f37-4b26-93fa-cea55d29555d","system_id":"levelo_inurba_marseille","lat":43.29636,"lon":5.40591,"is_reserved":false,"is_disabled":false,"rental_uris":{"android":"levelo://app?vid=7f1a02ed-5f37-4b26-93fa-cea55d29555d","ios":"levelo://app?vid=7f1a02ed-5f37-4b26-93fa-cea55d29555d"},"vehicle_type_id":"4","last_reported":1727323904,"current_range_meters":16000,"station_id":"ce4bh0h2rcd13ifvqd60","pricing_plan_id":"cebpf4jnsgd1na2vs0mg"},{"bike_id":"a9ba3092-17c4-421d-b796-dec734f23b44","system_id":"levelo_inurba_marseille","lat":43.30966,"lon":5.39043,"is_reserved":false,"is_disabled":false,"rental_uris":{"android":"levelo://app?vid=a9ba3092-17c4-421d-b796-dec734f23b44","ios":"levelo://app?vid=a9ba3092-17c4-421d-b796-dec734f23b44"},"vehicle_type_id":"4","last_reported":1727323904,"current_range_meters":38800,"station_id":"ce4bgup2rcd13ifvqco0","pricing_plan_id":"cebpf4jnsgd1na2vs0mg"},{"bike_id":"bdf247ae-bc02-4762-979a-3a1ad75c6085","system_id":"levelo_inurba_marseille","lat":43.30798,"lon":5.43522,"is_reserved":false,"is_disabled":false,"rental_uris":{"android":"levelo://app?vid=bdf247ae-bc02-4762-979a-3a1ad75c6085","ios":"levelo://app?vid=bdf247ae-bc02-4762-979a-3a1ad75c6085"},"vehicle_type_id":"4","last_reported":1727323904,"current_range_meters":6800,"station_id":"ce4bhph2rcd13ifvqheg","pricing_plan_id":"cebpf4jnsgd1na2vs0mg"},{"bike_id":"271a01c9-c794-449b-b61c-0d6394359f0b","system_id":"levelo_inurba_marseille","lat":43.257272,"lon":5.384969,"is_reserved":false,"is_disabled":false,"rental_uris":{"android":"levelo://app?vid=271a01c9-c794-449b-b61c-0d6394359f0b","ios":"levelo://app?vid=271a01c9-c794-449b-b61c-0d6394359f0b"},"vehicle_type_id":"4","last_reported":1727323904,"current_range_meters":20400,"station_id":"","pricing_plan_id":"cebpf4jnsgd1na2vs0mg"},{"bike_id":"3fa6b996-85c3-4fb6-898b-e56a0b115858","system_id":"levelo_inurba_marseille","lat":43.30889,"lon":5.39645,"is_reserved":false,"is_disabled":false,"rental_uris":{"android":"levelo://app?vid=3fa6b996-85c3-4fb6-898b-e56a0b115858","ios":"levelo://app?vid=3fa6b996-85c3-4fb6-898b-e56a0b115858"},"vehicle_type_id":"4","last_reported":1727323904,"current_range_meters":39200,"station_id":"ce4bh012rcd13ifvqcv0","pricing_plan_id":"cebpf4jnsgd1na2vs0mg"},{"bike_id":"28c8c318-b984-448a-996e-d1af833d6f4f","system_id":"levelo_inurba_marseille","lat":43.29003,"lon":5.35605,"is_reserved":false,"is_disabled":false,"rental_uris":{"android":"levelo://app?vid=28c8c318-b984-448a-996e-d1af833d6f4f","ios":"levelo://app?vid=28c8c318-b984-448a-996e-d1af833d6f4f"},"vehicle_type_id":"4","last_reported":1727323904,"current_range_meters":37600,"station_id":"ce4bhb92rcd13ifvqen0","pricing_plan_id":"cebpf4jnsgd1na2vs0mg"},{"bike_id":"ae646c1c-c445-467a-b639-897ac861350e","system_id":"levelo_inurba_marseille","lat":43.28,"lon":5.41658,"is_reserved":false,"is_disabled":false,"rental_uris":{"android":"levelo://app?vid=ae646c1c-c445-467a-b639-897ac861350e","ios":"levelo://app?vid=ae646c1c-c445-467a-b639-897ac861350e"},"vehicle_type_id":"4","last_reported":1727323904,"current_range_meters":8400,"station_id":"ce4bho12rcd13ifvqh1g","pricing_plan_id":"cebpf4jnsgd1na2vs0mg"},{"bike_id":"ac3f1624-baea-4aab-9293-dce0eb649795","system_id":"levelo_inurba_marseille","lat":43.28486,"lon":5.38552,"is_reserved":false,"is_disabled":false,"rental_uris":{"android":"levelo://app?vid=ac3f1624-baea-4aab-9293-dce0eb649795","ios":"levelo://app?vid=ac3f1624-baea-4aab-9293-dce0eb649795"},"vehicle_type_id":"4","last_reported":1727323904,"current_range_meters":39200,"station_id":"ce4bh8p2rcd13ifvqeb0","pricing_plan_id":"cebpf4jnsgd1na2vs0mg"},{"bike_id":"cf90c1c6-7296-4f21-ba68-eb1cd7295b1e","system_id":"levelo_inurba_marseille","lat":43.28084,"lon":5.39651,"is_reserved":false,"is_disabled":false,"rental_uris":{"android":"levelo://app?vid=cf90c1c6-7296-4f21-ba68-eb1cd7295b1e","ios":"levelo://app?vid=cf90c1c6-7296-4f21-ba68-eb1cd7295b1e"},"vehicle_type_id":"4","last_reported":1727323904,"current_range_meters":38800,"station_id":"ce4bho12rcd13ifvqh2g","pricing_plan_id":"cebpf4jnsgd1na2vs0mg"},{"bike_id":"4369b364-046d-4780-976d-5e200827cbc4","system_id":"levelo_inurba_marseille","lat":43.2749,"lon":5.42461,"is_reserved":false,"is_disabled":false,"rental_uris":{"android":"levelo://app?vid=4369b364-046d-4780-976d-5e200827cbc4","ios":"levelo://app?vid=4369b364-046d-4780-976d-5e200827cbc4"},"vehicle_type_id":"4","last_reported":1727323904,"current_range_meters":38800,"station_id":"ce4bhn92rcd13ifvqgrg","pricing_plan_id":"cebpf4jnsgd1na2vs0mg"},{"bike_id":"d78e8186-8a55-4825-9b66-b89602fef6e7","system_id":"levelo_inurba_marseille","lat":43.279359,"lon":5.410478,"is_reserved":false,"is_disabled":false,"rental_uris":{"android":"levelo://app?vid=d78e8186-8a55-4825-9b66-b89602fef6e7","ios":"levelo://app?vid=d78e8186-8a55-4825-9b66-b89602fef6e7"},"vehicle_type_id":"4","last_reported":1727323904,"current_range_meters":38400,"station_id":"ce4bhnp2rcd13ifvqh0g","pricing_plan_id":"cebpf4jnsgd1na2vs0mg"},{"bike_id":"e2ec03ab-eeb8-427c-9f3c-cc625a6d0d1e","system_id":"levelo_inurba_marseille","lat":43.32479,"lon":5.36558,"is_reserved":false,"is_disabled":false,"rental_uris":{"android":"levelo://app?vid=e2ec03ab-eeb8-427c-9f3c-cc625a6d0d1e","ios":"levelo://app?vid=e2ec03ab-eeb8-427c-9f3c-cc625a6d0d1e"},"vehicle_type_id":"4","last_reported":1727323904,"current_range_meters":38000,"station_id":"ce4bhs12rcd13ifvqhvg","pricing_plan_id":"cebpf4jnsgd1na2vs0mg"},{"bike_id":"8f8dacb8-6dcb-4759-a64f-b83f5109a5b9","system_id":"levelo_inurba_marseille","lat":43.3079,"lon":5.37656,"is_reserved":false,"is_disabled":false,"rental_uris":{"android":"levelo://app?vid=8f8dacb8-6dcb-4759-a64f-b83f5109a5b9","ios":"levelo://app?vid=8f8dacb8-6dcb-4759-a64f-b83f5109a5b9"},"vehicle_type_id":"4","last_reported":1727323904,"current_range_meters":36400,"station_id":"ce4bgv92rcd13ifvqcq0","pricing_plan_id":"cebpf4jnsgd1na2vs0mg"},{"bike_id":"7737b815-6daf-41f0-8354-4b28ba75917f","system_id":"levelo_inurba_marseille","lat":43.30183,"lon":5.39839,"is_reserved":false,"is_disabled":false,"rental_uris":{"android":"levelo://app?vid=7737b815-6daf-41f0-8354-4b28ba75917f","ios":"levelo://app?vid=7737b815-6daf-41f0-8354-4b28ba75917f"},"vehicle_type_id":"4","last_reported":1727323904,"current_range_meters":13600,"station_id":"ce4bgvp2rcd13ifvqct0","pricing_plan_id":"cebpf4jnsgd1na2vs0mg"},{"bike_id":"952dab7a-0a86-46bf-9253-024894e735ca","system_id":"levelo_inurba_marseille","lat":43.28413,"lon":5.37516,"is_reserved":false,"is_disabled":false,"rental_uris":{"android":"levelo://app?vid=952dab7a-0a86-46bf-9253-024894e735ca","ios":"levelo://app?vid=952dab7a-0a86-46bf-9253-024894e735ca"},"vehicle_type_id":"4","last_reported":1727323904,"current_range_meters":10000,"station_id":"ce4bh412rcd13ifvqds0","pricing_plan_id":"cebpf4jnsgd1na2vs0mg"},{"bike_id":"55a7076d-21c1-4a1b-8d06-1ae9e159c4f6","system_id":"levelo_inurba_marseille","lat":43.31275,"lon":5.40167,"is_reserved":false,"is_disabled":false,"rental_uris":{"android":"levelo://app?vid=55a7076d-21c1-4a1b-8d06-1ae9e159c4f6","ios":"levelo://app?vid=55a7076d-21c1-4a1b-8d06-1ae9e159c4f6"},"vehicle_type_id":"4","last_reported":1727323904,"current_range_meters":39200,"station_id":"ce4bh092rcd13ifvqd30","pricing_plan_id":"cebpf4jnsgd1na2vs0mg"},{"bike_id":"94e45e5a-d28c-42ea-9029-5136eff6af27","system_id":"levelo_inurba_marseille","lat":43.317564,"lon":5.390196,"is_reserved":false,"is_disabled":false,"rental_uris":{"android":"levelo://app?vid=94e45e5a-d28c-42ea-9029-5136eff6af27","ios":"levelo://app?vid=94e45e5a-d28c-42ea-9029-5136eff6af27"},"vehicle_type_id":"4","last_reported":1727323904,"current_range_meters":32400,"station_id":"ce4bhqp2rcd13ifvqhng","pricing_plan_id":"cebpf4jnsgd1na2vs0mg"},{"bike_id":"31946d34-60b7-463e-826f-2dcb5c711da4","system_id":"levelo_inurba_marseille","lat":43.28561,"lon":5.39501,"is_reserved":false,"is_disabled":false,"rental_uris":{"android":"levelo://app?vid=31946d34-60b7-463e-826f-2dcb5c711da4","ios":"levelo://app?vid=31946d34-60b7-463e-826f-2dcb5c711da4"},"vehicle_type_id":"4","last_reported":1727323904,"current_range_meters":20400,"station_id":"ce4bh292rcd13ifvqdg0","pricing_plan_id":"cebpf4jnsgd1na2vs0mg"},{"bike_id":"3109b08e-97cb-47e0-ba01-1d18ed43f231","system_id":"levelo_inurba_marseille","lat":43.26032,"lon":5.37551,"is_reserved":false,"is_disabled":false,"rental_uris":{"android":"levelo://app?vid=3109b08e-97cb-47e0-ba01-1d18ed43f231","ios":"levelo://app?vid=3109b08e-97cb-47e0-ba01-1d18ed43f231"},"vehicle_type_id":"4","last_reported":1727323904,"current_range_meters":40000,"station_id":"ce4bhgh2rcd13ifvqfa0","pricing_plan_id":"cebpf4jnsgd1na2vs0mg"},{"bike_id":"a6ceaa53-b040-4bed-a5a4-04e99e38d93e","system_id":"levelo_inurba_marseille","lat":43.25718,"lon":5.41117,"is_reserved":false,"is_disabled":false,"rental_uris":{"android":"levelo://app?vid=a6ceaa53-b040-4bed-a5a4-04e99e38d93e","ios":"levelo://app?vid=a6ceaa53-b040-4bed-a5a4-04e99e38d93e"},"vehicle_type_id":"4","last_reported":1727323904,"current_range_meters":12000,"station_id":"ce4bhkp2rcd13ifvqgd0","pricing_plan_id":"cebpf4jnsgd1na2vs0mg"},{"bike_id":"50c5315e-fcc7-49c6-9aca-599d410c7ddd","system_id":"levelo_inurba_marseille","lat":43.28104,"lon":5.37834,"is_reserved":false,"is_disabled":false,"rental_uris":{"android":"levelo://app?vid=50c5315e-fcc7-49c6-9aca-599d410c7ddd","ios":"levelo://app?vid=50c5315e-fcc7-49c6-9aca-599d410c7ddd"},"vehicle_type_id":"4","last_reported":1727323904,"current_range_meters":36800,"station_id":"ce4bha12rcd13ifvqee0","pricing_plan_id":"cebpf4jnsgd1na2vs0mg"},{"bike_id":"982703ca-3146-40ee-9452-8a7ba3357c2c","system_id":"levelo_inurba_marseille","lat":43.31371,"lon":5.38491,"is_reserved":false,"is_disabled":false,"rental_uris":{"android":"levelo://app?vid=982703ca-3146-40ee-9452-8a7ba3357c2c","ios":"levelo://app?vid=982703ca-3146-40ee-9452-8a7ba3357c2c"},"vehicle_type_id":"4","last_reported":1727323904,"current_range_meters":32000,"station_id":"ce4bgt92rcd13ifvqcf0","pricing_plan_id":"cebpf4jnsgd1na2vs0mg"},{"bike_id":"67ea5e6a-7b71-4b5f-a92b-e6708a512df0","system_id":"levelo_inurba_marseille","lat":43.33026,"lon":5.39046,"is_reserved":false,"is_disabled":false,"rental_uris":{"android":"levelo://app?vid=67ea5e6a-7b71-4b5f-a92b-e6708a512df0","ios":"levelo://app?vid=67ea5e6a-7b71-4b5f-a92b-e6708a512df0"},"vehicle_type_id":"4","last_reported":1727323904,"current_range_meters":32000,"station_id":"ce4bhr92rcd13ifvqhrg","pricing_plan_id":"cebpf4jnsgd1na2vs0mg"},{"bike_id":"dab37bf3-4a86-4251-b6a1-c4d272e4ea4d","system_id":"levelo_inurba_marseille","lat":43.33606,"lon":5.41028,"is_reserved":false,"is_disabled":false,"rental_uris":{"android":"levelo://app?vid=dab37bf3-4a86-4251-b6a1-c4d272e4ea4d","ios":"levelo://app?vid=dab37bf3-4a86-4251-b6a1-c4d272e4ea4d"},"vehicle_type_id":"4","last_reported":1727323904,"current_range_meters":38800,"station_id":"ce4bhqh2rcd13ifvqhmg","pricing_plan_id":"cebpf4jnsgd1na2vs0mg"},{"bike_id":"ede609f3-73c9-48c0-9297-561a9b09ac98","system_id":"levelo_inurba_marseille","lat":43.30657,"lon":5.4009,"is_reserved":false,"is_disabled":false,"rental_uris":{"android":"levelo://app?vid=ede609f3-73c9-48c0-9297-561a9b09ac98","ios":"levelo://app?vid=ede609f3-73c9-48c0-9297-561a9b09ac98"},"vehicle_type_id":"4","last_reported":1727323904,"current_range_meters":38800,"station_id":"ce4bh112rcd13ifvqda0","pricing_plan_id":"cebpf4jnsgd1na2vs0mg"},{"bike_id":"b3408936-130d-4b8f-8c15-4043d758b202","system_id":"levelo_inurba_marseille","lat":43.30639,"lon":5.4008,"is_reserved":false,"is_disabled":false,"rental_uris":{"android":"levelo://app?vid=b3408936-130d-4b8f-8c15-4043d758b202","ios":"levelo://app?vid=b3408936-130d-4b8f-8c15-4043d758b202"},"vehicle_type_id":"4","last_reported":1727323904,"current_range_meters":38800,"station_id":"ce4bh112rcd13ifvqda0","pricing_plan_id":"cebpf4jnsgd1na2vs0mg"},{"bike_id":"73080e67-26a7-4363-adda-dc2bcb8ae03f","system_id":"levelo_inurba_marseille","lat":43.27964,"lon":5.38714,"is_reserved":false,"is_disabled":false,"rental_uris":{"android":"levelo://app?vid=73080e67-26a7-4363-adda-dc2bcb8ae03f","ios":"levelo://app?vid=73080e67-26a7-4363-adda-dc2bcb8ae03f"},"vehicle_type_id":"4","last_reported":1727323904,"current_range_meters":39200,"station_id":"ce4bhg12rcd13ifvqf80","pricing_plan_id":"cebpf4jnsgd1na2vs0mg"},{"bike_id":"1295240a-bb97-4e0f-a8bd-3f928f7c21d6","system_id":"levelo_inurba_marseille","lat":43.28566,"lon":5.39505,"is_reserved":false,"is_disabled":false,"rental_uris":{"android":"levelo://app?vid=1295240a-bb97-4e0f-a8bd-3f928f7c21d6","ios":"levelo://app?vid=1295240a-bb97-4e0f-a8bd-3f928f7c21d6"},"vehicle_type_id":"4","last_reported":1727323904,"current_range_meters":35200,"station_id":"ce4bh292rcd13ifvqdg0","pricing_plan_id":"cebpf4jnsgd1na2vs0mg"},{"bike_id":"7a8458d5-44ac-4f2e-abef-3f01eb31f7ca","system_id":"levelo_inurba_marseille","lat":43.337444,"lon":5.374475,"is_reserved":false,"is_disabled":false,"rental_uris":{"android":"levelo://app?vid=7a8458d5-44ac-4f2e-abef-3f01eb31f7ca","ios":"levelo://app?vid=7a8458d5-44ac-4f2e-abef-3f01eb31f7ca"},"vehicle_type_id":"4","last_reported":1727323904,"current_range_meters":22800,"station_id":"","pricing_plan_id":"cebpf4jnsgd1na2vs0mg"},{"bike_id":"41b9a237-ad2d-4e20-9ddd-a0e26c3d5a88","system_id":"levelo_inurba_marseille","lat":43.31178,"lon":5.38712,"is_reserved":false,"is_disabled":false,"rental_uris":{"android":"levelo://app?vid=41b9a237-ad2d-4e20-9ddd-a0e26c3d5a88","ios":"levelo://app?vid=41b9a237-ad2d-4e20-9ddd-a0e26c3d5a88"},"vehicle_type_id":"4","last_reported":1727323904,"current_range_meters":24000,"station_id":"ce4bgv12rcd13ifvqcp0","pricing_plan_id":"cebpf4jnsgd1na2vs0mg"},{"bike_id":"518e4ab3-62f5-49d0-8c11-c0007f16dd7e","system_id":"levelo_inurba_marseille","lat":43.28404,"lon":5.375286,"is_reserved":false,"is_disabled":false,"rental_uris":{"android":"levelo://app?vid=518e4ab3-62f5-49d0-8c11-c0007f16dd7e","ios":"levelo://app?vid=518e4ab3-62f5-49d0-8c11-c0007f16dd7e"},"vehicle_type_id":"4","last_reported":1727323904,"current_range_meters":19200,"station_id":"ce4bh412rcd13ifvqds0","pricing_plan_id":"cebpf4jnsgd1na2vs0mg"},{"bike_id":"bc7b20e5-a993-47f5-9a90-fd91582ae732","system_id":"levelo_inurba_marseille","lat":43.27831,"lon":5.39209,"is_reserved":false,"is_disabled":false,"rental_uris":{"android":"levelo://app?vid=bc7b20e5-a993-47f5-9a90-fd91582ae732","ios":"levelo://app?vid=bc7b20e5-a993-47f5-9a90-fd91582ae732"},"vehicle_type_id":"4","last_reported":1727323904,"current_range_meters":38800,"station_id":"ce4bhjp2rcd13ifvqga0","pricing_plan_id":"cebpf4jnsgd1na2vs0mg"},{"bike_id":"59233330-600d-4e2b-84c8-7ab9dfe26a1f","system_id":"levelo_inurba_marseille","lat":43.2465,"lon":5.38897,"is_reserved":false,"is_disabled":false,"rental_uris":{"android":"levelo://app?vid=59233330-600d-4e2b-84c8-7ab9dfe26a1f","ios":"levelo://app?vid=59233330-600d-4e2b-84c8-7ab9dfe26a1f"},"vehicle_type_id":"4","last_reported":1727323904,"current_range_meters":39200,"station_id":"ce4bhg12rcd13ifvqf60","pricing_plan_id":"cebpf4jnsgd1na2vs0mg"},{"bike_id":"117e0b61-b742-4df4-88b0-87390698a8fa","system_id":"levelo_inurba_marseille","lat":43.28465,"lon":5.35872,"is_reserved":false,"is_disabled":false,"rental_uris":{"android":"levelo://app?vid=117e0b61-b742-4df4-88b0-87390698a8fa","ios":"levelo://app?vid=117e0b61-b742-4df4-88b0-87390698a8fa"},"vehicle_type_id":"4","last_reported":1727323904,"current_range_meters":38800,"station_id":"ce4bhah2rcd13ifvqei0","pricing_plan_id":"cebpf4jnsgd1na2vs0mg"},{"bike_id":"13ed2806-0100-4d07-a2d5-d6e3f0fa1a81","system_id":"levelo_inurba_marseille","lat":43.31501,"lon":5.37306,"is_reserved":false,"is_disabled":false,"rental_uris":{"android":"levelo://app?vid=13ed2806-0100-4d07-a2d5-d6e3f0fa1a81","ios":"levelo://app?vid=13ed2806-0100-4d07-a2d5-d6e3f0fa1a81"},"vehicle_type_id":"4","last_reported":1727323904,"current_range_meters":29600,"station_id":"ce4bgt12rcd13ifvqcd0","pricing_plan_id":"cebpf4jnsgd1na2vs0mg"},{"bike_id":"7e88f0d3-56a1-427f-83c7-1a73ca8b9647","system_id":"levelo_inurba_marseille","lat":43.31271,"lon":5.40164,"is_reserved":false,"is_disabled":false,"rental_uris":{"android":"levelo://app?vid=7e88f0d3-56a1-427f-83c7-1a73ca8b9647","ios":"levelo://app?vid=7e88f0d3-56a1-427f-83c7-1a73ca8b9647"},"vehicle_type_id":"4","last_reported":1727323904,"current_range_meters":39200,"station_id":"ce4bh092rcd13ifvqd30","pricing_plan_id":"cebpf4jnsgd1na2vs0mg"},{"bike_id":"ed9d69a6-a921-4251-b073-fdfe53c8cdc2","system_id":"levelo_inurba_marseille","lat":43.24078,"lon":5.37755,"is_reserved":false,"is_disabled":false,"rental_uris":{"android":"levelo://app?vid=ed9d69a6-a921-4251-b073-fdfe53c8cdc2","ios":"levelo://app?vid=ed9d69a6-a921-4251-b073-fdfe53c8cdc2"},"vehicle_type_id":"4","last_reported":1727323904,"current_range_meters":37600,"station_id":"ce4bhnp2rcd13ifvqgvg","pricing_plan_id":"cebpf4jnsgd1na2vs0mg"},{"bike_id":"64923289-9af6-43c3-b827-82741e0af2f5","system_id":"levelo_inurba_marseille","lat":43.28466,"lon":5.35879,"is_reserved":false,"is_disabled":false,"rental_uris":{"android":"levelo://app?vid=64923289-9af6-43c3-b827-82741e0af2f5","ios":"levelo://app?vid=64923289-9af6-43c3-b827-82741e0af2f5"},"vehicle_type_id":"4","last_reported":1727323904,"current_range_meters":38800,"station_id":"ce4bhah2rcd13ifvqei0","pricing_plan_id":"cebpf4jnsgd1na2vs0mg"},{"bike_id":"87eecdcc-d94f-4a18-a818-f5320cd125bb","system_id":"levelo_inurba_marseille","lat":43.2857,"lon":5.39503,"is_reserved":false,"is_disabled":false,"rental_uris":{"android":"levelo://app?vid=87eecdcc-d94f-4a18-a818-f5320cd125bb","ios":"levelo://app?vid=87eecdcc-d94f-4a18-a818-f5320cd125bb"},"vehicle_type_id":"4","last_reported":1727323904,"current_range_meters":38000,"station_id":"ce4bh292rcd13ifvqdg0","pricing_plan_id":"cebpf4jnsgd1na2vs0mg"},{"bike_id":"3df40888-4902-4f5f-96bc-19d17c07ba0e","system_id":"levelo_inurba_marseille","lat":43.23183,"lon":5.3999,"is_reserved":false,"is_disabled":false,"rental_uris":{"android":"levelo://app?vid=3df40888-4902-4f5f-96bc-19d17c07ba0e","ios":"levelo://app?vid=3df40888-4902-4f5f-96bc-19d17c07ba0e"},"vehicle_type_id":"4","last_reported":1727323904,"current_range_meters":10800,"station_id":"ce4bhn12rcd13ifvqgqg","pricing_plan_id":"cebpf4jnsgd1na2vs0mg"},{"bike_id":"b0812fda-3828-40ca-a655-6df71889b353","system_id":"levelo_inurba_marseille","lat":43.28085,"lon":5.39655,"is_reserved":false,"is_disabled":false,"rental_uris":{"android":"levelo://app?vid=b0812fda-3828-40ca-a655-6df71889b353","ios":"levelo://app?vid=b0812fda-3828-40ca-a655-6df71889b353"},"vehicle_type_id":"4","last_reported":1727323904,"current_range_meters":38800,"station_id":"ce4bho12rcd13ifvqh2g","pricing_plan_id":"cebpf4jnsgd1na2vs0mg"},{"bike_id":"587fbfad-8875-4d14-8b90-1db6e94ecef3","system_id":"levelo_inurba_marseille","lat":43.24801,"lon":5.37453,"is_reserved":false,"is_disabled":false,"rental_uris":{"android":"levelo://app?vid=587fbfad-8875-4d14-8b90-1db6e94ecef3","ios":"levelo://app?vid=587fbfad-8875-4d14-8b90-1db6e94ecef3"},"vehicle_type_id":"4","last_reported":1727323904,"current_range_meters":37600,"station_id":"ce4bhgh2rcd13ifvqfb0","pricing_plan_id":"cebpf4jnsgd1na2vs0mg"},{"bike_id":"7de5ca1e-fa2c-427e-813a-699af6c1acc2","system_id":"levelo_inurba_marseille","lat":43.31083,"lon":5.42432,"is_reserved":false,"is_disabled":false,"rental_uris":{"android":"levelo://app?vid=7de5ca1e-fa2c-427e-813a-699af6c1acc2","ios":"levelo://app?vid=7de5ca1e-fa2c-427e-813a-699af6c1acc2"},"vehicle_type_id":"4","last_reported":1727323904,"current_range_meters":28400,"station_id":"ce4bhp92rcd13ifvqhag","pricing_plan_id":"cebpf4jnsgd1na2vs0mg"},{"bike_id":"9245460e-c7a0-43cd-952a-5816cabbfeae","system_id":"levelo_inurba_marseille","lat":43.28862,"lon":5.35851,"is_reserved":false,"is_disabled":false,"rental_uris":{"android":"levelo://app?vid=9245460e-c7a0-43cd-952a-5816cabbfeae","ios":"levelo://app?vid=9245460e-c7a0-43cd-952a-5816cabbfeae"},"vehicle_type_id":"4","last_reported":1727323904,"current_range_meters":39200,"station_id":"ce4bhb12rcd13ifvqem0","pricing_plan_id":"cebpf4jnsgd1na2vs0mg"},{"bike_id":"e0321300-37ad-4bce-a17c-4bf73cb9114f","system_id":"levelo_inurba_marseille","lat":43.29895,"lon":5.43666,"is_reserved":false,"is_disabled":false,"rental_uris":{"android":"levelo://app?vid=e0321300-37ad-4bce-a17c-4bf73cb9114f","ios":"levelo://app?vid=e0321300-37ad-4bce-a17c-4bf73cb9114f"},"vehicle_type_id":"4","last_reported":1727323904,"current_range_meters":36800,"station_id":"ce4bhpp2rcd13ifvqhfg","pricing_plan_id":"cebpf4jnsgd1na2vs0mg"},{"bike_id":"638c037b-db48-4b92-8f00-9eaf2d207cc7","system_id":"levelo_inurba_marseille","lat":43.26063,"lon":5.39396,"is_reserved":false,"is_disabled":false,"rental_uris":{"android":"levelo://app?vid=638c037b-db48-4b92-8f00-9eaf2d207cc7","ios":"levelo://app?vid=638c037b-db48-4b92-8f00-9eaf2d207cc7"},"vehicle_type_id":"4","last_reported":1727323904,"current_range_meters":38000,"station_id":"ce4bhh92rcd13ifvqfj0","pricing_plan_id":"cebpf4jnsgd1na2vs0mg"},{"bike_id":"52fbdfdd-a0fb-41a5-ac85-c694294ce5a1","system_id":"levelo_inurba_marseille","lat":43.30635,"lon":5.40082,"is_reserved":false,"is_disabled":false,"rental_uris":{"android":"levelo://app?vid=52fbdfdd-a0fb-41a5-ac85-c694294ce5a1","ios":"levelo://app?vid=52fbdfdd-a0fb-41a5-ac85-c694294ce5a1"},"vehicle_type_id":"4","last_reported":1727323904,"current_range_meters":38800,"station_id":"ce4bh112rcd13ifvqda0","pricing_plan_id":"cebpf4jnsgd1na2vs0mg"},{"bike_id":"59754bbe-5615-4ae1-8c5c-2b27fdb05360","system_id":"levelo_inurba_marseille","lat":43.28032,"lon":5.36942,"is_reserved":false,"is_disabled":false,"rental_uris":{"android":"levelo://app?vid=59754bbe-5615-4ae1-8c5c-2b27fdb05360","ios":"levelo://app?vid=59754bbe-5615-4ae1-8c5c-2b27fdb05360"},"vehicle_type_id":"4","last_reported":1727323904,"current_range_meters":38000,"station_id":"ce4bha12rcd13ifvqef0","pricing_plan_id":"cebpf4jnsgd1na2vs0mg"},{"bike_id":"5eeed4ef-3686-4562-9150-15390b498d1f","system_id":"levelo_inurba_marseille","lat":43.25113,"lon":5.40321,"is_reserved":false,"is_disabled":false,"rental_uris":{"android":"levelo://app?vid=5eeed4ef-3686-4562-9150-15390b498d1f","ios":"levelo://app?vid=5eeed4ef-3686-4562-9150-15390b498d1f"},"vehicle_type_id":"4","last_reported":1727323904,"current_range_meters":38800,"station_id":"ce4bhlh2rcd13ifvqgig","pricing_plan_id":"cebpf4jnsgd1na2vs0mg"},{"bike_id":"e90d9f9e-504d-4043-b391-305fd2269503","system_id":"levelo_inurba_marseille","lat":43.31495,"lon":5.37295,"is_reserved":false,"is_disabled":false,"rental_uris":{"android":"levelo://app?vid=e90d9f9e-504d-4043-b391-305fd2269503","ios":"levelo://app?vid=e90d9f9e-504d-4043-b391-305fd2269503"},"vehicle_type_id":"4","last_reported":1727323904,"current_range_meters":10000,"station_id":"ce4bgt12rcd13ifvqcd0","pricing_plan_id":"cebpf4jnsgd1na2vs0mg"},{"bike_id":"018668e8-a530-4d21-ab04-2b5e2f2cf015","system_id":"levelo_inurba_marseille","lat":43.29582,"lon":5.40237,"is_reserved":false,"is_disabled":false,"rental_uris":{"android":"levelo://app?vid=018668e8-a530-4d21-ab04-2b5e2f2cf015","ios":"levelo://app?vid=018668e8-a530-4d21-ab04-2b5e2f2cf015"},"vehicle_type_id":"4","last_reported":1727323904,"current_range_meters":30800,"station_id":"","pricing_plan_id":"cebpf4jnsgd1na2vs0mg"},{"bike_id":"79a05bb1-ccec-47f0-8ebd-1f95854549f8","system_id":"levelo_inurba_marseille","lat":43.31282,"lon":5.380327,"is_reserved":false,"is_disabled":false,"rental_uris":{"android":"levelo://app?vid=79a05bb1-ccec-47f0-8ebd-1f95854549f8","ios":"levelo://app?vid=79a05bb1-ccec-47f0-8ebd-1f95854549f8"},"vehicle_type_id":"4","last_reported":1727323904,"current_range_meters":8400,"station_id":"","pricing_plan_id":"cebpf4jnsgd1na2vs0mg"},{"bike_id":"21b4c04d-9a25-4091-985b-adaead17ba0f","system_id":"levelo_inurba_marseille","lat":43.30249,"lon":5.40072,"is_reserved":false,"is_disabled":false,"rental_uris":{"android":"levelo://app?vid=21b4c04d-9a25-4091-985b-adaead17ba0f","ios":"levelo://app?vid=21b4c04d-9a25-4091-985b-adaead17ba0f"},"vehicle_type_id":"4","last_reported":1727323904,"current_range_meters":37600,"station_id":"ce4bgvh2rcd13ifvqcs0","pricing_plan_id":"cebpf4jnsgd1na2vs0mg"},{"bike_id":"adea0849-5f01-4316-874e-1e0cd7e7c3ef","system_id":"levelo_inurba_marseille","lat":43.25506,"lon":5.37647,"is_reserved":false,"is_disabled":false,"rental_uris":{"android":"levelo://app?vid=adea0849-5f01-4316-874e-1e0cd7e7c3ef","ios":"levelo://app?vid=adea0849-5f01-4316-874e-1e0cd7e7c3ef"},"vehicle_type_id":"4","last_reported":1727323904,"current_range_meters":25600,"station_id":"ce4bhh12rcd13ifvqff0","pricing_plan_id":"cebpf4jnsgd1na2vs0mg"},{"bike_id":"4087045f-7fda-4a35-aaf1-4d40a483cdcf","system_id":"levelo_inurba_marseille","lat":43.301307,"lon":5.398742,"is_reserved":false,"is_disabled":false,"rental_uris":{"android":"levelo://app?vid=4087045f-7fda-4a35-aaf1-4d40a483cdcf","ios":"levelo://app?vid=4087045f-7fda-4a35-aaf1-4d40a483cdcf"},"vehicle_type_id":"4","last_reported":1727323904,"current_range_meters":38400,"station_id":"ce4bh0h2rcd13ifvqd40","pricing_plan_id":"cebpf4jnsgd1na2vs0mg"},{"bike_id":"79bcd95b-c98a-4a88-8c23-cb2457601db8","system_id":"levelo_inurba_marseille","lat":43.30962,"lon":5.39028,"is_reserved":false,"is_disabled":false,"rental_uris":{"android":"levelo://app?vid=79bcd95b-c98a-4a88-8c23-cb2457601db8","ios":"levelo://app?vid=79bcd95b-c98a-4a88-8c23-cb2457601db8"},"vehicle_type_id":"4","last_reported":1727323904,"current_range_meters":38000,"station_id":"ce4bgup2rcd13ifvqco0","pricing_plan_id":"cebpf4jnsgd1na2vs0mg"},{"bike_id":"df1bb53e-c106-4893-ad76-6a4c9dfa43a7","system_id":"levelo_inurba_marseille","lat":43.30159,"lon":5.38089,"is_reserved":false,"is_disabled":false,"rental_uris":{"android":"levelo://app?vid=df1bb53e-c106-4893-ad76-6a4c9dfa43a7","ios":"levelo://app?vid=df1bb53e-c106-4893-ad76-6a4c9dfa43a7"},"vehicle_type_id":"4","last_reported":1727323904,"current_range_meters":16000,"station_id":"ce4bgjp2rcd13ifvqbh0","pricing_plan_id":"cebpf4jnsgd1na2vs0mg"},{"bike_id":"a8eadbe1-6a2c-41d8-86f1-c9cea0d384b7","system_id":"levelo_inurba_marseille","lat":43.29259,"lon":5.40901,"is_reserved":false,"is_disabled":false,"rental_uris":{"android":"levelo://app?vid=a8eadbe1-6a2c-41d8-86f1-c9cea0d384b7","ios":"levelo://app?vid=a8eadbe1-6a2c-41d8-86f1-c9cea0d384b7"},"vehicle_type_id":"4","last_reported":1727323904,"current_range_meters":38800,"station_id":"ce4bh192rcd13ifvqdc0","pricing_plan_id":"cebpf4jnsgd1na2vs0mg"},{"bike_id":"d312ddd4-1b08-4dff-b093-776f1f63c34e","system_id":"levelo_inurba_marseille","lat":43.23184,"lon":5.3999,"is_reserved":false,"is_disabled":false,"rental_uris":{"android":"levelo://app?vid=d312ddd4-1b08-4dff-b093-776f1f63c34e","ios":"levelo://app?vid=d312ddd4-1b08-4dff-b093-776f1f63c34e"},"vehicle_type_id":"4","last_reported":1727323904,"current_range_meters":20400,"station_id":"ce4bhn12rcd13ifvqgqg","pricing_plan_id":"cebpf4jnsgd1na2vs0mg"},{"bike_id":"e2439c25-39ef-4ab9-9943-1cd0b7edb5dd","system_id":"levelo_inurba_marseille","lat":43.30542,"lon":5.36695,"is_reserved":false,"is_disabled":false,"rental_uris":{"android":"levelo://app?vid=e2439c25-39ef-4ab9-9943-1cd0b7edb5dd","ios":"levelo://app?vid=e2439c25-39ef-4ab9-9943-1cd0b7edb5dd"},"vehicle_type_id":"4","last_reported":1727323904,"current_range_meters":38800,"station_id":"ce4bgrp2rcd13ifvqc9g","pricing_plan_id":"cebpf4jnsgd1na2vs0mg"},{"bike_id":"8495f46c-5e36-48ec-8428-111b147aa47a","system_id":"levelo_inurba_marseille","lat":43.2841,"lon":5.37512,"is_reserved":false,"is_disabled":false,"rental_uris":{"android":"levelo://app?vid=8495f46c-5e36-48ec-8428-111b147aa47a","ios":"levelo://app?vid=8495f46c-5e36-48ec-8428-111b147aa47a"},"vehicle_type_id":"4","last_reported":1727323904,"current_range_meters":7200,"station_id":"ce4bh412rcd13ifvqds0","pricing_plan_id":"cebpf4jnsgd1na2vs0mg"},{"bike_id":"1759d5b7-6786-44db-8c79-c4b09fc6ec40","system_id":"levelo_inurba_marseille","lat":43.30935,"lon":5.40146,"is_reserved":false,"is_disabled":false,"rental_uris":{"android":"levelo://app?vid=1759d5b7-6786-44db-8c79-c4b09fc6ec40","ios":"levelo://app?vid=1759d5b7-6786-44db-8c79-c4b09fc6ec40"},"vehicle_type_id":"4","last_reported":1727323904,"current_range_meters":12800,"station_id":"ce4bgvp2rcd13ifvqct0","pricing_plan_id":"cebpf4jnsgd1na2vs0mg"},{"bike_id":"3c6ac0ef-b181-42f0-94b5-ae2c28993ce5","system_id":"levelo_inurba_marseille","lat":43.26563,"lon":5.39006,"is_reserved":false,"is_disabled":false,"rental_uris":{"android":"levelo://app?vid=3c6ac0ef-b181-42f0-94b5-ae2c28993ce5","ios":"levelo://app?vid=3c6ac0ef-b181-42f0-94b5-ae2c28993ce5"},"vehicle_type_id":"4","last_reported":1727323904,"current_range_meters":31200,"station_id":"ce4bhe12rcd13ifvqf30","pricing_plan_id":"cebpf4jnsgd1na2vs0mg"},{"bike_id":"610a1f5d-0ad5-4876-824e-24ee8b3af756","system_id":"levelo_inurba_marseille","lat":43.23961,"lon":5.36647,"is_reserved":false,"is_disabled":false,"rental_uris":{"android":"levelo://app?vid=610a1f5d-0ad5-4876-824e-24ee8b3af756","ios":"levelo://app?vid=610a1f5d-0ad5-4876-824e-24ee8b3af756"},"vehicle_type_id":"4","last_reported":1727323904,"current_range_meters":37600,"station_id":"ce4bhi12rcd13ifvqfp0","pricing_plan_id":"cebpf4jnsgd1na2vs0mg"},{"bike_id":"8f5130c0-b468-42e5-9eaa-eba14b292a2c","system_id":"levelo_inurba_marseille","lat":43.302494,"lon":5.400588,"is_reserved":false,"is_disabled":false,"rental_uris":{"android":"levelo://app?vid=8f5130c0-b468-42e5-9eaa-eba14b292a2c","ios":"levelo://app?vid=8f5130c0-b468-42e5-9eaa-eba14b292a2c"},"vehicle_type_id":"4","last_reported":1727323904,"current_range_meters":38800,"station_id":"ce4bgvh2rcd13ifvqcs0","pricing_plan_id":"cebpf4jnsgd1na2vs0mg"},{"bike_id":"7bd1bd50-27c6-4444-90af-da47b424e887","system_id":"levelo_inurba_marseille","lat":43.31357,"lon":5.38489,"is_reserved":false,"is_disabled":false,"rental_uris":{"android":"levelo://app?vid=7bd1bd50-27c6-4444-90af-da47b424e887","ios":"levelo://app?vid=7bd1bd50-27c6-4444-90af-da47b424e887"},"vehicle_type_id":"4","last_reported":1727323904,"current_range_meters":22000,"station_id":"ce4bgt92rcd13ifvqcf0","pricing_plan_id":"cebpf4jnsgd1na2vs0mg"},{"bike_id":"c911365b-5031-452c-8625-e51e7e1486a3","system_id":"levelo_inurba_marseille","lat":43.27206,"lon":5.39035,"is_reserved":false,"is_disabled":false,"rental_uris":{"android":"levelo://app?vid=c911365b-5031-452c-8625-e51e7e1486a3","ios":"levelo://app?vid=c911365b-5031-452c-8625-e51e7e1486a3"},"vehicle_type_id":"4","last_reported":1727323904,"current_range_meters":34000,"station_id":"","pricing_plan_id":"cebpf4jnsgd1na2vs0mg"},{"bike_id":"ccdf2e4a-ab19-45c2-a765-42e1119859e3","system_id":"levelo_inurba_marseille","lat":43.28702,"lon":5.39977,"is_reserved":false,"is_disabled":false,"rental_uris":{"android":"levelo://app?vid=ccdf2e4a-ab19-45c2-a765-42e1119859e3","ios":"levelo://app?vid=ccdf2e4a-ab19-45c2-a765-42e1119859e3"},"vehicle_type_id":"4","last_reported":1727323904,"current_range_meters":39200,"station_id":"ce4bho92rcd13ifvqh3g","pricing_plan_id":"cebpf4jnsgd1na2vs0mg"},{"bike_id":"59275bc6-d288-4f6b-b5f6-3e196197889e","system_id":"levelo_inurba_marseille","lat":43.32002,"lon":5.38154,"is_reserved":false,"is_disabled":false,"rental_uris":{"android":"levelo://app?vid=59275bc6-d288-4f6b-b5f6-3e196197889e","ios":"levelo://app?vid=59275bc6-d288-4f6b-b5f6-3e196197889e"},"vehicle_type_id":"4","last_reported":1727323904,"current_range_meters":38400,"station_id":"ce4bhr12rcd13ifvqhpg","pricing_plan_id":"cebpf4jnsgd1na2vs0mg"},{"bike_id":"32d0d433-3bf7-46d4-aab4-82d8765802dc","system_id":"levelo_inurba_marseille","lat":43.31699,"lon":5.40456,"is_reserved":false,"is_disabled":false,"rental_uris":{"android":"levelo://app?vid=32d0d433-3bf7-46d4-aab4-82d8765802dc","ios":"levelo://app?vid=32d0d433-3bf7-46d4-aab4-82d8765802dc"},"vehicle_type_id":"4","last_reported":1727323904,"current_range_meters":4800,"station_id":"ce4bh012rcd13ifvqd00","pricing_plan_id":"cebpf4jnsgd1na2vs0mg"},{"bike_id":"c017f362-9664-45c4-b19b-7118d6bf47c1","system_id":"levelo_inurba_marseille","lat":43.28154,"lon":5.42649,"is_reserved":false,"is_disabled":false,"rental_uris":{"android":"levelo://app?vid=c017f362-9664-45c4-b19b-7118d6bf47c1","ios":"levelo://app?vid=c017f362-9664-45c4-b19b-7118d6bf47c1"},"vehicle_type_id":"4","last_reported":1727323904,"current_range_meters":28000,"station_id":"ce4bhnh2rcd13ifvqgug","pricing_plan_id":"cebpf4jnsgd1na2vs0mg"},{"bike_id":"abb1da47-bf56-425f-bddd-b875994c1112","system_id":"levelo_inurba_marseille","lat":43.31764,"lon":5.39017,"is_reserved":false,"is_disabled":false,"rental_uris":{"android":"levelo://app?vid=abb1da47-bf56-425f-bddd-b875994c1112","ios":"levelo://app?vid=abb1da47-bf56-425f-bddd-b875994c1112"},"vehicle_type_id":"4","last_reported":1727323904,"current_range_meters":35600,"station_id":"ce4bhqp2rcd13ifvqhng","pricing_plan_id":"cebpf4jnsgd1na2vs0mg"},{"bike_id":"0b0e72a6-f14b-40fe-a879-a7217f45fb5a","system_id":"levelo_inurba_marseille","lat":43.23188,"lon":5.3999,"is_reserved":false,"is_disabled":false,"rental_uris":{"android":"levelo://app?vid=0b0e72a6-f14b-40fe-a879-a7217f45fb5a","ios":"levelo://app?vid=0b0e72a6-f14b-40fe-a879-a7217f45fb5a"},"vehicle_type_id":"4","last_reported":1727323904,"current_range_meters":14000,"station_id":"ce4bhn12rcd13ifvqgqg","pricing_plan_id":"cebpf4jnsgd1na2vs0mg"},{"bike_id":"63744131-e298-4c0b-81e7-987738355832","system_id":"levelo_inurba_marseille","lat":43.27922,"lon":5.39585,"is_reserved":false,"is_disabled":false,"rental_uris":{"android":"levelo://app?vid=63744131-e298-4c0b-81e7-987738355832","ios":"levelo://app?vid=63744131-e298-4c0b-81e7-987738355832"},"vehicle_type_id":"4","last_reported":1727323904,"current_range_meters":9200,"station_id":"ce4bhf92rcd13ifvqf40","pricing_plan_id":"cebpf4jnsgd1na2vs0mg"},{"bike_id":"65063097-6998-460f-ac17-9ddd6188ee3b","system_id":"levelo_inurba_marseille","lat":43.31073,"lon":5.38341,"is_reserved":false,"is_disabled":false,"rental_uris":{"android":"levelo://app?vid=65063097-6998-460f-ac17-9ddd6188ee3b","ios":"levelo://app?vid=65063097-6998-460f-ac17-9ddd6188ee3b"},"vehicle_type_id":"4","last_reported":1727323904,"current_range_meters":36400,"station_id":"ce4bgv92rcd13ifvqcr0","pricing_plan_id":"cebpf4jnsgd1na2vs0mg"},{"bike_id":"99f8ad48-51db-4466-be29-2d7cf85a553b","system_id":"levelo_inurba_marseille","lat":43.31357,"lon":5.38493,"is_reserved":false,"is_disabled":false,"rental_uris":{"android":"levelo://app?vid=99f8ad48-51db-4466-be29-2d7cf85a553b","ios":"levelo://app?vid=99f8ad48-51db-4466-be29-2d7cf85a553b"},"vehicle_type_id":"4","last_reported":1727323904,"current_range_meters":38400,"station_id":"ce4bgt92rcd13ifvqcf0","pricing_plan_id":"cebpf4jnsgd1na2vs0mg"},{"bike_id":"01c541f6-d851-4c8e-abbf-f0520681b5b4","system_id":"levelo_inurba_marseille","lat":43.24542,"lon":5.39525,"is_reserved":false,"is_disabled":false,"rental_uris":{"android":"levelo://app?vid=01c541f6-d851-4c8e-abbf-f0520681b5b4","ios":"levelo://app?vid=01c541f6-d851-4c8e-abbf-f0520681b5b4"},"vehicle_type_id":"4","last_reported":1727323904,"current_range_meters":38800,"station_id":"ce4bhlp2rcd13ifvqgjg","pricing_plan_id":"cebpf4jnsgd1na2vs0mg"},{"bike_id":"8a86a427-cb74-423b-8c70-4dfa44248217","system_id":"levelo_inurba_marseille","lat":43.3154,"lon":5.38026,"is_reserved":false,"is_disabled":false,"rental_uris":{"android":"levelo://app?vid=8a86a427-cb74-423b-8c70-4dfa44248217","ios":"levelo://app?vid=8a86a427-cb74-423b-8c70-4dfa44248217"},"vehicle_type_id":"4","last_reported":1727323904,"current_range_meters":28400,"station_id":"ce4bhsp2rcd13ifvqi50","pricing_plan_id":"cebpf4jnsgd1na2vs0mg"},{"bike_id":"528d82ae-174f-4397-8d93-e0b3a0d124f2","system_id":"levelo_inurba_marseille","lat":43.25108,"lon":5.40326,"is_reserved":false,"is_disabled":false,"rental_uris":{"android":"levelo://app?vid=528d82ae-174f-4397-8d93-e0b3a0d124f2","ios":"levelo://app?vid=528d82ae-174f-4397-8d93-e0b3a0d124f2"},"vehicle_type_id":"4","last_reported":1727323904,"current_range_meters":38800,"station_id":"ce4bhlh2rcd13ifvqgig","pricing_plan_id":"cebpf4jnsgd1na2vs0mg"},{"bike_id":"1e8cda78-eed6-487d-8305-c47772d5f661","system_id":"levelo_inurba_marseille","lat":43.29567,"lon":5.39965,"is_reserved":false,"is_disabled":false,"rental_uris":{"android":"levelo://app?vid=1e8cda78-eed6-487d-8305-c47772d5f661","ios":"levelo://app?vid=1e8cda78-eed6-487d-8305-c47772d5f661"},"vehicle_type_id":"4","last_reported":1727323904,"current_range_meters":37600,"station_id":"ce4bh312rcd13ifvqdj0","pricing_plan_id":"cebpf4jnsgd1na2vs0mg"},{"bike_id":"0f4af939-a5d3-4019-8f99-f4920ced632e","system_id":"levelo_inurba_marseille","lat":43.31891,"lon":5.40734,"is_reserved":false,"is_disabled":false,"rental_uris":{"android":"levelo://app?vid=0f4af939-a5d3-4019-8f99-f4920ced632e","ios":"levelo://app?vid=0f4af939-a5d3-4019-8f99-f4920ced632e"},"vehicle_type_id":"4","last_reported":1727323904,"current_range_meters":22800,"station_id":"ce4bhq12rcd13ifvqhig","pricing_plan_id":"cebpf4jnsgd1na2vs0mg"},{"bike_id":"38674e62-e768-405d-9590-89d89d7b7b0f","system_id":"levelo_inurba_marseille","lat":43.26062,"lon":5.39396,"is_reserved":false,"is_disabled":false,"rental_uris":{"android":"levelo://app?vid=38674e62-e768-405d-9590-89d89d7b7b0f","ios":"levelo://app?vid=38674e62-e768-405d-9590-89d89d7b7b0f"},"vehicle_type_id":"4","last_reported":1727323904,"current_range_meters":38800,"station_id":"ce4bhh92rcd13ifvqfj0","pricing_plan_id":"cebpf4jnsgd1na2vs0mg"},{"bike_id":"6aeee1aa-489a-4cb7-9bbf-57c495c2e7ff","system_id":"levelo_inurba_marseille","lat":43.32366,"lon":5.38882,"is_reserved":false,"is_disabled":false,"rental_uris":{"android":"levelo://app?vid=6aeee1aa-489a-4cb7-9bbf-57c495c2e7ff","ios":"levelo://app?vid=6aeee1aa-489a-4cb7-9bbf-57c495c2e7ff"},"vehicle_type_id":"4","last_reported":1727323904,"current_range_meters":30400,"station_id":"ce4bhqp2rcd13ifvqhog","pricing_plan_id":"cebpf4jnsgd1na2vs0mg"},{"bike_id":"9df2bede-fbe1-4c5f-85da-3d7007b4d93f","system_id":"levelo_inurba_marseille","lat":43.30882,"lon":5.39648,"is_reserved":false,"is_disabled":false,"rental_uris":{"android":"levelo://app?vid=9df2bede-fbe1-4c5f-85da-3d7007b4d93f","ios":"levelo://app?vid=9df2bede-fbe1-4c5f-85da-3d7007b4d93f"},"vehicle_type_id":"4","last_reported":1727323904,"current_range_meters":27200,"station_id":"ce4bh012rcd13ifvqcv0","pricing_plan_id":"cebpf4jnsgd1na2vs0mg"},{"bike_id":"6ff2343d-b29d-484d-b89d-073d663c29ac","system_id":"levelo_inurba_marseille","lat":43.31365,"lon":5.38493,"is_reserved":false,"is_disabled":false,"rental_uris":{"android":"levelo://app?vid=6ff2343d-b29d-484d-b89d-073d663c29ac","ios":"levelo://app?vid=6ff2343d-b29d-484d-b89d-073d663c29ac"},"vehicle_type_id":"4","last_reported":1727323904,"current_range_meters":38000,"station_id":"ce4bgt92rcd13ifvqcf0","pricing_plan_id":"cebpf4jnsgd1na2vs0mg"},{"bike_id":"a3f7c797-2788-4cea-aa51-2735e90fcd90","system_id":"levelo_inurba_marseille","lat":43.30798,"lon":5.43525,"is_reserved":false,"is_disabled":false,"rental_uris":{"android":"levelo://app?vid=a3f7c797-2788-4cea-aa51-2735e90fcd90","ios":"levelo://app?vid=a3f7c797-2788-4cea-aa51-2735e90fcd90"},"vehicle_type_id":"4","last_reported":1727323904,"current_range_meters":37600,"station_id":"ce4bhph2rcd13ifvqheg","pricing_plan_id":"cebpf4jnsgd1na2vs0mg"},{"bike_id":"6c861357-06eb-41a0-94ef-e6abaf9dcd1e","system_id":"levelo_inurba_marseille","lat":43.28562,"lon":5.39496,"is_reserved":false,"is_disabled":false,"rental_uris":{"android":"levelo://app?vid=6c861357-06eb-41a0-94ef-e6abaf9dcd1e","ios":"levelo://app?vid=6c861357-06eb-41a0-94ef-e6abaf9dcd1e"},"vehicle_type_id":"4","last_reported":1727323904,"current_range_meters":16800,"station_id":"ce4bh292rcd13ifvqdg0","pricing_plan_id":"cebpf4jnsgd1na2vs0mg"},{"bike_id":"b8265e77-c510-430c-9b27-d54ecb0610d0","system_id":"levelo_inurba_marseille","lat":43.25081,"lon":5.39519,"is_reserved":false,"is_disabled":false,"rental_uris":{"android":"levelo://app?vid=b8265e77-c510-430c-9b27-d54ecb0610d0","ios":"levelo://app?vid=b8265e77-c510-430c-9b27-d54ecb0610d0"},"vehicle_type_id":"4","last_reported":1727323904,"current_range_meters":38400,"station_id":"ce4bhm12rcd13ifvqgkg","pricing_plan_id":"cebpf4jnsgd1na2vs0mg"},{"bike_id":"8a8ec353-903b-4dce-9df6-ab1446f28595","system_id":"levelo_inurba_marseille","lat":43.315374,"lon":5.380292,"is_reserved":false,"is_disabled":false,"rental_uris":{"android":"levelo://app?vid=8a8ec353-903b-4dce-9df6-ab1446f28595","ios":"levelo://app?vid=8a8ec353-903b-4dce-9df6-ab1446f28595"},"vehicle_type_id":"4","last_reported":1727323904,"current_range_meters":36800,"station_id":"ce4bhsp2rcd13ifvqi50","pricing_plan_id":"cebpf4jnsgd1na2vs0mg"},{"bike_id":"586a8930-7eba-42a0-89c7-a133731028c4","system_id":"levelo_inurba_marseille","lat":43.25124,"lon":5.40319,"is_reserved":false,"is_disabled":false,"rental_uris":{"android":"levelo://app?vid=586a8930-7eba-42a0-89c7-a133731028c4","ios":"levelo://app?vid=586a8930-7eba-42a0-89c7-a133731028c4"},"vehicle_type_id":"4","last_reported":1727323904,"current_range_meters":12400,"station_id":"ce4bhlh2rcd13ifvqgig","pricing_plan_id":"cebpf4jnsgd1na2vs0mg"},{"bike_id":"8b6e2ecc-7578-46e5-a8c0-54a5f7738f0d","system_id":"levelo_inurba_marseille","lat":43.24183,"lon":5.39734,"is_reserved":false,"is_disabled":false,"rental_uris":{"android":"levelo://app?vid=8b6e2ecc-7578-46e5-a8c0-54a5f7738f0d","ios":"levelo://app?vid=8b6e2ecc-7578-46e5-a8c0-54a5f7738f0d"},"vehicle_type_id":"4","last_reported":1727323904,"current_range_meters":14800,"station_id":"ce4bhn12rcd13ifvqgpg","pricing_plan_id":"cebpf4jnsgd1na2vs0mg"},{"bike_id":"9c323425-8c01-4d9c-8142-343ad9a40c34","system_id":"levelo_inurba_marseille","lat":43.30541,"lon":5.38425,"is_reserved":false,"is_disabled":false,"rental_uris":{"android":"levelo://app?vid=9c323425-8c01-4d9c-8142-343ad9a40c34","ios":"levelo://app?vid=9c323425-8c01-4d9c-8142-343ad9a40c34"},"vehicle_type_id":"4","last_reported":1727323904,"current_range_meters":38000,"station_id":"ce4bgg92rcd13ifvqb30","pricing_plan_id":"cebpf4jnsgd1na2vs0mg"},{"bike_id":"031c2443-9ee1-436c-9b5c-61dfa2758075","system_id":"levelo_inurba_marseille","lat":43.30785,"lon":5.37653,"is_reserved":false,"is_disabled":false,"rental_uris":{"android":"levelo://app?vid=031c2443-9ee1-436c-9b5c-61dfa2758075","ios":"levelo://app?vid=031c2443-9ee1-436c-9b5c-61dfa2758075"},"vehicle_type_id":"4","last_reported":1727323904,"current_range_meters":6400,"station_id":"ce4bgv92rcd13ifvqcq0","pricing_plan_id":"cebpf4jnsgd1na2vs0mg"},{"bike_id":"920b7059-efc6-4750-96fa-124c71e8a324","system_id":"levelo_inurba_marseille","lat":43.287045,"lon":5.373847,"is_reserved":false,"is_disabled":false,"rental_uris":{"android":"levelo://app?vid=920b7059-efc6-4750-96fa-124c71e8a324","ios":"levelo://app?vid=920b7059-efc6-4750-96fa-124c71e8a324"},"vehicle_type_id":"4","last_reported":1727323904,"current_range_meters":38400,"station_id":"ce4bh3p2rcd13ifvqdq0","pricing_plan_id":"cebpf4jnsgd1na2vs0mg"},{"bike_id":"19309ef8-ba58-45a5-8f62-d42eb4958490","system_id":"levelo_inurba_marseille","lat":43.30936,"lon":5.40147,"is_reserved":false,"is_disabled":false,"rental_uris":{"android":"levelo://app?vid=19309ef8-ba58-45a5-8f62-d42eb4958490","ios":"levelo://app?vid=19309ef8-ba58-45a5-8f62-d42eb4958490"},"vehicle_type_id":"4","last_reported":1727323904,"current_range_meters":39200,"station_id":"ce4bgvp2rcd13ifvqct0","pricing_plan_id":"cebpf4jnsgd1na2vs0mg"},{"bike_id":"5aac98db-5563-4b3a-8f44-e3dabc563f65","system_id":"levelo_inurba_marseille","lat":43.309276,"lon":5.401471,"is_reserved":false,"is_disabled":false,"rental_uris":{"android":"levelo://app?vid=5aac98db-5563-4b3a-8f44-e3dabc563f65","ios":"levelo://app?vid=5aac98db-5563-4b3a-8f44-e3dabc563f65"},"vehicle_type_id":"4","last_reported":1727323904,"current_range_meters":26800,"station_id":"ce4bgvp2rcd13ifvqct0","pricing_plan_id":"cebpf4jnsgd1na2vs0mg"},{"bike_id":"f15fd042-8eed-43d8-828e-ffd3cc371dfe","system_id":"levelo_inurba_marseille","lat":43.30933,"lon":5.4015,"is_reserved":false,"is_disabled":false,"rental_uris":{"android":"levelo://app?vid=f15fd042-8eed-43d8-828e-ffd3cc371dfe","ios":"levelo://app?vid=f15fd042-8eed-43d8-828e-ffd3cc371dfe"},"vehicle_type_id":"4","last_reported":1727323904,"current_range_meters":16400,"station_id":"ce4bgvp2rcd13ifvqct0","pricing_plan_id":"cebpf4jnsgd1na2vs0mg"},{"bike_id":"6954fd7e-728c-4dac-9e64-3fa4e20ee438","system_id":"levelo_inurba_marseille","lat":43.33723,"lon":5.39184,"is_reserved":false,"is_disabled":false,"rental_uris":{"android":"levelo://app?vid=6954fd7e-728c-4dac-9e64-3fa4e20ee438","ios":"levelo://app?vid=6954fd7e-728c-4dac-9e64-3fa4e20ee438"},"vehicle_type_id":"4","last_reported":1727323904,"current_range_meters":37600,"station_id":"ce4bhr92rcd13ifvqhsg","pricing_plan_id":"cebpf4jnsgd1na2vs0mg"},{"bike_id":"3b73bd9a-dacc-4a46-ab2f-b0abdca28657","system_id":"levelo_inurba_marseille","lat":43.28263,"lon":5.35067,"is_reserved":false,"is_disabled":false,"rental_uris":{"android":"levelo://app?vid=3b73bd9a-dacc-4a46-ab2f-b0abdca28657","ios":"levelo://app?vid=3b73bd9a-dacc-4a46-ab2f-b0abdca28657"},"vehicle_type_id":"4","last_reported":1727323904,"current_range_meters":34800,"station_id":"ce4bhbp2rcd13ifvqerg","pricing_plan_id":"cebpf4jnsgd1na2vs0mg"},{"bike_id":"eab5a9e2-402e-41da-921c-d31391bad40e","system_id":"levelo_inurba_marseille","lat":43.24665,"lon":5.38164,"is_reserved":false,"is_disabled":false,"rental_uris":{"android":"levelo://app?vid=eab5a9e2-402e-41da-921c-d31391bad40e","ios":"levelo://app?vid=eab5a9e2-402e-41da-921c-d31391bad40e"},"vehicle_type_id":"4","last_reported":1727323904,"current_range_meters":12400,"station_id":"ce4bhih2rcd13ifvqfr0","pricing_plan_id":"cebpf4jnsgd1na2vs0mg"},{"bike_id":"59b0b4c6-09ad-4490-b559-aefbb9e92c18","system_id":"levelo_inurba_marseille","lat":43.27953,"lon":5.38667,"is_reserved":false,"is_disabled":false,"rental_uris":{"android":"levelo://app?vid=59b0b4c6-09ad-4490-b559-aefbb9e92c18","ios":"levelo://app?vid=59b0b4c6-09ad-4490-b559-aefbb9e92c18"},"vehicle_type_id":"4","last_reported":1727323904,"current_range_meters":35200,"station_id":"ce4bhg12rcd13ifvqf80","pricing_plan_id":"cebpf4jnsgd1na2vs0mg"},{"bike_id":"c807fc21-2661-4700-a2b3-08e14219e61d","system_id":"levelo_inurba_marseille","lat":43.307826,"lon":5.376544,"is_reserved":false,"is_disabled":false,"rental_uris":{"android":"levelo://app?vid=c807fc21-2661-4700-a2b3-08e14219e61d","ios":"levelo://app?vid=c807fc21-2661-4700-a2b3-08e14219e61d"},"vehicle_type_id":"4","last_reported":1727323904,"current_range_meters":32000,"station_id":"ce4bgv92rcd13ifvqcq0","pricing_plan_id":"cebpf4jnsgd1na2vs0mg"},{"bike_id":"7bd1f9cd-8b82-486c-8e77-f4da96f27ef9","system_id":"levelo_inurba_marseille","lat":43.24674,"lon":5.38152,"is_reserved":false,"is_disabled":false,"rental_uris":{"android":"levelo://app?vid=7bd1f9cd-8b82-486c-8e77-f4da96f27ef9","ios":"levelo://app?vid=7bd1f9cd-8b82-486c-8e77-f4da96f27ef9"},"vehicle_type_id":"4","last_reported":1727323904,"current_range_meters":34000,"station_id":"ce4bhih2rcd13ifvqfr0","pricing_plan_id":"cebpf4jnsgd1na2vs0mg"},{"bike_id":"fa75c0de-c257-421a-b478-27ec1acda3f8","system_id":"levelo_inurba_marseille","lat":43.25121,"lon":5.40312,"is_reserved":false,"is_disabled":false,"rental_uris":{"android":"levelo://app?vid=fa75c0de-c257-421a-b478-27ec1acda3f8","ios":"levelo://app?vid=fa75c0de-c257-421a-b478-27ec1acda3f8"},"vehicle_type_id":"4","last_reported":1727323904,"current_range_meters":38800,"station_id":"ce4bhlh2rcd13ifvqgig","pricing_plan_id":"cebpf4jnsgd1na2vs0mg"},{"bike_id":"d0d07880-62b3-4c52-b862-412a7e5558bd","system_id":"levelo_inurba_marseille","lat":43.27996,"lon":5.41662,"is_reserved":false,"is_disabled":false,"rental_uris":{"android":"levelo://app?vid=d0d07880-62b3-4c52-b862-412a7e5558bd","ios":"levelo://app?vid=d0d07880-62b3-4c52-b862-412a7e5558bd"},"vehicle_type_id":"4","last_reported":1727323904,"current_range_meters":18800,"station_id":"ce4bho12rcd13ifvqh1g","pricing_plan_id":"cebpf4jnsgd1na2vs0mg"},{"bike_id":"cba95091-7984-4b96-9b49-853952a62f5f","system_id":"levelo_inurba_marseille","lat":43.28463,"lon":5.35885,"is_reserved":false,"is_disabled":false,"rental_uris":{"android":"levelo://app?vid=cba95091-7984-4b96-9b49-853952a62f5f","ios":"levelo://app?vid=cba95091-7984-4b96-9b49-853952a62f5f"},"vehicle_type_id":"4","last_reported":1727323904,"current_range_meters":39200,"station_id":"ce4bhah2rcd13ifvqei0","pricing_plan_id":"cebpf4jnsgd1na2vs0mg"},{"bike_id":"14609c81-bf81-47f8-a93f-9b013ca183be","system_id":"levelo_inurba_marseille","lat":43.2558,"lon":5.38233,"is_reserved":false,"is_disabled":false,"rental_uris":{"android":"levelo://app?vid=14609c81-bf81-47f8-a93f-9b013ca183be","ios":"levelo://app?vid=14609c81-bf81-47f8-a93f-9b013ca183be"},"vehicle_type_id":"4","last_reported":1727323904,"current_range_meters":8000,"station_id":"ce4bhih2rcd13ifvqfs0","pricing_plan_id":"cebpf4jnsgd1na2vs0mg"},{"bike_id":"49c77936-3aa6-4221-93d9-69da7ba4958d","system_id":"levelo_inurba_marseille","lat":43.28674,"lon":5.36357,"is_reserved":false,"is_disabled":false,"rental_uris":{"android":"levelo://app?vid=49c77936-3aa6-4221-93d9-69da7ba4958d","ios":"levelo://app?vid=49c77936-3aa6-4221-93d9-69da7ba4958d"},"vehicle_type_id":"4","last_reported":1727323904,"current_range_meters":26000,"station_id":"ce4bhah2rcd13ifvqej0","pricing_plan_id":"cebpf4jnsgd1na2vs0mg"},{"bike_id":"cf36a53a-3509-423f-8075-777dbf5a32a1","system_id":"levelo_inurba_marseille","lat":43.22934,"lon":5.35384,"is_reserved":false,"is_disabled":false,"rental_uris":{"android":"levelo://app?vid=cf36a53a-3509-423f-8075-777dbf5a32a1","ios":"levelo://app?vid=cf36a53a-3509-423f-8075-777dbf5a32a1"},"vehicle_type_id":"4","last_reported":1727323904,"current_range_meters":27200,"station_id":"cpo3532slgdg3j2ikp40","pricing_plan_id":"cebpf4jnsgd1na2vs0mg"},{"bike_id":"a75d11e4-5000-41f8-9ff2-fbd2a76366d5","system_id":"levelo_inurba_marseille","lat":43.3395,"lon":5.42078,"is_reserved":false,"is_disabled":false,"rental_uris":{"android":"levelo://app?vid=a75d11e4-5000-41f8-9ff2-fbd2a76366d5","ios":"levelo://app?vid=a75d11e4-5000-41f8-9ff2-fbd2a76366d5"},"vehicle_type_id":"4","last_reported":1727323904,"current_range_meters":16800,"station_id":"","pricing_plan_id":"cebpf4jnsgd1na2vs0mg"},{"bike_id":"1913df8f-7316-43a1-b9e7-91d021dd7e26","system_id":"levelo_inurba_marseille","lat":43.29981,"lon":5.3849,"is_reserved":false,"is_disabled":false,"rental_uris":{"android":"levelo://app?vid=1913df8f-7316-43a1-b9e7-91d021dd7e26","ios":"levelo://app?vid=1913df8f-7316-43a1-b9e7-91d021dd7e26"},"vehicle_type_id":"4","last_reported":1727323904,"current_range_meters":36000,"station_id":"ce4bgj92rcd13ifvqbd0","pricing_plan_id":"cebpf4jnsgd1na2vs0mg"},{"bike_id":"66d47382-1566-4e25-9b1b-ae5d16dc0d89","system_id":"levelo_inurba_marseille","lat":43.2897,"lon":5.37838,"is_reserved":false,"is_disabled":false,"rental_uris":{"android":"levelo://app?vid=66d47382-1566-4e25-9b1b-ae5d16dc0d89","ios":"levelo://app?vid=66d47382-1566-4e25-9b1b-ae5d16dc0d89"},"vehicle_type_id":"4","last_reported":1727323904,"current_range_meters":35600,"station_id":"ce4bh9p2rcd13ifvqed0","pricing_plan_id":"cebpf4jnsgd1na2vs0mg"},{"bike_id":"3dee0047-4e2c-490b-9230-09a4c8d3bf08","system_id":"levelo_inurba_marseille","lat":43.28464,"lon":5.35895,"is_reserved":false,"is_disabled":false,"rental_uris":{"android":"levelo://app?vid=3dee0047-4e2c-490b-9230-09a4c8d3bf08","ios":"levelo://app?vid=3dee0047-4e2c-490b-9230-09a4c8d3bf08"},"vehicle_type_id":"4","last_reported":1727323904,"current_range_meters":32000,"station_id":"ce4bhah2rcd13ifvqei0","pricing_plan_id":"cebpf4jnsgd1na2vs0mg"},{"bike_id":"f7d0c56f-72d2-4794-bf29-cd8d650ea3e4","system_id":"levelo_inurba_marseille","lat":43.27176,"lon":5.40994,"is_reserved":false,"is_disabled":false,"rental_uris":{"android":"levelo://app?vid=f7d0c56f-72d2-4794-bf29-cd8d650ea3e4","ios":"levelo://app?vid=f7d0c56f-72d2-4794-bf29-cd8d650ea3e4"},"vehicle_type_id":"4","last_reported":1727323904,"current_range_meters":28800,"station_id":"ce4bhl12rcd13ifvqgf0","pricing_plan_id":"cebpf4jnsgd1na2vs0mg"},{"bike_id":"ea49d9e8-8e06-4151-b49f-455334378a83","system_id":"levelo_inurba_marseille","lat":43.25726,"lon":5.41108,"is_reserved":false,"is_disabled":false,"rental_uris":{"android":"levelo://app?vid=ea49d9e8-8e06-4151-b49f-455334378a83","ios":"levelo://app?vid=ea49d9e8-8e06-4151-b49f-455334378a83"},"vehicle_type_id":"4","last_reported":1727323904,"current_range_meters":6000,"station_id":"ce4bhkp2rcd13ifvqgd0","pricing_plan_id":"cebpf4jnsgd1na2vs0mg"},{"bike_id":"f7540a8d-78bb-477c-bb40-ba184f50e599","system_id":"levelo_inurba_marseille","lat":43.284698,"lon":5.384104,"is_reserved":false,"is_disabled":false,"rental_uris":{"android":"levelo://app?vid=f7540a8d-78bb-477c-bb40-ba184f50e599","ios":"levelo://app?vid=f7540a8d-78bb-477c-bb40-ba184f50e599"},"vehicle_type_id":"4","last_reported":1727323904,"current_range_meters":38800,"station_id":"ce4bh512rcd13ifvqe3g","pricing_plan_id":"cebpf4jnsgd1na2vs0mg"},{"bike_id":"2f2c48a7-330b-44c3-b52f-a01c344118c9","system_id":"levelo_inurba_marseille","lat":43.32281,"lon":5.3827,"is_reserved":false,"is_disabled":false,"rental_uris":{"android":"levelo://app?vid=2f2c48a7-330b-44c3-b52f-a01c344118c9","ios":"levelo://app?vid=2f2c48a7-330b-44c3-b52f-a01c344118c9"},"vehicle_type_id":"4","last_reported":1727323904,"current_range_meters":18000,"station_id":"ce4bhr12rcd13ifvqhqg","pricing_plan_id":"cebpf4jnsgd1na2vs0mg"},{"bike_id":"858ca720-3eaf-4793-8994-cd32470e7cc9","system_id":"levelo_inurba_marseille","lat":43.28701,"lon":5.37381,"is_reserved":false,"is_disabled":false,"rental_uris":{"android":"levelo://app?vid=858ca720-3eaf-4793-8994-cd32470e7cc9","ios":"levelo://app?vid=858ca720-3eaf-4793-8994-cd32470e7cc9"},"vehicle_type_id":"4","last_reported":1727323904,"current_range_meters":36800,"station_id":"ce4bh3p2rcd13ifvqdq0","pricing_plan_id":"cebpf4jnsgd1na2vs0mg"},{"bike_id":"c377dc08-f020-40b9-ba08-9a9aa9a08213","system_id":"levelo_inurba_marseille","lat":43.23188,"lon":5.39979,"is_reserved":false,"is_disabled":false,"rental_uris":{"android":"levelo://app?vid=c377dc08-f020-40b9-ba08-9a9aa9a08213","ios":"levelo://app?vid=c377dc08-f020-40b9-ba08-9a9aa9a08213"},"vehicle_type_id":"4","last_reported":1727323904,"current_range_meters":16800,"station_id":"ce4bhn12rcd13ifvqgqg","pricing_plan_id":"cebpf4jnsgd1na2vs0mg"},{"bike_id":"362d6825-6219-416f-b86d-6c9c61d5f4f6","system_id":"levelo_inurba_marseille","lat":43.28415,"lon":5.37519,"is_reserved":false,"is_disabled":false,"rental_uris":{"android":"levelo://app?vid=362d6825-6219-416f-b86d-6c9c61d5f4f6","ios":"levelo://app?vid=362d6825-6219-416f-b86d-6c9c61d5f4f6"},"vehicle_type_id":"4","last_reported":1727323904,"current_range_meters":28800,"station_id":"ce4bh412rcd13ifvqds0","pricing_plan_id":"cebpf4jnsgd1na2vs0mg"},{"bike_id":"08a5cd66-f021-4853-bec7-3221a1186d83","system_id":"levelo_inurba_marseille","lat":43.27495,"lon":5.42459,"is_reserved":false,"is_disabled":false,"rental_uris":{"android":"levelo://app?vid=08a5cd66-f021-4853-bec7-3221a1186d83","ios":"levelo://app?vid=08a5cd66-f021-4853-bec7-3221a1186d83"},"vehicle_type_id":"4","last_reported":1727323904,"current_range_meters":24000,"station_id":"ce4bhn92rcd13ifvqgrg","pricing_plan_id":"cebpf4jnsgd1na2vs0mg"},{"bike_id":"e5bd0fa9-5f87-41bf-b1c3-9068bc1e13e2","system_id":"levelo_inurba_marseille","lat":43.32355,"lon":5.3888,"is_reserved":false,"is_disabled":false,"rental_uris":{"android":"levelo://app?vid=e5bd0fa9-5f87-41bf-b1c3-9068bc1e13e2","ios":"levelo://app?vid=e5bd0fa9-5f87-41bf-b1c3-9068bc1e13e2"},"vehicle_type_id":"4","last_reported":1727323904,"current_range_meters":18800,"station_id":"ce4bhqp2rcd13ifvqhog","pricing_plan_id":"cebpf4jnsgd1na2vs0mg"},{"bike_id":"eb1c5eed-8e4b-4c0f-bbfa-4d3c87a5429a","system_id":"levelo_inurba_marseille","lat":43.28704,"lon":5.3998,"is_reserved":false,"is_disabled":false,"rental_uris":{"android":"levelo://app?vid=eb1c5eed-8e4b-4c0f-bbfa-4d3c87a5429a","ios":"levelo://app?vid=eb1c5eed-8e4b-4c0f-bbfa-4d3c87a5429a"},"vehicle_type_id":"4","last_reported":1727323904,"current_range_meters":33200,"station_id":"ce4bho92rcd13ifvqh3g","pricing_plan_id":"cebpf4jnsgd1na2vs0mg"},{"bike_id":"7b21299c-e7c0-4e88-af11-8f1c67c4e632","system_id":"levelo_inurba_marseille","lat":43.26559,"lon":5.38997,"is_reserved":false,"is_disabled":false,"rental_uris":{"android":"levelo://app?vid=7b21299c-e7c0-4e88-af11-8f1c67c4e632","ios":"levelo://app?vid=7b21299c-e7c0-4e88-af11-8f1c67c4e632"},"vehicle_type_id":"4","last_reported":1727323904,"current_range_meters":38800,"station_id":"ce4bhe12rcd13ifvqf30","pricing_plan_id":"cebpf4jnsgd1na2vs0mg"},{"bike_id":"fde06f06-658c-4dc6-a87e-29b99cca097b","system_id":"levelo_inurba_marseille","lat":43.27191,"lon":5.4099,"is_reserved":false,"is_disabled":false,"rental_uris":{"android":"levelo://app?vid=fde06f06-658c-4dc6-a87e-29b99cca097b","ios":"levelo://app?vid=fde06f06-658c-4dc6-a87e-29b99cca097b"},"vehicle_type_id":"4","last_reported":1727323904,"current_range_meters":28400,"station_id":"ce4bhl12rcd13ifvqgf0","pricing_plan_id":"cebpf4jnsgd1na2vs0mg"},{"bike_id":"16d7ccce-0e49-414a-829d-4cc48f8810c4","system_id":"levelo_inurba_marseille","lat":43.29872,"lon":5.39733,"is_reserved":false,"is_disabled":false,"rental_uris":{"android":"levelo://app?vid=16d7ccce-0e49-414a-829d-4cc48f8810c4","ios":"levelo://app?vid=16d7ccce-0e49-414a-829d-4cc48f8810c4"},"vehicle_type_id":"4","last_reported":1727323904,"current_range_meters":11600,"station_id":"ce4bh0h2rcd13ifvqd50","pricing_plan_id":"cebpf4jnsgd1na2vs0mg"},{"bike_id":"a45e9f79-9d87-4ae1-bb1b-a1720214dd8e","system_id":"levelo_inurba_marseille","lat":43.31329,"lon":5.39699,"is_reserved":false,"is_disabled":false,"rental_uris":{"android":"levelo://app?vid=a45e9f79-9d87-4ae1-bb1b-a1720214dd8e","ios":"levelo://app?vid=a45e9f79-9d87-4ae1-bb1b-a1720214dd8e"},"vehicle_type_id":"4","last_reported":1727323904,"current_range_meters":38800,"station_id":"ce4bgvp2rcd13ifvqcu0","pricing_plan_id":"cebpf4jnsgd1na2vs0mg"},{"bike_id":"3040d770-df42-4077-8195-1c92fd624bf7","system_id":"levelo_inurba_marseille","lat":43.31327,"lon":5.39698,"is_reserved":false,"is_disabled":false,"rental_uris":{"android":"levelo://app?vid=3040d770-df42-4077-8195-1c92fd624bf7","ios":"levelo://app?vid=3040d770-df42-4077-8195-1c92fd624bf7"},"vehicle_type_id":"4","last_reported":1727323904,"current_range_meters":37600,"station_id":"ce4bgvp2rcd13ifvqcu0","pricing_plan_id":"cebpf4jnsgd1na2vs0mg"},{"bike_id":"4a7354c9-d928-4809-ac6e-ead620115dd1","system_id":"levelo_inurba_marseille","lat":43.28105,"lon":5.3784,"is_reserved":false,"is_disabled":false,"rental_uris":{"android":"levelo://app?vid=4a7354c9-d928-4809-ac6e-ead620115dd1","ios":"levelo://app?vid=4a7354c9-d928-4809-ac6e-ead620115dd1"},"vehicle_type_id":"4","last_reported":1727323904,"current_range_meters":33200,"station_id":"ce4bha12rcd13ifvqee0","pricing_plan_id":"cebpf4jnsgd1na2vs0mg"},{"bike_id":"d43c85ca-4c93-4962-8e62-f8d251e36364","system_id":"levelo_inurba_marseille","lat":43.28153,"lon":5.42638,"is_reserved":false,"is_disabled":false,"rental_uris":{"android":"levelo://app?vid=d43c85ca-4c93-4962-8e62-f8d251e36364","ios":"levelo://app?vid=d43c85ca-4c93-4962-8e62-f8d251e36364"},"vehicle_type_id":"4","last_reported":1727323904,"current_range_meters":35600,"station_id":"ce4bhnh2rcd13ifvqgug","pricing_plan_id":"cebpf4jnsgd1na2vs0mg"},{"bike_id":"579ca450-e0c2-45fa-b5c3-22c592624e30","system_id":"levelo_inurba_marseille","lat":43.33024,"lon":5.39041,"is_reserved":false,"is_disabled":false,"rental_uris":{"android":"levelo://app?vid=579ca450-e0c2-45fa-b5c3-22c592624e30","ios":"levelo://app?vid=579ca450-e0c2-45fa-b5c3-22c592624e30"},"vehicle_type_id":"4","last_reported":1727323904,"current_range_meters":9200,"station_id":"ce4bhr92rcd13ifvqhrg","pricing_plan_id":"cebpf4jnsgd1na2vs0mg"},{"bike_id":"b860d883-c194-47c2-a427-633aacf2d83d","system_id":"levelo_inurba_marseille","lat":43.33603,"lon":5.41023,"is_reserved":false,"is_disabled":false,"rental_uris":{"android":"levelo://app?vid=b860d883-c194-47c2-a427-633aacf2d83d","ios":"levelo://app?vid=b860d883-c194-47c2-a427-633aacf2d83d"},"vehicle_type_id":"4","last_reported":1727323904,"current_range_meters":24800,"station_id":"ce4bhqh2rcd13ifvqhmg","pricing_plan_id":"cebpf4jnsgd1na2vs0mg"},{"bike_id":"065d175c-6fbd-4c51-b8dc-c310edfd6f1b","system_id":"levelo_inurba_marseille","lat":43.25724,"lon":5.41112,"is_reserved":false,"is_disabled":false,"rental_uris":{"android":"levelo://app?vid=065d175c-6fbd-4c51-b8dc-c310edfd6f1b","ios":"levelo://app?vid=065d175c-6fbd-4c51-b8dc-c310edfd6f1b"},"vehicle_type_id":"4","last_reported":1727323904,"current_range_meters":30000,"station_id":"ce4bhkp2rcd13ifvqgd0","pricing_plan_id":"cebpf4jnsgd1na2vs0mg"},{"bike_id":"838b7ed9-122a-4efd-93ea-a19699642734","system_id":"levelo_inurba_marseille","lat":43.309327,"lon":5.401522,"is_reserved":false,"is_disabled":false,"rental_uris":{"android":"levelo://app?vid=838b7ed9-122a-4efd-93ea-a19699642734","ios":"levelo://app?vid=838b7ed9-122a-4efd-93ea-a19699642734"},"vehicle_type_id":"4","last_reported":1727323904,"current_range_meters":32000,"station_id":"ce4bgvp2rcd13ifvqct0","pricing_plan_id":"cebpf4jnsgd1na2vs0mg"},{"bike_id":"f2ef5102-6b9b-41a6-9e50-e7b3a0230a29","system_id":"levelo_inurba_marseille","lat":43.28463,"lon":5.35877,"is_reserved":false,"is_disabled":false,"rental_uris":{"android":"levelo://app?vid=f2ef5102-6b9b-41a6-9e50-e7b3a0230a29","ios":"levelo://app?vid=f2ef5102-6b9b-41a6-9e50-e7b3a0230a29"},"vehicle_type_id":"4","last_reported":1727323904,"current_range_meters":38800,"station_id":"ce4bhah2rcd13ifvqei0","pricing_plan_id":"cebpf4jnsgd1na2vs0mg"},{"bike_id":"646d6d59-5a43-443a-9395-b60f0d095a6d","system_id":"levelo_inurba_marseille","lat":43.2781,"lon":5.40712,"is_reserved":false,"is_disabled":false,"rental_uris":{"android":"levelo://app?vid=646d6d59-5a43-443a-9395-b60f0d095a6d","ios":"levelo://app?vid=646d6d59-5a43-443a-9395-b60f0d095a6d"},"vehicle_type_id":"4","last_reported":1727323904,"current_range_meters":38400,"station_id":"ce4bhnh2rcd13ifvqgtg","pricing_plan_id":"cebpf4jnsgd1na2vs0mg"},{"bike_id":"db9386d3-f40d-4aec-8bb6-f609e4dfb4a0","system_id":"levelo_inurba_marseille","lat":43.28366,"lon":5.38634,"is_reserved":false,"is_disabled":false,"rental_uris":{"android":"levelo://app?vid=db9386d3-f40d-4aec-8bb6-f609e4dfb4a0","ios":"levelo://app?vid=db9386d3-f40d-4aec-8bb6-f609e4dfb4a0"},"vehicle_type_id":"4","last_reported":1727323904,"current_range_meters":38800,"station_id":"ce4bh492rcd13ifvqdvg","pricing_plan_id":"cebpf4jnsgd1na2vs0mg"},{"bike_id":"a5d5340a-47af-4212-9a2d-d84b09eb0f82","system_id":"levelo_inurba_marseille","lat":43.26949,"lon":5.38641,"is_reserved":false,"is_disabled":false,"rental_uris":{"android":"levelo://app?vid=a5d5340a-47af-4212-9a2d-d84b09eb0f82","ios":"levelo://app?vid=a5d5340a-47af-4212-9a2d-d84b09eb0f82"},"vehicle_type_id":"4","last_reported":1727323904,"current_range_meters":38400,"station_id":"ce4bhh92rcd13ifvqfh0","pricing_plan_id":"cebpf4jnsgd1na2vs0mg"},{"bike_id":"c2bdf32c-f616-4cec-8d5e-330373c3c441","system_id":"levelo_inurba_marseille","lat":43.24388,"lon":5.37059,"is_reserved":false,"is_disabled":false,"rental_uris":{"android":"levelo://app?vid=c2bdf32c-f616-4cec-8d5e-330373c3c441","ios":"levelo://app?vid=c2bdf32c-f616-4cec-8d5e-330373c3c441"},"vehicle_type_id":"4","last_reported":1727323904,"current_range_meters":39200,"station_id":"ce4bhhh2rcd13ifvqfk0","pricing_plan_id":"cebpf4jnsgd1na2vs0mg"},{"bike_id":"f90c2aa4-db6e-4862-ac09-318609a8e8d3","system_id":"levelo_inurba_marseille","lat":43.23189,"lon":5.39988,"is_reserved":false,"is_disabled":false,"rental_uris":{"android":"levelo://app?vid=f90c2aa4-db6e-4862-ac09-318609a8e8d3","ios":"levelo://app?vid=f90c2aa4-db6e-4862-ac09-318609a8e8d3"},"vehicle_type_id":"4","last_reported":1727323904,"current_range_meters":26000,"station_id":"ce4bhn12rcd13ifvqgqg","pricing_plan_id":"cebpf4jnsgd1na2vs0mg"},{"bike_id":"d20b87a8-1ff0-4fbb-9a79-5be841e624b8","system_id":"levelo_inurba_marseille","lat":43.27992,"lon":5.41659,"is_reserved":false,"is_disabled":false,"rental_uris":{"android":"levelo://app?vid=d20b87a8-1ff0-4fbb-9a79-5be841e624b8","ios":"levelo://app?vid=d20b87a8-1ff0-4fbb-9a79-5be841e624b8"},"vehicle_type_id":"4","last_reported":1727323904,"current_range_meters":38800,"station_id":"ce4bho12rcd13ifvqh1g","pricing_plan_id":"cebpf4jnsgd1na2vs0mg"},{"bike_id":"8d3ecac4-8e0f-45f1-b81a-9b3dacb760a4","system_id":"levelo_inurba_marseille","lat":43.31166,"lon":5.3872,"is_reserved":false,"is_disabled":false,"rental_uris":{"android":"levelo://app?vid=8d3ecac4-8e0f-45f1-b81a-9b3dacb760a4","ios":"levelo://app?vid=8d3ecac4-8e0f-45f1-b81a-9b3dacb760a4"},"vehicle_type_id":"4","last_reported":1727323904,"current_range_meters":39200,"station_id":"ce4bgv12rcd13ifvqcp0","pricing_plan_id":"cebpf4jnsgd1na2vs0mg"},{"bike_id":"f88df8f1-82bc-4b6c-9322-36730ce22f00","system_id":"levelo_inurba_marseille","lat":43.28616,"lon":5.38489,"is_reserved":false,"is_disabled":false,"rental_uris":{"android":"levelo://app?vid=f88df8f1-82bc-4b6c-9322-36730ce22f00","ios":"levelo://app?vid=f88df8f1-82bc-4b6c-9322-36730ce22f00"},"vehicle_type_id":"4","last_reported":1727323904,"current_range_meters":34800,"station_id":"ce4bh492rcd13ifvqdvg","pricing_plan_id":"cebpf4jnsgd1na2vs0mg"},{"bike_id":"553ffebd-ccf7-4a7c-86b4-9395eafe055b","system_id":"levelo_inurba_marseille","lat":43.31328,"lon":5.39695,"is_reserved":false,"is_disabled":false,"rental_uris":{"android":"levelo://app?vid=553ffebd-ccf7-4a7c-86b4-9395eafe055b","ios":"levelo://app?vid=553ffebd-ccf7-4a7c-86b4-9395eafe055b"},"vehicle_type_id":"4","last_reported":1727323904,"current_range_meters":36800,"station_id":"ce4bgvp2rcd13ifvqcu0","pricing_plan_id":"cebpf4jnsgd1na2vs0mg"},{"bike_id":"1371df0c-93a5-4990-9c23-c5814631bbe6","system_id":"levelo_inurba_marseille","lat":43.28619,"lon":5.35097,"is_reserved":false,"is_disabled":false,"rental_uris":{"android":"levelo://app?vid=1371df0c-93a5-4990-9c23-c5814631bbe6","ios":"levelo://app?vid=1371df0c-93a5-4990-9c23-c5814631bbe6"},"vehicle_type_id":"4","last_reported":1727323904,"current_range_meters":15200,"station_id":"ce4bhch2rcd13ifvqeug","pricing_plan_id":"cebpf4jnsgd1na2vs0mg"},{"bike_id":"10d6b5be-1688-4920-b08c-ba6f9431d098","system_id":"levelo_inurba_marseille","lat":43.28434,"lon":5.39192,"is_reserved":false,"is_disabled":false,"rental_uris":{"android":"levelo://app?vid=10d6b5be-1688-4920-b08c-ba6f9431d098","ios":"levelo://app?vid=10d6b5be-1688-4920-b08c-ba6f9431d098"},"vehicle_type_id":"4","last_reported":1727323904,"current_range_meters":38800,"station_id":"ce4bhoh2rcd13ifvqh5g","pricing_plan_id":"cebpf4jnsgd1na2vs0mg"},{"bike_id":"86cc00fb-3115-49c4-8209-a596309893f4","system_id":"levelo_inurba_marseille","lat":43.28152,"lon":5.42645,"is_reserved":false,"is_disabled":false,"rental_uris":{"android":"levelo://app?vid=86cc00fb-3115-49c4-8209-a596309893f4","ios":"levelo://app?vid=86cc00fb-3115-49c4-8209-a596309893f4"},"vehicle_type_id":"4","last_reported":1727323904,"current_range_meters":38800,"station_id":"ce4bhnh2rcd13ifvqgug","pricing_plan_id":"cebpf4jnsgd1na2vs0mg"},{"bike_id":"bda4d65b-7265-4e89-b588-8b5f2a2b19d7","system_id":"levelo_inurba_marseille","lat":43.3091,"lon":5.3685,"is_reserved":false,"is_disabled":false,"rental_uris":{"android":"levelo://app?vid=bda4d65b-7265-4e89-b588-8b5f2a2b19d7","ios":"levelo://app?vid=bda4d65b-7265-4e89-b588-8b5f2a2b19d7"},"vehicle_type_id":"4","last_reported":1727323904,"current_range_meters":36400,"station_id":"ce4bgn92rcd13ifvqbvg","pricing_plan_id":"cebpf4jnsgd1na2vs0mg"},{"bike_id":"58d36185-53b9-4a35-94db-5d3aa5540953","system_id":"levelo_inurba_marseille","lat":43.25108,"lon":5.40324,"is_reserved":false,"is_disabled":false,"rental_uris":{"android":"levelo://app?vid=58d36185-53b9-4a35-94db-5d3aa5540953","ios":"levelo://app?vid=58d36185-53b9-4a35-94db-5d3aa5540953"},"vehicle_type_id":"4","last_reported":1727323904,"current_range_meters":39200,"station_id":"ce4bhlh2rcd13ifvqgig","pricing_plan_id":"cebpf4jnsgd1na2vs0mg"},{"bike_id":"2ed98b51-95b7-4b57-a44b-84e22c01b097","system_id":"levelo_inurba_marseille","lat":43.25938,"lon":5.409,"is_reserved":false,"is_disabled":false,"rental_uris":{"android":"levelo://app?vid=2ed98b51-95b7-4b57-a44b-84e22c01b097","ios":"levelo://app?vid=2ed98b51-95b7-4b57-a44b-84e22c01b097"},"vehicle_type_id":"4","last_reported":1727323904,"current_range_meters":27600,"station_id":"ce4bhm92rcd13ifvqglg","pricing_plan_id":"cebpf4jnsgd1na2vs0mg"},{"bike_id":"d4200fda-5d0d-4daf-a70a-b8a34876d692","system_id":"levelo_inurba_marseille","lat":43.24651,"lon":5.38886,"is_reserved":false,"is_disabled":false,"rental_uris":{"android":"levelo://app?vid=d4200fda-5d0d-4daf-a70a-b8a34876d692","ios":"levelo://app?vid=d4200fda-5d0d-4daf-a70a-b8a34876d692"},"vehicle_type_id":"4","last_reported":1727323904,"current_range_meters":24000,"station_id":"ce4bhg12rcd13ifvqf60","pricing_plan_id":"cebpf4jnsgd1na2vs0mg"},{"bike_id":"ef471c70-730d-48db-abc8-82231a4c8557","system_id":"levelo_inurba_marseille","lat":43.27943,"lon":5.41048,"is_reserved":false,"is_disabled":false,"rental_uris":{"android":"levelo://app?vid=ef471c70-730d-48db-abc8-82231a4c8557","ios":"levelo://app?vid=ef471c70-730d-48db-abc8-82231a4c8557"},"vehicle_type_id":"4","last_reported":1727323904,"current_range_meters":37600,"station_id":"ce4bhnp2rcd13ifvqh0g","pricing_plan_id":"cebpf4jnsgd1na2vs0mg"},{"bike_id":"2bd3d11a-7f53-463a-a618-f5f3e37ad1fd","system_id":"levelo_inurba_marseille","lat":43.30954,"lon":5.39033,"is_reserved":false,"is_disabled":false,"rental_uris":{"android":"levelo://app?vid=2bd3d11a-7f53-463a-a618-f5f3e37ad1fd","ios":"levelo://app?vid=2bd3d11a-7f53-463a-a618-f5f3e37ad1fd"},"vehicle_type_id":"4","last_reported":1727323904,"current_range_meters":38800,"station_id":"ce4bgup2rcd13ifvqco0","pricing_plan_id":"cebpf4jnsgd1na2vs0mg"},{"bike_id":"2e0e96a0-d7a0-41e1-accf-c6b3f423a77d","system_id":"levelo_inurba_marseille","lat":43.28418,"lon":5.37515,"is_reserved":false,"is_disabled":false,"rental_uris":{"android":"levelo://app?vid=2e0e96a0-d7a0-41e1-accf-c6b3f423a77d","ios":"levelo://app?vid=2e0e96a0-d7a0-41e1-accf-c6b3f423a77d"},"vehicle_type_id":"4","last_reported":1727323904,"current_range_meters":38800,"station_id":"ce4bh412rcd13ifvqds0","pricing_plan_id":"cebpf4jnsgd1na2vs0mg"},{"bike_id":"4b4e58c4-fe08-40f7-98d2-9b02b6da0dcf","system_id":"levelo_inurba_marseille","lat":43.30892,"lon":5.372,"is_reserved":false,"is_disabled":false,"rental_uris":{"android":"levelo://app?vid=4b4e58c4-fe08-40f7-98d2-9b02b6da0dcf","ios":"levelo://app?vid=4b4e58c4-fe08-40f7-98d2-9b02b6da0dcf"},"vehicle_type_id":"4","last_reported":1727323904,"current_range_meters":34800,"station_id":"ce4bguh2rcd13ifvqckg","pricing_plan_id":"cebpf4jnsgd1na2vs0mg"},{"bike_id":"6ac1cdd6-efe8-4383-862f-a43f67323707","system_id":"levelo_inurba_marseille","lat":43.27177,"lon":5.40988,"is_reserved":false,"is_disabled":false,"rental_uris":{"android":"levelo://app?vid=6ac1cdd6-efe8-4383-862f-a43f67323707","ios":"levelo://app?vid=6ac1cdd6-efe8-4383-862f-a43f67323707"},"vehicle_type_id":"4","last_reported":1727323904,"current_range_meters":30800,"station_id":"ce4bhl12rcd13ifvqgf0","pricing_plan_id":"cebpf4jnsgd1na2vs0mg"},{"bike_id":"e9a8dbaf-57f8-49f9-b8b9-f8977d9d8a8f","system_id":"levelo_inurba_marseille","lat":43.32482,"lon":5.36561,"is_reserved":false,"is_disabled":false,"rental_uris":{"android":"levelo://app?vid=e9a8dbaf-57f8-49f9-b8b9-f8977d9d8a8f","ios":"levelo://app?vid=e9a8dbaf-57f8-49f9-b8b9-f8977d9d8a8f"},"vehicle_type_id":"4","last_reported":1727323904,"current_range_meters":10800,"station_id":"ce4bhs12rcd13ifvqhvg","pricing_plan_id":"cebpf4jnsgd1na2vs0mg"},{"bike_id":"7a62c00b-740d-48b8-b6d8-0dd22da065e0","system_id":"levelo_inurba_marseille","lat":43.279204,"lon":5.395804,"is_reserved":false,"is_disabled":false,"rental_uris":{"android":"levelo://app?vid=7a62c00b-740d-48b8-b6d8-0dd22da065e0","ios":"levelo://app?vid=7a62c00b-740d-48b8-b6d8-0dd22da065e0"},"vehicle_type_id":"4","last_reported":1727323904,"current_range_meters":38400,"station_id":"ce4bhf92rcd13ifvqf40","pricing_plan_id":"cebpf4jnsgd1na2vs0mg"},{"bike_id":"d623ab27-b506-4169-838c-f433f5815396","system_id":"levelo_inurba_marseille","lat":43.25864,"lon":5.39905,"is_reserved":false,"is_disabled":false,"rental_uris":{"android":"levelo://app?vid=d623ab27-b506-4169-838c-f433f5815396","ios":"levelo://app?vid=d623ab27-b506-4169-838c-f433f5815396"},"vehicle_type_id":"4","last_reported":1727323904,"current_range_meters":18000,"station_id":"ce4bhl92rcd13ifvqghg","pricing_plan_id":"cebpf4jnsgd1na2vs0mg"},{"bike_id":"a780aadc-9a62-4786-9004-8da841f3c6dd","system_id":"levelo_inurba_marseille","lat":43.25123,"lon":5.40323,"is_reserved":false,"is_disabled":false,"rental_uris":{"android":"levelo://app?vid=a780aadc-9a62-4786-9004-8da841f3c6dd","ios":"levelo://app?vid=a780aadc-9a62-4786-9004-8da841f3c6dd"},"vehicle_type_id":"4","last_reported":1727323904,"current_range_meters":10800,"station_id":"ce4bhlh2rcd13ifvqgig","pricing_plan_id":"cebpf4jnsgd1na2vs0mg"},{"bike_id":"d14d52e5-75cc-4a1f-90ea-cce4ddff11b1","system_id":"levelo_inurba_marseille","lat":43.31178,"lon":5.38712,"is_reserved":false,"is_disabled":false,"rental_uris":{"android":"levelo://app?vid=d14d52e5-75cc-4a1f-90ea-cce4ddff11b1","ios":"levelo://app?vid=d14d52e5-75cc-4a1f-90ea-cce4ddff11b1"},"vehicle_type_id":"4","last_reported":1727323904,"current_range_meters":38800,"station_id":"ce4bgv12rcd13ifvqcp0","pricing_plan_id":"cebpf4jnsgd1na2vs0mg"},{"bike_id":"6c335da8-07df-43e1-a668-04092bf6675e","system_id":"levelo_inurba_marseille","lat":43.29259,"lon":5.40907,"is_reserved":false,"is_disabled":false,"rental_uris":{"android":"levelo://app?vid=6c335da8-07df-43e1-a668-04092bf6675e","ios":"levelo://app?vid=6c335da8-07df-43e1-a668-04092bf6675e"},"vehicle_type_id":"4","last_reported":1727323904,"current_range_meters":38000,"station_id":"ce4bh192rcd13ifvqdc0","pricing_plan_id":"cebpf4jnsgd1na2vs0mg"},{"bike_id":"b10fb30b-3e5a-4b1b-a265-336e3e5742a3","system_id":"levelo_inurba_marseille","lat":43.28094,"lon":5.37833,"is_reserved":false,"is_disabled":false,"rental_uris":{"android":"levelo://app?vid=b10fb30b-3e5a-4b1b-a265-336e3e5742a3","ios":"levelo://app?vid=b10fb30b-3e5a-4b1b-a265-336e3e5742a3"},"vehicle_type_id":"4","last_reported":1727323904,"current_range_meters":33200,"station_id":"ce4bha12rcd13ifvqee0","pricing_plan_id":"cebpf4jnsgd1na2vs0mg"},{"bike_id":"a1e9bad9-395e-4713-bfb8-a7896c4afc46","system_id":"levelo_inurba_marseille","lat":43.30929,"lon":5.40151,"is_reserved":false,"is_disabled":false,"rental_uris":{"android":"levelo://app?vid=a1e9bad9-395e-4713-bfb8-a7896c4afc46","ios":"levelo://app?vid=a1e9bad9-395e-4713-bfb8-a7896c4afc46"},"vehicle_type_id":"4","last_reported":1727323904,"current_range_meters":32800,"station_id":"ce4bgvp2rcd13ifvqct0","pricing_plan_id":"cebpf4jnsgd1na2vs0mg"},{"bike_id":"47ba0401-8be6-4c89-8eef-6bff009d65b5","system_id":"levelo_inurba_marseille","lat":43.3229,"lon":5.3826,"is_reserved":false,"is_disabled":false,"rental_uris":{"android":"levelo://app?vid=47ba0401-8be6-4c89-8eef-6bff009d65b5","ios":"levelo://app?vid=47ba0401-8be6-4c89-8eef-6bff009d65b5"},"vehicle_type_id":"4","last_reported":1727323904,"current_range_meters":12000,"station_id":"ce4bhr12rcd13ifvqhqg","pricing_plan_id":"cebpf4jnsgd1na2vs0mg"},{"bike_id":"6e835b2f-2956-4ae6-af81-2b38c35a3f6d","system_id":"levelo_inurba_marseille","lat":43.29883,"lon":5.39733,"is_reserved":false,"is_disabled":false,"rental_uris":{"android":"levelo://app?vid=6e835b2f-2956-4ae6-af81-2b38c35a3f6d","ios":"levelo://app?vid=6e835b2f-2956-4ae6-af81-2b38c35a3f6d"},"vehicle_type_id":"4","last_reported":1727323904,"current_range_meters":24800,"station_id":"ce4bh0h2rcd13ifvqd50","pricing_plan_id":"cebpf4jnsgd1na2vs0mg"},{"bike_id":"64a56750-bb84-4478-9eb0-b6ec75f8dbb6","system_id":"levelo_inurba_marseille","lat":43.2844,"lon":5.39189,"is_reserved":false,"is_disabled":false,"rental_uris":{"android":"levelo://app?vid=64a56750-bb84-4478-9eb0-b6ec75f8dbb6","ios":"levelo://app?vid=64a56750-bb84-4478-9eb0-b6ec75f8dbb6"},"vehicle_type_id":"4","last_reported":1727323904,"current_range_meters":8800,"station_id":"ce4bhoh2rcd13ifvqh5g","pricing_plan_id":"cebpf4jnsgd1na2vs0mg"},{"bike_id":"0391e3a2-fd40-4d68-a5c4-49e601d853ff","system_id":"levelo_inurba_marseille","lat":43.27911,"lon":5.38003,"is_reserved":false,"is_disabled":false,"rental_uris":{"android":"levelo://app?vid=0391e3a2-fd40-4d68-a5c4-49e601d853ff","ios":"levelo://app?vid=0391e3a2-fd40-4d68-a5c4-49e601d853ff"},"vehicle_type_id":"4","last_reported":1727323904,"current_range_meters":37600,"station_id":"ce4bhf92rcd13ifvqf50","pricing_plan_id":"cebpf4jnsgd1na2vs0mg"},{"bike_id":"8c2dde14-2247-4db6-8e8e-567f3585a06e","system_id":"levelo_inurba_marseille","lat":43.30143,"lon":5.37418,"is_reserved":false,"is_disabled":false,"rental_uris":{"android":"levelo://app?vid=8c2dde14-2247-4db6-8e8e-567f3585a06e","ios":"levelo://app?vid=8c2dde14-2247-4db6-8e8e-567f3585a06e"},"vehicle_type_id":"4","last_reported":1727323904,"current_range_meters":37600,"station_id":"ce4bgs92rcd13ifvqcc0","pricing_plan_id":"cebpf4jnsgd1na2vs0mg"},{"bike_id":"5f6c79fc-4a32-4034-b731-a210b1c8c48d","system_id":"levelo_inurba_marseille","lat":43.30523,"lon":5.36696,"is_reserved":false,"is_disabled":false,"rental_uris":{"android":"levelo://app?vid=5f6c79fc-4a32-4034-b731-a210b1c8c48d","ios":"levelo://app?vid=5f6c79fc-4a32-4034-b731-a210b1c8c48d"},"vehicle_type_id":"4","last_reported":1727323904,"current_range_meters":10800,"station_id":"ce4bgrp2rcd13ifvqc9g","pricing_plan_id":"cebpf4jnsgd1na2vs0mg"},{"bike_id":"f9cb7584-63c2-4fdf-8dc4-cedac79188e6","system_id":"levelo_inurba_marseille","lat":43.29441,"lon":5.39746,"is_reserved":false,"is_disabled":false,"rental_uris":{"android":"levelo://app?vid=f9cb7584-63c2-4fdf-8dc4-cedac79188e6","ios":"levelo://app?vid=f9cb7584-63c2-4fdf-8dc4-cedac79188e6"},"vehicle_type_id":"4","last_reported":1727323904,"current_range_meters":40000,"station_id":"ce4bh3h2rcd13ifvqdo0","pricing_plan_id":"cebpf4jnsgd1na2vs0mg"},{"bike_id":"6ded5f4c-0ba9-43f4-8d93-55648eb85b9a","system_id":"levelo_inurba_marseille","lat":43.282665,"lon":5.350701,"is_reserved":false,"is_disabled":false,"rental_uris":{"android":"levelo://app?vid=6ded5f4c-0ba9-43f4-8d93-55648eb85b9a","ios":"levelo://app?vid=6ded5f4c-0ba9-43f4-8d93-55648eb85b9a"},"vehicle_type_id":"4","last_reported":1727323904,"current_range_meters":30400,"station_id":"ce4bhbp2rcd13ifvqerg","pricing_plan_id":"cebpf4jnsgd1na2vs0mg"},{"bike_id":"c8cc1637-84af-4fc9-bf2f-00249323d1c2","system_id":"levelo_inurba_marseille","lat":43.2988,"lon":5.39735,"is_reserved":false,"is_disabled":false,"rental_uris":{"android":"levelo://app?vid=c8cc1637-84af-4fc9-bf2f-00249323d1c2","ios":"levelo://app?vid=c8cc1637-84af-4fc9-bf2f-00249323d1c2"},"vehicle_type_id":"4","last_reported":1727323904,"current_range_meters":18000,"station_id":"ce4bh0h2rcd13ifvqd50","pricing_plan_id":"cebpf4jnsgd1na2vs0mg"},{"bike_id":"9e08bfa9-5ef9-4f15-91a9-ca566f5d5e73","system_id":"levelo_inurba_marseille","lat":43.32001,"lon":5.38152,"is_reserved":false,"is_disabled":false,"rental_uris":{"android":"levelo://app?vid=9e08bfa9-5ef9-4f15-91a9-ca566f5d5e73","ios":"levelo://app?vid=9e08bfa9-5ef9-4f15-91a9-ca566f5d5e73"},"vehicle_type_id":"4","last_reported":1727323904,"current_range_meters":24000,"station_id":"ce4bhr12rcd13ifvqhpg","pricing_plan_id":"cebpf4jnsgd1na2vs0mg"},{"bike_id":"c27924ed-3e2d-4a2f-b7eb-9231d7388dc7","system_id":"levelo_inurba_marseille","lat":43.281073,"lon":5.37847,"is_reserved":false,"is_disabled":false,"rental_uris":{"android":"levelo://app?vid=c27924ed-3e2d-4a2f-b7eb-9231d7388dc7","ios":"levelo://app?vid=c27924ed-3e2d-4a2f-b7eb-9231d7388dc7"},"vehicle_type_id":"4","last_reported":1727323904,"current_range_meters":39200,"station_id":"ce4bha12rcd13ifvqee0","pricing_plan_id":"cebpf4jnsgd1na2vs0mg"},{"bike_id":"3dbd4749-a24c-43cd-9def-67297f866862","system_id":"levelo_inurba_marseille","lat":43.32364,"lon":5.38883,"is_reserved":false,"is_disabled":false,"rental_uris":{"android":"levelo://app?vid=3dbd4749-a24c-43cd-9def-67297f866862","ios":"levelo://app?vid=3dbd4749-a24c-43cd-9def-67297f866862"},"vehicle_type_id":"4","last_reported":1727323904,"current_range_meters":11600,"station_id":"ce4bhqp2rcd13ifvqhog","pricing_plan_id":"cebpf4jnsgd1na2vs0mg"},{"bike_id":"18a052cd-2557-4072-ba19-24c6149d8795","system_id":"levelo_inurba_marseille","lat":43.32485,"lon":5.36556,"is_reserved":false,"is_disabled":false,"rental_uris":{"android":"levelo://app?vid=18a052cd-2557-4072-ba19-24c6149d8795","ios":"levelo://app?vid=18a052cd-2557-4072-ba19-24c6149d8795"},"vehicle_type_id":"4","last_reported":1727323904,"current_range_meters":38800,"station_id":"ce4bhs12rcd13ifvqhvg","pricing_plan_id":"cebpf4jnsgd1na2vs0mg"},{"bike_id":"db85b503-e3f8-43d8-b4d0-f8b5cb935663","system_id":"levelo_inurba_marseille","lat":43.2862,"lon":5.35105,"is_reserved":false,"is_disabled":false,"rental_uris":{"android":"levelo://app?vid=db85b503-e3f8-43d8-b4d0-f8b5cb935663","ios":"levelo://app?vid=db85b503-e3f8-43d8-b4d0-f8b5cb935663"},"vehicle_type_id":"4","last_reported":1727323904,"current_range_meters":30400,"station_id":"ce4bhch2rcd13ifvqeug","pricing_plan_id":"cebpf4jnsgd1na2vs0mg"},{"bike_id":"b89f3c75-62ef-439a-891a-3e5717a4b61a","system_id":"levelo_inurba_marseille","lat":43.27932,"lon":5.37949,"is_reserved":false,"is_disabled":false,"rental_uris":{"android":"levelo://app?vid=b89f3c75-62ef-439a-891a-3e5717a4b61a","ios":"levelo://app?vid=b89f3c75-62ef-439a-891a-3e5717a4b61a"},"vehicle_type_id":"4","last_reported":1727323904,"current_range_meters":24800,"station_id":"","pricing_plan_id":"cebpf4jnsgd1na2vs0mg"},{"bike_id":"7823eef2-38a6-4e33-823d-6328e877baad","system_id":"levelo_inurba_marseille","lat":43.30332,"lon":5.40438,"is_reserved":false,"is_disabled":false,"rental_uris":{"android":"levelo://app?vid=7823eef2-38a6-4e33-823d-6328e877baad","ios":"levelo://app?vid=7823eef2-38a6-4e33-823d-6328e877baad"},"vehicle_type_id":"4","last_reported":1727323904,"current_range_meters":7200,"station_id":"ce4bh012rcd13ifvqd10","pricing_plan_id":"cebpf4jnsgd1na2vs0mg"},{"bike_id":"e298d003-1456-4a5e-823d-55caf6e3f2a5","system_id":"levelo_inurba_marseille","lat":43.28665,"lon":5.36345,"is_reserved":false,"is_disabled":false,"rental_uris":{"android":"levelo://app?vid=e298d003-1456-4a5e-823d-55caf6e3f2a5","ios":"levelo://app?vid=e298d003-1456-4a5e-823d-55caf6e3f2a5"},"vehicle_type_id":"4","last_reported":1727323904,"current_range_meters":39200,"station_id":"ce4bhah2rcd13ifvqej0","pricing_plan_id":"cebpf4jnsgd1na2vs0mg"},{"bike_id":"8e9ee33a-4fa3-4077-9023-846d598f80fe","system_id":"levelo_inurba_marseille","lat":43.308915,"lon":5.371967,"is_reserved":false,"is_disabled":false,"rental_uris":{"android":"levelo://app?vid=8e9ee33a-4fa3-4077-9023-846d598f80fe","ios":"levelo://app?vid=8e9ee33a-4fa3-4077-9023-846d598f80fe"},"vehicle_type_id":"4","last_reported":1727323904,"current_range_meters":39200,"station_id":"ce4bguh2rcd13ifvqckg","pricing_plan_id":"cebpf4jnsgd1na2vs0mg"},{"bike_id":"5236a0c4-05da-4b1a-a16e-c1ffa87d0d41","system_id":"levelo_inurba_marseille","lat":43.28152,"lon":5.42641,"is_reserved":false,"is_disabled":false,"rental_uris":{"android":"levelo://app?vid=5236a0c4-05da-4b1a-a16e-c1ffa87d0d41","ios":"levelo://app?vid=5236a0c4-05da-4b1a-a16e-c1ffa87d0d41"},"vehicle_type_id":"4","last_reported":1727323904,"current_range_meters":29600,"station_id":"ce4bhnh2rcd13ifvqgug","pricing_plan_id":"cebpf4jnsgd1na2vs0mg"},{"bike_id":"35d3fc74-fe6d-4fdc-9fc2-d877ab207e83","system_id":"levelo_inurba_marseille","lat":43.31078,"lon":5.38357,"is_reserved":false,"is_disabled":false,"rental_uris":{"android":"levelo://app?vid=35d3fc74-fe6d-4fdc-9fc2-d877ab207e83","ios":"levelo://app?vid=35d3fc74-fe6d-4fdc-9fc2-d877ab207e83"},"vehicle_type_id":"4","last_reported":1727323904,"current_range_meters":20400,"station_id":"ce4bgv92rcd13ifvqcr0","pricing_plan_id":"cebpf4jnsgd1na2vs0mg"},{"bike_id":"984e4b2b-e7cd-48d1-8ec5-21a3e1c8f7a5","system_id":"levelo_inurba_marseille","lat":43.28461,"lon":5.3589,"is_reserved":false,"is_disabled":false,"rental_uris":{"android":"levelo://app?vid=984e4b2b-e7cd-48d1-8ec5-21a3e1c8f7a5","ios":"levelo://app?vid=984e4b2b-e7cd-48d1-8ec5-21a3e1c8f7a5"},"vehicle_type_id":"4","last_reported":1727323904,"current_range_meters":35600,"station_id":"ce4bhah2rcd13ifvqei0","pricing_plan_id":"cebpf4jnsgd1na2vs0mg"},{"bike_id":"e7538fd8-10d9-40e4-aff9-8eb2f36b73c6","system_id":"levelo_inurba_marseille","lat":43.32486,"lon":5.36557,"is_reserved":false,"is_disabled":false,"rental_uris":{"android":"levelo://app?vid=e7538fd8-10d9-40e4-aff9-8eb2f36b73c6","ios":"levelo://app?vid=e7538fd8-10d9-40e4-aff9-8eb2f36b73c6"},"vehicle_type_id":"4","last_reported":1727323904,"current_range_meters":30000,"station_id":"ce4bhs12rcd13ifvqhvg","pricing_plan_id":"cebpf4jnsgd1na2vs0mg"},{"bike_id":"c2e5a81e-6912-4cb0-98ad-5f3df477fa43","system_id":"levelo_inurba_marseille","lat":43.29,"lon":5.37579,"is_reserved":false,"is_disabled":false,"rental_uris":{"android":"levelo://app?vid=c2e5a81e-6912-4cb0-98ad-5f3df477fa43","ios":"levelo://app?vid=c2e5a81e-6912-4cb0-98ad-5f3df477fa43"},"vehicle_type_id":"4","last_reported":1727323904,"current_range_meters":38400,"station_id":"ce4bh692rcd13ifvqe90","pricing_plan_id":"cebpf4jnsgd1na2vs0mg"},{"bike_id":"73fc106b-60d8-4a00-b094-2b20e47def43","system_id":"levelo_inurba_marseille","lat":43.31065,"lon":5.38355,"is_reserved":false,"is_disabled":false,"rental_uris":{"android":"levelo://app?vid=73fc106b-60d8-4a00-b094-2b20e47def43","ios":"levelo://app?vid=73fc106b-60d8-4a00-b094-2b20e47def43"},"vehicle_type_id":"4","last_reported":1727323904,"current_range_meters":31200,"station_id":"ce4bgv92rcd13ifvqcr0","pricing_plan_id":"cebpf4jnsgd1na2vs0mg"},{"bike_id":"ff2f4b55-b80f-45bb-8f2a-174dcea7dc1d","system_id":"levelo_inurba_marseille","lat":43.23956,"lon":5.36635,"is_reserved":false,"is_disabled":false,"rental_uris":{"android":"levelo://app?vid=ff2f4b55-b80f-45bb-8f2a-174dcea7dc1d","ios":"levelo://app?vid=ff2f4b55-b80f-45bb-8f2a-174dcea7dc1d"},"vehicle_type_id":"4","last_reported":1727323904,"current_range_meters":38000,"station_id":"ce4bhi12rcd13ifvqfp0","pricing_plan_id":"cebpf4jnsgd1na2vs0mg"},{"bike_id":"933a556b-111a-4908-be33-5c46bba7528e","system_id":"levelo_inurba_marseille","lat":43.29615,"lon":5.37724,"is_reserved":false,"is_disabled":false,"rental_uris":{"android":"levelo://app?vid=933a556b-111a-4908-be33-5c46bba7528e","ios":"levelo://app?vid=933a556b-111a-4908-be33-5c46bba7528e"},"vehicle_type_id":"4","last_reported":1727323904,"current_range_meters":38800,"station_id":"ce4bgi92rcd13ifvqb90","pricing_plan_id":"cebpf4jnsgd1na2vs0mg"},{"bike_id":"6dd7a628-1809-4a0a-8970-b097202fbafd","system_id":"levelo_inurba_marseille","lat":43.30628,"lon":5.40082,"is_reserved":false,"is_disabled":false,"rental_uris":{"android":"levelo://app?vid=6dd7a628-1809-4a0a-8970-b097202fbafd","ios":"levelo://app?vid=6dd7a628-1809-4a0a-8970-b097202fbafd"},"vehicle_type_id":"4","last_reported":1727323904,"current_range_meters":27200,"station_id":"ce4bh112rcd13ifvqda0","pricing_plan_id":"cebpf4jnsgd1na2vs0mg"},{"bike_id":"6c6d2726-4971-47f1-bc33-ffdb13891bd6","system_id":"levelo_inurba_marseille","lat":43.29271,"lon":5.36843,"is_reserved":false,"is_disabled":false,"rental_uris":{"android":"levelo://app?vid=6c6d2726-4971-47f1-bc33-ffdb13891bd6","ios":"levelo://app?vid=6c6d2726-4971-47f1-bc33-ffdb13891bd6"},"vehicle_type_id":"4","last_reported":1727323904,"current_range_meters":27600,"station_id":"ce4bhbp2rcd13ifvqesg","pricing_plan_id":"cebpf4jnsgd1na2vs0mg"},{"bike_id":"88a5c6eb-3c78-499b-b132-594fb6a10d64","system_id":"levelo_inurba_marseille","lat":43.2439,"lon":5.37052,"is_reserved":false,"is_disabled":false,"rental_uris":{"android":"levelo://app?vid=88a5c6eb-3c78-499b-b132-594fb6a10d64","ios":"levelo://app?vid=88a5c6eb-3c78-499b-b132-594fb6a10d64"},"vehicle_type_id":"4","last_reported":1727323904,"current_range_meters":38800,"station_id":"ce4bhhh2rcd13ifvqfk0","pricing_plan_id":"cebpf4jnsgd1na2vs0mg"},{"bike_id":"8f7337c9-a5b8-40bb-bd09-46f955380f7f","system_id":"levelo_inurba_marseille","lat":43.308,"lon":5.43529,"is_reserved":false,"is_disabled":false,"rental_uris":{"android":"levelo://app?vid=8f7337c9-a5b8-40bb-bd09-46f955380f7f","ios":"levelo://app?vid=8f7337c9-a5b8-40bb-bd09-46f955380f7f"},"vehicle_type_id":"4","last_reported":1727323904,"current_range_meters":38800,"station_id":"ce4bhph2rcd13ifvqheg","pricing_plan_id":"cebpf4jnsgd1na2vs0mg"},{"bike_id":"c3be56fd-94af-4761-9c42-4ce060421866","system_id":"levelo_inurba_marseille","lat":43.27826,"lon":5.39207,"is_reserved":false,"is_disabled":false,"rental_uris":{"android":"levelo://app?vid=c3be56fd-94af-4761-9c42-4ce060421866","ios":"levelo://app?vid=c3be56fd-94af-4761-9c42-4ce060421866"},"vehicle_type_id":"4","last_reported":1727323904,"current_range_meters":12000,"station_id":"ce4bhjp2rcd13ifvqga0","pricing_plan_id":"cebpf4jnsgd1na2vs0mg"},{"bike_id":"abe2c5d4-88b5-4c9e-a892-f0ea419c6cb7","system_id":"levelo_inurba_marseille","lat":43.28711,"lon":5.37945,"is_reserved":false,"is_disabled":false,"rental_uris":{"android":"levelo://app?vid=abe2c5d4-88b5-4c9e-a892-f0ea419c6cb7","ios":"levelo://app?vid=abe2c5d4-88b5-4c9e-a892-f0ea419c6cb7"},"vehicle_type_id":"4","last_reported":1727323904,"current_range_meters":36800,"station_id":"ce4bh9p2rcd13ifvqec0","pricing_plan_id":"cebpf4jnsgd1na2vs0mg"},{"bike_id":"525b5bce-b364-417c-b328-2833b71c1d6a","system_id":"levelo_inurba_marseille","lat":43.24178,"lon":5.39725,"is_reserved":false,"is_disabled":false,"rental_uris":{"android":"levelo://app?vid=525b5bce-b364-417c-b328-2833b71c1d6a","ios":"levelo://app?vid=525b5bce-b364-417c-b328-2833b71c1d6a"},"vehicle_type_id":"4","last_reported":1727323904,"current_range_meters":30400,"station_id":"ce4bhn12rcd13ifvqgpg","pricing_plan_id":"cebpf4jnsgd1na2vs0mg"},{"bike_id":"f56e08ee-227a-4481-84ce-6f391e127161","system_id":"levelo_inurba_marseille","lat":43.2827,"lon":5.35071,"is_reserved":false,"is_disabled":false,"rental_uris":{"android":"levelo://app?vid=f56e08ee-227a-4481-84ce-6f391e127161","ios":"levelo://app?vid=f56e08ee-227a-4481-84ce-6f391e127161"},"vehicle_type_id":"4","last_reported":1727323904,"current_range_meters":35600,"station_id":"ce4bhbp2rcd13ifvqerg","pricing_plan_id":"cebpf4jnsgd1na2vs0mg"},{"bike_id":"164c5150-fd82-49d7-aff9-b769aa561f0f","system_id":"levelo_inurba_marseille","lat":43.31997,"lon":5.38142,"is_reserved":false,"is_disabled":false,"rental_uris":{"android":"levelo://app?vid=164c5150-fd82-49d7-aff9-b769aa561f0f","ios":"levelo://app?vid=164c5150-fd82-49d7-aff9-b769aa561f0f"},"vehicle_type_id":"4","last_reported":1727323904,"current_range_meters":28000,"station_id":"ce4bhr12rcd13ifvqhpg","pricing_plan_id":"cebpf4jnsgd1na2vs0mg"},