{"last_updated":1717704607,"ttl":30,"version":"2.2","data":{"bikes":[{"bike_id":"aa0a3189-6ea8-456b-975f-f94e38aebec0","system_id":"levelo_inurba_marseille","lat":43.313391,"lon":5.36706,"is_reserved":false,"is_disabled":false,"rental_uris":{"android":"levelo://app?vid=aa0a3189-6ea8-456b-975f-f94e38aebec0","ios":"levelo://app?vid=aa0a3189-6ea8-456b-975f-f94e38aebec0"},"vehicle_type_id":"4","last_reported":1717704607,"current_range_meters":25200,"station_id":"ce4bgr92rcd13ifvqc6g","pricing_plan_id":"cebpf4jnsgd1na2vs0mg"},{"bike_id":"924cbb94-df63-4a74-a992-0d584fdcaac9","system_id":"levelo_inurba_marseille","lat":43.312239,"lon":5.368562,"is_reserved":false,"is_disabled":false,"rental_uris":{"android":"levelo://app?vid=924cbb94-df63-4a74-a992-0d584fdcaac9","ios":"levelo://app?vid=924cbb94-df63-4a74-a992-0d584fdcaac9"},"vehicle_type_id":"4","last_reported":1717704607,"current_range_meters":24000,"station_id":"ce4bgl92rcd13ifvqbq0","pricing_plan_id":"cebpf4jnsgd1na2vs0mg"},{"bike_id":"a75d8979-c8a7-40e1-9632-3efe2cee2aee","system_id":"levelo_inurba_marseille","lat":43.312239,"lon":5.368562,"is_reserved":false,"is_disabled":false,"rental_uris":{"android":"levelo://app?vid=a75d8979-c8a7-40e1-9632-3efe2cee2aee","ios":"levelo://app?vid=a75d8979-c8a7-40e1-9632-3efe2cee2aee"},"vehicle_type_id":"4","last_reported":1717704607,"current_range_meters":28000,"station_id":"ce4bgl92rcd13ifvqbq0","pricing_plan_id":"cebpf4jnsgd1na2vs0mg"},{"bike_id":"96aa846f-3597-43dd-a5ba-ef3e3d85182f","system_id":"levelo_inurba_marseille","lat":43.312239,"lon":5.368562,"is_reserved":false,"is_disabled":false,"rental_uris":{"android":"levelo://app?vid=96aa846f-3597-43dd-a5ba-ef3e3d85182f","ios":"levelo://app?vid=96aa846f-3597-43dd-a5ba-ef3e3d85182f"},"vehicle_type_id":"4","last_reported":1717704607,"current_range_meters":14800,"station_id":"ce4bgl92rcd13ifvqbq0","pricing_plan_id":"cebpf4jnsgd1na2vs0mg"},{"bike_id":"08dcd4f1-4351-4dbe-b1fb-3b7a19976b5d","system_id":"levelo_inurba_marseille","lat":43.31222,"lon":5.36862,"is_reserved":false,"is_disabled":false,"rental_uris":{"android":"levelo://app?vid=08dcd4f1-4351-4dbe-b1fb-3b7a19976b5d","ios":"levelo://app?vid=08dcd4f1-4351-4dbe-b1fb-3b7a19976b5d"},"vehicle_type_id":"4","last_reported":1717704607,"current_range_meters":0,"station_id":"ce4bgl92rcd13ifvqbq0","pricing_plan_id":"cebpf4jnsgd1na2vs0mg"},{"bike_id":"54519a76-8915-4a19-bab0-9f1c872dd79e","system_id":"levelo_inurba_marseille","lat":43.309076,"lon":5.368465,"is_reserved":false,"is_disabled":false,"rental_uris":{"android":"levelo://app?vid=54519a76-8915-4a19-bab0-9f1c872dd79e","ios":"levelo://app?vid=54519a76-8915-4a19-bab0-9f1c872dd79e"},"vehicle_type_id":"4","last_reported":1717704607,"current_range_meters":7200,"station_id":"ce4bgn92rcd13ifvqbvg","pricing_plan_id":"cebpf4jnsgd1na2vs0mg"},{"bike_id":"15c809ac-0140-4426-8fc3-950bd1eadcef","system_id":"levelo_inurba_marseille","lat":43.309076,"lon":5.368465,"is_reserved":false,"is_disabled":false,"rental_uris":{"android":"levelo://app?vid=15c809ac-0140-4426-8fc3-950bd1eadcef","ios":"levelo://app?vid=15c809ac-0140-4426-8fc3-950bd1eadcef"},"vehicle_type_id":"4","last_reported":1717704607,"current_range_meters":7200,"station_id":"ce4bgn92rcd13ifvqbvg","pricing_plan_id":"cebpf4jnsgd1na2vs0mg"},{"bike_id":"7bdc0ee1-b248-4d7c-af24-e7932f5e06f0","system_id":"levelo_inurba_marseille","lat":43.309039,"lon":5.371797,"is_reserved":false,"is_disabled":false,"rental_uris":{"android":"levelo://app?vid=7bdc0ee1-b248-4d7c-af24-e7932f5e06f0","ios":"levelo://app?vid=7bdc0ee1-b248-4d7c-af24-e7932f5e06f0"},"vehicle_type_id":"4","last_reported":1717704607,"current_range_meters":19600,"station_id":"ce4bguh2rcd13ifvqckg","pricing_plan_id":"cebpf4jnsgd1na2vs0mg"},{"bike_id":"ee7383d4-fdd8-46f9-ad27-c5193471fa6d","system_id":"levelo_inurba_marseille","lat":43.3158,"lon":5.37483,"is_reserved":false,"is_disabled":false,"rental_uris":{"android":"levelo://app?vid=ee7383d4-fdd8-46f9-ad27-c5193471fa6d","ios":"levelo://app?vid=ee7383d4-fdd8-46f9-ad27-c5193471fa6d"},"vehicle_type_id":"4","last_reported":1717704607,"current_range_meters":2000,"station_id":"","pricing_plan_id":"cebpf4jnsgd1na2vs0mg"},{"bike_id":"be483621-27d3-46c8-8014-8b9c0c2aeb6f","system_id":"levelo_inurba_marseille","lat":43.31822,"lon":5.37321,"is_reserved":false,"is_disabled":false,"rental_uris":{"android":"levelo://app?vid=be483621-27d3-46c8-8014-8b9c0c2aeb6f","ios":"levelo://app?vid=be483621-27d3-46c8-8014-8b9c0c2aeb6f"},"vehicle_type_id":"4","last_reported":1717704607,"current_range_meters":4400,"station_id":"","pricing_plan_id":"cebpf4jnsgd1na2vs0mg"},{"bike_id":"bfe33d00-22be-4fcb-b412-bf8809def526","system_id":"levelo_inurba_marseille","lat":43.31978,"lon":5.3714,"is_reserved":false,"is_disabled":false,"rental_uris":{"android":"levelo://app?vid=bfe33d00-22be-4fcb-b412-bf8809def526","ios":"levelo://app?vid=bfe33d00-22be-4fcb-b412-bf8809def526"},"vehicle_type_id":"4","last_reported":1717704607,"current_range_meters":26000,"station_id":"","pricing_plan_id":"cebpf4jnsgd1na2vs0mg"},{"bike_id":"148ed6d6-fcc1-405c-bd10-d28e2e84c0db","system_id":"levelo_inurba_marseille","lat":43.311131,"lon":5.377651,"is_reserved":false,"is_disabled":false,"rental_uris":{"android":"levelo://app?vid=148ed6d6-fcc1-405c-bd10-d28e2e84c0db","ios":"levelo://app?vid=148ed6d6-fcc1-405c-bd10-d28e2e84c0db"},"vehicle_type_id":"4","last_reported":1717704607,"current_range_meters":20800,"station_id":"ce4bgt92rcd13ifvqcg0","pricing_plan_id":"cebpf4jnsgd1na2vs0mg"},{"bike_id":"ef64fcb4-6d2e-4c3f-bf69-e4ba126d489a","system_id":"levelo_inurba_marseille","lat":43.311131,"lon":5.377651,"is_reserved":false,"is_disabled":false,"rental_uris":{"android":"levelo://app?vid=ef64fcb4-6d2e-4c3f-bf69-e4ba126d489a","ios":"levelo://app?vid=ef64fcb4-6d2e-4c3f-bf69-e4ba126d489a"},"vehicle_type_id":"4","last_reported":1717704607,"current_range_meters":12800,"station_id":"ce4bgt92rcd13ifvqcg0","pricing_plan_id":"cebpf4jnsgd1na2vs0mg"},{"bike_id":"fe0dc0b9-54fc-4a6e-9a32-546a122b4bc2","system_id":"levelo_inurba_marseille","lat":43.307945,"lon":5.376487,"is_reserved":false,"is_disabled":false,"rental_uris":{"android":"levelo://app?vid=fe0dc0b9-54fc-4a6e-9a32-546a122b4bc2","ios":"levelo://app?vid=fe0dc0b9-54fc-4a6e-9a32-546a122b4bc2"},"vehicle_type_id":"4","last_reported":1717704607,"current_range_meters":28000,"station_id":"ce4bgv92rcd13ifvqcq0","pricing_plan_id":"cebpf4jnsgd1na2vs0mg"},{"bike_id":"2a5a1611-83ac-412f-bf90-d48f4f18d258","system_id":"levelo_inurba_marseille","lat":43.307945,"lon":5.376487,"is_reserved":false,"is_disabled":false,"rental_uris":{"android":"levelo://app?vid=2a5a1611-83ac-412f-bf90-d48f4f18d258","ios":"levelo://app?vid=2a5a1611-83ac-412f-bf90-d48f4f18d258"},"vehicle_type_id":"4","last_reported":1717704607,"current_range_meters":28000,"station_id":"ce4bgv92rcd13ifvqcq0","pricing_plan_id":"cebpf4jnsgd1na2vs0mg"},{"bike_id":"96e7b45d-7cf9-4657-b0e4-8357111862dd","system_id":"levelo_inurba_marseille","lat":43.307945,"lon":5.376487,"is_reserved":false,"is_disabled":false,"rental_uris":{"android":"levelo://app?vid=96e7b45d-7cf9-4657-b0e4-8357111862dd","ios":"levelo://app?vid=96e7b45d-7cf9-4657-b0e4-8357111862dd"},"vehicle_type_id":"4","last_reported":1717704607,"current_range_meters":23200,"station_id":"ce4bgv92rcd13ifvqcq0","pricing_plan_id":"cebpf4jnsgd1na2vs0mg"},{"bike_id":"5ace5af3-d2de-453e-bc81-c8704d8d2d9f","system_id":"levelo_inurba_marseille","lat":43.307945,"lon":5.376487,"is_reserved":false,"is_disabled":false,"rental_uris":{"android":"levelo://app?vid=5ace5af3-d2de-453e-bc81-c8704d8d2d9f","ios":"levelo://app?vid=5ace5af3-d2de-453e-bc81-c8704d8d2d9f"},"vehicle_type_id":"4","last_reported":1717704607,"current_range_meters":26400,"station_id":"ce4bgv92rcd13ifvqcq0","pricing_plan_id":"cebpf4jnsgd1na2vs0mg"},{"bike_id":"44b30ba2-ddd1-482e-b714-015beedb725f","system_id":"levelo_inurba_marseille","lat":43.307945,"lon":5.376487,"is_reserved":false,"is_disabled":false,"rental_uris":{"android":"levelo://app?vid=44b30ba2-ddd1-482e-b714-015beedb725f","ios":"levelo://app?vid=44b30ba2-ddd1-482e-b714-015beedb725f"},"vehicle_type_id":"4","last_reported":1717704607,"current_range_meters":22000,"station_id":"ce4bgv92rcd13ifvqcq0","pricing_plan_id":"cebpf4jnsgd1na2vs0mg"},{"bike_id":"1fedaaaf-0ff6-4cdb-9461-7a1e5d5631aa","system_id":"levelo_inurba_marseille","lat":43.307945,"lon":5.376487,"is_reserved":false,"is_disabled":false,"rental_uris":{"android":"levelo://app?vid=1fedaaaf-0ff6-4cdb-9461-7a1e5d5631aa","ios":"levelo://app?vid=1fedaaaf-0ff6-4cdb-9461-7a1e5d5631aa"},"vehicle_type_id":"4","last_reported":1717704607,"current_range_meters":18800,"station_id":"ce4bgv92rcd13ifvqcq0","pricing_plan_id":"cebpf4jnsgd1na2vs0mg"},{"bike_id":"88ce95c8-c468-4eac-b10a-81cb02e1d47f","system_id":"levelo_inurba_marseille","lat":43.304606,"lon":5.379026,"is_reserved":false,"is_disabled":false,"rental_uris":{"android":"levelo://app?vid=88ce95c8-c468-4eac-b10a-81cb02e1d47f","ios":"levelo://app?vid=88ce95c8-c468-4eac-b10a-81cb02e1d47f"},"vehicle_type_id":"4","last_reported":1717704607,"current_range_meters":25600,"station_id":"ce4bgup2rcd13ifvqcn0","pricing_plan_id":"cebpf4jnsgd1na2vs0mg"},{"bike_id":"8c55a7e6-1324-4367-b1e0-5f814b80cb0a","system_id":"levelo_inurba_marseille","lat":43.324771,"lon":5.36557,"is_reserved":false,"is_disabled":false,"rental_uris":{"android":"levelo://app?vid=8c55a7e6-1324-4367-b1e0-5f814b80cb0a","ios":"levelo://app?vid=8c55a7e6-1324-4367-b1e0-5f814b80cb0a"},"vehicle_type_id":"4","last_reported":1717704607,"current_range_meters":4000,"station_id":"ce4bhs12rcd13ifvqhvg","pricing_plan_id":"cebpf4jnsgd1na2vs0mg"},{"bike_id":"44909558-9a5c-41b5-858f-7d4cc8905f6a","system_id":"levelo_inurba_marseille","lat":43.324771,"lon":5.36557,"is_reserved":false,"is_disabled":false,"rental_uris":{"android":"levelo://app?vid=44909558-9a5c-41b5-858f-7d4cc8905f6a","ios":"levelo://app?vid=44909558-9a5c-41b5-858f-7d4cc8905f6a"},"vehicle_type_id":"4","last_reported":1717704607,"current_range_meters":800,"station_id":"ce4bhs12rcd13ifvqhvg","pricing_plan_id":"cebpf4jnsgd1na2vs0mg"},{"bike_id":"65ad21de-f647-490e-a53c-6bb3b2339424","system_id":"levelo_inurba_marseille","lat":43.324771,"lon":5.36557,"is_reserved":false,"is_disabled":false,"rental_uris":{"android":"levelo://app?vid=65ad21de-f647-490e-a53c-6bb3b2339424","ios":"levelo://app?vid=65ad21de-f647-490e-a53c-6bb3b2339424"},"vehicle_type_id":"4","last_reported":1717704607,"current_range_meters":0,"station_id":"ce4bhs12rcd13ifvqhvg","pricing_plan_id":"cebpf4jnsgd1na2vs0mg"},{"bike_id":"7138375a-4c45-4f23-916f-cd06f1de54a7","system_id":"levelo_inurba_marseille","lat":43.31075,"lon":5.38349,"is_reserved":false,"is_disabled":false,"rental_uris":{"android":"levelo://app?vid=7138375a-4c45-4f23-916f-cd06f1de54a7","ios":"levelo://app?vid=7138375a-4c45-4f23-916f-cd06f1de54a7"},"vehicle_type_id":"4","last_reported":1717704607,"current_range_meters":28000,"station_id":"ce4bgv92rcd13ifvqcr0","pricing_plan_id":"cebpf4jnsgd1na2vs0mg"},{"bike_id":"72671879-98a8-4ed6-8e85-2c98ffa92995","system_id":"levelo_inurba_marseille","lat":43.310804,"lon":5.38359,"is_reserved":false,"is_disabled":false,"rental_uris":{"android":"levelo://app?vid=72671879-98a8-4ed6-8e85-2c98ffa92995","ios":"levelo://app?vid=72671879-98a8-4ed6-8e85-2c98ffa92995"},"vehicle_type_id":"4","last_reported":1717704607,"current_range_meters":4800,"station_id":"ce4bgv92rcd13ifvqcr0","pricing_plan_id":"cebpf4jnsgd1na2vs0mg"},{"bike_id":"6d1448c0-b0aa-4992-a8dd-60b10e68e054","system_id":"levelo_inurba_marseille","lat":43.310804,"lon":5.38359,"is_reserved":false,"is_disabled":false,"rental_uris":{"android":"levelo://app?vid=6d1448c0-b0aa-4992-a8dd-60b10e68e054","ios":"levelo://app?vid=6d1448c0-b0aa-4992-a8dd-60b10e68e054"},"vehicle_type_id":"4","last_reported":1717704607,"current_range_meters":13600,"station_id":"ce4bgv92rcd13ifvqcr0","pricing_plan_id":"cebpf4jnsgd1na2vs0mg"},{"bike_id":"761b4d8e-adfa-485d-b934-27599f060d21","system_id":"levelo_inurba_marseille","lat":43.310804,"lon":5.38359,"is_reserved":false,"is_disabled":false,"rental_uris":{"android":"levelo://app?vid=761b4d8e-adfa-485d-b934-27599f060d21","ios":"levelo://app?vid=761b4d8e-adfa-485d-b934-27599f060d21"},"vehicle_type_id":"4","last_reported":1717704607,"current_range_meters":25200,"station_id":"ce4bgv92rcd13ifvqcr0","pricing_plan_id":"cebpf4jnsgd1na2vs0mg"},{"bike_id":"c2048b96-2591-433c-85bf-a5f0f6282aab","system_id":"levelo_inurba_marseille","lat":43.319935,"lon":5.381699,"is_reserved":false,"is_disabled":false,"rental_uris":{"android":"levelo://app?vid=c2048b96-2591-433c-85bf-a5f0f6282aab","ios":"levelo://app?vid=c2048b96-2591-433c-85bf-a5f0f6282aab"},"vehicle_type_id":"4","last_reported":1717704607,"current_range_meters":2800,"station_id":"ce4bhr12rcd13ifvqhpg","pricing_plan_id":"cebpf4jnsgd1na2vs0mg"},{"bike_id":"fc610334-13dd-4be0-b018-29fad57d43fd","system_id":"levelo_inurba_marseille","lat":43.319933,"lon":5.381531,"is_reserved":false,"is_disabled":false,"rental_uris":{"android":"levelo://app?vid=fc610334-13dd-4be0-b018-29fad57d43fd","ios":"levelo://app?vid=fc610334-13dd-4be0-b018-29fad57d43fd"},"vehicle_type_id":"4","last_reported":1717704607,"current_range_meters":0,"station_id":"ce4bhr12rcd13ifvqhpg","pricing_plan_id":"cebpf4jnsgd1na2vs0mg"},{"bike_id":"3d24971d-47a4-4dc3-a909-8e90c37bdbe2","system_id":"levelo_inurba_marseille","lat":43.319935,"lon":5.381699,"is_reserved":false,"is_disabled":false,"rental_uris":{"android":"levelo://app?vid=3d24971d-47a4-4dc3-a909-8e90c37bdbe2","ios":"levelo://app?vid=3d24971d-47a4-4dc3-a909-8e90c37bdbe2"},"vehicle_type_id":"4","last_reported":1717704607,"current_range_meters":0,"station_id":"ce4bhr12rcd13ifvqhpg","pricing_plan_id":"cebpf4jnsgd1na2vs0mg"},{"bike_id":"31f0ed2b-3977-425f-90e9-c0d82f0c3433","system_id":"levelo_inurba_marseille","lat":43.319935,"lon":5.381699,"is_reserved":false,"is_disabled":false,"rental_uris":{"android":"levelo://app?vid=31f0ed2b-3977-425f-90e9-c0d82f0c3433","ios":"levelo://app?vid=31f0ed2b-3977-425f-90e9-c0d82f0c3433"},"vehicle_type_id":"4","last_reported":1717704607,"current_range_meters":16400,"station_id":"ce4bhr12rcd13ifvqhpg","pricing_plan_id":"cebpf4jnsgd1na2vs0mg"},{"bike_id":"ea55f068-be11-4fd9-9446-8418ce713c13","system_id":"levelo_inurba_marseille","lat":43.319935,"lon":5.381699,"is_reserved":false,"is_disabled":false,"rental_uris":{"android":"levelo://app?vid=ea55f068-be11-4fd9-9446-8418ce713c13","ios":"levelo://app?vid=ea55f068-be11-4fd9-9446-8418ce713c13"},"vehicle_type_id":"4","last_reported":1717704607,"current_range_meters":4800,"station_id":"ce4bhr12rcd13ifvqhpg","pricing_plan_id":"cebpf4jnsgd1na2vs0mg"},{"bike_id":"26afca31-a6f7-40f2-8db2-f5dfe02907cc","system_id":"levelo_inurba_marseille","lat":43.319935,"lon":5.381699,"is_reserved":false,"is_disabled":false,"rental_uris":{"android":"levelo://app?vid=26afca31-a6f7-40f2-8db2-f5dfe02907cc","ios":"levelo://app?vid=26afca31-a6f7-40f2-8db2-f5dfe02907cc"},"vehicle_type_id":"4","last_reported":1717704607,"current_range_meters":20400,"station_id":"ce4bhr12rcd13ifvqhpg","pricing_plan_id":"cebpf4jnsgd1na2vs0mg"},{"bike_id":"0848dcff-23b4-4efb-88f8-11b72a57e153","system_id":"levelo_inurba_marseille","lat":43.319935,"lon":5.381699,"is_reserved":false,"is_disabled":false,"rental_uris":{"android":"levelo://app?vid=0848dcff-23b4-4efb-88f8-11b72a57e153","ios":"levelo://app?vid=0848dcff-23b4-4efb-88f8-11b72a57e153"},"vehicle_type_id":"4","last_reported":1717704607,"current_range_meters":8000,"station_id":"ce4bhr12rcd13ifvqhpg","pricing_plan_id":"cebpf4jnsgd1na2vs0mg"},{"bike_id":"ad85d61f-c1c2-4e1a-ab2d-9f5c2bcf69d7","system_id":"levelo_inurba_marseille","lat":43.319935,"lon":5.381699,"is_reserved":false,"is_disabled":false,"rental_uris":{"android":"levelo://app?vid=ad85d61f-c1c2-4e1a-ab2d-9f5c2bcf69d7","ios":"levelo://app?vid=ad85d61f-c1c2-4e1a-ab2d-9f5c2bcf69d7"},"vehicle_type_id":"4","last_reported":1717704607,"current_range_meters":16400,"station_id":"ce4bhr12rcd13ifvqhpg","pricing_plan_id":"cebpf4jnsgd1na2vs0mg"},{"bike_id":"3c25b725-16e7-47e2-8053-ffd319515850","system_id":"levelo_inurba_marseille","lat":43.319935,"lon":5.381699,"is_reserved":false,"is_disabled":false,"rental_uris":{"android":"levelo://app?vid=3c25b725-16e7-47e2-8053-ffd319515850","ios":"levelo://app?vid=3c25b725-16e7-47e2-8053-ffd319515850"},"vehicle_type_id":"4","last_reported":1717704607,"current_range_meters":14000,"station_id":"ce4bhr12rcd13ifvqhpg","pricing_plan_id":"cebpf4jnsgd1na2vs0mg"},{"bike_id":"d68a76c8-7a7c-437e-9310-c51d3ae38407","system_id":"levelo_inurba_marseille","lat":43.319935,"lon":5.381699,"is_reserved":false,"is_disabled":false,"rental_uris":{"android":"levelo://app?vid=d68a76c8-7a7c-437e-9310-c51d3ae38407","ios":"levelo://app?vid=d68a76c8-7a7c-437e-9310-c51d3ae38407"},"vehicle_type_id":"4","last_reported":1717704607,"current_range_meters":22000,"station_id":"ce4bhr12rcd13ifvqhpg","pricing_plan_id":"cebpf4jnsgd1na2vs0mg"},{"bike_id":"c863e261-e5fa-48ae-a70d-4193a3e6c6b8","system_id":"levelo_inurba_marseille","lat":43.313571,"lon":5.384829,"is_reserved":false,"is_disabled":false,"rental_uris":{"android":"levelo://app?vid=c863e261-e5fa-48ae-a70d-4193a3e6c6b8","ios":"levelo://app?vid=c863e261-e5fa-48ae-a70d-4193a3e6c6b8"},"vehicle_type_id":"4","last_reported":1717704607,"current_range_meters":5600,"station_id":"ce4bgt92rcd13ifvqcf0","pricing_plan_id":"cebpf4jnsgd1na2vs0mg"},{"bike_id":"8f447597-cfa2-49b2-a791-04777bad3c85","system_id":"levelo_inurba_marseille","lat":43.31369,"lon":5.384903,"is_reserved":false,"is_disabled":false,"rental_uris":{"android":"levelo://app?vid=8f447597-cfa2-49b2-a791-04777bad3c85","ios":"levelo://app?vid=8f447597-cfa2-49b2-a791-04777bad3c85"},"vehicle_type_id":"4","last_reported":1717704607,"current_range_meters":0,"station_id":"ce4bgt92rcd13ifvqcf0","pricing_plan_id":"cebpf4jnsgd1na2vs0mg"},{"bike_id":"9edc30bb-ce2d-4f7d-9f26-54ce5dc84f49","system_id":"levelo_inurba_marseille","lat":43.313571,"lon":5.384829,"is_reserved":false,"is_disabled":false,"rental_uris":{"android":"levelo://app?vid=9edc30bb-ce2d-4f7d-9f26-54ce5dc84f49","ios":"levelo://app?vid=9edc30bb-ce2d-4f7d-9f26-54ce5dc84f49"},"vehicle_type_id":"4","last_reported":1717704607,"current_range_meters":7200,"station_id":"ce4bgt92rcd13ifvqcf0","pricing_plan_id":"cebpf4jnsgd1na2vs0mg"},{"bike_id":"09697f01-05e2-4a1d-b0ad-52404a007e12","system_id":"levelo_inurba_marseille","lat":43.313571,"lon":5.384829,"is_reserved":false,"is_disabled":false,"rental_uris":{"android":"levelo://app?vid=09697f01-05e2-4a1d-b0ad-52404a007e12","ios":"levelo://app?vid=09697f01-05e2-4a1d-b0ad-52404a007e12"},"vehicle_type_id":"4","last_reported":1717704607,"current_range_meters":7600,"station_id":"ce4bgt92rcd13ifvqcf0","pricing_plan_id":"cebpf4jnsgd1na2vs0mg"},{"bike_id":"2854f17c-daa0-4a3c-a0e1-8e221c9e7eea","system_id":"levelo_inurba_marseille","lat":43.313571,"lon":5.384829,"is_reserved":false,"is_disabled":false,"rental_uris":{"android":"levelo://app?vid=2854f17c-daa0-4a3c-a0e1-8e221c9e7eea","ios":"levelo://app?vid=2854f17c-daa0-4a3c-a0e1-8e221c9e7eea"},"vehicle_type_id":"4","last_reported":1717704607,"current_range_meters":12400,"station_id":"ce4bgt92rcd13ifvqcf0","pricing_plan_id":"cebpf4jnsgd1na2vs0mg"},{"bike_id":"b93564ce-5929-41df-a1c8-62c06756f348","system_id":"levelo_inurba_marseille","lat":43.313571,"lon":5.384829,"is_reserved":false,"is_disabled":false,"rental_uris":{"android":"levelo://app?vid=b93564ce-5929-41df-a1c8-62c06756f348","ios":"levelo://app?vid=b93564ce-5929-41df-a1c8-62c06756f348"},"vehicle_type_id":"4","last_reported":1717704607,"current_range_meters":19200,"station_id":"ce4bgt92rcd13ifvqcf0","pricing_plan_id":"cebpf4jnsgd1na2vs0mg"},{"bike_id":"294693c1-cba8-4278-8b1b-7d85e7ebac18","system_id":"levelo_inurba_marseille","lat":43.31368,"lon":5.38497,"is_reserved":false,"is_disabled":false,"rental_uris":{"android":"levelo://app?vid=294693c1-cba8-4278-8b1b-7d85e7ebac18","ios":"levelo://app?vid=294693c1-cba8-4278-8b1b-7d85e7ebac18"},"vehicle_type_id":"4","last_reported":1717704607,"current_range_meters":0,"station_id":"ce4bgt92rcd13ifvqcf0","pricing_plan_id":"cebpf4jnsgd1na2vs0mg"},{"bike_id":"d9072867-168c-47f7-995e-7920d7a88a41","system_id":"levelo_inurba_marseille","lat":43.299222,"lon":5.365554,"is_reserved":false,"is_disabled":false,"rental_uris":{"android":"levelo://app?vid=d9072867-168c-47f7-995e-7920d7a88a41","ios":"levelo://app?vid=d9072867-168c-47f7-995e-7920d7a88a41"},"vehicle_type_id":"4","last_reported":1717704607,"current_range_meters":4800,"station_id":"ce4bgm92rcd13ifvqbr0","pricing_plan_id":"cebpf4jnsgd1na2vs0mg"},{"bike_id":"106f4a70-6c62-4483-8265-fdd3024de74d","system_id":"levelo_inurba_marseille","lat":43.299222,"lon":5.365554,"is_reserved":false,"is_disabled":false,"rental_uris":{"android":"levelo://app?vid=106f4a70-6c62-4483-8265-fdd3024de74d","ios":"levelo://app?vid=106f4a70-6c62-4483-8265-fdd3024de74d"},"vehicle_type_id":"4","last_reported":1717704607,"current_range_meters":30400,"station_id":"ce4bgm92rcd13ifvqbr0","pricing_plan_id":"cebpf4jnsgd1na2vs0mg"},{"bike_id":"66246398-87f6-43f8-ab97-9edeeba81ce5","system_id":"levelo_inurba_marseille","lat":43.29972,"lon":5.37179,"is_reserved":false,"is_disabled":false,"rental_uris":{"android":"levelo://app?vid=66246398-87f6-43f8-ab97-9edeeba81ce5","ios":"levelo://app?vid=66246398-87f6-43f8-ab97-9edeeba81ce5"},"vehicle_type_id":"4","last_reported":1717704607,"current_range_meters":26400,"station_id":"ce4bgr92rcd13ifvqc7g","pricing_plan_id":"cebpf4jnsgd1na2vs0mg"},{"bike_id":"642e8060-379a-479a-88da-2ab1512b01e1","system_id":"levelo_inurba_marseille","lat":43.299724,"lon":5.371829,"is_reserved":false,"is_disabled":false,"rental_uris":{"android":"levelo://app?vid=642e8060-379a-479a-88da-2ab1512b01e1","ios":"levelo://app?vid=642e8060-379a-479a-88da-2ab1512b01e1"},"vehicle_type_id":"4","last_reported":1717704607,"current_range_meters":26000,"station_id":"ce4bgr92rcd13ifvqc7g","pricing_plan_id":"cebpf4jnsgd1na2vs0mg"},{"bike_id":"fcb5973e-940a-4c42-9948-11c4d9a5423e","system_id":"levelo_inurba_marseille","lat":43.298433,"lon":5.362774,"is_reserved":false,"is_disabled":false,"rental_uris":{"android":"levelo://app?vid=fcb5973e-940a-4c42-9948-11c4d9a5423e","ios":"levelo://app?vid=fcb5973e-940a-4c42-9948-11c4d9a5423e"},"vehicle_type_id":"4","last_reported":1717704607,"current_range_meters":17600,"station_id":"ce4bgpp2rcd13ifvqc3g","pricing_plan_id":"cebpf4jnsgd1na2vs0mg"},{"bike_id":"7b67aa2e-d30b-4721-97a3-8151c2e99a2c","system_id":"levelo_inurba_marseille","lat":43.298433,"lon":5.362774,"is_reserved":false,"is_disabled":false,"rental_uris":{"android":"levelo://app?vid=7b67aa2e-d30b-4721-97a3-8151c2e99a2c","ios":"levelo://app?vid=7b67aa2e-d30b-4721-97a3-8151c2e99a2c"},"vehicle_type_id":"4","last_reported":1717704607,"current_range_meters":400,"station_id":"ce4bgpp2rcd13ifvqc3g","pricing_plan_id":"cebpf4jnsgd1na2vs0mg"},{"bike_id":"ac07c055-4833-4573-a9b5-5313807040e3","system_id":"levelo_inurba_marseille","lat":43.305364,"lon":5.384119,"is_reserved":false,"is_disabled":false,"rental_uris":{"android":"levelo://app?vid=ac07c055-4833-4573-a9b5-5313807040e3","ios":"levelo://app?vid=ac07c055-4833-4573-a9b5-5313807040e3"},"vehicle_type_id":"4","last_reported":1717704607,"current_range_meters":8400,"station_id":"ce4bgg92rcd13ifvqb30","pricing_plan_id":"cebpf4jnsgd1na2vs0mg"},{"bike_id":"82aebe03-95f7-424e-a8e2-b2e53b425995","system_id":"levelo_inurba_marseille","lat":43.298433,"lon":5.362774,"is_reserved":false,"is_disabled":false,"rental_uris":{"android":"levelo://app?vid=82aebe03-95f7-424e-a8e2-b2e53b425995","ios":"levelo://app?vid=82aebe03-95f7-424e-a8e2-b2e53b425995"},"vehicle_type_id":"4","last_reported":1717704607,"current_range_meters":7200,"station_id":"ce4bgpp2rcd13ifvqc3g","pricing_plan_id":"cebpf4jnsgd1na2vs0mg"},{"bike_id":"efd76fc3-303d-405d-98b8-e73885cfdd7f","system_id":"levelo_inurba_marseille","lat":43.298433,"lon":5.362774,"is_reserved":false,"is_disabled":false,"rental_uris":{"android":"levelo://app?vid=efd76fc3-303d-405d-98b8-e73885cfdd7f","ios":"levelo://app?vid=efd76fc3-303d-405d-98b8-e73885cfdd7f"},"vehicle_type_id":"4","last_reported":1717704607,"current_range_meters":24000,"station_id":"ce4bgpp2rcd13ifvqc3g","pricing_plan_id":"cebpf4jnsgd1na2vs0mg"},{"bike_id":"70795722-4587-40b6-8a1b-5675fcbd42eb","system_id":"levelo_inurba_marseille","lat":43.298433,"lon":5.362774,"is_reserved":false,"is_disabled":false,"rental_uris":{"android":"levelo://app?vid=70795722-4587-40b6-8a1b-5675fcbd42eb","ios":"levelo://app?vid=70795722-4587-40b6-8a1b-5675fcbd42eb"},"vehicle_type_id":"4","last_reported":1717704607,"current_range_meters":15200,"station_id":"ce4bgpp2rcd13ifvqc3g","pricing_plan_id":"cebpf4jnsgd1na2vs0mg"},{"bike_id":"33b149a2-a9cd-413d-b6e1-9f2b9a91a644","system_id":"levelo_inurba_marseille","lat":43.31185,"lon":5.38703,"is_reserved":false,"is_disabled":false,"rental_uris":{"android":"levelo://app?vid=33b149a2-a9cd-413d-b6e1-9f2b9a91a644","ios":"levelo://app?vid=33b149a2-a9cd-413d-b6e1-9f2b9a91a644"},"vehicle_type_id":"4","last_reported":1717704607,"current_range_meters":14400,"station_id":"ce4bgv12rcd13ifvqcp0","pricing_plan_id":"cebpf4jnsgd1na2vs0mg"},{"bike_id":"cb1d782d-4107-4eca-9815-d68cefb6d89b","system_id":"levelo_inurba_marseille","lat":43.311722,"lon":5.387247,"is_reserved":false,"is_disabled":false,"rental_uris":{"android":"levelo://app?vid=cb1d782d-4107-4eca-9815-d68cefb6d89b","ios":"levelo://app?vid=cb1d782d-4107-4eca-9815-d68cefb6d89b"},"vehicle_type_id":"4","last_reported":1717704607,"current_range_meters":14000,"station_id":"ce4bgv12rcd13ifvqcp0","pricing_plan_id":"cebpf4jnsgd1na2vs0mg"},{"bike_id":"b27bd35b-4db1-41ad-8531-2cf577767efa","system_id":"levelo_inurba_marseille","lat":43.31176,"lon":5.38711,"is_reserved":false,"is_disabled":false,"rental_uris":{"android":"levelo://app?vid=b27bd35b-4db1-41ad-8531-2cf577767efa","ios":"levelo://app?vid=b27bd35b-4db1-41ad-8531-2cf577767efa"},"vehicle_type_id":"4","last_reported":1717704607,"current_range_meters":400,"station_id":"ce4bgv12rcd13ifvqcp0","pricing_plan_id":"cebpf4jnsgd1na2vs0mg"},{"bike_id":"bdb96e53-e9ab-4379-a876-04e3ed4f89d9","system_id":"levelo_inurba_marseille","lat":43.299243,"lon":5.37481,"is_reserved":false,"is_disabled":false,"rental_uris":{"android":"levelo://app?vid=bdb96e53-e9ab-4379-a876-04e3ed4f89d9","ios":"levelo://app?vid=bdb96e53-e9ab-4379-a876-04e3ed4f89d9"},"vehicle_type_id":"4","last_reported":1717704607,"current_range_meters":25200,"station_id":"ce4bgjh2rcd13ifvqbg0","pricing_plan_id":"cebpf4jnsgd1na2vs0mg"},{"bike_id":"caeda939-e20a-4e78-9ef8-5098f8b9097d","system_id":"levelo_inurba_marseille","lat":43.311722,"lon":5.387247,"is_reserved":false,"is_disabled":false,"rental_uris":{"android":"levelo://app?vid=caeda939-e20a-4e78-9ef8-5098f8b9097d","ios":"levelo://app?vid=caeda939-e20a-4e78-9ef8-5098f8b9097d"},"vehicle_type_id":"4","last_reported":1717704607,"current_range_meters":25600,"station_id":"ce4bgv12rcd13ifvqcp0","pricing_plan_id":"cebpf4jnsgd1na2vs0mg"},{"bike_id":"5976f5f3-c901-439f-8d9e-7563c070b285","system_id":"levelo_inurba_marseille","lat":43.31172,"lon":5.38722,"is_reserved":false,"is_disabled":false,"rental_uris":{"android":"levelo://app?vid=5976f5f3-c901-439f-8d9e-7563c070b285","ios":"levelo://app?vid=5976f5f3-c901-439f-8d9e-7563c070b285"},"vehicle_type_id":"4","last_reported":1717704607,"current_range_meters":0,"station_id":"ce4bgv12rcd13ifvqcp0","pricing_plan_id":"cebpf4jnsgd1na2vs0mg"},{"bike_id":"83e399c6-4332-4a8d-94df-5208583aa902","system_id":"levelo_inurba_marseille","lat":43.311722,"lon":5.387247,"is_reserved":false,"is_disabled":false,"rental_uris":{"android":"levelo://app?vid=83e399c6-4332-4a8d-94df-5208583aa902","ios":"levelo://app?vid=83e399c6-4332-4a8d-94df-5208583aa902"},"vehicle_type_id":"4","last_reported":1717704607,"current_range_meters":4800,"station_id":"ce4bgv12rcd13ifvqcp0","pricing_plan_id":"cebpf4jnsgd1na2vs0mg"},{"bike_id":"e170a609-cf62-43ff-9427-28fc26cf27f1","system_id":"levelo_inurba_marseille","lat":43.311722,"lon":5.387247,"is_reserved":false,"is_disabled":false,"rental_uris":{"android":"levelo://app?vid=e170a609-cf62-43ff-9427-28fc26cf27f1","ios":"levelo://app?vid=e170a609-cf62-43ff-9427-28fc26cf27f1"},"vehicle_type_id":"4","last_reported":1717704607,"current_range_meters":23200,"station_id":"ce4bgv12rcd13ifvqcp0","pricing_plan_id":"cebpf4jnsgd1na2vs0mg"},{"bike_id":"6c946110-dc5e-4c3e-8c91-7065a02be412","system_id":"levelo_inurba_marseille","lat":43.299243,"lon":5.374807,"is_reserved":false,"is_disabled":false,"rental_uris":{"android":"levelo://app?vid=6c946110-dc5e-4c3e-8c91-7065a02be412","ios":"levelo://app?vid=6c946110-dc5e-4c3e-8c91-7065a02be412"},"vehicle_type_id":"4","last_reported":1717704607,"current_range_meters":15200,"station_id":"ce4bgjh2rcd13ifvqbg0","pricing_plan_id":"cebpf4jnsgd1na2vs0mg"},{"bike_id":"23f7d586-dbc2-48e8-b500-0e7921230d53","system_id":"levelo_inurba_marseille","lat":43.30019,"lon":5.37832,"is_reserved":false,"is_disabled":false,"rental_uris":{"android":"levelo://app?vid=23f7d586-dbc2-48e8-b500-0e7921230d53","ios":"levelo://app?vid=23f7d586-dbc2-48e8-b500-0e7921230d53"},"vehicle_type_id":"4","last_reported":1717704607,"current_range_meters":4800,"station_id":"","pricing_plan_id":"cebpf4jnsgd1na2vs0mg"},{"bike_id":"7cdcef08-1df2-42bd-b427-21f07a48ac22","system_id":"levelo_inurba_marseille","lat":43.297794,"lon":5.370888,"is_reserved":false,"is_disabled":false,"rental_uris":{"android":"levelo://app?vid=7cdcef08-1df2-42bd-b427-21f07a48ac22","ios":"levelo://app?vid=7cdcef08-1df2-42bd-b427-21f07a48ac22"},"vehicle_type_id":"4","last_reported":1717704607,"current_range_meters":19600,"station_id":"ce4bgop2rcd13ifvqc1g","pricing_plan_id":"cebpf4jnsgd1na2vs0mg"},{"bike_id":"35db548d-efcc-40c0-a3a6-2f1f1caf2d8b","system_id":"levelo_inurba_marseille","lat":43.297794,"lon":5.370888,"is_reserved":false,"is_disabled":false,"rental_uris":{"android":"levelo://app?vid=35db548d-efcc-40c0-a3a6-2f1f1caf2d8b","ios":"levelo://app?vid=35db548d-efcc-40c0-a3a6-2f1f1caf2d8b"},"vehicle_type_id":"4","last_reported":1717704607,"current_range_meters":29600,"station_id":"ce4bgop2rcd13ifvqc1g","pricing_plan_id":"cebpf4jnsgd1na2vs0mg"},{"bike_id":"ee1604b4-d009-4b0c-a753-584b58847e9a","system_id":"levelo_inurba_marseille","lat":43.322872,"lon":5.382756,"is_reserved":false,"is_disabled":false,"rental_uris":{"android":"levelo://app?vid=ee1604b4-d009-4b0c-a753-584b58847e9a","ios":"levelo://app?vid=ee1604b4-d009-4b0c-a753-584b58847e9a"},"vehicle_type_id":"4","last_reported":1717704607,"current_range_meters":13600,"station_id":"ce4bhr12rcd13ifvqhqg","pricing_plan_id":"cebpf4jnsgd1na2vs0mg"},{"bike_id":"ac1523b9-53fd-4705-bd5f-e4b9b76d25cb","system_id":"levelo_inurba_marseille","lat":43.297774,"lon":5.370875,"is_reserved":false,"is_disabled":false,"rental_uris":{"android":"levelo://app?vid=ac1523b9-53fd-4705-bd5f-e4b9b76d25cb","ios":"levelo://app?vid=ac1523b9-53fd-4705-bd5f-e4b9b76d25cb"},"vehicle_type_id":"4","last_reported":1717704607,"current_range_meters":27200,"station_id":"ce4bgop2rcd13ifvqc1g","pricing_plan_id":"cebpf4jnsgd1na2vs0mg"},{"bike_id":"fbac4e32-df3e-47a6-906f-f55b105eb4c7","system_id":"levelo_inurba_marseille","lat":43.32294,"lon":5.38261,"is_reserved":false,"is_disabled":false,"rental_uris":{"android":"levelo://app?vid=fbac4e32-df3e-47a6-906f-f55b105eb4c7","ios":"levelo://app?vid=fbac4e32-df3e-47a6-906f-f55b105eb4c7"},"vehicle_type_id":"4","last_reported":1717704607,"current_range_meters":0,"station_id":"ce4bhr12rcd13ifvqhqg","pricing_plan_id":"cebpf4jnsgd1na2vs0mg"},{"bike_id":"88f46b03-1fbf-418d-8062-bce63215c58a","system_id":"levelo_inurba_marseille","lat":43.322872,"lon":5.382756,"is_reserved":false,"is_disabled":false,"rental_uris":{"android":"levelo://app?vid=88f46b03-1fbf-418d-8062-bce63215c58a","ios":"levelo://app?vid=88f46b03-1fbf-418d-8062-bce63215c58a"},"vehicle_type_id":"4","last_reported":1717704607,"current_range_meters":22400,"station_id":"ce4bhr12rcd13ifvqhqg","pricing_plan_id":"cebpf4jnsgd1na2vs0mg"},{"bike_id":"4704dceb-a94b-46d4-b35f-5e1e82b8a106","system_id":"levelo_inurba_marseille","lat":43.322872,"lon":5.382756,"is_reserved":false,"is_disabled":false,"rental_uris":{"android":"levelo://app?vid=4704dceb-a94b-46d4-b35f-5e1e82b8a106","ios":"levelo://app?vid=4704dceb-a94b-46d4-b35f-5e1e82b8a106"},"vehicle_type_id":"4","last_reported":1717704607,"current_range_meters":21600,"station_id":"ce4bhr12rcd13ifvqhqg","pricing_plan_id":"cebpf4jnsgd1na2vs0mg"},{"bike_id":"491ac8bd-89a4-4aa1-8d8a-708e6fdf50e8","system_id":"levelo_inurba_marseille","lat":43.322872,"lon":5.382756,"is_reserved":false,"is_disabled":false,"rental_uris":{"android":"levelo://app?vid=491ac8bd-89a4-4aa1-8d8a-708e6fdf50e8","ios":"levelo://app?vid=491ac8bd-89a4-4aa1-8d8a-708e6fdf50e8"},"vehicle_type_id":"4","last_reported":1717704607,"current_range_meters":16000,"station_id":"ce4bhr12rcd13ifvqhqg","pricing_plan_id":"cebpf4jnsgd1na2vs0mg"},{"bike_id":"d05070e6-69d1-4259-a68e-d422b88c22d7","system_id":"levelo_inurba_marseille","lat":43.322872,"lon":5.382756,"is_reserved":false,"is_disabled":false,"rental_uris":{"android":"levelo://app?vid=d05070e6-69d1-4259-a68e-d422b88c22d7","ios":"levelo://app?vid=d05070e6-69d1-4259-a68e-d422b88c22d7"},"vehicle_type_id":"4","last_reported":1717704607,"current_range_meters":25600,"station_id":"ce4bhr12rcd13ifvqhqg","pricing_plan_id":"cebpf4jnsgd1na2vs0mg"},{"bike_id":"b956592f-9d0d-4552-aa17-3112508dc48f","system_id":"levelo_inurba_marseille","lat":43.298433,"lon":5.362774,"is_reserved":false,"is_disabled":false,"rental_uris":{"android":"levelo://app?vid=b956592f-9d0d-4552-aa17-3112508dc48f","ios":"levelo://app?vid=b956592f-9d0d-4552-aa17-3112508dc48f"},"vehicle_type_id":"4","last_reported":1717704607,"current_range_meters":6800,"station_id":"ce4bgpp2rcd13ifvqc3g","pricing_plan_id":"cebpf4jnsgd1na2vs0mg"},{"bike_id":"1b178bae-57f4-41a9-aee9-2b17abbfa9c4","system_id":"levelo_inurba_marseille","lat":43.297163,"lon":5.365866,"is_reserved":false,"is_disabled":false,"rental_uris":{"android":"levelo://app?vid=1b178bae-57f4-41a9-aee9-2b17abbfa9c4","ios":"levelo://app?vid=1b178bae-57f4-41a9-aee9-2b17abbfa9c4"},"vehicle_type_id":"4","last_reported":1717704607,"current_range_meters":21200,"station_id":"ce4bgn12rcd13ifvqbt0","pricing_plan_id":"cebpf4jnsgd1na2vs0mg"},{"bike_id":"0ce47508-ddda-4a2d-bf26-bd59ba974675","system_id":"levelo_inurba_marseille","lat":43.2997,"lon":5.38096,"is_reserved":false,"is_disabled":false,"rental_uris":{"android":"levelo://app?vid=0ce47508-ddda-4a2d-bf26-bd59ba974675","ios":"levelo://app?vid=0ce47508-ddda-4a2d-bf26-bd59ba974675"},"vehicle_type_id":"4","last_reported":1717704607,"current_range_meters":6800,"station_id":"","pricing_plan_id":"cebpf4jnsgd1na2vs0mg"},{"bike_id":"e60c97e1-f38f-45d5-9043-a54782c8b056","system_id":"levelo_inurba_marseille","lat":43.29741,"lon":5.37645,"is_reserved":false,"is_disabled":false,"rental_uris":{"android":"levelo://app?vid=e60c97e1-f38f-45d5-9043-a54782c8b056","ios":"levelo://app?vid=e60c97e1-f38f-45d5-9043-a54782c8b056"},"vehicle_type_id":"4","last_reported":1717704607,"current_range_meters":24000,"station_id":"ce4bgkh2rcd13ifvqbl0","pricing_plan_id":"cebpf4jnsgd1na2vs0mg"},{"bike_id":"0630808b-b6d9-4138-8f3d-e0a6375eb3c1","system_id":"levelo_inurba_marseille","lat":43.32174,"lon":5.38669,"is_reserved":false,"is_disabled":false,"rental_uris":{"android":"levelo://app?vid=0630808b-b6d9-4138-8f3d-e0a6375eb3c1","ios":"levelo://app?vid=0630808b-b6d9-4138-8f3d-e0a6375eb3c1"},"vehicle_type_id":"4","last_reported":1717704607,"current_range_meters":6800,"station_id":"","pricing_plan_id":"cebpf4jnsgd1na2vs0mg"},{"bike_id":"77dfab8b-9de4-4645-a7d2-2df3da42dca3","system_id":"levelo_inurba_marseille","lat":43.297243,"lon":5.376623,"is_reserved":false,"is_disabled":false,"rental_uris":{"android":"levelo://app?vid=77dfab8b-9de4-4645-a7d2-2df3da42dca3","ios":"levelo://app?vid=77dfab8b-9de4-4645-a7d2-2df3da42dca3"},"vehicle_type_id":"4","last_reported":1717704607,"current_range_meters":23600,"station_id":"ce4bgkh2rcd13ifvqbl0","pricing_plan_id":"cebpf4jnsgd1na2vs0mg"},{"bike_id":"4bb1f987-37f2-460e-aa82-71392d23b970","system_id":"levelo_inurba_marseille","lat":43.296935,"lon":5.376544,"is_reserved":false,"is_disabled":false,"rental_uris":{"android":"levelo://app?vid=4bb1f987-37f2-460e-aa82-71392d23b970","ios":"levelo://app?vid=4bb1f987-37f2-460e-aa82-71392d23b970"},"vehicle_type_id":"4","last_reported":1717704607,"current_range_meters":13600,"station_id":"ce4bgkh2rcd13ifvqbl0","pricing_plan_id":"cebpf4jnsgd1na2vs0mg"},{"bike_id":"c0b0eae9-1561-4dab-8799-cc6a32416555","system_id":"levelo_inurba_marseille","lat":43.299028,"lon":5.381509,"is_reserved":false,"is_disabled":false,"rental_uris":{"android":"levelo://app?vid=c0b0eae9-1561-4dab-8799-cc6a32416555","ios":"levelo://app?vid=c0b0eae9-1561-4dab-8799-cc6a32416555"},"vehicle_type_id":"4","last_reported":1717704607,"current_range_meters":0,"station_id":"ce4bgj12rcd13ifvqbc0","pricing_plan_id":"cebpf4jnsgd1na2vs0mg"},{"bike_id":"c5af927f-8b9c-44fd-8055-c5062485b222","system_id":"levelo_inurba_marseille","lat":43.296935,"lon":5.376544,"is_reserved":false,"is_disabled":false,"rental_uris":{"android":"levelo://app?vid=c5af927f-8b9c-44fd-8055-c5062485b222","ios":"levelo://app?vid=c5af927f-8b9c-44fd-8055-c5062485b222"},"vehicle_type_id":"4","last_reported":1717704607,"current_range_meters":3200,"station_id":"ce4bgkh2rcd13ifvqbl0","pricing_plan_id":"cebpf4jnsgd1na2vs0mg"},{"bike_id":"36fab3c1-434b-4292-9f76-19f13716a6a2","system_id":"levelo_inurba_marseille","lat":43.309589,"lon":5.390258,"is_reserved":false,"is_disabled":false,"rental_uris":{"android":"levelo://app?vid=36fab3c1-434b-4292-9f76-19f13716a6a2","ios":"levelo://app?vid=36fab3c1-434b-4292-9f76-19f13716a6a2"},"vehicle_type_id":"4","last_reported":1717704607,"current_range_meters":3200,"station_id":"ce4bgup2rcd13ifvqco0","pricing_plan_id":"cebpf4jnsgd1na2vs0mg"},{"bike_id":"12dcc94a-73ca-42e6-a987-e1c86c38e9d7","system_id":"levelo_inurba_marseille","lat":43.299028,"lon":5.381509,"is_reserved":false,"is_disabled":false,"rental_uris":{"android":"levelo://app?vid=12dcc94a-73ca-42e6-a987-e1c86c38e9d7","ios":"levelo://app?vid=12dcc94a-73ca-42e6-a987-e1c86c38e9d7"},"vehicle_type_id":"4","last_reported":1717704607,"current_range_meters":15600,"station_id":"ce4bgj12rcd13ifvqbc0","pricing_plan_id":"cebpf4jnsgd1na2vs0mg"},{"bike_id":"e1f8a065-5ba3-41d1-a831-cb992194dc07","system_id":"levelo_inurba_marseille","lat":43.299028,"lon":5.381509,"is_reserved":false,"is_disabled":false,"rental_uris":{"android":"levelo://app?vid=e1f8a065-5ba3-41d1-a831-cb992194dc07","ios":"levelo://app?vid=e1f8a065-5ba3-41d1-a831-cb992194dc07"},"vehicle_type_id":"4","last_reported":1717704607,"current_range_meters":13600,"station_id":"ce4bgj12rcd13ifvqbc0","pricing_plan_id":"cebpf4jnsgd1na2vs0mg"},{"bike_id":"12ef160c-8ab0-4c6a-8694-185a0a01cdea","system_id":"levelo_inurba_marseille","lat":43.317557,"lon":5.390173,"is_reserved":false,"is_disabled":false,"rental_uris":{"android":"levelo://app?vid=12ef160c-8ab0-4c6a-8694-185a0a01cdea","ios":"levelo://app?vid=12ef160c-8ab0-4c6a-8694-185a0a01cdea"},"vehicle_type_id":"4","last_reported":1717704607,"current_range_meters":14800,"station_id":"ce4bhqp2rcd13ifvqhng","pricing_plan_id":"cebpf4jnsgd1na2vs0mg"},{"bike_id":"04b2a75e-030a-4d99-b1e6-9f12d93b9b7b","system_id":"levelo_inurba_marseille","lat":43.317557,"lon":5.390173,"is_reserved":false,"is_disabled":false,"rental_uris":{"android":"levelo://app?vid=04b2a75e-030a-4d99-b1e6-9f12d93b9b7b","ios":"levelo://app?vid=04b2a75e-030a-4d99-b1e6-9f12d93b9b7b"},"vehicle_type_id":"4","last_reported":1717704607,"current_range_meters":10400,"station_id":"ce4bhqp2rcd13ifvqhng","pricing_plan_id":"cebpf4jnsgd1na2vs0mg"},{"bike_id":"9eaa4c47-eb6b-43f1-8200-df857cb351b7","system_id":"levelo_inurba_marseille","lat":43.296921,"lon":5.376579,"is_reserved":false,"is_disabled":false,"rental_uris":{"android":"levelo://app?vid=9eaa4c47-eb6b-43f1-8200-df857cb351b7","ios":"levelo://app?vid=9eaa4c47-eb6b-43f1-8200-df857cb351b7"},"vehicle_type_id":"4","last_reported":1717704607,"current_range_meters":7600,"station_id":"ce4bgkh2rcd13ifvqbl0","pricing_plan_id":"cebpf4jnsgd1na2vs0mg"},{"bike_id":"27b5a94b-0bd4-408b-accc-51f3818c5d6b","system_id":"levelo_inurba_marseille","lat":43.317557,"lon":5.390173,"is_reserved":false,"is_disabled":false,"rental_uris":{"android":"levelo://app?vid=27b5a94b-0bd4-408b-accc-51f3818c5d6b","ios":"levelo://app?vid=27b5a94b-0bd4-408b-accc-51f3818c5d6b"},"vehicle_type_id":"4","last_reported":1717704607,"current_range_meters":29200,"station_id":"ce4bhqp2rcd13ifvqhng","pricing_plan_id":"cebpf4jnsgd1na2vs0mg"},{"bike_id":"e6db4a67-fcc5-4736-8553-9223114c4276","system_id":"levelo_inurba_marseille","lat":43.30444,"lon":5.38877,"is_reserved":false,"is_disabled":false,"rental_uris":{"android":"levelo://app?vid=e6db4a67-fcc5-4736-8553-9223114c4276","ios":"levelo://app?vid=e6db4a67-fcc5-4736-8553-9223114c4276"},"vehicle_type_id":"4","last_reported":1717704607,"current_range_meters":18000,"station_id":"ce4bgk12rcd13ifvqbi0","pricing_plan_id":"cebpf4jnsgd1na2vs0mg"},{"bike_id":"ce6039e4-e6b3-42a3-a62d-dc423e8f10ce","system_id":"levelo_inurba_marseille","lat":43.2969,"lon":5.378528,"is_reserved":false,"is_disabled":false,"rental_uris":{"android":"levelo://app?vid=ce6039e4-e6b3-42a3-a62d-dc423e8f10ce","ios":"levelo://app?vid=ce6039e4-e6b3-42a3-a62d-dc423e8f10ce"},"vehicle_type_id":"4","last_reported":1717704607,"current_range_meters":24800,"station_id":"ce4bgj92rcd13ifvqbd0","pricing_plan_id":"cebpf4jnsgd1na2vs0mg"},{"bike_id":"457d41f2-6b0f-4b33-a7d5-bd5ae839f872","system_id":"levelo_inurba_marseille","lat":43.29719,"lon":5.37946,"is_reserved":false,"is_disabled":false,"rental_uris":{"android":"levelo://app?vid=457d41f2-6b0f-4b33-a7d5-bd5ae839f872","ios":"levelo://app?vid=457d41f2-6b0f-4b33-a7d5-bd5ae839f872"},"vehicle_type_id":"4","last_reported":1717704607,"current_range_meters":8800,"station_id":"","pricing_plan_id":"cebpf4jnsgd1na2vs0mg"},{"bike_id":"e07a7f84-bc7e-4c0b-a831-a7c078fc7e8e","system_id":"levelo_inurba_marseille","lat":43.29478,"lon":5.36301,"is_reserved":false,"is_disabled":false,"rental_uris":{"android":"levelo://app?vid=e07a7f84-bc7e-4c0b-a831-a7c078fc7e8e","ios":"levelo://app?vid=e07a7f84-bc7e-4c0b-a831-a7c078fc7e8e"},"vehicle_type_id":"4","last_reported":1717704607,"current_range_meters":12800,"station_id":"","pricing_plan_id":"cebpf4jnsgd1na2vs0mg"},{"bike_id":"a564fcd3-19a1-4c15-9ca4-b958619b1b85","system_id":"levelo_inurba_marseille","lat":43.295279,"lon":5.375048,"is_reserved":false,"is_disabled":false,"rental_uris":{"android":"levelo://app?vid=a564fcd3-19a1-4c15-9ca4-b958619b1b85","ios":"levelo://app?vid=a564fcd3-19a1-4c15-9ca4-b958619b1b85"},"vehicle_type_id":"4","last_reported":1717704607,"current_range_meters":5200,"station_id":"ce4bgkp2rcd13ifvqbmg","pricing_plan_id":"cebpf4jnsgd1na2vs0mg"},{"bike_id":"a7624714-c565-4721-b8d2-8e45b0434041","system_id":"levelo_inurba_marseille","lat":43.295279,"lon":5.375048,"is_reserved":false,"is_disabled":false,"rental_uris":{"android":"levelo://app?vid=a7624714-c565-4721-b8d2-8e45b0434041","ios":"levelo://app?vid=a7624714-c565-4721-b8d2-8e45b0434041"},"vehicle_type_id":"4","last_reported":1717704607,"current_range_meters":0,"station_id":"ce4bgkp2rcd13ifvqbmg","pricing_plan_id":"cebpf4jnsgd1na2vs0mg"},{"bike_id":"657f2dd1-4631-4bde-9d0f-4a60de57cccd","system_id":"levelo_inurba_marseille","lat":43.295279,"lon":5.375048,"is_reserved":false,"is_disabled":false,"rental_uris":{"android":"levelo://app?vid=657f2dd1-4631-4bde-9d0f-4a60de57cccd","ios":"levelo://app?vid=657f2dd1-4631-4bde-9d0f-4a60de57cccd"},"vehicle_type_id":"4","last_reported":1717704607,"current_range_meters":25600,"station_id":"ce4bgkp2rcd13ifvqbmg","pricing_plan_id":"cebpf4jnsgd1na2vs0mg"},{"bike_id":"c420f4a6-7a22-4d43-8fee-aabbdbc82551","system_id":"levelo_inurba_marseille","lat":43.296263,"lon":5.377094,"is_reserved":false,"is_disabled":false,"rental_uris":{"android":"levelo://app?vid=c420f4a6-7a22-4d43-8fee-aabbdbc82551","ios":"levelo://app?vid=c420f4a6-7a22-4d43-8fee-aabbdbc82551"},"vehicle_type_id":"4","last_reported":1717704607,"current_range_meters":25200,"station_id":"ce4bgi92rcd13ifvqb90","pricing_plan_id":"cebpf4jnsgd1na2vs0mg"},{"bike_id":"f2c26839-492d-4541-9758-d79a932d931a","system_id":"levelo_inurba_marseille","lat":43.299724,"lon":5.384848,"is_reserved":false,"is_disabled":false,"rental_uris":{"android":"levelo://app?vid=f2c26839-492d-4541-9758-d79a932d931a","ios":"levelo://app?vid=f2c26839-492d-4541-9758-d79a932d931a"},"vehicle_type_id":"4","last_reported":1717704607,"current_range_meters":12800,"station_id":"ce4bgj92rcd13ifvqbd0","pricing_plan_id":"cebpf4jnsgd1na2vs0mg"},{"bike_id":"30d2ea15-6c60-4f87-b9ea-8587723f2f36","system_id":"levelo_inurba_marseille","lat":43.297103,"lon":5.381215,"is_reserved":false,"is_disabled":false,"rental_uris":{"android":"levelo://app?vid=30d2ea15-6c60-4f87-b9ea-8587723f2f36","ios":"levelo://app?vid=30d2ea15-6c60-4f87-b9ea-8587723f2f36"},"vehicle_type_id":"4","last_reported":1717704607,"current_range_meters":18000,"station_id":"","pricing_plan_id":"cebpf4jnsgd1na2vs0mg"},{"bike_id":"19d342c7-2ea9-4025-9245-e07e87c4375f","system_id":"levelo_inurba_marseille","lat":43.29451,"lon":5.37456,"is_reserved":false,"is_disabled":false,"rental_uris":{"android":"levelo://app?vid=19d342c7-2ea9-4025-9245-e07e87c4375f","ios":"levelo://app?vid=19d342c7-2ea9-4025-9245-e07e87c4375f"},"vehicle_type_id":"4","last_reported":1717704607,"current_range_meters":0,"station_id":"","pricing_plan_id":"cebpf4jnsgd1na2vs0mg"},{"bike_id":"bf70f2e5-e95f-4e7d-a389-2e65e5fc3122","system_id":"levelo_inurba_marseille","lat":43.30252,"lon":5.38918,"is_reserved":false,"is_disabled":false,"rental_uris":{"android":"levelo://app?vid=bf70f2e5-e95f-4e7d-a389-2e65e5fc3122","ios":"levelo://app?vid=bf70f2e5-e95f-4e7d-a389-2e65e5fc3122"},"vehicle_type_id":"4","last_reported":1717704607,"current_range_meters":20000,"station_id":"","pricing_plan_id":"cebpf4jnsgd1na2vs0mg"},{"bike_id":"140bf91a-95f0-4072-93d7-54f0344ac2cb","system_id":"levelo_inurba_marseille","lat":43.297237,"lon":5.382403,"is_reserved":false,"is_disabled":false,"rental_uris":{"android":"levelo://app?vid=140bf91a-95f0-4072-93d7-54f0344ac2cb","ios":"levelo://app?vid=140bf91a-95f0-4072-93d7-54f0344ac2cb"},"vehicle_type_id":"4","last_reported":1717704607,"current_range_meters":13200,"station_id":"","pricing_plan_id":"cebpf4jnsgd1na2vs0mg"},{"bike_id":"a7431d29-a66a-43ad-943a-bc790af8a4d9","system_id":"levelo_inurba_marseille","lat":43.302856,"lon":5.389509,"is_reserved":false,"is_disabled":false,"rental_uris":{"android":"levelo://app?vid=a7431d29-a66a-43ad-943a-bc790af8a4d9","ios":"levelo://app?vid=a7431d29-a66a-43ad-943a-bc790af8a4d9"},"vehicle_type_id":"4","last_reported":1717704607,"current_range_meters":10000,"station_id":"","pricing_plan_id":"cebpf4jnsgd1na2vs0mg"},{"bike_id":"1d431262-5c97-4bac-85c9-2d4689fa9eb6","system_id":"levelo_inurba_marseille","lat":43.32367,"lon":5.388836,"is_reserved":false,"is_disabled":false,"rental_uris":{"android":"levelo://app?vid=1d431262-5c97-4bac-85c9-2d4689fa9eb6","ios":"levelo://app?vid=1d431262-5c97-4bac-85c9-2d4689fa9eb6"},"vehicle_type_id":"4","last_reported":1717704607,"current_range_meters":6000,"station_id":"ce4bhqp2rcd13ifvqhog","pricing_plan_id":"cebpf4jnsgd1na2vs0mg"},{"bike_id":"1d17a19b-99bd-48dd-b035-6621cf88dda4","system_id":"levelo_inurba_marseille","lat":43.32367,"lon":5.38886,"is_reserved":false,"is_disabled":false,"rental_uris":{"android":"levelo://app?vid=1d17a19b-99bd-48dd-b035-6621cf88dda4","ios":"levelo://app?vid=1d17a19b-99bd-48dd-b035-6621cf88dda4"},"vehicle_type_id":"4","last_reported":1717704607,"current_range_meters":0,"station_id":"ce4bhqp2rcd13ifvqhog","pricing_plan_id":"cebpf4jnsgd1na2vs0mg"},{"bike_id":"18e2a8bf-9bb9-4a75-9a28-14556db92131","system_id":"levelo_inurba_marseille","lat":43.32367,"lon":5.388836,"is_reserved":false,"is_disabled":false,"rental_uris":{"android":"levelo://app?vid=18e2a8bf-9bb9-4a75-9a28-14556db92131","ios":"levelo://app?vid=18e2a8bf-9bb9-4a75-9a28-14556db92131"},"vehicle_type_id":"4","last_reported":1717704607,"current_range_meters":0,"station_id":"ce4bhqp2rcd13ifvqhog","pricing_plan_id":"cebpf4jnsgd1na2vs0mg"},{"bike_id":"e3e48f94-9c6c-4b98-a0e7-f0563e64f891","system_id":"levelo_inurba_marseille","lat":43.29602,"lon":5.381084,"is_reserved":false,"is_disabled":false,"rental_uris":{"android":"levelo://app?vid=e3e48f94-9c6c-4b98-a0e7-f0563e64f891","ios":"levelo://app?vid=e3e48f94-9c6c-4b98-a0e7-f0563e64f891"},"vehicle_type_id":"4","last_reported":1717704607,"current_range_meters":0,"station_id":"ce4bgl12rcd13ifvqbo0","pricing_plan_id":"cebpf4jnsgd1na2vs0mg"},{"bike_id":"05832d94-abaf-4e1d-9752-db742801987f","system_id":"levelo_inurba_marseille","lat":43.29601,"lon":5.381084,"is_reserved":false,"is_disabled":false,"rental_uris":{"android":"levelo://app?vid=05832d94-abaf-4e1d-9752-db742801987f","ios":"levelo://app?vid=05832d94-abaf-4e1d-9752-db742801987f"},"vehicle_type_id":"4","last_reported":1717704607,"current_range_meters":16000,"station_id":"ce4bgl12rcd13ifvqbo0","pricing_plan_id":"cebpf4jnsgd1na2vs0mg"},{"bike_id":"abf8d946-f0df-449b-94aa-4dbeb1dab093","system_id":"levelo_inurba_marseille","lat":43.29602,"lon":5.381084,"is_reserved":false,"is_disabled":false,"rental_uris":{"android":"levelo://app?vid=abf8d946-f0df-449b-94aa-4dbeb1dab093","ios":"levelo://app?vid=abf8d946-f0df-449b-94aa-4dbeb1dab093"},"vehicle_type_id":"4","last_reported":1717704607,"current_range_meters":25200,"station_id":"ce4bgl12rcd13ifvqbo0","pricing_plan_id":"cebpf4jnsgd1na2vs0mg"},{"bike_id":"f14cf460-9b18-434b-9fdd-80d64136e2a6","system_id":"levelo_inurba_marseille","lat":43.29602,"lon":5.381084,"is_reserved":false,"is_disabled":false,"rental_uris":{"android":"levelo://app?vid=f14cf460-9b18-434b-9fdd-80d64136e2a6","ios":"levelo://app?vid=f14cf460-9b18-434b-9fdd-80d64136e2a6"},"vehicle_type_id":"4","last_reported":1717704607,"current_range_meters":13200,"station_id":"ce4bgl12rcd13ifvqbo0","pricing_plan_id":"cebpf4jnsgd1na2vs0mg"},{"bike_id":"b1f2fd5b-c707-449d-9282-e1a34ee32d9d","system_id":"levelo_inurba_marseille","lat":43.29602,"lon":5.381084,"is_reserved":false,"is_disabled":false,"rental_uris":{"android":"levelo://app?vid=b1f2fd5b-c707-449d-9282-e1a34ee32d9d","ios":"levelo://app?vid=b1f2fd5b-c707-449d-9282-e1a34ee32d9d"},"vehicle_type_id":"4","last_reported":1717704607,"current_range_meters":23600,"station_id":"ce4bgl12rcd13ifvqbo0","pricing_plan_id":"cebpf4jnsgd1na2vs0mg"},{"bike_id":"90a43fba-d5ef-45b9-9856-c33f6111bd49","system_id":"levelo_inurba_marseille","lat":43.292749,"lon":5.368402,"is_reserved":false,"is_disabled":false,"rental_uris":{"android":"levelo://app?vid=90a43fba-d5ef-45b9-9856-c33f6111bd49","ios":"levelo://app?vid=90a43fba-d5ef-45b9-9856-c33f6111bd49"},"vehicle_type_id":"4","last_reported":1717704607,"current_range_meters":0,"station_id":"ce4bhbp2rcd13ifvqesg","pricing_plan_id":"cebpf4jnsgd1na2vs0mg"},{"bike_id":"c9851174-f902-4290-b558-bcf06ab5ad61","system_id":"levelo_inurba_marseille","lat":43.293259,"lon":5.371586,"is_reserved":false,"is_disabled":false,"rental_uris":{"android":"levelo://app?vid=c9851174-f902-4290-b558-bcf06ab5ad61","ios":"levelo://app?vid=c9851174-f902-4290-b558-bcf06ab5ad61"},"vehicle_type_id":"4","last_reported":1717704607,"current_range_meters":6400,"station_id":"ce4bgh92rcd13ifvqb40","pricing_plan_id":"cebpf4jnsgd1na2vs0mg"},{"bike_id":"d2411002-a310-428a-9028-39c7e476c63b","system_id":"levelo_inurba_marseille","lat":43.292749,"lon":5.368402,"is_reserved":false,"is_disabled":false,"rental_uris":{"android":"levelo://app?vid=d2411002-a310-428a-9028-39c7e476c63b","ios":"levelo://app?vid=d2411002-a310-428a-9028-39c7e476c63b"},"vehicle_type_id":"4","last_reported":1717704607,"current_range_meters":0,"station_id":"ce4bhbp2rcd13ifvqesg","pricing_plan_id":"cebpf4jnsgd1na2vs0mg"},{"bike_id":"dba54ba1-6f92-4e58-a102-71051dddb4c1","system_id":"levelo_inurba_marseille","lat":43.293259,"lon":5.371586,"is_reserved":false,"is_disabled":false,"rental_uris":{"android":"levelo://app?vid=dba54ba1-6f92-4e58-a102-71051dddb4c1","ios":"levelo://app?vid=dba54ba1-6f92-4e58-a102-71051dddb4c1"},"vehicle_type_id":"4","last_reported":1717704607,"current_range_meters":2400,"station_id":"ce4bgh92rcd13ifvqb40","pricing_plan_id":"cebpf4jnsgd1na2vs0mg"},{"bike_id":"0bdd1958-f61e-4dd5-9776-a77a084c30ee","system_id":"levelo_inurba_marseille","lat":43.293249,"lon":5.371578,"is_reserved":false,"is_disabled":false,"rental_uris":{"android":"levelo://app?vid=0bdd1958-f61e-4dd5-9776-a77a084c30ee","ios":"levelo://app?vid=0bdd1958-f61e-4dd5-9776-a77a084c30ee"},"vehicle_type_id":"4","last_reported":1717704607,"current_range_meters":3200,"station_id":"ce4bgh92rcd13ifvqb40","pricing_plan_id":"cebpf4jnsgd1na2vs0mg"},{"bike_id":"cd5db9e6-91ac-4c2a-8708-14c5d46a8776","system_id":"levelo_inurba_marseille","lat":43.292749,"lon":5.368429,"is_reserved":false,"is_disabled":false,"rental_uris":{"android":"levelo://app?vid=cd5db9e6-91ac-4c2a-8708-14c5d46a8776","ios":"levelo://app?vid=cd5db9e6-91ac-4c2a-8708-14c5d46a8776"},"vehicle_type_id":"4","last_reported":1717704607,"current_range_meters":0,"station_id":"ce4bhbp2rcd13ifvqesg","pricing_plan_id":"cebpf4jnsgd1na2vs0mg"},{"bike_id":"cc5e376a-9693-4536-a200-f532bf4d9246","system_id":"levelo_inurba_marseille","lat":43.29275,"lon":5.36849,"is_reserved":false,"is_disabled":false,"rental_uris":{"android":"levelo://app?vid=cc5e376a-9693-4536-a200-f532bf4d9246","ios":"levelo://app?vid=cc5e376a-9693-4536-a200-f532bf4d9246"},"vehicle_type_id":"4","last_reported":1717704607,"current_range_meters":0,"station_id":"ce4bhbp2rcd13ifvqesg","pricing_plan_id":"cebpf4jnsgd1na2vs0mg"},{"bike_id":"06afafa8-056e-4d18-be80-1025d5f8e692","system_id":"levelo_inurba_marseille","lat":43.292749,"lon":5.368398,"is_reserved":false,"is_disabled":false,"rental_uris":{"android":"levelo://app?vid=06afafa8-056e-4d18-be80-1025d5f8e692","ios":"levelo://app?vid=06afafa8-056e-4d18-be80-1025d5f8e692"},"vehicle_type_id":"4","last_reported":1717704607,"current_range_meters":0,"station_id":"ce4bhbp2rcd13ifvqesg","pricing_plan_id":"cebpf4jnsgd1na2vs0mg"},{"bike_id":"dc889adb-baad-4881-965b-2fd9ab1dccae","system_id":"levelo_inurba_marseille","lat":43.292701,"lon":5.368386,"is_reserved":false,"is_disabled":false,"rental_uris":{"android":"levelo://app?vid=dc889adb-baad-4881-965b-2fd9ab1dccae","ios":"levelo://app?vid=dc889adb-baad-4881-965b-2fd9ab1dccae"},"vehicle_type_id":"4","last_reported":1717704607,"current_range_meters":26000,"station_id":"ce4bhbp2rcd13ifvqesg","pricing_plan_id":"cebpf4jnsgd1na2vs0mg"},{"bike_id":"74d3ae8f-d40c-456f-abe5-79acc53f7b5c","system_id":"levelo_inurba_marseille","lat":43.293009,"lon":5.374584,"is_reserved":false,"is_disabled":false,"rental_uris":{"android":"levelo://app?vid=74d3ae8f-d40c-456f-abe5-79acc53f7b5c","ios":"levelo://app?vid=74d3ae8f-d40c-456f-abe5-79acc53f7b5c"},"vehicle_type_id":"4","last_reported":1717704607,"current_range_meters":400,"station_id":"ce4bgi12rcd13ifvqb70","pricing_plan_id":"cebpf4jnsgd1na2vs0mg"},{"bike_id":"2be74456-aa39-4935-87c8-c1e41a7e248d","system_id":"levelo_inurba_marseille","lat":43.290336,"lon":5.386425,"is_reserved":false,"is_disabled":false,"rental_uris":{"android":"levelo://app?vid=2be74456-aa39-4935-87c8-c1e41a7e248d","ios":"levelo://app?vid=2be74456-aa39-4935-87c8-c1e41a7e248d"},"vehicle_type_id":"4","last_reported":1717704607,"current_range_meters":17600,"station_id":"ce4bh4p2rcd13ifvqe0g","pricing_plan_id":"cebpf4jnsgd1na2vs0mg"},{"bike_id":"b95445e5-6a0d-4a0d-82d0-d9caed10b58c","system_id":"levelo_inurba_marseille","lat":43.293,"lon":5.37462,"is_reserved":false,"is_disabled":false,"rental_uris":{"android":"levelo://app?vid=b95445e5-6a0d-4a0d-82d0-d9caed10b58c","ios":"levelo://app?vid=b95445e5-6a0d-4a0d-82d0-d9caed10b58c"},"vehicle_type_id":"4","last_reported":1717704607,"current_range_meters":0,"station_id":"ce4bgi12rcd13ifvqb70","pricing_plan_id":"cebpf4jnsgd1na2vs0mg"},{"bike_id":"024a8b33-e13d-428b-9b36-077ab7442165","system_id":"levelo_inurba_marseille","lat":43.29296,"lon":5.37446,"is_reserved":false,"is_disabled":false,"rental_uris":{"android":"levelo://app?vid=024a8b33-e13d-428b-9b36-077ab7442165","ios":"levelo://app?vid=024a8b33-e13d-428b-9b36-077ab7442165"},"vehicle_type_id":"4","last_reported":1717704607,"current_range_meters":0,"station_id":"ce4bgi12rcd13ifvqb70","pricing_plan_id":"cebpf4jnsgd1na2vs0mg"},{"bike_id":"12e0b055-169a-4ba1-82c1-bcb5e82dba20","system_id":"levelo_inurba_marseille","lat":43.303002,"lon":5.392142,"is_reserved":false,"is_disabled":false,"rental_uris":{"android":"levelo://app?vid=12e0b055-169a-4ba1-82c1-bcb5e82dba20","ios":"levelo://app?vid=12e0b055-169a-4ba1-82c1-bcb5e82dba20"},"vehicle_type_id":"4","last_reported":1717704607,"current_range_meters":1200,"station_id":"ce4bgkh2rcd13ifvqbk0","pricing_plan_id":"cebpf4jnsgd1na2vs0mg"},{"bike_id":"4d8c3784-8d9d-4dcf-985a-617974b642b2","system_id":"levelo_inurba_marseille","lat":43.2936,"lon":5.37835,"is_reserved":false,"is_disabled":false,"rental_uris":{"android":"levelo://app?vid=4d8c3784-8d9d-4dcf-985a-617974b642b2","ios":"levelo://app?vid=4d8c3784-8d9d-4dcf-985a-617974b642b2"},"vehicle_type_id":"4","last_reported":1717704607,"current_range_meters":30800,"station_id":"ce4bgjh2rcd13ifvqbf0","pricing_plan_id":"cebpf4jnsgd1na2vs0mg"},{"bike_id":"89566120-2dc7-4a01-9ff7-88baa449f770","system_id":"levelo_inurba_marseille","lat":43.2936,"lon":5.37835,"is_reserved":false,"is_disabled":false,"rental_uris":{"android":"levelo://app?vid=89566120-2dc7-4a01-9ff7-88baa449f770","ios":"levelo://app?vid=89566120-2dc7-4a01-9ff7-88baa449f770"},"vehicle_type_id":"4","last_reported":1717704607,"current_range_meters":4800,"station_id":"ce4bgjh2rcd13ifvqbf0","pricing_plan_id":"cebpf4jnsgd1na2vs0mg"},{"bike_id":"05f18f78-41f2-4e38-a184-8b1eddbdcb15","system_id":"levelo_inurba_marseille","lat":43.30085,"lon":5.390856,"is_reserved":false,"is_disabled":false,"rental_uris":{"android":"levelo://app?vid=05f18f78-41f2-4e38-a184-8b1eddbdcb15","ios":"levelo://app?vid=05f18f78-41f2-4e38-a184-8b1eddbdcb15"},"vehicle_type_id":"4","last_reported":1717704607,"current_range_meters":26800,"station_id":"ce4bh192rcd13ifvqdb0","pricing_plan_id":"cebpf4jnsgd1na2vs0mg"},{"bike_id":"1b059657-def6-4d94-a274-14b50785ff88","system_id":"levelo_inurba_marseille","lat":43.29227,"lon":5.36078,"is_reserved":false,"is_disabled":false,"rental_uris":{"android":"levelo://app?vid=1b059657-def6-4d94-a274-14b50785ff88","ios":"levelo://app?vid=1b059657-def6-4d94-a274-14b50785ff88"},"vehicle_type_id":"4","last_reported":1717704607,"current_range_meters":26800,"station_id":"ce4bhbh2rcd13ifvqeqg","pricing_plan_id":"cebpf4jnsgd1na2vs0mg"},{"bike_id":"6cceabfb-4eec-41b8-8e46-4cbb5a8a5506","system_id":"levelo_inurba_marseille","lat":43.292311,"lon":5.360731,"is_reserved":false,"is_disabled":false,"rental_uris":{"android":"levelo://app?vid=6cceabfb-4eec-41b8-8e46-4cbb5a8a5506","ios":"levelo://app?vid=6cceabfb-4eec-41b8-8e46-4cbb5a8a5506"},"vehicle_type_id":"4","last_reported":1717704607,"current_range_meters":0,"station_id":"ce4bhbh2rcd13ifvqeqg","pricing_plan_id":"cebpf4jnsgd1na2vs0mg"},{"bike_id":"51090f3d-c212-4de3-8309-a6f6b8082057","system_id":"levelo_inurba_marseille","lat":43.29225,"lon":5.36057,"is_reserved":false,"is_disabled":false,"rental_uris":{"android":"levelo://app?vid=51090f3d-c212-4de3-8309-a6f6b8082057","ios":"levelo://app?vid=51090f3d-c212-4de3-8309-a6f6b8082057"},"vehicle_type_id":"4","last_reported":1717704607,"current_range_meters":0,"station_id":"ce4bhbh2rcd13ifvqeqg","pricing_plan_id":"cebpf4jnsgd1na2vs0mg"},{"bike_id":"4d4536bf-78c6-492d-98eb-85a52b858a10","system_id":"levelo_inurba_marseille","lat":43.292311,"lon":5.360731,"is_reserved":false,"is_disabled":false,"rental_uris":{"android":"levelo://app?vid=4d4536bf-78c6-492d-98eb-85a52b858a10","ios":"levelo://app?vid=4d4536bf-78c6-492d-98eb-85a52b858a10"},"vehicle_type_id":"4","last_reported":1717704607,"current_range_meters":0,"station_id":"ce4bhbh2rcd13ifvqeqg","pricing_plan_id":"cebpf4jnsgd1na2vs0mg"},{"bike_id":"d8ac03cf-6b35-47df-97d2-094c3071e37c","system_id":"levelo_inurba_marseille","lat":43.292311,"lon":5.360731,"is_reserved":false,"is_disabled":false,"rental_uris":{"android":"levelo://app?vid=d8ac03cf-6b35-47df-97d2-094c3071e37c","ios":"levelo://app?vid=d8ac03cf-6b35-47df-97d2-094c3071e37c"},"vehicle_type_id":"4","last_reported":1717704607,"current_range_meters":23200,"station_id":"ce4bhbh2rcd13ifvqeqg","pricing_plan_id":"cebpf4jnsgd1na2vs0mg"},{"bike_id":"125fa47a-d258-40c3-bddb-5aec4b5d807d","system_id":"levelo_inurba_marseille","lat":43.29215,"lon":5.36051,"is_reserved":false,"is_disabled":false,"rental_uris":{"android":"levelo://app?vid=125fa47a-d258-40c3-bddb-5aec4b5d807d","ios":"levelo://app?vid=125fa47a-d258-40c3-bddb-5aec4b5d807d"},"vehicle_type_id":"4","last_reported":1717704607,"current_range_meters":0,"station_id":"ce4bhbh2rcd13ifvqeqg","pricing_plan_id":"cebpf4jnsgd1na2vs0mg"},{"bike_id":"33aa000b-6e65-42c9-84db-da9249080e80","system_id":"levelo_inurba_marseille","lat":43.298764,"lon":5.388973,"is_reserved":false,"is_disabled":false,"rental_uris":{"android":"levelo://app?vid=33aa000b-6e65-42c9-84db-da9249080e80","ios":"levelo://app?vid=33aa000b-6e65-42c9-84db-da9249080e80"},"vehicle_type_id":"4","last_reported":1717704607,"current_range_meters":21600,"station_id":"ce4bh392rcd13ifvqdl0","pricing_plan_id":"cebpf4jnsgd1na2vs0mg"},{"bike_id":"8cc5dcc1-1e2c-4444-a51e-cf4b071450f1","system_id":"levelo_inurba_marseille","lat":43.30093,"lon":5.391095,"is_reserved":false,"is_disabled":false,"rental_uris":{"android":"levelo://app?vid=8cc5dcc1-1e2c-4444-a51e-cf4b071450f1","ios":"levelo://app?vid=8cc5dcc1-1e2c-4444-a51e-cf4b071450f1"},"vehicle_type_id":"4","last_reported":1717704607,"current_range_meters":27200,"station_id":"ce4bh192rcd13ifvqdb0","pricing_plan_id":"cebpf4jnsgd1na2vs0mg"},{"bike_id":"f8d4ba12-16ee-4144-84e5-24eb5abf4270","system_id":"levelo_inurba_marseille","lat":43.293167,"lon":5.378467,"is_reserved":false,"is_disabled":false,"rental_uris":{"android":"levelo://app?vid=f8d4ba12-16ee-4144-84e5-24eb5abf4270","ios":"levelo://app?vid=f8d4ba12-16ee-4144-84e5-24eb5abf4270"},"vehicle_type_id":"4","last_reported":1717704607,"current_range_meters":17600,"station_id":"ce4bgjh2rcd13ifvqbf0","pricing_plan_id":"cebpf4jnsgd1na2vs0mg"},{"bike_id":"97fd88ce-86e6-41ef-a94e-3021c549e885","system_id":"levelo_inurba_marseille","lat":43.298764,"lon":5.388973,"is_reserved":false,"is_disabled":false,"rental_uris":{"android":"levelo://app?vid=97fd88ce-86e6-41ef-a94e-3021c549e885","ios":"levelo://app?vid=97fd88ce-86e6-41ef-a94e-3021c549e885"},"vehicle_type_id":"4","last_reported":1717704607,"current_range_meters":10000,"station_id":"ce4bh392rcd13ifvqdl0","pricing_plan_id":"cebpf4jnsgd1na2vs0mg"},{"bike_id":"1bba31a1-ee2b-431a-af2b-94f6108be8c0","system_id":"levelo_inurba_marseille","lat":43.298764,"lon":5.388973,"is_reserved":false,"is_disabled":false,"rental_uris":{"android":"levelo://app?vid=1bba31a1-ee2b-431a-af2b-94f6108be8c0","ios":"levelo://app?vid=1bba31a1-ee2b-431a-af2b-94f6108be8c0"},"vehicle_type_id":"4","last_reported":1717704607,"current_range_meters":8400,"station_id":"ce4bh392rcd13ifvqdl0","pricing_plan_id":"cebpf4jnsgd1na2vs0mg"},{"bike_id":"45ba94b0-fefd-4121-ac4f-457672ee458c","system_id":"levelo_inurba_marseille","lat":43.298764,"lon":5.388973,"is_reserved":false,"is_disabled":false,"rental_uris":{"android":"levelo://app?vid=45ba94b0-fefd-4121-ac4f-457672ee458c","ios":"levelo://app?vid=45ba94b0-fefd-4121-ac4f-457672ee458c"},"vehicle_type_id":"4","last_reported":1717704607,"current_range_meters":0,"station_id":"ce4bh392rcd13ifvqdl0","pricing_plan_id":"cebpf4jnsgd1na2vs0mg"},{"bike_id":"1cc9cc69-9f7e-49f2-a031-89a2c3d16834","system_id":"levelo_inurba_marseille","lat":43.291675,"lon":5.371583,"is_reserved":false,"is_disabled":false,"rental_uris":{"android":"levelo://app?vid=1cc9cc69-9f7e-49f2-a031-89a2c3d16834","ios":"levelo://app?vid=1cc9cc69-9f7e-49f2-a031-89a2c3d16834"},"vehicle_type_id":"4","last_reported":1717704607,"current_range_meters":25600,"station_id":"ce4bha92rcd13ifvqeh0","pricing_plan_id":"cebpf4jnsgd1na2vs0mg"},{"bike_id":"9f866d4e-53cf-4887-ad7c-dcbf818f01b2","system_id":"levelo_inurba_marseille","lat":43.309038,"lon":5.396546,"is_reserved":false,"is_disabled":false,"rental_uris":{"android":"levelo://app?vid=9f866d4e-53cf-4887-ad7c-dcbf818f01b2","ios":"levelo://app?vid=9f866d4e-53cf-4887-ad7c-dcbf818f01b2"},"vehicle_type_id":"4","last_reported":1717704607,"current_range_meters":2000,"station_id":"ce4bh012rcd13ifvqcv0","pricing_plan_id":"cebpf4jnsgd1na2vs0mg"},{"bike_id":"164a7e9b-4f2c-4964-aebf-6c8f741c41ab","system_id":"levelo_inurba_marseille","lat":43.309038,"lon":5.396546,"is_reserved":false,"is_disabled":false,"rental_uris":{"android":"levelo://app?vid=164a7e9b-4f2c-4964-aebf-6c8f741c41ab","ios":"levelo://app?vid=164a7e9b-4f2c-4964-aebf-6c8f741c41ab"},"vehicle_type_id":"4","last_reported":1717704607,"current_range_meters":17600,"station_id":"ce4bh012rcd13ifvqcv0","pricing_plan_id":"cebpf4jnsgd1na2vs0mg"},{"bike_id":"cf50c8b5-b6ad-4486-bffa-1882e3313788","system_id":"levelo_inurba_marseille","lat":43.309038,"lon":5.396546,"is_reserved":false,"is_disabled":false,"rental_uris":{"android":"levelo://app?vid=cf50c8b5-b6ad-4486-bffa-1882e3313788","ios":"levelo://app?vid=cf50c8b5-b6ad-4486-bffa-1882e3313788"},"vehicle_type_id":"4","last_reported":1717704607,"current_range_meters":19200,"station_id":"ce4bh012rcd13ifvqcv0","pricing_plan_id":"cebpf4jnsgd1na2vs0mg"},{"bike_id":"b23ef93e-5876-4ce6-8343-1ac08351fd56","system_id":"levelo_inurba_marseille","lat":43.309038,"lon":5.396546,"is_reserved":false,"is_disabled":false,"rental_uris":{"android":"levelo://app?vid=b23ef93e-5876-4ce6-8343-1ac08351fd56","ios":"levelo://app?vid=b23ef93e-5876-4ce6-8343-1ac08351fd56"},"vehicle_type_id":"4","last_reported":1717704607,"current_range_meters":3600,"station_id":"ce4bh012rcd13ifvqcv0","pricing_plan_id":"cebpf4jnsgd1na2vs0mg"},{"bike_id":"55b6bdc5-c802-48cc-b2c6-5ed4ef7b3e6f","system_id":"levelo_inurba_marseille","lat":43.313257,"lon":5.396872,"is_reserved":false,"is_disabled":false,"rental_uris":{"android":"levelo://app?vid=55b6bdc5-c802-48cc-b2c6-5ed4ef7b3e6f","ios":"levelo://app?vid=55b6bdc5-c802-48cc-b2c6-5ed4ef7b3e6f"},"vehicle_type_id":"4","last_reported":1717704607,"current_range_meters":0,"station_id":"ce4bgvp2rcd13ifvqcu0","pricing_plan_id":"cebpf4jnsgd1na2vs0mg"},{"bike_id":"9a701fee-b013-400d-a890-981d483407af","system_id":"levelo_inurba_marseille","lat":43.30891,"lon":5.39642,"is_reserved":false,"is_disabled":false,"rental_uris":{"android":"levelo://app?vid=9a701fee-b013-400d-a890-981d483407af","ios":"levelo://app?vid=9a701fee-b013-400d-a890-981d483407af"},"vehicle_type_id":"4","last_reported":1717704607,"current_range_meters":0,"station_id":"ce4bh012rcd13ifvqcv0","pricing_plan_id":"cebpf4jnsgd1na2vs0mg"},{"bike_id":"77b47291-eedc-4670-a197-3f472d77df97","system_id":"levelo_inurba_marseille","lat":43.313291,"lon":5.396838,"is_reserved":false,"is_disabled":false,"rental_uris":{"android":"levelo://app?vid=77b47291-eedc-4670-a197-3f472d77df97","ios":"levelo://app?vid=77b47291-eedc-4670-a197-3f472d77df97"},"vehicle_type_id":"4","last_reported":1717704607,"current_range_meters":16400,"station_id":"ce4bgvp2rcd13ifvqcu0","pricing_plan_id":"cebpf4jnsgd1na2vs0mg"},{"bike_id":"69fad3a9-d534-4072-be42-bc97f6b23355","system_id":"levelo_inurba_marseille","lat":43.309038,"lon":5.396546,"is_reserved":false,"is_disabled":false,"rental_uris":{"android":"levelo://app?vid=69fad3a9-d534-4072-be42-bc97f6b23355","ios":"levelo://app?vid=69fad3a9-d534-4072-be42-bc97f6b23355"},"vehicle_type_id":"4","last_reported":1717704607,"current_range_meters":12000,"station_id":"ce4bh012rcd13ifvqcv0","pricing_plan_id":"cebpf4jnsgd1na2vs0mg"},{"bike_id":"db601dc2-7510-4be5-aad9-ec6af3942d80","system_id":"levelo_inurba_marseille","lat":43.309038,"lon":5.396546,"is_reserved":false,"is_disabled":false,"rental_uris":{"android":"levelo://app?vid=db601dc2-7510-4be5-aad9-ec6af3942d80","ios":"levelo://app?vid=db601dc2-7510-4be5-aad9-ec6af3942d80"},"vehicle_type_id":"4","last_reported":1717704607,"current_range_meters":26000,"station_id":"ce4bh012rcd13ifvqcv0","pricing_plan_id":"cebpf4jnsgd1na2vs0mg"},{"bike_id":"10673254-4533-49da-82c8-ca4ca86b52bc","system_id":"levelo_inurba_marseille","lat":43.309038,"lon":5.396546,"is_reserved":false,"is_disabled":false,"rental_uris":{"android":"levelo://app?vid=10673254-4533-49da-82c8-ca4ca86b52bc","ios":"levelo://app?vid=10673254-4533-49da-82c8-ca4ca86b52bc"},"vehicle_type_id":"4","last_reported":1717704607,"current_range_meters":0,"station_id":"ce4bh012rcd13ifvqcv0","pricing_plan_id":"cebpf4jnsgd1na2vs0mg"},{"bike_id":"bd35ac11-5a42-48e4-b724-982a709a87d7","system_id":"levelo_inurba_marseille","lat":43.309038,"lon":5.396546,"is_reserved":false,"is_disabled":false,"rental_uris":{"android":"levelo://app?vid=bd35ac11-5a42-48e4-b724-982a709a87d7","ios":"levelo://app?vid=bd35ac11-5a42-48e4-b724-982a709a87d7"},"vehicle_type_id":"4","last_reported":1717704607,"current_range_meters":10400,"station_id":"ce4bh012rcd13ifvqcv0","pricing_plan_id":"cebpf4jnsgd1na2vs0mg"},{"bike_id":"4d3c82a3-c6c6-4d5c-a61a-301f82f9bcdc","system_id":"levelo_inurba_marseille","lat":43.313291,"lon":5.396838,"is_reserved":false,"is_disabled":false,"rental_uris":{"android":"levelo://app?vid=4d3c82a3-c6c6-4d5c-a61a-301f82f9bcdc","ios":"levelo://app?vid=4d3c82a3-c6c6-4d5c-a61a-301f82f9bcdc"},"vehicle_type_id":"4","last_reported":1717704607,"current_range_meters":28000,"station_id":"ce4bgvp2rcd13ifvqcu0","pricing_plan_id":"cebpf4jnsgd1na2vs0mg"},{"bike_id":"ebb547ce-2ee3-403d-b770-3789bd77902a","system_id":"levelo_inurba_marseille","lat":43.313291,"lon":5.396838,"is_reserved":false,"is_disabled":false,"rental_uris":{"android":"levelo://app?vid=ebb547ce-2ee3-403d-b770-3789bd77902a","ios":"levelo://app?vid=ebb547ce-2ee3-403d-b770-3789bd77902a"},"vehicle_type_id":"4","last_reported":1717704607,"current_range_meters":2800,"station_id":"ce4bgvp2rcd13ifvqcu0","pricing_plan_id":"cebpf4jnsgd1na2vs0mg"},{"bike_id":"144d072a-826e-4ee6-8a7f-db1b11d71436","system_id":"levelo_inurba_marseille","lat":43.309038,"lon":5.396546,"is_reserved":false,"is_disabled":false,"rental_uris":{"android":"levelo://app?vid=144d072a-826e-4ee6-8a7f-db1b11d71436","ios":"levelo://app?vid=144d072a-826e-4ee6-8a7f-db1b11d71436"},"vehicle_type_id":"4","last_reported":1717704607,"current_range_meters":1200,"station_id":"ce4bh012rcd13ifvqcv0","pricing_plan_id":"cebpf4jnsgd1na2vs0mg"},{"bike_id":"ee8a4fde-c749-4664-8a08-03c520cf84ef","system_id":"levelo_inurba_marseille","lat":43.31331,"lon":5.39698,"is_reserved":false,"is_disabled":false,"rental_uris":{"android":"levelo://app?vid=ee8a4fde-c749-4664-8a08-03c520cf84ef","ios":"levelo://app?vid=ee8a4fde-c749-4664-8a08-03c520cf84ef"},"vehicle_type_id":"4","last_reported":1717704607,"current_range_meters":0,"station_id":"ce4bgvp2rcd13ifvqcu0","pricing_plan_id":"cebpf4jnsgd1na2vs0mg"},{"bike_id":"7fc19205-a3a1-45d3-8d3d-39a25e35c902","system_id":"levelo_inurba_marseille","lat":43.309038,"lon":5.396546,"is_reserved":false,"is_disabled":false,"rental_uris":{"android":"levelo://app?vid=7fc19205-a3a1-45d3-8d3d-39a25e35c902","ios":"levelo://app?vid=7fc19205-a3a1-45d3-8d3d-39a25e35c902"},"vehicle_type_id":"4","last_reported":1717704607,"current_range_meters":0,"station_id":"ce4bh012rcd13ifvqcv0","pricing_plan_id":"cebpf4jnsgd1na2vs0mg"},{"bike_id":"4d116458-4bfd-43ed-9673-ed852ab1b2ed","system_id":"levelo_inurba_marseille","lat":43.309038,"lon":5.396546,"is_reserved":false,"is_disabled":false,"rental_uris":{"android":"levelo://app?vid=4d116458-4bfd-43ed-9673-ed852ab1b2ed","ios":"levelo://app?vid=4d116458-4bfd-43ed-9673-ed852ab1b2ed"},"vehicle_type_id":"4","last_reported":1717704607,"current_range_meters":23200,"station_id":"ce4bh012rcd13ifvqcv0","pricing_plan_id":"cebpf4jnsgd1na2vs0mg"},{"bike_id":"8c42cbbb-c5ef-42e2-9277-2be95fbce8b3","system_id":"levelo_inurba_marseille","lat":43.29529,"lon":5.385581,"is_reserved":false,"is_disabled":false,"rental_uris":{"android":"levelo://app?vid=8c42cbbb-c5ef-42e2-9277-2be95fbce8b3","ios":"levelo://app?vid=8c42cbbb-c5ef-42e2-9277-2be95fbce8b3"},"vehicle_type_id":"4","last_reported":1717704607,"current_range_meters":10000,"station_id":"ce4bgih2rcd13ifvqba0","pricing_plan_id":"cebpf4jnsgd1na2vs0mg"},{"bike_id":"04f03585-0b51-4196-93ad-01687d5c04cf","system_id":"levelo_inurba_marseille","lat":43.29529,"lon":5.385581,"is_reserved":false,"is_disabled":false,"rental_uris":{"android":"levelo://app?vid=04f03585-0b51-4196-93ad-01687d5c04cf","ios":"levelo://app?vid=04f03585-0b51-4196-93ad-01687d5c04cf"},"vehicle_type_id":"4","last_reported":1717704607,"current_range_meters":22800,"station_id":"ce4bgih2rcd13ifvqba0","pricing_plan_id":"cebpf4jnsgd1na2vs0mg"},{"bike_id":"91f308d6-8fab-4ae9-893e-7168eb5944d1","system_id":"levelo_inurba_marseille","lat":43.29528,"lon":5.38538,"is_reserved":false,"is_disabled":false,"rental_uris":{"android":"levelo://app?vid=91f308d6-8fab-4ae9-893e-7168eb5944d1","ios":"levelo://app?vid=91f308d6-8fab-4ae9-893e-7168eb5944d1"},"vehicle_type_id":"4","last_reported":1717704607,"current_range_meters":29600,"station_id":"ce4bgih2rcd13ifvqba0","pricing_plan_id":"cebpf4jnsgd1na2vs0mg"},{"bike_id":"4a208077-a8f7-466b-aa2a-b92ce3120de9","system_id":"levelo_inurba_marseille","lat":43.29528,"lon":5.38539,"is_reserved":false,"is_disabled":false,"rental_uris":{"android":"levelo://app?vid=4a208077-a8f7-466b-aa2a-b92ce3120de9","ios":"levelo://app?vid=4a208077-a8f7-466b-aa2a-b92ce3120de9"},"vehicle_type_id":"4","last_reported":1717704607,"current_range_meters":10800,"station_id":"ce4bgih2rcd13ifvqba0","pricing_plan_id":"cebpf4jnsgd1na2vs0mg"},{"bike_id":"2e2b9085-bba9-4491-87fe-d6efb1ca821b","system_id":"levelo_inurba_marseille","lat":43.294753,"lon":5.38446,"is_reserved":false,"is_disabled":false,"rental_uris":{"android":"levelo://app?vid=2e2b9085-bba9-4491-87fe-d6efb1ca821b","ios":"levelo://app?vid=2e2b9085-bba9-4491-87fe-d6efb1ca821b"},"vehicle_type_id":"4","last_reported":1717704607,"current_range_meters":1600,"station_id":"","pricing_plan_id":"cebpf4jnsgd1na2vs0mg"},{"bike_id":"37c0d557-7446-4302-aadb-08225ef95198","system_id":"levelo_inurba_marseille","lat":43.29526,"lon":5.38542,"is_reserved":false,"is_disabled":false,"rental_uris":{"android":"levelo://app?vid=37c0d557-7446-4302-aadb-08225ef95198","ios":"levelo://app?vid=37c0d557-7446-4302-aadb-08225ef95198"},"vehicle_type_id":"4","last_reported":1717704607,"current_range_meters":18400,"station_id":"ce4bgih2rcd13ifvqba0","pricing_plan_id":"cebpf4jnsgd1na2vs0mg"},{"bike_id":"59f447b2-0adb-4c6c-bcdd-8a02cf8504dd","system_id":"levelo_inurba_marseille","lat":43.2953,"lon":5.38551,"is_reserved":false,"is_disabled":false,"rental_uris":{"android":"levelo://app?vid=59f447b2-0adb-4c6c-bcdd-8a02cf8504dd","ios":"levelo://app?vid=59f447b2-0adb-4c6c-bcdd-8a02cf8504dd"},"vehicle_type_id":"4","last_reported":1717704607,"current_range_meters":6000,"station_id":"ce4bgih2rcd13ifvqba0","pricing_plan_id":"cebpf4jnsgd1na2vs0mg"},{"bike_id":"36dbc341-7ef5-4797-9b85-98fea0a89d75","system_id":"levelo_inurba_marseille","lat":43.29525,"lon":5.38544,"is_reserved":false,"is_disabled":false,"rental_uris":{"android":"levelo://app?vid=36dbc341-7ef5-4797-9b85-98fea0a89d75","ios":"levelo://app?vid=36dbc341-7ef5-4797-9b85-98fea0a89d75"},"vehicle_type_id":"4","last_reported":1717704607,"current_range_meters":16800,"station_id":"ce4bgih2rcd13ifvqba0","pricing_plan_id":"cebpf4jnsgd1na2vs0mg"},{"bike_id":"65a7a11d-8734-4443-bf66-73e1b1abdee0","system_id":"levelo_inurba_marseille","lat":43.290779,"lon":5.371482,"is_reserved":false,"is_disabled":false,"rental_uris":{"android":"levelo://app?vid=65a7a11d-8734-4443-bf66-73e1b1abdee0","ios":"levelo://app?vid=65a7a11d-8734-4443-bf66-73e1b1abdee0"},"vehicle_type_id":"4","last_reported":1717704607,"current_range_meters":23200,"station_id":"ce4bh5p2rcd13ifvqe4g","pricing_plan_id":"cebpf4jnsgd1na2vs0mg"},{"bike_id":"0b74a26c-b58f-4606-b149-fc70e1c34017","system_id":"levelo_inurba_marseille","lat":43.290779,"lon":5.371482,"is_reserved":false,"is_disabled":false,"rental_uris":{"android":"levelo://app?vid=0b74a26c-b58f-4606-b149-fc70e1c34017","ios":"levelo://app?vid=0b74a26c-b58f-4606-b149-fc70e1c34017"},"vehicle_type_id":"4","last_reported":1717704607,"current_range_meters":16000,"station_id":"ce4bh5p2rcd13ifvqe4g","pricing_plan_id":"cebpf4jnsgd1na2vs0mg"},{"bike_id":"d99f5c39-ba87-498d-8891-ed42cd576f0e","system_id":"levelo_inurba_marseille","lat":43.294326,"lon":5.386136,"is_reserved":false,"is_disabled":false,"rental_uris":{"android":"levelo://app?vid=d99f5c39-ba87-498d-8891-ed42cd576f0e","ios":"levelo://app?vid=d99f5c39-ba87-498d-8891-ed42cd576f0e"},"vehicle_type_id":"4","last_reported":1717704607,"current_range_meters":9600,"station_id":"ce4bh2h2rcd13ifvqdh0","pricing_plan_id":"cebpf4jnsgd1na2vs0mg"},{"bike_id":"3d559bf9-2e0a-4caa-9d0a-c22d31e386a4","system_id":"levelo_inurba_marseille","lat":43.294153,"lon":5.386305,"is_reserved":false,"is_disabled":false,"rental_uris":{"android":"levelo://app?vid=3d559bf9-2e0a-4caa-9d0a-c22d31e386a4","ios":"levelo://app?vid=3d559bf9-2e0a-4caa-9d0a-c22d31e386a4"},"vehicle_type_id":"4","last_reported":1717704607,"current_range_meters":1600,"station_id":"ce4bh2h2rcd13ifvqdh0","pricing_plan_id":"cebpf4jnsgd1na2vs0mg"},{"bike_id":"336fc8de-4666-44a6-b5f3-23ca1767afc7","system_id":"levelo_inurba_marseille","lat":43.290327,"lon":5.375711,"is_reserved":false,"is_disabled":false,"rental_uris":{"android":"levelo://app?vid=336fc8de-4666-44a6-b5f3-23ca1767afc7","ios":"levelo://app?vid=336fc8de-4666-44a6-b5f3-23ca1767afc7"},"vehicle_type_id":"4","last_reported":1717704607,"current_range_meters":11600,"station_id":"ce4bh692rcd13ifvqe90","pricing_plan_id":"cebpf4jnsgd1na2vs0mg"},{"bike_id":"230c9ae6-c067-4c25-a2f7-b4618c66a5f2","system_id":"levelo_inurba_marseille","lat":43.294153,"lon":5.386305,"is_reserved":false,"is_disabled":false,"rental_uris":{"android":"levelo://app?vid=230c9ae6-c067-4c25-a2f7-b4618c66a5f2","ios":"levelo://app?vid=230c9ae6-c067-4c25-a2f7-b4618c66a5f2"},"vehicle_type_id":"4","last_reported":1717704607,"current_range_meters":31600,"station_id":"ce4bh2h2rcd13ifvqdh0","pricing_plan_id":"cebpf4jnsgd1na2vs0mg"},{"bike_id":"cef1599b-616c-4fff-843a-64bd8010b106","system_id":"levelo_inurba_marseille","lat":43.294153,"lon":5.386305,"is_reserved":false,"is_disabled":false,"rental_uris":{"android":"levelo://app?vid=cef1599b-616c-4fff-843a-64bd8010b106","ios":"levelo://app?vid=cef1599b-616c-4fff-843a-64bd8010b106"},"vehicle_type_id":"4","last_reported":1717704607,"current_range_meters":25200,"station_id":"ce4bh2h2rcd13ifvqdh0","pricing_plan_id":"cebpf4jnsgd1na2vs0mg"},{"bike_id":"2184b335-ba54-432f-827e-eed81215896c","system_id":"levelo_inurba_marseille","lat":43.294153,"lon":5.386305,"is_reserved":false,"is_disabled":false,"rental_uris":{"android":"levelo://app?vid=2184b335-ba54-432f-827e-eed81215896c","ios":"levelo://app?vid=2184b335-ba54-432f-827e-eed81215896c"},"vehicle_type_id":"4","last_reported":1717704607,"current_range_meters":28000,"station_id":"ce4bh2h2rcd13ifvqdh0","pricing_plan_id":"cebpf4jnsgd1na2vs0mg"},{"bike_id":"99ceba3c-3867-4d7c-a12b-59b289cf6a41","system_id":"levelo_inurba_marseille","lat":43.294153,"lon":5.386305,"is_reserved":false,"is_disabled":false,"rental_uris":{"android":"levelo://app?vid=99ceba3c-3867-4d7c-a12b-59b289cf6a41","ios":"levelo://app?vid=99ceba3c-3867-4d7c-a12b-59b289cf6a41"},"vehicle_type_id":"4","last_reported":1717704607,"current_range_meters":0,"station_id":"ce4bh2h2rcd13ifvqdh0","pricing_plan_id":"cebpf4jnsgd1na2vs0mg"},{"bike_id":"9c3ac69f-aaab-45b2-b7ce-fd2a00dcca12","system_id":"levelo_inurba_marseille","lat":43.29416,"lon":5.38623,"is_reserved":false,"is_disabled":false,"rental_uris":{"android":"levelo://app?vid=9c3ac69f-aaab-45b2-b7ce-fd2a00dcca12","ios":"levelo://app?vid=9c3ac69f-aaab-45b2-b7ce-fd2a00dcca12"},"vehicle_type_id":"4","last_reported":1717704607,"current_range_meters":8000,"station_id":"ce4bh2h2rcd13ifvqdh0","pricing_plan_id":"cebpf4jnsgd1na2vs0mg"},{"bike_id":"6ab5b747-7b69-47ae-ad0e-31f157708d86","system_id":"levelo_inurba_marseille","lat":43.294153,"lon":5.386305,"is_reserved":false,"is_disabled":false,"rental_uris":{"android":"levelo://app?vid=6ab5b747-7b69-47ae-ad0e-31f157708d86","ios":"levelo://app?vid=6ab5b747-7b69-47ae-ad0e-31f157708d86"},"vehicle_type_id":"4","last_reported":1717704607,"current_range_meters":12800,"station_id":"ce4bh2h2rcd13ifvqdh0","pricing_plan_id":"cebpf4jnsgd1na2vs0mg"},{"bike_id":"ed461bbd-a6a5-4913-b0e2-86b176c66397","system_id":"levelo_inurba_marseille","lat":43.294162,"lon":5.386292,"is_reserved":false,"is_disabled":false,"rental_uris":{"android":"levelo://app?vid=ed461bbd-a6a5-4913-b0e2-86b176c66397","ios":"levelo://app?vid=ed461bbd-a6a5-4913-b0e2-86b176c66397"},"vehicle_type_id":"4","last_reported":1717704607,"current_range_meters":4800,"station_id":"ce4bh2h2rcd13ifvqdh0","pricing_plan_id":"cebpf4jnsgd1na2vs0mg"},{"bike_id":"981e0766-08d1-41b0-a14d-90928edf404b","system_id":"levelo_inurba_marseille","lat":43.29416,"lon":5.38629,"is_reserved":false,"is_disabled":false,"rental_uris":{"android":"levelo://app?vid=981e0766-08d1-41b0-a14d-90928edf404b","ios":"levelo://app?vid=981e0766-08d1-41b0-a14d-90928edf404b"},"vehicle_type_id":"4","last_reported":1717704607,"current_range_meters":8800,"station_id":"ce4bh2h2rcd13ifvqdh0","pricing_plan_id":"cebpf4jnsgd1na2vs0mg"},{"bike_id":"c402639e-a543-4919-8c3a-4fa18ea35c7a","system_id":"levelo_inurba_marseille","lat":43.28941,"lon":5.36631,"is_reserved":false,"is_disabled":false,"rental_uris":{"android":"levelo://app?vid=c402639e-a543-4919-8c3a-4fa18ea35c7a","ios":"levelo://app?vid=c402639e-a543-4919-8c3a-4fa18ea35c7a"},"vehicle_type_id":"4","last_reported":1717704607,"current_range_meters":31200,"station_id":"ce4bhap2rcd13ifvqek0","pricing_plan_id":"cebpf4jnsgd1na2vs0mg"},{"bike_id":"a4ca4219-3a90-4a67-ac58-18db0fc19c19","system_id":"levelo_inurba_marseille","lat":43.289184,"lon":5.366408,"is_reserved":false,"is_disabled":false,"rental_uris":{"android":"levelo://app?vid=a4ca4219-3a90-4a67-ac58-18db0fc19c19","ios":"levelo://app?vid=a4ca4219-3a90-4a67-ac58-18db0fc19c19"},"vehicle_type_id":"4","last_reported":1717704607,"current_range_meters":31200,"station_id":"ce4bhap2rcd13ifvqek0","pricing_plan_id":"cebpf4jnsgd1na2vs0mg"},{"bike_id":"617e2ba3-3775-44ce-b325-102f3ca202bd","system_id":"levelo_inurba_marseille","lat":43.289184,"lon":5.366408,"is_reserved":false,"is_disabled":false,"rental_uris":{"android":"levelo://app?vid=617e2ba3-3775-44ce-b325-102f3ca202bd","ios":"levelo://app?vid=617e2ba3-3775-44ce-b325-102f3ca202bd"},"vehicle_type_id":"4","last_reported":1717704607,"current_range_meters":13600,"station_id":"ce4bhap2rcd13ifvqek0","pricing_plan_id":"cebpf4jnsgd1na2vs0mg"},{"bike_id":"88720920-620b-4369-ab4d-b111cebfe5b5","system_id":"levelo_inurba_marseille","lat":43.289184,"lon":5.366408,"is_reserved":false,"is_disabled":false,"rental_uris":{"android":"levelo://app?vid=88720920-620b-4369-ab4d-b111cebfe5b5","ios":"levelo://app?vid=88720920-620b-4369-ab4d-b111cebfe5b5"},"vehicle_type_id":"4","last_reported":1717704607,"current_range_meters":6800,"station_id":"ce4bhap2rcd13ifvqek0","pricing_plan_id":"cebpf4jnsgd1na2vs0mg"},{"bike_id":"3fe302e0-fc25-412a-b489-4b56351cc769","system_id":"levelo_inurba_marseille","lat":43.289184,"lon":5.366408,"is_reserved":false,"is_disabled":false,"rental_uris":{"android":"levelo://app?vid=3fe302e0-fc25-412a-b489-4b56351cc769","ios":"levelo://app?vid=3fe302e0-fc25-412a-b489-4b56351cc769"},"vehicle_type_id":"4","last_reported":1717704607,"current_range_meters":13600,"station_id":"ce4bhap2rcd13ifvqek0","pricing_plan_id":"cebpf4jnsgd1na2vs0mg"},{"bike_id":"af8ac691-85e8-4622-ace5-173b6d4b7e66","system_id":"levelo_inurba_marseille","lat":43.289184,"lon":5.366408,"is_reserved":false,"is_disabled":false,"rental_uris":{"android":"levelo://app?vid=af8ac691-85e8-4622-ace5-173b6d4b7e66","ios":"levelo://app?vid=af8ac691-85e8-4622-ace5-173b6d4b7e66"},"vehicle_type_id":"4","last_reported":1717704607,"current_range_meters":31200,"station_id":"ce4bhap2rcd13ifvqek0","pricing_plan_id":"cebpf4jnsgd1na2vs0mg"},{"bike_id":"fad369a0-5a24-4df5-aae6-dd12aac4ef75","system_id":"levelo_inurba_marseille","lat":43.289184,"lon":5.366408,"is_reserved":false,"is_disabled":false,"rental_uris":{"android":"levelo://app?vid=fad369a0-5a24-4df5-aae6-dd12aac4ef75","ios":"levelo://app?vid=fad369a0-5a24-4df5-aae6-dd12aac4ef75"},"vehicle_type_id":"4","last_reported":1717704607,"current_range_meters":27600,"station_id":"ce4bhap2rcd13ifvqek0","pricing_plan_id":"cebpf4jnsgd1na2vs0mg"},{"bike_id":"5ef77651-7ef0-47d2-8fec-d577909d785f","system_id":"levelo_inurba_marseille","lat":43.289184,"lon":5.366408,"is_reserved":false,"is_disabled":false,"rental_uris":{"android":"levelo://app?vid=5ef77651-7ef0-47d2-8fec-d577909d785f","ios":"levelo://app?vid=5ef77651-7ef0-47d2-8fec-d577909d785f"},"vehicle_type_id":"4","last_reported":1717704607,"current_range_meters":10400,"station_id":"ce4bhap2rcd13ifvqek0","pricing_plan_id":"cebpf4jnsgd1na2vs0mg"},{"bike_id":"91e32c33-5663-498a-a84e-6a814c503003","system_id":"levelo_inurba_marseille","lat":43.289184,"lon":5.366408,"is_reserved":false,"is_disabled":false,"rental_uris":{"android":"levelo://app?vid=91e32c33-5663-498a-a84e-6a814c503003","ios":"levelo://app?vid=91e32c33-5663-498a-a84e-6a814c503003"},"vehicle_type_id":"4","last_reported":1717704607,"current_range_meters":31200,"station_id":"ce4bhap2rcd13ifvqek0","pricing_plan_id":"cebpf4jnsgd1na2vs0mg"},{"bike_id":"a4a296e4-c5b4-4469-81ef-42585b7c057c","system_id":"levelo_inurba_marseille","lat":43.289184,"lon":5.366408,"is_reserved":false,"is_disabled":false,"rental_uris":{"android":"levelo://app?vid=a4a296e4-c5b4-4469-81ef-42585b7c057c","ios":"levelo://app?vid=a4a296e4-c5b4-4469-81ef-42585b7c057c"},"vehicle_type_id":"4","last_reported":1717704607,"current_range_meters":16400,"station_id":"ce4bhap2rcd13ifvqek0","pricing_plan_id":"cebpf4jnsgd1na2vs0mg"},{"bike_id":"81d82830-bcf4-4d15-ab21-825d197a33e6","system_id":"levelo_inurba_marseille","lat":43.289468,"lon":5.363719,"is_reserved":false,"is_disabled":false,"rental_uris":{"android":"levelo://app?vid=81d82830-bcf4-4d15-ab21-825d197a33e6","ios":"levelo://app?vid=81d82830-bcf4-4d15-ab21-825d197a33e6"},"vehicle_type_id":"4","last_reported":1717704607,"current_range_meters":5600,"station_id":"ce4bhc92rcd13ifvqetg","pricing_plan_id":"cebpf4jnsgd1na2vs0mg"},{"bike_id":"b9c789c6-b347-40b1-961c-31912b4b6892","system_id":"levelo_inurba_marseille","lat":43.289184,"lon":5.366408,"is_reserved":false,"is_disabled":false,"rental_uris":{"android":"levelo://app?vid=b9c789c6-b347-40b1-961c-31912b4b6892","ios":"levelo://app?vid=b9c789c6-b347-40b1-961c-31912b4b6892"},"vehicle_type_id":"4","last_reported":1717704607,"current_range_meters":11200,"station_id":"ce4bhap2rcd13ifvqek0","pricing_plan_id":"cebpf4jnsgd1na2vs0mg"},{"bike_id":"1dfb018e-7a88-4208-9773-afc7a117c8f5","system_id":"levelo_inurba_marseille","lat":43.289184,"lon":5.366408,"is_reserved":false,"is_disabled":false,"rental_uris":{"android":"levelo://app?vid=1dfb018e-7a88-4208-9773-afc7a117c8f5","ios":"levelo://app?vid=1dfb018e-7a88-4208-9773-afc7a117c8f5"},"vehicle_type_id":"4","last_reported":1717704607,"current_range_meters":31200,"station_id":"ce4bhap2rcd13ifvqek0","pricing_plan_id":"cebpf4jnsgd1na2vs0mg"},{"bike_id":"9899478f-1cad-4af2-8592-860a99f63036","system_id":"levelo_inurba_marseille","lat":43.289184,"lon":5.366408,"is_reserved":false,"is_disabled":false,"rental_uris":{"android":"levelo://app?vid=9899478f-1cad-4af2-8592-860a99f63036","ios":"levelo://app?vid=9899478f-1cad-4af2-8592-860a99f63036"},"vehicle_type_id":"4","last_reported":1717704607,"current_range_meters":20400,"station_id":"ce4bhap2rcd13ifvqek0","pricing_plan_id":"cebpf4jnsgd1na2vs0mg"},{"bike_id":"1ce8c515-ba09-4412-a533-379ef47b852b","system_id":"levelo_inurba_marseille","lat":43.28933,"lon":5.36644,"is_reserved":false,"is_disabled":false,"rental_uris":{"android":"levelo://app?vid=1ce8c515-ba09-4412-a533-379ef47b852b","ios":"levelo://app?vid=1ce8c515-ba09-4412-a533-379ef47b852b"},"vehicle_type_id":"4","last_reported":1717704607,"current_range_meters":12800,"station_id":"ce4bhap2rcd13ifvqek0","pricing_plan_id":"cebpf4jnsgd1na2vs0mg"},{"bike_id":"23a9dfa0-72b2-4207-b512-ca33fbe607e4","system_id":"levelo_inurba_marseille","lat":43.289184,"lon":5.366408,"is_reserved":false,"is_disabled":false,"rental_uris":{"android":"levelo://app?vid=23a9dfa0-72b2-4207-b512-ca33fbe607e4","ios":"levelo://app?vid=23a9dfa0-72b2-4207-b512-ca33fbe607e4"},"vehicle_type_id":"4","last_reported":1717704607,"current_range_meters":31200,"station_id":"ce4bhap2rcd13ifvqek0","pricing_plan_id":"cebpf4jnsgd1na2vs0mg"},{"bike_id":"ca1ae21a-a56a-4e72-bbea-27c033050639","system_id":"levelo_inurba_marseille","lat":43.289468,"lon":5.363719,"is_reserved":false,"is_disabled":false,"rental_uris":{"android":"levelo://app?vid=ca1ae21a-a56a-4e72-bbea-27c033050639","ios":"levelo://app?vid=ca1ae21a-a56a-4e72-bbea-27c033050639"},"vehicle_type_id":"4","last_reported":1717704607,"current_range_meters":5200,"station_id":"ce4bhc92rcd13ifvqetg","pricing_plan_id":"cebpf4jnsgd1na2vs0mg"},{"bike_id":"e575de72-bbfa-41c8-b29e-5bd3b86ab0a2","system_id":"levelo_inurba_marseille","lat":43.289468,"lon":5.363719,"is_reserved":false,"is_disabled":false,"rental_uris":{"android":"levelo://app?vid=e575de72-bbfa-41c8-b29e-5bd3b86ab0a2","ios":"levelo://app?vid=e575de72-bbfa-41c8-b29e-5bd3b86ab0a2"},"vehicle_type_id":"4","last_reported":1717704607,"current_range_meters":18000,"station_id":"ce4bhc92rcd13ifvqetg","pricing_plan_id":"cebpf4jnsgd1na2vs0mg"},{"bike_id":"a6cc2eaa-08e7-4935-a9cb-1a271b603ace","system_id":"levelo_inurba_marseille","lat":43.292644,"lon":5.384257,"is_reserved":false,"is_disabled":false,"rental_uris":{"android":"levelo://app?vid=a6cc2eaa-08e7-4935-a9cb-1a271b603ace","ios":"levelo://app?vid=a6cc2eaa-08e7-4935-a9cb-1a271b603ace"},"vehicle_type_id":"4","last_reported":1717704607,"current_range_meters":28800,"station_id":"ce4bh692rcd13ifvqea0","pricing_plan_id":"cebpf4jnsgd1na2vs0mg"},{"bike_id":"49433fa8-6bf1-434a-9359-c700f266facf","system_id":"levelo_inurba_marseille","lat":43.292644,"lon":5.384257,"is_reserved":false,"is_disabled":false,"rental_uris":{"android":"levelo://app?vid=49433fa8-6bf1-434a-9359-c700f266facf","ios":"levelo://app?vid=49433fa8-6bf1-434a-9359-c700f266facf"},"vehicle_type_id":"4","last_reported":1717704607,"current_range_meters":12400,"station_id":"ce4bh692rcd13ifvqea0","pricing_plan_id":"cebpf4jnsgd1na2vs0mg"},{"bike_id":"e2147445-80d7-482e-bbe6-22001511e30f","system_id":"levelo_inurba_marseille","lat":43.29573,"lon":5.367355,"is_reserved":false,"is_disabled":false,"rental_uris":{"android":"levelo://app?vid=e2147445-80d7-482e-bbe6-22001511e30f","ios":"levelo://app?vid=e2147445-80d7-482e-bbe6-22001511e30f"},"vehicle_type_id":"4","last_reported":1717704607,"current_range_meters":6800,"station_id":"ce4bgph2rcd13ifvqc2g","pricing_plan_id":"cebpf4jnsgd1na2vs0mg"},{"bike_id":"f6078a44-b1b7-4318-b7f8-9b0b4be039fa","system_id":"levelo_inurba_marseille","lat":43.292642,"lon":5.384254,"is_reserved":false,"is_disabled":false,"rental_uris":{"android":"levelo://app?vid=f6078a44-b1b7-4318-b7f8-9b0b4be039fa","ios":"levelo://app?vid=f6078a44-b1b7-4318-b7f8-9b0b4be039fa"},"vehicle_type_id":"4","last_reported":1717704607,"current_range_meters":2000,"station_id":"ce4bh692rcd13ifvqea0","pricing_plan_id":"cebpf4jnsgd1na2vs0mg"},{"bike_id":"efc94732-54f0-4a0d-aa39-cfd17b5ffa0b","system_id":"levelo_inurba_marseille","lat":43.304274,"lon":5.397513,"is_reserved":false,"is_disabled":false,"rental_uris":{"android":"levelo://app?vid=efc94732-54f0-4a0d-aa39-cfd17b5ffa0b","ios":"levelo://app?vid=efc94732-54f0-4a0d-aa39-cfd17b5ffa0b"},"vehicle_type_id":"4","last_reported":1717704607,"current_range_meters":19200,"station_id":"ce4bh092rcd13ifvqd20","pricing_plan_id":"cebpf4jnsgd1na2vs0mg"},{"bike_id":"021a8b3d-7e6e-451b-963e-9c4ad0d36965","system_id":"levelo_inurba_marseille","lat":43.292642,"lon":5.384254,"is_reserved":false,"is_disabled":false,"rental_uris":{"android":"levelo://app?vid=021a8b3d-7e6e-451b-963e-9c4ad0d36965","ios":"levelo://app?vid=021a8b3d-7e6e-451b-963e-9c4ad0d36965"},"vehicle_type_id":"4","last_reported":1717704607,"current_range_meters":0,"station_id":"ce4bh692rcd13ifvqea0","pricing_plan_id":"cebpf4jnsgd1na2vs0mg"},{"bike_id":"d4f26ea9-0145-4f31-b867-ee9478201ccb","system_id":"levelo_inurba_marseille","lat":43.304274,"lon":5.397513,"is_reserved":false,"is_disabled":false,"rental_uris":{"android":"levelo://app?vid=d4f26ea9-0145-4f31-b867-ee9478201ccb","ios":"levelo://app?vid=d4f26ea9-0145-4f31-b867-ee9478201ccb"},"vehicle_type_id":"4","last_reported":1717704607,"current_range_meters":4400,"station_id":"ce4bh092rcd13ifvqd20","pricing_plan_id":"cebpf4jnsgd1na2vs0mg"},{"bike_id":"f3b805de-960e-439e-b6eb-64ad6263ea1b","system_id":"levelo_inurba_marseille","lat":43.292644,"lon":5.384257,"is_reserved":false,"is_disabled":false,"rental_uris":{"android":"levelo://app?vid=f3b805de-960e-439e-b6eb-64ad6263ea1b","ios":"levelo://app?vid=f3b805de-960e-439e-b6eb-64ad6263ea1b"},"vehicle_type_id":"4","last_reported":1717704607,"current_range_meters":0,"station_id":"ce4bh692rcd13ifvqea0","pricing_plan_id":"cebpf4jnsgd1na2vs0mg"},{"bike_id":"f558d76a-d09a-41c8-b334-ae3c75abdb1a","system_id":"levelo_inurba_marseille","lat":43.292642,"lon":5.384254,"is_reserved":false,"is_disabled":false,"rental_uris":{"android":"levelo://app?vid=f558d76a-d09a-41c8-b334-ae3c75abdb1a","ios":"levelo://app?vid=f558d76a-d09a-41c8-b334-ae3c75abdb1a"},"vehicle_type_id":"4","last_reported":1717704607,"current_range_meters":800,"station_id":"ce4bh692rcd13ifvqea0","pricing_plan_id":"cebpf4jnsgd1na2vs0mg"},{"bike_id":"922a6b0f-9f5c-447c-abcc-b85946e1a54f","system_id":"levelo_inurba_marseille","lat":43.30425,"lon":5.39747,"is_reserved":false,"is_disabled":false,"rental_uris":{"android":"levelo://app?vid=922a6b0f-9f5c-447c-abcc-b85946e1a54f","ios":"levelo://app?vid=922a6b0f-9f5c-447c-abcc-b85946e1a54f"},"vehicle_type_id":"4","last_reported":1717704607,"current_range_meters":14000,"station_id":"ce4bh092rcd13ifvqd20","pricing_plan_id":"cebpf4jnsgd1na2vs0mg"},{"bike_id":"5ccb3f0e-4333-4391-8d7e-0eaa8594266b","system_id":"levelo_inurba_marseille","lat":43.292644,"lon":5.384257,"is_reserved":false,"is_disabled":false,"rental_uris":{"android":"levelo://app?vid=5ccb3f0e-4333-4391-8d7e-0eaa8594266b","ios":"levelo://app?vid=5ccb3f0e-4333-4391-8d7e-0eaa8594266b"},"vehicle_type_id":"4","last_reported":1717704607,"current_range_meters":5200,"station_id":"ce4bh692rcd13ifvqea0","pricing_plan_id":"cebpf4jnsgd1na2vs0mg"},{"bike_id":"4813103d-e1f2-4f63-bcbc-19d6a6e49620","system_id":"levelo_inurba_marseille","lat":43.304274,"lon":5.397513,"is_reserved":false,"is_disabled":false,"rental_uris":{"android":"levelo://app?vid=4813103d-e1f2-4f63-bcbc-19d6a6e49620","ios":"levelo://app?vid=4813103d-e1f2-4f63-bcbc-19d6a6e49620"},"vehicle_type_id":"4","last_reported":1717704607,"current_range_meters":11600,"station_id":"ce4bh092rcd13ifvqd20","pricing_plan_id":"cebpf4jnsgd1na2vs0mg"},{"bike_id":"e375e4b8-2b86-45f0-b07a-9771c06c87ae","system_id":"levelo_inurba_marseille","lat":43.29262,"lon":5.38442,"is_reserved":false,"is_disabled":false,"rental_uris":{"android":"levelo://app?vid=e375e4b8-2b86-45f0-b07a-9771c06c87ae","ios":"levelo://app?vid=e375e4b8-2b86-45f0-b07a-9771c06c87ae"},"vehicle_type_id":"4","last_reported":1717704607,"current_range_meters":0,"station_id":"ce4bh692rcd13ifvqea0","pricing_plan_id":"cebpf4jnsgd1na2vs0mg"},{"bike_id":"82f3f6b9-3db1-4838-aa9a-333b59630659","system_id":"levelo_inurba_marseille","lat":43.292642,"lon":5.384254,"is_reserved":false,"is_disabled":false,"rental_uris":{"android":"levelo://app?vid=82f3f6b9-3db1-4838-aa9a-333b59630659","ios":"levelo://app?vid=82f3f6b9-3db1-4838-aa9a-333b59630659"},"vehicle_type_id":"4","last_reported":1717704607,"current_range_meters":11200,"station_id":"ce4bh692rcd13ifvqea0","pricing_plan_id":"cebpf4jnsgd1na2vs0mg"},{"bike_id":"6bde3a53-f523-416d-a706-27914f613881","system_id":"levelo_inurba_marseille","lat":43.29264,"lon":5.38452,"is_reserved":false,"is_disabled":false,"rental_uris":{"android":"levelo://app?vid=6bde3a53-f523-416d-a706-27914f613881","ios":"levelo://app?vid=6bde3a53-f523-416d-a706-27914f613881"},"vehicle_type_id":"4","last_reported":1717704607,"current_range_meters":31200,"station_id":"ce4bh692rcd13ifvqea0","pricing_plan_id":"cebpf4jnsgd1na2vs0mg"},{"bike_id":"b187cf3e-f11a-400a-9026-4c0df612faac","system_id":"levelo_inurba_marseille","lat":43.29262,"lon":5.38448,"is_reserved":false,"is_disabled":false,"rental_uris":{"android":"levelo://app?vid=b187cf3e-f11a-400a-9026-4c0df612faac","ios":"levelo://app?vid=b187cf3e-f11a-400a-9026-4c0df612faac"},"vehicle_type_id":"4","last_reported":1717704607,"current_range_meters":15200,"station_id":"ce4bh692rcd13ifvqea0","pricing_plan_id":"cebpf4jnsgd1na2vs0mg"},{"bike_id":"423e0843-4b4d-4a6e-835d-21b6762bb7df","system_id":"levelo_inurba_marseille","lat":43.292642,"lon":5.384254,"is_reserved":false,"is_disabled":false,"rental_uris":{"android":"levelo://app?vid=423e0843-4b4d-4a6e-835d-21b6762bb7df","ios":"levelo://app?vid=423e0843-4b4d-4a6e-835d-21b6762bb7df"},"vehicle_type_id":"4","last_reported":1717704607,"current_range_meters":26000,"station_id":"ce4bh692rcd13ifvqea0","pricing_plan_id":"cebpf4jnsgd1na2vs0mg"},{"bike_id":"8c5aa0f6-ad4f-4b8e-9f6d-f4d525c168c3","system_id":"levelo_inurba_marseille","lat":43.292642,"lon":5.384254,"is_reserved":false,"is_disabled":false,"rental_uris":{"android":"levelo://app?vid=8c5aa0f6-ad4f-4b8e-9f6d-f4d525c168c3","ios":"levelo://app?vid=8c5aa0f6-ad4f-4b8e-9f6d-f4d525c168c3"},"vehicle_type_id":"4","last_reported":1717704607,"current_range_meters":0,"station_id":"ce4bh692rcd13ifvqea0","pricing_plan_id":"cebpf4jnsgd1na2vs0mg"},{"bike_id":"a25177b5-111a-4db9-9e96-8c8cd831c8aa","system_id":"levelo_inurba_marseille","lat":43.29015,"lon":5.35619,"is_reserved":false,"is_disabled":false,"rental_uris":{"android":"levelo://app?vid=a25177b5-111a-4db9-9e96-8c8cd831c8aa","ios":"levelo://app?vid=a25177b5-111a-4db9-9e96-8c8cd831c8aa"},"vehicle_type_id":"4","last_reported":1717704607,"current_range_meters":0,"station_id":"ce4bhb92rcd13ifvqen0","pricing_plan_id":"cebpf4jnsgd1na2vs0mg"},{"bike_id":"daeeaf0e-8fbf-4e67-afbd-27038f54b19b","system_id":"levelo_inurba_marseille","lat":43.29785,"lon":5.39331,"is_reserved":false,"is_disabled":false,"rental_uris":{"android":"levelo://app?vid=daeeaf0e-8fbf-4e67-afbd-27038f54b19b","ios":"levelo://app?vid=daeeaf0e-8fbf-4e67-afbd-27038f54b19b"},"vehicle_type_id":"4","last_reported":1717704607,"current_range_meters":27600,"station_id":"chh1huq6cuj3fo74tm60","pricing_plan_id":"cebpf4jnsgd1na2vs0mg"},{"bike_id":"d2748042-0b55-4b55-b49f-7ae6d26ae098","system_id":"levelo_inurba_marseille","lat":43.295169,"lon":5.390426,"is_reserved":false,"is_disabled":false,"rental_uris":{"android":"levelo://app?vid=d2748042-0b55-4b55-b49f-7ae6d26ae098","ios":"levelo://app?vid=d2748042-0b55-4b55-b49f-7ae6d26ae098"},"vehicle_type_id":"4","last_reported":1717704607,"current_range_meters":26000,"station_id":"ce4bh3p2rcd13ifvqdp0","pricing_plan_id":"cebpf4jnsgd1na2vs0mg"},{"bike_id":"6edafafb-5a1b-452a-89ee-4dc110a2c752","system_id":"levelo_inurba_marseille","lat":43.29526,"lon":5.39025,"is_reserved":false,"is_disabled":false,"rental_uris":{"android":"levelo://app?vid=6edafafb-5a1b-452a-89ee-4dc110a2c752","ios":"levelo://app?vid=6edafafb-5a1b-452a-89ee-4dc110a2c752"},"vehicle_type_id":"4","last_reported":1717704607,"current_range_meters":10400,"station_id":"ce4bh3p2rcd13ifvqdp0","pricing_plan_id":"cebpf4jnsgd1na2vs0mg"},