{"last_updated":1687151194,"ttl":30,"version":"2.2","data":{"bikes":[{"bike_id":"c579cd28-6ce2-4362-8391-740fa74ceac5","system_id":"levelo_inurba_marseille","lat":43.313391,"lon":5.36706,"is_reserved":false,"is_disabled":false,"rental_uris":{"android":"levelo://app?vid=c579cd28-6ce2-4362-8391-740fa74ceac5","ios":"levelo://app?vid=c579cd28-6ce2-4362-8391-740fa74ceac5"},"vehicle_type_id":"4","last_reported":1687151194,"current_range_meters":28000,"station_id":"ce4bgr92rcd13ifvqc6g","pricing_plan_id":"free"},{"bike_id":"4b80950c-c5ab-4f0a-818e-f80211759db3","system_id":"levelo_inurba_marseille","lat":43.312239,"lon":5.368562,"is_reserved":false,"is_disabled":false,"rental_uris":{"android":"levelo://app?vid=4b80950c-c5ab-4f0a-818e-f80211759db3","ios":"levelo://app?vid=4b80950c-c5ab-4f0a-818e-f80211759db3"},"vehicle_type_id":"4","last_reported":1687151194,"current_range_meters":26400,"station_id":"ce4bgl92rcd13ifvqbq0","pricing_plan_id":"free"},{"bike_id":"aeb31bea-9ef4-459e-8943-1e2b939a3cc2","system_id":"levelo_inurba_marseille","lat":43.309076,"lon":5.368465,"is_reserved":false,"is_disabled":false,"rental_uris":{"android":"levelo://app?vid=aeb31bea-9ef4-459e-8943-1e2b939a3cc2","ios":"levelo://app?vid=aeb31bea-9ef4-459e-8943-1e2b939a3cc2"},"vehicle_type_id":"4","last_reported":1687151194,"current_range_meters":30400,"station_id":"ce4bgn92rcd13ifvqbvg","pricing_plan_id":"free"},{"bike_id":"9c010ccd-71df-4eb6-916b-68947abfa074","system_id":"levelo_inurba_marseille","lat":43.31502,"lon":5.37305,"is_reserved":false,"is_disabled":false,"rental_uris":{"android":"levelo://app?vid=9c010ccd-71df-4eb6-916b-68947abfa074","ios":"levelo://app?vid=9c010ccd-71df-4eb6-916b-68947abfa074"},"vehicle_type_id":"4","last_reported":1687151194,"current_range_meters":28400,"station_id":"ce4bgt12rcd13ifvqcd0","pricing_plan_id":"free"},{"bike_id":"55c62e5e-0a17-413e-8ebd-6cc701daed36","system_id":"levelo_inurba_marseille","lat":43.308614,"lon":5.372098,"is_reserved":false,"is_disabled":false,"rental_uris":{"android":"levelo://app?vid=55c62e5e-0a17-413e-8ebd-6cc701daed36","ios":"levelo://app?vid=55c62e5e-0a17-413e-8ebd-6cc701daed36"},"vehicle_type_id":"4","last_reported":1687151194,"current_range_meters":24400,"station_id":"ce4bguh2rcd13ifvqckg","pricing_plan_id":"free"},{"bike_id":"c7da8d2e-7d35-4e60-8f07-b6b1c54075c0","system_id":"levelo_inurba_marseille","lat":43.305706,"lon":5.365654,"is_reserved":false,"is_disabled":false,"rental_uris":{"android":"levelo://app?vid=c7da8d2e-7d35-4e60-8f07-b6b1c54075c0","ios":"levelo://app?vid=c7da8d2e-7d35-4e60-8f07-b6b1c54075c0"},"vehicle_type_id":"4","last_reported":1687151194,"current_range_meters":31200,"station_id":"ce4bgs12rcd13ifvqcag","pricing_plan_id":"free"},{"bike_id":"99bccd45-8b5d-4c82-904c-d741ee6c6530","system_id":"levelo_inurba_marseille","lat":43.305989,"lon":5.37225,"is_reserved":false,"is_disabled":false,"rental_uris":{"android":"levelo://app?vid=99bccd45-8b5d-4c82-904c-d741ee6c6530","ios":"levelo://app?vid=99bccd45-8b5d-4c82-904c-d741ee6c6530"},"vehicle_type_id":"4","last_reported":1687151194,"current_range_meters":30400,"station_id":"ce4bgqh2rcd13ifvqc4g","pricing_plan_id":"free"},{"bike_id":"80dbd797-15cf-4881-9371-5a4e8c5d7370","system_id":"levelo_inurba_marseille","lat":43.305989,"lon":5.37225,"is_reserved":false,"is_disabled":false,"rental_uris":{"android":"levelo://app?vid=80dbd797-15cf-4881-9371-5a4e8c5d7370","ios":"levelo://app?vid=80dbd797-15cf-4881-9371-5a4e8c5d7370"},"vehicle_type_id":"4","last_reported":1687151194,"current_range_meters":31200,"station_id":"ce4bgqh2rcd13ifvqc4g","pricing_plan_id":"free"},{"bike_id":"47e6996c-d18a-483c-be14-bb4789c5a5d0","system_id":"levelo_inurba_marseille","lat":43.305989,"lon":5.37225,"is_reserved":false,"is_disabled":false,"rental_uris":{"android":"levelo://app?vid=47e6996c-d18a-483c-be14-bb4789c5a5d0","ios":"levelo://app?vid=47e6996c-d18a-483c-be14-bb4789c5a5d0"},"vehicle_type_id":"4","last_reported":1687151194,"current_range_meters":31600,"station_id":"ce4bgqh2rcd13ifvqc4g","pricing_plan_id":"free"},{"bike_id":"14156c24-c8c8-4f46-8ca8-64611fe1e34d","system_id":"levelo_inurba_marseille","lat":43.305989,"lon":5.37225,"is_reserved":false,"is_disabled":false,"rental_uris":{"android":"levelo://app?vid=14156c24-c8c8-4f46-8ca8-64611fe1e34d","ios":"levelo://app?vid=14156c24-c8c8-4f46-8ca8-64611fe1e34d"},"vehicle_type_id":"4","last_reported":1687151194,"current_range_meters":26800,"station_id":"ce4bgqh2rcd13ifvqc4g","pricing_plan_id":"free"},{"bike_id":"d6d95a10-4f91-49e7-8dcf-ad0a702eeeb4","system_id":"levelo_inurba_marseille","lat":43.305989,"lon":5.37225,"is_reserved":false,"is_disabled":false,"rental_uris":{"android":"levelo://app?vid=d6d95a10-4f91-49e7-8dcf-ad0a702eeeb4","ios":"levelo://app?vid=d6d95a10-4f91-49e7-8dcf-ad0a702eeeb4"},"vehicle_type_id":"4","last_reported":1687151194,"current_range_meters":31600,"station_id":"ce4bgqh2rcd13ifvqc4g","pricing_plan_id":"free"},{"bike_id":"0ed3a6fa-7a08-42a5-b766-3b15fdcea44b","system_id":"levelo_inurba_marseille","lat":43.311131,"lon":5.377651,"is_reserved":false,"is_disabled":false,"rental_uris":{"android":"levelo://app?vid=0ed3a6fa-7a08-42a5-b766-3b15fdcea44b","ios":"levelo://app?vid=0ed3a6fa-7a08-42a5-b766-3b15fdcea44b"},"vehicle_type_id":"4","last_reported":1687151194,"current_range_meters":31600,"station_id":"ce4bgt92rcd13ifvqcg0","pricing_plan_id":"free"},{"bike_id":"e1453fe6-cf26-4275-a503-1b1bdf83fcfd","system_id":"levelo_inurba_marseille","lat":43.311131,"lon":5.377651,"is_reserved":false,"is_disabled":false,"rental_uris":{"android":"levelo://app?vid=e1453fe6-cf26-4275-a503-1b1bdf83fcfd","ios":"levelo://app?vid=e1453fe6-cf26-4275-a503-1b1bdf83fcfd"},"vehicle_type_id":"4","last_reported":1687151194,"current_range_meters":31600,"station_id":"ce4bgt92rcd13ifvqcg0","pricing_plan_id":"free"},{"bike_id":"be4ac300-4791-40c3-a886-d5ef2715c0f7","system_id":"levelo_inurba_marseille","lat":43.31119,"lon":5.37766,"is_reserved":false,"is_disabled":false,"rental_uris":{"android":"levelo://app?vid=be4ac300-4791-40c3-a886-d5ef2715c0f7","ios":"levelo://app?vid=be4ac300-4791-40c3-a886-d5ef2715c0f7"},"vehicle_type_id":"4","last_reported":1687151194,"current_range_meters":30800,"station_id":"ce4bgt92rcd13ifvqcg0","pricing_plan_id":"free"},{"bike_id":"3f477db4-e94c-44e7-bdb2-fb41c71c4191","system_id":"levelo_inurba_marseille","lat":43.311131,"lon":5.377651,"is_reserved":false,"is_disabled":false,"rental_uris":{"android":"levelo://app?vid=3f477db4-e94c-44e7-bdb2-fb41c71c4191","ios":"levelo://app?vid=3f477db4-e94c-44e7-bdb2-fb41c71c4191"},"vehicle_type_id":"4","last_reported":1687151194,"current_range_meters":27200,"station_id":"ce4bgt92rcd13ifvqcg0","pricing_plan_id":"free"},{"bike_id":"19e5742b-e687-4bc8-95dc-bd301e8e29c0","system_id":"levelo_inurba_marseille","lat":43.311131,"lon":5.377651,"is_reserved":false,"is_disabled":false,"rental_uris":{"android":"levelo://app?vid=19e5742b-e687-4bc8-95dc-bd301e8e29c0","ios":"levelo://app?vid=19e5742b-e687-4bc8-95dc-bd301e8e29c0"},"vehicle_type_id":"4","last_reported":1687151194,"current_range_meters":22000,"station_id":"ce4bgt92rcd13ifvqcg0","pricing_plan_id":"free"},{"bike_id":"65f9b37b-2031-4fd4-9367-36713af23104","system_id":"levelo_inurba_marseille","lat":43.31118,"lon":5.37772,"is_reserved":false,"is_disabled":false,"rental_uris":{"android":"levelo://app?vid=65f9b37b-2031-4fd4-9367-36713af23104","ios":"levelo://app?vid=65f9b37b-2031-4fd4-9367-36713af23104"},"vehicle_type_id":"4","last_reported":1687151194,"current_range_meters":30400,"station_id":"ce4bgt92rcd13ifvqcg0","pricing_plan_id":"free"},{"bike_id":"37e776b1-01d7-4b71-8d49-0f31b775c1b7","system_id":"levelo_inurba_marseille","lat":43.311131,"lon":5.377651,"is_reserved":false,"is_disabled":false,"rental_uris":{"android":"levelo://app?vid=37e776b1-01d7-4b71-8d49-0f31b775c1b7","ios":"levelo://app?vid=37e776b1-01d7-4b71-8d49-0f31b775c1b7"},"vehicle_type_id":"4","last_reported":1687151194,"current_range_meters":20800,"station_id":"ce4bgt92rcd13ifvqcg0","pricing_plan_id":"free"},{"bike_id":"4424f651-13ad-4b34-b9fb-7087dec7bd04","system_id":"levelo_inurba_marseille","lat":43.317075,"lon":5.377367,"is_reserved":false,"is_disabled":false,"rental_uris":{"android":"levelo://app?vid=4424f651-13ad-4b34-b9fb-7087dec7bd04","ios":"levelo://app?vid=4424f651-13ad-4b34-b9fb-7087dec7bd04"},"vehicle_type_id":"4","last_reported":1687151194,"current_range_meters":30000,"station_id":"ce4bgth2rcd13ifvqch0","pricing_plan_id":"free"},{"bike_id":"ace46086-22e0-47cc-90c2-91943afa8e38","system_id":"levelo_inurba_marseille","lat":43.303046,"lon":5.368981,"is_reserved":false,"is_disabled":false,"rental_uris":{"android":"levelo://app?vid=ace46086-22e0-47cc-90c2-91943afa8e38","ios":"levelo://app?vid=ace46086-22e0-47cc-90c2-91943afa8e38"},"vehicle_type_id":"4","last_reported":1687151194,"current_range_meters":30400,"station_id":"ce4bgqh2rcd13ifvqc5g","pricing_plan_id":"free"},{"bike_id":"111a31a9-cf14-4a7f-8ab9-3a0e9d5b4ae8","system_id":"levelo_inurba_marseille","lat":43.303046,"lon":5.368981,"is_reserved":false,"is_disabled":false,"rental_uris":{"android":"levelo://app?vid=111a31a9-cf14-4a7f-8ab9-3a0e9d5b4ae8","ios":"levelo://app?vid=111a31a9-cf14-4a7f-8ab9-3a0e9d5b4ae8"},"vehicle_type_id":"4","last_reported":1687151194,"current_range_meters":28400,"station_id":"ce4bgqh2rcd13ifvqc5g","pricing_plan_id":"free"},{"bike_id":"3e02443e-31d3-4870-9491-03352d66ace7","system_id":"levelo_inurba_marseille","lat":43.303046,"lon":5.368981,"is_reserved":false,"is_disabled":false,"rental_uris":{"android":"levelo://app?vid=3e02443e-31d3-4870-9491-03352d66ace7","ios":"levelo://app?vid=3e02443e-31d3-4870-9491-03352d66ace7"},"vehicle_type_id":"4","last_reported":1687151194,"current_range_meters":30400,"station_id":"ce4bgqh2rcd13ifvqc5g","pricing_plan_id":"free"},{"bike_id":"cca1d1f8-7784-4c0e-8d59-f3bdb8c2b4fa","system_id":"levelo_inurba_marseille","lat":43.315289,"lon":5.380349,"is_reserved":false,"is_disabled":false,"rental_uris":{"android":"levelo://app?vid=cca1d1f8-7784-4c0e-8d59-f3bdb8c2b4fa","ios":"levelo://app?vid=cca1d1f8-7784-4c0e-8d59-f3bdb8c2b4fa"},"vehicle_type_id":"4","last_reported":1687151194,"current_range_meters":21200,"station_id":"ce4bhsp2rcd13ifvqi50","pricing_plan_id":"free"},{"bike_id":"8eac0eaa-8f2a-4c56-a22f-4cc6b891e4d8","system_id":"levelo_inurba_marseille","lat":43.308012,"lon":5.381511,"is_reserved":false,"is_disabled":false,"rental_uris":{"android":"levelo://app?vid=8eac0eaa-8f2a-4c56-a22f-4cc6b891e4d8","ios":"levelo://app?vid=8eac0eaa-8f2a-4c56-a22f-4cc6b891e4d8"},"vehicle_type_id":"4","last_reported":1687151194,"current_range_meters":2800,"station_id":"ce4bgt12rcd13ifvqce0","pricing_plan_id":"free"},{"bike_id":"ae33307b-fcd5-479b-9ae1-9002ed226c6e","system_id":"levelo_inurba_marseille","lat":43.308012,"lon":5.381511,"is_reserved":false,"is_disabled":false,"rental_uris":{"android":"levelo://app?vid=ae33307b-fcd5-479b-9ae1-9002ed226c6e","ios":"levelo://app?vid=ae33307b-fcd5-479b-9ae1-9002ed226c6e"},"vehicle_type_id":"4","last_reported":1687151194,"current_range_meters":26800,"station_id":"ce4bgt12rcd13ifvqce0","pricing_plan_id":"free"},{"bike_id":"9fa312fe-1fee-4498-b79f-0788ede51bc8","system_id":"levelo_inurba_marseille","lat":43.308012,"lon":5.381511,"is_reserved":false,"is_disabled":false,"rental_uris":{"android":"levelo://app?vid=9fa312fe-1fee-4498-b79f-0788ede51bc8","ios":"levelo://app?vid=9fa312fe-1fee-4498-b79f-0788ede51bc8"},"vehicle_type_id":"4","last_reported":1687151194,"current_range_meters":23600,"station_id":"ce4bgt12rcd13ifvqce0","pricing_plan_id":"free"},{"bike_id":"94aecfc2-beeb-4fac-bb1b-61caed365b7d","system_id":"levelo_inurba_marseille","lat":43.308012,"lon":5.381511,"is_reserved":false,"is_disabled":false,"rental_uris":{"android":"levelo://app?vid=94aecfc2-beeb-4fac-bb1b-61caed365b7d","ios":"levelo://app?vid=94aecfc2-beeb-4fac-bb1b-61caed365b7d"},"vehicle_type_id":"4","last_reported":1687151194,"current_range_meters":22400,"station_id":"ce4bgt12rcd13ifvqce0","pricing_plan_id":"free"},{"bike_id":"51ee8e1d-2036-4cce-87d9-9bc5ecbf3251","system_id":"levelo_inurba_marseille","lat":43.308012,"lon":5.381511,"is_reserved":false,"is_disabled":false,"rental_uris":{"android":"levelo://app?vid=51ee8e1d-2036-4cce-87d9-9bc5ecbf3251","ios":"levelo://app?vid=51ee8e1d-2036-4cce-87d9-9bc5ecbf3251"},"vehicle_type_id":"4","last_reported":1687151194,"current_range_meters":11600,"station_id":"ce4bgt12rcd13ifvqce0","pricing_plan_id":"free"},{"bike_id":"199b9545-dfea-422e-a4f8-2731fbbfdefe","system_id":"levelo_inurba_marseille","lat":43.308012,"lon":5.381511,"is_reserved":false,"is_disabled":false,"rental_uris":{"android":"levelo://app?vid=199b9545-dfea-422e-a4f8-2731fbbfdefe","ios":"levelo://app?vid=199b9545-dfea-422e-a4f8-2731fbbfdefe"},"vehicle_type_id":"4","last_reported":1687151194,"current_range_meters":30000,"station_id":"ce4bgt12rcd13ifvqce0","pricing_plan_id":"free"},{"bike_id":"1748f39c-7717-428a-98eb-7a2229c2ffa3","system_id":"levelo_inurba_marseille","lat":43.304606,"lon":5.379026,"is_reserved":false,"is_disabled":false,"rental_uris":{"android":"levelo://app?vid=1748f39c-7717-428a-98eb-7a2229c2ffa3","ios":"levelo://app?vid=1748f39c-7717-428a-98eb-7a2229c2ffa3"},"vehicle_type_id":"4","last_reported":1687151194,"current_range_meters":29600,"station_id":"ce4bgup2rcd13ifvqcn0","pricing_plan_id":"free"},{"bike_id":"7f2f15fd-a445-49ab-8b21-e96cee1dc143","system_id":"levelo_inurba_marseille","lat":43.304606,"lon":5.379026,"is_reserved":false,"is_disabled":false,"rental_uris":{"android":"levelo://app?vid=7f2f15fd-a445-49ab-8b21-e96cee1dc143","ios":"levelo://app?vid=7f2f15fd-a445-49ab-8b21-e96cee1dc143"},"vehicle_type_id":"4","last_reported":1687151194,"current_range_meters":31200,"station_id":"ce4bgup2rcd13ifvqcn0","pricing_plan_id":"free"},{"bike_id":"9258623e-189b-4846-a55c-f544483cb45a","system_id":"levelo_inurba_marseille","lat":43.304606,"lon":5.379026,"is_reserved":false,"is_disabled":false,"rental_uris":{"android":"levelo://app?vid=9258623e-189b-4846-a55c-f544483cb45a","ios":"levelo://app?vid=9258623e-189b-4846-a55c-f544483cb45a"},"vehicle_type_id":"4","last_reported":1687151194,"current_range_meters":31600,"station_id":"ce4bgup2rcd13ifvqcn0","pricing_plan_id":"free"},{"bike_id":"b95a6fb8-3736-4fe4-bac6-5c5e14ba267c","system_id":"levelo_inurba_marseille","lat":43.304606,"lon":5.379026,"is_reserved":false,"is_disabled":false,"rental_uris":{"android":"levelo://app?vid=b95a6fb8-3736-4fe4-bac6-5c5e14ba267c","ios":"levelo://app?vid=b95a6fb8-3736-4fe4-bac6-5c5e14ba267c"},"vehicle_type_id":"4","last_reported":1687151194,"current_range_meters":8400,"station_id":"ce4bgup2rcd13ifvqcn0","pricing_plan_id":"free"},{"bike_id":"98455ca1-66aa-4c60-999a-871bfd892eda","system_id":"levelo_inurba_marseille","lat":43.304606,"lon":5.379026,"is_reserved":false,"is_disabled":false,"rental_uris":{"android":"levelo://app?vid=98455ca1-66aa-4c60-999a-871bfd892eda","ios":"levelo://app?vid=98455ca1-66aa-4c60-999a-871bfd892eda"},"vehicle_type_id":"4","last_reported":1687151194,"current_range_meters":16000,"station_id":"ce4bgup2rcd13ifvqcn0","pricing_plan_id":"free"},{"bike_id":"22b359c8-e5f4-4ce0-a09e-2aac60fe5cd0","system_id":"levelo_inurba_marseille","lat":43.304606,"lon":5.379026,"is_reserved":false,"is_disabled":false,"rental_uris":{"android":"levelo://app?vid=22b359c8-e5f4-4ce0-a09e-2aac60fe5cd0","ios":"levelo://app?vid=22b359c8-e5f4-4ce0-a09e-2aac60fe5cd0"},"vehicle_type_id":"4","last_reported":1687151194,"current_range_meters":22400,"station_id":"ce4bgup2rcd13ifvqcn0","pricing_plan_id":"free"},{"bike_id":"a4284111-817b-41e6-b101-8cc88c7d4236","system_id":"levelo_inurba_marseille","lat":43.304606,"lon":5.379026,"is_reserved":false,"is_disabled":false,"rental_uris":{"android":"levelo://app?vid=a4284111-817b-41e6-b101-8cc88c7d4236","ios":"levelo://app?vid=a4284111-817b-41e6-b101-8cc88c7d4236"},"vehicle_type_id":"4","last_reported":1687151194,"current_range_meters":31600,"station_id":"ce4bgup2rcd13ifvqcn0","pricing_plan_id":"free"},{"bike_id":"e1a40087-d9a3-40be-b932-b257e12153f9","system_id":"levelo_inurba_marseille","lat":43.3046,"lon":5.37899,"is_reserved":false,"is_disabled":false,"rental_uris":{"android":"levelo://app?vid=e1a40087-d9a3-40be-b932-b257e12153f9","ios":"levelo://app?vid=e1a40087-d9a3-40be-b932-b257e12153f9"},"vehicle_type_id":"4","last_reported":1687151194,"current_range_meters":18000,"station_id":"ce4bgup2rcd13ifvqcn0","pricing_plan_id":"free"},{"bike_id":"28d46c5b-5bf8-45dc-9b13-1365bdf5730a","system_id":"levelo_inurba_marseille","lat":43.304606,"lon":5.379026,"is_reserved":false,"is_disabled":false,"rental_uris":{"android":"levelo://app?vid=28d46c5b-5bf8-45dc-9b13-1365bdf5730a","ios":"levelo://app?vid=28d46c5b-5bf8-45dc-9b13-1365bdf5730a"},"vehicle_type_id":"4","last_reported":1687151194,"current_range_meters":28000,"station_id":"ce4bgup2rcd13ifvqcn0","pricing_plan_id":"free"},{"bike_id":"89c29a95-8ce0-4f02-87e4-cd51284a0c6e","system_id":"levelo_inurba_marseille","lat":43.304606,"lon":5.379026,"is_reserved":false,"is_disabled":false,"rental_uris":{"android":"levelo://app?vid=89c29a95-8ce0-4f02-87e4-cd51284a0c6e","ios":"levelo://app?vid=89c29a95-8ce0-4f02-87e4-cd51284a0c6e"},"vehicle_type_id":"4","last_reported":1687151194,"current_range_meters":23200,"station_id":"ce4bgup2rcd13ifvqcn0","pricing_plan_id":"free"},{"bike_id":"b8eeb80a-ef4d-4b6e-ab5e-97ac07801802","system_id":"levelo_inurba_marseille","lat":43.304606,"lon":5.379026,"is_reserved":false,"is_disabled":false,"rental_uris":{"android":"levelo://app?vid=b8eeb80a-ef4d-4b6e-ab5e-97ac07801802","ios":"levelo://app?vid=b8eeb80a-ef4d-4b6e-ab5e-97ac07801802"},"vehicle_type_id":"4","last_reported":1687151194,"current_range_meters":24000,"station_id":"ce4bgup2rcd13ifvqcn0","pricing_plan_id":"free"},{"bike_id":"58edf6d6-e1d3-42de-a699-8b926dc79212","system_id":"levelo_inurba_marseille","lat":43.30462,"lon":5.37903,"is_reserved":false,"is_disabled":false,"rental_uris":{"android":"levelo://app?vid=58edf6d6-e1d3-42de-a699-8b926dc79212","ios":"levelo://app?vid=58edf6d6-e1d3-42de-a699-8b926dc79212"},"vehicle_type_id":"4","last_reported":1687151194,"current_range_meters":26400,"station_id":"ce4bgup2rcd13ifvqcn0","pricing_plan_id":"free"},{"bike_id":"595a83b1-c712-4e9a-8e50-ef58446f89d1","system_id":"levelo_inurba_marseille","lat":43.304606,"lon":5.379026,"is_reserved":false,"is_disabled":false,"rental_uris":{"android":"levelo://app?vid=595a83b1-c712-4e9a-8e50-ef58446f89d1","ios":"levelo://app?vid=595a83b1-c712-4e9a-8e50-ef58446f89d1"},"vehicle_type_id":"4","last_reported":1687151194,"current_range_meters":15200,"station_id":"ce4bgup2rcd13ifvqcn0","pricing_plan_id":"free"},{"bike_id":"17116a49-a284-477e-b624-ce154d1f4929","system_id":"levelo_inurba_marseille","lat":43.304606,"lon":5.379026,"is_reserved":false,"is_disabled":false,"rental_uris":{"android":"levelo://app?vid=17116a49-a284-477e-b624-ce154d1f4929","ios":"levelo://app?vid=17116a49-a284-477e-b624-ce154d1f4929"},"vehicle_type_id":"4","last_reported":1687151194,"current_range_meters":26400,"station_id":"ce4bgup2rcd13ifvqcn0","pricing_plan_id":"free"},{"bike_id":"b79b1764-ee12-4e55-afc9-18eb1f68de43","system_id":"levelo_inurba_marseille","lat":43.304606,"lon":5.379026,"is_reserved":false,"is_disabled":false,"rental_uris":{"android":"levelo://app?vid=b79b1764-ee12-4e55-afc9-18eb1f68de43","ios":"levelo://app?vid=b79b1764-ee12-4e55-afc9-18eb1f68de43"},"vehicle_type_id":"4","last_reported":1687151194,"current_range_meters":25600,"station_id":"ce4bgup2rcd13ifvqcn0","pricing_plan_id":"free"},{"bike_id":"d303ba64-2e46-4df4-bbfe-d24ae2da67ff","system_id":"levelo_inurba_marseille","lat":43.304606,"lon":5.379026,"is_reserved":false,"is_disabled":false,"rental_uris":{"android":"levelo://app?vid=d303ba64-2e46-4df4-bbfe-d24ae2da67ff","ios":"levelo://app?vid=d303ba64-2e46-4df4-bbfe-d24ae2da67ff"},"vehicle_type_id":"4","last_reported":1687151194,"current_range_meters":30400,"station_id":"ce4bgup2rcd13ifvqcn0","pricing_plan_id":"free"},{"bike_id":"d99375c3-dfa0-432d-9e45-1811cee3017d","system_id":"levelo_inurba_marseille","lat":43.304606,"lon":5.379026,"is_reserved":false,"is_disabled":false,"rental_uris":{"android":"levelo://app?vid=d99375c3-dfa0-432d-9e45-1811cee3017d","ios":"levelo://app?vid=d99375c3-dfa0-432d-9e45-1811cee3017d"},"vehicle_type_id":"4","last_reported":1687151194,"current_range_meters":0,"station_id":"ce4bgup2rcd13ifvqcn0","pricing_plan_id":"free"},{"bike_id":"e7d9209d-3800-4fdd-8210-b6f0f1b21b32","system_id":"levelo_inurba_marseille","lat":43.304606,"lon":5.379026,"is_reserved":false,"is_disabled":false,"rental_uris":{"android":"levelo://app?vid=e7d9209d-3800-4fdd-8210-b6f0f1b21b32","ios":"levelo://app?vid=e7d9209d-3800-4fdd-8210-b6f0f1b21b32"},"vehicle_type_id":"4","last_reported":1687151194,"current_range_meters":24000,"station_id":"ce4bgup2rcd13ifvqcn0","pricing_plan_id":"free"},{"bike_id":"c20fb70c-30b7-43ba-a546-783ecb130b1b","system_id":"levelo_inurba_marseille","lat":43.304606,"lon":5.379026,"is_reserved":false,"is_disabled":false,"rental_uris":{"android":"levelo://app?vid=c20fb70c-30b7-43ba-a546-783ecb130b1b","ios":"levelo://app?vid=c20fb70c-30b7-43ba-a546-783ecb130b1b"},"vehicle_type_id":"4","last_reported":1687151194,"current_range_meters":31200,"station_id":"ce4bgup2rcd13ifvqcn0","pricing_plan_id":"free"},{"bike_id":"36008401-3d11-4305-889a-4bfcf735aa19","system_id":"levelo_inurba_marseille","lat":43.304606,"lon":5.379026,"is_reserved":false,"is_disabled":false,"rental_uris":{"android":"levelo://app?vid=36008401-3d11-4305-889a-4bfcf735aa19","ios":"levelo://app?vid=36008401-3d11-4305-889a-4bfcf735aa19"},"vehicle_type_id":"4","last_reported":1687151194,"current_range_meters":22000,"station_id":"ce4bgup2rcd13ifvqcn0","pricing_plan_id":"free"},{"bike_id":"2e2fe54e-e344-40ab-be03-e542a80294f3","system_id":"levelo_inurba_marseille","lat":43.304606,"lon":5.379026,"is_reserved":false,"is_disabled":false,"rental_uris":{"android":"levelo://app?vid=2e2fe54e-e344-40ab-be03-e542a80294f3","ios":"levelo://app?vid=2e2fe54e-e344-40ab-be03-e542a80294f3"},"vehicle_type_id":"4","last_reported":1687151194,"current_range_meters":26800,"station_id":"ce4bgup2rcd13ifvqcn0","pricing_plan_id":"free"},{"bike_id":"43fc693e-f2a9-4aec-8fd9-d094bb02cb70","system_id":"levelo_inurba_marseille","lat":43.304606,"lon":5.379026,"is_reserved":false,"is_disabled":false,"rental_uris":{"android":"levelo://app?vid=43fc693e-f2a9-4aec-8fd9-d094bb02cb70","ios":"levelo://app?vid=43fc693e-f2a9-4aec-8fd9-d094bb02cb70"},"vehicle_type_id":"4","last_reported":1687151194,"current_range_meters":14800,"station_id":"ce4bgup2rcd13ifvqcn0","pricing_plan_id":"free"},{"bike_id":"dcae22b8-7bb3-45c5-b44d-46e065bed3b7","system_id":"levelo_inurba_marseille","lat":43.304606,"lon":5.379026,"is_reserved":false,"is_disabled":false,"rental_uris":{"android":"levelo://app?vid=dcae22b8-7bb3-45c5-b44d-46e065bed3b7","ios":"levelo://app?vid=dcae22b8-7bb3-45c5-b44d-46e065bed3b7"},"vehicle_type_id":"4","last_reported":1687151194,"current_range_meters":19200,"station_id":"ce4bgup2rcd13ifvqcn0","pricing_plan_id":"free"},{"bike_id":"a7256149-121a-44e3-96e3-960baa4d6fea","system_id":"levelo_inurba_marseille","lat":43.304606,"lon":5.379026,"is_reserved":false,"is_disabled":false,"rental_uris":{"android":"levelo://app?vid=a7256149-121a-44e3-96e3-960baa4d6fea","ios":"levelo://app?vid=a7256149-121a-44e3-96e3-960baa4d6fea"},"vehicle_type_id":"4","last_reported":1687151194,"current_range_meters":13600,"station_id":"ce4bgup2rcd13ifvqcn0","pricing_plan_id":"free"},{"bike_id":"a4d9e8b2-a800-49db-9fc2-c2b136e8aa10","system_id":"levelo_inurba_marseille","lat":43.304606,"lon":5.379026,"is_reserved":false,"is_disabled":false,"rental_uris":{"android":"levelo://app?vid=a4d9e8b2-a800-49db-9fc2-c2b136e8aa10","ios":"levelo://app?vid=a4d9e8b2-a800-49db-9fc2-c2b136e8aa10"},"vehicle_type_id":"4","last_reported":1687151194,"current_range_meters":22800,"station_id":"ce4bgup2rcd13ifvqcn0","pricing_plan_id":"free"},{"bike_id":"8efc6024-d78c-47ac-8e68-1d9eb85e82d2","system_id":"levelo_inurba_marseille","lat":43.304606,"lon":5.379026,"is_reserved":false,"is_disabled":false,"rental_uris":{"android":"levelo://app?vid=8efc6024-d78c-47ac-8e68-1d9eb85e82d2","ios":"levelo://app?vid=8efc6024-d78c-47ac-8e68-1d9eb85e82d2"},"vehicle_type_id":"4","last_reported":1687151194,"current_range_meters":27600,"station_id":"ce4bgup2rcd13ifvqcn0","pricing_plan_id":"free"},{"bike_id":"915b83a9-d508-4eeb-bf59-fd032e973072","system_id":"levelo_inurba_marseille","lat":43.304633,"lon":5.379208,"is_reserved":false,"is_disabled":false,"rental_uris":{"android":"levelo://app?vid=915b83a9-d508-4eeb-bf59-fd032e973072","ios":"levelo://app?vid=915b83a9-d508-4eeb-bf59-fd032e973072"},"vehicle_type_id":"4","last_reported":1687151194,"current_range_meters":24400,"station_id":"ce4bgup2rcd13ifvqcn0","pricing_plan_id":"free"},{"bike_id":"cec557a8-86b4-4798-b097-4636188727c8","system_id":"levelo_inurba_marseille","lat":43.304606,"lon":5.379026,"is_reserved":false,"is_disabled":false,"rental_uris":{"android":"levelo://app?vid=cec557a8-86b4-4798-b097-4636188727c8","ios":"levelo://app?vid=cec557a8-86b4-4798-b097-4636188727c8"},"vehicle_type_id":"4","last_reported":1687151194,"current_range_meters":31600,"station_id":"ce4bgup2rcd13ifvqcn0","pricing_plan_id":"free"},{"bike_id":"7cbc1a57-a08a-44c9-9e81-f1f51af1a0fa","system_id":"levelo_inurba_marseille","lat":43.30143,"lon":5.37413,"is_reserved":false,"is_disabled":false,"rental_uris":{"android":"levelo://app?vid=7cbc1a57-a08a-44c9-9e81-f1f51af1a0fa","ios":"levelo://app?vid=7cbc1a57-a08a-44c9-9e81-f1f51af1a0fa"},"vehicle_type_id":"4","last_reported":1687151194,"current_range_meters":26000,"station_id":"ce4bgs92rcd13ifvqcc0","pricing_plan_id":"free"},{"bike_id":"a7eb4f1d-cd13-4524-9267-91d005bfadd3","system_id":"levelo_inurba_marseille","lat":43.30143,"lon":5.37413,"is_reserved":false,"is_disabled":false,"rental_uris":{"android":"levelo://app?vid=a7eb4f1d-cd13-4524-9267-91d005bfadd3","ios":"levelo://app?vid=a7eb4f1d-cd13-4524-9267-91d005bfadd3"},"vehicle_type_id":"4","last_reported":1687151194,"current_range_meters":4800,"station_id":"ce4bgs92rcd13ifvqcc0","pricing_plan_id":"free"},{"bike_id":"abb15d38-9ee6-4113-8939-36cef9e63da7","system_id":"levelo_inurba_marseille","lat":43.319935,"lon":5.381699,"is_reserved":false,"is_disabled":false,"rental_uris":{"android":"levelo://app?vid=abb15d38-9ee6-4113-8939-36cef9e63da7","ios":"levelo://app?vid=abb15d38-9ee6-4113-8939-36cef9e63da7"},"vehicle_type_id":"4","last_reported":1687151194,"current_range_meters":4400,"station_id":"ce4bhr12rcd13ifvqhpg","pricing_plan_id":"free"},{"bike_id":"5c9eecb4-0262-4e4c-92f0-80adc6e03893","system_id":"levelo_inurba_marseille","lat":43.319935,"lon":5.381699,"is_reserved":false,"is_disabled":false,"rental_uris":{"android":"levelo://app?vid=5c9eecb4-0262-4e4c-92f0-80adc6e03893","ios":"levelo://app?vid=5c9eecb4-0262-4e4c-92f0-80adc6e03893"},"vehicle_type_id":"4","last_reported":1687151194,"current_range_meters":11600,"station_id":"ce4bhr12rcd13ifvqhpg","pricing_plan_id":"free"},{"bike_id":"4f861f33-07f1-4fa8-9f28-eb3be314e697","system_id":"levelo_inurba_marseille","lat":43.319935,"lon":5.381699,"is_reserved":false,"is_disabled":false,"rental_uris":{"android":"levelo://app?vid=4f861f33-07f1-4fa8-9f28-eb3be314e697","ios":"levelo://app?vid=4f861f33-07f1-4fa8-9f28-eb3be314e697"},"vehicle_type_id":"4","last_reported":1687151194,"current_range_meters":19200,"station_id":"ce4bhr12rcd13ifvqhpg","pricing_plan_id":"free"},{"bike_id":"2255ca2e-ae7f-4125-a151-9b6121c03059","system_id":"levelo_inurba_marseille","lat":43.313571,"lon":5.384829,"is_reserved":false,"is_disabled":false,"rental_uris":{"android":"levelo://app?vid=2255ca2e-ae7f-4125-a151-9b6121c03059","ios":"levelo://app?vid=2255ca2e-ae7f-4125-a151-9b6121c03059"},"vehicle_type_id":"4","last_reported":1687151194,"current_range_meters":30800,"station_id":"ce4bgt92rcd13ifvqcf0","pricing_plan_id":"free"},{"bike_id":"94ef9b91-9a73-4a36-9ad7-e6ce59db45a8","system_id":"levelo_inurba_marseille","lat":43.313571,"lon":5.384829,"is_reserved":false,"is_disabled":false,"rental_uris":{"android":"levelo://app?vid=94ef9b91-9a73-4a36-9ad7-e6ce59db45a8","ios":"levelo://app?vid=94ef9b91-9a73-4a36-9ad7-e6ce59db45a8"},"vehicle_type_id":"4","last_reported":1687151194,"current_range_meters":31600,"station_id":"ce4bgt92rcd13ifvqcf0","pricing_plan_id":"free"},{"bike_id":"508561eb-8626-4050-bba9-1618414d7152","system_id":"levelo_inurba_marseille","lat":43.313571,"lon":5.384829,"is_reserved":false,"is_disabled":false,"rental_uris":{"android":"levelo://app?vid=508561eb-8626-4050-bba9-1618414d7152","ios":"levelo://app?vid=508561eb-8626-4050-bba9-1618414d7152"},"vehicle_type_id":"4","last_reported":1687151194,"current_range_meters":31600,"station_id":"ce4bgt92rcd13ifvqcf0","pricing_plan_id":"free"},{"bike_id":"54c4cd93-4f19-4287-b17c-af99a21d6bf6","system_id":"levelo_inurba_marseille","lat":43.313571,"lon":5.384829,"is_reserved":false,"is_disabled":false,"rental_uris":{"android":"levelo://app?vid=54c4cd93-4f19-4287-b17c-af99a21d6bf6","ios":"levelo://app?vid=54c4cd93-4f19-4287-b17c-af99a21d6bf6"},"vehicle_type_id":"4","last_reported":1687151194,"current_range_meters":31200,"station_id":"ce4bgt92rcd13ifvqcf0","pricing_plan_id":"free"},{"bike_id":"dc3c93be-039e-4224-bd3d-5055014a0e41","system_id":"levelo_inurba_marseille","lat":43.305364,"lon":5.384119,"is_reserved":false,"is_disabled":false,"rental_uris":{"android":"levelo://app?vid=dc3c93be-039e-4224-bd3d-5055014a0e41","ios":"levelo://app?vid=dc3c93be-039e-4224-bd3d-5055014a0e41"},"vehicle_type_id":"4","last_reported":1687151194,"current_range_meters":22400,"station_id":"ce4bgg92rcd13ifvqb30","pricing_plan_id":"free"},{"bike_id":"cb1a8bb3-98a3-4cd9-b86b-992d79913eb2","system_id":"levelo_inurba_marseille","lat":43.305364,"lon":5.384119,"is_reserved":false,"is_disabled":false,"rental_uris":{"android":"levelo://app?vid=cb1a8bb3-98a3-4cd9-b86b-992d79913eb2","ios":"levelo://app?vid=cb1a8bb3-98a3-4cd9-b86b-992d79913eb2"},"vehicle_type_id":"4","last_reported":1687151194,"current_range_meters":17600,"station_id":"ce4bgg92rcd13ifvqb30","pricing_plan_id":"free"},{"bike_id":"43a22701-6405-47c2-839b-5bf41cca2dbb","system_id":"levelo_inurba_marseille","lat":43.298433,"lon":5.362774,"is_reserved":false,"is_disabled":false,"rental_uris":{"android":"levelo://app?vid=43a22701-6405-47c2-839b-5bf41cca2dbb","ios":"levelo://app?vid=43a22701-6405-47c2-839b-5bf41cca2dbb"},"vehicle_type_id":"4","last_reported":1687151194,"current_range_meters":31600,"station_id":"ce4bgpp2rcd13ifvqc3g","pricing_plan_id":"free"},{"bike_id":"f39e9586-17bb-47a9-b8e8-60f6b7c0e513","system_id":"levelo_inurba_marseille","lat":43.305364,"lon":5.384119,"is_reserved":false,"is_disabled":false,"rental_uris":{"android":"levelo://app?vid=f39e9586-17bb-47a9-b8e8-60f6b7c0e513","ios":"levelo://app?vid=f39e9586-17bb-47a9-b8e8-60f6b7c0e513"},"vehicle_type_id":"4","last_reported":1687151194,"current_range_meters":23600,"station_id":"ce4bgg92rcd13ifvqb30","pricing_plan_id":"free"},{"bike_id":"38a096bd-a78e-4b3c-9046-79745ab8d5a4","system_id":"levelo_inurba_marseille","lat":43.305364,"lon":5.384119,"is_reserved":false,"is_disabled":false,"rental_uris":{"android":"levelo://app?vid=38a096bd-a78e-4b3c-9046-79745ab8d5a4","ios":"levelo://app?vid=38a096bd-a78e-4b3c-9046-79745ab8d5a4"},"vehicle_type_id":"4","last_reported":1687151194,"current_range_meters":31200,"station_id":"ce4bgg92rcd13ifvqb30","pricing_plan_id":"free"},{"bike_id":"859f9796-dcd9-4a11-b749-1ead1e3f9c61","system_id":"levelo_inurba_marseille","lat":43.305364,"lon":5.384119,"is_reserved":false,"is_disabled":false,"rental_uris":{"android":"levelo://app?vid=859f9796-dcd9-4a11-b749-1ead1e3f9c61","ios":"levelo://app?vid=859f9796-dcd9-4a11-b749-1ead1e3f9c61"},"vehicle_type_id":"4","last_reported":1687151194,"current_range_meters":31200,"station_id":"ce4bgg92rcd13ifvqb30","pricing_plan_id":"free"},{"bike_id":"600e7b60-260a-4ad9-8f33-948965986d5d","system_id":"levelo_inurba_marseille","lat":43.305364,"lon":5.384119,"is_reserved":false,"is_disabled":false,"rental_uris":{"android":"levelo://app?vid=600e7b60-260a-4ad9-8f33-948965986d5d","ios":"levelo://app?vid=600e7b60-260a-4ad9-8f33-948965986d5d"},"vehicle_type_id":"4","last_reported":1687151194,"current_range_meters":24800,"station_id":"ce4bgg92rcd13ifvqb30","pricing_plan_id":"free"},{"bike_id":"d425f23c-bf97-4ef9-9970-3c86ae6891d6","system_id":"levelo_inurba_marseille","lat":43.305364,"lon":5.384119,"is_reserved":false,"is_disabled":false,"rental_uris":{"android":"levelo://app?vid=d425f23c-bf97-4ef9-9970-3c86ae6891d6","ios":"levelo://app?vid=d425f23c-bf97-4ef9-9970-3c86ae6891d6"},"vehicle_type_id":"4","last_reported":1687151194,"current_range_meters":29600,"station_id":"ce4bgg92rcd13ifvqb30","pricing_plan_id":"free"},{"bike_id":"edbbe7d7-2c34-4517-ac5a-e262f6362260","system_id":"levelo_inurba_marseille","lat":43.305364,"lon":5.384119,"is_reserved":false,"is_disabled":false,"rental_uris":{"android":"levelo://app?vid=edbbe7d7-2c34-4517-ac5a-e262f6362260","ios":"levelo://app?vid=edbbe7d7-2c34-4517-ac5a-e262f6362260"},"vehicle_type_id":"4","last_reported":1687151194,"current_range_meters":15600,"station_id":"ce4bgg92rcd13ifvqb30","pricing_plan_id":"free"},{"bike_id":"11273a91-2ea3-4e1f-824a-4b0fbf26ac02","system_id":"levelo_inurba_marseille","lat":43.305364,"lon":5.384119,"is_reserved":false,"is_disabled":false,"rental_uris":{"android":"levelo://app?vid=11273a91-2ea3-4e1f-824a-4b0fbf26ac02","ios":"levelo://app?vid=11273a91-2ea3-4e1f-824a-4b0fbf26ac02"},"vehicle_type_id":"4","last_reported":1687151194,"current_range_meters":31200,"station_id":"ce4bgg92rcd13ifvqb30","pricing_plan_id":"free"},{"bike_id":"aae09e38-c8e1-4b5a-b25b-873d580b0cf1","system_id":"levelo_inurba_marseille","lat":43.298433,"lon":5.362774,"is_reserved":false,"is_disabled":false,"rental_uris":{"android":"levelo://app?vid=aae09e38-c8e1-4b5a-b25b-873d580b0cf1","ios":"levelo://app?vid=aae09e38-c8e1-4b5a-b25b-873d580b0cf1"},"vehicle_type_id":"4","last_reported":1687151194,"current_range_meters":24400,"station_id":"ce4bgpp2rcd13ifvqc3g","pricing_plan_id":"free"},{"bike_id":"e961735d-01b5-4005-b4ca-7e950fa12171","system_id":"levelo_inurba_marseille","lat":43.311722,"lon":5.387247,"is_reserved":false,"is_disabled":false,"rental_uris":{"android":"levelo://app?vid=e961735d-01b5-4005-b4ca-7e950fa12171","ios":"levelo://app?vid=e961735d-01b5-4005-b4ca-7e950fa12171"},"vehicle_type_id":"4","last_reported":1687151194,"current_range_meters":30800,"station_id":"ce4bgv12rcd13ifvqcp0","pricing_plan_id":"free"},{"bike_id":"5aebe53f-c43b-42ee-9f42-fa21866283fa","system_id":"levelo_inurba_marseille","lat":43.305364,"lon":5.384119,"is_reserved":false,"is_disabled":false,"rental_uris":{"android":"levelo://app?vid=5aebe53f-c43b-42ee-9f42-fa21866283fa","ios":"levelo://app?vid=5aebe53f-c43b-42ee-9f42-fa21866283fa"},"vehicle_type_id":"4","last_reported":1687151194,"current_range_meters":18400,"station_id":"ce4bgg92rcd13ifvqb30","pricing_plan_id":"free"},{"bike_id":"26fb3d9e-349e-4452-aa18-e14e4d4ee6ec","system_id":"levelo_inurba_marseille","lat":43.311722,"lon":5.387247,"is_reserved":false,"is_disabled":false,"rental_uris":{"android":"levelo://app?vid=26fb3d9e-349e-4452-aa18-e14e4d4ee6ec","ios":"levelo://app?vid=26fb3d9e-349e-4452-aa18-e14e4d4ee6ec"},"vehicle_type_id":"4","last_reported":1687151194,"current_range_meters":31600,"station_id":"ce4bgv12rcd13ifvqcp0","pricing_plan_id":"free"},{"bike_id":"4c4be89d-30ae-4c75-9600-ceea1d217d16","system_id":"levelo_inurba_marseille","lat":43.311722,"lon":5.387247,"is_reserved":false,"is_disabled":false,"rental_uris":{"android":"levelo://app?vid=4c4be89d-30ae-4c75-9600-ceea1d217d16","ios":"levelo://app?vid=4c4be89d-30ae-4c75-9600-ceea1d217d16"},"vehicle_type_id":"4","last_reported":1687151194,"current_range_meters":31600,"station_id":"ce4bgv12rcd13ifvqcp0","pricing_plan_id":"free"},{"bike_id":"ceb2bda3-747a-4ce3-8574-13fc5badd253","system_id":"levelo_inurba_marseille","lat":43.305364,"lon":5.384119,"is_reserved":false,"is_disabled":false,"rental_uris":{"android":"levelo://app?vid=ceb2bda3-747a-4ce3-8574-13fc5badd253","ios":"levelo://app?vid=ceb2bda3-747a-4ce3-8574-13fc5badd253"},"vehicle_type_id":"4","last_reported":1687151194,"current_range_meters":28800,"station_id":"ce4bgg92rcd13ifvqb30","pricing_plan_id":"free"},{"bike_id":"a001fc12-e88f-4cef-80cf-4aa00128ef3c","system_id":"levelo_inurba_marseille","lat":43.311722,"lon":5.387247,"is_reserved":false,"is_disabled":false,"rental_uris":{"android":"levelo://app?vid=a001fc12-e88f-4cef-80cf-4aa00128ef3c","ios":"levelo://app?vid=a001fc12-e88f-4cef-80cf-4aa00128ef3c"},"vehicle_type_id":"4","last_reported":1687151194,"current_range_meters":31600,"station_id":"ce4bgv12rcd13ifvqcp0","pricing_plan_id":"free"},{"bike_id":"40251fb6-e2d0-4b5d-b2df-ae489de72ccf","system_id":"levelo_inurba_marseille","lat":43.31165,"lon":5.38715,"is_reserved":false,"is_disabled":false,"rental_uris":{"android":"levelo://app?vid=40251fb6-e2d0-4b5d-b2df-ae489de72ccf","ios":"levelo://app?vid=40251fb6-e2d0-4b5d-b2df-ae489de72ccf"},"vehicle_type_id":"4","last_reported":1687151194,"current_range_meters":17600,"station_id":"ce4bgv12rcd13ifvqcp0","pricing_plan_id":"free"},{"bike_id":"7ba9e514-8e7c-4705-a489-72254707f22a","system_id":"levelo_inurba_marseille","lat":43.31171,"lon":5.38719,"is_reserved":false,"is_disabled":false,"rental_uris":{"android":"levelo://app?vid=7ba9e514-8e7c-4705-a489-72254707f22a","ios":"levelo://app?vid=7ba9e514-8e7c-4705-a489-72254707f22a"},"vehicle_type_id":"4","last_reported":1687151194,"current_range_meters":14400,"station_id":"ce4bgv12rcd13ifvqcp0","pricing_plan_id":"free"},{"bike_id":"9e9351f0-a29b-4169-9ccf-cc3e7db7a9e1","system_id":"levelo_inurba_marseille","lat":43.299243,"lon":5.374807,"is_reserved":false,"is_disabled":false,"rental_uris":{"android":"levelo://app?vid=9e9351f0-a29b-4169-9ccf-cc3e7db7a9e1","ios":"levelo://app?vid=9e9351f0-a29b-4169-9ccf-cc3e7db7a9e1"},"vehicle_type_id":"4","last_reported":1687151194,"current_range_meters":29600,"station_id":"ce4bgjh2rcd13ifvqbg0","pricing_plan_id":"free"},{"bike_id":"a54d45d8-7ccc-4b4a-8034-c656383b27dc","system_id":"levelo_inurba_marseille","lat":43.31176,"lon":5.3872,"is_reserved":false,"is_disabled":false,"rental_uris":{"android":"levelo://app?vid=a54d45d8-7ccc-4b4a-8034-c656383b27dc","ios":"levelo://app?vid=a54d45d8-7ccc-4b4a-8034-c656383b27dc"},"vehicle_type_id":"4","last_reported":1687151194,"current_range_meters":23600,"station_id":"ce4bgv12rcd13ifvqcp0","pricing_plan_id":"free"},{"bike_id":"00abe58a-7989-40f4-bf2d-076efc7505b3","system_id":"levelo_inurba_marseille","lat":43.3117,"lon":5.3872,"is_reserved":false,"is_disabled":false,"rental_uris":{"android":"levelo://app?vid=00abe58a-7989-40f4-bf2d-076efc7505b3","ios":"levelo://app?vid=00abe58a-7989-40f4-bf2d-076efc7505b3"},"vehicle_type_id":"4","last_reported":1687151194,"current_range_meters":30000,"station_id":"ce4bgv12rcd13ifvqcp0","pricing_plan_id":"free"},{"bike_id":"a18869f0-6d32-4e7f-9bb4-d1773baeef3c","system_id":"levelo_inurba_marseille","lat":43.31169,"lon":5.3872,"is_reserved":false,"is_disabled":false,"rental_uris":{"android":"levelo://app?vid=a18869f0-6d32-4e7f-9bb4-d1773baeef3c","ios":"levelo://app?vid=a18869f0-6d32-4e7f-9bb4-d1773baeef3c"},"vehicle_type_id":"4","last_reported":1687151194,"current_range_meters":25200,"station_id":"ce4bgv12rcd13ifvqcp0","pricing_plan_id":"free"},{"bike_id":"a1ca185a-1fd0-4298-88d8-9dcebfe14df5","system_id":"levelo_inurba_marseille","lat":43.311722,"lon":5.387247,"is_reserved":false,"is_disabled":false,"rental_uris":{"android":"levelo://app?vid=a1ca185a-1fd0-4298-88d8-9dcebfe14df5","ios":"levelo://app?vid=a1ca185a-1fd0-4298-88d8-9dcebfe14df5"},"vehicle_type_id":"4","last_reported":1687151194,"current_range_meters":28400,"station_id":"ce4bgv12rcd13ifvqcp0","pricing_plan_id":"free"},{"bike_id":"fb567dc8-1a35-40c9-8e19-00b85bc661d0","system_id":"levelo_inurba_marseille","lat":43.299243,"lon":5.37481,"is_reserved":false,"is_disabled":false,"rental_uris":{"android":"levelo://app?vid=fb567dc8-1a35-40c9-8e19-00b85bc661d0","ios":"levelo://app?vid=fb567dc8-1a35-40c9-8e19-00b85bc661d0"},"vehicle_type_id":"4","last_reported":1687151194,"current_range_meters":28000,"station_id":"ce4bgjh2rcd13ifvqbg0","pricing_plan_id":"free"},{"bike_id":"af0a39cb-c9f7-4640-b9ca-1943a1bfa220","system_id":"levelo_inurba_marseille","lat":43.297794,"lon":5.370888,"is_reserved":false,"is_disabled":false,"rental_uris":{"android":"levelo://app?vid=af0a39cb-c9f7-4640-b9ca-1943a1bfa220","ios":"levelo://app?vid=af0a39cb-c9f7-4640-b9ca-1943a1bfa220"},"vehicle_type_id":"4","last_reported":1687151194,"current_range_meters":24000,"station_id":"ce4bgop2rcd13ifvqc1g","pricing_plan_id":"free"},{"bike_id":"40e11d51-6f36-4fc2-b16e-d7d4747a8a21","system_id":"levelo_inurba_marseille","lat":43.297794,"lon":5.370888,"is_reserved":false,"is_disabled":false,"rental_uris":{"android":"levelo://app?vid=40e11d51-6f36-4fc2-b16e-d7d4747a8a21","ios":"levelo://app?vid=40e11d51-6f36-4fc2-b16e-d7d4747a8a21"},"vehicle_type_id":"4","last_reported":1687151194,"current_range_meters":12800,"station_id":"ce4bgop2rcd13ifvqc1g","pricing_plan_id":"free"},{"bike_id":"6bbb9937-ded3-4d58-9f1c-b0e3454cca8d","system_id":"levelo_inurba_marseille","lat":43.327958,"lon":5.366921,"is_reserved":false,"is_disabled":false,"rental_uris":{"android":"levelo://app?vid=6bbb9937-ded3-4d58-9f1c-b0e3454cca8d","ios":"levelo://app?vid=6bbb9937-ded3-4d58-9f1c-b0e3454cca8d"},"vehicle_type_id":"4","last_reported":1687151194,"current_range_meters":8400,"station_id":"ce4bhs92rcd13ifvqi0g","pricing_plan_id":"free"},{"bike_id":"6d5ccf33-759a-4c7a-af82-9f67388b4177","system_id":"levelo_inurba_marseille","lat":43.32827,"lon":5.3669,"is_reserved":false,"is_disabled":false,"rental_uris":{"android":"levelo://app?vid=6d5ccf33-759a-4c7a-af82-9f67388b4177","ios":"levelo://app?vid=6d5ccf33-759a-4c7a-af82-9f67388b4177"},"vehicle_type_id":"4","last_reported":1687151194,"current_range_meters":28000,"station_id":"ce4bhs92rcd13ifvqi0g","pricing_plan_id":"free"},{"bike_id":"d5913676-3aea-4224-a1da-27f1730222d8","system_id":"levelo_inurba_marseille","lat":43.32828,"lon":5.36692,"is_reserved":false,"is_disabled":false,"rental_uris":{"android":"levelo://app?vid=d5913676-3aea-4224-a1da-27f1730222d8","ios":"levelo://app?vid=d5913676-3aea-4224-a1da-27f1730222d8"},"vehicle_type_id":"4","last_reported":1687151194,"current_range_meters":20800,"station_id":"ce4bhs92rcd13ifvqi0g","pricing_plan_id":"free"},{"bike_id":"27e857a0-6074-435d-85c0-7fc3761f1cbb","system_id":"levelo_inurba_marseille","lat":43.32828,"lon":5.36684,"is_reserved":false,"is_disabled":false,"rental_uris":{"android":"levelo://app?vid=27e857a0-6074-435d-85c0-7fc3761f1cbb","ios":"levelo://app?vid=27e857a0-6074-435d-85c0-7fc3761f1cbb"},"vehicle_type_id":"4","last_reported":1687151194,"current_range_meters":26800,"station_id":"ce4bhs92rcd13ifvqi0g","pricing_plan_id":"free"},{"bike_id":"800a8fe4-e773-4029-b94c-82d1cef7de65","system_id":"levelo_inurba_marseille","lat":43.32829,"lon":5.36694,"is_reserved":false,"is_disabled":false,"rental_uris":{"android":"levelo://app?vid=800a8fe4-e773-4029-b94c-82d1cef7de65","ios":"levelo://app?vid=800a8fe4-e773-4029-b94c-82d1cef7de65"},"vehicle_type_id":"4","last_reported":1687151194,"current_range_meters":27600,"station_id":"ce4bhs92rcd13ifvqi0g","pricing_plan_id":"free"},{"bike_id":"9e60ff88-fe04-4b70-9af4-05a83fe316c7","system_id":"levelo_inurba_marseille","lat":43.32829,"lon":5.36684,"is_reserved":false,"is_disabled":false,"rental_uris":{"android":"levelo://app?vid=9e60ff88-fe04-4b70-9af4-05a83fe316c7","ios":"levelo://app?vid=9e60ff88-fe04-4b70-9af4-05a83fe316c7"},"vehicle_type_id":"4","last_reported":1687151194,"current_range_meters":25600,"station_id":"ce4bhs92rcd13ifvqi0g","pricing_plan_id":"free"},{"bike_id":"731cce5d-c725-402d-b941-54910a08f036","system_id":"levelo_inurba_marseille","lat":43.328371,"lon":5.366912,"is_reserved":false,"is_disabled":false,"rental_uris":{"android":"levelo://app?vid=731cce5d-c725-402d-b941-54910a08f036","ios":"levelo://app?vid=731cce5d-c725-402d-b941-54910a08f036"},"vehicle_type_id":"4","last_reported":1687151194,"current_range_meters":27200,"station_id":"ce4bhs92rcd13ifvqi0g","pricing_plan_id":"free"},{"bike_id":"c4c82479-60a6-4390-8970-3229e3eebb9c","system_id":"levelo_inurba_marseille","lat":43.3283,"lon":5.36696,"is_reserved":false,"is_disabled":false,"rental_uris":{"android":"levelo://app?vid=c4c82479-60a6-4390-8970-3229e3eebb9c","ios":"levelo://app?vid=c4c82479-60a6-4390-8970-3229e3eebb9c"},"vehicle_type_id":"4","last_reported":1687151194,"current_range_meters":16400,"station_id":"ce4bhs92rcd13ifvqi0g","pricing_plan_id":"free"},{"bike_id":"208819ee-4941-406c-8824-cfd62db04c30","system_id":"levelo_inurba_marseille","lat":43.328371,"lon":5.366909,"is_reserved":false,"is_disabled":false,"rental_uris":{"android":"levelo://app?vid=208819ee-4941-406c-8824-cfd62db04c30","ios":"levelo://app?vid=208819ee-4941-406c-8824-cfd62db04c30"},"vehicle_type_id":"4","last_reported":1687151194,"current_range_meters":26000,"station_id":"ce4bhs92rcd13ifvqi0g","pricing_plan_id":"free"},{"bike_id":"69bf5c29-7e5d-45c7-b1b2-514d42707ee7","system_id":"levelo_inurba_marseille","lat":43.32831,"lon":5.36681,"is_reserved":false,"is_disabled":false,"rental_uris":{"android":"levelo://app?vid=69bf5c29-7e5d-45c7-b1b2-514d42707ee7","ios":"levelo://app?vid=69bf5c29-7e5d-45c7-b1b2-514d42707ee7"},"vehicle_type_id":"4","last_reported":1687151194,"current_range_meters":27600,"station_id":"ce4bhs92rcd13ifvqi0g","pricing_plan_id":"free"},{"bike_id":"78911849-321a-41c5-b67b-eefecdab885b","system_id":"levelo_inurba_marseille","lat":43.328371,"lon":5.366912,"is_reserved":false,"is_disabled":false,"rental_uris":{"android":"levelo://app?vid=78911849-321a-41c5-b67b-eefecdab885b","ios":"levelo://app?vid=78911849-321a-41c5-b67b-eefecdab885b"},"vehicle_type_id":"4","last_reported":1687151194,"current_range_meters":0,"station_id":"ce4bhs92rcd13ifvqi0g","pricing_plan_id":"free"},{"bike_id":"8eaea6a4-f041-48cd-95e3-a319d8adf05e","system_id":"levelo_inurba_marseille","lat":43.32833,"lon":5.36693,"is_reserved":false,"is_disabled":false,"rental_uris":{"android":"levelo://app?vid=8eaea6a4-f041-48cd-95e3-a319d8adf05e","ios":"levelo://app?vid=8eaea6a4-f041-48cd-95e3-a319d8adf05e"},"vehicle_type_id":"4","last_reported":1687151194,"current_range_meters":20000,"station_id":"ce4bhs92rcd13ifvqi0g","pricing_plan_id":"free"},{"bike_id":"176f4894-d7fc-460e-aa5d-7c8c1e206dc3","system_id":"levelo_inurba_marseille","lat":43.297163,"lon":5.365866,"is_reserved":false,"is_disabled":false,"rental_uris":{"android":"levelo://app?vid=176f4894-d7fc-460e-aa5d-7c8c1e206dc3","ios":"levelo://app?vid=176f4894-d7fc-460e-aa5d-7c8c1e206dc3"},"vehicle_type_id":"4","last_reported":1687151194,"current_range_meters":8400,"station_id":"ce4bgn12rcd13ifvqbt0","pricing_plan_id":"free"},{"bike_id":"bb3b8759-6ae7-457a-9856-4c6a1e4a3d4f","system_id":"levelo_inurba_marseille","lat":43.29675,"lon":5.37289,"is_reserved":false,"is_disabled":false,"rental_uris":{"android":"levelo://app?vid=bb3b8759-6ae7-457a-9856-4c6a1e4a3d4f","ios":"levelo://app?vid=bb3b8759-6ae7-457a-9856-4c6a1e4a3d4f"},"vehicle_type_id":"4","last_reported":1687151194,"current_range_meters":17600,"station_id":"ce4bgk12rcd13ifvqbj0","pricing_plan_id":"free"},{"bike_id":"88d0330c-5bb0-4a19-9b65-d4683b42e015","system_id":"levelo_inurba_marseille","lat":43.29683,"lon":5.36046,"is_reserved":false,"is_disabled":false,"rental_uris":{"android":"levelo://app?vid=88d0330c-5bb0-4a19-9b65-d4683b42e015","ios":"levelo://app?vid=88d0330c-5bb0-4a19-9b65-d4683b42e015"},"vehicle_type_id":"4","last_reported":1687151194,"current_range_meters":0,"station_id":"","pricing_plan_id":"free"},{"bike_id":"a0ac1836-36e2-44c7-8baf-c724868d8e6b","system_id":"levelo_inurba_marseille","lat":43.29624,"lon":5.37156,"is_reserved":false,"is_disabled":false,"rental_uris":{"android":"levelo://app?vid=a0ac1836-36e2-44c7-8baf-c724868d8e6b","ios":"levelo://app?vid=a0ac1836-36e2-44c7-8baf-c724868d8e6b"},"vehicle_type_id":"4","last_reported":1687151194,"current_range_meters":27200,"station_id":"","pricing_plan_id":"free"},{"bike_id":"24f41ca5-b432-4feb-a0c8-a15026b97306","system_id":"levelo_inurba_marseille","lat":43.296131,"lon":5.370773,"is_reserved":false,"is_disabled":false,"rental_uris":{"android":"levelo://app?vid=24f41ca5-b432-4feb-a0c8-a15026b97306","ios":"levelo://app?vid=24f41ca5-b432-4feb-a0c8-a15026b97306"},"vehicle_type_id":"4","last_reported":1687151194,"current_range_meters":9600,"station_id":"ce4bgnh2rcd13ifvqc0g","pricing_plan_id":"free"},{"bike_id":"18e719bc-a8e1-4f8c-a532-29c6271a50f7","system_id":"levelo_inurba_marseille","lat":43.296935,"lon":5.376544,"is_reserved":false,"is_disabled":false,"rental_uris":{"android":"levelo://app?vid=18e719bc-a8e1-4f8c-a532-29c6271a50f7","ios":"levelo://app?vid=18e719bc-a8e1-4f8c-a532-29c6271a50f7"},"vehicle_type_id":"4","last_reported":1687151194,"current_range_meters":28800,"station_id":"ce4bgkh2rcd13ifvqbl0","pricing_plan_id":"free"},{"bike_id":"4d497ffc-2d56-464b-b2a8-20f9b853bda5","system_id":"levelo_inurba_marseille","lat":43.296921,"lon":5.376579,"is_reserved":false,"is_disabled":false,"rental_uris":{"android":"levelo://app?vid=4d497ffc-2d56-464b-b2a8-20f9b853bda5","ios":"levelo://app?vid=4d497ffc-2d56-464b-b2a8-20f9b853bda5"},"vehicle_type_id":"4","last_reported":1687151194,"current_range_meters":30400,"station_id":"ce4bgkh2rcd13ifvqbl0","pricing_plan_id":"free"},{"bike_id":"5788fcd7-dbaa-43ed-a2b1-98e40a5eadc9","system_id":"levelo_inurba_marseille","lat":43.299028,"lon":5.381509,"is_reserved":false,"is_disabled":false,"rental_uris":{"android":"levelo://app?vid=5788fcd7-dbaa-43ed-a2b1-98e40a5eadc9","ios":"levelo://app?vid=5788fcd7-dbaa-43ed-a2b1-98e40a5eadc9"},"vehicle_type_id":"4","last_reported":1687151194,"current_range_meters":27600,"station_id":"ce4bgj12rcd13ifvqbc0","pricing_plan_id":"free"},{"bike_id":"7438408d-373d-4d35-ac3b-535887c85c37","system_id":"levelo_inurba_marseille","lat":43.299,"lon":5.3811,"is_reserved":false,"is_disabled":false,"rental_uris":{"android":"levelo://app?vid=7438408d-373d-4d35-ac3b-535887c85c37","ios":"levelo://app?vid=7438408d-373d-4d35-ac3b-535887c85c37"},"vehicle_type_id":"4","last_reported":1687151194,"current_range_meters":27200,"station_id":"ce4bgj12rcd13ifvqbc0","pricing_plan_id":"free"},{"bike_id":"f24d8100-e7bf-4f18-870c-42b8d7411177","system_id":"levelo_inurba_marseille","lat":43.299028,"lon":5.381509,"is_reserved":false,"is_disabled":false,"rental_uris":{"android":"levelo://app?vid=f24d8100-e7bf-4f18-870c-42b8d7411177","ios":"levelo://app?vid=f24d8100-e7bf-4f18-870c-42b8d7411177"},"vehicle_type_id":"4","last_reported":1687151194,"current_range_meters":23600,"station_id":"ce4bgj12rcd13ifvqbc0","pricing_plan_id":"free"},{"bike_id":"7a5cf592-0d7a-452c-a278-b2c396c8761c","system_id":"levelo_inurba_marseille","lat":43.299028,"lon":5.381509,"is_reserved":false,"is_disabled":false,"rental_uris":{"android":"levelo://app?vid=7a5cf592-0d7a-452c-a278-b2c396c8761c","ios":"levelo://app?vid=7a5cf592-0d7a-452c-a278-b2c396c8761c"},"vehicle_type_id":"4","last_reported":1687151194,"current_range_meters":28400,"station_id":"ce4bgj12rcd13ifvqbc0","pricing_plan_id":"free"},{"bike_id":"e03851ea-380b-4dbc-bb2d-fd58b2c34525","system_id":"levelo_inurba_marseille","lat":43.299028,"lon":5.381509,"is_reserved":false,"is_disabled":false,"rental_uris":{"android":"levelo://app?vid=e03851ea-380b-4dbc-bb2d-fd58b2c34525","ios":"levelo://app?vid=e03851ea-380b-4dbc-bb2d-fd58b2c34525"},"vehicle_type_id":"4","last_reported":1687151194,"current_range_meters":31600,"station_id":"ce4bgj12rcd13ifvqbc0","pricing_plan_id":"free"},{"bike_id":"f1ebb67f-8a58-48c4-8ab7-c84cd31796f2","system_id":"levelo_inurba_marseille","lat":43.296935,"lon":5.376544,"is_reserved":false,"is_disabled":false,"rental_uris":{"android":"levelo://app?vid=f1ebb67f-8a58-48c4-8ab7-c84cd31796f2","ios":"levelo://app?vid=f1ebb67f-8a58-48c4-8ab7-c84cd31796f2"},"vehicle_type_id":"4","last_reported":1687151194,"current_range_meters":31600,"station_id":"ce4bgkh2rcd13ifvqbl0","pricing_plan_id":"free"},{"bike_id":"e296bdd4-11a0-4062-95e1-fc0ccef7010d","system_id":"levelo_inurba_marseille","lat":43.299028,"lon":5.381509,"is_reserved":false,"is_disabled":false,"rental_uris":{"android":"levelo://app?vid=e296bdd4-11a0-4062-95e1-fc0ccef7010d","ios":"levelo://app?vid=e296bdd4-11a0-4062-95e1-fc0ccef7010d"},"vehicle_type_id":"4","last_reported":1687151194,"current_range_meters":31200,"station_id":"ce4bgj12rcd13ifvqbc0","pricing_plan_id":"free"},{"bike_id":"cbc42438-e24e-4a46-aa40-53a35b6e40dc","system_id":"levelo_inurba_marseille","lat":43.299028,"lon":5.381509,"is_reserved":false,"is_disabled":false,"rental_uris":{"android":"levelo://app?vid=cbc42438-e24e-4a46-aa40-53a35b6e40dc","ios":"levelo://app?vid=cbc42438-e24e-4a46-aa40-53a35b6e40dc"},"vehicle_type_id":"4","last_reported":1687151194,"current_range_meters":31200,"station_id":"ce4bgj12rcd13ifvqbc0","pricing_plan_id":"free"},{"bike_id":"1ba57c2c-9ee7-4959-ae6c-e763d38e6f0e","system_id":"levelo_inurba_marseille","lat":43.299069,"lon":5.381508,"is_reserved":false,"is_disabled":false,"rental_uris":{"android":"levelo://app?vid=1ba57c2c-9ee7-4959-ae6c-e763d38e6f0e","ios":"levelo://app?vid=1ba57c2c-9ee7-4959-ae6c-e763d38e6f0e"},"vehicle_type_id":"4","last_reported":1687151194,"current_range_meters":29200,"station_id":"ce4bgj12rcd13ifvqbc0","pricing_plan_id":"free"},{"bike_id":"a8e126d5-0b6d-4361-9687-6f412c6a33e9","system_id":"levelo_inurba_marseille","lat":43.299028,"lon":5.381509,"is_reserved":false,"is_disabled":false,"rental_uris":{"android":"levelo://app?vid=a8e126d5-0b6d-4361-9687-6f412c6a33e9","ios":"levelo://app?vid=a8e126d5-0b6d-4361-9687-6f412c6a33e9"},"vehicle_type_id":"4","last_reported":1687151194,"current_range_meters":23600,"station_id":"ce4bgj12rcd13ifvqbc0","pricing_plan_id":"free"},{"bike_id":"478ef7c8-e92d-4c33-83db-9ac8c592fc6b","system_id":"levelo_inurba_marseille","lat":43.299028,"lon":5.381509,"is_reserved":false,"is_disabled":false,"rental_uris":{"android":"levelo://app?vid=478ef7c8-e92d-4c33-83db-9ac8c592fc6b","ios":"levelo://app?vid=478ef7c8-e92d-4c33-83db-9ac8c592fc6b"},"vehicle_type_id":"4","last_reported":1687151194,"current_range_meters":31200,"station_id":"ce4bgj12rcd13ifvqbc0","pricing_plan_id":"free"},{"bike_id":"51d00f4f-6191-49e8-983d-4cc3f364930e","system_id":"levelo_inurba_marseille","lat":43.299028,"lon":5.381509,"is_reserved":false,"is_disabled":false,"rental_uris":{"android":"levelo://app?vid=51d00f4f-6191-49e8-983d-4cc3f364930e","ios":"levelo://app?vid=51d00f4f-6191-49e8-983d-4cc3f364930e"},"vehicle_type_id":"4","last_reported":1687151194,"current_range_meters":14400,"station_id":"ce4bgj12rcd13ifvqbc0","pricing_plan_id":"free"},{"bike_id":"90cc246d-3993-4446-aa6a-b489fa03763b","system_id":"levelo_inurba_marseille","lat":43.299028,"lon":5.381509,"is_reserved":false,"is_disabled":false,"rental_uris":{"android":"levelo://app?vid=90cc246d-3993-4446-aa6a-b489fa03763b","ios":"levelo://app?vid=90cc246d-3993-4446-aa6a-b489fa03763b"},"vehicle_type_id":"4","last_reported":1687151194,"current_range_meters":400,"station_id":"ce4bgj12rcd13ifvqbc0","pricing_plan_id":"free"},{"bike_id":"15da9c21-c996-4ef8-b25d-711f7a3de842","system_id":"levelo_inurba_marseille","lat":43.299028,"lon":5.381509,"is_reserved":false,"is_disabled":false,"rental_uris":{"android":"levelo://app?vid=15da9c21-c996-4ef8-b25d-711f7a3de842","ios":"levelo://app?vid=15da9c21-c996-4ef8-b25d-711f7a3de842"},"vehicle_type_id":"4","last_reported":1687151194,"current_range_meters":12800,"station_id":"ce4bgj12rcd13ifvqbc0","pricing_plan_id":"free"},{"bike_id":"8d2b9794-2b22-43e5-ab2f-72b6caf2d511","system_id":"levelo_inurba_marseille","lat":43.299028,"lon":5.381509,"is_reserved":false,"is_disabled":false,"rental_uris":{"android":"levelo://app?vid=8d2b9794-2b22-43e5-ab2f-72b6caf2d511","ios":"levelo://app?vid=8d2b9794-2b22-43e5-ab2f-72b6caf2d511"},"vehicle_type_id":"4","last_reported":1687151194,"current_range_meters":24400,"station_id":"ce4bgj12rcd13ifvqbc0","pricing_plan_id":"free"},{"bike_id":"0cebafc0-002d-48d7-a0c8-ed936b30cb01","system_id":"levelo_inurba_marseille","lat":43.309589,"lon":5.390258,"is_reserved":false,"is_disabled":false,"rental_uris":{"android":"levelo://app?vid=0cebafc0-002d-48d7-a0c8-ed936b30cb01","ios":"levelo://app?vid=0cebafc0-002d-48d7-a0c8-ed936b30cb01"},"vehicle_type_id":"4","last_reported":1687151194,"current_range_meters":30000,"station_id":"ce4bgup2rcd13ifvqco0","pricing_plan_id":"free"},{"bike_id":"aa7dca81-7a0d-41dd-89bd-0436fa8403d8","system_id":"levelo_inurba_marseille","lat":43.296935,"lon":5.376544,"is_reserved":false,"is_disabled":false,"rental_uris":{"android":"levelo://app?vid=aa7dca81-7a0d-41dd-89bd-0436fa8403d8","ios":"levelo://app?vid=aa7dca81-7a0d-41dd-89bd-0436fa8403d8"},"vehicle_type_id":"4","last_reported":1687151194,"current_range_meters":29600,"station_id":"ce4bgkh2rcd13ifvqbl0","pricing_plan_id":"free"},{"bike_id":"5b65e241-1709-4cb6-a1d8-bfec0a23d654","system_id":"levelo_inurba_marseille","lat":43.29807,"lon":5.38074,"is_reserved":false,"is_disabled":false,"rental_uris":{"android":"levelo://app?vid=5b65e241-1709-4cb6-a1d8-bfec0a23d654","ios":"levelo://app?vid=5b65e241-1709-4cb6-a1d8-bfec0a23d654"},"vehicle_type_id":"4","last_reported":1687151194,"current_range_meters":15200,"station_id":"ce4bgip2rcd13ifvqbb0","pricing_plan_id":"free"},{"bike_id":"53a7b2a7-1653-4224-a855-fb5afe1c7931","system_id":"levelo_inurba_marseille","lat":43.29812,"lon":5.38098,"is_reserved":false,"is_disabled":false,"rental_uris":{"android":"levelo://app?vid=53a7b2a7-1653-4224-a855-fb5afe1c7931","ios":"levelo://app?vid=53a7b2a7-1653-4224-a855-fb5afe1c7931"},"vehicle_type_id":"4","last_reported":1687151194,"current_range_meters":31200,"station_id":"ce4bgip2rcd13ifvqbb0","pricing_plan_id":"free"},{"bike_id":"2d994c16-02cc-40a0-95f7-06bd5bff192b","system_id":"levelo_inurba_marseille","lat":43.29805,"lon":5.38097,"is_reserved":false,"is_disabled":false,"rental_uris":{"android":"levelo://app?vid=2d994c16-02cc-40a0-95f7-06bd5bff192b","ios":"levelo://app?vid=2d994c16-02cc-40a0-95f7-06bd5bff192b"},"vehicle_type_id":"4","last_reported":1687151194,"current_range_meters":31200,"station_id":"ce4bgip2rcd13ifvqbb0","pricing_plan_id":"free"},{"bike_id":"250c8a96-8498-4211-b8f3-1b00a8d1fbaf","system_id":"levelo_inurba_marseille","lat":43.296477,"lon":5.37768,"is_reserved":false,"is_disabled":false,"rental_uris":{"android":"levelo://app?vid=250c8a96-8498-4211-b8f3-1b00a8d1fbaf","ios":"levelo://app?vid=250c8a96-8498-4211-b8f3-1b00a8d1fbaf"},"vehicle_type_id":"4","last_reported":1687151194,"current_range_meters":10000,"station_id":"","pricing_plan_id":"free"},{"bike_id":"3c6d6064-a6a7-4151-8e6e-cd41a31751ae","system_id":"levelo_inurba_marseille","lat":43.298037,"lon":5.381066,"is_reserved":false,"is_disabled":false,"rental_uris":{"android":"levelo://app?vid=3c6d6064-a6a7-4151-8e6e-cd41a31751ae","ios":"levelo://app?vid=3c6d6064-a6a7-4151-8e6e-cd41a31751ae"},"vehicle_type_id":"4","last_reported":1687151194,"current_range_meters":9200,"station_id":"ce4bgip2rcd13ifvqbb0","pricing_plan_id":"free"},{"bike_id":"ef2b536f-1e47-4e9b-8cbf-ba5fcdb4bb56","system_id":"levelo_inurba_marseille","lat":43.295748,"lon":5.37522,"is_reserved":false,"is_disabled":false,"rental_uris":{"android":"levelo://app?vid=ef2b536f-1e47-4e9b-8cbf-ba5fcdb4bb56","ios":"levelo://app?vid=ef2b536f-1e47-4e9b-8cbf-ba5fcdb4bb56"},"vehicle_type_id":"4","last_reported":1687151194,"current_range_meters":30000,"station_id":"ce4bgh92rcd13ifvqb50","pricing_plan_id":"free"},{"bike_id":"a690f3c6-9702-4888-8eb9-51a8caa1a384","system_id":"levelo_inurba_marseille","lat":43.304274,"lon":5.388873,"is_reserved":false,"is_disabled":false,"rental_uris":{"android":"levelo://app?vid=a690f3c6-9702-4888-8eb9-51a8caa1a384","ios":"levelo://app?vid=a690f3c6-9702-4888-8eb9-51a8caa1a384"},"vehicle_type_id":"4","last_reported":1687151194,"current_range_meters":22800,"station_id":"ce4bgk12rcd13ifvqbi0","pricing_plan_id":"free"},{"bike_id":"00b67890-8203-485a-8e8e-446a5a6e9f59","system_id":"levelo_inurba_marseille","lat":43.304274,"lon":5.388873,"is_reserved":false,"is_disabled":false,"rental_uris":{"android":"levelo://app?vid=00b67890-8203-485a-8e8e-446a5a6e9f59","ios":"levelo://app?vid=00b67890-8203-485a-8e8e-446a5a6e9f59"},"vehicle_type_id":"4","last_reported":1687151194,"current_range_meters":31200,"station_id":"ce4bgk12rcd13ifvqbi0","pricing_plan_id":"free"},{"bike_id":"ac08aac7-1faf-44ea-91b9-f923b4d13a1b","system_id":"levelo_inurba_marseille","lat":43.30429,"lon":5.38893,"is_reserved":false,"is_disabled":false,"rental_uris":{"android":"levelo://app?vid=ac08aac7-1faf-44ea-91b9-f923b4d13a1b","ios":"levelo://app?vid=ac08aac7-1faf-44ea-91b9-f923b4d13a1b"},"vehicle_type_id":"4","last_reported":1687151194,"current_range_meters":31200,"station_id":"ce4bgk12rcd13ifvqbi0","pricing_plan_id":"free"},{"bike_id":"34086a97-339e-46ac-a35f-5105efe3882a","system_id":"levelo_inurba_marseille","lat":43.304274,"lon":5.388873,"is_reserved":false,"is_disabled":false,"rental_uris":{"android":"levelo://app?vid=34086a97-339e-46ac-a35f-5105efe3882a","ios":"levelo://app?vid=34086a97-339e-46ac-a35f-5105efe3882a"},"vehicle_type_id":"4","last_reported":1687151194,"current_range_meters":16800,"station_id":"ce4bgk12rcd13ifvqbi0","pricing_plan_id":"free"},{"bike_id":"713c0062-dc85-426f-b64a-fe0d89cbf129","system_id":"levelo_inurba_marseille","lat":43.295748,"lon":5.37522,"is_reserved":false,"is_disabled":false,"rental_uris":{"android":"levelo://app?vid=713c0062-dc85-426f-b64a-fe0d89cbf129","ios":"levelo://app?vid=713c0062-dc85-426f-b64a-fe0d89cbf129"},"vehicle_type_id":"4","last_reported":1687151194,"current_range_meters":31600,"station_id":"ce4bgh92rcd13ifvqb50","pricing_plan_id":"free"},{"bike_id":"4a2b742f-d076-40df-96fa-38ba7fae5551","system_id":"levelo_inurba_marseille","lat":43.295748,"lon":5.37522,"is_reserved":false,"is_disabled":false,"rental_uris":{"android":"levelo://app?vid=4a2b742f-d076-40df-96fa-38ba7fae5551","ios":"levelo://app?vid=4a2b742f-d076-40df-96fa-38ba7fae5551"},"vehicle_type_id":"4","last_reported":1687151194,"current_range_meters":30400,"station_id":"ce4bgh92rcd13ifvqb50","pricing_plan_id":"free"},{"bike_id":"928ede4e-207b-4f18-b184-d97ffce60949","system_id":"levelo_inurba_marseille","lat":43.296263,"lon":5.377094,"is_reserved":false,"is_disabled":false,"rental_uris":{"android":"levelo://app?vid=928ede4e-207b-4f18-b184-d97ffce60949","ios":"levelo://app?vid=928ede4e-207b-4f18-b184-d97ffce60949"},"vehicle_type_id":"4","last_reported":1687151194,"current_range_meters":31200,"station_id":"ce4bgi92rcd13ifvqb90","pricing_plan_id":"free"},{"bike_id":"279d0969-fce4-4b56-bc50-302880ffdefd","system_id":"levelo_inurba_marseille","lat":43.295279,"lon":5.375048,"is_reserved":false,"is_disabled":false,"rental_uris":{"android":"levelo://app?vid=279d0969-fce4-4b56-bc50-302880ffdefd","ios":"levelo://app?vid=279d0969-fce4-4b56-bc50-302880ffdefd"},"vehicle_type_id":"4","last_reported":1687151194,"current_range_meters":31600,"station_id":"ce4bgkp2rcd13ifvqbmg","pricing_plan_id":"free"},{"bike_id":"d9cebbbc-4680-410c-85ef-d1fa9e4c292e","system_id":"levelo_inurba_marseille","lat":43.296263,"lon":5.377094,"is_reserved":false,"is_disabled":false,"rental_uris":{"android":"levelo://app?vid=d9cebbbc-4680-410c-85ef-d1fa9e4c292e","ios":"levelo://app?vid=d9cebbbc-4680-410c-85ef-d1fa9e4c292e"},"vehicle_type_id":"4","last_reported":1687151194,"current_range_meters":31600,"station_id":"ce4bgi92rcd13ifvqb90","pricing_plan_id":"free"},{"bike_id":"dd35ed95-60d5-4daa-88d4-3eaa86142750","system_id":"levelo_inurba_marseille","lat":43.296263,"lon":5.377094,"is_reserved":false,"is_disabled":false,"rental_uris":{"android":"levelo://app?vid=dd35ed95-60d5-4daa-88d4-3eaa86142750","ios":"levelo://app?vid=dd35ed95-60d5-4daa-88d4-3eaa86142750"},"vehicle_type_id":"4","last_reported":1687151194,"current_range_meters":30800,"station_id":"ce4bgi92rcd13ifvqb90","pricing_plan_id":"free"},{"bike_id":"88f1ae0c-abeb-4e0a-b789-3db88077fa4f","system_id":"levelo_inurba_marseille","lat":43.296277,"lon":5.377108,"is_reserved":false,"is_disabled":false,"rental_uris":{"android":"levelo://app?vid=88f1ae0c-abeb-4e0a-b789-3db88077fa4f","ios":"levelo://app?vid=88f1ae0c-abeb-4e0a-b789-3db88077fa4f"},"vehicle_type_id":"4","last_reported":1687151194,"current_range_meters":31200,"station_id":"ce4bgi92rcd13ifvqb90","pricing_plan_id":"free"},{"bike_id":"f65fd1c1-23ee-4faa-982b-1e70de1033f6","system_id":"levelo_inurba_marseille","lat":43.299707,"lon":5.384859,"is_reserved":false,"is_disabled":false,"rental_uris":{"android":"levelo://app?vid=f65fd1c1-23ee-4faa-982b-1e70de1033f6","ios":"levelo://app?vid=f65fd1c1-23ee-4faa-982b-1e70de1033f6"},"vehicle_type_id":"4","last_reported":1687151194,"current_range_meters":28400,"station_id":"ce4bgj92rcd13ifvqbd0","pricing_plan_id":"free"},{"bike_id":"bb335696-9086-470f-9c5f-1244bc2e0b8f","system_id":"levelo_inurba_marseille","lat":43.299717,"lon":5.384845,"is_reserved":false,"is_disabled":false,"rental_uris":{"android":"levelo://app?vid=bb335696-9086-470f-9c5f-1244bc2e0b8f","ios":"levelo://app?vid=bb335696-9086-470f-9c5f-1244bc2e0b8f"},"vehicle_type_id":"4","last_reported":1687151194,"current_range_meters":31200,"station_id":"ce4bgj92rcd13ifvqbd0","pricing_plan_id":"free"},{"bike_id":"eb56f040-d7e3-440c-9d05-82afe187dd21","system_id":"levelo_inurba_marseille","lat":43.299724,"lon":5.384848,"is_reserved":false,"is_disabled":false,"rental_uris":{"android":"levelo://app?vid=eb56f040-d7e3-440c-9d05-82afe187dd21","ios":"levelo://app?vid=eb56f040-d7e3-440c-9d05-82afe187dd21"},"vehicle_type_id":"4","last_reported":1687151194,"current_range_meters":30000,"station_id":"ce4bgj92rcd13ifvqbd0","pricing_plan_id":"free"},{"bike_id":"0100a688-6eac-43d0-bf90-97c080a6e462","system_id":"levelo_inurba_marseille","lat":43.32367,"lon":5.388836,"is_reserved":false,"is_disabled":false,"rental_uris":{"android":"levelo://app?vid=0100a688-6eac-43d0-bf90-97c080a6e462","ios":"levelo://app?vid=0100a688-6eac-43d0-bf90-97c080a6e462"},"vehicle_type_id":"4","last_reported":1687151194,"current_range_meters":13600,"station_id":"ce4bhqp2rcd13ifvqhog","pricing_plan_id":"free"},{"bike_id":"669a1b9e-52a9-4af9-9c3d-10d925f74ffd","system_id":"levelo_inurba_marseille","lat":43.32367,"lon":5.388836,"is_reserved":false,"is_disabled":false,"rental_uris":{"android":"levelo://app?vid=669a1b9e-52a9-4af9-9c3d-10d925f74ffd","ios":"levelo://app?vid=669a1b9e-52a9-4af9-9c3d-10d925f74ffd"},"vehicle_type_id":"4","last_reported":1687151194,"current_range_meters":24400,"station_id":"ce4bhqp2rcd13ifvqhog","pricing_plan_id":"free"},{"bike_id":"64bf5995-e1cd-400c-b4dd-97956e1f681e","system_id":"levelo_inurba_marseille","lat":43.32367,"lon":5.388836,"is_reserved":false,"is_disabled":false,"rental_uris":{"android":"levelo://app?vid=64bf5995-e1cd-400c-b4dd-97956e1f681e","ios":"levelo://app?vid=64bf5995-e1cd-400c-b4dd-97956e1f681e"},"vehicle_type_id":"4","last_reported":1687151194,"current_range_meters":31200,"station_id":"ce4bhqp2rcd13ifvqhog","pricing_plan_id":"free"},{"bike_id":"37d845e9-3c8f-4eb1-bf92-0a9f519c8ecb","system_id":"levelo_inurba_marseille","lat":43.32367,"lon":5.388836,"is_reserved":false,"is_disabled":false,"rental_uris":{"android":"levelo://app?vid=37d845e9-3c8f-4eb1-bf92-0a9f519c8ecb","ios":"levelo://app?vid=37d845e9-3c8f-4eb1-bf92-0a9f519c8ecb"},"vehicle_type_id":"4","last_reported":1687151194,"current_range_meters":17200,"station_id":"ce4bhqp2rcd13ifvqhog","pricing_plan_id":"free"},{"bike_id":"9ff5e686-c760-4fee-b5de-d5d0394be428","system_id":"levelo_inurba_marseille","lat":43.32367,"lon":5.388836,"is_reserved":false,"is_disabled":false,"rental_uris":{"android":"levelo://app?vid=9ff5e686-c760-4fee-b5de-d5d0394be428","ios":"levelo://app?vid=9ff5e686-c760-4fee-b5de-d5d0394be428"},"vehicle_type_id":"4","last_reported":1687151194,"current_range_meters":31200,"station_id":"ce4bhqp2rcd13ifvqhog","pricing_plan_id":"free"},{"bike_id":"c25bbca6-334a-48c9-b2aa-c69eb97c9d81","system_id":"levelo_inurba_marseille","lat":43.32367,"lon":5.388836,"is_reserved":false,"is_disabled":false,"rental_uris":{"android":"levelo://app?vid=c25bbca6-334a-48c9-b2aa-c69eb97c9d81","ios":"levelo://app?vid=c25bbca6-334a-48c9-b2aa-c69eb97c9d81"},"vehicle_type_id":"4","last_reported":1687151194,"current_range_meters":27200,"station_id":"ce4bhqp2rcd13ifvqhog","pricing_plan_id":"free"},{"bike_id":"d852f6e7-92f3-42a5-90b9-92d33ffa9a5c","system_id":"levelo_inurba_marseille","lat":43.32367,"lon":5.388836,"is_reserved":false,"is_disabled":false,"rental_uris":{"android":"levelo://app?vid=d852f6e7-92f3-42a5-90b9-92d33ffa9a5c","ios":"levelo://app?vid=d852f6e7-92f3-42a5-90b9-92d33ffa9a5c"},"vehicle_type_id":"4","last_reported":1687151194,"current_range_meters":12800,"station_id":"ce4bhqp2rcd13ifvqhog","pricing_plan_id":"free"},{"bike_id":"50c6b16a-a581-4486-a79b-0bb2828ef218","system_id":"levelo_inurba_marseille","lat":43.292749,"lon":5.368398,"is_reserved":false,"is_disabled":false,"rental_uris":{"android":"levelo://app?vid=50c6b16a-a581-4486-a79b-0bb2828ef218","ios":"levelo://app?vid=50c6b16a-a581-4486-a79b-0bb2828ef218"},"vehicle_type_id":"4","last_reported":1687151194,"current_range_meters":31600,"station_id":"ce4bhbp2rcd13ifvqesg","pricing_plan_id":"free"},{"bike_id":"4d537006-7341-449e-a615-8468b2ec73a8","system_id":"levelo_inurba_marseille","lat":43.29275,"lon":5.36842,"is_reserved":false,"is_disabled":false,"rental_uris":{"android":"levelo://app?vid=4d537006-7341-449e-a615-8468b2ec73a8","ios":"levelo://app?vid=4d537006-7341-449e-a615-8468b2ec73a8"},"vehicle_type_id":"4","last_reported":1687151194,"current_range_meters":28800,"station_id":"ce4bhbp2rcd13ifvqesg","pricing_plan_id":"free"},{"bike_id":"a4ded9c5-a526-4c4f-ac6e-61fb22154aeb","system_id":"levelo_inurba_marseille","lat":43.29275,"lon":5.36844,"is_reserved":false,"is_disabled":false,"rental_uris":{"android":"levelo://app?vid=a4ded9c5-a526-4c4f-ac6e-61fb22154aeb","ios":"levelo://app?vid=a4ded9c5-a526-4c4f-ac6e-61fb22154aeb"},"vehicle_type_id":"4","last_reported":1687151194,"current_range_meters":30400,"station_id":"ce4bhbp2rcd13ifvqesg","pricing_plan_id":"free"},{"bike_id":"4486e74e-1e0b-4deb-9462-a1a3fd740926","system_id":"levelo_inurba_marseille","lat":43.29274,"lon":5.36843,"is_reserved":false,"is_disabled":false,"rental_uris":{"android":"levelo://app?vid=4486e74e-1e0b-4deb-9462-a1a3fd740926","ios":"levelo://app?vid=4486e74e-1e0b-4deb-9462-a1a3fd740926"},"vehicle_type_id":"4","last_reported":1687151194,"current_range_meters":29200,"station_id":"ce4bhbp2rcd13ifvqesg","pricing_plan_id":"free"},{"bike_id":"0405ee42-0511-48c8-b322-a05a8f5e7733","system_id":"levelo_inurba_marseille","lat":43.29274,"lon":5.36844,"is_reserved":false,"is_disabled":false,"rental_uris":{"android":"levelo://app?vid=0405ee42-0511-48c8-b322-a05a8f5e7733","ios":"levelo://app?vid=0405ee42-0511-48c8-b322-a05a8f5e7733"},"vehicle_type_id":"4","last_reported":1687151194,"current_range_meters":30800,"station_id":"ce4bhbp2rcd13ifvqesg","pricing_plan_id":"free"},{"bike_id":"ffb2eda2-9505-4658-ac80-0887b2e5a1ff","system_id":"levelo_inurba_marseille","lat":43.292749,"lon":5.368398,"is_reserved":false,"is_disabled":false,"rental_uris":{"android":"levelo://app?vid=ffb2eda2-9505-4658-ac80-0887b2e5a1ff","ios":"levelo://app?vid=ffb2eda2-9505-4658-ac80-0887b2e5a1ff"},"vehicle_type_id":"4","last_reported":1687151194,"current_range_meters":13200,"station_id":"ce4bhbp2rcd13ifvqesg","pricing_plan_id":"free"},{"bike_id":"8e97e258-dd3f-472c-888e-e51362a8a9c8","system_id":"levelo_inurba_marseille","lat":43.292749,"lon":5.368398,"is_reserved":false,"is_disabled":false,"rental_uris":{"android":"levelo://app?vid=8e97e258-dd3f-472c-888e-e51362a8a9c8","ios":"levelo://app?vid=8e97e258-dd3f-472c-888e-e51362a8a9c8"},"vehicle_type_id":"4","last_reported":1687151194,"current_range_meters":30000,"station_id":"ce4bhbp2rcd13ifvqesg","pricing_plan_id":"free"},{"bike_id":"242f8adf-4fcf-495a-ae1f-6b2099405c07","system_id":"levelo_inurba_marseille","lat":43.293009,"lon":5.374584,"is_reserved":false,"is_disabled":false,"rental_uris":{"android":"levelo://app?vid=242f8adf-4fcf-495a-ae1f-6b2099405c07","ios":"levelo://app?vid=242f8adf-4fcf-495a-ae1f-6b2099405c07"},"vehicle_type_id":"4","last_reported":1687151194,"current_range_meters":28400,"station_id":"ce4bgi12rcd13ifvqb70","pricing_plan_id":"free"},{"bike_id":"9ea28803-b44d-4a64-a1fb-9d13c8421bfe","system_id":"levelo_inurba_marseille","lat":43.293009,"lon":5.374584,"is_reserved":false,"is_disabled":false,"rental_uris":{"android":"levelo://app?vid=9ea28803-b44d-4a64-a1fb-9d13c8421bfe","ios":"levelo://app?vid=9ea28803-b44d-4a64-a1fb-9d13c8421bfe"},"vehicle_type_id":"4","last_reported":1687151194,"current_range_meters":12800,"station_id":"ce4bgi12rcd13ifvqb70","pricing_plan_id":"free"},{"bike_id":"fd5ed05c-863b-4971-bcca-036d1d2c2a10","system_id":"levelo_inurba_marseille","lat":43.293009,"lon":5.374584,"is_reserved":false,"is_disabled":false,"rental_uris":{"android":"levelo://app?vid=fd5ed05c-863b-4971-bcca-036d1d2c2a10","ios":"levelo://app?vid=fd5ed05c-863b-4971-bcca-036d1d2c2a10"},"vehicle_type_id":"4","last_reported":1687151194,"current_range_meters":31200,"station_id":"ce4bgi12rcd13ifvqb70","pricing_plan_id":"free"},{"bike_id":"a86485b1-5b49-48ce-a761-8f5bf2f7b859","system_id":"levelo_inurba_marseille","lat":43.298681,"lon":5.397225,"is_reserved":false,"is_disabled":false,"rental_uris":{"android":"levelo://app?vid=a86485b1-5b49-48ce-a761-8f5bf2f7b859","ios":"levelo://app?vid=a86485b1-5b49-48ce-a761-8f5bf2f7b859"},"vehicle_type_id":"4","last_reported":1687151194,"current_range_meters":18000,"station_id":"ce4bh0h2rcd13ifvqd50","pricing_plan_id":"free"},{"bike_id":"688bc0eb-9a9b-4bb0-adc0-de91767303cb","system_id":"levelo_inurba_marseille","lat":43.293009,"lon":5.374584,"is_reserved":false,"is_disabled":false,"rental_uris":{"android":"levelo://app?vid=688bc0eb-9a9b-4bb0-adc0-de91767303cb","ios":"levelo://app?vid=688bc0eb-9a9b-4bb0-adc0-de91767303cb"},"vehicle_type_id":"4","last_reported":1687151194,"current_range_meters":27600,"station_id":"ce4bgi12rcd13ifvqb70","pricing_plan_id":"free"},{"bike_id":"ccde9848-a9cb-45a1-b327-8bee9795fc5d","system_id":"levelo_inurba_marseille","lat":43.29343,"lon":5.37699,"is_reserved":false,"is_disabled":false,"rental_uris":{"android":"levelo://app?vid=ccde9848-a9cb-45a1-b327-8bee9795fc5d","ios":"levelo://app?vid=ccde9848-a9cb-45a1-b327-8bee9795fc5d"},"vehicle_type_id":"4","last_reported":1687151194,"current_range_meters":20000,"station_id":"","pricing_plan_id":"free"},{"bike_id":"66f7b604-8671-4154-a3a1-78698d96b66a","system_id":"levelo_inurba_marseille","lat":43.30312,"lon":5.39208,"is_reserved":false,"is_disabled":false,"rental_uris":{"android":"levelo://app?vid=66f7b604-8671-4154-a3a1-78698d96b66a","ios":"levelo://app?vid=66f7b604-8671-4154-a3a1-78698d96b66a"},"vehicle_type_id":"4","last_reported":1687151194,"current_range_meters":20000,"station_id":"ce4bgkh2rcd13ifvqbk0","pricing_plan_id":"free"},{"bike_id":"5cd39362-48f6-4555-8363-2ac971881ec8","system_id":"levelo_inurba_marseille","lat":43.302992,"lon":5.392136,"is_reserved":false,"is_disabled":false,"rental_uris":{"android":"levelo://app?vid=5cd39362-48f6-4555-8363-2ac971881ec8","ios":"levelo://app?vid=5cd39362-48f6-4555-8363-2ac971881ec8"},"vehicle_type_id":"4","last_reported":1687151194,"current_range_meters":31600,"station_id":"ce4bgkh2rcd13ifvqbk0","pricing_plan_id":"free"},{"bike_id":"b07df097-2610-4d7b-8f66-06bc42181497","system_id":"levelo_inurba_marseille","lat":43.300852,"lon":5.390859,"is_reserved":false,"is_disabled":false,"rental_uris":{"android":"levelo://app?vid=b07df097-2610-4d7b-8f66-06bc42181497","ios":"levelo://app?vid=b07df097-2610-4d7b-8f66-06bc42181497"},"vehicle_type_id":"4","last_reported":1687151194,"current_range_meters":31200,"station_id":"ce4bh192rcd13ifvqdb0","pricing_plan_id":"free"},{"bike_id":"02b161c5-66ca-4f08-8209-45cbb62ca75c","system_id":"levelo_inurba_marseille","lat":43.292311,"lon":5.360731,"is_reserved":false,"is_disabled":false,"rental_uris":{"android":"levelo://app?vid=02b161c5-66ca-4f08-8209-45cbb62ca75c","ios":"levelo://app?vid=02b161c5-66ca-4f08-8209-45cbb62ca75c"},"vehicle_type_id":"4","last_reported":1687151194,"current_range_meters":17200,"station_id":"ce4bhbh2rcd13ifvqeqg","pricing_plan_id":"free"},{"bike_id":"eaf9320f-08d0-412e-9001-ad5d233332ce","system_id":"levelo_inurba_marseille","lat":43.30085,"lon":5.390856,"is_reserved":false,"is_disabled":false,"rental_uris":{"android":"levelo://app?vid=eaf9320f-08d0-412e-9001-ad5d233332ce","ios":"levelo://app?vid=eaf9320f-08d0-412e-9001-ad5d233332ce"},"vehicle_type_id":"4","last_reported":1687151194,"current_range_meters":31200,"station_id":"ce4bh192rcd13ifvqdb0","pricing_plan_id":"free"},{"bike_id":"20c8d036-d350-4097-b4e6-ff1dc7b6ff31","system_id":"levelo_inurba_marseille","lat":43.292311,"lon":5.360731,"is_reserved":false,"is_disabled":false,"rental_uris":{"android":"levelo://app?vid=20c8d036-d350-4097-b4e6-ff1dc7b6ff31","ios":"levelo://app?vid=20c8d036-d350-4097-b4e6-ff1dc7b6ff31"},"vehicle_type_id":"4","last_reported":1687151194,"current_range_meters":22000,"station_id":"ce4bhbh2rcd13ifvqeqg","pricing_plan_id":"free"},{"bike_id":"aec69fb2-e8b1-46d6-856a-c28fed242841","system_id":"levelo_inurba_marseille","lat":43.292311,"lon":5.360731,"is_reserved":false,"is_disabled":false,"rental_uris":{"android":"levelo://app?vid=aec69fb2-e8b1-46d6-856a-c28fed242841","ios":"levelo://app?vid=aec69fb2-e8b1-46d6-856a-c28fed242841"},"vehicle_type_id":"4","last_reported":1687151194,"current_range_meters":27600,"station_id":"ce4bhbh2rcd13ifvqeqg","pricing_plan_id":"free"},{"bike_id":"a487d139-2d53-452d-a128-d3648a959175","system_id":"levelo_inurba_marseille","lat":43.2936,"lon":5.37835,"is_reserved":false,"is_disabled":false,"rental_uris":{"android":"levelo://app?vid=a487d139-2d53-452d-a128-d3648a959175","ios":"levelo://app?vid=a487d139-2d53-452d-a128-d3648a959175"},"vehicle_type_id":"4","last_reported":1687151194,"current_range_meters":26800,"station_id":"ce4bgjh2rcd13ifvqbf0","pricing_plan_id":"free"},{"bike_id":"02401813-cfd7-45a7-a153-0e9255cc48d1","system_id":"levelo_inurba_marseille","lat":43.300852,"lon":5.390859,"is_reserved":false,"is_disabled":false,"rental_uris":{"android":"levelo://app?vid=02401813-cfd7-45a7-a153-0e9255cc48d1","ios":"levelo://app?vid=02401813-cfd7-45a7-a153-0e9255cc48d1"},"vehicle_type_id":"4","last_reported":1687151194,"current_range_meters":26800,"station_id":"ce4bh192rcd13ifvqdb0","pricing_plan_id":"free"},{"bike_id":"bf98c3f1-2cf4-4863-b6fc-1df2b5837e42","system_id":"levelo_inurba_marseille","lat":43.32685,"lon":5.38842,"is_reserved":false,"is_disabled":false,"rental_uris":{"android":"levelo://app?vid=bf98c3f1-2cf4-4863-b6fc-1df2b5837e42","ios":"levelo://app?vid=bf98c3f1-2cf4-4863-b6fc-1df2b5837e42"},"vehicle_type_id":"4","last_reported":1687151194,"current_range_meters":17200,"station_id":"","pricing_plan_id":"free"},{"bike_id":"6d3d6b64-e642-4b92-a5cf-40469047f0cb","system_id":"levelo_inurba_marseille","lat":43.30097,"lon":5.39093,"is_reserved":false,"is_disabled":false,"rental_uris":{"android":"levelo://app?vid=6d3d6b64-e642-4b92-a5cf-40469047f0cb","ios":"levelo://app?vid=6d3d6b64-e642-4b92-a5cf-40469047f0cb"},"vehicle_type_id":"4","last_reported":1687151194,"current_range_meters":30000,"station_id":"ce4bh192rcd13ifvqdb0","pricing_plan_id":"free"},{"bike_id":"015f0321-5b36-4375-81fe-4c5cab324241","system_id":"levelo_inurba_marseille","lat":43.291671,"lon":5.371575,"is_reserved":false,"is_disabled":false,"rental_uris":{"android":"levelo://app?vid=015f0321-5b36-4375-81fe-4c5cab324241","ios":"levelo://app?vid=015f0321-5b36-4375-81fe-4c5cab324241"},"vehicle_type_id":"4","last_reported":1687151194,"current_range_meters":29200,"station_id":"ce4bha92rcd13ifvqeh0","pricing_plan_id":"free"},{"bike_id":"3c6da382-aa58-45cb-96da-320ddd52cfe2","system_id":"levelo_inurba_marseille","lat":43.298764,"lon":5.388973,"is_reserved":false,"is_disabled":false,"rental_uris":{"android":"levelo://app?vid=3c6da382-aa58-45cb-96da-320ddd52cfe2","ios":"levelo://app?vid=3c6da382-aa58-45cb-96da-320ddd52cfe2"},"vehicle_type_id":"4","last_reported":1687151194,"current_range_meters":20800,"station_id":"ce4bh392rcd13ifvqdl0","pricing_plan_id":"free"},{"bike_id":"313e9307-45da-44e1-ac4f-23150195e0b3","system_id":"levelo_inurba_marseille","lat":43.298764,"lon":5.388973,"is_reserved":false,"is_disabled":false,"rental_uris":{"android":"levelo://app?vid=313e9307-45da-44e1-ac4f-23150195e0b3","ios":"levelo://app?vid=313e9307-45da-44e1-ac4f-23150195e0b3"},"vehicle_type_id":"4","last_reported":1687151194,"current_range_meters":10400,"station_id":"ce4bh392rcd13ifvqdl0","pricing_plan_id":"free"},{"bike_id":"22a05438-496d-46eb-8651-444db4427ca4","system_id":"levelo_inurba_marseille","lat":43.298764,"lon":5.388973,"is_reserved":false,"is_disabled":false,"rental_uris":{"android":"levelo://app?vid=22a05438-496d-46eb-8651-444db4427ca4","ios":"levelo://app?vid=22a05438-496d-46eb-8651-444db4427ca4"},"vehicle_type_id":"4","last_reported":1687151194,"current_range_meters":31200,"station_id":"ce4bh392rcd13ifvqdl0","pricing_plan_id":"free"},{"bike_id":"f99e9929-8072-4af1-bf79-5cf6bf4bfb6c","system_id":"levelo_inurba_marseille","lat":43.298764,"lon":5.388973,"is_reserved":false,"is_disabled":false,"rental_uris":{"android":"levelo://app?vid=f99e9929-8072-4af1-bf79-5cf6bf4bfb6c","ios":"levelo://app?vid=f99e9929-8072-4af1-bf79-5cf6bf4bfb6c"},"vehicle_type_id":"4","last_reported":1687151194,"current_range_meters":22000,"station_id":"ce4bh392rcd13ifvqdl0","pricing_plan_id":"free"},{"bike_id":"1e502d6d-d24c-475f-945a-f94eed8c286a","system_id":"levelo_inurba_marseille","lat":43.298764,"lon":5.388973,"is_reserved":false,"is_disabled":false,"rental_uris":{"android":"levelo://app?vid=1e502d6d-d24c-475f-945a-f94eed8c286a","ios":"levelo://app?vid=1e502d6d-d24c-475f-945a-f94eed8c286a"},"vehicle_type_id":"4","last_reported":1687151194,"current_range_meters":14400,"station_id":"ce4bh392rcd13ifvqdl0","pricing_plan_id":"free"},{"bike_id":"f7755168-90d1-4eed-90a6-fe86bac6802e","system_id":"levelo_inurba_marseille","lat":43.298764,"lon":5.388973,"is_reserved":false,"is_disabled":false,"rental_uris":{"android":"levelo://app?vid=f7755168-90d1-4eed-90a6-fe86bac6802e","ios":"levelo://app?vid=f7755168-90d1-4eed-90a6-fe86bac6802e"},"vehicle_type_id":"4","last_reported":1687151194,"current_range_meters":16000,"station_id":"ce4bh392rcd13ifvqdl0","pricing_plan_id":"free"},{"bike_id":"33a0a146-2faf-42a0-9483-f2a9c5c1324d","system_id":"levelo_inurba_marseille","lat":43.309038,"lon":5.396546,"is_reserved":false,"is_disabled":false,"rental_uris":{"android":"levelo://app?vid=33a0a146-2faf-42a0-9483-f2a9c5c1324d","ios":"levelo://app?vid=33a0a146-2faf-42a0-9483-f2a9c5c1324d"},"vehicle_type_id":"4","last_reported":1687151194,"current_range_meters":31200,"station_id":"ce4bh012rcd13ifvqcv0","pricing_plan_id":"free"},{"bike_id":"0cf65b97-6915-4d49-888b-e58bc46e3787","system_id":"levelo_inurba_marseille","lat":43.309038,"lon":5.396546,"is_reserved":false,"is_disabled":false,"rental_uris":{"android":"levelo://app?vid=0cf65b97-6915-4d49-888b-e58bc46e3787","ios":"levelo://app?vid=0cf65b97-6915-4d49-888b-e58bc46e3787"},"vehicle_type_id":"4","last_reported":1687151194,"current_range_meters":30800,"station_id":"ce4bh012rcd13ifvqcv0","pricing_plan_id":"free"},{"bike_id":"6199cfac-86e0-4c58-9bc6-f36f45e72daf","system_id":"levelo_inurba_marseille","lat":43.313291,"lon":5.396838,"is_reserved":false,"is_disabled":false,"rental_uris":{"android":"levelo://app?vid=6199cfac-86e0-4c58-9bc6-f36f45e72daf","ios":"levelo://app?vid=6199cfac-86e0-4c58-9bc6-f36f45e72daf"},"vehicle_type_id":"4","last_reported":1687151194,"current_range_meters":31200,"station_id":"ce4bgvp2rcd13ifvqcu0","pricing_plan_id":"free"},{"bike_id":"744c215c-ceca-4b2d-84c5-ba444d9b7d86","system_id":"levelo_inurba_marseille","lat":43.313291,"lon":5.396838,"is_reserved":false,"is_disabled":false,"rental_uris":{"android":"levelo://app?vid=744c215c-ceca-4b2d-84c5-ba444d9b7d86","ios":"levelo://app?vid=744c215c-ceca-4b2d-84c5-ba444d9b7d86"},"vehicle_type_id":"4","last_reported":1687151194,"current_range_meters":31200,"station_id":"ce4bgvp2rcd13ifvqcu0","pricing_plan_id":"free"},{"bike_id":"4118b929-43d8-4ac3-bc91-8e1770bbe076","system_id":"levelo_inurba_marseille","lat":43.29191,"lon":5.358,"is_reserved":false,"is_disabled":false,"rental_uris":{"android":"levelo://app?vid=4118b929-43d8-4ac3-bc91-8e1770bbe076","ios":"levelo://app?vid=4118b929-43d8-4ac3-bc91-8e1770bbe076"},"vehicle_type_id":"4","last_reported":1687151194,"current_range_meters":30000,"station_id":"ce4bhb12rcd13ifvqel0","pricing_plan_id":"free"},{"bike_id":"ea413654-fc39-4260-aa32-4beb87fb56d1","system_id":"levelo_inurba_marseille","lat":43.313291,"lon":5.396838,"is_reserved":false,"is_disabled":false,"rental_uris":{"android":"levelo://app?vid=ea413654-fc39-4260-aa32-4beb87fb56d1","ios":"levelo://app?vid=ea413654-fc39-4260-aa32-4beb87fb56d1"},"vehicle_type_id":"4","last_reported":1687151194,"current_range_meters":14800,"station_id":"ce4bgvp2rcd13ifvqcu0","pricing_plan_id":"free"},{"bike_id":"a50f60d0-c5bd-47a5-a538-debdb568155d","system_id":"levelo_inurba_marseille","lat":43.290779,"lon":5.371482,"is_reserved":false,"is_disabled":false,"rental_uris":{"android":"levelo://app?vid=a50f60d0-c5bd-47a5-a538-debdb568155d","ios":"levelo://app?vid=a50f60d0-c5bd-47a5-a538-debdb568155d"},"vehicle_type_id":"4","last_reported":1687151194,"current_range_meters":30400,"station_id":"ce4bh5p2rcd13ifvqe4g","pricing_plan_id":"free"},{"bike_id":"56590fcc-4342-4828-a4a2-1e2ced8611ec","system_id":"levelo_inurba_marseille","lat":43.29179,"lon":5.35572,"is_reserved":false,"is_disabled":false,"rental_uris":{"android":"levelo://app?vid=56590fcc-4342-4828-a4a2-1e2ced8611ec","ios":"levelo://app?vid=56590fcc-4342-4828-a4a2-1e2ced8611ec"},"vehicle_type_id":"4","last_reported":1687151194,"current_range_meters":10400,"station_id":"","pricing_plan_id":"free"},{"bike_id":"c048d0b7-3f73-40b0-9016-c0e38ec5d09c","system_id":"levelo_inurba_marseille","lat":43.302008,"lon":5.394694,"is_reserved":false,"is_disabled":false,"rental_uris":{"android":"levelo://app?vid=c048d0b7-3f73-40b0-9016-c0e38ec5d09c","ios":"levelo://app?vid=c048d0b7-3f73-40b0-9016-c0e38ec5d09c"},"vehicle_type_id":"4","last_reported":1687151194,"current_range_meters":23200,"station_id":"ce4bh0p2rcd13ifvqd70","pricing_plan_id":"free"},{"bike_id":"c85cce69-b75c-4486-ae14-c03c69ca0107","system_id":"levelo_inurba_marseille","lat":43.302008,"lon":5.394694,"is_reserved":false,"is_disabled":false,"rental_uris":{"android":"levelo://app?vid=c85cce69-b75c-4486-ae14-c03c69ca0107","ios":"levelo://app?vid=c85cce69-b75c-4486-ae14-c03c69ca0107"},"vehicle_type_id":"4","last_reported":1687151194,"current_range_meters":28400,"station_id":"ce4bh0p2rcd13ifvqd70","pricing_plan_id":"free"},{"bike_id":"62355679-2aac-4d2d-985d-cd2e8f583277","system_id":"levelo_inurba_marseille","lat":43.302008,"lon":5.394694,"is_reserved":false,"is_disabled":false,"rental_uris":{"android":"levelo://app?vid=62355679-2aac-4d2d-985d-cd2e8f583277","ios":"levelo://app?vid=62355679-2aac-4d2d-985d-cd2e8f583277"},"vehicle_type_id":"4","last_reported":1687151194,"current_range_meters":30400,"station_id":"ce4bh0p2rcd13ifvqd70","pricing_plan_id":"free"},{"bike_id":"2c89f12c-d497-48a8-9399-b335ba088479","system_id":"levelo_inurba_marseille","lat":43.302008,"lon":5.394694,"is_reserved":false,"is_disabled":false,"rental_uris":{"android":"levelo://app?vid=2c89f12c-d497-48a8-9399-b335ba088479","ios":"levelo://app?vid=2c89f12c-d497-48a8-9399-b335ba088479"},"vehicle_type_id":"4","last_reported":1687151194,"current_range_meters":29200,"station_id":"ce4bh0p2rcd13ifvqd70","pricing_plan_id":"free"},{"bike_id":"194217e3-db30-418a-8bd7-aedd37e823c5","system_id":"levelo_inurba_marseille","lat":43.302008,"lon":5.394694,"is_reserved":false,"is_disabled":false,"rental_uris":{"android":"levelo://app?vid=194217e3-db30-418a-8bd7-aedd37e823c5","ios":"levelo://app?vid=194217e3-db30-418a-8bd7-aedd37e823c5"},"vehicle_type_id":"4","last_reported":1687151194,"current_range_meters":31600,"station_id":"ce4bh0p2rcd13ifvqd70","pricing_plan_id":"free"},{"bike_id":"89d611fd-611a-4549-9f29-09f73e324d69","system_id":"levelo_inurba_marseille","lat":43.290624,"lon":5.359245,"is_reserved":false,"is_disabled":false,"rental_uris":{"android":"levelo://app?vid=89d611fd-611a-4549-9f29-09f73e324d69","ios":"levelo://app?vid=89d611fd-611a-4549-9f29-09f73e324d69"},"vehicle_type_id":"4","last_reported":1687151194,"current_range_meters":29200,"station_id":"ce4bha92rcd13ifvqeg0","pricing_plan_id":"free"},{"bike_id":"6d30c830-86d3-4c9f-996e-a5334ff431ae","system_id":"levelo_inurba_marseille","lat":43.29034,"lon":5.37552,"is_reserved":false,"is_disabled":false,"rental_uris":{"android":"levelo://app?vid=6d30c830-86d3-4c9f-996e-a5334ff431ae","ios":"levelo://app?vid=6d30c830-86d3-4c9f-996e-a5334ff431ae"},"vehicle_type_id":"4","last_reported":1687151194,"current_range_meters":30400,"station_id":"ce4bh692rcd13ifvqe90","pricing_plan_id":"free"},{"bike_id":"fdbcb319-7109-4ca5-b020-f0368f662c2c","system_id":"levelo_inurba_marseille","lat":43.290327,"lon":5.375711,"is_reserved":false,"is_disabled":false,"rental_uris":{"android":"levelo://app?vid=fdbcb319-7109-4ca5-b020-f0368f662c2c","ios":"levelo://app?vid=fdbcb319-7109-4ca5-b020-f0368f662c2c"},"vehicle_type_id":"4","last_reported":1687151194,"current_range_meters":17200,"station_id":"ce4bh692rcd13ifvqe90","pricing_plan_id":"free"},{"bike_id":"1bd9a516-bac2-4b1d-84ff-04287a768a71","system_id":"levelo_inurba_marseille","lat":43.28944,"lon":5.36636,"is_reserved":false,"is_disabled":false,"rental_uris":{"android":"levelo://app?vid=1bd9a516-bac2-4b1d-84ff-04287a768a71","ios":"levelo://app?vid=1bd9a516-bac2-4b1d-84ff-04287a768a71"},"vehicle_type_id":"4","last_reported":1687151194,"current_range_meters":28800,"station_id":"","pricing_plan_id":"free"},{"bike_id":"1a035237-6dab-4fcc-8552-d540f90a67c4","system_id":"levelo_inurba_marseille","lat":43.290327,"lon":5.375711,"is_reserved":false,"is_disabled":false,"rental_uris":{"android":"levelo://app?vid=1a035237-6dab-4fcc-8552-d540f90a67c4","ios":"levelo://app?vid=1a035237-6dab-4fcc-8552-d540f90a67c4"},"vehicle_type_id":"4","last_reported":1687151194,"current_range_meters":31600,"station_id":"ce4bh692rcd13ifvqe90","pricing_plan_id":"free"},{"bike_id":"3fcc2d2a-cfbf-43ed-a7fb-5eaa2a3ccaac","system_id":"levelo_inurba_marseille","lat":43.290327,"lon":5.375711,"is_reserved":false,"is_disabled":false,"rental_uris":{"android":"levelo://app?vid=3fcc2d2a-cfbf-43ed-a7fb-5eaa2a3ccaac","ios":"levelo://app?vid=3fcc2d2a-cfbf-43ed-a7fb-5eaa2a3ccaac"},"vehicle_type_id":"4","last_reported":1687151194,"current_range_meters":31600,"station_id":"ce4bh692rcd13ifvqe90","pricing_plan_id":"free"},{"bike_id":"82e9b64c-76cb-493d-910d-8799cf8bce34","system_id":"levelo_inurba_marseille","lat":43.289468,"lon":5.363719,"is_reserved":false,"is_disabled":false,"rental_uris":{"android":"levelo://app?vid=82e9b64c-76cb-493d-910d-8799cf8bce34","ios":"levelo://app?vid=82e9b64c-76cb-493d-910d-8799cf8bce34"},"vehicle_type_id":"4","last_reported":1687151194,"current_range_meters":27600,"station_id":"ce4bhc92rcd13ifvqetg","pricing_plan_id":"free"},{"bike_id":"f165a2eb-0a37-4884-b00c-f3ae880f521e","system_id":"levelo_inurba_marseille","lat":43.304274,"lon":5.397513,"is_reserved":false,"is_disabled":false,"rental_uris":{"android":"levelo://app?vid=f165a2eb-0a37-4884-b00c-f3ae880f521e","ios":"levelo://app?vid=f165a2eb-0a37-4884-b00c-f3ae880f521e"},"vehicle_type_id":"4","last_reported":1687151194,"current_range_meters":24000,"station_id":"ce4bh092rcd13ifvqd20","pricing_plan_id":"free"},{"bike_id":"38eb09af-7166-42b9-865e-84246929498f","system_id":"levelo_inurba_marseille","lat":43.292644,"lon":5.384257,"is_reserved":false,"is_disabled":false,"rental_uris":{"android":"levelo://app?vid=38eb09af-7166-42b9-865e-84246929498f","ios":"levelo://app?vid=38eb09af-7166-42b9-865e-84246929498f"},"vehicle_type_id":"4","last_reported":1687151194,"current_range_meters":31600,"station_id":"ce4bh692rcd13ifvqea0","pricing_plan_id":"free"},{"bike_id":"50f4c0fb-7fa7-4575-95d8-ea4f43834bf1","system_id":"levelo_inurba_marseille","lat":43.304296,"lon":5.397513,"is_reserved":false,"is_disabled":false,"rental_uris":{"android":"levelo://app?vid=50f4c0fb-7fa7-4575-95d8-ea4f43834bf1","ios":"levelo://app?vid=50f4c0fb-7fa7-4575-95d8-ea4f43834bf1"},"vehicle_type_id":"4","last_reported":1687151194,"current_range_meters":30800,"station_id":"ce4bh092rcd13ifvqd20","pricing_plan_id":"free"},{"bike_id":"426d2e3e-0838-45ef-a24a-fc50c3202879","system_id":"levelo_inurba_marseille","lat":43.29263,"lon":5.38442,"is_reserved":false,"is_disabled":false,"rental_uris":{"android":"levelo://app?vid=426d2e3e-0838-45ef-a24a-fc50c3202879","ios":"levelo://app?vid=426d2e3e-0838-45ef-a24a-fc50c3202879"},"vehicle_type_id":"4","last_reported":1687151194,"current_range_meters":31200,"station_id":"ce4bh692rcd13ifvqea0","pricing_plan_id":"free"},{"bike_id":"c9d6c6cf-50bc-4d44-9c79-63dd9b78bed0","system_id":"levelo_inurba_marseille","lat":43.304274,"lon":5.397513,"is_reserved":false,"is_disabled":false,"rental_uris":{"android":"levelo://app?vid=c9d6c6cf-50bc-4d44-9c79-63dd9b78bed0","ios":"levelo://app?vid=c9d6c6cf-50bc-4d44-9c79-63dd9b78bed0"},"vehicle_type_id":"4","last_reported":1687151194,"current_range_meters":31600,"station_id":"ce4bh092rcd13ifvqd20","pricing_plan_id":"free"},{"bike_id":"e25ee598-7238-4304-9305-a540eca54ba1","system_id":"levelo_inurba_marseille","lat":43.304296,"lon":5.397513,"is_reserved":false,"is_disabled":false,"rental_uris":{"android":"levelo://app?vid=e25ee598-7238-4304-9305-a540eca54ba1","ios":"levelo://app?vid=e25ee598-7238-4304-9305-a540eca54ba1"},"vehicle_type_id":"4","last_reported":1687151194,"current_range_meters":31200,"station_id":"ce4bh092rcd13ifvqd20","pricing_plan_id":"free"},{"bike_id":"087fefa5-24e7-42b9-ab9e-4cf642dac6d5","system_id":"levelo_inurba_marseille","lat":43.304274,"lon":5.397513,"is_reserved":false,"is_disabled":false,"rental_uris":{"android":"levelo://app?vid=087fefa5-24e7-42b9-ab9e-4cf642dac6d5","ios":"levelo://app?vid=087fefa5-24e7-42b9-ab9e-4cf642dac6d5"},"vehicle_type_id":"4","last_reported":1687151194,"current_range_meters":26400,"station_id":"ce4bh092rcd13ifvqd20","pricing_plan_id":"free"},{"bike_id":"f9cf81bb-25ae-4276-be5c-3341e69eef1d","system_id":"levelo_inurba_marseille","lat":43.304296,"lon":5.397513,"is_reserved":false,"is_disabled":false,"rental_uris":{"android":"levelo://app?vid=f9cf81bb-25ae-4276-be5c-3341e69eef1d","ios":"levelo://app?vid=f9cf81bb-25ae-4276-be5c-3341e69eef1d"},"vehicle_type_id":"4","last_reported":1687151194,"current_range_meters":30800,"station_id":"ce4bh092rcd13ifvqd20","pricing_plan_id":"free"},{"bike_id":"28147565-b24d-486c-9f6f-e539413c8027","system_id":"levelo_inurba_marseille","lat":43.304274,"lon":5.397513,"is_reserved":false,"is_disabled":false,"rental_uris":{"android":"levelo://app?vid=28147565-b24d-486c-9f6f-e539413c8027","ios":"levelo://app?vid=28147565-b24d-486c-9f6f-e539413c8027"},"vehicle_type_id":"4","last_reported":1687151194,"current_range_meters":12800,"station_id":"ce4bh092rcd13ifvqd20","pricing_plan_id":"free"},{"bike_id":"91e454ec-6031-4a68-94a1-55191f634a66","system_id":"levelo_inurba_marseille","lat":43.304274,"lon":5.397513,"is_reserved":false,"is_disabled":false,"rental_uris":{"android":"levelo://app?vid=91e454ec-6031-4a68-94a1-55191f634a66","ios":"levelo://app?vid=91e454ec-6031-4a68-94a1-55191f634a66"},"vehicle_type_id":"4","last_reported":1687151194,"current_range_meters":23600,"station_id":"ce4bh092rcd13ifvqd20","pricing_plan_id":"free"},{"bike_id":"1da7afd4-000f-47f5-958f-ef003d5b26bb","system_id":"levelo_inurba_marseille","lat":43.33044,"lon":5.38916,"is_reserved":false,"is_disabled":false,"rental_uris":{"android":"levelo://app?vid=1da7afd4-000f-47f5-958f-ef003d5b26bb","ios":"levelo://app?vid=1da7afd4-000f-47f5-958f-ef003d5b26bb"},"vehicle_type_id":"4","last_reported":1687151194,"current_range_meters":10800,"station_id":"ce4bhr92rcd13ifvqhrg","pricing_plan_id":"free"},{"bike_id":"2ac4768e-68ef-4b1c-b091-38a9d84c9afd","system_id":"levelo_inurba_marseille","lat":43.290104,"lon":5.356111,"is_reserved":false,"is_disabled":false,"rental_uris":{"android":"levelo://app?vid=2ac4768e-68ef-4b1c-b091-38a9d84c9afd","ios":"levelo://app?vid=2ac4768e-68ef-4b1c-b091-38a9d84c9afd"},"vehicle_type_id":"4","last_reported":1687151194,"current_range_meters":24800,"station_id":"ce4bhb92rcd13ifvqen0","pricing_plan_id":"free"},{"bike_id":"6b252716-509a-4689-8513-6b579b67d1cb","system_id":"levelo_inurba_marseille","lat":43.290104,"lon":5.356111,"is_reserved":false,"is_disabled":false,"rental_uris":{"android":"levelo://app?vid=6b252716-509a-4689-8513-6b579b67d1cb","ios":"levelo://app?vid=6b252716-509a-4689-8513-6b579b67d1cb"},"vehicle_type_id":"4","last_reported":1687151194,"current_range_meters":26000,"station_id":"ce4bhb92rcd13ifvqen0","pricing_plan_id":"free"},{"bike_id":"22995b43-f9d9-412b-890e-23d32b6b9707","system_id":"levelo_inurba_marseille","lat":43.290104,"lon":5.356111,"is_reserved":false,"is_disabled":false,"rental_uris":{"android":"levelo://app?vid=22995b43-f9d9-412b-890e-23d32b6b9707","ios":"levelo://app?vid=22995b43-f9d9-412b-890e-23d32b6b9707"},"vehicle_type_id":"4","last_reported":1687151194,"current_range_meters":28400,"station_id":"ce4bhb92rcd13ifvqen0","pricing_plan_id":"free"},{"bike_id":"502767a0-18e7-454c-a6d8-8f7fedbe0d99","system_id":"levelo_inurba_marseille","lat":43.33047,"lon":5.38921,"is_reserved":false,"is_disabled":false,"rental_uris":{"android":"levelo://app?vid=502767a0-18e7-454c-a6d8-8f7fedbe0d99","ios":"levelo://app?vid=502767a0-18e7-454c-a6d8-8f7fedbe0d99"},"vehicle_type_id":"4","last_reported":1687151194,"current_range_meters":21600,"station_id":"ce4bhr92rcd13ifvqhrg","pricing_plan_id":"free"},{"bike_id":"12b29b61-c4f7-49f3-b499-9216c6b102d6","system_id":"levelo_inurba_marseille","lat":43.290995,"lon":5.381361,"is_reserved":false,"is_disabled":false,"rental_uris":{"android":"levelo://app?vid=12b29b61-c4f7-49f3-b499-9216c6b102d6","ios":"levelo://app?vid=12b29b61-c4f7-49f3-b499-9216c6b102d6"},"vehicle_type_id":"4","last_reported":1687151194,"current_range_meters":26800,"station_id":"ce4bh512rcd13ifvqe2g","pricing_plan_id":"free"},{"bike_id":"99664008-913c-47d3-8080-9aea8de7b1d5","system_id":"levelo_inurba_marseille","lat":43.29091,"lon":5.38145,"is_reserved":false,"is_disabled":false,"rental_uris":{"android":"levelo://app?vid=99664008-913c-47d3-8080-9aea8de7b1d5","ios":"levelo://app?vid=99664008-913c-47d3-8080-9aea8de7b1d5"},"vehicle_type_id":"4","last_reported":1687151194,"current_range_meters":26800,"station_id":"ce4bh512rcd13ifvqe2g","pricing_plan_id":"free"},{"bike_id":"652ae89d-e5eb-460b-8e2b-c13603a4f4e9","system_id":"levelo_inurba_marseille","lat":43.29091,"lon":5.38153,"is_reserved":false,"is_disabled":false,"rental_uris":{"android":"levelo://app?vid=652ae89d-e5eb-460b-8e2b-c13603a4f4e9","ios":"levelo://app?vid=652ae89d-e5eb-460b-8e2b-c13603a4f4e9"},"vehicle_type_id":"4","last_reported":1687151194,"current_range_meters":30800,"station_id":"ce4bh512rcd13ifvqe2g","pricing_plan_id":"free"},{"bike_id":"fe545843-c998-4f30-a2db-b9efaa4fa0b8","system_id":"levelo_inurba_marseille","lat":43.289741,"lon":5.378306,"is_reserved":false,"is_disabled":false,"rental_uris":{"android":"levelo://app?vid=fe545843-c998-4f30-a2db-b9efaa4fa0b8","ios":"levelo://app?vid=fe545843-c998-4f30-a2db-b9efaa4fa0b8"},"vehicle_type_id":"4","last_reported":1687151194,"current_range_meters":13600,"station_id":"ce4bh9p2rcd13ifvqed0","pricing_plan_id":"free"},