{"last_updated":1759176657,"ttl":60,"version":"2.2","data":{"bikes":[{"bike_id":"dea1364c-c953-417c-80ab-5acfc204e2b3","system_id":"levelo_inurba_marseille","lat":43.30891,"lon":5.39662,"is_reserved":false,"is_disabled":false,"rental_uris":{"android":"levelo://app?vid=dea1364c-c953-417c-80ab-5acfc204e2b3","ios":"levelo://app?vid=dea1364c-c953-417c-80ab-5acfc204e2b3"},"vehicle_type_id":"4","last_reported":1759176657,"current_range_meters":2800,"station_id":"ce4bh012rcd13ifvqcv0","pricing_plan_id":"cebpf4jnsgd1na2vs0mg"},{"bike_id":"99e48e52-5472-4247-b465-2a1d4cab541d","system_id":"levelo_inurba_marseille","lat":43.276794,"lon":5.388705,"is_reserved":false,"is_disabled":false,"rental_uris":{"android":"levelo://app?vid=99e48e52-5472-4247-b465-2a1d4cab541d","ios":"levelo://app?vid=99e48e52-5472-4247-b465-2a1d4cab541d"},"vehicle_type_id":"4","last_reported":1759176657,"current_range_meters":2000,"station_id":"ce4bhi12rcd13ifvqfo0","pricing_plan_id":"cebpf4jnsgd1na2vs0mg"},{"bike_id":"5c5e0aab-e95d-4a77-83e8-6d9cc59b5932","system_id":"levelo_inurba_marseille","lat":43.3046,"lon":5.37903,"is_reserved":false,"is_disabled":false,"rental_uris":{"android":"levelo://app?vid=5c5e0aab-e95d-4a77-83e8-6d9cc59b5932","ios":"levelo://app?vid=5c5e0aab-e95d-4a77-83e8-6d9cc59b5932"},"vehicle_type_id":"4","last_reported":1759176657,"current_range_meters":3200,"station_id":"ce4bgup2rcd13ifvqcn0","pricing_plan_id":"cebpf4jnsgd1na2vs0mg"},{"bike_id":"5c31d936-c724-46d9-b371-61c51964b273","system_id":"levelo_inurba_marseille","lat":43.29295,"lon":5.37441,"is_reserved":false,"is_disabled":false,"rental_uris":{"android":"levelo://app?vid=5c31d936-c724-46d9-b371-61c51964b273","ios":"levelo://app?vid=5c31d936-c724-46d9-b371-61c51964b273"},"vehicle_type_id":"4","last_reported":1759176657,"current_range_meters":3600,"station_id":"ce4bgi12rcd13ifvqb70","pricing_plan_id":"cebpf4jnsgd1na2vs0mg"},{"bike_id":"4aefdc7d-8dd5-4130-8630-c761455732a0","system_id":"levelo_inurba_marseille","lat":43.30207,"lon":5.39477,"is_reserved":false,"is_disabled":false,"rental_uris":{"android":"levelo://app?vid=4aefdc7d-8dd5-4130-8630-c761455732a0","ios":"levelo://app?vid=4aefdc7d-8dd5-4130-8630-c761455732a0"},"vehicle_type_id":"4","last_reported":1759176657,"current_range_meters":3600,"station_id":"ce4bh0p2rcd13ifvqd70","pricing_plan_id":"cebpf4jnsgd1na2vs0mg"},{"bike_id":"4fcf49da-ad50-414a-bda8-cbd36287dfda","system_id":"levelo_inurba_marseille","lat":43.255,"lon":5.37659,"is_reserved":false,"is_disabled":true,"rental_uris":{"android":"levelo://app?vid=4fcf49da-ad50-414a-bda8-cbd36287dfda","ios":"levelo://app?vid=4fcf49da-ad50-414a-bda8-cbd36287dfda"},"vehicle_type_id":"4","last_reported":1759176657,"current_range_meters":4000,"station_id":"ce4bhh12rcd13ifvqff0","pricing_plan_id":"cebpf4jnsgd1na2vs0mg"},{"bike_id":"f4324fc5-2a1b-431d-9c30-8b3f35998fa8","system_id":"levelo_inurba_marseille","lat":43.30886,"lon":5.39641,"is_reserved":false,"is_disabled":true,"rental_uris":{"android":"levelo://app?vid=f4324fc5-2a1b-431d-9c30-8b3f35998fa8","ios":"levelo://app?vid=f4324fc5-2a1b-431d-9c30-8b3f35998fa8"},"vehicle_type_id":"4","last_reported":1759176657,"current_range_meters":4000,"station_id":"ce4bh012rcd13ifvqcv0","pricing_plan_id":"cebpf4jnsgd1na2vs0mg"},{"bike_id":"2670aded-ec49-4d8c-94d2-14988c2705aa","system_id":"levelo_inurba_marseille","lat":43.29596,"lon":5.37735,"is_reserved":false,"is_disabled":false,"rental_uris":{"android":"levelo://app?vid=2670aded-ec49-4d8c-94d2-14988c2705aa","ios":"levelo://app?vid=2670aded-ec49-4d8c-94d2-14988c2705aa"},"vehicle_type_id":"4","last_reported":1759176657,"current_range_meters":5600,"station_id":"ce4bgi92rcd13ifvqb90","pricing_plan_id":"cebpf4jnsgd1na2vs0mg"},{"bike_id":"c9916796-5f07-4d22-aceb-87882fb08ac5","system_id":"levelo_inurba_marseille","lat":43.30486,"lon":5.36615,"is_reserved":false,"is_disabled":false,"rental_uris":{"android":"levelo://app?vid=c9916796-5f07-4d22-aceb-87882fb08ac5","ios":"levelo://app?vid=c9916796-5f07-4d22-aceb-87882fb08ac5"},"vehicle_type_id":"4","last_reported":1759176657,"current_range_meters":6400,"station_id":"","pricing_plan_id":"cebpf4jnsgd1na2vs0mg"},{"bike_id":"8a4a8404-2223-404b-b9d6-fda388efd3eb","system_id":"levelo_inurba_marseille","lat":43.225399,"lon":5.348524,"is_reserved":false,"is_disabled":false,"rental_uris":{"android":"levelo://app?vid=8a4a8404-2223-404b-b9d6-fda388efd3eb","ios":"levelo://app?vid=8a4a8404-2223-404b-b9d6-fda388efd3eb"},"vehicle_type_id":"4","last_reported":1759176657,"current_range_meters":6400,"station_id":"","pricing_plan_id":"cebpf4jnsgd1na2vs0mg"},{"bike_id":"9faa6f79-7710-45e8-b965-55511a47c700","system_id":"levelo_inurba_marseille","lat":43.24998,"lon":5.38931,"is_reserved":false,"is_disabled":false,"rental_uris":{"android":"levelo://app?vid=9faa6f79-7710-45e8-b965-55511a47c700","ios":"levelo://app?vid=9faa6f79-7710-45e8-b965-55511a47c700"},"vehicle_type_id":"4","last_reported":1759176657,"current_range_meters":6400,"station_id":"ce4bhgp2rcd13ifvqfd0","pricing_plan_id":"cebpf4jnsgd1na2vs0mg"},{"bike_id":"be7dae0d-94d7-4a0d-89d8-07c528e32b57","system_id":"levelo_inurba_marseille","lat":43.32585,"lon":5.39063,"is_reserved":false,"is_disabled":false,"rental_uris":{"android":"levelo://app?vid=be7dae0d-94d7-4a0d-89d8-07c528e32b57","ios":"levelo://app?vid=be7dae0d-94d7-4a0d-89d8-07c528e32b57"},"vehicle_type_id":"4","last_reported":1759176657,"current_range_meters":6400,"station_id":"","pricing_plan_id":"cebpf4jnsgd1na2vs0mg"},{"bike_id":"8eba698c-1343-4776-a7ef-1194c9c853da","system_id":"levelo_inurba_marseille","lat":43.26601,"lon":5.39355,"is_reserved":false,"is_disabled":false,"rental_uris":{"android":"levelo://app?vid=8eba698c-1343-4776-a7ef-1194c9c853da","ios":"levelo://app?vid=8eba698c-1343-4776-a7ef-1194c9c853da"},"vehicle_type_id":"4","last_reported":1759176657,"current_range_meters":6800,"station_id":"","pricing_plan_id":"cebpf4jnsgd1na2vs0mg"},{"bike_id":"f97bfb10-11c9-4a9f-a9e8-95edf83a8688","system_id":"levelo_inurba_marseille","lat":43.28847,"lon":5.35852,"is_reserved":false,"is_disabled":false,"rental_uris":{"android":"levelo://app?vid=f97bfb10-11c9-4a9f-a9e8-95edf83a8688","ios":"levelo://app?vid=f97bfb10-11c9-4a9f-a9e8-95edf83a8688"},"vehicle_type_id":"4","last_reported":1759176657,"current_range_meters":6800,"station_id":"ce4bhb12rcd13ifvqem0","pricing_plan_id":"cebpf4jnsgd1na2vs0mg"},{"bike_id":"cefe59df-2426-4a68-83cf-fcecbb3c8c98","system_id":"levelo_inurba_marseille","lat":43.30289,"lon":5.39633,"is_reserved":false,"is_disabled":true,"rental_uris":{"android":"levelo://app?vid=cefe59df-2426-4a68-83cf-fcecbb3c8c98","ios":"levelo://app?vid=cefe59df-2426-4a68-83cf-fcecbb3c8c98"},"vehicle_type_id":"4","last_reported":1759176657,"current_range_meters":6800,"station_id":"","pricing_plan_id":"cebpf4jnsgd1na2vs0mg"},{"bike_id":"99a179f3-af4c-4429-976b-ffaa622594b8","system_id":"levelo_inurba_marseille","lat":43.30641,"lon":5.40098,"is_reserved":false,"is_disabled":false,"rental_uris":{"android":"levelo://app?vid=99a179f3-af4c-4429-976b-ffaa622594b8","ios":"levelo://app?vid=99a179f3-af4c-4429-976b-ffaa622594b8"},"vehicle_type_id":"4","last_reported":1759176657,"current_range_meters":6800,"station_id":"ce4bh112rcd13ifvqda0","pricing_plan_id":"cebpf4jnsgd1na2vs0mg"},{"bike_id":"4fd6a687-c49d-476a-8d3b-91f89c31b51e","system_id":"levelo_inurba_marseille","lat":43.26238,"lon":5.40456,"is_reserved":false,"is_disabled":false,"rental_uris":{"android":"levelo://app?vid=4fd6a687-c49d-476a-8d3b-91f89c31b51e","ios":"levelo://app?vid=4fd6a687-c49d-476a-8d3b-91f89c31b51e"},"vehicle_type_id":"4","last_reported":1759176657,"current_range_meters":6800,"station_id":"ce4bhmh2rcd13ifvqgmg","pricing_plan_id":"cebpf4jnsgd1na2vs0mg"},{"bike_id":"258ab053-1083-4ca9-a32a-1e85f085fc22","system_id":"levelo_inurba_marseille","lat":43.337444,"lon":5.374475,"is_reserved":false,"is_disabled":false,"rental_uris":{"android":"levelo://app?vid=258ab053-1083-4ca9-a32a-1e85f085fc22","ios":"levelo://app?vid=258ab053-1083-4ca9-a32a-1e85f085fc22"},"vehicle_type_id":"4","last_reported":1759176657,"current_range_meters":6800,"station_id":"","pricing_plan_id":"cebpf4jnsgd1na2vs0mg"},{"bike_id":"8b353c9e-13c5-42ee-a76f-ccbd6269a3dc","system_id":"levelo_inurba_marseille","lat":43.30444,"lon":5.36689,"is_reserved":false,"is_disabled":false,"rental_uris":{"android":"levelo://app?vid=8b353c9e-13c5-42ee-a76f-ccbd6269a3dc","ios":"levelo://app?vid=8b353c9e-13c5-42ee-a76f-ccbd6269a3dc"},"vehicle_type_id":"4","last_reported":1759176657,"current_range_meters":7200,"station_id":"","pricing_plan_id":"cebpf4jnsgd1na2vs0mg"},{"bike_id":"2c6518be-b3f0-42d2-93c9-c1de9e54885f","system_id":"levelo_inurba_marseille","lat":43.29227,"lon":5.38219,"is_reserved":false,"is_disabled":false,"rental_uris":{"android":"levelo://app?vid=2c6518be-b3f0-42d2-93c9-c1de9e54885f","ios":"levelo://app?vid=2c6518be-b3f0-42d2-93c9-c1de9e54885f"},"vehicle_type_id":"4","last_reported":1759176657,"current_range_meters":8000,"station_id":"","pricing_plan_id":"cebpf4jnsgd1na2vs0mg"},{"bike_id":"d20f17df-f85a-42b4-9690-1b9231b54db3","system_id":"levelo_inurba_marseille","lat":43.23174,"lon":5.39994,"is_reserved":false,"is_disabled":false,"rental_uris":{"android":"levelo://app?vid=d20f17df-f85a-42b4-9690-1b9231b54db3","ios":"levelo://app?vid=d20f17df-f85a-42b4-9690-1b9231b54db3"},"vehicle_type_id":"4","last_reported":1759176657,"current_range_meters":8000,"station_id":"ce4bhn12rcd13ifvqgqg","pricing_plan_id":"cebpf4jnsgd1na2vs0mg"},{"bike_id":"ee96a502-9b76-492e-840a-498b02aefe72","system_id":"levelo_inurba_marseille","lat":43.32355,"lon":5.39217,"is_reserved":false,"is_disabled":false,"rental_uris":{"android":"levelo://app?vid=ee96a502-9b76-492e-840a-498b02aefe72","ios":"levelo://app?vid=ee96a502-9b76-492e-840a-498b02aefe72"},"vehicle_type_id":"4","last_reported":1759176657,"current_range_meters":8000,"station_id":"","pricing_plan_id":"cebpf4jnsgd1na2vs0mg"},{"bike_id":"951b89bf-f272-4b36-a846-fa0a4083dd36","system_id":"levelo_inurba_marseille","lat":43.3087,"lon":5.39631,"is_reserved":false,"is_disabled":false,"rental_uris":{"android":"levelo://app?vid=951b89bf-f272-4b36-a846-fa0a4083dd36","ios":"levelo://app?vid=951b89bf-f272-4b36-a846-fa0a4083dd36"},"vehicle_type_id":"4","last_reported":1759176657,"current_range_meters":8000,"station_id":"ce4bh012rcd13ifvqcv0","pricing_plan_id":"cebpf4jnsgd1na2vs0mg"},{"bike_id":"da0f26e9-0bdb-4063-b9f5-dcfb6728a88e","system_id":"levelo_inurba_marseille","lat":43.2293,"lon":5.3539,"is_reserved":false,"is_disabled":true,"rental_uris":{"android":"levelo://app?vid=da0f26e9-0bdb-4063-b9f5-dcfb6728a88e","ios":"levelo://app?vid=da0f26e9-0bdb-4063-b9f5-dcfb6728a88e"},"vehicle_type_id":"4","last_reported":1759176657,"current_range_meters":8000,"station_id":"cpo3532slgdg3j2ikp40","pricing_plan_id":"cebpf4jnsgd1na2vs0mg"},{"bike_id":"1dad2113-89e2-44fc-a0b6-ddd6a09baff1","system_id":"levelo_inurba_marseille","lat":43.337444,"lon":5.374475,"is_reserved":false,"is_disabled":false,"rental_uris":{"android":"levelo://app?vid=1dad2113-89e2-44fc-a0b6-ddd6a09baff1","ios":"levelo://app?vid=1dad2113-89e2-44fc-a0b6-ddd6a09baff1"},"vehicle_type_id":"4","last_reported":1759176657,"current_range_meters":8000,"station_id":"","pricing_plan_id":"cebpf4jnsgd1na2vs0mg"},{"bike_id":"c29764c0-1ed4-42eb-865a-0c49767897dc","system_id":"levelo_inurba_marseille","lat":43.25341,"lon":5.42171,"is_reserved":false,"is_disabled":true,"rental_uris":{"android":"levelo://app?vid=c29764c0-1ed4-42eb-865a-0c49767897dc","ios":"levelo://app?vid=c29764c0-1ed4-42eb-865a-0c49767897dc"},"vehicle_type_id":"4","last_reported":1759176657,"current_range_meters":8400,"station_id":"st_d2m65c5bi1j21697t3ng","pricing_plan_id":"cebpf4jnsgd1na2vs0mg"},{"bike_id":"511cc80f-04a6-4a9f-afdd-004129d93b1f","system_id":"levelo_inurba_marseille","lat":43.26616,"lon":5.3938,"is_reserved":false,"is_disabled":false,"rental_uris":{"android":"levelo://app?vid=511cc80f-04a6-4a9f-afdd-004129d93b1f","ios":"levelo://app?vid=511cc80f-04a6-4a9f-afdd-004129d93b1f"},"vehicle_type_id":"4","last_reported":1759176657,"current_range_meters":8400,"station_id":"","pricing_plan_id":"cebpf4jnsgd1na2vs0mg"},{"bike_id":"27757d81-41ea-41c1-b288-6ec24bebc58c","system_id":"levelo_inurba_marseille","lat":43.28404,"lon":5.37528,"is_reserved":false,"is_disabled":false,"rental_uris":{"android":"levelo://app?vid=27757d81-41ea-41c1-b288-6ec24bebc58c","ios":"levelo://app?vid=27757d81-41ea-41c1-b288-6ec24bebc58c"},"vehicle_type_id":"4","last_reported":1759176657,"current_range_meters":8400,"station_id":"ce4bh412rcd13ifvqds0","pricing_plan_id":"cebpf4jnsgd1na2vs0mg"},{"bike_id":"97ddc053-d6c3-45ae-b9ea-104d08a37025","system_id":"levelo_inurba_marseille","lat":43.29956,"lon":5.41323,"is_reserved":false,"is_disabled":false,"rental_uris":{"android":"levelo://app?vid=97ddc053-d6c3-45ae-b9ea-104d08a37025","ios":"levelo://app?vid=97ddc053-d6c3-45ae-b9ea-104d08a37025"},"vehicle_type_id":"4","last_reported":1759176657,"current_range_meters":8000,"station_id":"ce4bhp12rcd13ifvqh9g","pricing_plan_id":"cebpf4jnsgd1na2vs0mg"},{"bike_id":"03350417-1098-4d6c-b8fe-9e64358744bf","system_id":"levelo_inurba_marseille","lat":43.31134,"lon":5.37592,"is_reserved":false,"is_disabled":false,"rental_uris":{"android":"levelo://app?vid=03350417-1098-4d6c-b8fe-9e64358744bf","ios":"levelo://app?vid=03350417-1098-4d6c-b8fe-9e64358744bf"},"vehicle_type_id":"4","last_reported":1759176657,"current_range_meters":8400,"station_id":"","pricing_plan_id":"cebpf4jnsgd1na2vs0mg"},{"bike_id":"03e38958-02d9-431c-aa26-c4e1013a7cf3","system_id":"levelo_inurba_marseille","lat":43.28863,"lon":5.4251,"is_reserved":false,"is_disabled":false,"rental_uris":{"android":"levelo://app?vid=03e38958-02d9-431c-aa26-c4e1013a7cf3","ios":"levelo://app?vid=03e38958-02d9-431c-aa26-c4e1013a7cf3"},"vehicle_type_id":"4","last_reported":1759176657,"current_range_meters":8800,"station_id":"st_d3b462108ojc7389ooeg","pricing_plan_id":"cebpf4jnsgd1na2vs0mg"},{"bike_id":"b9bc2e42-3d7b-478e-81c5-3b651cc70b58","system_id":"levelo_inurba_marseille","lat":43.27075,"lon":5.38644,"is_reserved":false,"is_disabled":false,"rental_uris":{"android":"levelo://app?vid=b9bc2e42-3d7b-478e-81c5-3b651cc70b58","ios":"levelo://app?vid=b9bc2e42-3d7b-478e-81c5-3b651cc70b58"},"vehicle_type_id":"4","last_reported":1759176657,"current_range_meters":8800,"station_id":"cki0cbj6b192h4jlfktg","pricing_plan_id":"cebpf4jnsgd1na2vs0mg"},{"bike_id":"35e8f722-b82a-4247-beb8-7e2827829ce6","system_id":"levelo_inurba_marseille","lat":43.32405,"lon":5.3911,"is_reserved":false,"is_disabled":false,"rental_uris":{"android":"levelo://app?vid=35e8f722-b82a-4247-beb8-7e2827829ce6","ios":"levelo://app?vid=35e8f722-b82a-4247-beb8-7e2827829ce6"},"vehicle_type_id":"4","last_reported":1759176657,"current_range_meters":8800,"station_id":"","pricing_plan_id":"cebpf4jnsgd1na2vs0mg"},{"bike_id":"c16d98b8-b71f-40a7-ab30-730abb53ec67","system_id":"levelo_inurba_marseille","lat":43.28661,"lon":5.36369,"is_reserved":false,"is_disabled":false,"rental_uris":{"android":"levelo://app?vid=c16d98b8-b71f-40a7-ab30-730abb53ec67","ios":"levelo://app?vid=c16d98b8-b71f-40a7-ab30-730abb53ec67"},"vehicle_type_id":"4","last_reported":1759176657,"current_range_meters":8000,"station_id":"ce4bhah2rcd13ifvqej0","pricing_plan_id":"cebpf4jnsgd1na2vs0mg"},{"bike_id":"d9e7e24a-08ce-4823-92c1-c78250e97e67","system_id":"levelo_inurba_marseille","lat":43.26803,"lon":5.40271,"is_reserved":false,"is_disabled":false,"rental_uris":{"android":"levelo://app?vid=d9e7e24a-08ce-4823-92c1-c78250e97e67","ios":"levelo://app?vid=d9e7e24a-08ce-4823-92c1-c78250e97e67"},"vehicle_type_id":"4","last_reported":1759176657,"current_range_meters":8800,"station_id":"ce501612rcd8frsf0b60","pricing_plan_id":"cebpf4jnsgd1na2vs0mg"},{"bike_id":"e5378695-fba9-432a-9cfb-3b5b05e40fec","system_id":"levelo_inurba_marseille","lat":43.337986,"lon":5.374304,"is_reserved":false,"is_disabled":false,"rental_uris":{"android":"levelo://app?vid=e5378695-fba9-432a-9cfb-3b5b05e40fec","ios":"levelo://app?vid=e5378695-fba9-432a-9cfb-3b5b05e40fec"},"vehicle_type_id":"4","last_reported":1759176657,"current_range_meters":8800,"station_id":"","pricing_plan_id":"cebpf4jnsgd1na2vs0mg"},{"bike_id":"6b7a7095-c733-434f-8a43-870a1be88a3f","system_id":"levelo_inurba_marseille","lat":43.23176,"lon":5.39991,"is_reserved":false,"is_disabled":false,"rental_uris":{"android":"levelo://app?vid=6b7a7095-c733-434f-8a43-870a1be88a3f","ios":"levelo://app?vid=6b7a7095-c733-434f-8a43-870a1be88a3f"},"vehicle_type_id":"4","last_reported":1759176657,"current_range_meters":8800,"station_id":"ce4bhn12rcd13ifvqgqg","pricing_plan_id":"cebpf4jnsgd1na2vs0mg"},{"bike_id":"efdd62a8-4ef5-4506-afac-d82da0475f49","system_id":"levelo_inurba_marseille","lat":43.28336,"lon":5.38071,"is_reserved":false,"is_disabled":false,"rental_uris":{"android":"levelo://app?vid=efdd62a8-4ef5-4506-afac-d82da0475f49","ios":"levelo://app?vid=efdd62a8-4ef5-4506-afac-d82da0475f49"},"vehicle_type_id":"4","last_reported":1759176657,"current_range_meters":9200,"station_id":"ce4bh412rcd13ifvqdr0","pricing_plan_id":"cebpf4jnsgd1na2vs0mg"},{"bike_id":"d7d09523-34bb-44d2-9695-02f0abea9b47","system_id":"levelo_inurba_marseille","lat":43.29721,"lon":5.37914,"is_reserved":false,"is_disabled":false,"rental_uris":{"android":"levelo://app?vid=d7d09523-34bb-44d2-9695-02f0abea9b47","ios":"levelo://app?vid=d7d09523-34bb-44d2-9695-02f0abea9b47"},"vehicle_type_id":"4","last_reported":1759176657,"current_range_meters":9200,"station_id":"","pricing_plan_id":"cebpf4jnsgd1na2vs0mg"},{"bike_id":"f79d08af-cc15-47f2-98d6-537fb37c5572","system_id":"levelo_inurba_marseille","lat":43.28455,"lon":5.359,"is_reserved":false,"is_disabled":false,"rental_uris":{"android":"levelo://app?vid=f79d08af-cc15-47f2-98d6-537fb37c5572","ios":"levelo://app?vid=f79d08af-cc15-47f2-98d6-537fb37c5572"},"vehicle_type_id":"4","last_reported":1759176657,"current_range_meters":9200,"station_id":"ce4bhah2rcd13ifvqei0","pricing_plan_id":"cebpf4jnsgd1na2vs0mg"},{"bike_id":"45cd9e73-8786-4978-9923-6422323a7327","system_id":"levelo_inurba_marseille","lat":43.25577,"lon":5.3823,"is_reserved":false,"is_disabled":true,"rental_uris":{"android":"levelo://app?vid=45cd9e73-8786-4978-9923-6422323a7327","ios":"levelo://app?vid=45cd9e73-8786-4978-9923-6422323a7327"},"vehicle_type_id":"4","last_reported":1759176657,"current_range_meters":9200,"station_id":"ce4bhih2rcd13ifvqfs0","pricing_plan_id":"cebpf4jnsgd1na2vs0mg"},{"bike_id":"33869ba5-7e88-429b-b6a8-7002e0468738","system_id":"levelo_inurba_marseille","lat":43.29707,"lon":5.37698,"is_reserved":false,"is_disabled":false,"rental_uris":{"android":"levelo://app?vid=33869ba5-7e88-429b-b6a8-7002e0468738","ios":"levelo://app?vid=33869ba5-7e88-429b-b6a8-7002e0468738"},"vehicle_type_id":"4","last_reported":1759176657,"current_range_meters":8800,"station_id":"ce4bgkh2rcd13ifvqbl0","pricing_plan_id":"cebpf4jnsgd1na2vs0mg"},{"bike_id":"44c6c6a1-e5b4-4755-bd4f-3c12f3bf6963","system_id":"levelo_inurba_marseille","lat":43.28568,"lon":5.39506,"is_reserved":false,"is_disabled":false,"rental_uris":{"android":"levelo://app?vid=44c6c6a1-e5b4-4755-bd4f-3c12f3bf6963","ios":"levelo://app?vid=44c6c6a1-e5b4-4755-bd4f-3c12f3bf6963"},"vehicle_type_id":"4","last_reported":1759176657,"current_range_meters":9200,"station_id":"ce4bh292rcd13ifvqdg0","pricing_plan_id":"cebpf4jnsgd1na2vs0mg"},{"bike_id":"702f2a8a-b695-444a-b130-53d0ab1c9224","system_id":"levelo_inurba_marseille","lat":43.25452,"lon":5.37606,"is_reserved":false,"is_disabled":false,"rental_uris":{"android":"levelo://app?vid=702f2a8a-b695-444a-b130-53d0ab1c9224","ios":"levelo://app?vid=702f2a8a-b695-444a-b130-53d0ab1c9224"},"vehicle_type_id":"4","last_reported":1759176657,"current_range_meters":9600,"station_id":"","pricing_plan_id":"cebpf4jnsgd1na2vs0mg"},{"bike_id":"68a2bac8-b1d5-4636-9720-baa23c6fad4b","system_id":"levelo_inurba_marseille","lat":43.34142,"lon":5.40903,"is_reserved":false,"is_disabled":false,"rental_uris":{"android":"levelo://app?vid=68a2bac8-b1d5-4636-9720-baa23c6fad4b","ios":"levelo://app?vid=68a2bac8-b1d5-4636-9720-baa23c6fad4b"},"vehicle_type_id":"4","last_reported":1759176657,"current_range_meters":9600,"station_id":"ce4bhqh2rcd13ifvqhlg","pricing_plan_id":"cebpf4jnsgd1na2vs0mg"},{"bike_id":"37f9b3d1-271d-48c7-9834-d3841cfd69d9","system_id":"levelo_inurba_marseille","lat":43.29532,"lon":5.38541,"is_reserved":false,"is_disabled":false,"rental_uris":{"android":"levelo://app?vid=37f9b3d1-271d-48c7-9834-d3841cfd69d9","ios":"levelo://app?vid=37f9b3d1-271d-48c7-9834-d3841cfd69d9"},"vehicle_type_id":"4","last_reported":1759176657,"current_range_meters":9600,"station_id":"ce4bgih2rcd13ifvqba0","pricing_plan_id":"cebpf4jnsgd1na2vs0mg"},{"bike_id":"c47f5c3e-1ff3-43b7-b740-1c081ef57305","system_id":"levelo_inurba_marseille","lat":43.29647,"lon":5.376,"is_reserved":false,"is_disabled":false,"rental_uris":{"android":"levelo://app?vid=c47f5c3e-1ff3-43b7-b740-1c081ef57305","ios":"levelo://app?vid=c47f5c3e-1ff3-43b7-b740-1c081ef57305"},"vehicle_type_id":"4","last_reported":1759176657,"current_range_meters":10000,"station_id":"","pricing_plan_id":"cebpf4jnsgd1na2vs0mg"},{"bike_id":"71c7058a-cdb4-4ce7-9fdc-97eb4f57386f","system_id":"levelo_inurba_marseille","lat":43.25114,"lon":5.40328,"is_reserved":false,"is_disabled":false,"rental_uris":{"android":"levelo://app?vid=71c7058a-cdb4-4ce7-9fdc-97eb4f57386f","ios":"levelo://app?vid=71c7058a-cdb4-4ce7-9fdc-97eb4f57386f"},"vehicle_type_id":"4","last_reported":1759176657,"current_range_meters":10000,"station_id":"ce4bhlh2rcd13ifvqgig","pricing_plan_id":"cebpf4jnsgd1na2vs0mg"},{"bike_id":"d6c734f5-0e13-46a8-8e3e-fda40abe4b7d","system_id":"levelo_inurba_marseille","lat":43.302139,"lon":5.394708,"is_reserved":false,"is_disabled":true,"rental_uris":{"android":"levelo://app?vid=d6c734f5-0e13-46a8-8e3e-fda40abe4b7d","ios":"levelo://app?vid=d6c734f5-0e13-46a8-8e3e-fda40abe4b7d"},"vehicle_type_id":"4","last_reported":1759176657,"current_range_meters":10000,"station_id":"ce4bhgh2rcd13ifvqfa0","pricing_plan_id":"cebpf4jnsgd1na2vs0mg"},{"bike_id":"80b98ce0-3233-47ce-84db-722943723d1e","system_id":"levelo_inurba_marseille","lat":43.269329,"lon":5.38928,"is_reserved":false,"is_disabled":false,"rental_uris":{"android":"levelo://app?vid=80b98ce0-3233-47ce-84db-722943723d1e","ios":"levelo://app?vid=80b98ce0-3233-47ce-84db-722943723d1e"},"vehicle_type_id":"4","last_reported":1759176657,"current_range_meters":10000,"station_id":"","pricing_plan_id":"cebpf4jnsgd1na2vs0mg"},{"bike_id":"9c4235da-d3d0-4056-aa6b-c6aa6e8e7367","system_id":"levelo_inurba_marseille","lat":43.30645,"lon":5.37492,"is_reserved":false,"is_disabled":false,"rental_uris":{"android":"levelo://app?vid=9c4235da-d3d0-4056-aa6b-c6aa6e8e7367","ios":"levelo://app?vid=9c4235da-d3d0-4056-aa6b-c6aa6e8e7367"},"vehicle_type_id":"4","last_reported":1759176657,"current_range_meters":10000,"station_id":"","pricing_plan_id":"cebpf4jnsgd1na2vs0mg"},{"bike_id":"ee6406f7-9f33-4935-a835-0f3904e54bc4","system_id":"levelo_inurba_marseille","lat":43.31875,"lon":5.37317,"is_reserved":false,"is_disabled":true,"rental_uris":{"android":"levelo://app?vid=ee6406f7-9f33-4935-a835-0f3904e54bc4","ios":"levelo://app?vid=ee6406f7-9f33-4935-a835-0f3904e54bc4"},"vehicle_type_id":"4","last_reported":1759176657,"current_range_meters":10800,"station_id":"ce4bgt12rcd13ifvqcd0","pricing_plan_id":"cebpf4jnsgd1na2vs0mg"},{"bike_id":"192a3a99-3bfb-4726-962c-bec017761d93","system_id":"levelo_inurba_marseille","lat":43.30529,"lon":5.36729,"is_reserved":false,"is_disabled":false,"rental_uris":{"android":"levelo://app?vid=192a3a99-3bfb-4726-962c-bec017761d93","ios":"levelo://app?vid=192a3a99-3bfb-4726-962c-bec017761d93"},"vehicle_type_id":"4","last_reported":1759176657,"current_range_meters":10800,"station_id":"ce4bgrp2rcd13ifvqc9g","pricing_plan_id":"cebpf4jnsgd1na2vs0mg"},{"bike_id":"44cc4359-e7b3-48af-83b4-65edd912ef63","system_id":"levelo_inurba_marseille","lat":43.28196,"lon":5.42616,"is_reserved":false,"is_disabled":true,"rental_uris":{"android":"levelo://app?vid=44cc4359-e7b3-48af-83b4-65edd912ef63","ios":"levelo://app?vid=44cc4359-e7b3-48af-83b4-65edd912ef63"},"vehicle_type_id":"4","last_reported":1759176657,"current_range_meters":10800,"station_id":"","pricing_plan_id":"cebpf4jnsgd1na2vs0mg"},{"bike_id":"b112c340-5c7f-4d60-8acc-43466e19c436","system_id":"levelo_inurba_marseille","lat":43.25082,"lon":5.39516,"is_reserved":false,"is_disabled":false,"rental_uris":{"android":"levelo://app?vid=b112c340-5c7f-4d60-8acc-43466e19c436","ios":"levelo://app?vid=b112c340-5c7f-4d60-8acc-43466e19c436"},"vehicle_type_id":"4","last_reported":1759176657,"current_range_meters":10800,"station_id":"ce4bhm12rcd13ifvqgkg","pricing_plan_id":"cebpf4jnsgd1na2vs0mg"},{"bike_id":"10176dad-e77f-4f18-8cea-556decfc72aa","system_id":"levelo_inurba_marseille","lat":43.21765,"lon":5.3462,"is_reserved":false,"is_disabled":false,"rental_uris":{"android":"levelo://app?vid=10176dad-e77f-4f18-8cea-556decfc72aa","ios":"levelo://app?vid=10176dad-e77f-4f18-8cea-556decfc72aa"},"vehicle_type_id":"4","last_reported":1759176657,"current_range_meters":10800,"station_id":"st_cvj6r9ubvosntc0bgbag","pricing_plan_id":"cebpf4jnsgd1na2vs0mg"},{"bike_id":"61ccc5bc-ce0a-42b5-80bd-c3e53600a688","system_id":"levelo_inurba_marseille","lat":43.28556,"lon":5.3949,"is_reserved":false,"is_disabled":false,"rental_uris":{"android":"levelo://app?vid=61ccc5bc-ce0a-42b5-80bd-c3e53600a688","ios":"levelo://app?vid=61ccc5bc-ce0a-42b5-80bd-c3e53600a688"},"vehicle_type_id":"4","last_reported":1759176657,"current_range_meters":10800,"station_id":"ce4bh292rcd13ifvqdg0","pricing_plan_id":"cebpf4jnsgd1na2vs0mg"},{"bike_id":"ce5e157e-4ef2-4c41-9b3b-54d3eecbfa45","system_id":"levelo_inurba_marseille","lat":43.22535,"lon":5.34846,"is_reserved":false,"is_disabled":false,"rental_uris":{"android":"levelo://app?vid=ce5e157e-4ef2-4c41-9b3b-54d3eecbfa45","ios":"levelo://app?vid=ce5e157e-4ef2-4c41-9b3b-54d3eecbfa45"},"vehicle_type_id":"4","last_reported":1759176657,"current_range_meters":10800,"station_id":"","pricing_plan_id":"cebpf4jnsgd1na2vs0mg"},{"bike_id":"44254db3-6d66-46b3-88d7-8a6ddfb02980","system_id":"levelo_inurba_marseille","lat":43.290143,"lon":5.359311,"is_reserved":false,"is_disabled":false,"rental_uris":{"android":"levelo://app?vid=44254db3-6d66-46b3-88d7-8a6ddfb02980","ios":"levelo://app?vid=44254db3-6d66-46b3-88d7-8a6ddfb02980"},"vehicle_type_id":"4","last_reported":1759176657,"current_range_meters":11200,"station_id":"ce4bha92rcd13ifvqeg0","pricing_plan_id":"cebpf4jnsgd1na2vs0mg"},{"bike_id":"831e6a54-bde0-4f77-80bc-8857d66d3744","system_id":"levelo_inurba_marseille","lat":43.27952,"lon":5.41043,"is_reserved":false,"is_disabled":true,"rental_uris":{"android":"levelo://app?vid=831e6a54-bde0-4f77-80bc-8857d66d3744","ios":"levelo://app?vid=831e6a54-bde0-4f77-80bc-8857d66d3744"},"vehicle_type_id":"4","last_reported":1759176657,"current_range_meters":11200,"station_id":"ce4bhnp2rcd13ifvqh0g","pricing_plan_id":"cebpf4jnsgd1na2vs0mg"},{"bike_id":"ea59b303-6900-42ad-9e79-5b0f95bedd6c","system_id":"levelo_inurba_marseille","lat":43.30433,"lon":5.36859,"is_reserved":false,"is_disabled":false,"rental_uris":{"android":"levelo://app?vid=ea59b303-6900-42ad-9e79-5b0f95bedd6c","ios":"levelo://app?vid=ea59b303-6900-42ad-9e79-5b0f95bedd6c"},"vehicle_type_id":"4","last_reported":1759176657,"current_range_meters":11200,"station_id":"","pricing_plan_id":"cebpf4jnsgd1na2vs0mg"},{"bike_id":"dec7bb0d-6f86-4fea-b44f-534df292f8a0","system_id":"levelo_inurba_marseille","lat":43.28854,"lon":5.3584,"is_reserved":false,"is_disabled":false,"rental_uris":{"android":"levelo://app?vid=dec7bb0d-6f86-4fea-b44f-534df292f8a0","ios":"levelo://app?vid=dec7bb0d-6f86-4fea-b44f-534df292f8a0"},"vehicle_type_id":"4","last_reported":1759176657,"current_range_meters":11200,"station_id":"ce4bhb12rcd13ifvqem0","pricing_plan_id":"cebpf4jnsgd1na2vs0mg"},{"bike_id":"0eda2527-f3ce-4552-96df-04220f592c11","system_id":"levelo_inurba_marseille","lat":43.21194,"lon":5.35089,"is_reserved":false,"is_disabled":false,"rental_uris":{"android":"levelo://app?vid=0eda2527-f3ce-4552-96df-04220f592c11","ios":"levelo://app?vid=0eda2527-f3ce-4552-96df-04220f592c11"},"vehicle_type_id":"4","last_reported":1759176657,"current_range_meters":11200,"station_id":"st_cvj6sg6p6f1abm77japg","pricing_plan_id":"cebpf4jnsgd1na2vs0mg"},{"bike_id":"d086a938-223c-403f-9929-49b986e55821","system_id":"levelo_inurba_marseille","lat":43.29787,"lon":5.39345,"is_reserved":false,"is_disabled":false,"rental_uris":{"android":"levelo://app?vid=d086a938-223c-403f-9929-49b986e55821","ios":"levelo://app?vid=d086a938-223c-403f-9929-49b986e55821"},"vehicle_type_id":"4","last_reported":1759176657,"current_range_meters":11200,"station_id":"chh1huq6cuj3fo74tm60","pricing_plan_id":"cebpf4jnsgd1na2vs0mg"},{"bike_id":"7dc10ae7-7366-4aef-afb3-946c513f88ef","system_id":"levelo_inurba_marseille","lat":43.28009,"lon":5.36408,"is_reserved":false,"is_disabled":false,"rental_uris":{"android":"levelo://app?vid=7dc10ae7-7366-4aef-afb3-946c513f88ef","ios":"levelo://app?vid=7dc10ae7-7366-4aef-afb3-946c513f88ef"},"vehicle_type_id":"4","last_reported":1759176657,"current_range_meters":11600,"station_id":"ce4bha12rcd13ifvqef0","pricing_plan_id":"cebpf4jnsgd1na2vs0mg"},{"bike_id":"f6e8cf02-4ec8-4f47-83dd-ddd84fe62208","system_id":"levelo_inurba_marseille","lat":43.23169,"lon":5.40024,"is_reserved":false,"is_disabled":false,"rental_uris":{"android":"levelo://app?vid=f6e8cf02-4ec8-4f47-83dd-ddd84fe62208","ios":"levelo://app?vid=f6e8cf02-4ec8-4f47-83dd-ddd84fe62208"},"vehicle_type_id":"4","last_reported":1759176657,"current_range_meters":11600,"station_id":"ce4bhn12rcd13ifvqgqg","pricing_plan_id":"cebpf4jnsgd1na2vs0mg"},{"bike_id":"ff55fd42-6d47-4b2a-b19b-cea1a42775a3","system_id":"levelo_inurba_marseille","lat":43.29305,"lon":5.37173,"is_reserved":false,"is_disabled":false,"rental_uris":{"android":"levelo://app?vid=ff55fd42-6d47-4b2a-b19b-cea1a42775a3","ios":"levelo://app?vid=ff55fd42-6d47-4b2a-b19b-cea1a42775a3"},"vehicle_type_id":"4","last_reported":1759176657,"current_range_meters":11600,"station_id":"ce4bgh92rcd13ifvqb40","pricing_plan_id":"cebpf4jnsgd1na2vs0mg"},{"bike_id":"7952d0c5-c3b4-4c29-bacd-f59ef155894d","system_id":"levelo_inurba_marseille","lat":43.309025,"lon":5.381673,"is_reserved":false,"is_disabled":false,"rental_uris":{"android":"levelo://app?vid=7952d0c5-c3b4-4c29-bacd-f59ef155894d","ios":"levelo://app?vid=7952d0c5-c3b4-4c29-bacd-f59ef155894d"},"vehicle_type_id":"4","last_reported":1759176657,"current_range_meters":11600,"station_id":"","pricing_plan_id":"cebpf4jnsgd1na2vs0mg"},{"bike_id":"d86446ad-6e4e-43ef-943a-4d0b1c9bdca7","system_id":"levelo_inurba_marseille","lat":43.25089,"lon":5.39526,"is_reserved":false,"is_disabled":false,"rental_uris":{"android":"levelo://app?vid=d86446ad-6e4e-43ef-943a-4d0b1c9bdca7","ios":"levelo://app?vid=d86446ad-6e4e-43ef-943a-4d0b1c9bdca7"},"vehicle_type_id":"4","last_reported":1759176657,"current_range_meters":11600,"station_id":"ce4bhm12rcd13ifvqgkg","pricing_plan_id":"cebpf4jnsgd1na2vs0mg"},{"bike_id":"a07a513e-e5a9-4481-8592-d991379bc662","system_id":"levelo_inurba_marseille","lat":43.33735,"lon":5.37481,"is_reserved":false,"is_disabled":false,"rental_uris":{"android":"levelo://app?vid=a07a513e-e5a9-4481-8592-d991379bc662","ios":"levelo://app?vid=a07a513e-e5a9-4481-8592-d991379bc662"},"vehicle_type_id":"4","last_reported":1759176657,"current_range_meters":11600,"station_id":"","pricing_plan_id":"cebpf4jnsgd1na2vs0mg"},{"bike_id":"503988b7-a021-44c8-8c31-e0197da6141b","system_id":"levelo_inurba_marseille","lat":43.28851,"lon":5.39308,"is_reserved":false,"is_disabled":false,"rental_uris":{"android":"levelo://app?vid=503988b7-a021-44c8-8c31-e0197da6141b","ios":"levelo://app?vid=503988b7-a021-44c8-8c31-e0197da6141b"},"vehicle_type_id":"4","last_reported":1759176657,"current_range_meters":12000,"station_id":"ce4bh2p2rcd13ifvqdi0","pricing_plan_id":"cebpf4jnsgd1na2vs0mg"},{"bike_id":"0030cf69-75f8-4719-a372-efc52bdb748a","system_id":"levelo_inurba_marseille","lat":43.32931,"lon":5.45416,"is_reserved":false,"is_disabled":false,"rental_uris":{"android":"levelo://app?vid=0030cf69-75f8-4719-a372-efc52bdb748a","ios":"levelo://app?vid=0030cf69-75f8-4719-a372-efc52bdb748a"},"vehicle_type_id":"4","last_reported":1759176657,"current_range_meters":12000,"station_id":"","pricing_plan_id":"cebpf4jnsgd1na2vs0mg"},{"bike_id":"6d3d697a-7fec-430e-9ea3-bcbd4193703f","system_id":"levelo_inurba_marseille","lat":43.29306,"lon":5.37182,"is_reserved":false,"is_disabled":false,"rental_uris":{"android":"levelo://app?vid=6d3d697a-7fec-430e-9ea3-bcbd4193703f","ios":"levelo://app?vid=6d3d697a-7fec-430e-9ea3-bcbd4193703f"},"vehicle_type_id":"4","last_reported":1759176657,"current_range_meters":11600,"station_id":"ce4bgh92rcd13ifvqb40","pricing_plan_id":"cebpf4jnsgd1na2vs0mg"},{"bike_id":"2348c422-cf13-47fa-b37f-6fad05b8bc70","system_id":"levelo_inurba_marseille","lat":43.29801,"lon":5.40399,"is_reserved":false,"is_disabled":false,"rental_uris":{"android":"levelo://app?vid=2348c422-cf13-47fa-b37f-6fad05b8bc70","ios":"levelo://app?vid=2348c422-cf13-47fa-b37f-6fad05b8bc70"},"vehicle_type_id":"4","last_reported":1759176657,"current_range_meters":12000,"station_id":"ce4bh112rcd13ifvqd90","pricing_plan_id":"cebpf4jnsgd1na2vs0mg"},{"bike_id":"bbc53aa3-a304-45b5-85b8-7a9e027f1078","system_id":"levelo_inurba_marseille","lat":43.29785,"lon":5.39351,"is_reserved":false,"is_disabled":false,"rental_uris":{"android":"levelo://app?vid=bbc53aa3-a304-45b5-85b8-7a9e027f1078","ios":"levelo://app?vid=bbc53aa3-a304-45b5-85b8-7a9e027f1078"},"vehicle_type_id":"4","last_reported":1759176657,"current_range_meters":12000,"station_id":"chh1huq6cuj3fo74tm60","pricing_plan_id":"cebpf4jnsgd1na2vs0mg"},{"bike_id":"16736934-dfee-4899-9572-c856d9cb8245","system_id":"levelo_inurba_marseille","lat":43.27867,"lon":5.40726,"is_reserved":false,"is_disabled":false,"rental_uris":{"android":"levelo://app?vid=16736934-dfee-4899-9572-c856d9cb8245","ios":"levelo://app?vid=16736934-dfee-4899-9572-c856d9cb8245"},"vehicle_type_id":"4","last_reported":1759176657,"current_range_meters":12000,"station_id":"","pricing_plan_id":"cebpf4jnsgd1na2vs0mg"},{"bike_id":"c627b34a-8e81-4438-af3b-4fd0aab1c160","system_id":"levelo_inurba_marseille","lat":43.29666,"lon":5.36016,"is_reserved":false,"is_disabled":false,"rental_uris":{"android":"levelo://app?vid=c627b34a-8e81-4438-af3b-4fd0aab1c160","ios":"levelo://app?vid=c627b34a-8e81-4438-af3b-4fd0aab1c160"},"vehicle_type_id":"4","last_reported":1759176657,"current_range_meters":12000,"station_id":"","pricing_plan_id":"cebpf4jnsgd1na2vs0mg"},{"bike_id":"4e2b67a9-2363-4346-a116-df23989a8449","system_id":"levelo_inurba_marseille","lat":43.29172,"lon":5.38835,"is_reserved":false,"is_disabled":false,"rental_uris":{"android":"levelo://app?vid=4e2b67a9-2363-4346-a116-df23989a8449","ios":"levelo://app?vid=4e2b67a9-2363-4346-a116-df23989a8449"},"vehicle_type_id":"4","last_reported":1759176657,"current_range_meters":12000,"station_id":"","pricing_plan_id":"cebpf4jnsgd1na2vs0mg"},{"bike_id":"3d325c0a-452a-40b6-b976-7af3843b4d54","system_id":"levelo_inurba_marseille","lat":43.21746,"lon":5.34604,"is_reserved":false,"is_disabled":false,"rental_uris":{"android":"levelo://app?vid=3d325c0a-452a-40b6-b976-7af3843b4d54","ios":"levelo://app?vid=3d325c0a-452a-40b6-b976-7af3843b4d54"},"vehicle_type_id":"4","last_reported":1759176657,"current_range_meters":12400,"station_id":"","pricing_plan_id":"cebpf4jnsgd1na2vs0mg"},{"bike_id":"ba2e7099-27db-4d2f-9036-ba69d60b773c","system_id":"levelo_inurba_marseille","lat":43.29712,"lon":5.36606,"is_reserved":false,"is_disabled":false,"rental_uris":{"android":"levelo://app?vid=ba2e7099-27db-4d2f-9036-ba69d60b773c","ios":"levelo://app?vid=ba2e7099-27db-4d2f-9036-ba69d60b773c"},"vehicle_type_id":"4","last_reported":1759176657,"current_range_meters":12400,"station_id":"ce4bgn12rcd13ifvqbt0","pricing_plan_id":"cebpf4jnsgd1na2vs0mg"},{"bike_id":"08897f5d-483e-4ffa-b1bb-f13bc5f35002","system_id":"levelo_inurba_marseille","lat":43.28069,"lon":5.39656,"is_reserved":false,"is_disabled":false,"rental_uris":{"android":"levelo://app?vid=08897f5d-483e-4ffa-b1bb-f13bc5f35002","ios":"levelo://app?vid=08897f5d-483e-4ffa-b1bb-f13bc5f35002"},"vehicle_type_id":"4","last_reported":1759176657,"current_range_meters":12400,"station_id":"ce4bho12rcd13ifvqh2g","pricing_plan_id":"cebpf4jnsgd1na2vs0mg"},{"bike_id":"385fa573-6758-43e7-a2f4-f27be30ea572","system_id":"levelo_inurba_marseille","lat":43.32137,"lon":5.36771,"is_reserved":false,"is_disabled":false,"rental_uris":{"android":"levelo://app?vid=385fa573-6758-43e7-a2f4-f27be30ea572","ios":"levelo://app?vid=385fa573-6758-43e7-a2f4-f27be30ea572"},"vehicle_type_id":"4","last_reported":1759176657,"current_range_meters":12400,"station_id":"","pricing_plan_id":"cebpf4jnsgd1na2vs0mg"},{"bike_id":"40d5dc39-6be0-4981-985c-7676be853716","system_id":"levelo_inurba_marseille","lat":43.25341,"lon":5.42193,"is_reserved":false,"is_disabled":false,"rental_uris":{"android":"levelo://app?vid=40d5dc39-6be0-4981-985c-7676be853716","ios":"levelo://app?vid=40d5dc39-6be0-4981-985c-7676be853716"},"vehicle_type_id":"4","last_reported":1759176657,"current_range_meters":12400,"station_id":"st_d2m65c5bi1j21697t3ng","pricing_plan_id":"cebpf4jnsgd1na2vs0mg"},{"bike_id":"fe7c339b-81a8-4a59-b339-9d30aae20d0f","system_id":"levelo_inurba_marseille","lat":43.2534,"lon":5.42173,"is_reserved":false,"is_disabled":false,"rental_uris":{"android":"levelo://app?vid=fe7c339b-81a8-4a59-b339-9d30aae20d0f","ios":"levelo://app?vid=fe7c339b-81a8-4a59-b339-9d30aae20d0f"},"vehicle_type_id":"4","last_reported":1759176657,"current_range_meters":12400,"station_id":"st_d2m65c5bi1j21697t3ng","pricing_plan_id":"cebpf4jnsgd1na2vs0mg"},{"bike_id":"2698c3c3-4f41-480c-b3bd-bf477fd82bf2","system_id":"levelo_inurba_marseille","lat":43.28707,"lon":5.37394,"is_reserved":false,"is_disabled":false,"rental_uris":{"android":"levelo://app?vid=2698c3c3-4f41-480c-b3bd-bf477fd82bf2","ios":"levelo://app?vid=2698c3c3-4f41-480c-b3bd-bf477fd82bf2"},"vehicle_type_id":"4","last_reported":1759176657,"current_range_meters":12400,"station_id":"ce4bh3p2rcd13ifvqdq0","pricing_plan_id":"cebpf4jnsgd1na2vs0mg"},{"bike_id":"8d0c953f-ed4d-4149-ad35-90bc33a1387b","system_id":"levelo_inurba_marseille","lat":43.30316,"lon":5.36909,"is_reserved":false,"is_disabled":false,"rental_uris":{"android":"levelo://app?vid=8d0c953f-ed4d-4149-ad35-90bc33a1387b","ios":"levelo://app?vid=8d0c953f-ed4d-4149-ad35-90bc33a1387b"},"vehicle_type_id":"4","last_reported":1759176657,"current_range_meters":12400,"station_id":"ce4bgqh2rcd13ifvqc5g","pricing_plan_id":"cebpf4jnsgd1na2vs0mg"},{"bike_id":"c0aa09b9-3ca4-4680-aebb-be7c8cfe21b2","system_id":"levelo_inurba_marseille","lat":43.2925,"lon":5.38439,"is_reserved":false,"is_disabled":false,"rental_uris":{"android":"levelo://app?vid=c0aa09b9-3ca4-4680-aebb-be7c8cfe21b2","ios":"levelo://app?vid=c0aa09b9-3ca4-4680-aebb-be7c8cfe21b2"},"vehicle_type_id":"4","last_reported":1759176657,"current_range_meters":12800,"station_id":"ce4bh692rcd13ifvqea0","pricing_plan_id":"cebpf4jnsgd1na2vs0mg"},{"bike_id":"a6d5fea6-0b36-4308-aa47-0115b1c3b025","system_id":"levelo_inurba_marseille","lat":43.3074,"lon":5.42449,"is_reserved":false,"is_disabled":false,"rental_uris":{"android":"levelo://app?vid=a6d5fea6-0b36-4308-aa47-0115b1c3b025","ios":"levelo://app?vid=a6d5fea6-0b36-4308-aa47-0115b1c3b025"},"vehicle_type_id":"4","last_reported":1759176657,"current_range_meters":12800,"station_id":"st_cvj6ca6bvosntc0bfgr0","pricing_plan_id":"cebpf4jnsgd1na2vs0mg"},{"bike_id":"d60dc148-253b-4625-ae0c-8c88dcdb4260","system_id":"levelo_inurba_marseille","lat":43.272127,"lon":5.391798,"is_reserved":false,"is_disabled":false,"rental_uris":{"android":"levelo://app?vid=d60dc148-253b-4625-ae0c-8c88dcdb4260","ios":"levelo://app?vid=d60dc148-253b-4625-ae0c-8c88dcdb4260"},"vehicle_type_id":"4","last_reported":1759176657,"current_range_meters":12800,"station_id":"","pricing_plan_id":"cebpf4jnsgd1na2vs0mg"},{"bike_id":"a2bf9d49-20f4-4a57-ae11-1191ce374755","system_id":"levelo_inurba_marseille","lat":43.28029,"lon":5.36946,"is_reserved":false,"is_disabled":false,"rental_uris":{"android":"levelo://app?vid=a2bf9d49-20f4-4a57-ae11-1191ce374755","ios":"levelo://app?vid=a2bf9d49-20f4-4a57-ae11-1191ce374755"},"vehicle_type_id":"4","last_reported":1759176657,"current_range_meters":12400,"station_id":"ce4bha12rcd13ifvqef0","pricing_plan_id":"cebpf4jnsgd1na2vs0mg"},{"bike_id":"cb560dc5-3481-46ba-9bbe-3e3027c9ead9","system_id":"levelo_inurba_marseille","lat":43.27987,"lon":5.41668,"is_reserved":false,"is_disabled":false,"rental_uris":{"android":"levelo://app?vid=cb560dc5-3481-46ba-9bbe-3e3027c9ead9","ios":"levelo://app?vid=cb560dc5-3481-46ba-9bbe-3e3027c9ead9"},"vehicle_type_id":"4","last_reported":1759176657,"current_range_meters":12800,"station_id":"ce4bho12rcd13ifvqh1g","pricing_plan_id":"cebpf4jnsgd1na2vs0mg"},{"bike_id":"2e49e988-42fa-4abd-93ae-2866429a756f","system_id":"levelo_inurba_marseille","lat":43.311645,"lon":5.377576,"is_reserved":false,"is_disabled":false,"rental_uris":{"android":"levelo://app?vid=2e49e988-42fa-4abd-93ae-2866429a756f","ios":"levelo://app?vid=2e49e988-42fa-4abd-93ae-2866429a756f"},"vehicle_type_id":"4","last_reported":1759176657,"current_range_meters":12800,"station_id":"ce4bgt12rcd13ifvqcd0","pricing_plan_id":"cebpf4jnsgd1na2vs0mg"},{"bike_id":"498de633-1978-409b-aa35-b617d56ba506","system_id":"levelo_inurba_marseille","lat":43.289401,"lon":5.366452,"is_reserved":false,"is_disabled":false,"rental_uris":{"android":"levelo://app?vid=498de633-1978-409b-aa35-b617d56ba506","ios":"levelo://app?vid=498de633-1978-409b-aa35-b617d56ba506"},"vehicle_type_id":"4","last_reported":1759176657,"current_range_meters":12800,"station_id":"ce4bhap2rcd13ifvqek0","pricing_plan_id":"cebpf4jnsgd1na2vs0mg"},{"bike_id":"dcaf3233-ddff-4cd1-a0ec-8a4c4b26bf10","system_id":"levelo_inurba_marseille","lat":43.27816,"lon":5.40715,"is_reserved":false,"is_disabled":false,"rental_uris":{"android":"levelo://app?vid=dcaf3233-ddff-4cd1-a0ec-8a4c4b26bf10","ios":"levelo://app?vid=dcaf3233-ddff-4cd1-a0ec-8a4c4b26bf10"},"vehicle_type_id":"4","last_reported":1759176657,"current_range_meters":12800,"station_id":"ce4bhnh2rcd13ifvqgtg","pricing_plan_id":"cebpf4jnsgd1na2vs0mg"},{"bike_id":"91658db2-d6ae-4346-bb4d-02353c95c4ab","system_id":"levelo_inurba_marseille","lat":43.25344,"lon":5.4217,"is_reserved":false,"is_disabled":false,"rental_uris":{"android":"levelo://app?vid=91658db2-d6ae-4346-bb4d-02353c95c4ab","ios":"levelo://app?vid=91658db2-d6ae-4346-bb4d-02353c95c4ab"},"vehicle_type_id":"4","last_reported":1759176657,"current_range_meters":13600,"station_id":"st_d2m65c5bi1j21697t3ng","pricing_plan_id":"cebpf4jnsgd1na2vs0mg"},{"bike_id":"aa123961-c527-4db0-9350-7d548f67905a","system_id":"levelo_inurba_marseille","lat":43.27946,"lon":5.38753,"is_reserved":false,"is_disabled":false,"rental_uris":{"android":"levelo://app?vid=aa123961-c527-4db0-9350-7d548f67905a","ios":"levelo://app?vid=aa123961-c527-4db0-9350-7d548f67905a"},"vehicle_type_id":"4","last_reported":1759176657,"current_range_meters":13600,"station_id":"ce4bh492rcd13ifvqdvg","pricing_plan_id":"cebpf4jnsgd1na2vs0mg"},{"bike_id":"ba1cfbb3-555c-4e6c-85db-b50e9395062e","system_id":"levelo_inurba_marseille","lat":43.246877,"lon":5.381936,"is_reserved":false,"is_disabled":false,"rental_uris":{"android":"levelo://app?vid=ba1cfbb3-555c-4e6c-85db-b50e9395062e","ios":"levelo://app?vid=ba1cfbb3-555c-4e6c-85db-b50e9395062e"},"vehicle_type_id":"4","last_reported":1759176657,"current_range_meters":13600,"station_id":"","pricing_plan_id":"cebpf4jnsgd1na2vs0mg"},{"bike_id":"aebf0e68-ba27-412a-9ce2-11cc42127dee","system_id":"levelo_inurba_marseille","lat":43.337444,"lon":5.374475,"is_reserved":false,"is_disabled":false,"rental_uris":{"android":"levelo://app?vid=aebf0e68-ba27-412a-9ce2-11cc42127dee","ios":"levelo://app?vid=aebf0e68-ba27-412a-9ce2-11cc42127dee"},"vehicle_type_id":"4","last_reported":1759176657,"current_range_meters":13600,"station_id":"","pricing_plan_id":"cebpf4jnsgd1na2vs0mg"},{"bike_id":"78edd212-3bd8-4a45-bced-089e3907902a","system_id":"levelo_inurba_marseille","lat":43.32729,"lon":5.42378,"is_reserved":false,"is_disabled":true,"rental_uris":{"android":"levelo://app?vid=78edd212-3bd8-4a45-bced-089e3907902a","ios":"levelo://app?vid=78edd212-3bd8-4a45-bced-089e3907902a"},"vehicle_type_id":"4","last_reported":1759176657,"current_range_meters":14000,"station_id":"","pricing_plan_id":"cebpf4jnsgd1na2vs0mg"},{"bike_id":"61dd405e-f4e8-4eab-966a-a47ff6584e41","system_id":"levelo_inurba_marseille","lat":43.28745,"lon":5.36077,"is_reserved":false,"is_disabled":false,"rental_uris":{"android":"levelo://app?vid=61dd405e-f4e8-4eab-966a-a47ff6584e41","ios":"levelo://app?vid=61dd405e-f4e8-4eab-966a-a47ff6584e41"},"vehicle_type_id":"4","last_reported":1759176657,"current_range_meters":14000,"station_id":"cki0cbj6b192h4jlfktg","pricing_plan_id":"cebpf4jnsgd1na2vs0mg"},{"bike_id":"8cbcf5e7-b804-4925-bbed-5f57e8580ccf","system_id":"levelo_inurba_marseille","lat":43.31519,"lon":5.36803,"is_reserved":false,"is_disabled":false,"rental_uris":{"android":"levelo://app?vid=8cbcf5e7-b804-4925-bbed-5f57e8580ccf","ios":"levelo://app?vid=8cbcf5e7-b804-4925-bbed-5f57e8580ccf"},"vehicle_type_id":"4","last_reported":1759176657,"current_range_meters":14000,"station_id":"","pricing_plan_id":"cebpf4jnsgd1na2vs0mg"},{"bike_id":"56d6a008-a903-4bd5-8ee3-1cec5d05c634","system_id":"levelo_inurba_marseille","lat":43.31749,"lon":5.39024,"is_reserved":false,"is_disabled":false,"rental_uris":{"android":"levelo://app?vid=56d6a008-a903-4bd5-8ee3-1cec5d05c634","ios":"levelo://app?vid=56d6a008-a903-4bd5-8ee3-1cec5d05c634"},"vehicle_type_id":"4","last_reported":1759176657,"current_range_meters":14000,"station_id":"ce4bhqp2rcd13ifvqhng","pricing_plan_id":"cebpf4jnsgd1na2vs0mg"},{"bike_id":"42fe4fc1-aaad-41c5-9eee-de813f970dda","system_id":"levelo_inurba_marseille","lat":43.31067,"lon":5.38355,"is_reserved":false,"is_disabled":false,"rental_uris":{"android":"levelo://app?vid=42fe4fc1-aaad-41c5-9eee-de813f970dda","ios":"levelo://app?vid=42fe4fc1-aaad-41c5-9eee-de813f970dda"},"vehicle_type_id":"4","last_reported":1759176657,"current_range_meters":14000,"station_id":"ce4bgv92rcd13ifvqcr0","pricing_plan_id":"cebpf4jnsgd1na2vs0mg"},{"bike_id":"a2e45c06-7d2f-44e3-92a1-23bde99e0798","system_id":"levelo_inurba_marseille","lat":43.28861,"lon":5.4253,"is_reserved":false,"is_disabled":false,"rental_uris":{"android":"levelo://app?vid=a2e45c06-7d2f-44e3-92a1-23bde99e0798","ios":"levelo://app?vid=a2e45c06-7d2f-44e3-92a1-23bde99e0798"},"vehicle_type_id":"4","last_reported":1759176657,"current_range_meters":14000,"station_id":"st_d3b462108ojc7389ooeg","pricing_plan_id":"cebpf4jnsgd1na2vs0mg"},{"bike_id":"17bbf4dd-fba9-4826-8c7d-9be0609a6e2f","system_id":"levelo_inurba_marseille","lat":43.31141,"lon":5.37727,"is_reserved":false,"is_disabled":false,"rental_uris":{"android":"levelo://app?vid=17bbf4dd-fba9-4826-8c7d-9be0609a6e2f","ios":"levelo://app?vid=17bbf4dd-fba9-4826-8c7d-9be0609a6e2f"},"vehicle_type_id":"4","last_reported":1759176657,"current_range_meters":14000,"station_id":"","pricing_plan_id":"cebpf4jnsgd1na2vs0mg"},{"bike_id":"37806801-7210-4dc1-b909-61f633614c0c","system_id":"levelo_inurba_marseille","lat":43.28335,"lon":5.38109,"is_reserved":false,"is_disabled":false,"rental_uris":{"android":"levelo://app?vid=37806801-7210-4dc1-b909-61f633614c0c","ios":"levelo://app?vid=37806801-7210-4dc1-b909-61f633614c0c"},"vehicle_type_id":"4","last_reported":1759176657,"current_range_meters":14000,"station_id":"ce4bh412rcd13ifvqdr0","pricing_plan_id":"cebpf4jnsgd1na2vs0mg"},{"bike_id":"b7a31384-0f80-458b-a37b-5d574bd125d8","system_id":"levelo_inurba_marseille","lat":43.31323,"lon":5.39691,"is_reserved":false,"is_disabled":false,"rental_uris":{"android":"levelo://app?vid=b7a31384-0f80-458b-a37b-5d574bd125d8","ios":"levelo://app?vid=b7a31384-0f80-458b-a37b-5d574bd125d8"},"vehicle_type_id":"4","last_reported":1759176657,"current_range_meters":14400,"station_id":"ce4bgvp2rcd13ifvqcu0","pricing_plan_id":"cebpf4jnsgd1na2vs0mg"},{"bike_id":"f53cda41-8406-49be-bb37-4d5739d4aa68","system_id":"levelo_inurba_marseille","lat":43.2694,"lon":5.40257,"is_reserved":false,"is_disabled":false,"rental_uris":{"android":"levelo://app?vid=f53cda41-8406-49be-bb37-4d5739d4aa68","ios":"levelo://app?vid=f53cda41-8406-49be-bb37-4d5739d4aa68"},"vehicle_type_id":"4","last_reported":1759176657,"current_range_meters":14000,"station_id":"cjm6bp8fraef2m0cb0m0","pricing_plan_id":"cebpf4jnsgd1na2vs0mg"},{"bike_id":"834d954d-eca7-4c68-a992-51d80a79bde9","system_id":"levelo_inurba_marseille","lat":43.29537,"lon":5.38547,"is_reserved":false,"is_disabled":false,"rental_uris":{"android":"levelo://app?vid=834d954d-eca7-4c68-a992-51d80a79bde9","ios":"levelo://app?vid=834d954d-eca7-4c68-a992-51d80a79bde9"},"vehicle_type_id":"4","last_reported":1759176657,"current_range_meters":14400,"station_id":"ce4bgih2rcd13ifvqba0","pricing_plan_id":"cebpf4jnsgd1na2vs0mg"},{"bike_id":"b758b494-181d-4229-918f-9ce41e85b04d","system_id":"levelo_inurba_marseille","lat":43.33152,"lon":5.38175,"is_reserved":false,"is_disabled":false,"rental_uris":{"android":"levelo://app?vid=b758b494-181d-4229-918f-9ce41e85b04d","ios":"levelo://app?vid=b758b494-181d-4229-918f-9ce41e85b04d"},"vehicle_type_id":"4","last_reported":1759176657,"current_range_meters":14400,"station_id":"","pricing_plan_id":"cebpf4jnsgd1na2vs0mg"},{"bike_id":"cfbccd9b-7487-4373-bd45-0825506fdb75","system_id":"levelo_inurba_marseille","lat":43.29145,"lon":5.3717,"is_reserved":false,"is_disabled":false,"rental_uris":{"android":"levelo://app?vid=cfbccd9b-7487-4373-bd45-0825506fdb75","ios":"levelo://app?vid=cfbccd9b-7487-4373-bd45-0825506fdb75"},"vehicle_type_id":"4","last_reported":1759176657,"current_range_meters":14400,"station_id":"ce4bha92rcd13ifvqeh0","pricing_plan_id":"cebpf4jnsgd1na2vs0mg"},{"bike_id":"37f92675-5c6d-4cea-8a60-2198fa390655","system_id":"levelo_inurba_marseille","lat":43.23957,"lon":5.36633,"is_reserved":false,"is_disabled":false,"rental_uris":{"android":"levelo://app?vid=37f92675-5c6d-4cea-8a60-2198fa390655","ios":"levelo://app?vid=37f92675-5c6d-4cea-8a60-2198fa390655"},"vehicle_type_id":"4","last_reported":1759176657,"current_range_meters":14400,"station_id":"","pricing_plan_id":"cebpf4jnsgd1na2vs0mg"},{"bike_id":"a9cd5665-4575-420b-bb7e-e441349a406a","system_id":"levelo_inurba_marseille","lat":43.28426,"lon":5.35001,"is_reserved":false,"is_disabled":false,"rental_uris":{"android":"levelo://app?vid=a9cd5665-4575-420b-bb7e-e441349a406a","ios":"levelo://app?vid=a9cd5665-4575-420b-bb7e-e441349a406a"},"vehicle_type_id":"4","last_reported":1759176657,"current_range_meters":14400,"station_id":"ce4bhbh2rcd13ifvqepg","pricing_plan_id":"cebpf4jnsgd1na2vs0mg"},{"bike_id":"90b4c2c6-74ed-4bc2-b762-05e29dca864f","system_id":"levelo_inurba_marseille","lat":43.24647,"lon":5.38901,"is_reserved":false,"is_disabled":false,"rental_uris":{"android":"levelo://app?vid=90b4c2c6-74ed-4bc2-b762-05e29dca864f","ios":"levelo://app?vid=90b4c2c6-74ed-4bc2-b762-05e29dca864f"},"vehicle_type_id":"4","last_reported":1759176657,"current_range_meters":14400,"station_id":"ce4bhg12rcd13ifvqf60","pricing_plan_id":"cebpf4jnsgd1na2vs0mg"},{"bike_id":"f83fb8d3-a923-4789-87d2-2d06da9c7fdf","system_id":"levelo_inurba_marseille","lat":43.29523,"lon":5.39404,"is_reserved":false,"is_disabled":false,"rental_uris":{"android":"levelo://app?vid=f83fb8d3-a923-4789-87d2-2d06da9c7fdf","ios":"levelo://app?vid=f83fb8d3-a923-4789-87d2-2d06da9c7fdf"},"vehicle_type_id":"4","last_reported":1759176657,"current_range_meters":14400,"station_id":"ce4bh292rcd13ifvqdf0","pricing_plan_id":"cebpf4jnsgd1na2vs0mg"},{"bike_id":"e6ad85b1-a3cb-4839-baf9-2eb5999fca22","system_id":"levelo_inurba_marseille","lat":43.29525,"lon":5.3855,"is_reserved":false,"is_disabled":false,"rental_uris":{"android":"levelo://app?vid=e6ad85b1-a3cb-4839-baf9-2eb5999fca22","ios":"levelo://app?vid=e6ad85b1-a3cb-4839-baf9-2eb5999fca22"},"vehicle_type_id":"4","last_reported":1759176657,"current_range_meters":14400,"station_id":"ce4bgih2rcd13ifvqba0","pricing_plan_id":"cebpf4jnsgd1na2vs0mg"},{"bike_id":"cb8737f5-9915-4005-98ee-fd2aa1c38d9f","system_id":"levelo_inurba_marseille","lat":43.23165,"lon":5.4,"is_reserved":false,"is_disabled":false,"rental_uris":{"android":"levelo://app?vid=cb8737f5-9915-4005-98ee-fd2aa1c38d9f","ios":"levelo://app?vid=cb8737f5-9915-4005-98ee-fd2aa1c38d9f"},"vehicle_type_id":"4","last_reported":1759176657,"current_range_meters":14400,"station_id":"ce4bhn12rcd13ifvqgqg","pricing_plan_id":"cebpf4jnsgd1na2vs0mg"},{"bike_id":"78d31c07-fdee-421a-b355-3e02fac02760","system_id":"levelo_inurba_marseille","lat":43.25491,"lon":5.37665,"is_reserved":false,"is_disabled":false,"rental_uris":{"android":"levelo://app?vid=78d31c07-fdee-421a-b355-3e02fac02760","ios":"levelo://app?vid=78d31c07-fdee-421a-b355-3e02fac02760"},"vehicle_type_id":"4","last_reported":1759176657,"current_range_meters":14400,"station_id":"ce4bhh12rcd13ifvqff0","pricing_plan_id":"cebpf4jnsgd1na2vs0mg"},{"bike_id":"50db5d85-cf29-4c95-8cdf-8bacc7a306bd","system_id":"levelo_inurba_marseille","lat":43.27947,"lon":5.41043,"is_reserved":false,"is_disabled":false,"rental_uris":{"android":"levelo://app?vid=50db5d85-cf29-4c95-8cdf-8bacc7a306bd","ios":"levelo://app?vid=50db5d85-cf29-4c95-8cdf-8bacc7a306bd"},"vehicle_type_id":"4","last_reported":1759176657,"current_range_meters":14400,"station_id":"ce4bhnp2rcd13ifvqh0g","pricing_plan_id":"cebpf4jnsgd1na2vs0mg"},{"bike_id":"f4e169e6-32e3-46ca-8c44-dd2d245fa722","system_id":"levelo_inurba_marseille","lat":43.29785,"lon":5.39377,"is_reserved":false,"is_disabled":false,"rental_uris":{"android":"levelo://app?vid=f4e169e6-32e3-46ca-8c44-dd2d245fa722","ios":"levelo://app?vid=f4e169e6-32e3-46ca-8c44-dd2d245fa722"},"vehicle_type_id":"4","last_reported":1759176657,"current_range_meters":14400,"station_id":"chh1huq6cuj3fo74tm60","pricing_plan_id":"cebpf4jnsgd1na2vs0mg"},{"bike_id":"99ce2063-5dfb-4ed3-a4a6-8fc3a54c4890","system_id":"levelo_inurba_marseille","lat":43.337444,"lon":5.374475,"is_reserved":false,"is_disabled":false,"rental_uris":{"android":"levelo://app?vid=99ce2063-5dfb-4ed3-a4a6-8fc3a54c4890","ios":"levelo://app?vid=99ce2063-5dfb-4ed3-a4a6-8fc3a54c4890"},"vehicle_type_id":"4","last_reported":1759176657,"current_range_meters":14400,"station_id":"","pricing_plan_id":"cebpf4jnsgd1na2vs0mg"},{"bike_id":"044920dd-d539-4b28-a284-f3f6330313ab","system_id":"levelo_inurba_marseille","lat":43.28086,"lon":5.39651,"is_reserved":false,"is_disabled":false,"rental_uris":{"android":"levelo://app?vid=044920dd-d539-4b28-a284-f3f6330313ab","ios":"levelo://app?vid=044920dd-d539-4b28-a284-f3f6330313ab"},"vehicle_type_id":"4","last_reported":1759176657,"current_range_meters":14800,"station_id":"ce4bho12rcd13ifvqh2g","pricing_plan_id":"cebpf4jnsgd1na2vs0mg"},{"bike_id":"5f1d86ea-5f9a-49d6-a0f1-f1a59b4a7ec2","system_id":"levelo_inurba_marseille","lat":43.28356,"lon":5.38626,"is_reserved":false,"is_disabled":false,"rental_uris":{"android":"levelo://app?vid=5f1d86ea-5f9a-49d6-a0f1-f1a59b4a7ec2","ios":"levelo://app?vid=5f1d86ea-5f9a-49d6-a0f1-f1a59b4a7ec2"},"vehicle_type_id":"4","last_reported":1759176657,"current_range_meters":14800,"station_id":"ce4bh492rcd13ifvqdvg","pricing_plan_id":"cebpf4jnsgd1na2vs0mg"},{"bike_id":"f70ed4f2-95af-42c4-b21c-41bf95b30aa3","system_id":"levelo_inurba_marseille","lat":43.28849,"lon":5.3932,"is_reserved":false,"is_disabled":false,"rental_uris":{"android":"levelo://app?vid=f70ed4f2-95af-42c4-b21c-41bf95b30aa3","ios":"levelo://app?vid=f70ed4f2-95af-42c4-b21c-41bf95b30aa3"},"vehicle_type_id":"4","last_reported":1759176657,"current_range_meters":14800,"station_id":"ce4bh2p2rcd13ifvqdi0","pricing_plan_id":"cebpf4jnsgd1na2vs0mg"},{"bike_id":"e17857ef-9057-4d30-b1e9-4ab6ead4c304","system_id":"levelo_inurba_marseille","lat":43.24644,"lon":5.38895,"is_reserved":false,"is_disabled":true,"rental_uris":{"android":"levelo://app?vid=e17857ef-9057-4d30-b1e9-4ab6ead4c304","ios":"levelo://app?vid=e17857ef-9057-4d30-b1e9-4ab6ead4c304"},"vehicle_type_id":"4","last_reported":1759176657,"current_range_meters":14800,"station_id":"ce4bhg12rcd13ifvqf60","pricing_plan_id":"cebpf4jnsgd1na2vs0mg"},{"bike_id":"180f9710-c4cf-40c2-9a95-b8c1ad89aeae","system_id":"levelo_inurba_marseille","lat":43.29578,"lon":5.37507,"is_reserved":false,"is_disabled":true,"rental_uris":{"android":"levelo://app?vid=180f9710-c4cf-40c2-9a95-b8c1ad89aeae","ios":"levelo://app?vid=180f9710-c4cf-40c2-9a95-b8c1ad89aeae"},"vehicle_type_id":"4","last_reported":1759176657,"current_range_meters":14800,"station_id":"ce4bgh92rcd13ifvqb50","pricing_plan_id":"cebpf4jnsgd1na2vs0mg"},{"bike_id":"738a51a6-02d0-4def-8f3f-9c82f6a6dd05","system_id":"levelo_inurba_marseille","lat":43.32374,"lon":5.3677,"is_reserved":false,"is_disabled":false,"rental_uris":{"android":"levelo://app?vid=738a51a6-02d0-4def-8f3f-9c82f6a6dd05","ios":"levelo://app?vid=738a51a6-02d0-4def-8f3f-9c82f6a6dd05"},"vehicle_type_id":"4","last_reported":1759176657,"current_range_meters":14800,"station_id":"ce4bhsh2rcd13ifvqi2g","pricing_plan_id":"cebpf4jnsgd1na2vs0mg"},{"bike_id":"00b3c5d5-9ad5-4872-b372-089fa3a04914","system_id":"levelo_inurba_marseille","lat":43.286376,"lon":5.354934,"is_reserved":false,"is_disabled":false,"rental_uris":{"android":"levelo://app?vid=00b3c5d5-9ad5-4872-b372-089fa3a04914","ios":"levelo://app?vid=00b3c5d5-9ad5-4872-b372-089fa3a04914"},"vehicle_type_id":"4","last_reported":1759176657,"current_range_meters":14800,"station_id":"","pricing_plan_id":"cebpf4jnsgd1na2vs0mg"},{"bike_id":"7141d5c0-e60c-44f1-bfa8-47000c17aa41","system_id":"levelo_inurba_marseille","lat":43.32004,"lon":5.38096,"is_reserved":false,"is_disabled":false,"rental_uris":{"android":"levelo://app?vid=7141d5c0-e60c-44f1-bfa8-47000c17aa41","ios":"levelo://app?vid=7141d5c0-e60c-44f1-bfa8-47000c17aa41"},"vehicle_type_id":"4","last_reported":1759176657,"current_range_meters":14800,"station_id":"","pricing_plan_id":"cebpf4jnsgd1na2vs0mg"},{"bike_id":"56ca0258-bee9-4eb2-b3c5-63b5cd0b9e67","system_id":"levelo_inurba_marseille","lat":43.33737,"lon":5.37445,"is_reserved":false,"is_disabled":false,"rental_uris":{"android":"levelo://app?vid=56ca0258-bee9-4eb2-b3c5-63b5cd0b9e67","ios":"levelo://app?vid=56ca0258-bee9-4eb2-b3c5-63b5cd0b9e67"},"vehicle_type_id":"4","last_reported":1759176657,"current_range_meters":14800,"station_id":"","pricing_plan_id":"cebpf4jnsgd1na2vs0mg"},{"bike_id":"92662833-c6ac-4b02-b7df-1638b54b1972","system_id":"levelo_inurba_marseille","lat":43.33742,"lon":5.37449,"is_reserved":false,"is_disabled":false,"rental_uris":{"android":"levelo://app?vid=92662833-c6ac-4b02-b7df-1638b54b1972","ios":"levelo://app?vid=92662833-c6ac-4b02-b7df-1638b54b1972"},"vehicle_type_id":"4","last_reported":1759176657,"current_range_meters":14800,"station_id":"","pricing_plan_id":"cebpf4jnsgd1na2vs0mg"},{"bike_id":"f8d78e5f-60e1-4623-939f-49e76ff16505","system_id":"levelo_inurba_marseille","lat":43.33742,"lon":5.37448,"is_reserved":false,"is_disabled":false,"rental_uris":{"android":"levelo://app?vid=f8d78e5f-60e1-4623-939f-49e76ff16505","ios":"levelo://app?vid=f8d78e5f-60e1-4623-939f-49e76ff16505"},"vehicle_type_id":"4","last_reported":1759176657,"current_range_meters":14800,"station_id":"","pricing_plan_id":"cebpf4jnsgd1na2vs0mg"},{"bike_id":"96520869-d013-4e0c-a355-f7bbd728ba84","system_id":"levelo_inurba_marseille","lat":43.32362,"lon":5.36719,"is_reserved":false,"is_disabled":false,"rental_uris":{"android":"levelo://app?vid=96520869-d013-4e0c-a355-f7bbd728ba84","ios":"levelo://app?vid=96520869-d013-4e0c-a355-f7bbd728ba84"},"vehicle_type_id":"4","last_reported":1759176657,"current_range_meters":15200,"station_id":"ce4bhsh2rcd13ifvqi2g","pricing_plan_id":"cebpf4jnsgd1na2vs0mg"},{"bike_id":"973937ba-fc91-421d-be49-6444c1d73b45","system_id":"levelo_inurba_marseille","lat":43.28463,"lon":5.39199,"is_reserved":false,"is_disabled":false,"rental_uris":{"android":"levelo://app?vid=973937ba-fc91-421d-be49-6444c1d73b45","ios":"levelo://app?vid=973937ba-fc91-421d-be49-6444c1d73b45"},"vehicle_type_id":"4","last_reported":1759176657,"current_range_meters":15200,"station_id":"ce4bhoh2rcd13ifvqh5g","pricing_plan_id":"cebpf4jnsgd1na2vs0mg"},{"bike_id":"1f05ab47-bda3-411a-921d-9f21cd784300","system_id":"levelo_inurba_marseille","lat":43.28337,"lon":5.3812,"is_reserved":false,"is_disabled":false,"rental_uris":{"android":"levelo://app?vid=1f05ab47-bda3-411a-921d-9f21cd784300","ios":"levelo://app?vid=1f05ab47-bda3-411a-921d-9f21cd784300"},"vehicle_type_id":"4","last_reported":1759176657,"current_range_meters":15200,"station_id":"ce4bh412rcd13ifvqdr0","pricing_plan_id":"cebpf4jnsgd1na2vs0mg"},{"bike_id":"86203e6a-44fb-4b68-bfde-80b28ea19ca9","system_id":"levelo_inurba_marseille","lat":43.28666,"lon":5.36351,"is_reserved":false,"is_disabled":false,"rental_uris":{"android":"levelo://app?vid=86203e6a-44fb-4b68-bfde-80b28ea19ca9","ios":"levelo://app?vid=86203e6a-44fb-4b68-bfde-80b28ea19ca9"},"vehicle_type_id":"4","last_reported":1759176657,"current_range_meters":16000,"station_id":"ce4bhah2rcd13ifvqej0","pricing_plan_id":"cebpf4jnsgd1na2vs0mg"},{"bike_id":"5f2339f1-80e3-4991-80c5-0ad924df014a","system_id":"levelo_inurba_marseille","lat":43.31324,"lon":5.39691,"is_reserved":false,"is_disabled":false,"rental_uris":{"android":"levelo://app?vid=5f2339f1-80e3-4991-80c5-0ad924df014a","ios":"levelo://app?vid=5f2339f1-80e3-4991-80c5-0ad924df014a"},"vehicle_type_id":"4","last_reported":1759176657,"current_range_meters":15200,"station_id":"ce4bgvp2rcd13ifvqcu0","pricing_plan_id":"cebpf4jnsgd1na2vs0mg"},{"bike_id":"e805e5c8-0bb5-4300-8a6c-3957ec3b97ca","system_id":"levelo_inurba_marseille","lat":43.28725,"lon":5.37935,"is_reserved":false,"is_disabled":false,"rental_uris":{"android":"levelo://app?vid=e805e5c8-0bb5-4300-8a6c-3957ec3b97ca","ios":"levelo://app?vid=e805e5c8-0bb5-4300-8a6c-3957ec3b97ca"},"vehicle_type_id":"4","last_reported":1759176657,"current_range_meters":15200,"station_id":"ce4bh9p2rcd13ifvqec0","pricing_plan_id":"cebpf4jnsgd1na2vs0mg"},{"bike_id":"961d9ac8-e04a-41ed-b46b-f19e8d2ebee0","system_id":"levelo_inurba_marseille","lat":43.2996,"lon":5.37184,"is_reserved":false,"is_disabled":false,"rental_uris":{"android":"levelo://app?vid=961d9ac8-e04a-41ed-b46b-f19e8d2ebee0","ios":"levelo://app?vid=961d9ac8-e04a-41ed-b46b-f19e8d2ebee0"},"vehicle_type_id":"4","last_reported":1759176657,"current_range_meters":15200,"station_id":"ce4bgr92rcd13ifvqc7g","pricing_plan_id":"cebpf4jnsgd1na2vs0mg"},{"bike_id":"8e286296-5795-40aa-b7b0-3bcf4d08f714","system_id":"levelo_inurba_marseille","lat":43.32352,"lon":5.38889,"is_reserved":false,"is_disabled":false,"rental_uris":{"android":"levelo://app?vid=8e286296-5795-40aa-b7b0-3bcf4d08f714","ios":"levelo://app?vid=8e286296-5795-40aa-b7b0-3bcf4d08f714"},"vehicle_type_id":"4","last_reported":1759176657,"current_range_meters":15200,"station_id":"ce4bhqp2rcd13ifvqhog","pricing_plan_id":"cebpf4jnsgd1na2vs0mg"},{"bike_id":"dfca8062-2b71-47ec-a650-bcaaf20d339e","system_id":"levelo_inurba_marseille","lat":43.29042,"lon":5.37182,"is_reserved":false,"is_disabled":false,"rental_uris":{"android":"levelo://app?vid=dfca8062-2b71-47ec-a650-bcaaf20d339e","ios":"levelo://app?vid=dfca8062-2b71-47ec-a650-bcaaf20d339e"},"vehicle_type_id":"4","last_reported":1759176657,"current_range_meters":15200,"station_id":"ce4bh5p2rcd13ifvqe4g","pricing_plan_id":"cebpf4jnsgd1na2vs0mg"},{"bike_id":"2881a65d-1f19-41c9-ba2f-9c3718d96932","system_id":"levelo_inurba_marseille","lat":43.29251,"lon":5.38443,"is_reserved":false,"is_disabled":false,"rental_uris":{"android":"levelo://app?vid=2881a65d-1f19-41c9-ba2f-9c3718d96932","ios":"levelo://app?vid=2881a65d-1f19-41c9-ba2f-9c3718d96932"},"vehicle_type_id":"4","last_reported":1759176657,"current_range_meters":16000,"station_id":"ce4bh692rcd13ifvqea0","pricing_plan_id":"cebpf4jnsgd1na2vs0mg"},{"bike_id":"b17fcf4a-d2df-4ab3-8ed1-cbfd1aa36b53","system_id":"levelo_inurba_marseille","lat":43.31353,"lon":5.39674,"is_reserved":false,"is_disabled":false,"rental_uris":{"android":"levelo://app?vid=b17fcf4a-d2df-4ab3-8ed1-cbfd1aa36b53","ios":"levelo://app?vid=b17fcf4a-d2df-4ab3-8ed1-cbfd1aa36b53"},"vehicle_type_id":"4","last_reported":1759176657,"current_range_meters":16000,"station_id":"ce4bgvp2rcd13ifvqcu0","pricing_plan_id":"cebpf4jnsgd1na2vs0mg"},{"bike_id":"0aba4fe3-5dca-4d79-8b9d-2fc77d6e7d70","system_id":"levelo_inurba_marseille","lat":43.28418,"lon":5.349815,"is_reserved":false,"is_disabled":false,"rental_uris":{"android":"levelo://app?vid=0aba4fe3-5dca-4d79-8b9d-2fc77d6e7d70","ios":"levelo://app?vid=0aba4fe3-5dca-4d79-8b9d-2fc77d6e7d70"},"vehicle_type_id":"4","last_reported":1759176657,"current_range_meters":16000,"station_id":"","pricing_plan_id":"cebpf4jnsgd1na2vs0mg"},{"bike_id":"716ec372-1e32-4564-8f0e-da5da7c66c4a","system_id":"levelo_inurba_marseille","lat":43.25723,"lon":5.41109,"is_reserved":false,"is_disabled":true,"rental_uris":{"android":"levelo://app?vid=716ec372-1e32-4564-8f0e-da5da7c66c4a","ios":"levelo://app?vid=716ec372-1e32-4564-8f0e-da5da7c66c4a"},"vehicle_type_id":"4","last_reported":1759176657,"current_range_meters":16000,"station_id":"ce4bhkp2rcd13ifvqgd0","pricing_plan_id":"cebpf4jnsgd1na2vs0mg"},{"bike_id":"bec2919f-c10b-4bc8-be9f-27da039905fe","system_id":"levelo_inurba_marseille","lat":43.29897,"lon":5.38171,"is_reserved":false,"is_disabled":false,"rental_uris":{"android":"levelo://app?vid=bec2919f-c10b-4bc8-be9f-27da039905fe","ios":"levelo://app?vid=bec2919f-c10b-4bc8-be9f-27da039905fe"},"vehicle_type_id":"4","last_reported":1759176657,"current_range_meters":16000,"station_id":"ce4bgj12rcd13ifvqbc0","pricing_plan_id":"cebpf4jnsgd1na2vs0mg"},{"bike_id":"7946ecd3-8e39-4c86-a94f-30cf913c7881","system_id":"levelo_inurba_marseille","lat":43.28268,"lon":5.3507,"is_reserved":false,"is_disabled":false,"rental_uris":{"android":"levelo://app?vid=7946ecd3-8e39-4c86-a94f-30cf913c7881","ios":"levelo://app?vid=7946ecd3-8e39-4c86-a94f-30cf913c7881"},"vehicle_type_id":"4","last_reported":1759176657,"current_range_meters":16000,"station_id":"ce4bhbp2rcd13ifvqerg","pricing_plan_id":"cebpf4jnsgd1na2vs0mg"},{"bike_id":"423d3c1e-7db5-4215-96d0-08d4c103883c","system_id":"levelo_inurba_marseille","lat":43.27377,"lon":5.36257,"is_reserved":false,"is_disabled":false,"rental_uris":{"android":"levelo://app?vid=423d3c1e-7db5-4215-96d0-08d4c103883c","ios":"levelo://app?vid=423d3c1e-7db5-4215-96d0-08d4c103883c"},"vehicle_type_id":"4","last_reported":1759176657,"current_range_meters":15200,"station_id":"ce4bhbh2rcd13ifvqeo0","pricing_plan_id":"cebpf4jnsgd1na2vs0mg"},{"bike_id":"06248793-b4be-4175-8253-bd1507538553","system_id":"levelo_inurba_marseille","lat":43.25117,"lon":5.40325,"is_reserved":false,"is_disabled":false,"rental_uris":{"android":"levelo://app?vid=06248793-b4be-4175-8253-bd1507538553","ios":"levelo://app?vid=06248793-b4be-4175-8253-bd1507538553"},"vehicle_type_id":"4","last_reported":1759176657,"current_range_meters":16000,"station_id":"ce4bhlh2rcd13ifvqgig","pricing_plan_id":"cebpf4jnsgd1na2vs0mg"},{"bike_id":"f44df0c8-3c0a-4103-982e-900169d96e81","system_id":"levelo_inurba_marseille","lat":43.32137,"lon":5.3677,"is_reserved":false,"is_disabled":false,"rental_uris":{"android":"levelo://app?vid=f44df0c8-3c0a-4103-982e-900169d96e81","ios":"levelo://app?vid=f44df0c8-3c0a-4103-982e-900169d96e81"},"vehicle_type_id":"4","last_reported":1759176657,"current_range_meters":16000,"station_id":"","pricing_plan_id":"cebpf4jnsgd1na2vs0mg"},{"bike_id":"13604148-437a-4148-9ed9-019ca4e03ec3","system_id":"levelo_inurba_marseille","lat":43.2463,"lon":5.43161,"is_reserved":false,"is_disabled":false,"rental_uris":{"android":"levelo://app?vid=13604148-437a-4148-9ed9-019ca4e03ec3","ios":"levelo://app?vid=13604148-437a-4148-9ed9-019ca4e03ec3"},"vehicle_type_id":"4","last_reported":1759176657,"current_range_meters":16000,"station_id":"st_d2m6c4gdas8pm72e190g","pricing_plan_id":"cebpf4jnsgd1na2vs0mg"},{"bike_id":"05003c91-a305-4a33-a438-1d7ddd3d026b","system_id":"levelo_inurba_marseille","lat":43.25332,"lon":5.42141,"is_reserved":false,"is_disabled":false,"rental_uris":{"android":"levelo://app?vid=05003c91-a305-4a33-a438-1d7ddd3d026b","ios":"levelo://app?vid=05003c91-a305-4a33-a438-1d7ddd3d026b"},"vehicle_type_id":"4","last_reported":1759176657,"current_range_meters":16000,"station_id":"st_d2m65c5bi1j21697t3ng","pricing_plan_id":"cebpf4jnsgd1na2vs0mg"},{"bike_id":"af9692cf-ce87-46db-8c64-b8aabe679308","system_id":"levelo_inurba_marseille","lat":43.28977,"lon":5.37836,"is_reserved":false,"is_disabled":false,"rental_uris":{"android":"levelo://app?vid=af9692cf-ce87-46db-8c64-b8aabe679308","ios":"levelo://app?vid=af9692cf-ce87-46db-8c64-b8aabe679308"},"vehicle_type_id":"4","last_reported":1759176657,"current_range_meters":16000,"station_id":"ce4bh9p2rcd13ifvqed0","pricing_plan_id":"cebpf4jnsgd1na2vs0mg"},{"bike_id":"211afd9f-58b0-436e-9b6b-1acbadc34392","system_id":"levelo_inurba_marseille","lat":43.32375,"lon":5.3677,"is_reserved":false,"is_disabled":false,"rental_uris":{"android":"levelo://app?vid=211afd9f-58b0-436e-9b6b-1acbadc34392","ios":"levelo://app?vid=211afd9f-58b0-436e-9b6b-1acbadc34392"},"vehicle_type_id":"4","last_reported":1759176657,"current_range_meters":16000,"station_id":"ce4bhsh2rcd13ifvqi2g","pricing_plan_id":"cebpf4jnsgd1na2vs0mg"},{"bike_id":"1fa1d044-e771-4a5f-bba8-2331cabafdf8","system_id":"levelo_inurba_marseille","lat":43.290366,"lon":5.386534,"is_reserved":false,"is_disabled":false,"rental_uris":{"android":"levelo://app?vid=1fa1d044-e771-4a5f-bba8-2331cabafdf8","ios":"levelo://app?vid=1fa1d044-e771-4a5f-bba8-2331cabafdf8"},"vehicle_type_id":"4","last_reported":1759176657,"current_range_meters":16000,"station_id":"ce4bh4p2rcd13ifvqe0g","pricing_plan_id":"cebpf4jnsgd1na2vs0mg"},{"bike_id":"b2b4408b-3b91-42a0-b6c8-9320ca170994","system_id":"levelo_inurba_marseille","lat":43.27065,"lon":5.42271,"is_reserved":false,"is_disabled":false,"rental_uris":{"android":"levelo://app?vid=b2b4408b-3b91-42a0-b6c8-9320ca170994","ios":"levelo://app?vid=b2b4408b-3b91-42a0-b6c8-9320ca170994"},"vehicle_type_id":"4","last_reported":1759176657,"current_range_meters":16400,"station_id":"ce4bhk92rcd13ifvqgb0","pricing_plan_id":"cebpf4jnsgd1na2vs0mg"},{"bike_id":"b85bed18-5eb7-4352-b750-1a96c0b4f5b6","system_id":"levelo_inurba_marseille","lat":43.25333,"lon":5.42179,"is_reserved":false,"is_disabled":false,"rental_uris":{"android":"levelo://app?vid=b85bed18-5eb7-4352-b750-1a96c0b4f5b6","ios":"levelo://app?vid=b85bed18-5eb7-4352-b750-1a96c0b4f5b6"},"vehicle_type_id":"4","last_reported":1759176657,"current_range_meters":16400,"station_id":"st_d2m65c5bi1j21697t3ng","pricing_plan_id":"cebpf4jnsgd1na2vs0mg"},{"bike_id":"5ac5ea43-3ef4-4d5c-9e38-afe5a8f77954","system_id":"levelo_inurba_marseille","lat":43.30143,"lon":5.3986,"is_reserved":false,"is_disabled":false,"rental_uris":{"android":"levelo://app?vid=5ac5ea43-3ef4-4d5c-9e38-afe5a8f77954","ios":"levelo://app?vid=5ac5ea43-3ef4-4d5c-9e38-afe5a8f77954"},"vehicle_type_id":"4","last_reported":1759176657,"current_range_meters":16400,"station_id":"ce4bh0h2rcd13ifvqd40","pricing_plan_id":"cebpf4jnsgd1na2vs0mg"},{"bike_id":"886589c6-8c6e-46c7-8591-6e7b35187d15","system_id":"levelo_inurba_marseille","lat":43.286662,"lon":5.363424,"is_reserved":false,"is_disabled":false,"rental_uris":{"android":"levelo://app?vid=886589c6-8c6e-46c7-8591-6e7b35187d15","ios":"levelo://app?vid=886589c6-8c6e-46c7-8591-6e7b35187d15"},"vehicle_type_id":"4","last_reported":1759176657,"current_range_meters":16400,"station_id":"ce4bhah2rcd13ifvqej0","pricing_plan_id":"cebpf4jnsgd1na2vs0mg"},{"bike_id":"2ab20991-7e6e-4e16-a5ee-0e585332db77","system_id":"levelo_inurba_marseille","lat":43.31071,"lon":5.38353,"is_reserved":false,"is_disabled":false,"rental_uris":{"android":"levelo://app?vid=2ab20991-7e6e-4e16-a5ee-0e585332db77","ios":"levelo://app?vid=2ab20991-7e6e-4e16-a5ee-0e585332db77"},"vehicle_type_id":"4","last_reported":1759176657,"current_range_meters":16400,"station_id":"ce4bgv92rcd13ifvqcr0","pricing_plan_id":"cebpf4jnsgd1na2vs0mg"},{"bike_id":"f3b420a5-d38e-45d6-949f-3775d053452a","system_id":"levelo_inurba_marseille","lat":43.31161,"lon":5.38726,"is_reserved":false,"is_disabled":false,"rental_uris":{"android":"levelo://app?vid=f3b420a5-d38e-45d6-949f-3775d053452a","ios":"levelo://app?vid=f3b420a5-d38e-45d6-949f-3775d053452a"},"vehicle_type_id":"4","last_reported":1759176657,"current_range_meters":16400,"station_id":"ce4bgv12rcd13ifvqcp0","pricing_plan_id":"cebpf4jnsgd1na2vs0mg"},{"bike_id":"1c28cade-9b59-41e3-9109-e89ad5d478e2","system_id":"levelo_inurba_marseille","lat":43.295727,"lon":5.399608,"is_reserved":false,"is_disabled":false,"rental_uris":{"android":"levelo://app?vid=1c28cade-9b59-41e3-9109-e89ad5d478e2","ios":"levelo://app?vid=1c28cade-9b59-41e3-9109-e89ad5d478e2"},"vehicle_type_id":"4","last_reported":1759176657,"current_range_meters":16000,"station_id":"ce4bh312rcd13ifvqdj0","pricing_plan_id":"cebpf4jnsgd1na2vs0mg"},{"bike_id":"221b23e1-d0b2-4b0e-be06-3207b8da7728","system_id":"levelo_inurba_marseille","lat":43.29599,"lon":5.38119,"is_reserved":false,"is_disabled":false,"rental_uris":{"android":"levelo://app?vid=221b23e1-d0b2-4b0e-be06-3207b8da7728","ios":"levelo://app?vid=221b23e1-d0b2-4b0e-be06-3207b8da7728"},"vehicle_type_id":"4","last_reported":1759176657,"current_range_meters":16400,"station_id":"ce4bgl12rcd13ifvqbo0","pricing_plan_id":"cebpf4jnsgd1na2vs0mg"},{"bike_id":"d2f46c9e-a53c-42a7-ad54-fd7c896f4565","system_id":"levelo_inurba_marseille","lat":43.33797,"lon":5.37428,"is_reserved":false,"is_disabled":false,"rental_uris":{"android":"levelo://app?vid=d2f46c9e-a53c-42a7-ad54-fd7c896f4565","ios":"levelo://app?vid=d2f46c9e-a53c-42a7-ad54-fd7c896f4565"},"vehicle_type_id":"4","last_reported":1759176657,"current_range_meters":16400,"station_id":"","pricing_plan_id":"cebpf4jnsgd1na2vs0mg"},{"bike_id":"4f6c225c-2f41-4430-b894-aea1cc32d949","system_id":"levelo_inurba_marseille","lat":43.25344,"lon":5.42174,"is_reserved":false,"is_disabled":false,"rental_uris":{"android":"levelo://app?vid=4f6c225c-2f41-4430-b894-aea1cc32d949","ios":"levelo://app?vid=4f6c225c-2f41-4430-b894-aea1cc32d949"},"vehicle_type_id":"4","last_reported":1759176657,"current_range_meters":16800,"station_id":"st_d2m65c5bi1j21697t3ng","pricing_plan_id":"cebpf4jnsgd1na2vs0mg"},{"bike_id":"cc2fe5ae-2372-4995-8b7e-7f0656093446","system_id":"levelo_inurba_marseille","lat":43.28612,"lon":5.35106,"is_reserved":false,"is_disabled":false,"rental_uris":{"android":"levelo://app?vid=cc2fe5ae-2372-4995-8b7e-7f0656093446","ios":"levelo://app?vid=cc2fe5ae-2372-4995-8b7e-7f0656093446"},"vehicle_type_id":"4","last_reported":1759176657,"current_range_meters":16800,"station_id":"ce4bhch2rcd13ifvqeug","pricing_plan_id":"cebpf4jnsgd1na2vs0mg"},{"bike_id":"aae27da7-ca3d-468d-a4eb-c87541bdc6b6","system_id":"levelo_inurba_marseille","lat":43.27931,"lon":5.41061,"is_reserved":false,"is_disabled":false,"rental_uris":{"android":"levelo://app?vid=aae27da7-ca3d-468d-a4eb-c87541bdc6b6","ios":"levelo://app?vid=aae27da7-ca3d-468d-a4eb-c87541bdc6b6"},"vehicle_type_id":"4","last_reported":1759176657,"current_range_meters":16800,"station_id":"ce4bhnp2rcd13ifvqh0g","pricing_plan_id":"cebpf4jnsgd1na2vs0mg"},{"bike_id":"ef1a07fb-6584-4029-a114-a87f83eb5a8b","system_id":"levelo_inurba_marseille","lat":43.2979,"lon":5.39358,"is_reserved":false,"is_disabled":false,"rental_uris":{"android":"levelo://app?vid=ef1a07fb-6584-4029-a114-a87f83eb5a8b","ios":"levelo://app?vid=ef1a07fb-6584-4029-a114-a87f83eb5a8b"},"vehicle_type_id":"4","last_reported":1759176657,"current_range_meters":16800,"station_id":"chh1huq6cuj3fo74tm60","pricing_plan_id":"cebpf4jnsgd1na2vs0mg"},{"bike_id":"76c8ca32-94fb-4666-ac3c-b567aef2c353","system_id":"levelo_inurba_marseille","lat":43.31983,"lon":5.38157,"is_reserved":false,"is_disabled":false,"rental_uris":{"android":"levelo://app?vid=76c8ca32-94fb-4666-ac3c-b567aef2c353","ios":"levelo://app?vid=76c8ca32-94fb-4666-ac3c-b567aef2c353"},"vehicle_type_id":"4","last_reported":1759176657,"current_range_meters":17600,"station_id":"ce4bhr12rcd13ifvqhpg","pricing_plan_id":"cebpf4jnsgd1na2vs0mg"},{"bike_id":"bdb4402f-1aac-4799-90d3-4f07324bca4e","system_id":"levelo_inurba_marseille","lat":43.29777,"lon":5.38107,"is_reserved":false,"is_disabled":false,"rental_uris":{"android":"levelo://app?vid=bdb4402f-1aac-4799-90d3-4f07324bca4e","ios":"levelo://app?vid=bdb4402f-1aac-4799-90d3-4f07324bca4e"},"vehicle_type_id":"4","last_reported":1759176657,"current_range_meters":16800,"station_id":"ce4bgip2rcd13ifvqbb0","pricing_plan_id":"cebpf4jnsgd1na2vs0mg"},{"bike_id":"c496cfdc-eabf-44e2-ad68-24fe20672d00","system_id":"levelo_inurba_marseille","lat":43.29891,"lon":5.38924,"is_reserved":false,"is_disabled":false,"rental_uris":{"android":"levelo://app?vid=c496cfdc-eabf-44e2-ad68-24fe20672d00","ios":"levelo://app?vid=c496cfdc-eabf-44e2-ad68-24fe20672d00"},"vehicle_type_id":"4","last_reported":1759176657,"current_range_meters":16800,"station_id":"ce4bh392rcd13ifvqdl0","pricing_plan_id":"cebpf4jnsgd1na2vs0mg"},{"bike_id":"f6e3da73-c632-453c-b9a7-d01c04f51177","system_id":"levelo_inurba_marseille","lat":43.31488,"lon":5.37309,"is_reserved":false,"is_disabled":false,"rental_uris":{"android":"levelo://app?vid=f6e3da73-c632-453c-b9a7-d01c04f51177","ios":"levelo://app?vid=f6e3da73-c632-453c-b9a7-d01c04f51177"},"vehicle_type_id":"4","last_reported":1759176657,"current_range_meters":16800,"station_id":"ce4bgt12rcd13ifvqcd0","pricing_plan_id":"cebpf4jnsgd1na2vs0mg"},{"bike_id":"e75a043a-077f-43a6-9b36-26a2c2059b68","system_id":"levelo_inurba_marseille","lat":43.29013,"lon":5.38645,"is_reserved":false,"is_disabled":false,"rental_uris":{"android":"levelo://app?vid=e75a043a-077f-43a6-9b36-26a2c2059b68","ios":"levelo://app?vid=e75a043a-077f-43a6-9b36-26a2c2059b68"},"vehicle_type_id":"4","last_reported":1759176657,"current_range_meters":16800,"station_id":"ce4bh4p2rcd13ifvqe0g","pricing_plan_id":"cebpf4jnsgd1na2vs0mg"},{"bike_id":"6d392b4b-28dc-4471-bc7a-9685640dbd94","system_id":"levelo_inurba_marseille","lat":43.29254,"lon":5.40909,"is_reserved":false,"is_disabled":false,"rental_uris":{"android":"levelo://app?vid=6d392b4b-28dc-4471-bc7a-9685640dbd94","ios":"levelo://app?vid=6d392b4b-28dc-4471-bc7a-9685640dbd94"},"vehicle_type_id":"4","last_reported":1759176657,"current_range_meters":16800,"station_id":"ce4bh192rcd13ifvqdc0","pricing_plan_id":"cebpf4jnsgd1na2vs0mg"},{"bike_id":"7d7bb826-5093-43a5-aa29-d1346e1c8ccd","system_id":"levelo_inurba_marseille","lat":43.29716,"lon":5.36611,"is_reserved":false,"is_disabled":false,"rental_uris":{"android":"levelo://app?vid=7d7bb826-5093-43a5-aa29-d1346e1c8ccd","ios":"levelo://app?vid=7d7bb826-5093-43a5-aa29-d1346e1c8ccd"},"vehicle_type_id":"4","last_reported":1759176657,"current_range_meters":17200,"station_id":"ce4bgn12rcd13ifvqbt0","pricing_plan_id":"cebpf4jnsgd1na2vs0mg"},{"bike_id":"c9f8af9e-f631-4332-aa3b-2f355ca372ad","system_id":"levelo_inurba_marseille","lat":43.31333,"lon":5.39726,"is_reserved":false,"is_disabled":false,"rental_uris":{"android":"levelo://app?vid=c9f8af9e-f631-4332-aa3b-2f355ca372ad","ios":"levelo://app?vid=c9f8af9e-f631-4332-aa3b-2f355ca372ad"},"vehicle_type_id":"4","last_reported":1759176657,"current_range_meters":17200,"station_id":"ce4bgvp2rcd13ifvqcu0","pricing_plan_id":"cebpf4jnsgd1na2vs0mg"},{"bike_id":"e14a01f6-a3e8-40d6-8414-4bc6e377dbcd","system_id":"levelo_inurba_marseille","lat":43.293701,"lon":5.378535,"is_reserved":false,"is_disabled":false,"rental_uris":{"android":"levelo://app?vid=e14a01f6-a3e8-40d6-8414-4bc6e377dbcd","ios":"levelo://app?vid=e14a01f6-a3e8-40d6-8414-4bc6e377dbcd"},"vehicle_type_id":"4","last_reported":1759176657,"current_range_meters":17200,"station_id":"ce4bgjh2rcd13ifvqbf0","pricing_plan_id":"cebpf4jnsgd1na2vs0mg"},{"bike_id":"8d05b754-9149-46c2-bc2a-027618a0cb87","system_id":"levelo_inurba_marseille","lat":43.29369,"lon":5.37852,"is_reserved":false,"is_disabled":false,"rental_uris":{"android":"levelo://app?vid=8d05b754-9149-46c2-bc2a-027618a0cb87","ios":"levelo://app?vid=8d05b754-9149-46c2-bc2a-027618a0cb87"},"vehicle_type_id":"4","last_reported":1759176657,"current_range_meters":16800,"station_id":"ce4bgjh2rcd13ifvqbf0","pricing_plan_id":"cebpf4jnsgd1na2vs0mg"},{"bike_id":"0387479e-5b84-466d-bcc1-d540e31e7431","system_id":"levelo_inurba_marseille","lat":43.305373,"lon":5.384281,"is_reserved":false,"is_disabled":true,"rental_uris":{"android":"levelo://app?vid=0387479e-5b84-466d-bcc1-d540e31e7431","ios":"levelo://app?vid=0387479e-5b84-466d-bcc1-d540e31e7431"},"vehicle_type_id":"4","last_reported":1759176657,"current_range_meters":17200,"station_id":"ce4bgg92rcd13ifvqb30","pricing_plan_id":"cebpf4jnsgd1na2vs0mg"},{"bike_id":"879feb90-16f0-40ef-adba-932f271d9ca2","system_id":"levelo_inurba_marseille","lat":43.29042,"lon":5.35921,"is_reserved":false,"is_disabled":false,"rental_uris":{"android":"levelo://app?vid=879feb90-16f0-40ef-adba-932f271d9ca2","ios":"levelo://app?vid=879feb90-16f0-40ef-adba-932f271d9ca2"},"vehicle_type_id":"4","last_reported":1759176657,"current_range_meters":17200,"station_id":"ce4bha92rcd13ifvqeg0","pricing_plan_id":"cebpf4jnsgd1na2vs0mg"},{"bike_id":"149cb654-9e06-44d3-bb84-e380626e80f6","system_id":"levelo_inurba_marseille","lat":43.30241,"lon":5.40067,"is_reserved":false,"is_disabled":false,"rental_uris":{"android":"levelo://app?vid=149cb654-9e06-44d3-bb84-e380626e80f6","ios":"levelo://app?vid=149cb654-9e06-44d3-bb84-e380626e80f6"},"vehicle_type_id":"4","last_reported":1759176657,"current_range_meters":17200,"station_id":"ce4bgvh2rcd13ifvqcs0","pricing_plan_id":"cebpf4jnsgd1na2vs0mg"},{"bike_id":"2ab535df-4c2c-40d8-af4f-189047a67c11","system_id":"levelo_inurba_marseille","lat":43.24631,"lon":5.43162,"is_reserved":false,"is_disabled":false,"rental_uris":{"android":"levelo://app?vid=2ab535df-4c2c-40d8-af4f-189047a67c11","ios":"levelo://app?vid=2ab535df-4c2c-40d8-af4f-189047a67c11"},"vehicle_type_id":"4","last_reported":1759176657,"current_range_meters":17200,"station_id":"st_d2m6c4gdas8pm72e190g","pricing_plan_id":"cebpf4jnsgd1na2vs0mg"},{"bike_id":"d114139c-60d0-4459-ba3b-cac62be00268","system_id":"levelo_inurba_marseille","lat":43.30148,"lon":5.37406,"is_reserved":false,"is_disabled":true,"rental_uris":{"android":"levelo://app?vid=d114139c-60d0-4459-ba3b-cac62be00268","ios":"levelo://app?vid=d114139c-60d0-4459-ba3b-cac62be00268"},"vehicle_type_id":"4","last_reported":1759176657,"current_range_meters":17200,"station_id":"ce4bgs92rcd13ifvqcc0","pricing_plan_id":"cebpf4jnsgd1na2vs0mg"},{"bike_id":"b44cb621-88ac-4867-af32-6571f417a3d0","system_id":"levelo_inurba_marseille","lat":43.26557,"lon":5.38998,"is_reserved":false,"is_disabled":false,"rental_uris":{"android":"levelo://app?vid=b44cb621-88ac-4867-af32-6571f417a3d0","ios":"levelo://app?vid=b44cb621-88ac-4867-af32-6571f417a3d0"},"vehicle_type_id":"4","last_reported":1759176657,"current_range_meters":17200,"station_id":"ce4bhe12rcd13ifvqf30","pricing_plan_id":"cebpf4jnsgd1na2vs0mg"},{"bike_id":"63aa2455-2da3-4e9c-9e4e-54ed059c09ac","system_id":"levelo_inurba_marseille","lat":43.3165,"lon":5.38991,"is_reserved":false,"is_disabled":false,"rental_uris":{"android":"levelo://app?vid=63aa2455-2da3-4e9c-9e4e-54ed059c09ac","ios":"levelo://app?vid=63aa2455-2da3-4e9c-9e4e-54ed059c09ac"},"vehicle_type_id":"4","last_reported":1759176657,"current_range_meters":17200,"station_id":"","pricing_plan_id":"cebpf4jnsgd1na2vs0mg"},{"bike_id":"60be1e68-5da7-49c5-b731-a65d1351a578","system_id":"levelo_inurba_marseille","lat":43.28267,"lon":5.35072,"is_reserved":false,"is_disabled":false,"rental_uris":{"android":"levelo://app?vid=60be1e68-5da7-49c5-b731-a65d1351a578","ios":"levelo://app?vid=60be1e68-5da7-49c5-b731-a65d1351a578"},"vehicle_type_id":"4","last_reported":1759176657,"current_range_meters":17200,"station_id":"ce4bhbp2rcd13ifvqerg","pricing_plan_id":"cebpf4jnsgd1na2vs0mg"},{"bike_id":"adfbe18b-7ca7-424a-9090-23d85cce22c6","system_id":"levelo_inurba_marseille","lat":43.30024,"lon":5.40945,"is_reserved":false,"is_disabled":false,"rental_uris":{"android":"levelo://app?vid=adfbe18b-7ca7-424a-9090-23d85cce22c6","ios":"levelo://app?vid=adfbe18b-7ca7-424a-9090-23d85cce22c6"},"vehicle_type_id":"4","last_reported":1759176657,"current_range_meters":17600,"station_id":"","pricing_plan_id":"cebpf4jnsgd1na2vs0mg"},{"bike_id":"4a9332a9-e97e-4152-b899-1dbcc929a701","system_id":"levelo_inurba_marseille","lat":43.241786,"lon":5.397362,"is_reserved":false,"is_disabled":false,"rental_uris":{"android":"levelo://app?vid=4a9332a9-e97e-4152-b899-1dbcc929a701","ios":"levelo://app?vid=4a9332a9-e97e-4152-b899-1dbcc929a701"},"vehicle_type_id":"4","last_reported":1759176657,"current_range_meters":17600,"station_id":"ce4bhn12rcd13ifvqgpg","pricing_plan_id":"cebpf4jnsgd1na2vs0mg"},{"bike_id":"a29bee59-ea4f-424e-b048-900473be4ae3","system_id":"levelo_inurba_marseille","lat":43.284546,"lon":5.358773,"is_reserved":false,"is_disabled":false,"rental_uris":{"android":"levelo://app?vid=a29bee59-ea4f-424e-b048-900473be4ae3","ios":"levelo://app?vid=a29bee59-ea4f-424e-b048-900473be4ae3"},"vehicle_type_id":"4","last_reported":1759176657,"current_range_meters":17600,"station_id":"","pricing_plan_id":"cebpf4jnsgd1na2vs0mg"},{"bike_id":"f752559e-e357-41d0-b0e1-06afd32411be","system_id":"levelo_inurba_marseille","lat":43.27467,"lon":5.40799,"is_reserved":false,"is_disabled":false,"rental_uris":{"android":"levelo://app?vid=f752559e-e357-41d0-b0e1-06afd32411be","ios":"levelo://app?vid=f752559e-e357-41d0-b0e1-06afd32411be"},"vehicle_type_id":"4","last_reported":1759176657,"current_range_meters":17600,"station_id":"","pricing_plan_id":"cebpf4jnsgd1na2vs0mg"},{"bike_id":"507daf2b-9177-453d-9679-b82a2036325d","system_id":"levelo_inurba_marseille","lat":43.28075,"lon":5.39675,"is_reserved":false,"is_disabled":false,"rental_uris":{"android":"levelo://app?vid=507daf2b-9177-453d-9679-b82a2036325d","ios":"levelo://app?vid=507daf2b-9177-453d-9679-b82a2036325d"},"vehicle_type_id":"4","last_reported":1759176657,"current_range_meters":17600,"station_id":"ce4bho12rcd13ifvqh2g","pricing_plan_id":"cebpf4jnsgd1na2vs0mg"},{"bike_id":"1d77b7d7-6c50-47ce-a252-2a4011bccda7","system_id":"levelo_inurba_marseille","lat":43.25953,"lon":5.41375,"is_reserved":false,"is_disabled":false,"rental_uris":{"android":"levelo://app?vid=1d77b7d7-6c50-47ce-a252-2a4011bccda7","ios":"levelo://app?vid=1d77b7d7-6c50-47ce-a252-2a4011bccda7"},"vehicle_type_id":"4","last_reported":1759176657,"current_range_meters":17600,"station_id":"","pricing_plan_id":"cebpf4jnsgd1na2vs0mg"},{"bike_id":"73b96908-8d3d-4949-9577-6201c86cafc7","system_id":"levelo_inurba_marseille","lat":43.28983,"lon":5.37832,"is_reserved":false,"is_disabled":false,"rental_uris":{"android":"levelo://app?vid=73b96908-8d3d-4949-9577-6201c86cafc7","ios":"levelo://app?vid=73b96908-8d3d-4949-9577-6201c86cafc7"},"vehicle_type_id":"4","last_reported":1759176657,"current_range_meters":17600,"station_id":"ce4bh9p2rcd13ifvqed0","pricing_plan_id":"cebpf4jnsgd1na2vs0mg"},{"bike_id":"ddf54a02-e0e3-4e99-9130-b6317f7a732e","system_id":"levelo_inurba_marseille","lat":43.29023,"lon":5.38644,"is_reserved":false,"is_disabled":false,"rental_uris":{"android":"levelo://app?vid=ddf54a02-e0e3-4e99-9130-b6317f7a732e","ios":"levelo://app?vid=ddf54a02-e0e3-4e99-9130-b6317f7a732e"},"vehicle_type_id":"4","last_reported":1759176657,"current_range_meters":17600,"station_id":"ce4bh4p2rcd13ifvqe0g","pricing_plan_id":"cebpf4jnsgd1na2vs0mg"},{"bike_id":"44631c7d-87d1-44be-96c2-2a43e54fa7d0","system_id":"levelo_inurba_marseille","lat":43.26196,"lon":5.37451,"is_reserved":false,"is_disabled":false,"rental_uris":{"android":"levelo://app?vid=44631c7d-87d1-44be-96c2-2a43e54fa7d0","ios":"levelo://app?vid=44631c7d-87d1-44be-96c2-2a43e54fa7d0"},"vehicle_type_id":"4","last_reported":1759176657,"current_range_meters":17600,"station_id":"ce4bhgp2rcd13ifvqfc0","pricing_plan_id":"cebpf4jnsgd1na2vs0mg"},{"bike_id":"5691a0dc-9c37-4abb-836d-d4d76b214830","system_id":"levelo_inurba_marseille","lat":43.29529,"lon":5.38547,"is_reserved":false,"is_disabled":false,"rental_uris":{"android":"levelo://app?vid=5691a0dc-9c37-4abb-836d-d4d76b214830","ios":"levelo://app?vid=5691a0dc-9c37-4abb-836d-d4d76b214830"},"vehicle_type_id":"4","last_reported":1759176657,"current_range_meters":17600,"station_id":"ce4bgih2rcd13ifvqba0","pricing_plan_id":"cebpf4jnsgd1na2vs0mg"},{"bike_id":"d3626de2-8599-4d6e-9423-051de6f3e78a","system_id":"levelo_inurba_marseille","lat":43.29485,"lon":5.38581,"is_reserved":false,"is_disabled":true,"rental_uris":{"android":"levelo://app?vid=d3626de2-8599-4d6e-9423-051de6f3e78a","ios":"levelo://app?vid=d3626de2-8599-4d6e-9423-051de6f3e78a"},"vehicle_type_id":"4","last_reported":1759176657,"current_range_meters":18000,"station_id":"ce4bgih2rcd13ifvqba0","pricing_plan_id":"cebpf4jnsgd1na2vs0mg"},{"bike_id":"f318abe1-ddd7-47ff-941c-4ca96c969d67","system_id":"levelo_inurba_marseille","lat":43.246551,"lon":5.38161,"is_reserved":false,"is_disabled":false,"rental_uris":{"android":"levelo://app?vid=f318abe1-ddd7-47ff-941c-4ca96c969d67","ios":"levelo://app?vid=f318abe1-ddd7-47ff-941c-4ca96c969d67"},"vehicle_type_id":"4","last_reported":1759176657,"current_range_meters":27600,"station_id":"ce4bhih2rcd13ifvqfr0","pricing_plan_id":"cebpf4jnsgd1na2vs0mg"},{"bike_id":"4d814e8c-5a8e-4841-8113-65f11a41c28a","system_id":"levelo_inurba_marseille","lat":43.27568,"lon":5.38438,"is_reserved":false,"is_disabled":false,"rental_uris":{"android":"levelo://app?vid=4d814e8c-5a8e-4841-8113-65f11a41c28a","ios":"levelo://app?vid=4d814e8c-5a8e-4841-8113-65f11a41c28a"},"vehicle_type_id":"4","last_reported":1759176657,"current_range_meters":18000,"station_id":"ce4bhh92rcd13ifvqfi0","pricing_plan_id":"cebpf4jnsgd1na2vs0mg"},{"bike_id":"015b3186-a9d6-442c-b9e3-d3fc4b21d783","system_id":"levelo_inurba_marseille","lat":43.29166,"lon":5.37152,"is_reserved":false,"is_disabled":false,"rental_uris":{"android":"levelo://app?vid=015b3186-a9d6-442c-b9e3-d3fc4b21d783","ios":"levelo://app?vid=015b3186-a9d6-442c-b9e3-d3fc4b21d783"},"vehicle_type_id":"4","last_reported":1759176657,"current_range_meters":18000,"station_id":"ce4bha92rcd13ifvqeh0","pricing_plan_id":"cebpf4jnsgd1na2vs0mg"},{"bike_id":"e48ff35a-0e78-451c-aefb-90139cad98d2","system_id":"levelo_inurba_marseille","lat":43.31224,"lon":5.36867,"is_reserved":false,"is_disabled":false,"rental_uris":{"android":"levelo://app?vid=e48ff35a-0e78-451c-aefb-90139cad98d2","ios":"levelo://app?vid=e48ff35a-0e78-451c-aefb-90139cad98d2"},"vehicle_type_id":"4","last_reported":1759176657,"current_range_meters":18000,"station_id":"ce4bgl92rcd13ifvqbq0","pricing_plan_id":"cebpf4jnsgd1na2vs0mg"},{"bike_id":"db3a202b-6514-4a53-892d-e953fc1e9d26","system_id":"levelo_inurba_marseille","lat":43.22767,"lon":5.34929,"is_reserved":false,"is_disabled":false,"rental_uris":{"android":"levelo://app?vid=db3a202b-6514-4a53-892d-e953fc1e9d26","ios":"levelo://app?vid=db3a202b-6514-4a53-892d-e953fc1e9d26"},"vehicle_type_id":"4","last_reported":1759176657,"current_range_meters":18000,"station_id":"","pricing_plan_id":"cebpf4jnsgd1na2vs0mg"},{"bike_id":"d515a3cf-29dc-4e14-ae7f-af1536e8a0a3","system_id":"levelo_inurba_marseille","lat":43.27064,"lon":5.42291,"is_reserved":false,"is_disabled":false,"rental_uris":{"android":"levelo://app?vid=d515a3cf-29dc-4e14-ae7f-af1536e8a0a3","ios":"levelo://app?vid=d515a3cf-29dc-4e14-ae7f-af1536e8a0a3"},"vehicle_type_id":"4","last_reported":1759176657,"current_range_meters":18000,"station_id":"ce4bhk92rcd13ifvqgb0","pricing_plan_id":"cebpf4jnsgd1na2vs0mg"},{"bike_id":"daa47724-0bc3-499e-971d-3ffa8820cb5d","system_id":"levelo_inurba_marseille","lat":43.30614,"lon":5.37261,"is_reserved":false,"is_disabled":true,"rental_uris":{"android":"levelo://app?vid=daa47724-0bc3-499e-971d-3ffa8820cb5d","ios":"levelo://app?vid=daa47724-0bc3-499e-971d-3ffa8820cb5d"},"vehicle_type_id":"4","last_reported":1759176657,"current_range_meters":18000,"station_id":"ce4bgqh2rcd13ifvqc4g","pricing_plan_id":"cebpf4jnsgd1na2vs0mg"},{"bike_id":"033d752a-0dd3-4803-8f48-6d2823710baf","system_id":"levelo_inurba_marseille","lat":43.23192,"lon":5.39997,"is_reserved":false,"is_disabled":false,"rental_uris":{"android":"levelo://app?vid=033d752a-0dd3-4803-8f48-6d2823710baf","ios":"levelo://app?vid=033d752a-0dd3-4803-8f48-6d2823710baf"},"vehicle_type_id":"4","last_reported":1759176657,"current_range_meters":18000,"station_id":"ce4bhn12rcd13ifvqgqg","pricing_plan_id":"cebpf4jnsgd1na2vs0mg"},{"bike_id":"46254444-0ab9-4918-89a9-b33a0dbb336a","system_id":"levelo_inurba_marseille","lat":43.30581,"lon":5.39345,"is_reserved":false,"is_disabled":false,"rental_uris":{"android":"levelo://app?vid=46254444-0ab9-4918-89a9-b33a0dbb336a","ios":"levelo://app?vid=46254444-0ab9-4918-89a9-b33a0dbb336a"},"vehicle_type_id":"4","last_reported":1759176657,"current_range_meters":18000,"station_id":"ce4bh0p2rcd13ifvqd80","pricing_plan_id":"cebpf4jnsgd1na2vs0mg"},{"bike_id":"55ea6bfd-7b5f-4273-b06e-e129c9203b2f","system_id":"levelo_inurba_marseille","lat":43.25088,"lon":5.39522,"is_reserved":false,"is_disabled":false,"rental_uris":{"android":"levelo://app?vid=55ea6bfd-7b5f-4273-b06e-e129c9203b2f","ios":"levelo://app?vid=55ea6bfd-7b5f-4273-b06e-e129c9203b2f"},"vehicle_type_id":"4","last_reported":1759176657,"current_range_meters":18000,"station_id":"ce4bhm12rcd13ifvqgkg","pricing_plan_id":"cebpf4jnsgd1na2vs0mg"},{"bike_id":"84f305ce-7cfe-45d4-9172-1384fd3180f3","system_id":"levelo_inurba_marseille","lat":43.229311,"lon":5.353802,"is_reserved":false,"is_disabled":false,"rental_uris":{"android":"levelo://app?vid=84f305ce-7cfe-45d4-9172-1384fd3180f3","ios":"levelo://app?vid=84f305ce-7cfe-45d4-9172-1384fd3180f3"},"vehicle_type_id":"4","last_reported":1759176657,"current_range_meters":18000,"station_id":"cpo3532slgdg3j2ikp40","pricing_plan_id":"cebpf4jnsgd1na2vs0mg"},{"bike_id":"3645f311-b424-42ff-8ab3-a598710e9214","system_id":"levelo_inurba_marseille","lat":43.2318,"lon":5.39983,"is_reserved":false,"is_disabled":true,"rental_uris":{"android":"levelo://app?vid=3645f311-b424-42ff-8ab3-a598710e9214","ios":"levelo://app?vid=3645f311-b424-42ff-8ab3-a598710e9214"},"vehicle_type_id":"4","last_reported":1759176657,"current_range_meters":18000,"station_id":"ce4bhn12rcd13ifvqgqg","pricing_plan_id":"cebpf4jnsgd1na2vs0mg"},{"bike_id":"6c5ad9a1-56cf-491b-82ab-2c9e8e3c5daa","system_id":"levelo_inurba_marseille","lat":43.295386,"lon":5.390448,"is_reserved":false,"is_disabled":false,"rental_uris":{"android":"levelo://app?vid=6c5ad9a1-56cf-491b-82ab-2c9e8e3c5daa","ios":"levelo://app?vid=6c5ad9a1-56cf-491b-82ab-2c9e8e3c5daa"},"vehicle_type_id":"4","last_reported":1759176657,"current_range_meters":18800,"station_id":"ce4bh3p2rcd13ifvqdp0","pricing_plan_id":"cebpf4jnsgd1na2vs0mg"},{"bike_id":"8c8ee092-df3e-4886-a510-bfcc911172f9","system_id":"levelo_inurba_marseille","lat":43.29452,"lon":5.39753,"is_reserved":false,"is_disabled":false,"rental_uris":{"android":"levelo://app?vid=8c8ee092-df3e-4886-a510-bfcc911172f9","ios":"levelo://app?vid=8c8ee092-df3e-4886-a510-bfcc911172f9"},"vehicle_type_id":"4","last_reported":1759176657,"current_range_meters":18800,"station_id":"ce4bh3h2rcd13ifvqdo0","pricing_plan_id":"cebpf4jnsgd1na2vs0mg"},{"bike_id":"3d704f10-89f9-4db3-b354-3763cd1401be","system_id":"levelo_inurba_marseille","lat":43.24625,"lon":5.38926,"is_reserved":false,"is_disabled":false,"rental_uris":{"android":"levelo://app?vid=3d704f10-89f9-4db3-b354-3763cd1401be","ios":"levelo://app?vid=3d704f10-89f9-4db3-b354-3763cd1401be"},"vehicle_type_id":"4","last_reported":1759176657,"current_range_meters":18800,"station_id":"ce4bhg12rcd13ifvqf60","pricing_plan_id":"cebpf4jnsgd1na2vs0mg"},{"bike_id":"9e172408-40d0-42b7-9541-cca7c0087957","system_id":"levelo_inurba_marseille","lat":43.29606,"lon":5.38089,"is_reserved":false,"is_disabled":false,"rental_uris":{"android":"levelo://app?vid=9e172408-40d0-42b7-9541-cca7c0087957","ios":"levelo://app?vid=9e172408-40d0-42b7-9541-cca7c0087957"},"vehicle_type_id":"4","last_reported":1759176657,"current_range_meters":18800,"station_id":"ce4bgl12rcd13ifvqbo0","pricing_plan_id":"cebpf4jnsgd1na2vs0mg"},{"bike_id":"7cd433e0-4dc5-4dcb-a5c6-f17936bd4cb6","system_id":"levelo_inurba_marseille","lat":43.31559,"lon":5.40321,"is_reserved":false,"is_disabled":false,"rental_uris":{"android":"levelo://app?vid=7cd433e0-4dc5-4dcb-a5c6-f17936bd4cb6","ios":"levelo://app?vid=7cd433e0-4dc5-4dcb-a5c6-f17936bd4cb6"},"vehicle_type_id":"4","last_reported":1759176657,"current_range_meters":18800,"station_id":"","pricing_plan_id":"cebpf4jnsgd1na2vs0mg"},{"bike_id":"617dca4b-4508-4d52-9e62-d583d919ac44","system_id":"levelo_inurba_marseille","lat":43.29718,"lon":5.37136,"is_reserved":false,"is_disabled":false,"rental_uris":{"android":"levelo://app?vid=617dca4b-4508-4d52-9e62-d583d919ac44","ios":"levelo://app?vid=617dca4b-4508-4d52-9e62-d583d919ac44"},"vehicle_type_id":"4","last_reported":1759176657,"current_range_meters":18800,"station_id":"","pricing_plan_id":"cebpf4jnsgd1na2vs0mg"},{"bike_id":"4c61d9e7-28f1-427c-ac71-de7ea384c358","system_id":"levelo_inurba_marseille","lat":43.2953,"lon":5.38537,"is_reserved":false,"is_disabled":false,"rental_uris":{"android":"levelo://app?vid=4c61d9e7-28f1-427c-ac71-de7ea384c358","ios":"levelo://app?vid=4c61d9e7-28f1-427c-ac71-de7ea384c358"},"vehicle_type_id":"4","last_reported":1759176657,"current_range_meters":18800,"station_id":"ce4bgih2rcd13ifvqba0","pricing_plan_id":"cebpf4jnsgd1na2vs0mg"},{"bike_id":"5ab2bf11-2965-454a-8aed-0296439d44fa","system_id":"levelo_inurba_marseille","lat":43.31363,"lon":5.38484,"is_reserved":false,"is_disabled":false,"rental_uris":{"android":"levelo://app?vid=5ab2bf11-2965-454a-8aed-0296439d44fa","ios":"levelo://app?vid=5ab2bf11-2965-454a-8aed-0296439d44fa"},"vehicle_type_id":"4","last_reported":1759176657,"current_range_meters":18800,"station_id":"ce4bgt92rcd13ifvqcf0","pricing_plan_id":"cebpf4jnsgd1na2vs0mg"},{"bike_id":"aa964867-cd5c-4289-89a3-2ad56cce8ab1","system_id":"levelo_inurba_marseille","lat":43.23183,"lon":5.3998,"is_reserved":false,"is_disabled":false,"rental_uris":{"android":"levelo://app?vid=aa964867-cd5c-4289-89a3-2ad56cce8ab1","ios":"levelo://app?vid=aa964867-cd5c-4289-89a3-2ad56cce8ab1"},"vehicle_type_id":"4","last_reported":1759176657,"current_range_meters":18000,"station_id":"ce4bhn12rcd13ifvqgqg","pricing_plan_id":"cebpf4jnsgd1na2vs0mg"},{"bike_id":"627f0009-c086-4f8a-8406-c08f3975bb85","system_id":"levelo_inurba_marseille","lat":43.337914,"lon":5.374267,"is_reserved":false,"is_disabled":false,"rental_uris":{"android":"levelo://app?vid=627f0009-c086-4f8a-8406-c08f3975bb85","ios":"levelo://app?vid=627f0009-c086-4f8a-8406-c08f3975bb85"},"vehicle_type_id":"4","last_reported":1759176657,"current_range_meters":18800,"station_id":"","pricing_plan_id":"cebpf4jnsgd1na2vs0mg"},{"bike_id":"5145d6e5-24cd-4d0a-ad32-2ad33d30c5df","system_id":"levelo_inurba_marseille","lat":43.31326,"lon":5.39696,"is_reserved":false,"is_disabled":false,"rental_uris":{"android":"levelo://app?vid=5145d6e5-24cd-4d0a-ad32-2ad33d30c5df","ios":"levelo://app?vid=5145d6e5-24cd-4d0a-ad32-2ad33d30c5df"},"vehicle_type_id":"4","last_reported":1759176657,"current_range_meters":19200,"station_id":"ce4bgvp2rcd13ifvqcu0","pricing_plan_id":"cebpf4jnsgd1na2vs0mg"},{"bike_id":"e3e1c749-9f9b-4770-99ff-1973aecd4e6d","system_id":"levelo_inurba_marseille","lat":43.28463,"lon":5.3843,"is_reserved":false,"is_disabled":true,"rental_uris":{"android":"levelo://app?vid=e3e1c749-9f9b-4770-99ff-1973aecd4e6d","ios":"levelo://app?vid=e3e1c749-9f9b-4770-99ff-1973aecd4e6d"},"vehicle_type_id":"4","last_reported":1759176657,"current_range_meters":19200,"station_id":"ce4bh512rcd13ifvqe3g","pricing_plan_id":"cebpf4jnsgd1na2vs0mg"},