{"last_updated":1720023036,"ttl":30,"version":"2.2","data":{"bikes":[{"bike_id":"e30e9510-52ab-4cba-87e8-499bf034b93b","system_id":"levelo_inurba_marseille","lat":43.313391,"lon":5.36706,"is_reserved":false,"is_disabled":false,"rental_uris":{"android":"levelo://app?vid=e30e9510-52ab-4cba-87e8-499bf034b93b","ios":"levelo://app?vid=e30e9510-52ab-4cba-87e8-499bf034b93b"},"vehicle_type_id":"4","last_reported":1720023036,"current_range_meters":8000,"station_id":"ce4bgr92rcd13ifvqc6g","pricing_plan_id":"cebpf4jnsgd1na2vs0mg"},{"bike_id":"1c714695-3c7d-4e8f-a8bf-abcf097078c9","system_id":"levelo_inurba_marseille","lat":43.31225,"lon":5.36857,"is_reserved":false,"is_disabled":false,"rental_uris":{"android":"levelo://app?vid=1c714695-3c7d-4e8f-a8bf-abcf097078c9","ios":"levelo://app?vid=1c714695-3c7d-4e8f-a8bf-abcf097078c9"},"vehicle_type_id":"4","last_reported":1720023036,"current_range_meters":19200,"station_id":"ce4bgl92rcd13ifvqbq0","pricing_plan_id":"cebpf4jnsgd1na2vs0mg"},{"bike_id":"9c3aebac-f1f7-4863-961e-08e38664dec4","system_id":"levelo_inurba_marseille","lat":43.31223,"lon":5.36861,"is_reserved":false,"is_disabled":false,"rental_uris":{"android":"levelo://app?vid=9c3aebac-f1f7-4863-961e-08e38664dec4","ios":"levelo://app?vid=9c3aebac-f1f7-4863-961e-08e38664dec4"},"vehicle_type_id":"4","last_reported":1720023036,"current_range_meters":0,"station_id":"ce4bgl92rcd13ifvqbq0","pricing_plan_id":"cebpf4jnsgd1na2vs0mg"},{"bike_id":"14624c55-e148-45a7-9ed0-a8834a69d395","system_id":"levelo_inurba_marseille","lat":43.31105,"lon":5.370523,"is_reserved":false,"is_disabled":false,"rental_uris":{"android":"levelo://app?vid=14624c55-e148-45a7-9ed0-a8834a69d395","ios":"levelo://app?vid=14624c55-e148-45a7-9ed0-a8834a69d395"},"vehicle_type_id":"4","last_reported":1720023036,"current_range_meters":13200,"station_id":"","pricing_plan_id":"cebpf4jnsgd1na2vs0mg"},{"bike_id":"7a901739-e27b-4bfd-a00a-9c6c222c88b7","system_id":"levelo_inurba_marseille","lat":43.309076,"lon":5.368465,"is_reserved":false,"is_disabled":false,"rental_uris":{"android":"levelo://app?vid=7a901739-e27b-4bfd-a00a-9c6c222c88b7","ios":"levelo://app?vid=7a901739-e27b-4bfd-a00a-9c6c222c88b7"},"vehicle_type_id":"4","last_reported":1720023036,"current_range_meters":17200,"station_id":"ce4bgn92rcd13ifvqbvg","pricing_plan_id":"cebpf4jnsgd1na2vs0mg"},{"bike_id":"aa077e40-4db1-41d6-b539-92509b4ddbb7","system_id":"levelo_inurba_marseille","lat":43.309057,"lon":5.368543,"is_reserved":false,"is_disabled":false,"rental_uris":{"android":"levelo://app?vid=aa077e40-4db1-41d6-b539-92509b4ddbb7","ios":"levelo://app?vid=aa077e40-4db1-41d6-b539-92509b4ddbb7"},"vehicle_type_id":"4","last_reported":1720023036,"current_range_meters":28800,"station_id":"ce4bgn92rcd13ifvqbvg","pricing_plan_id":"cebpf4jnsgd1na2vs0mg"},{"bike_id":"02dd739a-5475-4688-b0aa-cc114ac6f5b6","system_id":"levelo_inurba_marseille","lat":43.31482,"lon":5.37292,"is_reserved":false,"is_disabled":false,"rental_uris":{"android":"levelo://app?vid=02dd739a-5475-4688-b0aa-cc114ac6f5b6","ios":"levelo://app?vid=02dd739a-5475-4688-b0aa-cc114ac6f5b6"},"vehicle_type_id":"4","last_reported":1720023036,"current_range_meters":0,"station_id":"ce4bgt12rcd13ifvqcd0","pricing_plan_id":"cebpf4jnsgd1na2vs0mg"},{"bike_id":"f0f39031-df3a-495f-84b7-19ca7f048844","system_id":"levelo_inurba_marseille","lat":43.290631,"lon":5.359244,"is_reserved":false,"is_disabled":false,"rental_uris":{"android":"levelo://app?vid=f0f39031-df3a-495f-84b7-19ca7f048844","ios":"levelo://app?vid=f0f39031-df3a-495f-84b7-19ca7f048844"},"vehicle_type_id":"4","last_reported":1720023036,"current_range_meters":28400,"station_id":"ce4bha92rcd13ifvqeg0","pricing_plan_id":"cebpf4jnsgd1na2vs0mg"},{"bike_id":"8a6ce8dc-cf00-492c-8d46-214124788516","system_id":"levelo_inurba_marseille","lat":43.314811,"lon":5.373103,"is_reserved":false,"is_disabled":false,"rental_uris":{"android":"levelo://app?vid=8a6ce8dc-cf00-492c-8d46-214124788516","ios":"levelo://app?vid=8a6ce8dc-cf00-492c-8d46-214124788516"},"vehicle_type_id":"4","last_reported":1720023036,"current_range_meters":7200,"station_id":"ce4bgt12rcd13ifvqcd0","pricing_plan_id":"cebpf4jnsgd1na2vs0mg"},{"bike_id":"aca0fd86-7997-4a5e-99ee-bf52d09e2b9f","system_id":"levelo_inurba_marseille","lat":43.298433,"lon":5.362774,"is_reserved":false,"is_disabled":false,"rental_uris":{"android":"levelo://app?vid=aca0fd86-7997-4a5e-99ee-bf52d09e2b9f","ios":"levelo://app?vid=aca0fd86-7997-4a5e-99ee-bf52d09e2b9f"},"vehicle_type_id":"4","last_reported":1720023036,"current_range_meters":16800,"station_id":"ce4bgpp2rcd13ifvqc3g","pricing_plan_id":"cebpf4jnsgd1na2vs0mg"},{"bike_id":"680354a0-47dd-4515-9af6-2f5bab6d1594","system_id":"levelo_inurba_marseille","lat":43.30546,"lon":5.36656,"is_reserved":false,"is_disabled":false,"rental_uris":{"android":"levelo://app?vid=680354a0-47dd-4515-9af6-2f5bab6d1594","ios":"levelo://app?vid=680354a0-47dd-4515-9af6-2f5bab6d1594"},"vehicle_type_id":"4","last_reported":1720023036,"current_range_meters":6000,"station_id":"","pricing_plan_id":"cebpf4jnsgd1na2vs0mg"},{"bike_id":"45664a42-a5a6-437b-988f-06542507f11c","system_id":"levelo_inurba_marseille","lat":43.305712,"lon":5.365641,"is_reserved":false,"is_disabled":false,"rental_uris":{"android":"levelo://app?vid=45664a42-a5a6-437b-988f-06542507f11c","ios":"levelo://app?vid=45664a42-a5a6-437b-988f-06542507f11c"},"vehicle_type_id":"4","last_reported":1720023036,"current_range_meters":0,"station_id":"ce4bgs12rcd13ifvqcag","pricing_plan_id":"cebpf4jnsgd1na2vs0mg"},{"bike_id":"97e956be-c05a-483a-bafb-efc2a6fbaf1c","system_id":"levelo_inurba_marseille","lat":43.291994,"lon":5.357886,"is_reserved":false,"is_disabled":false,"rental_uris":{"android":"levelo://app?vid=97e956be-c05a-483a-bafb-efc2a6fbaf1c","ios":"levelo://app?vid=97e956be-c05a-483a-bafb-efc2a6fbaf1c"},"vehicle_type_id":"4","last_reported":1720023036,"current_range_meters":14000,"station_id":"ce4bhb12rcd13ifvqel0","pricing_plan_id":"cebpf4jnsgd1na2vs0mg"},{"bike_id":"a8a4fc08-7611-47b6-af6b-6ca253f3beaf","system_id":"levelo_inurba_marseille","lat":43.30545,"lon":5.36563,"is_reserved":false,"is_disabled":false,"rental_uris":{"android":"levelo://app?vid=a8a4fc08-7611-47b6-af6b-6ca253f3beaf","ios":"levelo://app?vid=a8a4fc08-7611-47b6-af6b-6ca253f3beaf"},"vehicle_type_id":"4","last_reported":1720023036,"current_range_meters":0,"station_id":"ce4bgs12rcd13ifvqcag","pricing_plan_id":"cebpf4jnsgd1na2vs0mg"},{"bike_id":"9353fba9-587b-4496-a19d-c66af9e7ab52","system_id":"levelo_inurba_marseille","lat":43.30537,"lon":5.36542,"is_reserved":false,"is_disabled":false,"rental_uris":{"android":"levelo://app?vid=9353fba9-587b-4496-a19d-c66af9e7ab52","ios":"levelo://app?vid=9353fba9-587b-4496-a19d-c66af9e7ab52"},"vehicle_type_id":"4","last_reported":1720023036,"current_range_meters":0,"station_id":"ce4bgs12rcd13ifvqcag","pricing_plan_id":"cebpf4jnsgd1na2vs0mg"},{"bike_id":"ab7d2fd2-b7c1-4685-b3f4-7c036953c6d0","system_id":"levelo_inurba_marseille","lat":43.30538,"lon":5.36527,"is_reserved":false,"is_disabled":false,"rental_uris":{"android":"levelo://app?vid=ab7d2fd2-b7c1-4685-b3f4-7c036953c6d0","ios":"levelo://app?vid=ab7d2fd2-b7c1-4685-b3f4-7c036953c6d0"},"vehicle_type_id":"4","last_reported":1720023036,"current_range_meters":0,"station_id":"ce4bgs12rcd13ifvqcag","pricing_plan_id":"cebpf4jnsgd1na2vs0mg"},{"bike_id":"ed16a5c2-6203-43bc-95aa-6638b81b97f1","system_id":"levelo_inurba_marseille","lat":43.305712,"lon":5.365641,"is_reserved":false,"is_disabled":false,"rental_uris":{"android":"levelo://app?vid=ed16a5c2-6203-43bc-95aa-6638b81b97f1","ios":"levelo://app?vid=ed16a5c2-6203-43bc-95aa-6638b81b97f1"},"vehicle_type_id":"4","last_reported":1720023036,"current_range_meters":0,"station_id":"ce4bgs12rcd13ifvqcag","pricing_plan_id":"cebpf4jnsgd1na2vs0mg"},{"bike_id":"5a4eb276-267b-46fc-aaeb-82f27ffa14cd","system_id":"levelo_inurba_marseille","lat":43.305989,"lon":5.37225,"is_reserved":false,"is_disabled":false,"rental_uris":{"android":"levelo://app?vid=5a4eb276-267b-46fc-aaeb-82f27ffa14cd","ios":"levelo://app?vid=5a4eb276-267b-46fc-aaeb-82f27ffa14cd"},"vehicle_type_id":"4","last_reported":1720023036,"current_range_meters":22400,"station_id":"ce4bgqh2rcd13ifvqc4g","pricing_plan_id":"cebpf4jnsgd1na2vs0mg"},{"bike_id":"aa13223f-bb31-4a69-a7a5-e3e8cbba2b57","system_id":"levelo_inurba_marseille","lat":43.3111,"lon":5.37758,"is_reserved":false,"is_disabled":false,"rental_uris":{"android":"levelo://app?vid=aa13223f-bb31-4a69-a7a5-e3e8cbba2b57","ios":"levelo://app?vid=aa13223f-bb31-4a69-a7a5-e3e8cbba2b57"},"vehicle_type_id":"4","last_reported":1720023036,"current_range_meters":10400,"station_id":"ce4bgt92rcd13ifvqcg0","pricing_plan_id":"cebpf4jnsgd1na2vs0mg"},{"bike_id":"395ac17e-e139-4949-bc3b-c483fd42e8cf","system_id":"levelo_inurba_marseille","lat":43.311125,"lon":5.377624,"is_reserved":false,"is_disabled":false,"rental_uris":{"android":"levelo://app?vid=395ac17e-e139-4949-bc3b-c483fd42e8cf","ios":"levelo://app?vid=395ac17e-e139-4949-bc3b-c483fd42e8cf"},"vehicle_type_id":"4","last_reported":1720023036,"current_range_meters":12800,"station_id":"ce4bgt92rcd13ifvqcg0","pricing_plan_id":"cebpf4jnsgd1na2vs0mg"},{"bike_id":"3498505d-1ba4-4244-af59-a9e24bda118f","system_id":"levelo_inurba_marseille","lat":43.311125,"lon":5.377624,"is_reserved":false,"is_disabled":false,"rental_uris":{"android":"levelo://app?vid=3498505d-1ba4-4244-af59-a9e24bda118f","ios":"levelo://app?vid=3498505d-1ba4-4244-af59-a9e24bda118f"},"vehicle_type_id":"4","last_reported":1720023036,"current_range_meters":2400,"station_id":"ce4bgt92rcd13ifvqcg0","pricing_plan_id":"cebpf4jnsgd1na2vs0mg"},{"bike_id":"e36f1f71-bec0-452b-afbd-18f05788df6b","system_id":"levelo_inurba_marseille","lat":43.311125,"lon":5.377624,"is_reserved":false,"is_disabled":false,"rental_uris":{"android":"levelo://app?vid=e36f1f71-bec0-452b-afbd-18f05788df6b","ios":"levelo://app?vid=e36f1f71-bec0-452b-afbd-18f05788df6b"},"vehicle_type_id":"4","last_reported":1720023036,"current_range_meters":0,"station_id":"ce4bgt92rcd13ifvqcg0","pricing_plan_id":"cebpf4jnsgd1na2vs0mg"},{"bike_id":"81414d4b-c38a-4a89-b0c2-ae4508b9adfb","system_id":"levelo_inurba_marseille","lat":43.30451,"lon":5.366848,"is_reserved":false,"is_disabled":false,"rental_uris":{"android":"levelo://app?vid=81414d4b-c38a-4a89-b0c2-ae4508b9adfb","ios":"levelo://app?vid=81414d4b-c38a-4a89-b0c2-ae4508b9adfb"},"vehicle_type_id":"4","last_reported":1720023036,"current_range_meters":0,"station_id":"","pricing_plan_id":"cebpf4jnsgd1na2vs0mg"},{"bike_id":"bd84aa2d-dff2-4c24-b949-b35807f20fb7","system_id":"levelo_inurba_marseille","lat":43.307945,"lon":5.376487,"is_reserved":false,"is_disabled":false,"rental_uris":{"android":"levelo://app?vid=bd84aa2d-dff2-4c24-b949-b35807f20fb7","ios":"levelo://app?vid=bd84aa2d-dff2-4c24-b949-b35807f20fb7"},"vehicle_type_id":"4","last_reported":1720023036,"current_range_meters":19600,"station_id":"ce4bgv92rcd13ifvqcq0","pricing_plan_id":"cebpf4jnsgd1na2vs0mg"},{"bike_id":"f183f605-a59f-482a-a4c3-b5efdb99e1d3","system_id":"levelo_inurba_marseille","lat":43.317075,"lon":5.377367,"is_reserved":false,"is_disabled":false,"rental_uris":{"android":"levelo://app?vid=f183f605-a59f-482a-a4c3-b5efdb99e1d3","ios":"levelo://app?vid=f183f605-a59f-482a-a4c3-b5efdb99e1d3"},"vehicle_type_id":"4","last_reported":1720023036,"current_range_meters":18000,"station_id":"ce4bgth2rcd13ifvqch0","pricing_plan_id":"cebpf4jnsgd1na2vs0mg"},{"bike_id":"c1fe08d5-6515-411b-945d-5fe6a97088ed","system_id":"levelo_inurba_marseille","lat":43.31699,"lon":5.37762,"is_reserved":false,"is_disabled":false,"rental_uris":{"android":"levelo://app?vid=c1fe08d5-6515-411b-945d-5fe6a97088ed","ios":"levelo://app?vid=c1fe08d5-6515-411b-945d-5fe6a97088ed"},"vehicle_type_id":"4","last_reported":1720023036,"current_range_meters":0,"station_id":"ce4bgth2rcd13ifvqch0","pricing_plan_id":"cebpf4jnsgd1na2vs0mg"},{"bike_id":"5283b42e-13c3-4399-97e5-15d4a875ff38","system_id":"levelo_inurba_marseille","lat":43.30669,"lon":5.37745,"is_reserved":false,"is_disabled":false,"rental_uris":{"android":"levelo://app?vid=5283b42e-13c3-4399-97e5-15d4a875ff38","ios":"levelo://app?vid=5283b42e-13c3-4399-97e5-15d4a875ff38"},"vehicle_type_id":"4","last_reported":1720023036,"current_range_meters":16400,"station_id":"","pricing_plan_id":"cebpf4jnsgd1na2vs0mg"},{"bike_id":"1ed3ed0d-1345-4895-9a5f-45023435a786","system_id":"levelo_inurba_marseille","lat":43.303046,"lon":5.368981,"is_reserved":false,"is_disabled":false,"rental_uris":{"android":"levelo://app?vid=1ed3ed0d-1345-4895-9a5f-45023435a786","ios":"levelo://app?vid=1ed3ed0d-1345-4895-9a5f-45023435a786"},"vehicle_type_id":"4","last_reported":1720023036,"current_range_meters":0,"station_id":"ce4bgqh2rcd13ifvqc5g","pricing_plan_id":"cebpf4jnsgd1na2vs0mg"},{"bike_id":"340596c0-c442-4a46-969a-469215dbfc8e","system_id":"levelo_inurba_marseille","lat":43.303046,"lon":5.368981,"is_reserved":false,"is_disabled":false,"rental_uris":{"android":"levelo://app?vid=340596c0-c442-4a46-969a-469215dbfc8e","ios":"levelo://app?vid=340596c0-c442-4a46-969a-469215dbfc8e"},"vehicle_type_id":"4","last_reported":1720023036,"current_range_meters":400,"station_id":"ce4bgqh2rcd13ifvqc5g","pricing_plan_id":"cebpf4jnsgd1na2vs0mg"},{"bike_id":"0e65863a-4bb7-4d83-99a9-e7ec4e41e8e6","system_id":"levelo_inurba_marseille","lat":43.30304,"lon":5.368987,"is_reserved":false,"is_disabled":false,"rental_uris":{"android":"levelo://app?vid=0e65863a-4bb7-4d83-99a9-e7ec4e41e8e6","ios":"levelo://app?vid=0e65863a-4bb7-4d83-99a9-e7ec4e41e8e6"},"vehicle_type_id":"4","last_reported":1720023036,"current_range_meters":19600,"station_id":"ce4bgqh2rcd13ifvqc5g","pricing_plan_id":"cebpf4jnsgd1na2vs0mg"},{"bike_id":"fb44ee80-cc2c-4939-8259-a4a74f8cb493","system_id":"levelo_inurba_marseille","lat":43.31529,"lon":5.3803,"is_reserved":false,"is_disabled":false,"rental_uris":{"android":"levelo://app?vid=fb44ee80-cc2c-4939-8259-a4a74f8cb493","ios":"levelo://app?vid=fb44ee80-cc2c-4939-8259-a4a74f8cb493"},"vehicle_type_id":"4","last_reported":1720023036,"current_range_meters":0,"station_id":"ce4bhsp2rcd13ifvqi50","pricing_plan_id":"cebpf4jnsgd1na2vs0mg"},{"bike_id":"03bad52f-f17a-4031-bc7a-bc9d1dad06cd","system_id":"levelo_inurba_marseille","lat":43.30806,"lon":5.38148,"is_reserved":false,"is_disabled":false,"rental_uris":{"android":"levelo://app?vid=03bad52f-f17a-4031-bc7a-bc9d1dad06cd","ios":"levelo://app?vid=03bad52f-f17a-4031-bc7a-bc9d1dad06cd"},"vehicle_type_id":"4","last_reported":1720023036,"current_range_meters":0,"station_id":"ce4bgt12rcd13ifvqce0","pricing_plan_id":"cebpf4jnsgd1na2vs0mg"},{"bike_id":"7abc2596-7415-452e-84eb-30406a97322c","system_id":"levelo_inurba_marseille","lat":43.30796,"lon":5.38147,"is_reserved":false,"is_disabled":false,"rental_uris":{"android":"levelo://app?vid=7abc2596-7415-452e-84eb-30406a97322c","ios":"levelo://app?vid=7abc2596-7415-452e-84eb-30406a97322c"},"vehicle_type_id":"4","last_reported":1720023036,"current_range_meters":18400,"station_id":"ce4bgt12rcd13ifvqce0","pricing_plan_id":"cebpf4jnsgd1na2vs0mg"},{"bike_id":"a0d9ff8f-d013-4dc4-939e-d7c05c1b594e","system_id":"levelo_inurba_marseille","lat":43.30793,"lon":5.38164,"is_reserved":false,"is_disabled":false,"rental_uris":{"android":"levelo://app?vid=a0d9ff8f-d013-4dc4-939e-d7c05c1b594e","ios":"levelo://app?vid=a0d9ff8f-d013-4dc4-939e-d7c05c1b594e"},"vehicle_type_id":"4","last_reported":1720023036,"current_range_meters":0,"station_id":"ce4bgt12rcd13ifvqce0","pricing_plan_id":"cebpf4jnsgd1na2vs0mg"},{"bike_id":"c993a911-b939-4649-9311-9a8fca44d1b2","system_id":"levelo_inurba_marseille","lat":43.32482,"lon":5.3655,"is_reserved":false,"is_disabled":false,"rental_uris":{"android":"levelo://app?vid=c993a911-b939-4649-9311-9a8fca44d1b2","ios":"levelo://app?vid=c993a911-b939-4649-9311-9a8fca44d1b2"},"vehicle_type_id":"4","last_reported":1720023036,"current_range_meters":15200,"station_id":"ce4bhs12rcd13ifvqhvg","pricing_plan_id":"cebpf4jnsgd1na2vs0mg"},{"bike_id":"ad03e178-4036-4e79-8c4a-0e3bcfab0aff","system_id":"levelo_inurba_marseille","lat":43.32484,"lon":5.3657,"is_reserved":false,"is_disabled":false,"rental_uris":{"android":"levelo://app?vid=ad03e178-4036-4e79-8c4a-0e3bcfab0aff","ios":"levelo://app?vid=ad03e178-4036-4e79-8c4a-0e3bcfab0aff"},"vehicle_type_id":"4","last_reported":1720023036,"current_range_meters":0,"station_id":"ce4bhs12rcd13ifvqhvg","pricing_plan_id":"cebpf4jnsgd1na2vs0mg"},{"bike_id":"719de95f-886c-4a8f-bdfe-4256c68102b9","system_id":"levelo_inurba_marseille","lat":43.30139,"lon":5.37425,"is_reserved":false,"is_disabled":false,"rental_uris":{"android":"levelo://app?vid=719de95f-886c-4a8f-bdfe-4256c68102b9","ios":"levelo://app?vid=719de95f-886c-4a8f-bdfe-4256c68102b9"},"vehicle_type_id":"4","last_reported":1720023036,"current_range_meters":6000,"station_id":"","pricing_plan_id":"cebpf4jnsgd1na2vs0mg"},{"bike_id":"5af87b0b-ad8d-4fc3-9957-2dfc61c553ac","system_id":"levelo_inurba_marseille","lat":43.319935,"lon":5.381699,"is_reserved":false,"is_disabled":false,"rental_uris":{"android":"levelo://app?vid=5af87b0b-ad8d-4fc3-9957-2dfc61c553ac","ios":"levelo://app?vid=5af87b0b-ad8d-4fc3-9957-2dfc61c553ac"},"vehicle_type_id":"4","last_reported":1720023036,"current_range_meters":7200,"station_id":"ce4bhr12rcd13ifvqhpg","pricing_plan_id":"cebpf4jnsgd1na2vs0mg"},{"bike_id":"fb784225-4dd2-4714-a6df-68e25ad6f644","system_id":"levelo_inurba_marseille","lat":43.319935,"lon":5.381699,"is_reserved":false,"is_disabled":false,"rental_uris":{"android":"levelo://app?vid=fb784225-4dd2-4714-a6df-68e25ad6f644","ios":"levelo://app?vid=fb784225-4dd2-4714-a6df-68e25ad6f644"},"vehicle_type_id":"4","last_reported":1720023036,"current_range_meters":22000,"station_id":"ce4bhr12rcd13ifvqhpg","pricing_plan_id":"cebpf4jnsgd1na2vs0mg"},{"bike_id":"828848d0-b57c-4629-b1d3-29a34343a060","system_id":"levelo_inurba_marseille","lat":43.313571,"lon":5.384829,"is_reserved":false,"is_disabled":false,"rental_uris":{"android":"levelo://app?vid=828848d0-b57c-4629-b1d3-29a34343a060","ios":"levelo://app?vid=828848d0-b57c-4629-b1d3-29a34343a060"},"vehicle_type_id":"4","last_reported":1720023036,"current_range_meters":0,"station_id":"ce4bgt92rcd13ifvqcf0","pricing_plan_id":"cebpf4jnsgd1na2vs0mg"},{"bike_id":"ce6ef5ab-3e02-4f9e-b10b-1f07f6bddf0d","system_id":"levelo_inurba_marseille","lat":43.299222,"lon":5.365554,"is_reserved":false,"is_disabled":false,"rental_uris":{"android":"levelo://app?vid=ce6ef5ab-3e02-4f9e-b10b-1f07f6bddf0d","ios":"levelo://app?vid=ce6ef5ab-3e02-4f9e-b10b-1f07f6bddf0d"},"vehicle_type_id":"4","last_reported":1720023036,"current_range_meters":26800,"station_id":"ce4bgm92rcd13ifvqbr0","pricing_plan_id":"cebpf4jnsgd1na2vs0mg"},{"bike_id":"31171927-8afc-42e5-856c-83fdf109c721","system_id":"levelo_inurba_marseille","lat":43.298433,"lon":5.362774,"is_reserved":false,"is_disabled":false,"rental_uris":{"android":"levelo://app?vid=31171927-8afc-42e5-856c-83fdf109c721","ios":"levelo://app?vid=31171927-8afc-42e5-856c-83fdf109c721"},"vehicle_type_id":"4","last_reported":1720023036,"current_range_meters":17200,"station_id":"ce4bgpp2rcd13ifvqc3g","pricing_plan_id":"cebpf4jnsgd1na2vs0mg"},{"bike_id":"12de0d8a-d060-4594-88d8-7bbae7317268","system_id":"levelo_inurba_marseille","lat":43.298433,"lon":5.362774,"is_reserved":false,"is_disabled":false,"rental_uris":{"android":"levelo://app?vid=12de0d8a-d060-4594-88d8-7bbae7317268","ios":"levelo://app?vid=12de0d8a-d060-4594-88d8-7bbae7317268"},"vehicle_type_id":"4","last_reported":1720023036,"current_range_meters":4400,"station_id":"ce4bgpp2rcd13ifvqc3g","pricing_plan_id":"cebpf4jnsgd1na2vs0mg"},{"bike_id":"11b2aee7-c80a-4e9e-98b3-97b8721572f3","system_id":"levelo_inurba_marseille","lat":43.298433,"lon":5.362774,"is_reserved":false,"is_disabled":false,"rental_uris":{"android":"levelo://app?vid=11b2aee7-c80a-4e9e-98b3-97b8721572f3","ios":"levelo://app?vid=11b2aee7-c80a-4e9e-98b3-97b8721572f3"},"vehicle_type_id":"4","last_reported":1720023036,"current_range_meters":9600,"station_id":"ce4bgpp2rcd13ifvqc3g","pricing_plan_id":"cebpf4jnsgd1na2vs0mg"},{"bike_id":"491677da-c1b3-4015-9cb6-8ab1aa7581b7","system_id":"levelo_inurba_marseille","lat":43.298433,"lon":5.362774,"is_reserved":false,"is_disabled":false,"rental_uris":{"android":"levelo://app?vid=491677da-c1b3-4015-9cb6-8ab1aa7581b7","ios":"levelo://app?vid=491677da-c1b3-4015-9cb6-8ab1aa7581b7"},"vehicle_type_id":"4","last_reported":1720023036,"current_range_meters":8800,"station_id":"ce4bgpp2rcd13ifvqc3g","pricing_plan_id":"cebpf4jnsgd1na2vs0mg"},{"bike_id":"1bb91d50-b174-44c5-8e36-d5f3d43ba1ee","system_id":"levelo_inurba_marseille","lat":43.298433,"lon":5.362774,"is_reserved":false,"is_disabled":false,"rental_uris":{"android":"levelo://app?vid=1bb91d50-b174-44c5-8e36-d5f3d43ba1ee","ios":"levelo://app?vid=1bb91d50-b174-44c5-8e36-d5f3d43ba1ee"},"vehicle_type_id":"4","last_reported":1720023036,"current_range_meters":12800,"station_id":"ce4bgpp2rcd13ifvqc3g","pricing_plan_id":"cebpf4jnsgd1na2vs0mg"},{"bike_id":"6bdaa582-d1a8-4940-a74c-bebb8255b2b3","system_id":"levelo_inurba_marseille","lat":43.32581,"lon":5.37581,"is_reserved":false,"is_disabled":false,"rental_uris":{"android":"levelo://app?vid=6bdaa582-d1a8-4940-a74c-bebb8255b2b3","ios":"levelo://app?vid=6bdaa582-d1a8-4940-a74c-bebb8255b2b3"},"vehicle_type_id":"4","last_reported":1720023036,"current_range_meters":400,"station_id":"","pricing_plan_id":"cebpf4jnsgd1na2vs0mg"},{"bike_id":"a638ccf9-090a-4104-a68f-36201d15d03f","system_id":"levelo_inurba_marseille","lat":43.311722,"lon":5.387247,"is_reserved":false,"is_disabled":false,"rental_uris":{"android":"levelo://app?vid=a638ccf9-090a-4104-a68f-36201d15d03f","ios":"levelo://app?vid=a638ccf9-090a-4104-a68f-36201d15d03f"},"vehicle_type_id":"4","last_reported":1720023036,"current_range_meters":800,"station_id":"ce4bgv12rcd13ifvqcp0","pricing_plan_id":"cebpf4jnsgd1na2vs0mg"},{"bike_id":"2a93f24f-4e81-4871-afc7-a133a9556429","system_id":"levelo_inurba_marseille","lat":43.297794,"lon":5.370888,"is_reserved":false,"is_disabled":false,"rental_uris":{"android":"levelo://app?vid=2a93f24f-4e81-4871-afc7-a133a9556429","ios":"levelo://app?vid=2a93f24f-4e81-4871-afc7-a133a9556429"},"vehicle_type_id":"4","last_reported":1720023036,"current_range_meters":14400,"station_id":"ce4bgop2rcd13ifvqc1g","pricing_plan_id":"cebpf4jnsgd1na2vs0mg"},{"bike_id":"c83b3474-5810-4b5d-8b17-03dafe704f0d","system_id":"levelo_inurba_marseille","lat":43.299222,"lon":5.365554,"is_reserved":false,"is_disabled":false,"rental_uris":{"android":"levelo://app?vid=c83b3474-5810-4b5d-8b17-03dafe704f0d","ios":"levelo://app?vid=c83b3474-5810-4b5d-8b17-03dafe704f0d"},"vehicle_type_id":"4","last_reported":1720023036,"current_range_meters":400,"station_id":"ce4bgm92rcd13ifvqbr0","pricing_plan_id":"cebpf4jnsgd1na2vs0mg"},{"bike_id":"acbacc07-3406-42b6-a4b4-6ba8eee52b33","system_id":"levelo_inurba_marseille","lat":43.322872,"lon":5.382756,"is_reserved":false,"is_disabled":false,"rental_uris":{"android":"levelo://app?vid=acbacc07-3406-42b6-a4b4-6ba8eee52b33","ios":"levelo://app?vid=acbacc07-3406-42b6-a4b4-6ba8eee52b33"},"vehicle_type_id":"4","last_reported":1720023036,"current_range_meters":31600,"station_id":"ce4bhr12rcd13ifvqhqg","pricing_plan_id":"cebpf4jnsgd1na2vs0mg"},{"bike_id":"9d0c7d84-0849-4e6f-876c-188a3df3b7ef","system_id":"levelo_inurba_marseille","lat":43.297794,"lon":5.370888,"is_reserved":false,"is_disabled":false,"rental_uris":{"android":"levelo://app?vid=9d0c7d84-0849-4e6f-876c-188a3df3b7ef","ios":"levelo://app?vid=9d0c7d84-0849-4e6f-876c-188a3df3b7ef"},"vehicle_type_id":"4","last_reported":1720023036,"current_range_meters":0,"station_id":"ce4bgop2rcd13ifvqc1g","pricing_plan_id":"cebpf4jnsgd1na2vs0mg"},{"bike_id":"27a6bef8-9fa2-4c7c-a852-ef52da7f4c34","system_id":"levelo_inurba_marseille","lat":43.322872,"lon":5.382756,"is_reserved":false,"is_disabled":false,"rental_uris":{"android":"levelo://app?vid=27a6bef8-9fa2-4c7c-a852-ef52da7f4c34","ios":"levelo://app?vid=27a6bef8-9fa2-4c7c-a852-ef52da7f4c34"},"vehicle_type_id":"4","last_reported":1720023036,"current_range_meters":31200,"station_id":"ce4bhr12rcd13ifvqhqg","pricing_plan_id":"cebpf4jnsgd1na2vs0mg"},{"bike_id":"44ef4bc2-d48d-498f-a2a2-80569a82a166","system_id":"levelo_inurba_marseille","lat":43.297163,"lon":5.365866,"is_reserved":false,"is_disabled":false,"rental_uris":{"android":"levelo://app?vid=44ef4bc2-d48d-498f-a2a2-80569a82a166","ios":"levelo://app?vid=44ef4bc2-d48d-498f-a2a2-80569a82a166"},"vehicle_type_id":"4","last_reported":1720023036,"current_range_meters":19600,"station_id":"ce4bgn12rcd13ifvqbt0","pricing_plan_id":"cebpf4jnsgd1na2vs0mg"},{"bike_id":"7b8e037d-9303-4107-bb9b-60f96dba33c1","system_id":"levelo_inurba_marseille","lat":43.297163,"lon":5.365866,"is_reserved":false,"is_disabled":false,"rental_uris":{"android":"levelo://app?vid=7b8e037d-9303-4107-bb9b-60f96dba33c1","ios":"levelo://app?vid=7b8e037d-9303-4107-bb9b-60f96dba33c1"},"vehicle_type_id":"4","last_reported":1720023036,"current_range_meters":4800,"station_id":"ce4bgn12rcd13ifvqbt0","pricing_plan_id":"cebpf4jnsgd1na2vs0mg"},{"bike_id":"7c730333-5adc-4cc1-93bd-70edb878c00c","system_id":"levelo_inurba_marseille","lat":43.297163,"lon":5.365866,"is_reserved":false,"is_disabled":false,"rental_uris":{"android":"levelo://app?vid=7c730333-5adc-4cc1-93bd-70edb878c00c","ios":"levelo://app?vid=7c730333-5adc-4cc1-93bd-70edb878c00c"},"vehicle_type_id":"4","last_reported":1720023036,"current_range_meters":21600,"station_id":"ce4bgn12rcd13ifvqbt0","pricing_plan_id":"cebpf4jnsgd1na2vs0mg"},{"bike_id":"4e721dc3-ed24-407b-8430-7643f91e8bdd","system_id":"levelo_inurba_marseille","lat":43.297163,"lon":5.365866,"is_reserved":false,"is_disabled":false,"rental_uris":{"android":"levelo://app?vid=4e721dc3-ed24-407b-8430-7643f91e8bdd","ios":"levelo://app?vid=4e721dc3-ed24-407b-8430-7643f91e8bdd"},"vehicle_type_id":"4","last_reported":1720023036,"current_range_meters":27200,"station_id":"ce4bgn12rcd13ifvqbt0","pricing_plan_id":"cebpf4jnsgd1na2vs0mg"},{"bike_id":"0c845e77-91f9-4f53-b4c0-9cd585c05b3e","system_id":"levelo_inurba_marseille","lat":43.29663,"lon":5.36162,"is_reserved":false,"is_disabled":false,"rental_uris":{"android":"levelo://app?vid=0c845e77-91f9-4f53-b4c0-9cd585c05b3e","ios":"levelo://app?vid=0c845e77-91f9-4f53-b4c0-9cd585c05b3e"},"vehicle_type_id":"4","last_reported":1720023036,"current_range_meters":3600,"station_id":"","pricing_plan_id":"cebpf4jnsgd1na2vs0mg"},{"bike_id":"07e20738-4ff1-4e17-a11e-33a4bffac1e6","system_id":"levelo_inurba_marseille","lat":43.29573,"lon":5.367355,"is_reserved":false,"is_disabled":false,"rental_uris":{"android":"levelo://app?vid=07e20738-4ff1-4e17-a11e-33a4bffac1e6","ios":"levelo://app?vid=07e20738-4ff1-4e17-a11e-33a4bffac1e6"},"vehicle_type_id":"4","last_reported":1720023036,"current_range_meters":18000,"station_id":"ce4bgph2rcd13ifvqc2g","pricing_plan_id":"cebpf4jnsgd1na2vs0mg"},{"bike_id":"5ae8c89b-21c8-4b86-a86a-7325efbcb601","system_id":"levelo_inurba_marseille","lat":43.29573,"lon":5.367355,"is_reserved":false,"is_disabled":false,"rental_uris":{"android":"levelo://app?vid=5ae8c89b-21c8-4b86-a86a-7325efbcb601","ios":"levelo://app?vid=5ae8c89b-21c8-4b86-a86a-7325efbcb601"},"vehicle_type_id":"4","last_reported":1720023036,"current_range_meters":4400,"station_id":"ce4bgph2rcd13ifvqc2g","pricing_plan_id":"cebpf4jnsgd1na2vs0mg"},{"bike_id":"0dc4c540-67ea-46de-b14e-ddcc98d9d074","system_id":"levelo_inurba_marseille","lat":43.303117,"lon":5.38629,"is_reserved":false,"is_disabled":false,"rental_uris":{"android":"levelo://app?vid=0dc4c540-67ea-46de-b14e-ddcc98d9d074","ios":"levelo://app?vid=0dc4c540-67ea-46de-b14e-ddcc98d9d074"},"vehicle_type_id":"4","last_reported":1720023036,"current_range_meters":0,"station_id":"","pricing_plan_id":"cebpf4jnsgd1na2vs0mg"},{"bike_id":"ce14e59e-11a5-48ac-825e-9bccc209ce0e","system_id":"levelo_inurba_marseille","lat":43.309589,"lon":5.390258,"is_reserved":false,"is_disabled":false,"rental_uris":{"android":"levelo://app?vid=ce14e59e-11a5-48ac-825e-9bccc209ce0e","ios":"levelo://app?vid=ce14e59e-11a5-48ac-825e-9bccc209ce0e"},"vehicle_type_id":"4","last_reported":1720023036,"current_range_meters":12800,"station_id":"ce4bgup2rcd13ifvqco0","pricing_plan_id":"cebpf4jnsgd1na2vs0mg"},{"bike_id":"343a1559-9406-4f0f-bdad-b4826f06ae0d","system_id":"levelo_inurba_marseille","lat":43.309589,"lon":5.390258,"is_reserved":false,"is_disabled":false,"rental_uris":{"android":"levelo://app?vid=343a1559-9406-4f0f-bdad-b4826f06ae0d","ios":"levelo://app?vid=343a1559-9406-4f0f-bdad-b4826f06ae0d"},"vehicle_type_id":"4","last_reported":1720023036,"current_range_meters":0,"station_id":"ce4bgup2rcd13ifvqco0","pricing_plan_id":"cebpf4jnsgd1na2vs0mg"},{"bike_id":"4b60d1c5-711a-4f46-9efb-63054610fd76","system_id":"levelo_inurba_marseille","lat":43.309589,"lon":5.390258,"is_reserved":false,"is_disabled":false,"rental_uris":{"android":"levelo://app?vid=4b60d1c5-711a-4f46-9efb-63054610fd76","ios":"levelo://app?vid=4b60d1c5-711a-4f46-9efb-63054610fd76"},"vehicle_type_id":"4","last_reported":1720023036,"current_range_meters":0,"station_id":"ce4bgup2rcd13ifvqco0","pricing_plan_id":"cebpf4jnsgd1na2vs0mg"},{"bike_id":"dd1353ca-73d1-4979-b13d-9de7bdefe8cc","system_id":"levelo_inurba_marseille","lat":43.299028,"lon":5.381509,"is_reserved":false,"is_disabled":false,"rental_uris":{"android":"levelo://app?vid=dd1353ca-73d1-4979-b13d-9de7bdefe8cc","ios":"levelo://app?vid=dd1353ca-73d1-4979-b13d-9de7bdefe8cc"},"vehicle_type_id":"4","last_reported":1720023036,"current_range_meters":18400,"station_id":"ce4bgj12rcd13ifvqbc0","pricing_plan_id":"cebpf4jnsgd1na2vs0mg"},{"bike_id":"1b1a821e-77a5-47d8-b71d-b591ea16281c","system_id":"levelo_inurba_marseille","lat":43.317557,"lon":5.390173,"is_reserved":false,"is_disabled":false,"rental_uris":{"android":"levelo://app?vid=1b1a821e-77a5-47d8-b71d-b591ea16281c","ios":"levelo://app?vid=1b1a821e-77a5-47d8-b71d-b591ea16281c"},"vehicle_type_id":"4","last_reported":1720023036,"current_range_meters":18400,"station_id":"ce4bhqp2rcd13ifvqhng","pricing_plan_id":"cebpf4jnsgd1na2vs0mg"},{"bike_id":"4f814384-3dbd-4811-a86e-5378a4839800","system_id":"levelo_inurba_marseille","lat":43.295748,"lon":5.37522,"is_reserved":false,"is_disabled":false,"rental_uris":{"android":"levelo://app?vid=4f814384-3dbd-4811-a86e-5378a4839800","ios":"levelo://app?vid=4f814384-3dbd-4811-a86e-5378a4839800"},"vehicle_type_id":"4","last_reported":1720023036,"current_range_meters":5600,"station_id":"ce4bgh92rcd13ifvqb50","pricing_plan_id":"cebpf4jnsgd1na2vs0mg"},{"bike_id":"849fcea7-1c47-4f90-a44a-0de2309ecae9","system_id":"levelo_inurba_marseille","lat":43.304274,"lon":5.388873,"is_reserved":false,"is_disabled":false,"rental_uris":{"android":"levelo://app?vid=849fcea7-1c47-4f90-a44a-0de2309ecae9","ios":"levelo://app?vid=849fcea7-1c47-4f90-a44a-0de2309ecae9"},"vehicle_type_id":"4","last_reported":1720023036,"current_range_meters":13200,"station_id":"ce4bgk12rcd13ifvqbi0","pricing_plan_id":"cebpf4jnsgd1na2vs0mg"},{"bike_id":"3b5ca8b5-1cec-4cb1-8c95-5b6d53a951ed","system_id":"levelo_inurba_marseille","lat":43.29574,"lon":5.37509,"is_reserved":false,"is_disabled":false,"rental_uris":{"android":"levelo://app?vid=3b5ca8b5-1cec-4cb1-8c95-5b6d53a951ed","ios":"levelo://app?vid=3b5ca8b5-1cec-4cb1-8c95-5b6d53a951ed"},"vehicle_type_id":"4","last_reported":1720023036,"current_range_meters":9600,"station_id":"ce4bgh92rcd13ifvqb50","pricing_plan_id":"cebpf4jnsgd1na2vs0mg"},{"bike_id":"87683a21-fef6-41e7-802c-1867d5945101","system_id":"levelo_inurba_marseille","lat":43.29782,"lon":5.38085,"is_reserved":false,"is_disabled":false,"rental_uris":{"android":"levelo://app?vid=87683a21-fef6-41e7-802c-1867d5945101","ios":"levelo://app?vid=87683a21-fef6-41e7-802c-1867d5945101"},"vehicle_type_id":"4","last_reported":1720023036,"current_range_meters":0,"station_id":"ce4bgip2rcd13ifvqbb0","pricing_plan_id":"cebpf4jnsgd1na2vs0mg"},{"bike_id":"10da4a8b-ef6a-4f24-8854-d7591c68f11d","system_id":"levelo_inurba_marseille","lat":43.295748,"lon":5.37522,"is_reserved":false,"is_disabled":false,"rental_uris":{"android":"levelo://app?vid=10da4a8b-ef6a-4f24-8854-d7591c68f11d","ios":"levelo://app?vid=10da4a8b-ef6a-4f24-8854-d7591c68f11d"},"vehicle_type_id":"4","last_reported":1720023036,"current_range_meters":0,"station_id":"ce4bgh92rcd13ifvqb50","pricing_plan_id":"cebpf4jnsgd1na2vs0mg"},{"bike_id":"ba7dba44-478c-4285-bdff-b2c3bee0a181","system_id":"levelo_inurba_marseille","lat":43.296263,"lon":5.377094,"is_reserved":false,"is_disabled":false,"rental_uris":{"android":"levelo://app?vid=ba7dba44-478c-4285-bdff-b2c3bee0a181","ios":"levelo://app?vid=ba7dba44-478c-4285-bdff-b2c3bee0a181"},"vehicle_type_id":"4","last_reported":1720023036,"current_range_meters":2800,"station_id":"ce4bgi92rcd13ifvqb90","pricing_plan_id":"cebpf4jnsgd1na2vs0mg"},{"bike_id":"3e605fa7-8af3-4ba0-9f9b-beca41a325bb","system_id":"levelo_inurba_marseille","lat":43.299707,"lon":5.384859,"is_reserved":false,"is_disabled":false,"rental_uris":{"android":"levelo://app?vid=3e605fa7-8af3-4ba0-9f9b-beca41a325bb","ios":"levelo://app?vid=3e605fa7-8af3-4ba0-9f9b-beca41a325bb"},"vehicle_type_id":"4","last_reported":1720023036,"current_range_meters":0,"station_id":"ce4bgj92rcd13ifvqbd0","pricing_plan_id":"cebpf4jnsgd1na2vs0mg"},{"bike_id":"5603b531-9322-4239-86a6-d54e7a2fbfa5","system_id":"levelo_inurba_marseille","lat":43.29969,"lon":5.38492,"is_reserved":false,"is_disabled":false,"rental_uris":{"android":"levelo://app?vid=5603b531-9322-4239-86a6-d54e7a2fbfa5","ios":"levelo://app?vid=5603b531-9322-4239-86a6-d54e7a2fbfa5"},"vehicle_type_id":"4","last_reported":1720023036,"current_range_meters":0,"station_id":"ce4bgj92rcd13ifvqbd0","pricing_plan_id":"cebpf4jnsgd1na2vs0mg"},{"bike_id":"ea394b8f-b9e8-417d-98d5-94167751cde9","system_id":"levelo_inurba_marseille","lat":43.299717,"lon":5.384845,"is_reserved":false,"is_disabled":false,"rental_uris":{"android":"levelo://app?vid=ea394b8f-b9e8-417d-98d5-94167751cde9","ios":"levelo://app?vid=ea394b8f-b9e8-417d-98d5-94167751cde9"},"vehicle_type_id":"4","last_reported":1720023036,"current_range_meters":27200,"station_id":"ce4bgj92rcd13ifvqbd0","pricing_plan_id":"cebpf4jnsgd1na2vs0mg"},{"bike_id":"957d4468-e690-4689-8df0-0fe1edaca966","system_id":"levelo_inurba_marseille","lat":43.299707,"lon":5.384859,"is_reserved":false,"is_disabled":false,"rental_uris":{"android":"levelo://app?vid=957d4468-e690-4689-8df0-0fe1edaca966","ios":"levelo://app?vid=957d4468-e690-4689-8df0-0fe1edaca966"},"vehicle_type_id":"4","last_reported":1720023036,"current_range_meters":15600,"station_id":"ce4bgj92rcd13ifvqbd0","pricing_plan_id":"cebpf4jnsgd1na2vs0mg"},{"bike_id":"75fca252-a3cb-4230-85e9-62f50bfbd036","system_id":"levelo_inurba_marseille","lat":43.295279,"lon":5.375048,"is_reserved":false,"is_disabled":false,"rental_uris":{"android":"levelo://app?vid=75fca252-a3cb-4230-85e9-62f50bfbd036","ios":"levelo://app?vid=75fca252-a3cb-4230-85e9-62f50bfbd036"},"vehicle_type_id":"4","last_reported":1720023036,"current_range_meters":2000,"station_id":"ce4bgkp2rcd13ifvqbmg","pricing_plan_id":"cebpf4jnsgd1na2vs0mg"},{"bike_id":"c1973b92-2f53-44f7-ba85-9b90931a2a28","system_id":"levelo_inurba_marseille","lat":43.30136,"lon":5.38773,"is_reserved":false,"is_disabled":false,"rental_uris":{"android":"levelo://app?vid=c1973b92-2f53-44f7-ba85-9b90931a2a28","ios":"levelo://app?vid=c1973b92-2f53-44f7-ba85-9b90931a2a28"},"vehicle_type_id":"4","last_reported":1720023036,"current_range_meters":23200,"station_id":"ce4bghh2rcd13ifvqb60","pricing_plan_id":"cebpf4jnsgd1na2vs0mg"},{"bike_id":"1b8c13ce-e83a-4de3-8998-4db4f1d51f18","system_id":"levelo_inurba_marseille","lat":43.301396,"lon":5.387812,"is_reserved":false,"is_disabled":false,"rental_uris":{"android":"levelo://app?vid=1b8c13ce-e83a-4de3-8998-4db4f1d51f18","ios":"levelo://app?vid=1b8c13ce-e83a-4de3-8998-4db4f1d51f18"},"vehicle_type_id":"4","last_reported":1720023036,"current_range_meters":0,"station_id":"ce4bghh2rcd13ifvqb60","pricing_plan_id":"cebpf4jnsgd1na2vs0mg"},{"bike_id":"0f852103-f586-4cbe-8bdb-b46721cc31f5","system_id":"levelo_inurba_marseille","lat":43.32368,"lon":5.38882,"is_reserved":false,"is_disabled":false,"rental_uris":{"android":"levelo://app?vid=0f852103-f586-4cbe-8bdb-b46721cc31f5","ios":"levelo://app?vid=0f852103-f586-4cbe-8bdb-b46721cc31f5"},"vehicle_type_id":"4","last_reported":1720023036,"current_range_meters":0,"station_id":"ce4bhqp2rcd13ifvqhog","pricing_plan_id":"cebpf4jnsgd1na2vs0mg"},{"bike_id":"7c36eb43-997c-41c2-bce3-85a854343da7","system_id":"levelo_inurba_marseille","lat":43.293067,"lon":5.371812,"is_reserved":false,"is_disabled":false,"rental_uris":{"android":"levelo://app?vid=7c36eb43-997c-41c2-bce3-85a854343da7","ios":"levelo://app?vid=7c36eb43-997c-41c2-bce3-85a854343da7"},"vehicle_type_id":"4","last_reported":1720023036,"current_range_meters":21200,"station_id":"","pricing_plan_id":"cebpf4jnsgd1na2vs0mg"},{"bike_id":"bf30b5b0-15f9-4081-8ff8-2349e5e16a2f","system_id":"levelo_inurba_marseille","lat":43.305994,"lon":5.393687,"is_reserved":false,"is_disabled":false,"rental_uris":{"android":"levelo://app?vid=bf30b5b0-15f9-4081-8ff8-2349e5e16a2f","ios":"levelo://app?vid=bf30b5b0-15f9-4081-8ff8-2349e5e16a2f"},"vehicle_type_id":"4","last_reported":1720023036,"current_range_meters":5600,"station_id":"ce4bh0p2rcd13ifvqd80","pricing_plan_id":"cebpf4jnsgd1na2vs0mg"},{"bike_id":"adc05f77-3783-47f3-95ac-4add34029529","system_id":"levelo_inurba_marseille","lat":43.30469,"lon":5.39341,"is_reserved":false,"is_disabled":false,"rental_uris":{"android":"levelo://app?vid=adc05f77-3783-47f3-95ac-4add34029529","ios":"levelo://app?vid=adc05f77-3783-47f3-95ac-4add34029529"},"vehicle_type_id":"4","last_reported":1720023036,"current_range_meters":18000,"station_id":"","pricing_plan_id":"cebpf4jnsgd1na2vs0mg"},{"bike_id":"df8d2efc-cb0a-4d1b-8168-9fc8bc8908cd","system_id":"levelo_inurba_marseille","lat":43.2936,"lon":5.37835,"is_reserved":false,"is_disabled":false,"rental_uris":{"android":"levelo://app?vid=df8d2efc-cb0a-4d1b-8168-9fc8bc8908cd","ios":"levelo://app?vid=df8d2efc-cb0a-4d1b-8168-9fc8bc8908cd"},"vehicle_type_id":"4","last_reported":1720023036,"current_range_meters":2400,"station_id":"ce4bgjh2rcd13ifvqbf0","pricing_plan_id":"cebpf4jnsgd1na2vs0mg"},{"bike_id":"cae91818-ee71-4b6d-a280-434eaae6aa25","system_id":"levelo_inurba_marseille","lat":43.29232,"lon":5.36064,"is_reserved":false,"is_disabled":false,"rental_uris":{"android":"levelo://app?vid=cae91818-ee71-4b6d-a280-434eaae6aa25","ios":"levelo://app?vid=cae91818-ee71-4b6d-a280-434eaae6aa25"},"vehicle_type_id":"4","last_reported":1720023036,"current_range_meters":14800,"station_id":"ce4bhbh2rcd13ifvqeqg","pricing_plan_id":"cebpf4jnsgd1na2vs0mg"},{"bike_id":"bc3c710a-6e3e-4c0c-bb4a-12794ee0a8b5","system_id":"levelo_inurba_marseille","lat":43.29361,"lon":5.37872,"is_reserved":false,"is_disabled":false,"rental_uris":{"android":"levelo://app?vid=bc3c710a-6e3e-4c0c-bb4a-12794ee0a8b5","ios":"levelo://app?vid=bc3c710a-6e3e-4c0c-bb4a-12794ee0a8b5"},"vehicle_type_id":"4","last_reported":1720023036,"current_range_meters":9600,"station_id":"ce4bgjh2rcd13ifvqbf0","pricing_plan_id":"cebpf4jnsgd1na2vs0mg"},{"bike_id":"e36be1ec-dfcc-43d6-94a1-695bdc8c4df9","system_id":"levelo_inurba_marseille","lat":43.292311,"lon":5.360731,"is_reserved":false,"is_disabled":false,"rental_uris":{"android":"levelo://app?vid=e36be1ec-dfcc-43d6-94a1-695bdc8c4df9","ios":"levelo://app?vid=e36be1ec-dfcc-43d6-94a1-695bdc8c4df9"},"vehicle_type_id":"4","last_reported":1720023036,"current_range_meters":29600,"station_id":"ce4bhbh2rcd13ifvqeqg","pricing_plan_id":"cebpf4jnsgd1na2vs0mg"},{"bike_id":"d6668e11-7fdb-4890-8260-c7a3ff8ed0aa","system_id":"levelo_inurba_marseille","lat":43.292311,"lon":5.360731,"is_reserved":false,"is_disabled":false,"rental_uris":{"android":"levelo://app?vid=d6668e11-7fdb-4890-8260-c7a3ff8ed0aa","ios":"levelo://app?vid=d6668e11-7fdb-4890-8260-c7a3ff8ed0aa"},"vehicle_type_id":"4","last_reported":1720023036,"current_range_meters":15600,"station_id":"ce4bhbh2rcd13ifvqeqg","pricing_plan_id":"cebpf4jnsgd1na2vs0mg"},{"bike_id":"ca4dfa99-07e8-4236-b8e4-e2b1e2687a04","system_id":"levelo_inurba_marseille","lat":43.292311,"lon":5.360731,"is_reserved":false,"is_disabled":false,"rental_uris":{"android":"levelo://app?vid=ca4dfa99-07e8-4236-b8e4-e2b1e2687a04","ios":"levelo://app?vid=ca4dfa99-07e8-4236-b8e4-e2b1e2687a04"},"vehicle_type_id":"4","last_reported":1720023036,"current_range_meters":2400,"station_id":"ce4bhbh2rcd13ifvqeqg","pricing_plan_id":"cebpf4jnsgd1na2vs0mg"},{"bike_id":"991ee93c-a33b-43ef-bc20-adb8ff9308ca","system_id":"levelo_inurba_marseille","lat":43.30085,"lon":5.390856,"is_reserved":false,"is_disabled":false,"rental_uris":{"android":"levelo://app?vid=991ee93c-a33b-43ef-bc20-adb8ff9308ca","ios":"levelo://app?vid=991ee93c-a33b-43ef-bc20-adb8ff9308ca"},"vehicle_type_id":"4","last_reported":1720023036,"current_range_meters":2800,"station_id":"ce4bh192rcd13ifvqdb0","pricing_plan_id":"cebpf4jnsgd1na2vs0mg"},{"bike_id":"7d2b3dec-e7d0-4e1d-a75a-8db146afcbdf","system_id":"levelo_inurba_marseille","lat":43.292311,"lon":5.360731,"is_reserved":false,"is_disabled":false,"rental_uris":{"android":"levelo://app?vid=7d2b3dec-e7d0-4e1d-a75a-8db146afcbdf","ios":"levelo://app?vid=7d2b3dec-e7d0-4e1d-a75a-8db146afcbdf"},"vehicle_type_id":"4","last_reported":1720023036,"current_range_meters":25200,"station_id":"ce4bhbh2rcd13ifvqeqg","pricing_plan_id":"cebpf4jnsgd1na2vs0mg"},{"bike_id":"e88c13b7-690a-4c32-9f33-3b5f41e672c9","system_id":"levelo_inurba_marseille","lat":43.292311,"lon":5.360731,"is_reserved":false,"is_disabled":false,"rental_uris":{"android":"levelo://app?vid=e88c13b7-690a-4c32-9f33-3b5f41e672c9","ios":"levelo://app?vid=e88c13b7-690a-4c32-9f33-3b5f41e672c9"},"vehicle_type_id":"4","last_reported":1720023036,"current_range_meters":17600,"station_id":"ce4bhbh2rcd13ifvqeqg","pricing_plan_id":"cebpf4jnsgd1na2vs0mg"},{"bike_id":"fec4796b-e10b-4713-811b-f177a0870691","system_id":"levelo_inurba_marseille","lat":43.292311,"lon":5.360731,"is_reserved":false,"is_disabled":false,"rental_uris":{"android":"levelo://app?vid=fec4796b-e10b-4713-811b-f177a0870691","ios":"levelo://app?vid=fec4796b-e10b-4713-811b-f177a0870691"},"vehicle_type_id":"4","last_reported":1720023036,"current_range_meters":14800,"station_id":"ce4bhbh2rcd13ifvqeqg","pricing_plan_id":"cebpf4jnsgd1na2vs0mg"},{"bike_id":"e23e3c21-56e4-4457-b727-f7d64054dda7","system_id":"levelo_inurba_marseille","lat":43.30085,"lon":5.390856,"is_reserved":false,"is_disabled":false,"rental_uris":{"android":"levelo://app?vid=e23e3c21-56e4-4457-b727-f7d64054dda7","ios":"levelo://app?vid=e23e3c21-56e4-4457-b727-f7d64054dda7"},"vehicle_type_id":"4","last_reported":1720023036,"current_range_meters":0,"station_id":"ce4bh192rcd13ifvqdb0","pricing_plan_id":"cebpf4jnsgd1na2vs0mg"},{"bike_id":"7d57bd1c-fd15-480b-8021-0a7cd49f8a3a","system_id":"levelo_inurba_marseille","lat":43.292311,"lon":5.360731,"is_reserved":false,"is_disabled":false,"rental_uris":{"android":"levelo://app?vid=7d57bd1c-fd15-480b-8021-0a7cd49f8a3a","ios":"levelo://app?vid=7d57bd1c-fd15-480b-8021-0a7cd49f8a3a"},"vehicle_type_id":"4","last_reported":1720023036,"current_range_meters":20400,"station_id":"ce4bhbh2rcd13ifvqeqg","pricing_plan_id":"cebpf4jnsgd1na2vs0mg"},{"bike_id":"1a7d7be8-97e0-42d5-8863-5707ae2cbeec","system_id":"levelo_inurba_marseille","lat":43.291675,"lon":5.371583,"is_reserved":false,"is_disabled":false,"rental_uris":{"android":"levelo://app?vid=1a7d7be8-97e0-42d5-8863-5707ae2cbeec","ios":"levelo://app?vid=1a7d7be8-97e0-42d5-8863-5707ae2cbeec"},"vehicle_type_id":"4","last_reported":1720023036,"current_range_meters":12400,"station_id":"ce4bha92rcd13ifvqeh0","pricing_plan_id":"cebpf4jnsgd1na2vs0mg"},{"bike_id":"a95e6978-8522-4c9c-9575-03b94e0806f3","system_id":"levelo_inurba_marseille","lat":43.291675,"lon":5.371583,"is_reserved":false,"is_disabled":false,"rental_uris":{"android":"levelo://app?vid=a95e6978-8522-4c9c-9575-03b94e0806f3","ios":"levelo://app?vid=a95e6978-8522-4c9c-9575-03b94e0806f3"},"vehicle_type_id":"4","last_reported":1720023036,"current_range_meters":9600,"station_id":"ce4bha92rcd13ifvqeh0","pricing_plan_id":"cebpf4jnsgd1na2vs0mg"},{"bike_id":"b694c30a-0aa8-4763-bc4c-0ff9716e3811","system_id":"levelo_inurba_marseille","lat":43.291994,"lon":5.357886,"is_reserved":false,"is_disabled":false,"rental_uris":{"android":"levelo://app?vid=b694c30a-0aa8-4763-bc4c-0ff9716e3811","ios":"levelo://app?vid=b694c30a-0aa8-4763-bc4c-0ff9716e3811"},"vehicle_type_id":"4","last_reported":1720023036,"current_range_meters":10000,"station_id":"ce4bhb12rcd13ifvqel0","pricing_plan_id":"cebpf4jnsgd1na2vs0mg"},{"bike_id":"b18bee83-2cc0-4ec1-832c-6afcd423386d","system_id":"levelo_inurba_marseille","lat":43.291994,"lon":5.357886,"is_reserved":false,"is_disabled":false,"rental_uris":{"android":"levelo://app?vid=b18bee83-2cc0-4ec1-832c-6afcd423386d","ios":"levelo://app?vid=b18bee83-2cc0-4ec1-832c-6afcd423386d"},"vehicle_type_id":"4","last_reported":1720023036,"current_range_meters":0,"station_id":"ce4bhb12rcd13ifvqel0","pricing_plan_id":"cebpf4jnsgd1na2vs0mg"},{"bike_id":"1b7ce9a0-42b1-4801-afa0-98c45c93cc8b","system_id":"levelo_inurba_marseille","lat":43.291994,"lon":5.357886,"is_reserved":false,"is_disabled":false,"rental_uris":{"android":"levelo://app?vid=1b7ce9a0-42b1-4801-afa0-98c45c93cc8b","ios":"levelo://app?vid=1b7ce9a0-42b1-4801-afa0-98c45c93cc8b"},"vehicle_type_id":"4","last_reported":1720023036,"current_range_meters":5600,"station_id":"ce4bhb12rcd13ifvqel0","pricing_plan_id":"cebpf4jnsgd1na2vs0mg"},{"bike_id":"2b3fca51-7ed3-4d62-8b5d-159aaccf624e","system_id":"levelo_inurba_marseille","lat":43.313291,"lon":5.396838,"is_reserved":false,"is_disabled":false,"rental_uris":{"android":"levelo://app?vid=2b3fca51-7ed3-4d62-8b5d-159aaccf624e","ios":"levelo://app?vid=2b3fca51-7ed3-4d62-8b5d-159aaccf624e"},"vehicle_type_id":"4","last_reported":1720023036,"current_range_meters":3200,"station_id":"ce4bgvp2rcd13ifvqcu0","pricing_plan_id":"cebpf4jnsgd1na2vs0mg"},{"bike_id":"232e37b0-752e-49e7-a21d-86f204e990d1","system_id":"levelo_inurba_marseille","lat":43.313291,"lon":5.396838,"is_reserved":false,"is_disabled":false,"rental_uris":{"android":"levelo://app?vid=232e37b0-752e-49e7-a21d-86f204e990d1","ios":"levelo://app?vid=232e37b0-752e-49e7-a21d-86f204e990d1"},"vehicle_type_id":"4","last_reported":1720023036,"current_range_meters":6800,"station_id":"ce4bgvp2rcd13ifvqcu0","pricing_plan_id":"cebpf4jnsgd1na2vs0mg"},{"bike_id":"a1d7a1d5-3ef2-4918-8aad-036e3151b09a","system_id":"levelo_inurba_marseille","lat":43.309038,"lon":5.396546,"is_reserved":false,"is_disabled":false,"rental_uris":{"android":"levelo://app?vid=a1d7a1d5-3ef2-4918-8aad-036e3151b09a","ios":"levelo://app?vid=a1d7a1d5-3ef2-4918-8aad-036e3151b09a"},"vehicle_type_id":"4","last_reported":1720023036,"current_range_meters":4400,"station_id":"ce4bh012rcd13ifvqcv0","pricing_plan_id":"cebpf4jnsgd1na2vs0mg"},{"bike_id":"cafe81a2-361f-41ad-85ce-f45f303e534b","system_id":"levelo_inurba_marseille","lat":43.29533,"lon":5.38534,"is_reserved":false,"is_disabled":false,"rental_uris":{"android":"levelo://app?vid=cafe81a2-361f-41ad-85ce-f45f303e534b","ios":"levelo://app?vid=cafe81a2-361f-41ad-85ce-f45f303e534b"},"vehicle_type_id":"4","last_reported":1720023036,"current_range_meters":0,"station_id":"ce4bgih2rcd13ifvqba0","pricing_plan_id":"cebpf4jnsgd1na2vs0mg"},{"bike_id":"ceb7f814-185c-4704-93bf-d2a510aef33d","system_id":"levelo_inurba_marseille","lat":43.29536,"lon":5.38552,"is_reserved":false,"is_disabled":false,"rental_uris":{"android":"levelo://app?vid=ceb7f814-185c-4704-93bf-d2a510aef33d","ios":"levelo://app?vid=ceb7f814-185c-4704-93bf-d2a510aef33d"},"vehicle_type_id":"4","last_reported":1720023036,"current_range_meters":0,"station_id":"ce4bgih2rcd13ifvqba0","pricing_plan_id":"cebpf4jnsgd1na2vs0mg"},{"bike_id":"d625de34-17b9-4bde-b963-fb605883a67f","system_id":"levelo_inurba_marseille","lat":43.29533,"lon":5.38547,"is_reserved":false,"is_disabled":false,"rental_uris":{"android":"levelo://app?vid=d625de34-17b9-4bde-b963-fb605883a67f","ios":"levelo://app?vid=d625de34-17b9-4bde-b963-fb605883a67f"},"vehicle_type_id":"4","last_reported":1720023036,"current_range_meters":0,"station_id":"ce4bgih2rcd13ifvqba0","pricing_plan_id":"cebpf4jnsgd1na2vs0mg"},{"bike_id":"731a3fa3-30bb-4bc6-bea0-bb37a18f5d6d","system_id":"levelo_inurba_marseille","lat":43.29529,"lon":5.385581,"is_reserved":false,"is_disabled":false,"rental_uris":{"android":"levelo://app?vid=731a3fa3-30bb-4bc6-bea0-bb37a18f5d6d","ios":"levelo://app?vid=731a3fa3-30bb-4bc6-bea0-bb37a18f5d6d"},"vehicle_type_id":"4","last_reported":1720023036,"current_range_meters":6400,"station_id":"ce4bgih2rcd13ifvqba0","pricing_plan_id":"cebpf4jnsgd1na2vs0mg"},{"bike_id":"9ae305da-70ce-4493-93f4-259a3c7b3e6e","system_id":"levelo_inurba_marseille","lat":43.290779,"lon":5.371482,"is_reserved":false,"is_disabled":false,"rental_uris":{"android":"levelo://app?vid=9ae305da-70ce-4493-93f4-259a3c7b3e6e","ios":"levelo://app?vid=9ae305da-70ce-4493-93f4-259a3c7b3e6e"},"vehicle_type_id":"4","last_reported":1720023036,"current_range_meters":0,"station_id":"ce4bh5p2rcd13ifvqe4g","pricing_plan_id":"cebpf4jnsgd1na2vs0mg"},{"bike_id":"ecf76737-c623-49ac-9935-cbae856175db","system_id":"levelo_inurba_marseille","lat":43.290779,"lon":5.371482,"is_reserved":false,"is_disabled":false,"rental_uris":{"android":"levelo://app?vid=ecf76737-c623-49ac-9935-cbae856175db","ios":"levelo://app?vid=ecf76737-c623-49ac-9935-cbae856175db"},"vehicle_type_id":"4","last_reported":1720023036,"current_range_meters":18000,"station_id":"ce4bh5p2rcd13ifvqe4g","pricing_plan_id":"cebpf4jnsgd1na2vs0mg"},{"bike_id":"c55f6313-c2cb-4e89-9757-12c671d92961","system_id":"levelo_inurba_marseille","lat":43.290779,"lon":5.371482,"is_reserved":false,"is_disabled":false,"rental_uris":{"android":"levelo://app?vid=c55f6313-c2cb-4e89-9757-12c671d92961","ios":"levelo://app?vid=c55f6313-c2cb-4e89-9757-12c671d92961"},"vehicle_type_id":"4","last_reported":1720023036,"current_range_meters":0,"station_id":"ce4bh5p2rcd13ifvqe4g","pricing_plan_id":"cebpf4jnsgd1na2vs0mg"},{"bike_id":"deb975ad-bdc3-425c-91b8-0f3e9daef0e3","system_id":"levelo_inurba_marseille","lat":43.290631,"lon":5.359244,"is_reserved":false,"is_disabled":false,"rental_uris":{"android":"levelo://app?vid=deb975ad-bdc3-425c-91b8-0f3e9daef0e3","ios":"levelo://app?vid=deb975ad-bdc3-425c-91b8-0f3e9daef0e3"},"vehicle_type_id":"4","last_reported":1720023036,"current_range_meters":0,"station_id":"ce4bha92rcd13ifvqeg0","pricing_plan_id":"cebpf4jnsgd1na2vs0mg"},{"bike_id":"aab26ade-c6c9-4142-ba45-aab5fc9390aa","system_id":"levelo_inurba_marseille","lat":43.294153,"lon":5.386305,"is_reserved":false,"is_disabled":false,"rental_uris":{"android":"levelo://app?vid=aab26ade-c6c9-4142-ba45-aab5fc9390aa","ios":"levelo://app?vid=aab26ade-c6c9-4142-ba45-aab5fc9390aa"},"vehicle_type_id":"4","last_reported":1720023036,"current_range_meters":2000,"station_id":"ce4bh2h2rcd13ifvqdh0","pricing_plan_id":"cebpf4jnsgd1na2vs0mg"},{"bike_id":"d04ab818-3f6c-42d2-8597-0034a9cde45b","system_id":"levelo_inurba_marseille","lat":43.294162,"lon":5.386292,"is_reserved":false,"is_disabled":false,"rental_uris":{"android":"levelo://app?vid=d04ab818-3f6c-42d2-8597-0034a9cde45b","ios":"levelo://app?vid=d04ab818-3f6c-42d2-8597-0034a9cde45b"},"vehicle_type_id":"4","last_reported":1720023036,"current_range_meters":20800,"station_id":"ce4bh2h2rcd13ifvqdh0","pricing_plan_id":"cebpf4jnsgd1na2vs0mg"},{"bike_id":"a5ec50f9-0488-4d4f-8aaa-25261381bc82","system_id":"levelo_inurba_marseille","lat":43.294153,"lon":5.386305,"is_reserved":false,"is_disabled":false,"rental_uris":{"android":"levelo://app?vid=a5ec50f9-0488-4d4f-8aaa-25261381bc82","ios":"levelo://app?vid=a5ec50f9-0488-4d4f-8aaa-25261381bc82"},"vehicle_type_id":"4","last_reported":1720023036,"current_range_meters":10800,"station_id":"ce4bh2h2rcd13ifvqdh0","pricing_plan_id":"cebpf4jnsgd1na2vs0mg"},{"bike_id":"79f8f86f-5c78-43a1-9350-ad42c15f3f62","system_id":"levelo_inurba_marseille","lat":43.294153,"lon":5.386305,"is_reserved":false,"is_disabled":false,"rental_uris":{"android":"levelo://app?vid=79f8f86f-5c78-43a1-9350-ad42c15f3f62","ios":"levelo://app?vid=79f8f86f-5c78-43a1-9350-ad42c15f3f62"},"vehicle_type_id":"4","last_reported":1720023036,"current_range_meters":12000,"station_id":"ce4bh2h2rcd13ifvqdh0","pricing_plan_id":"cebpf4jnsgd1na2vs0mg"},{"bike_id":"ffdb2ff8-375c-4119-af56-a7865a27b1e3","system_id":"levelo_inurba_marseille","lat":43.290327,"lon":5.375711,"is_reserved":false,"is_disabled":false,"rental_uris":{"android":"levelo://app?vid=ffdb2ff8-375c-4119-af56-a7865a27b1e3","ios":"levelo://app?vid=ffdb2ff8-375c-4119-af56-a7865a27b1e3"},"vehicle_type_id":"4","last_reported":1720023036,"current_range_meters":4800,"station_id":"ce4bh692rcd13ifvqe90","pricing_plan_id":"cebpf4jnsgd1na2vs0mg"},{"bike_id":"3da2b840-7840-42c3-a61e-7a34885f6ed5","system_id":"levelo_inurba_marseille","lat":43.294153,"lon":5.386305,"is_reserved":false,"is_disabled":false,"rental_uris":{"android":"levelo://app?vid=3da2b840-7840-42c3-a61e-7a34885f6ed5","ios":"levelo://app?vid=3da2b840-7840-42c3-a61e-7a34885f6ed5"},"vehicle_type_id":"4","last_reported":1720023036,"current_range_meters":6800,"station_id":"ce4bh2h2rcd13ifvqdh0","pricing_plan_id":"cebpf4jnsgd1na2vs0mg"},{"bike_id":"31586c70-1ad4-48a2-b09a-3ad07bbca92f","system_id":"levelo_inurba_marseille","lat":43.294162,"lon":5.386292,"is_reserved":false,"is_disabled":false,"rental_uris":{"android":"levelo://app?vid=31586c70-1ad4-48a2-b09a-3ad07bbca92f","ios":"levelo://app?vid=31586c70-1ad4-48a2-b09a-3ad07bbca92f"},"vehicle_type_id":"4","last_reported":1720023036,"current_range_meters":20800,"station_id":"ce4bh2h2rcd13ifvqdh0","pricing_plan_id":"cebpf4jnsgd1na2vs0mg"},{"bike_id":"858f5823-ef75-42db-b612-b8d594a9282c","system_id":"levelo_inurba_marseille","lat":43.294162,"lon":5.386292,"is_reserved":false,"is_disabled":false,"rental_uris":{"android":"levelo://app?vid=858f5823-ef75-42db-b612-b8d594a9282c","ios":"levelo://app?vid=858f5823-ef75-42db-b612-b8d594a9282c"},"vehicle_type_id":"4","last_reported":1720023036,"current_range_meters":0,"station_id":"ce4bh2h2rcd13ifvqdh0","pricing_plan_id":"cebpf4jnsgd1na2vs0mg"},{"bike_id":"ec0b7753-65e2-486b-b4b6-0b1647edb55e","system_id":"levelo_inurba_marseille","lat":43.29417,"lon":5.38624,"is_reserved":false,"is_disabled":false,"rental_uris":{"android":"levelo://app?vid=ec0b7753-65e2-486b-b4b6-0b1647edb55e","ios":"levelo://app?vid=ec0b7753-65e2-486b-b4b6-0b1647edb55e"},"vehicle_type_id":"4","last_reported":1720023036,"current_range_meters":0,"station_id":"ce4bh2h2rcd13ifvqdh0","pricing_plan_id":"cebpf4jnsgd1na2vs0mg"},{"bike_id":"f2a6b143-e7d7-429c-aba3-84a8c7c0998f","system_id":"levelo_inurba_marseille","lat":43.305364,"lon":5.384119,"is_reserved":false,"is_disabled":false,"rental_uris":{"android":"levelo://app?vid=f2a6b143-e7d7-429c-aba3-84a8c7c0998f","ios":"levelo://app?vid=f2a6b143-e7d7-429c-aba3-84a8c7c0998f"},"vehicle_type_id":"4","last_reported":1720023036,"current_range_meters":4400,"station_id":"ce4bgg92rcd13ifvqb30","pricing_plan_id":"cebpf4jnsgd1na2vs0mg"},{"bike_id":"b6bdaacc-4b4d-4375-b3db-179ce6f155e4","system_id":"levelo_inurba_marseille","lat":43.294162,"lon":5.386292,"is_reserved":false,"is_disabled":false,"rental_uris":{"android":"levelo://app?vid=b6bdaacc-4b4d-4375-b3db-179ce6f155e4","ios":"levelo://app?vid=b6bdaacc-4b4d-4375-b3db-179ce6f155e4"},"vehicle_type_id":"4","last_reported":1720023036,"current_range_meters":12800,"station_id":"ce4bh2h2rcd13ifvqdh0","pricing_plan_id":"cebpf4jnsgd1na2vs0mg"},{"bike_id":"2161861e-adc3-49b8-8cf9-55461afd031a","system_id":"levelo_inurba_marseille","lat":43.289184,"lon":5.366408,"is_reserved":false,"is_disabled":false,"rental_uris":{"android":"levelo://app?vid=2161861e-adc3-49b8-8cf9-55461afd031a","ios":"levelo://app?vid=2161861e-adc3-49b8-8cf9-55461afd031a"},"vehicle_type_id":"4","last_reported":1720023036,"current_range_meters":6000,"station_id":"ce4bhap2rcd13ifvqek0","pricing_plan_id":"cebpf4jnsgd1na2vs0mg"},{"bike_id":"0b383cb2-7783-44af-a4be-650b6aeb27e6","system_id":"levelo_inurba_marseille","lat":43.28939,"lon":5.36634,"is_reserved":false,"is_disabled":false,"rental_uris":{"android":"levelo://app?vid=0b383cb2-7783-44af-a4be-650b6aeb27e6","ios":"levelo://app?vid=0b383cb2-7783-44af-a4be-650b6aeb27e6"},"vehicle_type_id":"4","last_reported":1720023036,"current_range_meters":31600,"station_id":"ce4bhap2rcd13ifvqek0","pricing_plan_id":"cebpf4jnsgd1na2vs0mg"},{"bike_id":"81e948ab-f8b2-4b90-bb0b-d060dbc0e8d2","system_id":"levelo_inurba_marseille","lat":43.289184,"lon":5.366408,"is_reserved":false,"is_disabled":false,"rental_uris":{"android":"levelo://app?vid=81e948ab-f8b2-4b90-bb0b-d060dbc0e8d2","ios":"levelo://app?vid=81e948ab-f8b2-4b90-bb0b-d060dbc0e8d2"},"vehicle_type_id":"4","last_reported":1720023036,"current_range_meters":0,"station_id":"ce4bhap2rcd13ifvqek0","pricing_plan_id":"cebpf4jnsgd1na2vs0mg"},{"bike_id":"b0557533-a7a6-45be-8913-5d5903ba89ed","system_id":"levelo_inurba_marseille","lat":43.289184,"lon":5.366408,"is_reserved":false,"is_disabled":false,"rental_uris":{"android":"levelo://app?vid=b0557533-a7a6-45be-8913-5d5903ba89ed","ios":"levelo://app?vid=b0557533-a7a6-45be-8913-5d5903ba89ed"},"vehicle_type_id":"4","last_reported":1720023036,"current_range_meters":5200,"station_id":"ce4bhap2rcd13ifvqek0","pricing_plan_id":"cebpf4jnsgd1na2vs0mg"},{"bike_id":"6e54cea3-a065-44b6-918d-41f96591aff8","system_id":"levelo_inurba_marseille","lat":43.289184,"lon":5.366408,"is_reserved":false,"is_disabled":false,"rental_uris":{"android":"levelo://app?vid=6e54cea3-a065-44b6-918d-41f96591aff8","ios":"levelo://app?vid=6e54cea3-a065-44b6-918d-41f96591aff8"},"vehicle_type_id":"4","last_reported":1720023036,"current_range_meters":4800,"station_id":"ce4bhap2rcd13ifvqek0","pricing_plan_id":"cebpf4jnsgd1na2vs0mg"},{"bike_id":"c6fe280c-f04c-4a3f-bbf3-0f1bb064dbc2","system_id":"levelo_inurba_marseille","lat":43.289184,"lon":5.366408,"is_reserved":false,"is_disabled":false,"rental_uris":{"android":"levelo://app?vid=c6fe280c-f04c-4a3f-bbf3-0f1bb064dbc2","ios":"levelo://app?vid=c6fe280c-f04c-4a3f-bbf3-0f1bb064dbc2"},"vehicle_type_id":"4","last_reported":1720023036,"current_range_meters":6800,"station_id":"ce4bhap2rcd13ifvqek0","pricing_plan_id":"cebpf4jnsgd1na2vs0mg"},{"bike_id":"3cf40068-def1-4fdf-80f1-559a0a152728","system_id":"levelo_inurba_marseille","lat":43.289184,"lon":5.366408,"is_reserved":false,"is_disabled":false,"rental_uris":{"android":"levelo://app?vid=3cf40068-def1-4fdf-80f1-559a0a152728","ios":"levelo://app?vid=3cf40068-def1-4fdf-80f1-559a0a152728"},"vehicle_type_id":"4","last_reported":1720023036,"current_range_meters":1200,"station_id":"ce4bhap2rcd13ifvqek0","pricing_plan_id":"cebpf4jnsgd1na2vs0mg"},{"bike_id":"1fefaf91-2790-415f-ab98-ac19c602059b","system_id":"levelo_inurba_marseille","lat":43.289468,"lon":5.363719,"is_reserved":false,"is_disabled":false,"rental_uris":{"android":"levelo://app?vid=1fefaf91-2790-415f-ab98-ac19c602059b","ios":"levelo://app?vid=1fefaf91-2790-415f-ab98-ac19c602059b"},"vehicle_type_id":"4","last_reported":1720023036,"current_range_meters":11600,"station_id":"ce4bhc92rcd13ifvqetg","pricing_plan_id":"cebpf4jnsgd1na2vs0mg"},{"bike_id":"2c020dbe-bd53-400e-88b4-39ca6a8d6104","system_id":"levelo_inurba_marseille","lat":43.289468,"lon":5.363719,"is_reserved":false,"is_disabled":false,"rental_uris":{"android":"levelo://app?vid=2c020dbe-bd53-400e-88b4-39ca6a8d6104","ios":"levelo://app?vid=2c020dbe-bd53-400e-88b4-39ca6a8d6104"},"vehicle_type_id":"4","last_reported":1720023036,"current_range_meters":0,"station_id":"ce4bhc92rcd13ifvqetg","pricing_plan_id":"cebpf4jnsgd1na2vs0mg"},{"bike_id":"57520819-afd8-4694-b864-79494772fb63","system_id":"levelo_inurba_marseille","lat":43.289468,"lon":5.363719,"is_reserved":false,"is_disabled":false,"rental_uris":{"android":"levelo://app?vid=57520819-afd8-4694-b864-79494772fb63","ios":"levelo://app?vid=57520819-afd8-4694-b864-79494772fb63"},"vehicle_type_id":"4","last_reported":1720023036,"current_range_meters":9600,"station_id":"ce4bhc92rcd13ifvqetg","pricing_plan_id":"cebpf4jnsgd1na2vs0mg"},{"bike_id":"1ed9f4ad-bfbb-43bf-bd73-7f84957879c7","system_id":"levelo_inurba_marseille","lat":43.289468,"lon":5.363719,"is_reserved":false,"is_disabled":false,"rental_uris":{"android":"levelo://app?vid=1ed9f4ad-bfbb-43bf-bd73-7f84957879c7","ios":"levelo://app?vid=1ed9f4ad-bfbb-43bf-bd73-7f84957879c7"},"vehicle_type_id":"4","last_reported":1720023036,"current_range_meters":2800,"station_id":"ce4bhc92rcd13ifvqetg","pricing_plan_id":"cebpf4jnsgd1na2vs0mg"},{"bike_id":"4ac97728-69bb-4e03-9187-96e8c6cec23f","system_id":"levelo_inurba_marseille","lat":43.289468,"lon":5.363719,"is_reserved":false,"is_disabled":false,"rental_uris":{"android":"levelo://app?vid=4ac97728-69bb-4e03-9187-96e8c6cec23f","ios":"levelo://app?vid=4ac97728-69bb-4e03-9187-96e8c6cec23f"},"vehicle_type_id":"4","last_reported":1720023036,"current_range_meters":7600,"station_id":"ce4bhc92rcd13ifvqetg","pricing_plan_id":"cebpf4jnsgd1na2vs0mg"},{"bike_id":"e7b51383-2d46-4997-a76f-9a76826994d7","system_id":"levelo_inurba_marseille","lat":43.289468,"lon":5.363719,"is_reserved":false,"is_disabled":false,"rental_uris":{"android":"levelo://app?vid=e7b51383-2d46-4997-a76f-9a76826994d7","ios":"levelo://app?vid=e7b51383-2d46-4997-a76f-9a76826994d7"},"vehicle_type_id":"4","last_reported":1720023036,"current_range_meters":21600,"station_id":"ce4bhc92rcd13ifvqetg","pricing_plan_id":"cebpf4jnsgd1na2vs0mg"},{"bike_id":"d0e3adec-3f56-4ce6-b218-32593f815118","system_id":"levelo_inurba_marseille","lat":43.292642,"lon":5.384254,"is_reserved":false,"is_disabled":false,"rental_uris":{"android":"levelo://app?vid=d0e3adec-3f56-4ce6-b218-32593f815118","ios":"levelo://app?vid=d0e3adec-3f56-4ce6-b218-32593f815118"},"vehicle_type_id":"4","last_reported":1720023036,"current_range_meters":800,"station_id":"ce4bh692rcd13ifvqea0","pricing_plan_id":"cebpf4jnsgd1na2vs0mg"},{"bike_id":"ad8596b0-5953-41de-a1d0-a1625d794587","system_id":"levelo_inurba_marseille","lat":43.294162,"lon":5.386292,"is_reserved":false,"is_disabled":false,"rental_uris":{"android":"levelo://app?vid=ad8596b0-5953-41de-a1d0-a1625d794587","ios":"levelo://app?vid=ad8596b0-5953-41de-a1d0-a1625d794587"},"vehicle_type_id":"4","last_reported":1720023036,"current_range_meters":14400,"station_id":"ce4bh2h2rcd13ifvqdh0","pricing_plan_id":"cebpf4jnsgd1na2vs0mg"},{"bike_id":"7b78c081-853b-452d-9173-0e60554bb484","system_id":"levelo_inurba_marseille","lat":43.292642,"lon":5.384254,"is_reserved":false,"is_disabled":false,"rental_uris":{"android":"levelo://app?vid=7b78c081-853b-452d-9173-0e60554bb484","ios":"levelo://app?vid=7b78c081-853b-452d-9173-0e60554bb484"},"vehicle_type_id":"4","last_reported":1720023036,"current_range_meters":8000,"station_id":"ce4bh692rcd13ifvqea0","pricing_plan_id":"cebpf4jnsgd1na2vs0mg"},{"bike_id":"231baf15-9f40-4d5f-807f-5cc30e2f1a8f","system_id":"levelo_inurba_marseille","lat":43.292644,"lon":5.384257,"is_reserved":false,"is_disabled":false,"rental_uris":{"android":"levelo://app?vid=231baf15-9f40-4d5f-807f-5cc30e2f1a8f","ios":"levelo://app?vid=231baf15-9f40-4d5f-807f-5cc30e2f1a8f"},"vehicle_type_id":"4","last_reported":1720023036,"current_range_meters":3200,"station_id":"ce4bh692rcd13ifvqea0","pricing_plan_id":"cebpf4jnsgd1na2vs0mg"},{"bike_id":"37602c6d-acea-44da-80e4-9473ef1fd2a5","system_id":"levelo_inurba_marseille","lat":43.292644,"lon":5.384257,"is_reserved":false,"is_disabled":false,"rental_uris":{"android":"levelo://app?vid=37602c6d-acea-44da-80e4-9473ef1fd2a5","ios":"levelo://app?vid=37602c6d-acea-44da-80e4-9473ef1fd2a5"},"vehicle_type_id":"4","last_reported":1720023036,"current_range_meters":14800,"station_id":"ce4bh692rcd13ifvqea0","pricing_plan_id":"cebpf4jnsgd1na2vs0mg"},{"bike_id":"674a0ff2-0bb3-4331-b3bc-faa32117fb34","system_id":"levelo_inurba_marseille","lat":43.292642,"lon":5.384254,"is_reserved":false,"is_disabled":false,"rental_uris":{"android":"levelo://app?vid=674a0ff2-0bb3-4331-b3bc-faa32117fb34","ios":"levelo://app?vid=674a0ff2-0bb3-4331-b3bc-faa32117fb34"},"vehicle_type_id":"4","last_reported":1720023036,"current_range_meters":28000,"station_id":"ce4bh692rcd13ifvqea0","pricing_plan_id":"cebpf4jnsgd1na2vs0mg"},{"bike_id":"8a680c4d-63c0-41f9-acf0-b1c5a41554f8","system_id":"levelo_inurba_marseille","lat":43.292642,"lon":5.384254,"is_reserved":false,"is_disabled":false,"rental_uris":{"android":"levelo://app?vid=8a680c4d-63c0-41f9-acf0-b1c5a41554f8","ios":"levelo://app?vid=8a680c4d-63c0-41f9-acf0-b1c5a41554f8"},"vehicle_type_id":"4","last_reported":1720023036,"current_range_meters":9200,"station_id":"ce4bh692rcd13ifvqea0","pricing_plan_id":"cebpf4jnsgd1na2vs0mg"},{"bike_id":"31b1a90e-4d04-488b-b269-aceb16cbee3c","system_id":"levelo_inurba_marseille","lat":43.292644,"lon":5.384257,"is_reserved":false,"is_disabled":false,"rental_uris":{"android":"levelo://app?vid=31b1a90e-4d04-488b-b269-aceb16cbee3c","ios":"levelo://app?vid=31b1a90e-4d04-488b-b269-aceb16cbee3c"},"vehicle_type_id":"4","last_reported":1720023036,"current_range_meters":26800,"station_id":"ce4bh692rcd13ifvqea0","pricing_plan_id":"cebpf4jnsgd1na2vs0mg"},{"bike_id":"59dfb638-3c17-4a47-b60f-d7a98828b7e9","system_id":"levelo_inurba_marseille","lat":43.292644,"lon":5.384257,"is_reserved":false,"is_disabled":false,"rental_uris":{"android":"levelo://app?vid=59dfb638-3c17-4a47-b60f-d7a98828b7e9","ios":"levelo://app?vid=59dfb638-3c17-4a47-b60f-d7a98828b7e9"},"vehicle_type_id":"4","last_reported":1720023036,"current_range_meters":20800,"station_id":"ce4bh692rcd13ifvqea0","pricing_plan_id":"cebpf4jnsgd1na2vs0mg"},{"bike_id":"8361fa31-f7ed-438d-824f-c8c33db95cf0","system_id":"levelo_inurba_marseille","lat":43.292644,"lon":5.384257,"is_reserved":false,"is_disabled":false,"rental_uris":{"android":"levelo://app?vid=8361fa31-f7ed-438d-824f-c8c33db95cf0","ios":"levelo://app?vid=8361fa31-f7ed-438d-824f-c8c33db95cf0"},"vehicle_type_id":"4","last_reported":1720023036,"current_range_meters":27600,"station_id":"ce4bh692rcd13ifvqea0","pricing_plan_id":"cebpf4jnsgd1na2vs0mg"},{"bike_id":"fc2e48c0-1996-4a60-8ce7-238a3f97a97a","system_id":"levelo_inurba_marseille","lat":43.290104,"lon":5.356111,"is_reserved":false,"is_disabled":false,"rental_uris":{"android":"levelo://app?vid=fc2e48c0-1996-4a60-8ce7-238a3f97a97a","ios":"levelo://app?vid=fc2e48c0-1996-4a60-8ce7-238a3f97a97a"},"vehicle_type_id":"4","last_reported":1720023036,"current_range_meters":6000,"station_id":"ce4bhb92rcd13ifvqen0","pricing_plan_id":"cebpf4jnsgd1na2vs0mg"},{"bike_id":"bf2d5990-0b95-43e5-8e36-0eb78b16a50f","system_id":"levelo_inurba_marseille","lat":43.290104,"lon":5.356111,"is_reserved":false,"is_disabled":false,"rental_uris":{"android":"levelo://app?vid=bf2d5990-0b95-43e5-8e36-0eb78b16a50f","ios":"levelo://app?vid=bf2d5990-0b95-43e5-8e36-0eb78b16a50f"},"vehicle_type_id":"4","last_reported":1720023036,"current_range_meters":22000,"station_id":"ce4bhb92rcd13ifvqen0","pricing_plan_id":"cebpf4jnsgd1na2vs0mg"},{"bike_id":"2ec09f53-1b89-43d0-9c97-211bbbf3ff5a","system_id":"levelo_inurba_marseille","lat":43.292644,"lon":5.384257,"is_reserved":false,"is_disabled":false,"rental_uris":{"android":"levelo://app?vid=2ec09f53-1b89-43d0-9c97-211bbbf3ff5a","ios":"levelo://app?vid=2ec09f53-1b89-43d0-9c97-211bbbf3ff5a"},"vehicle_type_id":"4","last_reported":1720023036,"current_range_meters":14400,"station_id":"ce4bh692rcd13ifvqea0","pricing_plan_id":"cebpf4jnsgd1na2vs0mg"},{"bike_id":"d5cb56dd-dfe6-4755-933e-cc69aa7dac09","system_id":"levelo_inurba_marseille","lat":43.290104,"lon":5.356111,"is_reserved":false,"is_disabled":false,"rental_uris":{"android":"levelo://app?vid=d5cb56dd-dfe6-4755-933e-cc69aa7dac09","ios":"levelo://app?vid=d5cb56dd-dfe6-4755-933e-cc69aa7dac09"},"vehicle_type_id":"4","last_reported":1720023036,"current_range_meters":12800,"station_id":"ce4bhb92rcd13ifvqen0","pricing_plan_id":"cebpf4jnsgd1na2vs0mg"},{"bike_id":"c107ef1f-277f-42e1-bf28-7c3d345c3116","system_id":"levelo_inurba_marseille","lat":43.29005,"lon":5.35623,"is_reserved":false,"is_disabled":false,"rental_uris":{"android":"levelo://app?vid=c107ef1f-277f-42e1-bf28-7c3d345c3116","ios":"levelo://app?vid=c107ef1f-277f-42e1-bf28-7c3d345c3116"},"vehicle_type_id":"4","last_reported":1720023036,"current_range_meters":30400,"station_id":"ce4bhb92rcd13ifvqen0","pricing_plan_id":"cebpf4jnsgd1na2vs0mg"},{"bike_id":"9c3619cd-dd22-4ca7-a46b-68924613b18f","system_id":"levelo_inurba_marseille","lat":43.29007,"lon":5.35613,"is_reserved":false,"is_disabled":false,"rental_uris":{"android":"levelo://app?vid=9c3619cd-dd22-4ca7-a46b-68924613b18f","ios":"levelo://app?vid=9c3619cd-dd22-4ca7-a46b-68924613b18f"},"vehicle_type_id":"4","last_reported":1720023036,"current_range_meters":24400,"station_id":"ce4bhb92rcd13ifvqen0","pricing_plan_id":"cebpf4jnsgd1na2vs0mg"},{"bike_id":"11185ddd-3cfc-4986-a97d-29245b84b8c9","system_id":"levelo_inurba_marseille","lat":43.290104,"lon":5.356111,"is_reserved":false,"is_disabled":false,"rental_uris":{"android":"levelo://app?vid=11185ddd-3cfc-4986-a97d-29245b84b8c9","ios":"levelo://app?vid=11185ddd-3cfc-4986-a97d-29245b84b8c9"},"vehicle_type_id":"4","last_reported":1720023036,"current_range_meters":22000,"station_id":"ce4bhb92rcd13ifvqen0","pricing_plan_id":"cebpf4jnsgd1na2vs0mg"},{"bike_id":"82f79a36-3043-4c4b-8bd2-44b05b9d1851","system_id":"levelo_inurba_marseille","lat":43.290104,"lon":5.356111,"is_reserved":false,"is_disabled":false,"rental_uris":{"android":"levelo://app?vid=82f79a36-3043-4c4b-8bd2-44b05b9d1851","ios":"levelo://app?vid=82f79a36-3043-4c4b-8bd2-44b05b9d1851"},"vehicle_type_id":"4","last_reported":1720023036,"current_range_meters":10000,"station_id":"ce4bhb92rcd13ifvqen0","pricing_plan_id":"cebpf4jnsgd1na2vs0mg"},{"bike_id":"08e1ccb8-fee3-4abb-836f-e01ba9f725ae","system_id":"levelo_inurba_marseille","lat":43.290104,"lon":5.356111,"is_reserved":false,"is_disabled":false,"rental_uris":{"android":"levelo://app?vid=08e1ccb8-fee3-4abb-836f-e01ba9f725ae","ios":"levelo://app?vid=08e1ccb8-fee3-4abb-836f-e01ba9f725ae"},"vehicle_type_id":"4","last_reported":1720023036,"current_range_meters":23200,"station_id":"ce4bhb92rcd13ifvqen0","pricing_plan_id":"cebpf4jnsgd1na2vs0mg"},{"bike_id":"8f5b5f14-f116-4bbf-a64d-4d37c5bd8ddc","system_id":"levelo_inurba_marseille","lat":43.290103,"lon":5.356114,"is_reserved":false,"is_disabled":false,"rental_uris":{"android":"levelo://app?vid=8f5b5f14-f116-4bbf-a64d-4d37c5bd8ddc","ios":"levelo://app?vid=8f5b5f14-f116-4bbf-a64d-4d37c5bd8ddc"},"vehicle_type_id":"4","last_reported":1720023036,"current_range_meters":18000,"station_id":"ce4bhb92rcd13ifvqen0","pricing_plan_id":"cebpf4jnsgd1na2vs0mg"},{"bike_id":"27c1a933-6fd8-4f6f-ae12-bde2747ab16c","system_id":"levelo_inurba_marseille","lat":43.290103,"lon":5.356114,"is_reserved":false,"is_disabled":false,"rental_uris":{"android":"levelo://app?vid=27c1a933-6fd8-4f6f-ae12-bde2747ab16c","ios":"levelo://app?vid=27c1a933-6fd8-4f6f-ae12-bde2747ab16c"},"vehicle_type_id":"4","last_reported":1720023036,"current_range_meters":26800,"station_id":"ce4bhb92rcd13ifvqen0","pricing_plan_id":"cebpf4jnsgd1na2vs0mg"},{"bike_id":"e2681967-93ed-4d23-aeb0-45e8e2cc2854","system_id":"levelo_inurba_marseille","lat":43.29004,"lon":5.35612,"is_reserved":false,"is_disabled":false,"rental_uris":{"android":"levelo://app?vid=e2681967-93ed-4d23-aeb0-45e8e2cc2854","ios":"levelo://app?vid=e2681967-93ed-4d23-aeb0-45e8e2cc2854"},"vehicle_type_id":"4","last_reported":1720023036,"current_range_meters":16800,"station_id":"ce4bhb92rcd13ifvqen0","pricing_plan_id":"cebpf4jnsgd1na2vs0mg"},{"bike_id":"4f3694bf-c8b5-4882-98be-ca7846b6b63e","system_id":"levelo_inurba_marseille","lat":43.290104,"lon":5.356111,"is_reserved":false,"is_disabled":false,"rental_uris":{"android":"levelo://app?vid=4f3694bf-c8b5-4882-98be-ca7846b6b63e","ios":"levelo://app?vid=4f3694bf-c8b5-4882-98be-ca7846b6b63e"},"vehicle_type_id":"4","last_reported":1720023036,"current_range_meters":30000,"station_id":"ce4bhb92rcd13ifvqen0","pricing_plan_id":"cebpf4jnsgd1na2vs0mg"},{"bike_id":"e995b291-9aa4-4317-b393-9448000e0f41","system_id":"levelo_inurba_marseille","lat":43.290104,"lon":5.356111,"is_reserved":false,"is_disabled":false,"rental_uris":{"android":"levelo://app?vid=e995b291-9aa4-4317-b393-9448000e0f41","ios":"levelo://app?vid=e995b291-9aa4-4317-b393-9448000e0f41"},"vehicle_type_id":"4","last_reported":1720023036,"current_range_meters":21600,"station_id":"ce4bhb92rcd13ifvqen0","pricing_plan_id":"cebpf4jnsgd1na2vs0mg"},{"bike_id":"8ee9b91a-1d25-4b08-84f1-d3e88923d1ab","system_id":"levelo_inurba_marseille","lat":43.290103,"lon":5.356114,"is_reserved":false,"is_disabled":false,"rental_uris":{"android":"levelo://app?vid=8ee9b91a-1d25-4b08-84f1-d3e88923d1ab","ios":"levelo://app?vid=8ee9b91a-1d25-4b08-84f1-d3e88923d1ab"},"vehicle_type_id":"4","last_reported":1720023036,"current_range_meters":28000,"station_id":"ce4bhb92rcd13ifvqen0","pricing_plan_id":"cebpf4jnsgd1na2vs0mg"},{"bike_id":"26ca43f7-ecbe-4534-ae84-4ea55502a9c7","system_id":"levelo_inurba_marseille","lat":43.290103,"lon":5.356114,"is_reserved":false,"is_disabled":false,"rental_uris":{"android":"levelo://app?vid=26ca43f7-ecbe-4534-ae84-4ea55502a9c7","ios":"levelo://app?vid=26ca43f7-ecbe-4534-ae84-4ea55502a9c7"},"vehicle_type_id":"4","last_reported":1720023036,"current_range_meters":0,"station_id":"ce4bhb92rcd13ifvqen0","pricing_plan_id":"cebpf4jnsgd1na2vs0mg"},{"bike_id":"733cff36-ca27-42ee-a186-7b10a6870aef","system_id":"levelo_inurba_marseille","lat":43.290104,"lon":5.356111,"is_reserved":false,"is_disabled":false,"rental_uris":{"android":"levelo://app?vid=733cff36-ca27-42ee-a186-7b10a6870aef","ios":"levelo://app?vid=733cff36-ca27-42ee-a186-7b10a6870aef"},"vehicle_type_id":"4","last_reported":1720023036,"current_range_meters":30800,"station_id":"ce4bhb92rcd13ifvqen0","pricing_plan_id":"cebpf4jnsgd1na2vs0mg"},{"bike_id":"4a16ac6c-1ba7-42b7-9572-697959625cac","system_id":"levelo_inurba_marseille","lat":43.290103,"lon":5.356114,"is_reserved":false,"is_disabled":false,"rental_uris":{"android":"levelo://app?vid=4a16ac6c-1ba7-42b7-9572-697959625cac","ios":"levelo://app?vid=4a16ac6c-1ba7-42b7-9572-697959625cac"},"vehicle_type_id":"4","last_reported":1720023036,"current_range_meters":22800,"station_id":"ce4bhb92rcd13ifvqen0","pricing_plan_id":"cebpf4jnsgd1na2vs0mg"},{"bike_id":"6bb447f1-7194-43fe-8aaa-21ed27233e3e","system_id":"levelo_inurba_marseille","lat":43.290104,"lon":5.356111,"is_reserved":false,"is_disabled":false,"rental_uris":{"android":"levelo://app?vid=6bb447f1-7194-43fe-8aaa-21ed27233e3e","ios":"levelo://app?vid=6bb447f1-7194-43fe-8aaa-21ed27233e3e"},"vehicle_type_id":"4","last_reported":1720023036,"current_range_meters":5200,"station_id":"ce4bhb92rcd13ifvqen0","pricing_plan_id":"cebpf4jnsgd1na2vs0mg"},{"bike_id":"3beba966-8189-4378-b0b4-0a56b04b0aa7","system_id":"levelo_inurba_marseille","lat":43.29102,"lon":5.381237,"is_reserved":false,"is_disabled":false,"rental_uris":{"android":"levelo://app?vid=3beba966-8189-4378-b0b4-0a56b04b0aa7","ios":"levelo://app?vid=3beba966-8189-4378-b0b4-0a56b04b0aa7"},"vehicle_type_id":"4","last_reported":1720023036,"current_range_meters":0,"station_id":"ce4bh512rcd13ifvqe2g","pricing_plan_id":"cebpf4jnsgd1na2vs0mg"},{"bike_id":"f1dd2960-657b-4770-9088-1469f871d889","system_id":"levelo_inurba_marseille","lat":43.33021,"lon":5.39024,"is_reserved":false,"is_disabled":false,"rental_uris":{"android":"levelo://app?vid=f1dd2960-657b-4770-9088-1469f871d889","ios":"levelo://app?vid=f1dd2960-657b-4770-9088-1469f871d889"},"vehicle_type_id":"4","last_reported":1720023036,"current_range_meters":12400,"station_id":"ce4bhr92rcd13ifvqhrg","pricing_plan_id":"cebpf4jnsgd1na2vs0mg"},{"bike_id":"b2cda643-9bcc-4a73-8c07-dab261718d68","system_id":"levelo_inurba_marseille","lat":43.33023,"lon":5.3904,"is_reserved":false,"is_disabled":false,"rental_uris":{"android":"levelo://app?vid=b2cda643-9bcc-4a73-8c07-dab261718d68","ios":"levelo://app?vid=b2cda643-9bcc-4a73-8c07-dab261718d68"},"vehicle_type_id":"4","last_reported":1720023036,"current_range_meters":31200,"station_id":"ce4bhr92rcd13ifvqhrg","pricing_plan_id":"cebpf4jnsgd1na2vs0mg"},{"bike_id":"59309b3f-a690-45f7-abb0-3bb5676431f3","system_id":"levelo_inurba_marseille","lat":43.33022,"lon":5.39042,"is_reserved":false,"is_disabled":false,"rental_uris":{"android":"levelo://app?vid=59309b3f-a690-45f7-abb0-3bb5676431f3","ios":"levelo://app?vid=59309b3f-a690-45f7-abb0-3bb5676431f3"},"vehicle_type_id":"4","last_reported":1720023036,"current_range_meters":14400,"station_id":"ce4bhr92rcd13ifvqhrg","pricing_plan_id":"cebpf4jnsgd1na2vs0mg"},{"bike_id":"6741c287-18c8-4315-aa6b-37c9c2be0573","system_id":"levelo_inurba_marseille","lat":43.330442,"lon":5.389148,"is_reserved":false,"is_disabled":false,"rental_uris":{"android":"levelo://app?vid=6741c287-18c8-4315-aa6b-37c9c2be0573","ios":"levelo://app?vid=6741c287-18c8-4315-aa6b-37c9c2be0573"},"vehicle_type_id":"4","last_reported":1720023036,"current_range_meters":25600,"station_id":"ce4bhr92rcd13ifvqhrg","pricing_plan_id":"cebpf4jnsgd1na2vs0mg"},{"bike_id":"ccb2512d-0a71-447c-95c6-480bfa8489fc","system_id":"levelo_inurba_marseille","lat":43.33027,"lon":5.39048,"is_reserved":false,"is_disabled":false,"rental_uris":{"android":"levelo://app?vid=ccb2512d-0a71-447c-95c6-480bfa8489fc","ios":"levelo://app?vid=ccb2512d-0a71-447c-95c6-480bfa8489fc"},"vehicle_type_id":"4","last_reported":1720023036,"current_range_meters":13200,"station_id":"ce4bhr92rcd13ifvqhrg","pricing_plan_id":"cebpf4jnsgd1na2vs0mg"},{"bike_id":"04bf9954-7d88-424c-a46d-0162b0f5a23e","system_id":"levelo_inurba_marseille","lat":43.295169,"lon":5.390426,"is_reserved":false,"is_disabled":false,"rental_uris":{"android":"levelo://app?vid=04bf9954-7d88-424c-a46d-0162b0f5a23e","ios":"levelo://app?vid=04bf9954-7d88-424c-a46d-0162b0f5a23e"},"vehicle_type_id":"4","last_reported":1720023036,"current_range_meters":0,"station_id":"ce4bh3p2rcd13ifvqdp0","pricing_plan_id":"cebpf4jnsgd1na2vs0mg"},{"bike_id":"d7254a60-f7a4-40a0-a347-97c7c9f746e5","system_id":"levelo_inurba_marseille","lat":43.295169,"lon":5.390426,"is_reserved":false,"is_disabled":false,"rental_uris":{"android":"levelo://app?vid=d7254a60-f7a4-40a0-a347-97c7c9f746e5","ios":"levelo://app?vid=d7254a60-f7a4-40a0-a347-97c7c9f746e5"},"vehicle_type_id":"4","last_reported":1720023036,"current_range_meters":0,"station_id":"ce4bh3p2rcd13ifvqdp0","pricing_plan_id":"cebpf4jnsgd1na2vs0mg"},{"bike_id":"7946a048-4ed4-4a94-81a8-87dc844abda2","system_id":"levelo_inurba_marseille","lat":43.289622,"lon":5.378412,"is_reserved":false,"is_disabled":false,"rental_uris":{"android":"levelo://app?vid=7946a048-4ed4-4a94-81a8-87dc844abda2","ios":"levelo://app?vid=7946a048-4ed4-4a94-81a8-87dc844abda2"},"vehicle_type_id":"4","last_reported":1720023036,"current_range_meters":0,"station_id":"ce4bh9p2rcd13ifvqed0","pricing_plan_id":"cebpf4jnsgd1na2vs0mg"},{"bike_id":"693628d7-bd18-4e15-8485-0093943de4ba","system_id":"levelo_inurba_marseille","lat":43.28959,"lon":5.354852,"is_reserved":false,"is_disabled":false,"rental_uris":{"android":"levelo://app?vid=693628d7-bd18-4e15-8485-0093943de4ba","ios":"levelo://app?vid=693628d7-bd18-4e15-8485-0093943de4ba"},"vehicle_type_id":"4","last_reported":1720023036,"current_range_meters":18000,"station_id":"","pricing_plan_id":"cebpf4jnsgd1na2vs0mg"},{"bike_id":"436fdf2f-121a-42c4-88c7-0ef0a98fc93e","system_id":"levelo_inurba_marseille","lat":43.2901,"lon":5.381269,"is_reserved":false,"is_disabled":false,"rental_uris":{"android":"levelo://app?vid=436fdf2f-121a-42c4-88c7-0ef0a98fc93e","ios":"levelo://app?vid=436fdf2f-121a-42c4-88c7-0ef0a98fc93e"},"vehicle_type_id":"4","last_reported":1720023036,"current_range_meters":24000,"station_id":"ce4bh4p2rcd13ifvqe1g","pricing_plan_id":"cebpf4jnsgd1na2vs0mg"},{"bike_id":"87d76ef7-94e2-4c69-a166-e2cc4f5e474c","system_id":"levelo_inurba_marseille","lat":43.2901,"lon":5.381269,"is_reserved":false,"is_disabled":false,"rental_uris":{"android":"levelo://app?vid=87d76ef7-94e2-4c69-a166-e2cc4f5e474c","ios":"levelo://app?vid=87d76ef7-94e2-4c69-a166-e2cc4f5e474c"},"vehicle_type_id":"4","last_reported":1720023036,"current_range_meters":0,"station_id":"ce4bh4p2rcd13ifvqe1g","pricing_plan_id":"cebpf4jnsgd1na2vs0mg"},{"bike_id":"9edf5948-c2e7-4e2a-842d-3378ff9eb316","system_id":"levelo_inurba_marseille","lat":43.28865,"lon":5.35846,"is_reserved":false,"is_disabled":false,"rental_uris":{"android":"levelo://app?vid=9edf5948-c2e7-4e2a-842d-3378ff9eb316","ios":"levelo://app?vid=9edf5948-c2e7-4e2a-842d-3378ff9eb316"},"vehicle_type_id":"4","last_reported":1720023036,"current_range_meters":24800,"station_id":"ce4bhb12rcd13ifvqem0","pricing_plan_id":"cebpf4jnsgd1na2vs0mg"},{"bike_id":"e2960984-0bb5-472b-b45a-a3b70feb390a","system_id":"levelo_inurba_marseille","lat":43.28856,"lon":5.358371,"is_reserved":false,"is_disabled":false,"rental_uris":{"android":"levelo://app?vid=e2960984-0bb5-472b-b45a-a3b70feb390a","ios":"levelo://app?vid=e2960984-0bb5-472b-b45a-a3b70feb390a"},"vehicle_type_id":"4","last_reported":1720023036,"current_range_meters":18800,"station_id":"ce4bhb12rcd13ifvqem0","pricing_plan_id":"cebpf4jnsgd1na2vs0mg"},{"bike_id":"63b655bb-d906-49cb-ba51-414c116bd718","system_id":"levelo_inurba_marseille","lat":43.28856,"lon":5.358371,"is_reserved":false,"is_disabled":false,"rental_uris":{"android":"levelo://app?vid=63b655bb-d906-49cb-ba51-414c116bd718","ios":"levelo://app?vid=63b655bb-d906-49cb-ba51-414c116bd718"},"vehicle_type_id":"4","last_reported":1720023036,"current_range_meters":13200,"station_id":"ce4bhb12rcd13ifvqem0","pricing_plan_id":"cebpf4jnsgd1na2vs0mg"},{"bike_id":"70ceea6e-fa24-4a08-aba0-02ab0d2ae5dc","system_id":"levelo_inurba_marseille","lat":43.28856,"lon":5.358371,"is_reserved":false,"is_disabled":false,"rental_uris":{"android":"levelo://app?vid=70ceea6e-fa24-4a08-aba0-02ab0d2ae5dc","ios":"levelo://app?vid=70ceea6e-fa24-4a08-aba0-02ab0d2ae5dc"},"vehicle_type_id":"4","last_reported":1720023036,"current_range_meters":27200,"station_id":"ce4bhb12rcd13ifvqem0","pricing_plan_id":"cebpf4jnsgd1na2vs0mg"},{"bike_id":"956d6c29-5739-4f89-a634-82fb5ea487a1","system_id":"levelo_inurba_marseille","lat":43.28856,"lon":5.358371,"is_reserved":false,"is_disabled":false,"rental_uris":{"android":"levelo://app?vid=956d6c29-5739-4f89-a634-82fb5ea487a1","ios":"levelo://app?vid=956d6c29-5739-4f89-a634-82fb5ea487a1"},"vehicle_type_id":"4","last_reported":1720023036,"current_range_meters":23600,"station_id":"ce4bhb12rcd13ifvqem0","pricing_plan_id":"cebpf4jnsgd1na2vs0mg"},{"bike_id":"75c05274-6cc8-492c-9409-26e251eb1265","system_id":"levelo_inurba_marseille","lat":43.288527,"lon":5.35843,"is_reserved":false,"is_disabled":false,"rental_uris":{"android":"levelo://app?vid=75c05274-6cc8-492c-9409-26e251eb1265","ios":"levelo://app?vid=75c05274-6cc8-492c-9409-26e251eb1265"},"vehicle_type_id":"4","last_reported":1720023036,"current_range_meters":0,"station_id":"ce4bhb12rcd13ifvqem0","pricing_plan_id":"cebpf4jnsgd1na2vs0mg"},{"bike_id":"3c361718-b25a-44ff-9abb-f4e963b02ed4","system_id":"levelo_inurba_marseille","lat":43.3374,"lon":5.37448,"is_reserved":false,"is_disabled":false,"rental_uris":{"android":"levelo://app?vid=3c361718-b25a-44ff-9abb-f4e963b02ed4","ios":"levelo://app?vid=3c361718-b25a-44ff-9abb-f4e963b02ed4"},"vehicle_type_id":"4","last_reported":1720023036,"current_range_meters":6000,"station_id":"","pricing_plan_id":"cebpf4jnsgd1na2vs0mg"},{"bike_id":"31102144-d9dc-4da7-81d6-8d4e10542ed1","system_id":"levelo_inurba_marseille","lat":43.309371,"lon":5.401449,"is_reserved":false,"is_disabled":false,"rental_uris":{"android":"levelo://app?vid=31102144-d9dc-4da7-81d6-8d4e10542ed1","ios":"levelo://app?vid=31102144-d9dc-4da7-81d6-8d4e10542ed1"},"vehicle_type_id":"4","last_reported":1720023036,"current_range_meters":19600,"station_id":"ce4bgvp2rcd13ifvqct0","pricing_plan_id":"cebpf4jnsgd1na2vs0mg"},{"bike_id":"c2b223fd-8d72-4fae-bf43-ace13d8b1361","system_id":"levelo_inurba_marseille","lat":43.309371,"lon":5.401449,"is_reserved":false,"is_disabled":false,"rental_uris":{"android":"levelo://app?vid=c2b223fd-8d72-4fae-bf43-ace13d8b1361","ios":"levelo://app?vid=c2b223fd-8d72-4fae-bf43-ace13d8b1361"},"vehicle_type_id":"4","last_reported":1720023036,"current_range_meters":26000,"station_id":"ce4bgvp2rcd13ifvqct0","pricing_plan_id":"cebpf4jnsgd1na2vs0mg"},{"bike_id":"56b0c307-737f-42c0-9f2a-d27d7b21d5af","system_id":"levelo_inurba_marseille","lat":43.30924,"lon":5.40137,"is_reserved":false,"is_disabled":false,"rental_uris":{"android":"levelo://app?vid=56b0c307-737f-42c0-9f2a-d27d7b21d5af","ios":"levelo://app?vid=56b0c307-737f-42c0-9f2a-d27d7b21d5af"},"vehicle_type_id":"4","last_reported":1720023036,"current_range_meters":0,"station_id":"ce4bgvp2rcd13ifvqct0","pricing_plan_id":"cebpf4jnsgd1na2vs0mg"},{"bike_id":"f5fd895d-be29-4dd0-8ed1-68cb1a9acd6a","system_id":"levelo_inurba_marseille","lat":43.337444,"lon":5.374475,"is_reserved":false,"is_disabled":false,"rental_uris":{"android":"levelo://app?vid=f5fd895d-be29-4dd0-8ed1-68cb1a9acd6a","ios":"levelo://app?vid=f5fd895d-be29-4dd0-8ed1-68cb1a9acd6a"},"vehicle_type_id":"4","last_reported":1720023036,"current_range_meters":20800,"station_id":"","pricing_plan_id":"cebpf4jnsgd1na2vs0mg"},{"bike_id":"5bfbb26d-21cb-4b41-b470-d2817b2ae984","system_id":"levelo_inurba_marseille","lat":43.309371,"lon":5.401449,"is_reserved":false,"is_disabled":false,"rental_uris":{"android":"levelo://app?vid=5bfbb26d-21cb-4b41-b470-d2817b2ae984","ios":"levelo://app?vid=5bfbb26d-21cb-4b41-b470-d2817b2ae984"},"vehicle_type_id":"4","last_reported":1720023036,"current_range_meters":14800,"station_id":"ce4bgvp2rcd13ifvqct0","pricing_plan_id":"cebpf4jnsgd1na2vs0mg"},{"bike_id":"6102b984-cbc3-40b7-830a-47d854e7d50e","system_id":"levelo_inurba_marseille","lat":43.309371,"lon":5.401449,"is_reserved":false,"is_disabled":false,"rental_uris":{"android":"levelo://app?vid=6102b984-cbc3-40b7-830a-47d854e7d50e","ios":"levelo://app?vid=6102b984-cbc3-40b7-830a-47d854e7d50e"},"vehicle_type_id":"4","last_reported":1720023036,"current_range_meters":17200,"station_id":"ce4bgvp2rcd13ifvqct0","pricing_plan_id":"cebpf4jnsgd1na2vs0mg"},{"bike_id":"f35a6063-e0a4-4227-9777-2da3aa8a1dbf","system_id":"levelo_inurba_marseille","lat":43.309371,"lon":5.401449,"is_reserved":false,"is_disabled":false,"rental_uris":{"android":"levelo://app?vid=f35a6063-e0a4-4227-9777-2da3aa8a1dbf","ios":"levelo://app?vid=f35a6063-e0a4-4227-9777-2da3aa8a1dbf"},"vehicle_type_id":"4","last_reported":1720023036,"current_range_meters":27600,"station_id":"ce4bgvp2rcd13ifvqct0","pricing_plan_id":"cebpf4jnsgd1na2vs0mg"},{"bike_id":"668b6270-367b-4f6c-b750-d67dec44cb4f","system_id":"levelo_inurba_marseille","lat":43.337467,"lon":5.37454,"is_reserved":false,"is_disabled":false,"rental_uris":{"android":"levelo://app?vid=668b6270-367b-4f6c-b750-d67dec44cb4f","ios":"levelo://app?vid=668b6270-367b-4f6c-b750-d67dec44cb4f"},"vehicle_type_id":"4","last_reported":1720023036,"current_range_meters":24400,"station_id":"","pricing_plan_id":"cebpf4jnsgd1na2vs0mg"},{"bike_id":"26186307-2584-4002-9c8c-fe2a31238548","system_id":"levelo_inurba_marseille","lat":43.337516,"lon":5.374557,"is_reserved":false,"is_disabled":false,"rental_uris":{"android":"levelo://app?vid=26186307-2584-4002-9c8c-fe2a31238548","ios":"levelo://app?vid=26186307-2584-4002-9c8c-fe2a31238548"},"vehicle_type_id":"4","last_reported":1720023036,"current_range_meters":24400,"station_id":"","pricing_plan_id":"cebpf4jnsgd1na2vs0mg"},{"bike_id":"0ed4044d-b045-4ceb-8b78-b4c3041d7f8a","system_id":"levelo_inurba_marseille","lat":43.33752,"lon":5.374591,"is_reserved":false,"is_disabled":false,"rental_uris":{"android":"levelo://app?vid=0ed4044d-b045-4ceb-8b78-b4c3041d7f8a","ios":"levelo://app?vid=0ed4044d-b045-4ceb-8b78-b4c3041d7f8a"},"vehicle_type_id":"4","last_reported":1720023036,"current_range_meters":26400,"station_id":"","pricing_plan_id":"cebpf4jnsgd1na2vs0mg"},{"bike_id":"5c35fd79-137e-4785-ac4e-212539aff542","system_id":"levelo_inurba_marseille","lat":43.337558,"lon":5.374551,"is_reserved":false,"is_disabled":false,"rental_uris":{"android":"levelo://app?vid=5c35fd79-137e-4785-ac4e-212539aff542","ios":"levelo://app?vid=5c35fd79-137e-4785-ac4e-212539aff542"},"vehicle_type_id":"4","last_reported":1720023036,"current_range_meters":23200,"station_id":"","pricing_plan_id":"cebpf4jnsgd1na2vs0mg"},{"bike_id":"d3c4f001-2270-4ab4-ba18-ac05000c8d46","system_id":"levelo_inurba_marseille","lat":43.337559,"lon":5.374547,"is_reserved":false,"is_disabled":false,"rental_uris":{"android":"levelo://app?vid=d3c4f001-2270-4ab4-ba18-ac05000c8d46","ios":"levelo://app?vid=d3c4f001-2270-4ab4-ba18-ac05000c8d46"},"vehicle_type_id":"4","last_reported":1720023036,"current_range_meters":26400,"station_id":"","pricing_plan_id":"cebpf4jnsgd1na2vs0mg"},{"bike_id":"b365cded-7e1f-4c49-8848-d4269ed24fae","system_id":"levelo_inurba_marseille","lat":43.33759,"lon":5.37436,"is_reserved":false,"is_disabled":false,"rental_uris":{"android":"levelo://app?vid=b365cded-7e1f-4c49-8848-d4269ed24fae","ios":"levelo://app?vid=b365cded-7e1f-4c49-8848-d4269ed24fae"},"vehicle_type_id":"4","last_reported":1720023036,"current_range_meters":31200,"station_id":"","pricing_plan_id":"cebpf4jnsgd1na2vs0mg"},{"bike_id":"b6434eae-5cb4-4c31-b322-b4ecf8f28910","system_id":"levelo_inurba_marseille","lat":43.337568,"lon":5.374554,"is_reserved":false,"is_disabled":false,"rental_uris":{"android":"levelo://app?vid=b6434eae-5cb4-4c31-b322-b4ecf8f28910","ios":"levelo://app?vid=b6434eae-5cb4-4c31-b322-b4ecf8f28910"},"vehicle_type_id":"4","last_reported":1720023036,"current_range_meters":26400,"station_id":"","pricing_plan_id":"cebpf4jnsgd1na2vs0mg"},{"bike_id":"7799d0a3-c9f5-4e76-a056-c410e036458d","system_id":"levelo_inurba_marseille","lat":43.3376,"lon":5.37437,"is_reserved":false,"is_disabled":false,"rental_uris":{"android":"levelo://app?vid=7799d0a3-c9f5-4e76-a056-c410e036458d","ios":"levelo://app?vid=7799d0a3-c9f5-4e76-a056-c410e036458d"},"vehicle_type_id":"4","last_reported":1720023036,"current_range_meters":30400,"station_id":"","pricing_plan_id":"cebpf4jnsgd1na2vs0mg"},{"bike_id":"63add096-1435-4c3b-b83b-a3a36c1eb8d7","system_id":"levelo_inurba_marseille","lat":43.337572,"lon":5.374553,"is_reserved":false,"is_disabled":false,"rental_uris":{"android":"levelo://app?vid=63add096-1435-4c3b-b83b-a3a36c1eb8d7","ios":"levelo://app?vid=63add096-1435-4c3b-b83b-a3a36c1eb8d7"},"vehicle_type_id":"4","last_reported":1720023036,"current_range_meters":8400,"station_id":"","pricing_plan_id":"cebpf4jnsgd1na2vs0mg"},{"bike_id":"1bf3f2e0-998e-4534-b968-553047dd9433","system_id":"levelo_inurba_marseille","lat":43.337581,"lon":5.374552,"is_reserved":false,"is_disabled":false,"rental_uris":{"android":"levelo://app?vid=1bf3f2e0-998e-4534-b968-553047dd9433","ios":"levelo://app?vid=1bf3f2e0-998e-4534-b968-553047dd9433"},"vehicle_type_id":"4","last_reported":1720023036,"current_range_meters":26400,"station_id":"","pricing_plan_id":"cebpf4jnsgd1na2vs0mg"},{"bike_id":"7829749a-6357-4f25-b52b-22d8bde55cb0","system_id":"levelo_inurba_marseille","lat":43.337607,"lon":5.374433,"is_reserved":false,"is_disabled":false,"rental_uris":{"android":"levelo://app?vid=7829749a-6357-4f25-b52b-22d8bde55cb0","ios":"levelo://app?vid=7829749a-6357-4f25-b52b-22d8bde55cb0"},"vehicle_type_id":"4","last_reported":1720023036,"current_range_meters":31200,"station_id":"","pricing_plan_id":"cebpf4jnsgd1na2vs0mg"},{"bike_id":"7b133e30-4849-4feb-84bb-89d23ea09217","system_id":"levelo_inurba_marseille","lat":43.337626,"lon":5.374463,"is_reserved":false,"is_disabled":false,"rental_uris":{"android":"levelo://app?vid=7b133e30-4849-4feb-84bb-89d23ea09217","ios":"levelo://app?vid=7b133e30-4849-4feb-84bb-89d23ea09217"},"vehicle_type_id":"4","last_reported":1720023036,"current_range_meters":29200,"station_id":"","pricing_plan_id":"cebpf4jnsgd1na2vs0mg"},{"bike_id":"8b3b1c5c-e2ab-4e66-a5bc-bb01c355081d","system_id":"levelo_inurba_marseille","lat":43.30648,"lon":5.40088,"is_reserved":false,"is_disabled":false,"rental_uris":{"android":"levelo://app?vid=8b3b1c5c-e2ab-4e66-a5bc-bb01c355081d","ios":"levelo://app?vid=8b3b1c5c-e2ab-4e66-a5bc-bb01c355081d"},"vehicle_type_id":"4","last_reported":1720023036,"current_range_meters":0,"station_id":"ce4bh112rcd13ifvqda0","pricing_plan_id":"cebpf4jnsgd1na2vs0mg"},{"bike_id":"d8a84473-84e3-40da-a2b5-1ab5576f24b8","system_id":"levelo_inurba_marseille","lat":43.33755,"lon":5.37499,"is_reserved":false,"is_disabled":false,"rental_uris":{"android":"levelo://app?vid=d8a84473-84e3-40da-a2b5-1ab5576f24b8","ios":"levelo://app?vid=d8a84473-84e3-40da-a2b5-1ab5576f24b8"},"vehicle_type_id":"4","last_reported":1720023036,"current_range_meters":10800,"station_id":"","pricing_plan_id":"cebpf4jnsgd1na2vs0mg"},{"bike_id":"f65ada32-0c08-437b-80e7-f6ec202b5c07","system_id":"levelo_inurba_marseille","lat":43.30653,"lon":5.40092,"is_reserved":false,"is_disabled":false,"rental_uris":{"android":"levelo://app?vid=f65ada32-0c08-437b-80e7-f6ec202b5c07","ios":"levelo://app?vid=f65ada32-0c08-437b-80e7-f6ec202b5c07"},"vehicle_type_id":"4","last_reported":1720023036,"current_range_meters":0,"station_id":"ce4bh112rcd13ifvqda0","pricing_plan_id":"cebpf4jnsgd1na2vs0mg"},{"bike_id":"242e3970-6cfb-4ddd-9a1c-82b246037147","system_id":"levelo_inurba_marseille","lat":43.30642,"lon":5.401031,"is_reserved":false,"is_disabled":false,"rental_uris":{"android":"levelo://app?vid=242e3970-6cfb-4ddd-9a1c-82b246037147","ios":"levelo://app?vid=242e3970-6cfb-4ddd-9a1c-82b246037147"},"vehicle_type_id":"4","last_reported":1720023036,"current_range_meters":7200,"station_id":"ce4bh112rcd13ifvqda0","pricing_plan_id":"cebpf4jnsgd1na2vs0mg"},{"bike_id":"05254307-f8fb-46a2-985d-3a0823608688","system_id":"levelo_inurba_marseille","lat":43.337682,"lon":5.37438,"is_reserved":false,"is_disabled":false,"rental_uris":{"android":"levelo://app?vid=05254307-f8fb-46a2-985d-3a0823608688","ios":"levelo://app?vid=05254307-f8fb-46a2-985d-3a0823608688"},"vehicle_type_id":"4","last_reported":1720023036,"current_range_meters":9600,"station_id":"","pricing_plan_id":"cebpf4jnsgd1na2vs0mg"},{"bike_id":"bcd9fb44-ed05-44c9-878a-277f605bfc18","system_id":"levelo_inurba_marseille","lat":43.301117,"lon":5.398795,"is_reserved":false,"is_disabled":false,"rental_uris":{"android":"levelo://app?vid=bcd9fb44-ed05-44c9-878a-277f605bfc18","ios":"levelo://app?vid=bcd9fb44-ed05-44c9-878a-277f605bfc18"},"vehicle_type_id":"4","last_reported":1720023036,"current_range_meters":9600,"station_id":"ce4bh0h2rcd13ifvqd40","pricing_plan_id":"cebpf4jnsgd1na2vs0mg"},{"bike_id":"764f5ea3-1124-47ea-b4eb-4a7373b416d2","system_id":"levelo_inurba_marseille","lat":43.301117,"lon":5.398795,"is_reserved":false,"is_disabled":false,"rental_uris":{"android":"levelo://app?vid=764f5ea3-1124-47ea-b4eb-4a7373b416d2","ios":"levelo://app?vid=764f5ea3-1124-47ea-b4eb-4a7373b416d2"},"vehicle_type_id":"4","last_reported":1720023036,"current_range_meters":26800,"station_id":"ce4bh0h2rcd13ifvqd40","pricing_plan_id":"cebpf4jnsgd1na2vs0mg"},{"bike_id":"509ab9b4-3ed2-4db5-9637-f3859efe5533","system_id":"levelo_inurba_marseille","lat":43.30135,"lon":5.39864,"is_reserved":false,"is_disabled":false,"rental_uris":{"android":"levelo://app?vid=509ab9b4-3ed2-4db5-9637-f3859efe5533","ios":"levelo://app?vid=509ab9b4-3ed2-4db5-9637-f3859efe5533"},"vehicle_type_id":"4","last_reported":1720023036,"current_range_meters":13200,"station_id":"ce4bh0h2rcd13ifvqd40","pricing_plan_id":"cebpf4jnsgd1na2vs0mg"},{"bike_id":"48f3eaf4-3350-49fd-a596-1832fbe87a84","system_id":"levelo_inurba_marseille","lat":43.301117,"lon":5.398795,"is_reserved":false,"is_disabled":false,"rental_uris":{"android":"levelo://app?vid=48f3eaf4-3350-49fd-a596-1832fbe87a84","ios":"levelo://app?vid=48f3eaf4-3350-49fd-a596-1832fbe87a84"},"vehicle_type_id":"4","last_reported":1720023036,"current_range_meters":0,"station_id":"ce4bh0h2rcd13ifvqd40","pricing_plan_id":"cebpf4jnsgd1na2vs0mg"},{"bike_id":"71b655df-f812-4a85-8b32-df2d071eb277","system_id":"levelo_inurba_marseille","lat":43.301117,"lon":5.398795,"is_reserved":false,"is_disabled":false,"rental_uris":{"android":"levelo://app?vid=71b655df-f812-4a85-8b32-df2d071eb277","ios":"levelo://app?vid=71b655df-f812-4a85-8b32-df2d071eb277"},"vehicle_type_id":"4","last_reported":1720023036,"current_range_meters":3200,"station_id":"ce4bh0h2rcd13ifvqd40","pricing_plan_id":"cebpf4jnsgd1na2vs0mg"},{"bike_id":"4e983c18-4c23-48a3-b77d-d0128399b948","system_id":"levelo_inurba_marseille","lat":43.28727,"lon":5.36088,"is_reserved":false,"is_disabled":false,"rental_uris":{"android":"levelo://app?vid=4e983c18-4c23-48a3-b77d-d0128399b948","ios":"levelo://app?vid=4e983c18-4c23-48a3-b77d-d0128399b948"},"vehicle_type_id":"4","last_reported":1720023036,"current_range_meters":28000,"station_id":"cki0cbj6b192h4jlfktg","pricing_plan_id":"cebpf4jnsgd1na2vs0mg"},{"bike_id":"68c2546f-4c6b-4603-ac3b-40783e987bc9","system_id":"levelo_inurba_marseille","lat":43.28725,"lon":5.36088,"is_reserved":false,"is_disabled":false,"rental_uris":{"android":"levelo://app?vid=68c2546f-4c6b-4603-ac3b-40783e987bc9","ios":"levelo://app?vid=68c2546f-4c6b-4603-ac3b-40783e987bc9"},"vehicle_type_id":"4","last_reported":1720023036,"current_range_meters":24000,"station_id":"cki0cbj6b192h4jlfktg","pricing_plan_id":"cebpf4jnsgd1na2vs0mg"},{"bike_id":"15878493-3681-44d9-9524-225ce41f88ae","system_id":"levelo_inurba_marseille","lat":43.301117,"lon":5.398795,"is_reserved":false,"is_disabled":false,"rental_uris":{"android":"levelo://app?vid=15878493-3681-44d9-9524-225ce41f88ae","ios":"levelo://app?vid=15878493-3681-44d9-9524-225ce41f88ae"},"vehicle_type_id":"4","last_reported":1720023036,"current_range_meters":23200,"station_id":"ce4bh0h2rcd13ifvqd40","pricing_plan_id":"cebpf4jnsgd1na2vs0mg"},{"bike_id":"9f8a815a-05db-483a-a72b-18682870096e","system_id":"levelo_inurba_marseille","lat":43.287222,"lon":5.360868,"is_reserved":false,"is_disabled":false,"rental_uris":{"android":"levelo://app?vid=9f8a815a-05db-483a-a72b-18682870096e","ios":"levelo://app?vid=9f8a815a-05db-483a-a72b-18682870096e"},"vehicle_type_id":"4","last_reported":1720023036,"current_range_meters":3600,"station_id":"cki0cbj6b192h4jlfktg","pricing_plan_id":"cebpf4jnsgd1na2vs0mg"},{"bike_id":"fbff2c83-86dc-423f-864d-fb13d3782d15","system_id":"levelo_inurba_marseille","lat":43.28727,"lon":5.36078,"is_reserved":false,"is_disabled":false,"rental_uris":{"android":"levelo://app?vid=fbff2c83-86dc-423f-864d-fb13d3782d15","ios":"levelo://app?vid=fbff2c83-86dc-423f-864d-fb13d3782d15"},"vehicle_type_id":"4","last_reported":1720023036,"current_range_meters":18400,"station_id":"cki0cbj6b192h4jlfktg","pricing_plan_id":"cebpf4jnsgd1na2vs0mg"},{"bike_id":"4b1546ab-607f-402b-b73a-80adebde43ab","system_id":"levelo_inurba_marseille","lat":43.28727,"lon":5.36078,"is_reserved":false,"is_disabled":false,"rental_uris":{"android":"levelo://app?vid=4b1546ab-607f-402b-b73a-80adebde43ab","ios":"levelo://app?vid=4b1546ab-607f-402b-b73a-80adebde43ab"},"vehicle_type_id":"4","last_reported":1720023036,"current_range_meters":16400,"station_id":"cki0cbj6b192h4jlfktg","pricing_plan_id":"cebpf4jnsgd1na2vs0mg"},{"bike_id":"ca80bef8-5cbc-49ed-99cf-d5082bd62fc1","system_id":"levelo_inurba_marseille","lat":43.286591,"lon":5.363346,"is_reserved":false,"is_disabled":false,"rental_uris":{"android":"levelo://app?vid=ca80bef8-5cbc-49ed-99cf-d5082bd62fc1","ios":"levelo://app?vid=ca80bef8-5cbc-49ed-99cf-d5082bd62fc1"},"vehicle_type_id":"4","last_reported":1720023036,"current_range_meters":19600,"station_id":"ce4bhah2rcd13ifvqej0","pricing_plan_id":"cebpf4jnsgd1na2vs0mg"},{"bike_id":"ca1867f8-97af-449c-87b0-e5d3811ff56b","system_id":"levelo_inurba_marseille","lat":43.298681,"lon":5.397225,"is_reserved":false,"is_disabled":false,"rental_uris":{"android":"levelo://app?vid=ca1867f8-97af-449c-87b0-e5d3811ff56b","ios":"levelo://app?vid=ca1867f8-97af-449c-87b0-e5d3811ff56b"},