{"last_updated":1732212770,"ttl":60,"version":"2.2","data":{"bikes":[{"bike_id":"11cecba1-40ac-4658-9f23-30f0443b678e","system_id":"levelo_inurba_marseille","lat":43.30913,"lon":5.36848,"is_reserved":false,"is_disabled":false,"rental_uris":{"android":"levelo://app?vid=11cecba1-40ac-4658-9f23-30f0443b678e","ios":"levelo://app?vid=11cecba1-40ac-4658-9f23-30f0443b678e"},"vehicle_type_id":"4","last_reported":1732212770,"current_range_meters":13600,"station_id":"ce4bgn92rcd13ifvqbvg","pricing_plan_id":"cebpf4jnsgd1na2vs0mg"},{"bike_id":"a10be396-1705-483a-9984-718f9d010c8e","system_id":"levelo_inurba_marseille","lat":43.29874,"lon":5.39752,"is_reserved":false,"is_disabled":true,"rental_uris":{"android":"levelo://app?vid=a10be396-1705-483a-9984-718f9d010c8e","ios":"levelo://app?vid=a10be396-1705-483a-9984-718f9d010c8e"},"vehicle_type_id":"4","last_reported":1732212770,"current_range_meters":0,"station_id":"ce4bh0h2rcd13ifvqd50","pricing_plan_id":"cebpf4jnsgd1na2vs0mg"},{"bike_id":"156320ae-cdf1-448d-a5dd-5f82d48b8bf7","system_id":"levelo_inurba_marseille","lat":43.28613,"lon":5.35101,"is_reserved":false,"is_disabled":false,"rental_uris":{"android":"levelo://app?vid=156320ae-cdf1-448d-a5dd-5f82d48b8bf7","ios":"levelo://app?vid=156320ae-cdf1-448d-a5dd-5f82d48b8bf7"},"vehicle_type_id":"4","last_reported":1732212770,"current_range_meters":36000,"station_id":"ce4bhch2rcd13ifvqeug","pricing_plan_id":"cebpf4jnsgd1na2vs0mg"},{"bike_id":"a0824327-19d5-4974-a106-19cb0a083361","system_id":"levelo_inurba_marseille","lat":43.29035,"lon":5.39967,"is_reserved":false,"is_disabled":false,"rental_uris":{"android":"levelo://app?vid=a0824327-19d5-4974-a106-19cb0a083361","ios":"levelo://app?vid=a0824327-19d5-4974-a106-19cb0a083361"},"vehicle_type_id":"4","last_reported":1732212770,"current_range_meters":38000,"station_id":"ce4bh392rcd13ifvqdm0","pricing_plan_id":"cebpf4jnsgd1na2vs0mg"},{"bike_id":"87ba0e5a-3832-4543-b32b-6350b38880d0","system_id":"levelo_inurba_marseille","lat":43.26063,"lon":5.39388,"is_reserved":false,"is_disabled":false,"rental_uris":{"android":"levelo://app?vid=87ba0e5a-3832-4543-b32b-6350b38880d0","ios":"levelo://app?vid=87ba0e5a-3832-4543-b32b-6350b38880d0"},"vehicle_type_id":"4","last_reported":1732212770,"current_range_meters":24000,"station_id":"ce4bhh92rcd13ifvqfj0","pricing_plan_id":"cebpf4jnsgd1na2vs0mg"},{"bike_id":"8527133f-e94b-41ef-9b16-c99901d73e95","system_id":"levelo_inurba_marseille","lat":43.25582,"lon":5.38242,"is_reserved":false,"is_disabled":false,"rental_uris":{"android":"levelo://app?vid=8527133f-e94b-41ef-9b16-c99901d73e95","ios":"levelo://app?vid=8527133f-e94b-41ef-9b16-c99901d73e95"},"vehicle_type_id":"4","last_reported":1732212770,"current_range_meters":37600,"station_id":"ce4bhih2rcd13ifvqfs0","pricing_plan_id":"cebpf4jnsgd1na2vs0mg"},{"bike_id":"6e28ef50-510a-4487-a222-c9d891853f27","system_id":"levelo_inurba_marseille","lat":43.30154,"lon":5.3809,"is_reserved":false,"is_disabled":true,"rental_uris":{"android":"levelo://app?vid=6e28ef50-510a-4487-a222-c9d891853f27","ios":"levelo://app?vid=6e28ef50-510a-4487-a222-c9d891853f27"},"vehicle_type_id":"4","last_reported":1732212770,"current_range_meters":0,"station_id":"ce4bgjp2rcd13ifvqbh0","pricing_plan_id":"cebpf4jnsgd1na2vs0mg"},{"bike_id":"a495e077-d6a7-414c-b761-8ee8983002b2","system_id":"levelo_inurba_marseille","lat":43.27178,"lon":5.40993,"is_reserved":false,"is_disabled":false,"rental_uris":{"android":"levelo://app?vid=a495e077-d6a7-414c-b761-8ee8983002b2","ios":"levelo://app?vid=a495e077-d6a7-414c-b761-8ee8983002b2"},"vehicle_type_id":"4","last_reported":1732212770,"current_range_meters":32800,"station_id":"ce4bhl12rcd13ifvqgf0","pricing_plan_id":"cebpf4jnsgd1na2vs0mg"},{"bike_id":"54aaffa4-3b5a-4b20-98be-cf6af0d90cf7","system_id":"levelo_inurba_marseille","lat":43.30801,"lon":5.43525,"is_reserved":false,"is_disabled":false,"rental_uris":{"android":"levelo://app?vid=54aaffa4-3b5a-4b20-98be-cf6af0d90cf7","ios":"levelo://app?vid=54aaffa4-3b5a-4b20-98be-cf6af0d90cf7"},"vehicle_type_id":"4","last_reported":1732212770,"current_range_meters":4000,"station_id":"ce4bhph2rcd13ifvqheg","pricing_plan_id":"cebpf4jnsgd1na2vs0mg"},{"bike_id":"1f203897-1164-43c5-8a36-2a35df13aaf6","system_id":"levelo_inurba_marseille","lat":43.23154,"lon":5.43718,"is_reserved":false,"is_disabled":true,"rental_uris":{"android":"levelo://app?vid=1f203897-1164-43c5-8a36-2a35df13aaf6","ios":"levelo://app?vid=1f203897-1164-43c5-8a36-2a35df13aaf6"},"vehicle_type_id":"4","last_reported":1732212770,"current_range_meters":1200,"station_id":"ce4bhmp2rcd13ifvqgog","pricing_plan_id":"cebpf4jnsgd1na2vs0mg"},{"bike_id":"3a076054-5799-4ac5-82a3-cb0f017ae5a2","system_id":"levelo_inurba_marseille","lat":43.2926,"lon":5.38443,"is_reserved":false,"is_disabled":false,"rental_uris":{"android":"levelo://app?vid=3a076054-5799-4ac5-82a3-cb0f017ae5a2","ios":"levelo://app?vid=3a076054-5799-4ac5-82a3-cb0f017ae5a2"},"vehicle_type_id":"4","last_reported":1732212770,"current_range_meters":30400,"station_id":"ce4bh692rcd13ifvqea0","pricing_plan_id":"cebpf4jnsgd1na2vs0mg"},{"bike_id":"428d72ce-47cc-4c94-841a-e3c923cc1cb6","system_id":"levelo_inurba_marseille","lat":43.28697,"lon":5.37382,"is_reserved":false,"is_disabled":true,"rental_uris":{"android":"levelo://app?vid=428d72ce-47cc-4c94-841a-e3c923cc1cb6","ios":"levelo://app?vid=428d72ce-47cc-4c94-841a-e3c923cc1cb6"},"vehicle_type_id":"4","last_reported":1732212770,"current_range_meters":32400,"station_id":"ce4bh3p2rcd13ifvqdq0","pricing_plan_id":"cebpf4jnsgd1na2vs0mg"},{"bike_id":"cc45001e-86ba-42cc-9993-ed5261abbfe0","system_id":"levelo_inurba_marseille","lat":43.32364,"lon":5.38882,"is_reserved":false,"is_disabled":false,"rental_uris":{"android":"levelo://app?vid=cc45001e-86ba-42cc-9993-ed5261abbfe0","ios":"levelo://app?vid=cc45001e-86ba-42cc-9993-ed5261abbfe0"},"vehicle_type_id":"4","last_reported":1732212770,"current_range_meters":18000,"station_id":"ce4bhqp2rcd13ifvqhog","pricing_plan_id":"cebpf4jnsgd1na2vs0mg"},{"bike_id":"6ce5bbf1-78ea-4c66-a3f8-d059640754c6","system_id":"levelo_inurba_marseille","lat":43.29571,"lon":5.39976,"is_reserved":false,"is_disabled":false,"rental_uris":{"android":"levelo://app?vid=6ce5bbf1-78ea-4c66-a3f8-d059640754c6","ios":"levelo://app?vid=6ce5bbf1-78ea-4c66-a3f8-d059640754c6"},"vehicle_type_id":"4","last_reported":1732212770,"current_range_meters":12400,"station_id":"ce4bh312rcd13ifvqdj0","pricing_plan_id":"cebpf4jnsgd1na2vs0mg"},{"bike_id":"b5e2a9b7-bda8-49ee-b5d5-f4e0fb8c73c3","system_id":"levelo_inurba_marseille","lat":43.26802,"lon":5.40269,"is_reserved":false,"is_disabled":false,"rental_uris":{"android":"levelo://app?vid=b5e2a9b7-bda8-49ee-b5d5-f4e0fb8c73c3","ios":"levelo://app?vid=b5e2a9b7-bda8-49ee-b5d5-f4e0fb8c73c3"},"vehicle_type_id":"4","last_reported":1732212770,"current_range_meters":6800,"station_id":"ce501612rcd8frsf0b60","pricing_plan_id":"cebpf4jnsgd1na2vs0mg"},{"bike_id":"c0755ad7-8353-40d1-98a4-bba43ca0e3ab","system_id":"levelo_inurba_marseille","lat":43.33728,"lon":5.39179,"is_reserved":false,"is_disabled":false,"rental_uris":{"android":"levelo://app?vid=c0755ad7-8353-40d1-98a4-bba43ca0e3ab","ios":"levelo://app?vid=c0755ad7-8353-40d1-98a4-bba43ca0e3ab"},"vehicle_type_id":"4","last_reported":1732212770,"current_range_meters":17600,"station_id":"ce4bhr92rcd13ifvqhsg","pricing_plan_id":"cebpf4jnsgd1na2vs0mg"},{"bike_id":"a9a4af61-0fd7-4a8f-8c37-b9e8613d2302","system_id":"levelo_inurba_marseille","lat":43.23186,"lon":5.39993,"is_reserved":false,"is_disabled":true,"rental_uris":{"android":"levelo://app?vid=a9a4af61-0fd7-4a8f-8c37-b9e8613d2302","ios":"levelo://app?vid=a9a4af61-0fd7-4a8f-8c37-b9e8613d2302"},"vehicle_type_id":"4","last_reported":1732212770,"current_range_meters":0,"station_id":"ce4bhn12rcd13ifvqgqg","pricing_plan_id":"cebpf4jnsgd1na2vs0mg"},{"bike_id":"8181d04a-7f0e-4ec6-bb31-c9a42248f31c","system_id":"levelo_inurba_marseille","lat":43.30136,"lon":5.38785,"is_reserved":false,"is_disabled":true,"rental_uris":{"android":"levelo://app?vid=8181d04a-7f0e-4ec6-bb31-c9a42248f31c","ios":"levelo://app?vid=8181d04a-7f0e-4ec6-bb31-c9a42248f31c"},"vehicle_type_id":"4","last_reported":1732212770,"current_range_meters":32800,"station_id":"ce4bghh2rcd13ifvqb60","pricing_plan_id":"cebpf4jnsgd1na2vs0mg"},{"bike_id":"6ae980a7-4432-4295-8684-d01f7169a6e2","system_id":"levelo_inurba_marseille","lat":43.30601,"lon":5.37232,"is_reserved":false,"is_disabled":false,"rental_uris":{"android":"levelo://app?vid=6ae980a7-4432-4295-8684-d01f7169a6e2","ios":"levelo://app?vid=6ae980a7-4432-4295-8684-d01f7169a6e2"},"vehicle_type_id":"4","last_reported":1732212770,"current_range_meters":9600,"station_id":"ce4bgqh2rcd13ifvqc4g","pricing_plan_id":"cebpf4jnsgd1na2vs0mg"},{"bike_id":"fc37852d-a3cd-46eb-87e8-e4aabc412de0","system_id":"levelo_inurba_marseille","lat":43.30878,"lon":5.39637,"is_reserved":false,"is_disabled":false,"rental_uris":{"android":"levelo://app?vid=fc37852d-a3cd-46eb-87e8-e4aabc412de0","ios":"levelo://app?vid=fc37852d-a3cd-46eb-87e8-e4aabc412de0"},"vehicle_type_id":"4","last_reported":1732212770,"current_range_meters":24400,"station_id":"ce4bh012rcd13ifvqcv0","pricing_plan_id":"cebpf4jnsgd1na2vs0mg"},{"bike_id":"265cfe28-74d8-4adb-9f9b-eeacebf399fa","system_id":"levelo_inurba_marseille","lat":43.31225,"lon":5.36855,"is_reserved":false,"is_disabled":false,"rental_uris":{"android":"levelo://app?vid=265cfe28-74d8-4adb-9f9b-eeacebf399fa","ios":"levelo://app?vid=265cfe28-74d8-4adb-9f9b-eeacebf399fa"},"vehicle_type_id":"4","last_reported":1732212770,"current_range_meters":14000,"station_id":"ce4bgl92rcd13ifvqbq0","pricing_plan_id":"cebpf4jnsgd1na2vs0mg"},{"bike_id":"fd1e905e-0070-4395-8279-72b1c9e566e2","system_id":"levelo_inurba_marseille","lat":43.28716,"lon":5.37928,"is_reserved":false,"is_disabled":true,"rental_uris":{"android":"levelo://app?vid=fd1e905e-0070-4395-8279-72b1c9e566e2","ios":"levelo://app?vid=fd1e905e-0070-4395-8279-72b1c9e566e2"},"vehicle_type_id":"4","last_reported":1732212770,"current_range_meters":0,"station_id":"ce4bh9p2rcd13ifvqec0","pricing_plan_id":"cebpf4jnsgd1na2vs0mg"},{"bike_id":"d2321b4c-ae3a-4b43-8bcd-12cb7984481d","system_id":"levelo_inurba_marseille","lat":43.30755,"lon":5.37008,"is_reserved":false,"is_disabled":true,"rental_uris":{"android":"levelo://app?vid=d2321b4c-ae3a-4b43-8bcd-12cb7984481d","ios":"levelo://app?vid=d2321b4c-ae3a-4b43-8bcd-12cb7984481d"},"vehicle_type_id":"4","last_reported":1732212770,"current_range_meters":22400,"station_id":"","pricing_plan_id":"cebpf4jnsgd1na2vs0mg"},{"bike_id":"eba35b14-0ea4-4a4f-9525-dc9511c16675","system_id":"levelo_inurba_marseille","lat":43.29715,"lon":5.36613,"is_reserved":false,"is_disabled":false,"rental_uris":{"android":"levelo://app?vid=eba35b14-0ea4-4a4f-9525-dc9511c16675","ios":"levelo://app?vid=eba35b14-0ea4-4a4f-9525-dc9511c16675"},"vehicle_type_id":"4","last_reported":1732212770,"current_range_meters":22000,"station_id":"ce4bgn12rcd13ifvqbt0","pricing_plan_id":"cebpf4jnsgd1na2vs0mg"},{"bike_id":"5c3000a0-a190-4007-a723-aa2707fd1ce3","system_id":"levelo_inurba_marseille","lat":43.229345,"lon":5.353846,"is_reserved":false,"is_disabled":false,"rental_uris":{"android":"levelo://app?vid=5c3000a0-a190-4007-a723-aa2707fd1ce3","ios":"levelo://app?vid=5c3000a0-a190-4007-a723-aa2707fd1ce3"},"vehicle_type_id":"4","last_reported":1732212770,"current_range_meters":40000,"station_id":"cpo3532slgdg3j2ikp40","pricing_plan_id":"cebpf4jnsgd1na2vs0mg"},{"bike_id":"78007081-b52a-4f3b-9153-6ed04cc1696b","system_id":"levelo_inurba_marseille","lat":43.28669,"lon":5.38669,"is_reserved":false,"is_disabled":false,"rental_uris":{"android":"levelo://app?vid=78007081-b52a-4f3b-9153-6ed04cc1696b","ios":"levelo://app?vid=78007081-b52a-4f3b-9153-6ed04cc1696b"},"vehicle_type_id":"4","last_reported":1732212770,"current_range_meters":4800,"station_id":"ce4bh492rcd13ifvqdug","pricing_plan_id":"cebpf4jnsgd1na2vs0mg"},{"bike_id":"9bf00278-281e-45df-b9cb-0f55e5af1df2","system_id":"levelo_inurba_marseille","lat":43.25575,"lon":5.38231,"is_reserved":false,"is_disabled":false,"rental_uris":{"android":"levelo://app?vid=9bf00278-281e-45df-b9cb-0f55e5af1df2","ios":"levelo://app?vid=9bf00278-281e-45df-b9cb-0f55e5af1df2"},"vehicle_type_id":"4","last_reported":1732212770,"current_range_meters":38800,"station_id":"ce4bhih2rcd13ifvqfs0","pricing_plan_id":"cebpf4jnsgd1na2vs0mg"},{"bike_id":"1caada37-0054-42e5-a957-bf1732db7f3a","system_id":"levelo_inurba_marseille","lat":43.29572,"lon":5.39978,"is_reserved":false,"is_disabled":false,"rental_uris":{"android":"levelo://app?vid=1caada37-0054-42e5-a957-bf1732db7f3a","ios":"levelo://app?vid=1caada37-0054-42e5-a957-bf1732db7f3a"},"vehicle_type_id":"4","last_reported":1732212770,"current_range_meters":37600,"station_id":"ce4bh312rcd13ifvqdj0","pricing_plan_id":"cebpf4jnsgd1na2vs0mg"},{"bike_id":"922bd877-8ef2-4e72-a9c2-b448135ba6e2","system_id":"levelo_inurba_marseille","lat":43.23195,"lon":5.3555,"is_reserved":false,"is_disabled":false,"rental_uris":{"android":"levelo://app?vid=922bd877-8ef2-4e72-a9c2-b448135ba6e2","ios":"levelo://app?vid=922bd877-8ef2-4e72-a9c2-b448135ba6e2"},"vehicle_type_id":"4","last_reported":1732212770,"current_range_meters":18800,"station_id":"ce4bhu92rcd13ifvqi70","pricing_plan_id":"cebpf4jnsgd1na2vs0mg"},{"bike_id":"bce669d9-80b2-46dc-ae85-f9fc0bcb2978","system_id":"levelo_inurba_marseille","lat":43.27898,"lon":5.38013,"is_reserved":false,"is_disabled":false,"rental_uris":{"android":"levelo://app?vid=bce669d9-80b2-46dc-ae85-f9fc0bcb2978","ios":"levelo://app?vid=bce669d9-80b2-46dc-ae85-f9fc0bcb2978"},"vehicle_type_id":"4","last_reported":1732212770,"current_range_meters":9200,"station_id":"ce4bhf92rcd13ifvqf50","pricing_plan_id":"cebpf4jnsgd1na2vs0mg"},{"bike_id":"895dae95-9dde-4a45-9252-bfb2ffb1ef60","system_id":"levelo_inurba_marseille","lat":43.29842,"lon":5.3627,"is_reserved":false,"is_disabled":false,"rental_uris":{"android":"levelo://app?vid=895dae95-9dde-4a45-9252-bfb2ffb1ef60","ios":"levelo://app?vid=895dae95-9dde-4a45-9252-bfb2ffb1ef60"},"vehicle_type_id":"4","last_reported":1732212770,"current_range_meters":38800,"station_id":"ce4bgpp2rcd13ifvqc3g","pricing_plan_id":"cebpf4jnsgd1na2vs0mg"},{"bike_id":"0537b288-f6d5-4a4a-b5a0-fbb6f073f2c1","system_id":"levelo_inurba_marseille","lat":43.30529,"lon":5.36537,"is_reserved":false,"is_disabled":false,"rental_uris":{"android":"levelo://app?vid=0537b288-f6d5-4a4a-b5a0-fbb6f073f2c1","ios":"levelo://app?vid=0537b288-f6d5-4a4a-b5a0-fbb6f073f2c1"},"vehicle_type_id":"4","last_reported":1732212770,"current_range_meters":38800,"station_id":"ce4bgs12rcd13ifvqcag","pricing_plan_id":"cebpf4jnsgd1na2vs0mg"},{"bike_id":"85d220bc-cd5c-4076-ad44-b62066a2c875","system_id":"levelo_inurba_marseille","lat":43.27564,"lon":5.38415,"is_reserved":false,"is_disabled":false,"rental_uris":{"android":"levelo://app?vid=85d220bc-cd5c-4076-ad44-b62066a2c875","ios":"levelo://app?vid=85d220bc-cd5c-4076-ad44-b62066a2c875"},"vehicle_type_id":"4","last_reported":1732212770,"current_range_meters":18000,"station_id":"ce4bhh92rcd13ifvqfi0","pricing_plan_id":"cebpf4jnsgd1na2vs0mg"},{"bike_id":"48cd0835-aecf-4328-9ec2-0085c18d7831","system_id":"levelo_inurba_marseille","lat":43.27568,"lon":5.38408,"is_reserved":false,"is_disabled":true,"rental_uris":{"android":"levelo://app?vid=48cd0835-aecf-4328-9ec2-0085c18d7831","ios":"levelo://app?vid=48cd0835-aecf-4328-9ec2-0085c18d7831"},"vehicle_type_id":"4","last_reported":1732212770,"current_range_meters":39200,"station_id":"ce4bhh92rcd13ifvqfi0","pricing_plan_id":"cebpf4jnsgd1na2vs0mg"},{"bike_id":"1cd0daee-d68a-4e66-9883-fbe67fd8260f","system_id":"levelo_inurba_marseille","lat":43.30578,"lon":5.37114,"is_reserved":false,"is_disabled":true,"rental_uris":{"android":"levelo://app?vid=1cd0daee-d68a-4e66-9883-fbe67fd8260f","ios":"levelo://app?vid=1cd0daee-d68a-4e66-9883-fbe67fd8260f"},"vehicle_type_id":"4","last_reported":1732212770,"current_range_meters":0,"station_id":"","pricing_plan_id":"cebpf4jnsgd1na2vs0mg"},{"bike_id":"c0c698ca-3003-4251-a134-b88be1426b15","system_id":"levelo_inurba_marseille","lat":43.31878,"lon":5.40736,"is_reserved":false,"is_disabled":false,"rental_uris":{"android":"levelo://app?vid=c0c698ca-3003-4251-a134-b88be1426b15","ios":"levelo://app?vid=c0c698ca-3003-4251-a134-b88be1426b15"},"vehicle_type_id":"4","last_reported":1732212770,"current_range_meters":23200,"station_id":"ce4bhq12rcd13ifvqhig","pricing_plan_id":"cebpf4jnsgd1na2vs0mg"},{"bike_id":"935ecd97-c469-4d8b-b8e5-b0a0edae57d4","system_id":"levelo_inurba_marseille","lat":43.29316,"lon":5.37163,"is_reserved":false,"is_disabled":false,"rental_uris":{"android":"levelo://app?vid=935ecd97-c469-4d8b-b8e5-b0a0edae57d4","ios":"levelo://app?vid=935ecd97-c469-4d8b-b8e5-b0a0edae57d4"},"vehicle_type_id":"4","last_reported":1732212770,"current_range_meters":38800,"station_id":"ce4bgh92rcd13ifvqb40","pricing_plan_id":"cebpf4jnsgd1na2vs0mg"},{"bike_id":"96df9e2f-72bc-414d-b745-40a65fc547e8","system_id":"levelo_inurba_marseille","lat":43.29417,"lon":5.38624,"is_reserved":false,"is_disabled":false,"rental_uris":{"android":"levelo://app?vid=96df9e2f-72bc-414d-b745-40a65fc547e8","ios":"levelo://app?vid=96df9e2f-72bc-414d-b745-40a65fc547e8"},"vehicle_type_id":"4","last_reported":1732212770,"current_range_meters":10800,"station_id":"ce4bh2h2rcd13ifvqdh0","pricing_plan_id":"cebpf4jnsgd1na2vs0mg"},{"bike_id":"38c3425a-9757-4ae5-b002-9a5d74bf8111","system_id":"levelo_inurba_marseille","lat":43.32539,"lon":5.4145,"is_reserved":false,"is_disabled":false,"rental_uris":{"android":"levelo://app?vid=38c3425a-9757-4ae5-b002-9a5d74bf8111","ios":"levelo://app?vid=38c3425a-9757-4ae5-b002-9a5d74bf8111"},"vehicle_type_id":"4","last_reported":1732212770,"current_range_meters":38000,"station_id":"ce4bhq12rcd13ifvqhhg","pricing_plan_id":"cebpf4jnsgd1na2vs0mg"},{"bike_id":"cbc9f3c1-4348-4707-b560-0243bcecad2d","system_id":"levelo_inurba_marseille","lat":43.28043,"lon":5.36949,"is_reserved":false,"is_disabled":false,"rental_uris":{"android":"levelo://app?vid=cbc9f3c1-4348-4707-b560-0243bcecad2d","ios":"levelo://app?vid=cbc9f3c1-4348-4707-b560-0243bcecad2d"},"vehicle_type_id":"4","last_reported":1732212770,"current_range_meters":25600,"station_id":"ce4bha12rcd13ifvqef0","pricing_plan_id":"cebpf4jnsgd1na2vs0mg"},{"bike_id":"a7fce1eb-2f2a-4561-bd8b-f77092da043b","system_id":"levelo_inurba_marseille","lat":43.27067,"lon":5.42291,"is_reserved":false,"is_disabled":true,"rental_uris":{"android":"levelo://app?vid=a7fce1eb-2f2a-4561-bd8b-f77092da043b","ios":"levelo://app?vid=a7fce1eb-2f2a-4561-bd8b-f77092da043b"},"vehicle_type_id":"4","last_reported":1732212770,"current_range_meters":26000,"station_id":"ce4bhk92rcd13ifvqgb0","pricing_plan_id":"cebpf4jnsgd1na2vs0mg"},{"bike_id":"4fa70e8b-1f98-4a83-bd07-f7b4d435987d","system_id":"levelo_inurba_marseille","lat":43.29027,"lon":5.38649,"is_reserved":false,"is_disabled":false,"rental_uris":{"android":"levelo://app?vid=4fa70e8b-1f98-4a83-bd07-f7b4d435987d","ios":"levelo://app?vid=4fa70e8b-1f98-4a83-bd07-f7b4d435987d"},"vehicle_type_id":"4","last_reported":1732212770,"current_range_meters":16400,"station_id":"ce4bh4p2rcd13ifvqe0g","pricing_plan_id":"cebpf4jnsgd1na2vs0mg"},{"bike_id":"862c41e6-e6fd-4c9b-8ad0-633defdb625c","system_id":"levelo_inurba_marseille","lat":43.27058,"lon":5.40261,"is_reserved":false,"is_disabled":false,"rental_uris":{"android":"levelo://app?vid=862c41e6-e6fd-4c9b-8ad0-633defdb625c","ios":"levelo://app?vid=862c41e6-e6fd-4c9b-8ad0-633defdb625c"},"vehicle_type_id":"4","last_reported":1732212770,"current_range_meters":30400,"station_id":"ce4bhk92rcd13ifvqgc0","pricing_plan_id":"cebpf4jnsgd1na2vs0mg"},{"bike_id":"a5d7753e-62bd-469b-8c08-d41882ed7e14","system_id":"levelo_inurba_marseille","lat":43.28718,"lon":5.36087,"is_reserved":false,"is_disabled":false,"rental_uris":{"android":"levelo://app?vid=a5d7753e-62bd-469b-8c08-d41882ed7e14","ios":"levelo://app?vid=a5d7753e-62bd-469b-8c08-d41882ed7e14"},"vehicle_type_id":"4","last_reported":1732212770,"current_range_meters":11600,"station_id":"cki0cbj6b192h4jlfktg","pricing_plan_id":"cebpf4jnsgd1na2vs0mg"},{"bike_id":"84868a89-7305-4f10-a01d-a7ee8f6eed55","system_id":"levelo_inurba_marseille","lat":43.30948,"lon":5.3903,"is_reserved":false,"is_disabled":false,"rental_uris":{"android":"levelo://app?vid=84868a89-7305-4f10-a01d-a7ee8f6eed55","ios":"levelo://app?vid=84868a89-7305-4f10-a01d-a7ee8f6eed55"},"vehicle_type_id":"4","last_reported":1732212770,"current_range_meters":20400,"station_id":"ce4bgup2rcd13ifvqco0","pricing_plan_id":"cebpf4jnsgd1na2vs0mg"},{"bike_id":"45a83c4e-4b08-4e7d-9aa7-ce2060830b65","system_id":"levelo_inurba_marseille","lat":43.29419,"lon":5.38615,"is_reserved":false,"is_disabled":true,"rental_uris":{"android":"levelo://app?vid=45a83c4e-4b08-4e7d-9aa7-ce2060830b65","ios":"levelo://app?vid=45a83c4e-4b08-4e7d-9aa7-ce2060830b65"},"vehicle_type_id":"4","last_reported":1732212770,"current_range_meters":0,"station_id":"ce4bh2h2rcd13ifvqdh0","pricing_plan_id":"cebpf4jnsgd1na2vs0mg"},{"bike_id":"9762ad32-8bcd-456d-bcbf-0e024d6cc0c8","system_id":"levelo_inurba_marseille","lat":43.28668,"lon":5.38659,"is_reserved":false,"is_disabled":false,"rental_uris":{"android":"levelo://app?vid=9762ad32-8bcd-456d-bcbf-0e024d6cc0c8","ios":"levelo://app?vid=9762ad32-8bcd-456d-bcbf-0e024d6cc0c8"},"vehicle_type_id":"4","last_reported":1732212770,"current_range_meters":35200,"station_id":"ce4bh492rcd13ifvqdug","pricing_plan_id":"cebpf4jnsgd1na2vs0mg"},{"bike_id":"0661744c-b366-418a-a5da-eacf7215a7a7","system_id":"levelo_inurba_marseille","lat":43.32336,"lon":5.40625,"is_reserved":false,"is_disabled":false,"rental_uris":{"android":"levelo://app?vid=0661744c-b366-418a-a5da-eacf7215a7a7","ios":"levelo://app?vid=0661744c-b366-418a-a5da-eacf7215a7a7"},"vehicle_type_id":"4","last_reported":1732212770,"current_range_meters":14800,"station_id":"ce4bhq92rcd13ifvqhjg","pricing_plan_id":"cebpf4jnsgd1na2vs0mg"},{"bike_id":"8ae8cf9d-535d-4117-b98b-45d5de8b7cca","system_id":"levelo_inurba_marseille","lat":43.2904,"lon":5.35915,"is_reserved":false,"is_disabled":false,"rental_uris":{"android":"levelo://app?vid=8ae8cf9d-535d-4117-b98b-45d5de8b7cca","ios":"levelo://app?vid=8ae8cf9d-535d-4117-b98b-45d5de8b7cca"},"vehicle_type_id":"4","last_reported":1732212770,"current_range_meters":7200,"station_id":"ce4bha92rcd13ifvqeg0","pricing_plan_id":"cebpf4jnsgd1na2vs0mg"},{"bike_id":"be9ae0a8-c549-4adb-a0f6-54609edbc62f","system_id":"levelo_inurba_marseille","lat":43.2985,"lon":5.36283,"is_reserved":false,"is_disabled":false,"rental_uris":{"android":"levelo://app?vid=be9ae0a8-c549-4adb-a0f6-54609edbc62f","ios":"levelo://app?vid=be9ae0a8-c549-4adb-a0f6-54609edbc62f"},"vehicle_type_id":"4","last_reported":1732212770,"current_range_meters":38800,"station_id":"ce4bgpp2rcd13ifvqc3g","pricing_plan_id":"cebpf4jnsgd1na2vs0mg"},{"bike_id":"567b5bec-6f69-4097-9d92-252add5a5c8a","system_id":"levelo_inurba_marseille","lat":43.25577,"lon":5.38252,"is_reserved":false,"is_disabled":false,"rental_uris":{"android":"levelo://app?vid=567b5bec-6f69-4097-9d92-252add5a5c8a","ios":"levelo://app?vid=567b5bec-6f69-4097-9d92-252add5a5c8a"},"vehicle_type_id":"4","last_reported":1732212770,"current_range_meters":38800,"station_id":"ce4bhih2rcd13ifvqfs0","pricing_plan_id":"cebpf4jnsgd1na2vs0mg"},{"bike_id":"50797971-4d6c-4d44-97df-20b0ab4a9889","system_id":"levelo_inurba_marseille","lat":43.26058,"lon":5.39388,"is_reserved":false,"is_disabled":false,"rental_uris":{"android":"levelo://app?vid=50797971-4d6c-4d44-97df-20b0ab4a9889","ios":"levelo://app?vid=50797971-4d6c-4d44-97df-20b0ab4a9889"},"vehicle_type_id":"4","last_reported":1732212770,"current_range_meters":28400,"station_id":"ce4bhh92rcd13ifvqfj0","pricing_plan_id":"cebpf4jnsgd1na2vs0mg"},{"bike_id":"7d5ba0aa-0f48-4a7f-82de-9d26e1521cfb","system_id":"levelo_inurba_marseille","lat":43.32298,"lon":5.38263,"is_reserved":false,"is_disabled":false,"rental_uris":{"android":"levelo://app?vid=7d5ba0aa-0f48-4a7f-82de-9d26e1521cfb","ios":"levelo://app?vid=7d5ba0aa-0f48-4a7f-82de-9d26e1521cfb"},"vehicle_type_id":"4","last_reported":1732212770,"current_range_meters":25600,"station_id":"ce4bhr12rcd13ifvqhqg","pricing_plan_id":"cebpf4jnsgd1na2vs0mg"},{"bike_id":"550f0269-af81-4f74-bed5-fe17c4459dfd","system_id":"levelo_inurba_marseille","lat":43.25932,"lon":5.40906,"is_reserved":false,"is_disabled":false,"rental_uris":{"android":"levelo://app?vid=550f0269-af81-4f74-bed5-fe17c4459dfd","ios":"levelo://app?vid=550f0269-af81-4f74-bed5-fe17c4459dfd"},"vehicle_type_id":"4","last_reported":1732212770,"current_range_meters":38800,"station_id":"ce4bhm92rcd13ifvqglg","pricing_plan_id":"cebpf4jnsgd1na2vs0mg"},{"bike_id":"9c37a5af-6b01-4e75-9657-7ef6bddc1bc6","system_id":"levelo_inurba_marseille","lat":43.33024,"lon":5.39041,"is_reserved":false,"is_disabled":false,"rental_uris":{"android":"levelo://app?vid=9c37a5af-6b01-4e75-9657-7ef6bddc1bc6","ios":"levelo://app?vid=9c37a5af-6b01-4e75-9657-7ef6bddc1bc6"},"vehicle_type_id":"4","last_reported":1732212770,"current_range_meters":26800,"station_id":"ce4bhr92rcd13ifvqhrg","pricing_plan_id":"cebpf4jnsgd1na2vs0mg"},{"bike_id":"d6d41b2e-30ea-4987-8625-f242318469f8","system_id":"levelo_inurba_marseille","lat":43.28864,"lon":5.35852,"is_reserved":false,"is_disabled":false,"rental_uris":{"android":"levelo://app?vid=d6d41b2e-30ea-4987-8625-f242318469f8","ios":"levelo://app?vid=d6d41b2e-30ea-4987-8625-f242318469f8"},"vehicle_type_id":"4","last_reported":1732212770,"current_range_meters":39200,"station_id":"ce4bhb12rcd13ifvqem0","pricing_plan_id":"cebpf4jnsgd1na2vs0mg"},{"bike_id":"3585d018-4b66-4cf5-bca5-17fcec2fef21","system_id":"levelo_inurba_marseille","lat":43.23197,"lon":5.35554,"is_reserved":false,"is_disabled":false,"rental_uris":{"android":"levelo://app?vid=3585d018-4b66-4cf5-bca5-17fcec2fef21","ios":"levelo://app?vid=3585d018-4b66-4cf5-bca5-17fcec2fef21"},"vehicle_type_id":"4","last_reported":1732212770,"current_range_meters":31200,"station_id":"ce4bhu92rcd13ifvqi70","pricing_plan_id":"cebpf4jnsgd1na2vs0mg"},{"bike_id":"a3938afa-a654-428c-a5fd-d0947961cd45","system_id":"levelo_inurba_marseille","lat":43.27811,"lon":5.40716,"is_reserved":false,"is_disabled":false,"rental_uris":{"android":"levelo://app?vid=a3938afa-a654-428c-a5fd-d0947961cd45","ios":"levelo://app?vid=a3938afa-a654-428c-a5fd-d0947961cd45"},"vehicle_type_id":"4","last_reported":1732212770,"current_range_meters":24000,"station_id":"ce4bhnh2rcd13ifvqgtg","pricing_plan_id":"cebpf4jnsgd1na2vs0mg"},{"bike_id":"a9f60dcd-9a46-4928-be9d-2b0ab7d4cb83","system_id":"levelo_inurba_marseille","lat":43.30797,"lon":5.38163,"is_reserved":false,"is_disabled":false,"rental_uris":{"android":"levelo://app?vid=a9f60dcd-9a46-4928-be9d-2b0ab7d4cb83","ios":"levelo://app?vid=a9f60dcd-9a46-4928-be9d-2b0ab7d4cb83"},"vehicle_type_id":"4","last_reported":1732212770,"current_range_meters":38000,"station_id":"ce4bgt12rcd13ifvqce0","pricing_plan_id":"cebpf4jnsgd1na2vs0mg"},{"bike_id":"014a2801-30b6-4923-892c-57fd9c377862","system_id":"levelo_inurba_marseille","lat":43.29195,"lon":5.3931,"is_reserved":false,"is_disabled":false,"rental_uris":{"android":"levelo://app?vid=014a2801-30b6-4923-892c-57fd9c377862","ios":"levelo://app?vid=014a2801-30b6-4923-892c-57fd9c377862"},"vehicle_type_id":"4","last_reported":1732212770,"current_range_meters":12400,"station_id":"ce4bh192rcd13ifvqdd0","pricing_plan_id":"cebpf4jnsgd1na2vs0mg"},{"bike_id":"e57590cc-a844-462b-b95c-023047b497c3","system_id":"levelo_inurba_marseille","lat":43.26027,"lon":5.3755,"is_reserved":false,"is_disabled":false,"rental_uris":{"android":"levelo://app?vid=e57590cc-a844-462b-b95c-023047b497c3","ios":"levelo://app?vid=e57590cc-a844-462b-b95c-023047b497c3"},"vehicle_type_id":"4","last_reported":1732212770,"current_range_meters":37600,"station_id":"ce4bhgh2rcd13ifvqfa0","pricing_plan_id":"cebpf4jnsgd1na2vs0mg"},{"bike_id":"d979d12e-0952-4b0d-a112-f005022fbbe4","system_id":"levelo_inurba_marseille","lat":43.26206,"lon":5.3793,"is_reserved":false,"is_disabled":false,"rental_uris":{"android":"levelo://app?vid=d979d12e-0952-4b0d-a112-f005022fbbe4","ios":"levelo://app?vid=d979d12e-0952-4b0d-a112-f005022fbbe4"},"vehicle_type_id":"4","last_reported":1732212770,"current_range_meters":18800,"station_id":"ce4bhjp2rcd13ifvqg90","pricing_plan_id":"cebpf4jnsgd1na2vs0mg"},{"bike_id":"ce7c6f2a-c99b-49df-8add-c79c6e8dfbf7","system_id":"levelo_inurba_marseille","lat":43.27812,"lon":5.4071,"is_reserved":false,"is_disabled":false,"rental_uris":{"android":"levelo://app?vid=ce7c6f2a-c99b-49df-8add-c79c6e8dfbf7","ios":"levelo://app?vid=ce7c6f2a-c99b-49df-8add-c79c6e8dfbf7"},"vehicle_type_id":"4","last_reported":1732212770,"current_range_meters":7200,"station_id":"ce4bhnh2rcd13ifvqgtg","pricing_plan_id":"cebpf4jnsgd1na2vs0mg"},{"bike_id":"01fade1f-4c0e-41f5-a847-3ee1ed0ae04c","system_id":"levelo_inurba_marseille","lat":43.31331,"lon":5.39702,"is_reserved":false,"is_disabled":false,"rental_uris":{"android":"levelo://app?vid=01fade1f-4c0e-41f5-a847-3ee1ed0ae04c","ios":"levelo://app?vid=01fade1f-4c0e-41f5-a847-3ee1ed0ae04c"},"vehicle_type_id":"4","last_reported":1732212770,"current_range_meters":38800,"station_id":"ce4bgvp2rcd13ifvqcu0","pricing_plan_id":"cebpf4jnsgd1na2vs0mg"},{"bike_id":"7ef9a5ef-b3b2-4ff2-82cc-f161ced30464","system_id":"levelo_inurba_marseille","lat":43.29417,"lon":5.38607,"is_reserved":false,"is_disabled":true,"rental_uris":{"android":"levelo://app?vid=7ef9a5ef-b3b2-4ff2-82cc-f161ced30464","ios":"levelo://app?vid=7ef9a5ef-b3b2-4ff2-82cc-f161ced30464"},"vehicle_type_id":"4","last_reported":1732212770,"current_range_meters":32800,"station_id":"ce4bh2h2rcd13ifvqdh0","pricing_plan_id":"cebpf4jnsgd1na2vs0mg"},{"bike_id":"7f9d8f0d-7ed7-4dfb-838d-9b0f5504e8c5","system_id":"levelo_inurba_marseille","lat":43.30802,"lon":5.43524,"is_reserved":false,"is_disabled":false,"rental_uris":{"android":"levelo://app?vid=7f9d8f0d-7ed7-4dfb-838d-9b0f5504e8c5","ios":"levelo://app?vid=7f9d8f0d-7ed7-4dfb-838d-9b0f5504e8c5"},"vehicle_type_id":"4","last_reported":1732212770,"current_range_meters":8800,"station_id":"ce4bhph2rcd13ifvqheg","pricing_plan_id":"cebpf4jnsgd1na2vs0mg"},{"bike_id":"3a0abff8-e4e5-422e-b944-1e043dd140db","system_id":"levelo_inurba_marseille","lat":43.31324,"lon":5.39703,"is_reserved":false,"is_disabled":false,"rental_uris":{"android":"levelo://app?vid=3a0abff8-e4e5-422e-b944-1e043dd140db","ios":"levelo://app?vid=3a0abff8-e4e5-422e-b944-1e043dd140db"},"vehicle_type_id":"4","last_reported":1732212770,"current_range_meters":25600,"station_id":"ce4bgvp2rcd13ifvqcu0","pricing_plan_id":"cebpf4jnsgd1na2vs0mg"},{"bike_id":"cef87d95-d3d5-4ebf-a7ed-c7713c95037d","system_id":"levelo_inurba_marseille","lat":43.2942,"lon":5.38624,"is_reserved":false,"is_disabled":false,"rental_uris":{"android":"levelo://app?vid=cef87d95-d3d5-4ebf-a7ed-c7713c95037d","ios":"levelo://app?vid=cef87d95-d3d5-4ebf-a7ed-c7713c95037d"},"vehicle_type_id":"4","last_reported":1732212770,"current_range_meters":29600,"station_id":"ce4bh2h2rcd13ifvqdh0","pricing_plan_id":"cebpf4jnsgd1na2vs0mg"},{"bike_id":"8d5e8e54-f87c-49b3-8720-7e21078f8fcd","system_id":"levelo_inurba_marseille","lat":43.26485,"lon":5.39548,"is_reserved":false,"is_disabled":false,"rental_uris":{"android":"levelo://app?vid=8d5e8e54-f87c-49b3-8720-7e21078f8fcd","ios":"levelo://app?vid=8d5e8e54-f87c-49b3-8720-7e21078f8fcd"},"vehicle_type_id":"4","last_reported":1732212770,"current_range_meters":36400,"station_id":"ce4bhi12rcd13ifvqfq0","pricing_plan_id":"cebpf4jnsgd1na2vs0mg"},{"bike_id":"844cb461-f780-45f5-88b2-3951b51e6462","system_id":"levelo_inurba_marseille","lat":43.30119,"lon":5.37823,"is_reserved":false,"is_disabled":true,"rental_uris":{"android":"levelo://app?vid=844cb461-f780-45f5-88b2-3951b51e6462","ios":"levelo://app?vid=844cb461-f780-45f5-88b2-3951b51e6462"},"vehicle_type_id":"4","last_reported":1732212770,"current_range_meters":0,"station_id":"","pricing_plan_id":"cebpf4jnsgd1na2vs0mg"},{"bike_id":"2e8a7d9a-3dfd-4a8b-8199-ae086e925e32","system_id":"levelo_inurba_marseille","lat":43.29785,"lon":5.39333,"is_reserved":false,"is_disabled":false,"rental_uris":{"android":"levelo://app?vid=2e8a7d9a-3dfd-4a8b-8199-ae086e925e32","ios":"levelo://app?vid=2e8a7d9a-3dfd-4a8b-8199-ae086e925e32"},"vehicle_type_id":"4","last_reported":1732212770,"current_range_meters":3600,"station_id":"chh1huq6cuj3fo74tm60","pricing_plan_id":"cebpf4jnsgd1na2vs0mg"},{"bike_id":"3c1b7946-8b96-431c-a980-d11b14c8209b","system_id":"levelo_inurba_marseille","lat":43.28345,"lon":5.38103,"is_reserved":false,"is_disabled":false,"rental_uris":{"android":"levelo://app?vid=3c1b7946-8b96-431c-a980-d11b14c8209b","ios":"levelo://app?vid=3c1b7946-8b96-431c-a980-d11b14c8209b"},"vehicle_type_id":"4","last_reported":1732212770,"current_range_meters":2800,"station_id":"ce4bh412rcd13ifvqdr0","pricing_plan_id":"cebpf4jnsgd1na2vs0mg"},{"bike_id":"b3ff0223-9f3b-40c9-ba64-b1074cf27420","system_id":"levelo_inurba_marseille","lat":43.28031,"lon":5.369394,"is_reserved":false,"is_disabled":false,"rental_uris":{"android":"levelo://app?vid=b3ff0223-9f3b-40c9-ba64-b1074cf27420","ios":"levelo://app?vid=b3ff0223-9f3b-40c9-ba64-b1074cf27420"},"vehicle_type_id":"4","last_reported":1732212770,"current_range_meters":39200,"station_id":"ce4bha12rcd13ifvqef0","pricing_plan_id":"cebpf4jnsgd1na2vs0mg"},{"bike_id":"cc52c27c-a47b-481a-854c-56002aa4b5fd","system_id":"levelo_inurba_marseille","lat":43.27947,"lon":5.41041,"is_reserved":false,"is_disabled":false,"rental_uris":{"android":"levelo://app?vid=cc52c27c-a47b-481a-854c-56002aa4b5fd","ios":"levelo://app?vid=cc52c27c-a47b-481a-854c-56002aa4b5fd"},"vehicle_type_id":"4","last_reported":1732212770,"current_range_meters":17200,"station_id":"ce4bhnp2rcd13ifvqh0g","pricing_plan_id":"cebpf4jnsgd1na2vs0mg"},{"bike_id":"41dbd5f3-8a01-4852-94e9-96d27b88c515","system_id":"levelo_inurba_marseille","lat":43.29267,"lon":5.38452,"is_reserved":false,"is_disabled":false,"rental_uris":{"android":"levelo://app?vid=41dbd5f3-8a01-4852-94e9-96d27b88c515","ios":"levelo://app?vid=41dbd5f3-8a01-4852-94e9-96d27b88c515"},"vehicle_type_id":"4","last_reported":1732212770,"current_range_meters":33200,"station_id":"ce4bh692rcd13ifvqea0","pricing_plan_id":"cebpf4jnsgd1na2vs0mg"},{"bike_id":"cdaafd2d-0da1-4fac-9881-15c66a7cd7c0","system_id":"levelo_inurba_marseille","lat":43.23154,"lon":5.4371,"is_reserved":false,"is_disabled":false,"rental_uris":{"android":"levelo://app?vid=cdaafd2d-0da1-4fac-9881-15c66a7cd7c0","ios":"levelo://app?vid=cdaafd2d-0da1-4fac-9881-15c66a7cd7c0"},"vehicle_type_id":"4","last_reported":1732212770,"current_range_meters":40000,"station_id":"ce4bhmp2rcd13ifvqgog","pricing_plan_id":"cebpf4jnsgd1na2vs0mg"},{"bike_id":"c1024338-3a35-4c5d-8621-6f53a0a7a406","system_id":"levelo_inurba_marseille","lat":43.336669,"lon":5.39812,"is_reserved":false,"is_disabled":false,"rental_uris":{"android":"levelo://app?vid=c1024338-3a35-4c5d-8621-6f53a0a7a406","ios":"levelo://app?vid=c1024338-3a35-4c5d-8621-6f53a0a7a406"},"vehicle_type_id":"4","last_reported":1732212770,"current_range_meters":36800,"station_id":"","pricing_plan_id":"cebpf4jnsgd1na2vs0mg"},{"bike_id":"b03f69f7-b71a-4f20-b004-cac08d3d55e5","system_id":"levelo_inurba_marseille","lat":43.32369,"lon":5.38885,"is_reserved":false,"is_disabled":false,"rental_uris":{"android":"levelo://app?vid=b03f69f7-b71a-4f20-b004-cac08d3d55e5","ios":"levelo://app?vid=b03f69f7-b71a-4f20-b004-cac08d3d55e5"},"vehicle_type_id":"4","last_reported":1732212770,"current_range_meters":34800,"station_id":"ce4bhqp2rcd13ifvqhog","pricing_plan_id":"cebpf4jnsgd1na2vs0mg"},{"bike_id":"8d5ad0a8-268e-4afd-be61-7919f93826c7","system_id":"levelo_inurba_marseille","lat":43.29912,"lon":5.37473,"is_reserved":false,"is_disabled":true,"rental_uris":{"android":"levelo://app?vid=8d5ad0a8-268e-4afd-be61-7919f93826c7","ios":"levelo://app?vid=8d5ad0a8-268e-4afd-be61-7919f93826c7"},"vehicle_type_id":"4","last_reported":1732212770,"current_range_meters":32000,"station_id":"ce4bgjh2rcd13ifvqbg0","pricing_plan_id":"cebpf4jnsgd1na2vs0mg"},{"bike_id":"87363c45-56a9-4339-998d-46c1938a7631","system_id":"levelo_inurba_marseille","lat":43.29828,"lon":5.36247,"is_reserved":false,"is_disabled":false,"rental_uris":{"android":"levelo://app?vid=87363c45-56a9-4339-998d-46c1938a7631","ios":"levelo://app?vid=87363c45-56a9-4339-998d-46c1938a7631"},"vehicle_type_id":"4","last_reported":1732212770,"current_range_meters":26000,"station_id":"ce4bgpp2rcd13ifvqc3g","pricing_plan_id":"cebpf4jnsgd1na2vs0mg"},{"bike_id":"df84e31e-4953-4a0f-a2c0-0eff8d47d3a7","system_id":"levelo_inurba_marseille","lat":43.29686,"lon":5.37296,"is_reserved":false,"is_disabled":false,"rental_uris":{"android":"levelo://app?vid=df84e31e-4953-4a0f-a2c0-0eff8d47d3a7","ios":"levelo://app?vid=df84e31e-4953-4a0f-a2c0-0eff8d47d3a7"},"vehicle_type_id":"4","last_reported":1732212770,"current_range_meters":32400,"station_id":"ce4bgk12rcd13ifvqbj0","pricing_plan_id":"cebpf4jnsgd1na2vs0mg"},{"bike_id":"b372f4d0-6a0a-4847-98e3-69b664df5eda","system_id":"levelo_inurba_marseille","lat":43.31071,"lon":5.38357,"is_reserved":false,"is_disabled":false,"rental_uris":{"android":"levelo://app?vid=b372f4d0-6a0a-4847-98e3-69b664df5eda","ios":"levelo://app?vid=b372f4d0-6a0a-4847-98e3-69b664df5eda"},"vehicle_type_id":"4","last_reported":1732212770,"current_range_meters":27600,"station_id":"ce4bgv92rcd13ifvqcr0","pricing_plan_id":"cebpf4jnsgd1na2vs0mg"},{"bike_id":"a0f25dd1-45fa-41c5-a5e6-d0d0bea9c865","system_id":"levelo_inurba_marseille","lat":43.30883,"lon":5.39637,"is_reserved":false,"is_disabled":false,"rental_uris":{"android":"levelo://app?vid=a0f25dd1-45fa-41c5-a5e6-d0d0bea9c865","ios":"levelo://app?vid=a0f25dd1-45fa-41c5-a5e6-d0d0bea9c865"},"vehicle_type_id":"4","last_reported":1732212770,"current_range_meters":16400,"station_id":"ce4bh012rcd13ifvqcv0","pricing_plan_id":"cebpf4jnsgd1na2vs0mg"},{"bike_id":"600af5a2-068f-4165-ad6a-016f6ac60011","system_id":"levelo_inurba_marseille","lat":43.29559,"lon":5.42292,"is_reserved":false,"is_disabled":false,"rental_uris":{"android":"levelo://app?vid=600af5a2-068f-4165-ad6a-016f6ac60011","ios":"levelo://app?vid=600af5a2-068f-4165-ad6a-016f6ac60011"},"vehicle_type_id":"4","last_reported":1732212770,"current_range_meters":30000,"station_id":"ce4bhph2rcd13ifvqhdg","pricing_plan_id":"cebpf4jnsgd1na2vs0mg"},{"bike_id":"1b470b19-1d97-4568-be37-c94fc135bccd","system_id":"levelo_inurba_marseille","lat":43.30884,"lon":5.39634,"is_reserved":false,"is_disabled":false,"rental_uris":{"android":"levelo://app?vid=1b470b19-1d97-4568-be37-c94fc135bccd","ios":"levelo://app?vid=1b470b19-1d97-4568-be37-c94fc135bccd"},"vehicle_type_id":"4","last_reported":1732212770,"current_range_meters":35200,"station_id":"ce4bh012rcd13ifvqcv0","pricing_plan_id":"cebpf4jnsgd1na2vs0mg"},{"bike_id":"090ca467-512a-4a2c-89e5-976bdd3465b8","system_id":"levelo_inurba_marseille","lat":43.29292,"lon":5.37448,"is_reserved":false,"is_disabled":false,"rental_uris":{"android":"levelo://app?vid=090ca467-512a-4a2c-89e5-976bdd3465b8","ios":"levelo://app?vid=090ca467-512a-4a2c-89e5-976bdd3465b8"},"vehicle_type_id":"4","last_reported":1732212770,"current_range_meters":38800,"station_id":"ce4bgi12rcd13ifvqb70","pricing_plan_id":"cebpf4jnsgd1na2vs0mg"},{"bike_id":"cc14f000-00a3-41df-8a0b-9362e356611d","system_id":"levelo_inurba_marseille","lat":43.2969,"lon":5.3794,"is_reserved":false,"is_disabled":false,"rental_uris":{"android":"levelo://app?vid=cc14f000-00a3-41df-8a0b-9362e356611d","ios":"levelo://app?vid=cc14f000-00a3-41df-8a0b-9362e356611d"},"vehicle_type_id":"4","last_reported":1732212770,"current_range_meters":34800,"station_id":"","pricing_plan_id":"cebpf4jnsgd1na2vs0mg"},{"bike_id":"f3d1de11-ea0c-4809-8e9c-3957146035eb","system_id":"levelo_inurba_marseille","lat":43.26025,"lon":5.37553,"is_reserved":false,"is_disabled":false,"rental_uris":{"android":"levelo://app?vid=f3d1de11-ea0c-4809-8e9c-3957146035eb","ios":"levelo://app?vid=f3d1de11-ea0c-4809-8e9c-3957146035eb"},"vehicle_type_id":"4","last_reported":1732212770,"current_range_meters":29600,"station_id":"ce4bhgh2rcd13ifvqfa0","pricing_plan_id":"cebpf4jnsgd1na2vs0mg"},{"bike_id":"319639f6-c364-407e-9612-56f449d4d076","system_id":"levelo_inurba_marseille","lat":43.28074,"lon":5.3966,"is_reserved":false,"is_disabled":true,"rental_uris":{"android":"levelo://app?vid=319639f6-c364-407e-9612-56f449d4d076","ios":"levelo://app?vid=319639f6-c364-407e-9612-56f449d4d076"},"vehicle_type_id":"4","last_reported":1732212770,"current_range_meters":0,"station_id":"ce4bho12rcd13ifvqh2g","pricing_plan_id":"cebpf4jnsgd1na2vs0mg"},{"bike_id":"23e1e7fb-447a-4af5-9504-fd7579cff1bf","system_id":"levelo_inurba_marseille","lat":43.29533,"lon":5.38533,"is_reserved":false,"is_disabled":false,"rental_uris":{"android":"levelo://app?vid=23e1e7fb-447a-4af5-9504-fd7579cff1bf","ios":"levelo://app?vid=23e1e7fb-447a-4af5-9504-fd7579cff1bf"},"vehicle_type_id":"4","last_reported":1732212770,"current_range_meters":38800,"station_id":"ce4bgih2rcd13ifvqba0","pricing_plan_id":"cebpf4jnsgd1na2vs0mg"},{"bike_id":"ee55ab7d-0a10-4c6b-aa1e-2b29e5adc161","system_id":"levelo_inurba_marseille","lat":43.29524,"lon":5.39404,"is_reserved":false,"is_disabled":false,"rental_uris":{"android":"levelo://app?vid=ee55ab7d-0a10-4c6b-aa1e-2b29e5adc161","ios":"levelo://app?vid=ee55ab7d-0a10-4c6b-aa1e-2b29e5adc161"},"vehicle_type_id":"4","last_reported":1732212770,"current_range_meters":38800,"station_id":"ce4bh292rcd13ifvqdf0","pricing_plan_id":"cebpf4jnsgd1na2vs0mg"},{"bike_id":"91cbc128-559e-448a-b570-a00cf2a59da1","system_id":"levelo_inurba_marseille","lat":43.29709,"lon":5.36617,"is_reserved":false,"is_disabled":false,"rental_uris":{"android":"levelo://app?vid=91cbc128-559e-448a-b570-a00cf2a59da1","ios":"levelo://app?vid=91cbc128-559e-448a-b570-a00cf2a59da1"},"vehicle_type_id":"4","last_reported":1732212770,"current_range_meters":4000,"station_id":"ce4bgn12rcd13ifvqbt0","pricing_plan_id":"cebpf4jnsgd1na2vs0mg"},{"bike_id":"3ecab247-4947-48f3-910e-fb87fa031837","system_id":"levelo_inurba_marseille","lat":43.30304,"lon":5.39207,"is_reserved":false,"is_disabled":false,"rental_uris":{"android":"levelo://app?vid=3ecab247-4947-48f3-910e-fb87fa031837","ios":"levelo://app?vid=3ecab247-4947-48f3-910e-fb87fa031837"},"vehicle_type_id":"4","last_reported":1732212770,"current_range_meters":19600,"station_id":"ce4bgkh2rcd13ifvqbk0","pricing_plan_id":"cebpf4jnsgd1na2vs0mg"},{"bike_id":"53bbdfc0-4d63-4cc4-86e6-4ec910061123","system_id":"levelo_inurba_marseille","lat":43.30912,"lon":5.36714,"is_reserved":false,"is_disabled":true,"rental_uris":{"android":"levelo://app?vid=53bbdfc0-4d63-4cc4-86e6-4ec910061123","ios":"levelo://app?vid=53bbdfc0-4d63-4cc4-86e6-4ec910061123"},"vehicle_type_id":"4","last_reported":1732212770,"current_range_meters":0,"station_id":"","pricing_plan_id":"cebpf4jnsgd1na2vs0mg"},{"bike_id":"08d62434-66da-4920-8294-dbecd33c63f9","system_id":"levelo_inurba_marseille","lat":43.25718,"lon":5.41115,"is_reserved":false,"is_disabled":false,"rental_uris":{"android":"levelo://app?vid=08d62434-66da-4920-8294-dbecd33c63f9","ios":"levelo://app?vid=08d62434-66da-4920-8294-dbecd33c63f9"},"vehicle_type_id":"4","last_reported":1732212770,"current_range_meters":30000,"station_id":"ce4bhkp2rcd13ifvqgd0","pricing_plan_id":"cebpf4jnsgd1na2vs0mg"},{"bike_id":"bbc358cf-02e7-47ac-91e4-04d3e948cd5c","system_id":"levelo_inurba_marseille","lat":43.30803,"lon":5.38152,"is_reserved":false,"is_disabled":true,"rental_uris":{"android":"levelo://app?vid=bbc358cf-02e7-47ac-91e4-04d3e948cd5c","ios":"levelo://app?vid=bbc358cf-02e7-47ac-91e4-04d3e948cd5c"},"vehicle_type_id":"4","last_reported":1732212770,"current_range_meters":1200,"station_id":"ce4bgt12rcd13ifvqce0","pricing_plan_id":"cebpf4jnsgd1na2vs0mg"},{"bike_id":"4a00e718-468a-402b-a531-7524a4b6d689","system_id":"levelo_inurba_marseille","lat":43.28072,"lon":5.39657,"is_reserved":false,"is_disabled":false,"rental_uris":{"android":"levelo://app?vid=4a00e718-468a-402b-a531-7524a4b6d689","ios":"levelo://app?vid=4a00e718-468a-402b-a531-7524a4b6d689"},"vehicle_type_id":"4","last_reported":1732212770,"current_range_meters":14400,"station_id":"ce4bho12rcd13ifvqh2g","pricing_plan_id":"cebpf4jnsgd1na2vs0mg"},{"bike_id":"dfca3e23-b1dd-40cd-81b2-441e5e82c803","system_id":"levelo_inurba_marseille","lat":43.24172,"lon":5.36391,"is_reserved":false,"is_disabled":true,"rental_uris":{"android":"levelo://app?vid=dfca3e23-b1dd-40cd-81b2-441e5e82c803","ios":"levelo://app?vid=dfca3e23-b1dd-40cd-81b2-441e5e82c803"},"vehicle_type_id":"4","last_reported":1732212770,"current_range_meters":400,"station_id":"cpo36qri1sfpv3e86is0","pricing_plan_id":"cebpf4jnsgd1na2vs0mg"},{"bike_id":"3193222d-584b-4642-a1d8-0c04b2309736","system_id":"levelo_inurba_marseille","lat":43.33729,"lon":5.39187,"is_reserved":false,"is_disabled":false,"rental_uris":{"android":"levelo://app?vid=3193222d-584b-4642-a1d8-0c04b2309736","ios":"levelo://app?vid=3193222d-584b-4642-a1d8-0c04b2309736"},"vehicle_type_id":"4","last_reported":1732212770,"current_range_meters":6800,"station_id":"ce4bhr92rcd13ifvqhsg","pricing_plan_id":"cebpf4jnsgd1na2vs0mg"},{"bike_id":"f33734f6-3d2c-4b5a-a287-aa3d00ab01aa","system_id":"levelo_inurba_marseille","lat":43.29302,"lon":5.37164,"is_reserved":false,"is_disabled":false,"rental_uris":{"android":"levelo://app?vid=f33734f6-3d2c-4b5a-a287-aa3d00ab01aa","ios":"levelo://app?vid=f33734f6-3d2c-4b5a-a287-aa3d00ab01aa"},"vehicle_type_id":"4","last_reported":1732212770,"current_range_meters":18800,"station_id":"ce4bgh92rcd13ifvqb40","pricing_plan_id":"cebpf4jnsgd1na2vs0mg"},{"bike_id":"09fd5406-a3f4-429c-ba24-3bf1a01994b6","system_id":"levelo_inurba_marseille","lat":43.30879,"lon":5.39633,"is_reserved":false,"is_disabled":false,"rental_uris":{"android":"levelo://app?vid=09fd5406-a3f4-429c-ba24-3bf1a01994b6","ios":"levelo://app?vid=09fd5406-a3f4-429c-ba24-3bf1a01994b6"},"vehicle_type_id":"4","last_reported":1732212770,"current_range_meters":37600,"station_id":"ce4bh012rcd13ifvqcv0","pricing_plan_id":"cebpf4jnsgd1na2vs0mg"},{"bike_id":"82992c16-fed3-40a6-b8b7-c2145eb32fbe","system_id":"levelo_inurba_marseille","lat":43.2799,"lon":5.41662,"is_reserved":false,"is_disabled":false,"rental_uris":{"android":"levelo://app?vid=82992c16-fed3-40a6-b8b7-c2145eb32fbe","ios":"levelo://app?vid=82992c16-fed3-40a6-b8b7-c2145eb32fbe"},"vehicle_type_id":"4","last_reported":1732212770,"current_range_meters":37600,"station_id":"ce4bho12rcd13ifvqh1g","pricing_plan_id":"cebpf4jnsgd1na2vs0mg"},{"bike_id":"be6e7760-9d18-42d9-b442-83b561b318cb","system_id":"levelo_inurba_marseille","lat":43.29315,"lon":5.41165,"is_reserved":false,"is_disabled":false,"rental_uris":{"android":"levelo://app?vid=be6e7760-9d18-42d9-b442-83b561b318cb","ios":"levelo://app?vid=be6e7760-9d18-42d9-b442-83b561b318cb"},"vehicle_type_id":"4","last_reported":1732212770,"current_range_meters":12000,"station_id":"","pricing_plan_id":"cebpf4jnsgd1na2vs0mg"},{"bike_id":"15955338-f6b7-49cc-8cfe-9f12d8ba4016","system_id":"levelo_inurba_marseille","lat":43.30885,"lon":5.39627,"is_reserved":false,"is_disabled":false,"rental_uris":{"android":"levelo://app?vid=15955338-f6b7-49cc-8cfe-9f12d8ba4016","ios":"levelo://app?vid=15955338-f6b7-49cc-8cfe-9f12d8ba4016"},"vehicle_type_id":"4","last_reported":1732212770,"current_range_meters":18000,"station_id":"ce4bh012rcd13ifvqcv0","pricing_plan_id":"cebpf4jnsgd1na2vs0mg"},{"bike_id":"fa3219f5-4dff-4643-87f9-3461cb850ce0","system_id":"levelo_inurba_marseille","lat":43.28696,"lon":5.37388,"is_reserved":false,"is_disabled":false,"rental_uris":{"android":"levelo://app?vid=fa3219f5-4dff-4643-87f9-3461cb850ce0","ios":"levelo://app?vid=fa3219f5-4dff-4643-87f9-3461cb850ce0"},"vehicle_type_id":"4","last_reported":1732212770,"current_range_meters":16400,"station_id":"ce4bh3p2rcd13ifvqdq0","pricing_plan_id":"cebpf4jnsgd1na2vs0mg"},{"bike_id":"612e2fb5-5bdd-4493-9d90-eaa49396d072","system_id":"levelo_inurba_marseille","lat":43.30766,"lon":5.36683,"is_reserved":false,"is_disabled":false,"rental_uris":{"android":"levelo://app?vid=612e2fb5-5bdd-4493-9d90-eaa49396d072","ios":"levelo://app?vid=612e2fb5-5bdd-4493-9d90-eaa49396d072"},"vehicle_type_id":"4","last_reported":1732212770,"current_range_meters":32000,"station_id":"","pricing_plan_id":"cebpf4jnsgd1na2vs0mg"},{"bike_id":"24618c6c-9f3e-4480-ac3f-3dfa9b93dc99","system_id":"levelo_inurba_marseille","lat":43.27969,"lon":5.41049,"is_reserved":false,"is_disabled":false,"rental_uris":{"android":"levelo://app?vid=24618c6c-9f3e-4480-ac3f-3dfa9b93dc99","ios":"levelo://app?vid=24618c6c-9f3e-4480-ac3f-3dfa9b93dc99"},"vehicle_type_id":"4","last_reported":1732212770,"current_range_meters":38800,"station_id":"ce4bhnp2rcd13ifvqh0g","pricing_plan_id":"cebpf4jnsgd1na2vs0mg"},{"bike_id":"05d2b555-b6c7-4cf6-aed3-0b9f2cbfff43","system_id":"levelo_inurba_marseille","lat":43.29713,"lon":5.37688,"is_reserved":false,"is_disabled":false,"rental_uris":{"android":"levelo://app?vid=05d2b555-b6c7-4cf6-aed3-0b9f2cbfff43","ios":"levelo://app?vid=05d2b555-b6c7-4cf6-aed3-0b9f2cbfff43"},"vehicle_type_id":"4","last_reported":1732212770,"current_range_meters":32400,"station_id":"ce4bgkh2rcd13ifvqbl0","pricing_plan_id":"cebpf4jnsgd1na2vs0mg"},{"bike_id":"a9b905e2-a230-41a4-9fb0-d4caf4b80d0f","system_id":"levelo_inurba_marseille","lat":43.29867,"lon":5.39744,"is_reserved":false,"is_disabled":false,"rental_uris":{"android":"levelo://app?vid=a9b905e2-a230-41a4-9fb0-d4caf4b80d0f","ios":"levelo://app?vid=a9b905e2-a230-41a4-9fb0-d4caf4b80d0f"},"vehicle_type_id":"4","last_reported":1732212770,"current_range_meters":39200,"station_id":"ce4bh0h2rcd13ifvqd50","pricing_plan_id":"cebpf4jnsgd1na2vs0mg"},{"bike_id":"2aa3019e-ac45-4c06-a14d-ef784242d171","system_id":"levelo_inurba_marseille","lat":43.28721,"lon":5.36091,"is_reserved":false,"is_disabled":false,"rental_uris":{"android":"levelo://app?vid=2aa3019e-ac45-4c06-a14d-ef784242d171","ios":"levelo://app?vid=2aa3019e-ac45-4c06-a14d-ef784242d171"},"vehicle_type_id":"4","last_reported":1732212770,"current_range_meters":11200,"station_id":"cki0cbj6b192h4jlfktg","pricing_plan_id":"cebpf4jnsgd1na2vs0mg"},{"bike_id":"547f0bff-d26b-4849-b94d-77cf4a5a869f","system_id":"levelo_inurba_marseille","lat":43.23961,"lon":5.36629,"is_reserved":false,"is_disabled":false,"rental_uris":{"android":"levelo://app?vid=547f0bff-d26b-4849-b94d-77cf4a5a869f","ios":"levelo://app?vid=547f0bff-d26b-4849-b94d-77cf4a5a869f"},"vehicle_type_id":"4","last_reported":1732212770,"current_range_meters":38000,"station_id":"ce4bhi12rcd13ifvqfp0","pricing_plan_id":"cebpf4jnsgd1na2vs0mg"},{"bike_id":"f739db3d-e57b-4e04-a4d0-90a64085c96d","system_id":"levelo_inurba_marseille","lat":43.23964,"lon":5.3664,"is_reserved":false,"is_disabled":false,"rental_uris":{"android":"levelo://app?vid=f739db3d-e57b-4e04-a4d0-90a64085c96d","ios":"levelo://app?vid=f739db3d-e57b-4e04-a4d0-90a64085c96d"},"vehicle_type_id":"4","last_reported":1732212770,"current_range_meters":40000,"station_id":"ce4bhi12rcd13ifvqfp0","pricing_plan_id":"cebpf4jnsgd1na2vs0mg"},{"bike_id":"8b3d80c9-e138-42ae-bec9-c0e291e1c3b8","system_id":"levelo_inurba_marseille","lat":43.30322,"lon":5.40444,"is_reserved":false,"is_disabled":false,"rental_uris":{"android":"levelo://app?vid=8b3d80c9-e138-42ae-bec9-c0e291e1c3b8","ios":"levelo://app?vid=8b3d80c9-e138-42ae-bec9-c0e291e1c3b8"},"vehicle_type_id":"4","last_reported":1732212770,"current_range_meters":4000,"station_id":"ce4bh012rcd13ifvqd10","pricing_plan_id":"cebpf4jnsgd1na2vs0mg"},{"bike_id":"098d1637-c6f2-4f4c-8691-e705489a3a58","system_id":"levelo_inurba_marseille","lat":43.3014,"lon":5.37411,"is_reserved":false,"is_disabled":false,"rental_uris":{"android":"levelo://app?vid=098d1637-c6f2-4f4c-8691-e705489a3a58","ios":"levelo://app?vid=098d1637-c6f2-4f4c-8691-e705489a3a58"},"vehicle_type_id":"4","last_reported":1732212770,"current_range_meters":39200,"station_id":"ce4bgs92rcd13ifvqcc0","pricing_plan_id":"cebpf4jnsgd1na2vs0mg"},{"bike_id":"9ef5fc54-4970-4cc5-b2d2-5f5240f8e905","system_id":"levelo_inurba_marseille","lat":43.297962,"lon":5.403861,"is_reserved":false,"is_disabled":false,"rental_uris":{"android":"levelo://app?vid=9ef5fc54-4970-4cc5-b2d2-5f5240f8e905","ios":"levelo://app?vid=9ef5fc54-4970-4cc5-b2d2-5f5240f8e905"},"vehicle_type_id":"4","last_reported":1732212770,"current_range_meters":37600,"station_id":"ce4bh112rcd13ifvqd90","pricing_plan_id":"cebpf4jnsgd1na2vs0mg"},{"bike_id":"e357a451-4632-428c-b40c-c5324a95fc38","system_id":"levelo_inurba_marseille","lat":43.30155,"lon":5.39874,"is_reserved":false,"is_disabled":false,"rental_uris":{"android":"levelo://app?vid=e357a451-4632-428c-b40c-c5324a95fc38","ios":"levelo://app?vid=e357a451-4632-428c-b40c-c5324a95fc38"},"vehicle_type_id":"4","last_reported":1732212770,"current_range_meters":25600,"station_id":"ce4bh0h2rcd13ifvqd40","pricing_plan_id":"cebpf4jnsgd1na2vs0mg"},{"bike_id":"583f481d-a0aa-4719-ac40-4e63a8b7d720","system_id":"levelo_inurba_marseille","lat":43.2987,"lon":5.39743,"is_reserved":false,"is_disabled":false,"rental_uris":{"android":"levelo://app?vid=583f481d-a0aa-4719-ac40-4e63a8b7d720","ios":"levelo://app?vid=583f481d-a0aa-4719-ac40-4e63a8b7d720"},"vehicle_type_id":"4","last_reported":1732212770,"current_range_meters":24400,"station_id":"ce4bh0h2rcd13ifvqd50","pricing_plan_id":"cebpf4jnsgd1na2vs0mg"},{"bike_id":"43c8e9b3-9b4a-4510-a969-75b32db670f0","system_id":"levelo_inurba_marseille","lat":43.26787,"lon":5.39418,"is_reserved":false,"is_disabled":true,"rental_uris":{"android":"levelo://app?vid=43c8e9b3-9b4a-4510-a969-75b32db670f0","ios":"levelo://app?vid=43c8e9b3-9b4a-4510-a969-75b32db670f0"},"vehicle_type_id":"4","last_reported":1732212770,"current_range_meters":0,"station_id":"ce4bhh12rcd13ifvqfg0","pricing_plan_id":"cebpf4jnsgd1na2vs0mg"},{"bike_id":"1904e4d6-e1e0-456f-9800-8b0e0e7107b4","system_id":"levelo_inurba_marseille","lat":43.23152,"lon":5.43708,"is_reserved":false,"is_disabled":false,"rental_uris":{"android":"levelo://app?vid=1904e4d6-e1e0-456f-9800-8b0e0e7107b4","ios":"levelo://app?vid=1904e4d6-e1e0-456f-9800-8b0e0e7107b4"},"vehicle_type_id":"4","last_reported":1732212770,"current_range_meters":40000,"station_id":"ce4bhmp2rcd13ifvqgog","pricing_plan_id":"cebpf4jnsgd1na2vs0mg"},{"bike_id":"d74c1aca-418f-4341-abbf-67a3867992d6","system_id":"levelo_inurba_marseille","lat":43.2445,"lon":5.39537,"is_reserved":false,"is_disabled":false,"rental_uris":{"android":"levelo://app?vid=d74c1aca-418f-4341-abbf-67a3867992d6","ios":"levelo://app?vid=d74c1aca-418f-4341-abbf-67a3867992d6"},"vehicle_type_id":"4","last_reported":1732212770,"current_range_meters":33600,"station_id":"","pricing_plan_id":"cebpf4jnsgd1na2vs0mg"},{"bike_id":"e94847c3-2715-4d68-85bf-7c27c4a0b356","system_id":"levelo_inurba_marseille","lat":43.29937,"lon":5.36548,"is_reserved":false,"is_disabled":false,"rental_uris":{"android":"levelo://app?vid=e94847c3-2715-4d68-85bf-7c27c4a0b356","ios":"levelo://app?vid=e94847c3-2715-4d68-85bf-7c27c4a0b356"},"vehicle_type_id":"4","last_reported":1732212770,"current_range_meters":24000,"station_id":"ce4bgm92rcd13ifvqbr0","pricing_plan_id":"cebpf4jnsgd1na2vs0mg"},{"bike_id":"1eff5ce5-2d56-4465-a12c-60db9ec2175a","system_id":"levelo_inurba_marseille","lat":43.22927,"lon":5.35378,"is_reserved":false,"is_disabled":false,"rental_uris":{"android":"levelo://app?vid=1eff5ce5-2d56-4465-a12c-60db9ec2175a","ios":"levelo://app?vid=1eff5ce5-2d56-4465-a12c-60db9ec2175a"},"vehicle_type_id":"4","last_reported":1732212770,"current_range_meters":8800,"station_id":"cpo3532slgdg3j2ikp40","pricing_plan_id":"cebpf4jnsgd1na2vs0mg"},{"bike_id":"ce6d46e5-4223-4bce-a0db-85f63ca84039","system_id":"levelo_inurba_marseille","lat":43.30176,"lon":5.40055,"is_reserved":false,"is_disabled":true,"rental_uris":{"android":"levelo://app?vid=ce6d46e5-4223-4bce-a0db-85f63ca84039","ios":"levelo://app?vid=ce6d46e5-4223-4bce-a0db-85f63ca84039"},"vehicle_type_id":"4","last_reported":1732212770,"current_range_meters":1200,"station_id":"","pricing_plan_id":"cebpf4jnsgd1na2vs0mg"},{"bike_id":"dc815649-e3e3-48aa-b0fd-022cdb8ac58a","system_id":"levelo_inurba_marseille","lat":43.32364,"lon":5.38889,"is_reserved":false,"is_disabled":false,"rental_uris":{"android":"levelo://app?vid=dc815649-e3e3-48aa-b0fd-022cdb8ac58a","ios":"levelo://app?vid=dc815649-e3e3-48aa-b0fd-022cdb8ac58a"},"vehicle_type_id":"4","last_reported":1732212770,"current_range_meters":7200,"station_id":"ce4bhqp2rcd13ifvqhog","pricing_plan_id":"cebpf4jnsgd1na2vs0mg"},{"bike_id":"6c855a23-a8b3-4b8a-a413-c03be093f7c9","system_id":"levelo_inurba_marseille","lat":43.29003,"lon":5.35608,"is_reserved":false,"is_disabled":false,"rental_uris":{"android":"levelo://app?vid=6c855a23-a8b3-4b8a-a413-c03be093f7c9","ios":"levelo://app?vid=6c855a23-a8b3-4b8a-a413-c03be093f7c9"},"vehicle_type_id":"4","last_reported":1732212770,"current_range_meters":35600,"station_id":"ce4bhb92rcd13ifvqen0","pricing_plan_id":"cebpf4jnsgd1na2vs0mg"},{"bike_id":"070a4e3a-ff3e-4b5d-91f1-497d8af78fbb","system_id":"levelo_inurba_marseille","lat":43.26804,"lon":5.4027,"is_reserved":false,"is_disabled":false,"rental_uris":{"android":"levelo://app?vid=070a4e3a-ff3e-4b5d-91f1-497d8af78fbb","ios":"levelo://app?vid=070a4e3a-ff3e-4b5d-91f1-497d8af78fbb"},"vehicle_type_id":"4","last_reported":1732212770,"current_range_meters":38800,"station_id":"ce501612rcd8frsf0b60","pricing_plan_id":"cebpf4jnsgd1na2vs0mg"},{"bike_id":"6df34bba-81e7-4094-aeb7-8d31c4d64160","system_id":"levelo_inurba_marseille","lat":43.31067,"lon":5.38357,"is_reserved":false,"is_disabled":false,"rental_uris":{"android":"levelo://app?vid=6df34bba-81e7-4094-aeb7-8d31c4d64160","ios":"levelo://app?vid=6df34bba-81e7-4094-aeb7-8d31c4d64160"},"vehicle_type_id":"4","last_reported":1732212770,"current_range_meters":20000,"station_id":"ce4bgv92rcd13ifvqcr0","pricing_plan_id":"cebpf4jnsgd1na2vs0mg"},{"bike_id":"aea98db4-a137-4735-a7ca-83efcef08276","system_id":"levelo_inurba_marseille","lat":43.27056,"lon":5.4026,"is_reserved":false,"is_disabled":false,"rental_uris":{"android":"levelo://app?vid=aea98db4-a137-4735-a7ca-83efcef08276","ios":"levelo://app?vid=aea98db4-a137-4735-a7ca-83efcef08276"},"vehicle_type_id":"4","last_reported":1732212770,"current_range_meters":9600,"station_id":"ce4bhk92rcd13ifvqgc0","pricing_plan_id":"cebpf4jnsgd1na2vs0mg"},{"bike_id":"8e7ff576-c2f6-4b16-a53f-6408d6f48b1b","system_id":"levelo_inurba_marseille","lat":43.27832,"lon":5.3921,"is_reserved":false,"is_disabled":false,"rental_uris":{"android":"levelo://app?vid=8e7ff576-c2f6-4b16-a53f-6408d6f48b1b","ios":"levelo://app?vid=8e7ff576-c2f6-4b16-a53f-6408d6f48b1b"},"vehicle_type_id":"4","last_reported":1732212770,"current_range_meters":38800,"station_id":"ce4bhjp2rcd13ifvqga0","pricing_plan_id":"cebpf4jnsgd1na2vs0mg"},{"bike_id":"ff20c259-167f-484b-90be-e487ac94f5db","system_id":"levelo_inurba_marseille","lat":43.29372,"lon":5.37846,"is_reserved":false,"is_disabled":false,"rental_uris":{"android":"levelo://app?vid=ff20c259-167f-484b-90be-e487ac94f5db","ios":"levelo://app?vid=ff20c259-167f-484b-90be-e487ac94f5db"},"vehicle_type_id":"4","last_reported":1732212770,"current_range_meters":8400,"station_id":"ce4bgjh2rcd13ifvqbf0","pricing_plan_id":"cebpf4jnsgd1na2vs0mg"},{"bike_id":"87bdbe60-5511-4418-a4e4-682b5da37bfd","system_id":"levelo_inurba_marseille","lat":43.25868,"lon":5.39902,"is_reserved":false,"is_disabled":false,"rental_uris":{"android":"levelo://app?vid=87bdbe60-5511-4418-a4e4-682b5da37bfd","ios":"levelo://app?vid=87bdbe60-5511-4418-a4e4-682b5da37bfd"},"vehicle_type_id":"4","last_reported":1732212770,"current_range_meters":39200,"station_id":"ce4bhl92rcd13ifvqghg","pricing_plan_id":"cebpf4jnsgd1na2vs0mg"},{"bike_id":"3fbe99a9-12ca-4576-a9f7-40446b8230d0","system_id":"levelo_inurba_marseille","lat":43.23145,"lon":5.43705,"is_reserved":false,"is_disabled":false,"rental_uris":{"android":"levelo://app?vid=3fbe99a9-12ca-4576-a9f7-40446b8230d0","ios":"levelo://app?vid=3fbe99a9-12ca-4576-a9f7-40446b8230d0"},"vehicle_type_id":"4","last_reported":1732212770,"current_range_meters":35200,"station_id":"ce4bhmp2rcd13ifvqgog","pricing_plan_id":"cebpf4jnsgd1na2vs0mg"},{"bike_id":"e6b37235-d18d-4e5d-80be-a18f4a0ed6fb","system_id":"levelo_inurba_marseille","lat":43.23151,"lon":5.43723,"is_reserved":false,"is_disabled":false,"rental_uris":{"android":"levelo://app?vid=e6b37235-d18d-4e5d-80be-a18f4a0ed6fb","ios":"levelo://app?vid=e6b37235-d18d-4e5d-80be-a18f4a0ed6fb"},"vehicle_type_id":"4","last_reported":1732212770,"current_range_meters":11600,"station_id":"ce4bhmp2rcd13ifvqgog","pricing_plan_id":"cebpf4jnsgd1na2vs0mg"},{"bike_id":"350d2c68-8cc3-4c16-b473-096c40f4275a","system_id":"levelo_inurba_marseille","lat":43.31905,"lon":5.3793,"is_reserved":false,"is_disabled":false,"rental_uris":{"android":"levelo://app?vid=350d2c68-8cc3-4c16-b473-096c40f4275a","ios":"levelo://app?vid=350d2c68-8cc3-4c16-b473-096c40f4275a"},"vehicle_type_id":"4","last_reported":1732212770,"current_range_meters":5600,"station_id":"","pricing_plan_id":"cebpf4jnsgd1na2vs0mg"},{"bike_id":"1b359d70-956f-4a6a-92fb-c6c46cee38eb","system_id":"levelo_inurba_marseille","lat":43.27565,"lon":5.38416,"is_reserved":false,"is_disabled":false,"rental_uris":{"android":"levelo://app?vid=1b359d70-956f-4a6a-92fb-c6c46cee38eb","ios":"levelo://app?vid=1b359d70-956f-4a6a-92fb-c6c46cee38eb"},"vehicle_type_id":"4","last_reported":1732212770,"current_range_meters":8800,"station_id":"ce4bhh92rcd13ifvqfi0","pricing_plan_id":"cebpf4jnsgd1na2vs0mg"},{"bike_id":"42d6fa67-3d3d-427c-a63a-15e267a4a6ee","system_id":"levelo_inurba_marseille","lat":43.27951,"lon":5.41046,"is_reserved":false,"is_disabled":true,"rental_uris":{"android":"levelo://app?vid=42d6fa67-3d3d-427c-a63a-15e267a4a6ee","ios":"levelo://app?vid=42d6fa67-3d3d-427c-a63a-15e267a4a6ee"},"vehicle_type_id":"4","last_reported":1732212770,"current_range_meters":22400,"station_id":"ce4bhnp2rcd13ifvqh0g","pricing_plan_id":"cebpf4jnsgd1na2vs0mg"},{"bike_id":"b3351dfb-7755-41da-a565-daf692d3ee26","system_id":"levelo_inurba_marseille","lat":43.30148,"lon":5.39871,"is_reserved":false,"is_disabled":false,"rental_uris":{"android":"levelo://app?vid=b3351dfb-7755-41da-a565-daf692d3ee26","ios":"levelo://app?vid=b3351dfb-7755-41da-a565-daf692d3ee26"},"vehicle_type_id":"4","last_reported":1732212770,"current_range_meters":38000,"station_id":"ce4bh0h2rcd13ifvqd40","pricing_plan_id":"cebpf4jnsgd1na2vs0mg"},{"bike_id":"c534a875-bdfb-439d-8fdd-faa757628176","system_id":"levelo_inurba_marseille","lat":43.23966,"lon":5.36642,"is_reserved":false,"is_disabled":false,"rental_uris":{"android":"levelo://app?vid=c534a875-bdfb-439d-8fdd-faa757628176","ios":"levelo://app?vid=c534a875-bdfb-439d-8fdd-faa757628176"},"vehicle_type_id":"4","last_reported":1732212770,"current_range_meters":40000,"station_id":"ce4bhi12rcd13ifvqfp0","pricing_plan_id":"cebpf4jnsgd1na2vs0mg"},{"bike_id":"93f57e98-b4b9-48da-a4a7-ad72e4d6f606","system_id":"levelo_inurba_marseille","lat":43.2962,"lon":5.37173,"is_reserved":false,"is_disabled":false,"rental_uris":{"android":"levelo://app?vid=93f57e98-b4b9-48da-a4a7-ad72e4d6f606","ios":"levelo://app?vid=93f57e98-b4b9-48da-a4a7-ad72e4d6f606"},"vehicle_type_id":"4","last_reported":1732212770,"current_range_meters":38800,"station_id":"ce4bgnh2rcd13ifvqc0g","pricing_plan_id":"cebpf4jnsgd1na2vs0mg"},{"bike_id":"1961bc51-373a-428c-96e7-5732c1bba3d1","system_id":"levelo_inurba_marseille","lat":43.32283,"lon":5.3828,"is_reserved":false,"is_disabled":false,"rental_uris":{"android":"levelo://app?vid=1961bc51-373a-428c-96e7-5732c1bba3d1","ios":"levelo://app?vid=1961bc51-373a-428c-96e7-5732c1bba3d1"},"vehicle_type_id":"4","last_reported":1732212770,"current_range_meters":36800,"station_id":"ce4bhr12rcd13ifvqhqg","pricing_plan_id":"cebpf4jnsgd1na2vs0mg"},{"bike_id":"c8d6f4a1-b3a0-4e2d-95a4-1eeb173771ea","system_id":"levelo_inurba_marseille","lat":43.28661,"lon":5.36349,"is_reserved":false,"is_disabled":false,"rental_uris":{"android":"levelo://app?vid=c8d6f4a1-b3a0-4e2d-95a4-1eeb173771ea","ios":"levelo://app?vid=c8d6f4a1-b3a0-4e2d-95a4-1eeb173771ea"},"vehicle_type_id":"4","last_reported":1732212770,"current_range_meters":14400,"station_id":"ce4bhah2rcd13ifvqej0","pricing_plan_id":"cebpf4jnsgd1na2vs0mg"},{"bike_id":"b40ede3d-3df1-4e75-aa7c-f784505f0ad9","system_id":"levelo_inurba_marseille","lat":43.32015,"lon":5.38153,"is_reserved":false,"is_disabled":false,"rental_uris":{"android":"levelo://app?vid=b40ede3d-3df1-4e75-aa7c-f784505f0ad9","ios":"levelo://app?vid=b40ede3d-3df1-4e75-aa7c-f784505f0ad9"},"vehicle_type_id":"4","last_reported":1732212770,"current_range_meters":40000,"station_id":"ce4bhr12rcd13ifvqhpg","pricing_plan_id":"cebpf4jnsgd1na2vs0mg"},{"bike_id":"94778b22-ba52-4096-b5b4-96317763dfce","system_id":"levelo_inurba_marseille","lat":43.25725,"lon":5.4111,"is_reserved":false,"is_disabled":true,"rental_uris":{"android":"levelo://app?vid=94778b22-ba52-4096-b5b4-96317763dfce","ios":"levelo://app?vid=94778b22-ba52-4096-b5b4-96317763dfce"},"vehicle_type_id":"4","last_reported":1732212770,"current_range_meters":2000,"station_id":"ce4bhkp2rcd13ifvqgd0","pricing_plan_id":"cebpf4jnsgd1na2vs0mg"},{"bike_id":"1e4bb047-9015-44b9-b5f3-87d78d978b5c","system_id":"levelo_inurba_marseille","lat":43.29538,"lon":5.3855,"is_reserved":false,"is_disabled":false,"rental_uris":{"android":"levelo://app?vid=1e4bb047-9015-44b9-b5f3-87d78d978b5c","ios":"levelo://app?vid=1e4bb047-9015-44b9-b5f3-87d78d978b5c"},"vehicle_type_id":"4","last_reported":1732212770,"current_range_meters":25600,"station_id":"ce4bgih2rcd13ifvqba0","pricing_plan_id":"cebpf4jnsgd1na2vs0mg"},{"bike_id":"8655756e-f448-4de5-9e0e-9a796ee4da55","system_id":"levelo_inurba_marseille","lat":43.29623,"lon":5.40591,"is_reserved":false,"is_disabled":true,"rental_uris":{"android":"levelo://app?vid=8655756e-f448-4de5-9e0e-9a796ee4da55","ios":"levelo://app?vid=8655756e-f448-4de5-9e0e-9a796ee4da55"},"vehicle_type_id":"4","last_reported":1732212770,"current_range_meters":800,"station_id":"ce4bh0h2rcd13ifvqd60","pricing_plan_id":"cebpf4jnsgd1na2vs0mg"},{"bike_id":"ce920036-27a9-48dd-ac37-1a5e770c52ef","system_id":"levelo_inurba_marseille","lat":43.29416,"lon":5.38627,"is_reserved":false,"is_disabled":false,"rental_uris":{"android":"levelo://app?vid=ce920036-27a9-48dd-ac37-1a5e770c52ef","ios":"levelo://app?vid=ce920036-27a9-48dd-ac37-1a5e770c52ef"},"vehicle_type_id":"4","last_reported":1732212770,"current_range_meters":16800,"station_id":"ce4bh2h2rcd13ifvqdh0","pricing_plan_id":"cebpf4jnsgd1na2vs0mg"},{"bike_id":"5bf07f8b-1d41-46ea-b8d1-ce6f37c31580","system_id":"levelo_inurba_marseille","lat":43.29061,"lon":5.359078,"is_reserved":false,"is_disabled":false,"rental_uris":{"android":"levelo://app?vid=5bf07f8b-1d41-46ea-b8d1-ce6f37c31580","ios":"levelo://app?vid=5bf07f8b-1d41-46ea-b8d1-ce6f37c31580"},"vehicle_type_id":"4","last_reported":1732212770,"current_range_meters":38800,"station_id":"ce4bha92rcd13ifvqeg0","pricing_plan_id":"cebpf4jnsgd1na2vs0mg"},{"bike_id":"8c7096bb-9066-4146-9129-e75a3bdec8f1","system_id":"levelo_inurba_marseille","lat":43.26941,"lon":5.40252,"is_reserved":false,"is_disabled":false,"rental_uris":{"android":"levelo://app?vid=8c7096bb-9066-4146-9129-e75a3bdec8f1","ios":"levelo://app?vid=8c7096bb-9066-4146-9129-e75a3bdec8f1"},"vehicle_type_id":"4","last_reported":1732212770,"current_range_meters":36800,"station_id":"cjm6bp8fraef2m0cb0m0","pricing_plan_id":"cebpf4jnsgd1na2vs0mg"},{"bike_id":"552ae1f9-34eb-4d70-a19b-3616d3661778","system_id":"levelo_inurba_marseille","lat":43.33723,"lon":5.39178,"is_reserved":false,"is_disabled":false,"rental_uris":{"android":"levelo://app?vid=552ae1f9-34eb-4d70-a19b-3616d3661778","ios":"levelo://app?vid=552ae1f9-34eb-4d70-a19b-3616d3661778"},"vehicle_type_id":"4","last_reported":1732212770,"current_range_meters":28400,"station_id":"ce4bhr92rcd13ifvqhsg","pricing_plan_id":"cebpf4jnsgd1na2vs0mg"},{"bike_id":"1bf91585-1655-41ca-aa3f-ff0ba6e8cc52","system_id":"levelo_inurba_marseille","lat":43.33027,"lon":5.3904,"is_reserved":false,"is_disabled":false,"rental_uris":{"android":"levelo://app?vid=1bf91585-1655-41ca-aa3f-ff0ba6e8cc52","ios":"levelo://app?vid=1bf91585-1655-41ca-aa3f-ff0ba6e8cc52"},"vehicle_type_id":"4","last_reported":1732212770,"current_range_meters":40000,"station_id":"ce4bhr92rcd13ifvqhrg","pricing_plan_id":"cebpf4jnsgd1na2vs0mg"},{"bike_id":"6178f234-9efb-45f7-9365-bc8bed638c43","system_id":"levelo_inurba_marseille","lat":43.23185,"lon":5.39985,"is_reserved":false,"is_disabled":false,"rental_uris":{"android":"levelo://app?vid=6178f234-9efb-45f7-9365-bc8bed638c43","ios":"levelo://app?vid=6178f234-9efb-45f7-9365-bc8bed638c43"},"vehicle_type_id":"4","last_reported":1732212770,"current_range_meters":9600,"station_id":"ce4bhn12rcd13ifvqgqg","pricing_plan_id":"cebpf4jnsgd1na2vs0mg"},{"bike_id":"7a942108-16ea-4f98-9d80-82c238759071","system_id":"levelo_inurba_marseille","lat":43.29571,"lon":5.39958,"is_reserved":false,"is_disabled":true,"rental_uris":{"android":"levelo://app?vid=7a942108-16ea-4f98-9d80-82c238759071","ios":"levelo://app?vid=7a942108-16ea-4f98-9d80-82c238759071"},"vehicle_type_id":"4","last_reported":1732212770,"current_range_meters":32400,"station_id":"ce4bh312rcd13ifvqdj0","pricing_plan_id":"cebpf4jnsgd1na2vs0mg"},{"bike_id":"028e5427-36e2-49e1-b3db-260058fffb58","system_id":"levelo_inurba_marseille","lat":43.2558,"lon":5.38236,"is_reserved":false,"is_disabled":false,"rental_uris":{"android":"levelo://app?vid=028e5427-36e2-49e1-b3db-260058fffb58","ios":"levelo://app?vid=028e5427-36e2-49e1-b3db-260058fffb58"},"vehicle_type_id":"4","last_reported":1732212770,"current_range_meters":22000,"station_id":"ce4bhih2rcd13ifvqfs0","pricing_plan_id":"cebpf4jnsgd1na2vs0mg"},{"bike_id":"9d14cc21-2171-4057-a9c5-981a77bde623","system_id":"levelo_inurba_marseille","lat":43.29632,"lon":5.40601,"is_reserved":false,"is_disabled":false,"rental_uris":{"android":"levelo://app?vid=9d14cc21-2171-4057-a9c5-981a77bde623","ios":"levelo://app?vid=9d14cc21-2171-4057-a9c5-981a77bde623"},"vehicle_type_id":"4","last_reported":1732212770,"current_range_meters":23200,"station_id":"ce4bh0h2rcd13ifvqd60","pricing_plan_id":"cebpf4jnsgd1na2vs0mg"},{"bike_id":"1453fddf-c64f-4c02-ace1-55caffeaf55e","system_id":"levelo_inurba_marseille","lat":43.32289,"lon":5.38261,"is_reserved":false,"is_disabled":false,"rental_uris":{"android":"levelo://app?vid=1453fddf-c64f-4c02-ace1-55caffeaf55e","ios":"levelo://app?vid=1453fddf-c64f-4c02-ace1-55caffeaf55e"},"vehicle_type_id":"4","last_reported":1732212770,"current_range_meters":37600,"station_id":"ce4bhr12rcd13ifvqhqg","pricing_plan_id":"cebpf4jnsgd1na2vs0mg"},{"bike_id":"7e17a81f-3b24-49e1-a5fc-e88f9462d78d","system_id":"levelo_inurba_marseille","lat":43.284228,"lon":5.409314,"is_reserved":false,"is_disabled":false,"rental_uris":{"android":"levelo://app?vid=7e17a81f-3b24-49e1-a5fc-e88f9462d78d","ios":"levelo://app?vid=7e17a81f-3b24-49e1-a5fc-e88f9462d78d"},"vehicle_type_id":"4","last_reported":1732212770,"current_range_meters":8400,"station_id":"","pricing_plan_id":"cebpf4jnsgd1na2vs0mg"},{"bike_id":"0d5efe48-32bd-461f-be09-c1d5e2d6ef37","system_id":"levelo_inurba_marseille","lat":43.32364,"lon":5.38886,"is_reserved":false,"is_disabled":false,"rental_uris":{"android":"levelo://app?vid=0d5efe48-32bd-461f-be09-c1d5e2d6ef37","ios":"levelo://app?vid=0d5efe48-32bd-461f-be09-c1d5e2d6ef37"},"vehicle_type_id":"4","last_reported":1732212770,"current_range_meters":36800,"station_id":"ce4bhqp2rcd13ifvqhog","pricing_plan_id":"cebpf4jnsgd1na2vs0mg"},{"bike_id":"9cb25104-a344-44e1-b011-ee0babb96f44","system_id":"levelo_inurba_marseille","lat":43.25581,"lon":5.38239,"is_reserved":false,"is_disabled":false,"rental_uris":{"android":"levelo://app?vid=9cb25104-a344-44e1-b011-ee0babb96f44","ios":"levelo://app?vid=9cb25104-a344-44e1-b011-ee0babb96f44"},"vehicle_type_id":"4","last_reported":1732212770,"current_range_meters":37600,"station_id":"ce4bhih2rcd13ifvqfs0","pricing_plan_id":"cebpf4jnsgd1na2vs0mg"},{"bike_id":"93024db9-6bf1-41dd-99b9-61bc33e067be","system_id":"levelo_inurba_marseille","lat":43.28665,"lon":5.36343,"is_reserved":false,"is_disabled":false,"rental_uris":{"android":"levelo://app?vid=93024db9-6bf1-41dd-99b9-61bc33e067be","ios":"levelo://app?vid=93024db9-6bf1-41dd-99b9-61bc33e067be"},"vehicle_type_id":"4","last_reported":1732212770,"current_range_meters":16000,"station_id":"ce4bhah2rcd13ifvqej0","pricing_plan_id":"cebpf4jnsgd1na2vs0mg"},{"bike_id":"3e5e44a0-047e-494d-afeb-778b9a81b0c5","system_id":"levelo_inurba_marseille","lat":43.29038,"lon":5.37566,"is_reserved":false,"is_disabled":false,"rental_uris":{"android":"levelo://app?vid=3e5e44a0-047e-494d-afeb-778b9a81b0c5","ios":"levelo://app?vid=3e5e44a0-047e-494d-afeb-778b9a81b0c5"},"vehicle_type_id":"4","last_reported":1732212770,"current_range_meters":38800,"station_id":"ce4bh692rcd13ifvqe90","pricing_plan_id":"cebpf4jnsgd1na2vs0mg"},{"bike_id":"e669e265-de91-48ee-815a-04fba79ab2aa","system_id":"levelo_inurba_marseille","lat":43.29419,"lon":5.38628,"is_reserved":false,"is_disabled":true,"rental_uris":{"android":"levelo://app?vid=e669e265-de91-48ee-815a-04fba79ab2aa","ios":"levelo://app?vid=e669e265-de91-48ee-815a-04fba79ab2aa"},"vehicle_type_id":"4","last_reported":1732212770,"current_range_meters":0,"station_id":"ce4bh2h2rcd13ifvqdh0","pricing_plan_id":"cebpf4jnsgd1na2vs0mg"},{"bike_id":"55198e2d-47af-4bfd-a3e8-990f64e8cb79","system_id":"levelo_inurba_marseille","lat":43.30886,"lon":5.39632,"is_reserved":false,"is_disabled":false,"rental_uris":{"android":"levelo://app?vid=55198e2d-47af-4bfd-a3e8-990f64e8cb79","ios":"levelo://app?vid=55198e2d-47af-4bfd-a3e8-990f64e8cb79"},"vehicle_type_id":"4","last_reported":1732212770,"current_range_meters":9200,"station_id":"ce4bh012rcd13ifvqcv0","pricing_plan_id":"cebpf4jnsgd1na2vs0mg"},{"bike_id":"4fca4e06-85f7-40c7-87e2-6b404642fb28","system_id":"levelo_inurba_marseille","lat":43.26939,"lon":5.38918,"is_reserved":false,"is_disabled":true,"rental_uris":{"android":"levelo://app?vid=4fca4e06-85f7-40c7-87e2-6b404642fb28","ios":"levelo://app?vid=4fca4e06-85f7-40c7-87e2-6b404642fb28"},"vehicle_type_id":"4","last_reported":1732212770,"current_range_meters":1600,"station_id":"ce4bhhh2rcd13ifvqfl0","pricing_plan_id":"cebpf4jnsgd1na2vs0mg"},{"bike_id":"0aeb214c-fde7-45c8-b020-03be17efcbb9","system_id":"levelo_inurba_marseille","lat":43.33028,"lon":5.39039,"is_reserved":false,"is_disabled":false,"rental_uris":{"android":"levelo://app?vid=0aeb214c-fde7-45c8-b020-03be17efcbb9","ios":"levelo://app?vid=0aeb214c-fde7-45c8-b020-03be17efcbb9"},"vehicle_type_id":"4","last_reported":1732212770,"current_range_meters":28000,"station_id":"ce4bhr92rcd13ifvqhrg","pricing_plan_id":"cebpf4jnsgd1na2vs0mg"},{"bike_id":"755a1e58-5b8e-4c76-b603-686b1a21f371","system_id":"levelo_inurba_marseille","lat":43.29261,"lon":5.38443,"is_reserved":false,"is_disabled":false,"rental_uris":{"android":"levelo://app?vid=755a1e58-5b8e-4c76-b603-686b1a21f371","ios":"levelo://app?vid=755a1e58-5b8e-4c76-b603-686b1a21f371"},"vehicle_type_id":"4","last_reported":1732212770,"current_range_meters":30400,"station_id":"ce4bh692rcd13ifvqea0","pricing_plan_id":"cebpf4jnsgd1na2vs0mg"},{"bike_id":"e4e3495c-9d93-4eff-a4ab-712e0ae01181","system_id":"levelo_inurba_marseille","lat":43.2656,"lon":5.39012,"is_reserved":false,"is_disabled":false,"rental_uris":{"android":"levelo://app?vid=e4e3495c-9d93-4eff-a4ab-712e0ae01181","ios":"levelo://app?vid=e4e3495c-9d93-4eff-a4ab-712e0ae01181"},"vehicle_type_id":"4","last_reported":1732212770,"current_range_meters":38800,"station_id":"ce4bhe12rcd13ifvqf30","pricing_plan_id":"cebpf4jnsgd1na2vs0mg"},{"bike_id":"f91b85bf-7da4-4e91-940e-39004462e69c","system_id":"levelo_inurba_marseille","lat":43.30867,"lon":5.3963,"is_reserved":false,"is_disabled":false,"rental_uris":{"android":"levelo://app?vid=f91b85bf-7da4-4e91-940e-39004462e69c","ios":"levelo://app?vid=f91b85bf-7da4-4e91-940e-39004462e69c"},"vehicle_type_id":"4","last_reported":1732212770,"current_range_meters":9600,"station_id":"ce4bh012rcd13ifvqcv0","pricing_plan_id":"cebpf4jnsgd1na2vs0mg"},{"bike_id":"399013f4-8bce-45c5-8a97-e57538d4e03a","system_id":"levelo_inurba_marseille","lat":43.29552,"lon":5.42279,"is_reserved":false,"is_disabled":false,"rental_uris":{"android":"levelo://app?vid=399013f4-8bce-45c5-8a97-e57538d4e03a","ios":"levelo://app?vid=399013f4-8bce-45c5-8a97-e57538d4e03a"},"vehicle_type_id":"4","last_reported":1732212770,"current_range_meters":22400,"station_id":"ce4bhph2rcd13ifvqhdg","pricing_plan_id":"cebpf4jnsgd1na2vs0mg"},{"bike_id":"bbc27ce6-a0f3-4519-851d-7e83d0dec5ce","system_id":"levelo_inurba_marseille","lat":43.29515,"lon":5.39035,"is_reserved":false,"is_disabled":false,"rental_uris":{"android":"levelo://app?vid=bbc27ce6-a0f3-4519-851d-7e83d0dec5ce","ios":"levelo://app?vid=bbc27ce6-a0f3-4519-851d-7e83d0dec5ce"},"vehicle_type_id":"4","last_reported":1732212770,"current_range_meters":36400,"station_id":"ce4bh3p2rcd13ifvqdp0","pricing_plan_id":"cebpf4jnsgd1na2vs0mg"},{"bike_id":"e5951ee3-4a5a-4ebb-b469-096c5188dfa3","system_id":"levelo_inurba_marseille","lat":43.23192,"lon":5.35556,"is_reserved":false,"is_disabled":false,"rental_uris":{"android":"levelo://app?vid=e5951ee3-4a5a-4ebb-b469-096c5188dfa3","ios":"levelo://app?vid=e5951ee3-4a5a-4ebb-b469-096c5188dfa3"},"vehicle_type_id":"4","last_reported":1732212770,"current_range_meters":32800,"station_id":"ce4bhu92rcd13ifvqi70","pricing_plan_id":"cebpf4jnsgd1na2vs0mg"},{"bike_id":"8b521455-e734-4ade-9559-6dd0d5b40f83","system_id":"levelo_inurba_marseille","lat":43.3095,"lon":5.39033,"is_reserved":false,"is_disabled":false,"rental_uris":{"android":"levelo://app?vid=8b521455-e734-4ade-9559-6dd0d5b40f83","ios":"levelo://app?vid=8b521455-e734-4ade-9559-6dd0d5b40f83"},"vehicle_type_id":"4","last_reported":1732212770,"current_range_meters":34800,"station_id":"ce4bgup2rcd13ifvqco0","pricing_plan_id":"cebpf4jnsgd1na2vs0mg"},{"bike_id":"8d13985d-3bdf-49ab-9373-fe6216716dff","system_id":"levelo_inurba_marseille","lat":43.27444,"lon":5.3901,"is_reserved":false,"is_disabled":false,"rental_uris":{"android":"levelo://app?vid=8d13985d-3bdf-49ab-9373-fe6216716dff","ios":"levelo://app?vid=8d13985d-3bdf-49ab-9373-fe6216716dff"},"vehicle_type_id":"4","last_reported":1732212770,"current_range_meters":35200,"station_id":"","pricing_plan_id":"cebpf4jnsgd1na2vs0mg"},{"bike_id":"598543c3-4504-4ea3-976e-b45e767de5ed","system_id":"levelo_inurba_marseille","lat":43.32363,"lon":5.38882,"is_reserved":false,"is_disabled":false,"rental_uris":{"android":"levelo://app?vid=598543c3-4504-4ea3-976e-b45e767de5ed","ios":"levelo://app?vid=598543c3-4504-4ea3-976e-b45e767de5ed"},"vehicle_type_id":"4","last_reported":1732212770,"current_range_meters":36800,"station_id":"ce4bhqp2rcd13ifvqhog","pricing_plan_id":"cebpf4jnsgd1na2vs0mg"},{"bike_id":"4bcc532b-a431-4091-88d9-074547c92839","system_id":"levelo_inurba_marseille","lat":43.30262,"lon":5.40075,"is_reserved":false,"is_disabled":true,"rental_uris":{"android":"levelo://app?vid=4bcc532b-a431-4091-88d9-074547c92839","ios":"levelo://app?vid=4bcc532b-a431-4091-88d9-074547c92839"},"vehicle_type_id":"4","last_reported":1732212770,"current_range_meters":0,"station_id":"ce4bgvh2rcd13ifvqcs0","pricing_plan_id":"cebpf4jnsgd1na2vs0mg"},{"bike_id":"8a0b3bb7-e6ee-41d8-9425-afec6db17651","system_id":"levelo_inurba_marseille","lat":43.29522,"lon":5.39408,"is_reserved":false,"is_disabled":false,"rental_uris":{"android":"levelo://app?vid=8a0b3bb7-e6ee-41d8-9425-afec6db17651","ios":"levelo://app?vid=8a0b3bb7-e6ee-41d8-9425-afec6db17651"},"vehicle_type_id":"4","last_reported":1732212770,"current_range_meters":39200,"station_id":"ce4bh292rcd13ifvqdf0","pricing_plan_id":"cebpf4jnsgd1na2vs0mg"},{"bike_id":"fe1f871c-a7a4-4864-8781-9bd2743909f5","system_id":"levelo_inurba_marseille","lat":43.24475,"lon":5.36912,"is_reserved":false,"is_disabled":true,"rental_uris":{"android":"levelo://app?vid=fe1f871c-a7a4-4864-8781-9bd2743909f5","ios":"levelo://app?vid=fe1f871c-a7a4-4864-8781-9bd2743909f5"},"vehicle_type_id":"4","last_reported":1732212770,"current_range_meters":28800,"station_id":"","pricing_plan_id":"cebpf4jnsgd1na2vs0mg"},{"bike_id":"6c948e9c-d5b3-4fe5-a918-1bd2f7c83b02","system_id":"levelo_inurba_marseille","lat":43.32105,"lon":5.3677,"is_reserved":false,"is_disabled":false,"rental_uris":{"android":"levelo://app?vid=6c948e9c-d5b3-4fe5-a918-1bd2f7c83b02","ios":"levelo://app?vid=6c948e9c-d5b3-4fe5-a918-1bd2f7c83b02"},"vehicle_type_id":"4","last_reported":1732212770,"current_range_meters":4400,"station_id":"ce4bhrh2rcd13ifvqhug","pricing_plan_id":"cebpf4jnsgd1na2vs0mg"},{"bike_id":"d81ab7a3-51c2-4185-a371-62197aa1f5e2","system_id":"levelo_inurba_marseille","lat":43.31279,"lon":5.38683,"is_reserved":false,"is_disabled":false,"rental_uris":{"android":"levelo://app?vid=d81ab7a3-51c2-4185-a371-62197aa1f5e2","ios":"levelo://app?vid=d81ab7a3-51c2-4185-a371-62197aa1f5e2"},"vehicle_type_id":"4","last_reported":1732212770,"current_range_meters":24800,"station_id":"","pricing_plan_id":"cebpf4jnsgd1na2vs0mg"},{"bike_id":"509ce648-fa92-4035-be33-99e66ac25ca5","system_id":"levelo_inurba_marseille","lat":43.29528,"lon":5.39399,"is_reserved":false,"is_disabled":false,"rental_uris":{"android":"levelo://app?vid=509ce648-fa92-4035-be33-99e66ac25ca5","ios":"levelo://app?vid=509ce648-fa92-4035-be33-99e66ac25ca5"},"vehicle_type_id":"4","last_reported":1732212770,"current_range_meters":7200,"station_id":"ce4bh292rcd13ifvqdf0","pricing_plan_id":"cebpf4jnsgd1na2vs0mg"},{"bike_id":"b8ee6a54-6c0b-4a59-9e0b-51a2cc6a9f13","system_id":"levelo_inurba_marseille","lat":43.31322,"lon":5.39692,"is_reserved":false,"is_disabled":false,"rental_uris":{"android":"levelo://app?vid=b8ee6a54-6c0b-4a59-9e0b-51a2cc6a9f13","ios":"levelo://app?vid=b8ee6a54-6c0b-4a59-9e0b-51a2cc6a9f13"},"vehicle_type_id":"4","last_reported":1732212770,"current_range_meters":21600,"station_id":"ce4bgvp2rcd13ifvqcu0","pricing_plan_id":"cebpf4jnsgd1na2vs0mg"},{"bike_id":"7be1f026-6e9b-4cd5-9789-4539af5b3c2a","system_id":"levelo_inurba_marseille","lat":43.23963,"lon":5.36636,"is_reserved":false,"is_disabled":false,"rental_uris":{"android":"levelo://app?vid=7be1f026-6e9b-4cd5-9789-4539af5b3c2a","ios":"levelo://app?vid=7be1f026-6e9b-4cd5-9789-4539af5b3c2a"},"vehicle_type_id":"4","last_reported":1732212770,"current_range_meters":20000,"station_id":"ce4bhi12rcd13ifvqfp0","pricing_plan_id":"cebpf4jnsgd1na2vs0mg"},{"bike_id":"b1558723-5a02-4714-8af3-9a6508d5eaca","system_id":"levelo_inurba_marseille","lat":43.309,"lon":5.37181,"is_reserved":false,"is_disabled":false,"rental_uris":{"android":"levelo://app?vid=b1558723-5a02-4714-8af3-9a6508d5eaca","ios":"levelo://app?vid=b1558723-5a02-4714-8af3-9a6508d5eaca"},"vehicle_type_id":"4","last_reported":1732212770,"current_range_meters":32800,"station_id":"ce4bguh2rcd13ifvqckg","pricing_plan_id":"cebpf4jnsgd1na2vs0mg"},{"bike_id":"7073b1ab-16ae-4a15-9f35-08d42cf799ed","system_id":"levelo_inurba_marseille","lat":43.32291,"lon":5.38284,"is_reserved":false,"is_disabled":false,"rental_uris":{"android":"levelo://app?vid=7073b1ab-16ae-4a15-9f35-08d42cf799ed","ios":"levelo://app?vid=7073b1ab-16ae-4a15-9f35-08d42cf799ed"},"vehicle_type_id":"4","last_reported":1732212770,"current_range_meters":30000,"station_id":"ce4bhr12rcd13ifvqhqg","pricing_plan_id":"cebpf4jnsgd1na2vs0mg"},{"bike_id":"51c09c54-d994-4af9-b784-a959f5db1c71","system_id":"levelo_inurba_marseille","lat":43.29582,"lon":5.36736,"is_reserved":false,"is_disabled":false,"rental_uris":{"android":"levelo://app?vid=51c09c54-d994-4af9-b784-a959f5db1c71","ios":"levelo://app?vid=51c09c54-d994-4af9-b784-a959f5db1c71"},"vehicle_type_id":"4","last_reported":1732212770,"current_range_meters":34800,"station_id":"ce4bgph2rcd13ifvqc2g","pricing_plan_id":"cebpf4jnsgd1na2vs0mg"},{"bike_id":"bd00794b-1129-4bdf-848e-d8127829ecbf","system_id":"levelo_inurba_marseille","lat":43.337444,"lon":5.374475,"is_reserved":false,"is_disabled":false,"rental_uris":{"android":"levelo://app?vid=bd00794b-1129-4bdf-848e-d8127829ecbf","ios":"levelo://app?vid=bd00794b-1129-4bdf-848e-d8127829ecbf"},"vehicle_type_id":"4","last_reported":1732212770,"current_range_meters":11600,"station_id":"","pricing_plan_id":"cebpf4jnsgd1na2vs0mg"},{"bike_id":"5c53cfbd-2547-413a-b79a-f8cc3b1ca992","system_id":"levelo_inurba_marseille","lat":43.32111,"lon":5.36769,"is_reserved":false,"is_disabled":false,"rental_uris":{"android":"levelo://app?vid=5c53cfbd-2547-413a-b79a-f8cc3b1ca992","ios":"levelo://app?vid=5c53cfbd-2547-413a-b79a-f8cc3b1ca992"},"vehicle_type_id":"4","last_reported":1732212770,"current_range_meters":20800,"station_id":"ce4bhrh2rcd13ifvqhug","pricing_plan_id":"cebpf4jnsgd1na2vs0mg"},{"bike_id":"8e015a4d-ccbb-496f-9c2b-182bb71a3805","system_id":"levelo_inurba_marseille","lat":43.30189,"lon":5.36626,"is_reserved":false,"is_disabled":false,"rental_uris":{"android":"levelo://app?vid=8e015a4d-ccbb-496f-9c2b-182bb71a3805","ios":"levelo://app?vid=8e015a4d-ccbb-496f-9c2b-182bb71a3805"},"vehicle_type_id":"4","last_reported":1732212770,"current_range_meters":33200,"station_id":"ce4bgrh2rcd13ifvqc8g","pricing_plan_id":"cebpf4jnsgd1na2vs0mg"},{"bike_id":"3a48e805-752b-4ef2-a1b1-c530d2ee3ef1","system_id":"levelo_inurba_marseille","lat":43.25725,"lon":5.41114,"is_reserved":false,"is_disabled":false,"rental_uris":{"android":"levelo://app?vid=3a48e805-752b-4ef2-a1b1-c530d2ee3ef1","ios":"levelo://app?vid=3a48e805-752b-4ef2-a1b1-c530d2ee3ef1"},"vehicle_type_id":"4","last_reported":1732212770,"current_range_meters":6800,"station_id":"ce4bhkp2rcd13ifvqgd0","pricing_plan_id":"cebpf4jnsgd1na2vs0mg"},{"bike_id":"64477252-a762-4163-9ebe-db6698aab350","system_id":"levelo_inurba_marseille","lat":43.31365,"lon":5.38479,"is_reserved":false,"is_disabled":false,"rental_uris":{"android":"levelo://app?vid=64477252-a762-4163-9ebe-db6698aab350","ios":"levelo://app?vid=64477252-a762-4163-9ebe-db6698aab350"},"vehicle_type_id":"4","last_reported":1732212770,"current_range_meters":32800,"station_id":"ce4bgt92rcd13ifvqcf0","pricing_plan_id":"cebpf4jnsgd1na2vs0mg"},{"bike_id":"ced939b2-a2ab-40e5-b140-575509bab6d1","system_id":"levelo_inurba_marseille","lat":43.33023,"lon":5.39037,"is_reserved":false,"is_disabled":false,"rental_uris":{"android":"levelo://app?vid=ced939b2-a2ab-40e5-b140-575509bab6d1","ios":"levelo://app?vid=ced939b2-a2ab-40e5-b140-575509bab6d1"},"vehicle_type_id":"4","last_reported":1732212770,"current_range_meters":20000,"station_id":"ce4bhr92rcd13ifvqhrg","pricing_plan_id":"cebpf4jnsgd1na2vs0mg"},{"bike_id":"4674a573-a71e-41c0-a925-5c021c5e6c25","system_id":"levelo_inurba_marseille","lat":43.29431,"lon":5.37466,"is_reserved":false,"is_disabled":true,"rental_uris":{"android":"levelo://app?vid=4674a573-a71e-41c0-a925-5c021c5e6c25","ios":"levelo://app?vid=4674a573-a71e-41c0-a925-5c021c5e6c25"},"vehicle_type_id":"4","last_reported":1732212770,"current_range_meters":0,"station_id":"","pricing_plan_id":"cebpf4jnsgd1na2vs0mg"},{"bike_id":"8da62060-ef52-4c79-b246-8dd92fe25da3","system_id":"levelo_inurba_marseille","lat":43.25089,"lon":5.39523,"is_reserved":false,"is_disabled":false,"rental_uris":{"android":"levelo://app?vid=8da62060-ef52-4c79-b246-8dd92fe25da3","ios":"levelo://app?vid=8da62060-ef52-4c79-b246-8dd92fe25da3"},"vehicle_type_id":"4","last_reported":1732212770,"current_range_meters":17200,"station_id":"ce4bhm12rcd13ifvqgkg","pricing_plan_id":"cebpf4jnsgd1na2vs0mg"},{"bike_id":"92101dc5-4f1c-4b65-8bd1-54415f893867","system_id":"levelo_inurba_marseille","lat":43.31686,"lon":5.38802,"is_reserved":false,"is_disabled":false,"rental_uris":{"android":"levelo://app?vid=92101dc5-4f1c-4b65-8bd1-54415f893867","ios":"levelo://app?vid=92101dc5-4f1c-4b65-8bd1-54415f893867"},"vehicle_type_id":"4","last_reported":1732212770,"current_range_meters":4400,"station_id":"","pricing_plan_id":"cebpf4jnsgd1na2vs0mg"},{"bike_id":"cde5eb04-35f5-4971-aec4-8004f9b2dcd9","system_id":"levelo_inurba_marseille","lat":43.2828,"lon":5.35063,"is_reserved":false,"is_disabled":true,"rental_uris":{"android":"levelo://app?vid=cde5eb04-35f5-4971-aec4-8004f9b2dcd9","ios":"levelo://app?vid=cde5eb04-35f5-4971-aec4-8004f9b2dcd9"},"vehicle_type_id":"4","last_reported":1732212770,"current_range_meters":0,"station_id":"ce4bhbp2rcd13ifvqerg","pricing_plan_id":"cebpf4jnsgd1na2vs0mg"},{"bike_id":"fb528c4b-8747-40c7-bb11-6adb753b4561","system_id":"levelo_inurba_marseille","lat":43.290222,"lon":5.386485,"is_reserved":false,"is_disabled":false,"rental_uris":{"android":"levelo://app?vid=fb528c4b-8747-40c7-bb11-6adb753b4561","ios":"levelo://app?vid=fb528c4b-8747-40c7-bb11-6adb753b4561"},"vehicle_type_id":"4","last_reported":1732212770,"current_range_meters":20800,"station_id":"ce4bh4p2rcd13ifvqe0g","pricing_plan_id":"cebpf4jnsgd1na2vs0mg"},{"bike_id":"4024c177-e689-450a-884b-5392fcf58a24","system_id":"levelo_inurba_marseille","lat":43.3229,"lon":5.38261,"is_reserved":false,"is_disabled":false,"rental_uris":{"android":"levelo://app?vid=4024c177-e689-450a-884b-5392fcf58a24","ios":"levelo://app?vid=4024c177-e689-450a-884b-5392fcf58a24"},"vehicle_type_id":"4","last_reported":1732212770,"current_range_meters":9200,"station_id":"ce4bhr12rcd13ifvqhqg","pricing_plan_id":"cebpf4jnsgd1na2vs0mg"},{"bike_id":"bb8864b9-b1c6-4a53-bad2-3712ab26e78c","system_id":"levelo_inurba_marseille","lat":43.28344,"lon":5.38099,"is_reserved":false,"is_disabled":false,"rental_uris":{"android":"levelo://app?vid=bb8864b9-b1c6-4a53-bad2-3712ab26e78c","ios":"levelo://app?vid=bb8864b9-b1c6-4a53-bad2-3712ab26e78c"},"vehicle_type_id":"4","last_reported":1732212770,"current_range_meters":35600,"station_id":"ce4bh412rcd13ifvqdr0","pricing_plan_id":"cebpf4jnsgd1na2vs0mg"},{"bike_id":"83237ff9-1428-4076-8a80-8e455b4bccf3","system_id":"levelo_inurba_marseille","lat":43.30889,"lon":5.39638,"is_reserved":false,"is_disabled":true,"rental_uris":{"android":"levelo://app?vid=83237ff9-1428-4076-8a80-8e455b4bccf3","ios":"levelo://app?vid=83237ff9-1428-4076-8a80-8e455b4bccf3"},"vehicle_type_id":"4","last_reported":1732212770,"current_range_meters":26800,"station_id":"ce4bh012rcd13ifvqcv0","pricing_plan_id":"cebpf4jnsgd1na2vs0mg"},{"bike_id":"3326086a-ed46-4163-8be7-04fb24d4a06c","system_id":"levelo_inurba_marseille","lat":43.24072,"lon":5.37764,"is_reserved":false,"is_disabled":false,"rental_uris":{"android":"levelo://app?vid=3326086a-ed46-4163-8be7-04fb24d4a06c","ios":"levelo://app?vid=3326086a-ed46-4163-8be7-04fb24d4a06c"},"vehicle_type_id":"4","last_reported":1732212770,"current_range_meters":18800,"station_id":"ce4bhnp2rcd13ifvqgvg","pricing_plan_id":"cebpf4jnsgd1na2vs0mg"},{"bike_id":"277e6b16-362e-44a7-9b2e-13c95c312a3d","system_id":"levelo_inurba_marseille","lat":43.32365,"lon":5.38882,"is_reserved":false,"is_disabled":false,"rental_uris":{"android":"levelo://app?vid=277e6b16-362e-44a7-9b2e-13c95c312a3d","ios":"levelo://app?vid=277e6b16-362e-44a7-9b2e-13c95c312a3d"},"vehicle_type_id":"4","last_reported":1732212770,"current_range_meters":16800,"station_id":"ce4bhqp2rcd13ifvqhog","pricing_plan_id":"cebpf4jnsgd1na2vs0mg"},{"bike_id":"846625e1-1910-4d30-a24b-79db36a0b1d5","system_id":"levelo_inurba_marseille","lat":43.27623,"lon":5.3611,"is_reserved":false,"is_disabled":false,"rental_uris":{"android":"levelo://app?vid=846625e1-1910-4d30-a24b-79db36a0b1d5","ios":"levelo://app?vid=846625e1-1910-4d30-a24b-79db36a0b1d5"},"vehicle_type_id":"4","last_reported":1732212770,"current_range_meters":30000,"station_id":"ce4bgj92rcd13ifvqbe0","pricing_plan_id":"cebpf4jnsgd1na2vs0mg"},{"bike_id":"5465dfb3-bdd8-49e5-9de9-461bfccb53c8","system_id":"levelo_inurba_marseille","lat":43.2885,"lon":5.35856,"is_reserved":false,"is_disabled":false,"rental_uris":{"android":"levelo://app?vid=5465dfb3-bdd8-49e5-9de9-461bfccb53c8","ios":"levelo://app?vid=5465dfb3-bdd8-49e5-9de9-461bfccb53c8"},"vehicle_type_id":"4","last_reported":1732212770,"current_range_meters":6800,"station_id":"ce4bhb12rcd13ifvqem0","pricing_plan_id":"cebpf4jnsgd1na2vs0mg"},{"bike_id":"89429ed2-f839-4749-bcb9-3e5230fe3bfb","system_id":"levelo_inurba_marseille","lat":43.33724,"lon":5.39181,"is_reserved":false,"is_disabled":false,"rental_uris":{"android":"levelo://app?vid=89429ed2-f839-4749-bcb9-3e5230fe3bfb","ios":"levelo://app?vid=89429ed2-f839-4749-bcb9-3e5230fe3bfb"},"vehicle_type_id":"4","last_reported":1732212770,"current_range_meters":38800,"station_id":"ce4bhr92rcd13ifvqhsg","pricing_plan_id":"cebpf4jnsgd1na2vs0mg"},{"bike_id":"c8db655f-b3df-4bb3-b835-fb06b95a1b22","system_id":"levelo_inurba_marseille","lat":43.29623,"lon":5.40134,"is_reserved":false,"is_disabled":false,"rental_uris":{"android":"levelo://app?vid=c8db655f-b3df-4bb3-b835-fb06b95a1b22","ios":"levelo://app?vid=c8db655f-b3df-4bb3-b835-fb06b95a1b22"},"vehicle_type_id":"4","last_reported":1732212770,"current_range_meters":14800,"station_id":"","pricing_plan_id":"cebpf4jnsgd1na2vs0mg"},{"bike_id":"1d183352-1f69-4006-89f0-b9776e06e31d","system_id":"levelo_inurba_marseille","lat":43.29873,"lon":5.39741,"is_reserved":false,"is_disabled":false,"rental_uris":{"android":"levelo://app?vid=1d183352-1f69-4006-89f0-b9776e06e31d","ios":"levelo://app?vid=1d183352-1f69-4006-89f0-b9776e06e31d"},"vehicle_type_id":"4","last_reported":1732212770,"current_range_meters":16000,"station_id":"ce4bh0h2rcd13ifvqd50","pricing_plan_id":"cebpf4jnsgd1na2vs0mg"},{"bike_id":"4e65be74-c011-4848-9fc0-6d8efa1c0e25","system_id":"levelo_inurba_marseille","lat":43.28078,"lon":5.3966,"is_reserved":false,"is_disabled":false,"rental_uris":{"android":"levelo://app?vid=4e65be74-c011-4848-9fc0-6d8efa1c0e25","ios":"levelo://app?vid=4e65be74-c011-4848-9fc0-6d8efa1c0e25"},"vehicle_type_id":"4","last_reported":1732212770,"current_range_meters":6800,"station_id":"ce4bho12rcd13ifvqh2g","pricing_plan_id":"cebpf4jnsgd1na2vs0mg"},{"bike_id":"c9b916c8-021b-42e3-a7a1-8d3b7ca64df2","system_id":"levelo_inurba_marseille","lat":43.27941,"lon":5.41048,"is_reserved":false,"is_disabled":false,"rental_uris":{"android":"levelo://app?vid=c9b916c8-021b-42e3-a7a1-8d3b7ca64df2","ios":"levelo://app?vid=c9b916c8-021b-42e3-a7a1-8d3b7ca64df2"},"vehicle_type_id":"4","last_reported":1732212770,"current_range_meters":30400,"station_id":"ce4bhnp2rcd13ifvqh0g","pricing_plan_id":"cebpf4jnsgd1na2vs0mg"},{"bike_id":"95b1dba9-2ecb-4ade-993d-5c585685f458","system_id":"levelo_inurba_marseille","lat":43.26571,"lon":5.39007,"is_reserved":false,"is_disabled":false,"rental_uris":{"android":"levelo://app?vid=95b1dba9-2ecb-4ade-993d-5c585685f458","ios":"levelo://app?vid=95b1dba9-2ecb-4ade-993d-5c585685f458"},"vehicle_type_id":"4","last_reported":1732212770,"current_range_meters":8400,"station_id":"ce4bhe12rcd13ifvqf30","pricing_plan_id":"cebpf4jnsgd1na2vs0mg"},{"bike_id":"807b8949-0587-4ebe-8d2b-a83ca307a490","system_id":"levelo_inurba_marseille","lat":43.26491,"lon":5.3954,"is_reserved":false,"is_disabled":false,"rental_uris":{"android":"levelo://app?vid=807b8949-0587-4ebe-8d2b-a83ca307a490","ios":"levelo://app?vid=807b8949-0587-4ebe-8d2b-a83ca307a490"},"vehicle_type_id":"4","last_reported":1732212770,"current_range_meters":31200,"station_id":"ce4bhi12rcd13ifvqfq0","pricing_plan_id":"cebpf4jnsgd1na2vs0mg"},{"bike_id":"e66f1290-8c8d-42e0-a97b-a53b867f8c27","system_id":"levelo_inurba_marseille","lat":43.29262,"lon":5.38432,"is_reserved":false,"is_disabled":false,"rental_uris":{"android":"levelo://app?vid=e66f1290-8c8d-42e0-a97b-a53b867f8c27","ios":"levelo://app?vid=e66f1290-8c8d-42e0-a97b-a53b867f8c27"},"vehicle_type_id":"4","last_reported":1732212770,"current_range_meters":32400,"station_id":"ce4bh692rcd13ifvqea0","pricing_plan_id":"cebpf4jnsgd1na2vs0mg"},{"bike_id":"7770b1cc-2a54-4d08-8255-6bed2fc397aa","system_id":"levelo_inurba_marseille","lat":43.23193,"lon":5.35546,"is_reserved":false,"is_disabled":false,"rental_uris":{"android":"levelo://app?vid=7770b1cc-2a54-4d08-8255-6bed2fc397aa","ios":"levelo://app?vid=7770b1cc-2a54-4d08-8255-6bed2fc397aa"},"vehicle_type_id":"4","last_reported":1732212770,"current_range_meters":16800,"station_id":"ce4bhu92rcd13ifvqi70","pricing_plan_id":"cebpf4jnsgd1na2vs0mg"},{"bike_id":"6b033e5d-506b-45c0-8a17-32ef42064181","system_id":"levelo_inurba_marseille","lat":43.28937,"lon":5.36388,"is_reserved":false,"is_disabled":false,"rental_uris":{"android":"levelo://app?vid=6b033e5d-506b-45c0-8a17-32ef42064181","ios":"levelo://app?vid=6b033e5d-506b-45c0-8a17-32ef42064181"},"vehicle_type_id":"4","last_reported":1732212770,"current_range_meters":16000,"station_id":"ce4bhc92rcd13ifvqetg","pricing_plan_id":"cebpf4jnsgd1na2vs0mg"},{"bike_id":"86210bf7-7f60-4e45-960e-1a86f6b33188","system_id":"levelo_inurba_marseille","lat":43.2821,"lon":5.38161,"is_reserved":false,"is_disabled":true,"rental_uris":{"android":"levelo://app?vid=86210bf7-7f60-4e45-960e-1a86f6b33188","ios":"levelo://app?vid=86210bf7-7f60-4e45-960e-1a86f6b33188"},"vehicle_type_id":"4","last_reported":1732212770,"current_range_meters":27600,"station_id":"","pricing_plan_id":"cebpf4jnsgd1na2vs0mg"},{"bike_id":"505c8ddd-1654-4489-a777-b0a04062ec9e","system_id":"levelo_inurba_marseille","lat":43.29253,"lon":5.38446,"is_reserved":false,"is_disabled":false,"rental_uris":{"android":"levelo://app?vid=505c8ddd-1654-4489-a777-b0a04062ec9e","ios":"levelo://app?vid=505c8ddd-1654-4489-a777-b0a04062ec9e"},"vehicle_type_id":"4","last_reported":1732212770,"current_range_meters":16000,"station_id":"ce4bh692rcd13ifvqea0","pricing_plan_id":"cebpf4jnsgd1na2vs0mg"},{"bike_id":"71b5c0a2-7410-412c-bf89-3756222c4561","system_id":"levelo_inurba_marseille","lat":43.30942,"lon":5.40152,"is_reserved":false,"is_disabled":true,"rental_uris":{"android":"levelo://app?vid=71b5c0a2-7410-412c-bf89-3756222c4561","ios":"levelo://app?vid=71b5c0a2-7410-412c-bf89-3756222c4561"},"vehicle_type_id":"4","last_reported":1732212770,"current_range_meters":1600,"station_id":"ce4bgvp2rcd13ifvqct0","pricing_plan_id":"cebpf4jnsgd1na2vs0mg"},{"bike_id":"3d25d818-80cf-415a-996a-afc2d01ce97b","system_id":"levelo_inurba_marseille","lat":43.27793,"lon":5.40723,"is_reserved":false,"is_disabled":true,"rental_uris":{"android":"levelo://app?vid=3d25d818-80cf-415a-996a-afc2d01ce97b","ios":"levelo://app?vid=3d25d818-80cf-415a-996a-afc2d01ce97b"},"vehicle_type_id":"4","last_reported":1732212770,"current_range_meters":3600,"station_id":"ce4bhnh2rcd13ifvqgtg","pricing_plan_id":"cebpf4jnsgd1na2vs0mg"},{"bike_id":"abf7bcba-e4cc-4453-829b-bd2193ccbbaa","system_id":"levelo_inurba_marseille","lat":43.3237,"lon":5.3889,"is_reserved":false,"is_disabled":false,"rental_uris":{"android":"levelo://app?vid=abf7bcba-e4cc-4453-829b-bd2193ccbbaa","ios":"levelo://app?vid=abf7bcba-e4cc-4453-829b-bd2193ccbbaa"},"vehicle_type_id":"4","last_reported":1732212770,"current_range_meters":38000,"station_id":"ce4bhqp2rcd13ifvqhog","pricing_plan_id":"cebpf4jnsgd1na2vs0mg"},{"bike_id":"8b0d86aa-3a50-4148-96e2-8311b42cefc0","system_id":"levelo_inurba_marseille","lat":43.28434,"lon":5.39185,"is_reserved":false,"is_disabled":false,"rental_uris":{"android":"levelo://app?vid=8b0d86aa-3a50-4148-96e2-8311b42cefc0","ios":"levelo://app?vid=8b0d86aa-3a50-4148-96e2-8311b42cefc0"},"vehicle_type_id":"4","last_reported":1732212770,"current_range_meters":36400,"station_id":"ce4bhoh2rcd13ifvqh5g","pricing_plan_id":"cebpf4jnsgd1na2vs0mg"},{"bike_id":"124fb768-9159-46f5-a27d-5d69194a33bd","system_id":"levelo_inurba_marseille","lat":43.30433,"lon":5.38915,"is_reserved":false,"is_disabled":false,"rental_uris":{"android":"levelo://app?vid=124fb768-9159-46f5-a27d-5d69194a33bd","ios":"levelo://app?vid=124fb768-9159-46f5-a27d-5d69194a33bd"},"vehicle_type_id":"4","last_reported":1732212770,"current_range_meters":23200,"station_id":"ce4bgk12rcd13ifvqbi0","pricing_plan_id":"cebpf4jnsgd1na2vs0mg"},{"bike_id":"c98c80c5-66bf-4cf8-b173-1ce652463387","system_id":"levelo_inurba_marseille","lat":43.30614,"lon":5.37228,"is_reserved":false,"is_disabled":false,"rental_uris":{"android":"levelo://app?vid=c98c80c5-66bf-4cf8-b173-1ce652463387","ios":"levelo://app?vid=c98c80c5-66bf-4cf8-b173-1ce652463387"},