{"last_updated":1728713504,"ttl":60,"version":"2.2","data":{"bikes":[{"bike_id":"af9f393e-9e6a-483e-ba46-a20f1571b6f1","system_id":"levelo_inurba_marseille","lat":43.27377,"lon":5.36251,"is_reserved":false,"is_disabled":false,"rental_uris":{"android":"levelo://app?vid=af9f393e-9e6a-483e-ba46-a20f1571b6f1","ios":"levelo://app?vid=af9f393e-9e6a-483e-ba46-a20f1571b6f1"},"vehicle_type_id":"4","last_reported":1728713504,"current_range_meters":26000,"station_id":"ce4bhbh2rcd13ifvqeo0","pricing_plan_id":"cebpf4jnsgd1na2vs0mg"},{"bike_id":"a3869703-b2b5-40c3-9afc-f7fde4f873c8","system_id":"levelo_inurba_marseille","lat":43.29258,"lon":5.40903,"is_reserved":false,"is_disabled":false,"rental_uris":{"android":"levelo://app?vid=a3869703-b2b5-40c3-9afc-f7fde4f873c8","ios":"levelo://app?vid=a3869703-b2b5-40c3-9afc-f7fde4f873c8"},"vehicle_type_id":"4","last_reported":1728713504,"current_range_meters":26800,"station_id":"ce4bh192rcd13ifvqdc0","pricing_plan_id":"cebpf4jnsgd1na2vs0mg"},{"bike_id":"c1f74955-3289-4b68-adec-b56741d49e6e","system_id":"levelo_inurba_marseille","lat":43.24073,"lon":5.37754,"is_reserved":false,"is_disabled":false,"rental_uris":{"android":"levelo://app?vid=c1f74955-3289-4b68-adec-b56741d49e6e","ios":"levelo://app?vid=c1f74955-3289-4b68-adec-b56741d49e6e"},"vehicle_type_id":"4","last_reported":1728713504,"current_range_meters":26800,"station_id":"ce4bhnp2rcd13ifvqgvg","pricing_plan_id":"cebpf4jnsgd1na2vs0mg"},{"bike_id":"c013130f-af52-4fbb-b71c-e9f5c537bcf4","system_id":"levelo_inurba_marseille","lat":43.3065,"lon":5.40074,"is_reserved":false,"is_disabled":false,"rental_uris":{"android":"levelo://app?vid=c013130f-af52-4fbb-b71c-e9f5c537bcf4","ios":"levelo://app?vid=c013130f-af52-4fbb-b71c-e9f5c537bcf4"},"vehicle_type_id":"4","last_reported":1728713504,"current_range_meters":23200,"station_id":"ce4bh112rcd13ifvqda0","pricing_plan_id":"cebpf4jnsgd1na2vs0mg"},{"bike_id":"a44a543f-b1f5-472e-bd43-8e0cefb0249f","system_id":"levelo_inurba_marseille","lat":43.27921,"lon":5.38011,"is_reserved":false,"is_disabled":false,"rental_uris":{"android":"levelo://app?vid=a44a543f-b1f5-472e-bd43-8e0cefb0249f","ios":"levelo://app?vid=a44a543f-b1f5-472e-bd43-8e0cefb0249f"},"vehicle_type_id":"4","last_reported":1728713504,"current_range_meters":38800,"station_id":"ce4bhf92rcd13ifvqf50","pricing_plan_id":"cebpf4jnsgd1na2vs0mg"},{"bike_id":"38eda0d1-5ce6-4010-9d58-af0c4b4806fc","system_id":"levelo_inurba_marseille","lat":43.27181,"lon":5.4099,"is_reserved":false,"is_disabled":false,"rental_uris":{"android":"levelo://app?vid=38eda0d1-5ce6-4010-9d58-af0c4b4806fc","ios":"levelo://app?vid=38eda0d1-5ce6-4010-9d58-af0c4b4806fc"},"vehicle_type_id":"4","last_reported":1728713504,"current_range_meters":38800,"station_id":"ce4bhl12rcd13ifvqgf0","pricing_plan_id":"cebpf4jnsgd1na2vs0mg"},{"bike_id":"d3b026fa-e85f-4c0f-a719-b0c32534e312","system_id":"levelo_inurba_marseille","lat":43.30471,"lon":5.37906,"is_reserved":false,"is_disabled":false,"rental_uris":{"android":"levelo://app?vid=d3b026fa-e85f-4c0f-a719-b0c32534e312","ios":"levelo://app?vid=d3b026fa-e85f-4c0f-a719-b0c32534e312"},"vehicle_type_id":"4","last_reported":1728713504,"current_range_meters":30400,"station_id":"ce4bgup2rcd13ifvqcn0","pricing_plan_id":"cebpf4jnsgd1na2vs0mg"},{"bike_id":"51dd5005-a195-4642-bd5f-8cbea71cb3b3","system_id":"levelo_inurba_marseille","lat":43.22929,"lon":5.35376,"is_reserved":false,"is_disabled":false,"rental_uris":{"android":"levelo://app?vid=51dd5005-a195-4642-bd5f-8cbea71cb3b3","ios":"levelo://app?vid=51dd5005-a195-4642-bd5f-8cbea71cb3b3"},"vehicle_type_id":"4","last_reported":1728713504,"current_range_meters":37600,"station_id":"cpo3532slgdg3j2ikp40","pricing_plan_id":"cebpf4jnsgd1na2vs0mg"},{"bike_id":"82746f44-7c7f-4651-be99-c39f2164c548","system_id":"levelo_inurba_marseille","lat":43.29207,"lon":5.358,"is_reserved":false,"is_disabled":false,"rental_uris":{"android":"levelo://app?vid=82746f44-7c7f-4651-be99-c39f2164c548","ios":"levelo://app?vid=82746f44-7c7f-4651-be99-c39f2164c548"},"vehicle_type_id":"4","last_reported":1728713504,"current_range_meters":38800,"station_id":"ce4bhb12rcd13ifvqel0","pricing_plan_id":"cebpf4jnsgd1na2vs0mg"},{"bike_id":"465042cc-e51e-479b-ad75-4586c8601d68","system_id":"levelo_inurba_marseille","lat":43.30551,"lon":5.38428,"is_reserved":false,"is_disabled":false,"rental_uris":{"android":"levelo://app?vid=465042cc-e51e-479b-ad75-4586c8601d68","ios":"levelo://app?vid=465042cc-e51e-479b-ad75-4586c8601d68"},"vehicle_type_id":"4","last_reported":1728713504,"current_range_meters":37600,"station_id":"ce4bgg92rcd13ifvqb30","pricing_plan_id":"cebpf4jnsgd1na2vs0mg"},{"bike_id":"51b9555e-9940-483c-a759-ba55ff93d310","system_id":"levelo_inurba_marseille","lat":43.246689,"lon":5.381503,"is_reserved":false,"is_disabled":false,"rental_uris":{"android":"levelo://app?vid=51b9555e-9940-483c-a759-ba55ff93d310","ios":"levelo://app?vid=51b9555e-9940-483c-a759-ba55ff93d310"},"vehicle_type_id":"4","last_reported":1728713504,"current_range_meters":28000,"station_id":"ce4bhih2rcd13ifvqfr0","pricing_plan_id":"cebpf4jnsgd1na2vs0mg"},{"bike_id":"b474cc28-429d-4bf6-a453-cfd8e447da8a","system_id":"levelo_inurba_marseille","lat":43.337296,"lon":5.391801,"is_reserved":false,"is_disabled":false,"rental_uris":{"android":"levelo://app?vid=b474cc28-429d-4bf6-a453-cfd8e447da8a","ios":"levelo://app?vid=b474cc28-429d-4bf6-a453-cfd8e447da8a"},"vehicle_type_id":"4","last_reported":1728713504,"current_range_meters":37600,"station_id":"ce4bhr92rcd13ifvqhsg","pricing_plan_id":"cebpf4jnsgd1na2vs0mg"},{"bike_id":"8a3ea5a6-b0cd-48da-acf8-ccf7be6f48c6","system_id":"levelo_inurba_marseille","lat":43.34225,"lon":5.40084,"is_reserved":false,"is_disabled":false,"rental_uris":{"android":"levelo://app?vid=8a3ea5a6-b0cd-48da-acf8-ccf7be6f48c6","ios":"levelo://app?vid=8a3ea5a6-b0cd-48da-acf8-ccf7be6f48c6"},"vehicle_type_id":"4","last_reported":1728713504,"current_range_meters":8400,"station_id":"","pricing_plan_id":"cebpf4jnsgd1na2vs0mg"},{"bike_id":"4f1ac9db-36fd-4126-b3cc-b859636a6a29","system_id":"levelo_inurba_marseille","lat":43.22929,"lon":5.35377,"is_reserved":false,"is_disabled":false,"rental_uris":{"android":"levelo://app?vid=4f1ac9db-36fd-4126-b3cc-b859636a6a29","ios":"levelo://app?vid=4f1ac9db-36fd-4126-b3cc-b859636a6a29"},"vehicle_type_id":"4","last_reported":1728713504,"current_range_meters":38000,"station_id":"cpo3532slgdg3j2ikp40","pricing_plan_id":"cebpf4jnsgd1na2vs0mg"},{"bike_id":"7e804513-a2d3-4ba9-84eb-75c603aae038","system_id":"levelo_inurba_marseille","lat":43.29047,"lon":5.39961,"is_reserved":false,"is_disabled":false,"rental_uris":{"android":"levelo://app?vid=7e804513-a2d3-4ba9-84eb-75c603aae038","ios":"levelo://app?vid=7e804513-a2d3-4ba9-84eb-75c603aae038"},"vehicle_type_id":"4","last_reported":1728713504,"current_range_meters":33200,"station_id":"ce4bh392rcd13ifvqdm0","pricing_plan_id":"cebpf4jnsgd1na2vs0mg"},{"bike_id":"0f681b24-8152-427a-8add-5021fec4f8a3","system_id":"levelo_inurba_marseille","lat":43.31335,"lon":5.39689,"is_reserved":false,"is_disabled":false,"rental_uris":{"android":"levelo://app?vid=0f681b24-8152-427a-8add-5021fec4f8a3","ios":"levelo://app?vid=0f681b24-8152-427a-8add-5021fec4f8a3"},"vehicle_type_id":"4","last_reported":1728713504,"current_range_meters":28400,"station_id":"ce4bgvp2rcd13ifvqcu0","pricing_plan_id":"cebpf4jnsgd1na2vs0mg"},{"bike_id":"47d6ffc1-0db0-4795-886c-b012c5eac43f","system_id":"levelo_inurba_marseille","lat":43.26949,"lon":5.40245,"is_reserved":false,"is_disabled":false,"rental_uris":{"android":"levelo://app?vid=47d6ffc1-0db0-4795-886c-b012c5eac43f","ios":"levelo://app?vid=47d6ffc1-0db0-4795-886c-b012c5eac43f"},"vehicle_type_id":"4","last_reported":1728713504,"current_range_meters":34800,"station_id":"cjm6bp8fraef2m0cb0m0","pricing_plan_id":"cebpf4jnsgd1na2vs0mg"},{"bike_id":"5600c01e-1e16-4fe6-bf88-d41d79f964a5","system_id":"levelo_inurba_marseille","lat":43.28444,"lon":5.39208,"is_reserved":false,"is_disabled":false,"rental_uris":{"android":"levelo://app?vid=5600c01e-1e16-4fe6-bf88-d41d79f964a5","ios":"levelo://app?vid=5600c01e-1e16-4fe6-bf88-d41d79f964a5"},"vehicle_type_id":"4","last_reported":1728713504,"current_range_meters":8400,"station_id":"ce4bhoh2rcd13ifvqh5g","pricing_plan_id":"cebpf4jnsgd1na2vs0mg"},{"bike_id":"68d41322-5a7f-4a5e-aca0-d8f3c5665fb0","system_id":"levelo_inurba_marseille","lat":43.27627,"lon":5.36114,"is_reserved":false,"is_disabled":false,"rental_uris":{"android":"levelo://app?vid=68d41322-5a7f-4a5e-aca0-d8f3c5665fb0","ios":"levelo://app?vid=68d41322-5a7f-4a5e-aca0-d8f3c5665fb0"},"vehicle_type_id":"4","last_reported":1728713504,"current_range_meters":32000,"station_id":"ce4bgj92rcd13ifvqbe0","pricing_plan_id":"cebpf4jnsgd1na2vs0mg"},{"bike_id":"418eb975-d061-48f2-a056-8c75e497f3ed","system_id":"levelo_inurba_marseille","lat":43.33725,"lon":5.39178,"is_reserved":false,"is_disabled":false,"rental_uris":{"android":"levelo://app?vid=418eb975-d061-48f2-a056-8c75e497f3ed","ios":"levelo://app?vid=418eb975-d061-48f2-a056-8c75e497f3ed"},"vehicle_type_id":"4","last_reported":1728713504,"current_range_meters":38800,"station_id":"ce4bhr92rcd13ifvqhsg","pricing_plan_id":"cebpf4jnsgd1na2vs0mg"},{"bike_id":"d522a82d-5638-4ca1-910b-2d42b991ee72","system_id":"levelo_inurba_marseille","lat":43.3014,"lon":5.37413,"is_reserved":false,"is_disabled":false,"rental_uris":{"android":"levelo://app?vid=d522a82d-5638-4ca1-910b-2d42b991ee72","ios":"levelo://app?vid=d522a82d-5638-4ca1-910b-2d42b991ee72"},"vehicle_type_id":"4","last_reported":1728713504,"current_range_meters":34800,"station_id":"ce4bgs92rcd13ifvqcc0","pricing_plan_id":"cebpf4jnsgd1na2vs0mg"},{"bike_id":"1a266b07-9d56-4a75-8de8-2e3379478f37","system_id":"levelo_inurba_marseille","lat":43.29306,"lon":5.37174,"is_reserved":false,"is_disabled":false,"rental_uris":{"android":"levelo://app?vid=1a266b07-9d56-4a75-8de8-2e3379478f37","ios":"levelo://app?vid=1a266b07-9d56-4a75-8de8-2e3379478f37"},"vehicle_type_id":"4","last_reported":1728713504,"current_range_meters":4800,"station_id":"ce4bgh92rcd13ifvqb40","pricing_plan_id":"cebpf4jnsgd1na2vs0mg"},{"bike_id":"e34acc7c-4576-4996-90bb-c87b63dcf0de","system_id":"levelo_inurba_marseille","lat":43.32339,"lon":5.40626,"is_reserved":false,"is_disabled":false,"rental_uris":{"android":"levelo://app?vid=e34acc7c-4576-4996-90bb-c87b63dcf0de","ios":"levelo://app?vid=e34acc7c-4576-4996-90bb-c87b63dcf0de"},"vehicle_type_id":"4","last_reported":1728713504,"current_range_meters":25600,"station_id":"ce4bhq92rcd13ifvqhjg","pricing_plan_id":"cebpf4jnsgd1na2vs0mg"},{"bike_id":"88716ed6-e48d-4fbc-adb2-afe50ee1043a","system_id":"levelo_inurba_marseille","lat":43.26951,"lon":5.38628,"is_reserved":false,"is_disabled":false,"rental_uris":{"android":"levelo://app?vid=88716ed6-e48d-4fbc-adb2-afe50ee1043a","ios":"levelo://app?vid=88716ed6-e48d-4fbc-adb2-afe50ee1043a"},"vehicle_type_id":"4","last_reported":1728713504,"current_range_meters":35600,"station_id":"ce4bhh92rcd13ifvqfh0","pricing_plan_id":"cebpf4jnsgd1na2vs0mg"},{"bike_id":"239b2d16-d924-4783-b8ce-c19d7d78fab4","system_id":"levelo_inurba_marseille","lat":43.27497,"lon":5.42449,"is_reserved":false,"is_disabled":false,"rental_uris":{"android":"levelo://app?vid=239b2d16-d924-4783-b8ce-c19d7d78fab4","ios":"levelo://app?vid=239b2d16-d924-4783-b8ce-c19d7d78fab4"},"vehicle_type_id":"4","last_reported":1728713504,"current_range_meters":16800,"station_id":"ce4bhn92rcd13ifvqgrg","pricing_plan_id":"cebpf4jnsgd1na2vs0mg"},{"bike_id":"2d913759-fe84-421c-a520-2d58aadf2d85","system_id":"levelo_inurba_marseille","lat":43.29227,"lon":5.3607,"is_reserved":false,"is_disabled":false,"rental_uris":{"android":"levelo://app?vid=2d913759-fe84-421c-a520-2d58aadf2d85","ios":"levelo://app?vid=2d913759-fe84-421c-a520-2d58aadf2d85"},"vehicle_type_id":"4","last_reported":1728713504,"current_range_meters":6000,"station_id":"ce4bhbh2rcd13ifvqeqg","pricing_plan_id":"cebpf4jnsgd1na2vs0mg"},{"bike_id":"42b98502-17ac-4056-a474-7bbc35a3c95e","system_id":"levelo_inurba_marseille","lat":43.310707,"lon":5.383421,"is_reserved":false,"is_disabled":false,"rental_uris":{"android":"levelo://app?vid=42b98502-17ac-4056-a474-7bbc35a3c95e","ios":"levelo://app?vid=42b98502-17ac-4056-a474-7bbc35a3c95e"},"vehicle_type_id":"4","last_reported":1728713504,"current_range_meters":36800,"station_id":"ce4bgv92rcd13ifvqcr0","pricing_plan_id":"cebpf4jnsgd1na2vs0mg"},{"bike_id":"3b17beca-f6bd-4404-ae77-89aed8358e1c","system_id":"levelo_inurba_marseille","lat":43.31286,"lon":5.40161,"is_reserved":false,"is_disabled":false,"rental_uris":{"android":"levelo://app?vid=3b17beca-f6bd-4404-ae77-89aed8358e1c","ios":"levelo://app?vid=3b17beca-f6bd-4404-ae77-89aed8358e1c"},"vehicle_type_id":"4","last_reported":1728713504,"current_range_meters":36800,"station_id":"ce4bh092rcd13ifvqd30","pricing_plan_id":"cebpf4jnsgd1na2vs0mg"},{"bike_id":"acde84b9-95a7-4b94-9ad2-889a14984862","system_id":"levelo_inurba_marseille","lat":43.26949,"lon":5.38637,"is_reserved":false,"is_disabled":false,"rental_uris":{"android":"levelo://app?vid=acde84b9-95a7-4b94-9ad2-889a14984862","ios":"levelo://app?vid=acde84b9-95a7-4b94-9ad2-889a14984862"},"vehicle_type_id":"4","last_reported":1728713504,"current_range_meters":38800,"station_id":"ce4bhh92rcd13ifvqfh0","pricing_plan_id":"cebpf4jnsgd1na2vs0mg"},{"bike_id":"76646f84-b38a-43fe-b1b7-3dadf866e07c","system_id":"levelo_inurba_marseille","lat":43.23183,"lon":5.39983,"is_reserved":false,"is_disabled":false,"rental_uris":{"android":"levelo://app?vid=76646f84-b38a-43fe-b1b7-3dadf866e07c","ios":"levelo://app?vid=76646f84-b38a-43fe-b1b7-3dadf866e07c"},"vehicle_type_id":"4","last_reported":1728713504,"current_range_meters":30800,"station_id":"ce4bhn12rcd13ifvqgqg","pricing_plan_id":"cebpf4jnsgd1na2vs0mg"},{"bike_id":"e9385f69-d5bb-4855-8038-e8e71176d4ef","system_id":"levelo_inurba_marseille","lat":43.27941,"lon":5.41045,"is_reserved":false,"is_disabled":false,"rental_uris":{"android":"levelo://app?vid=e9385f69-d5bb-4855-8038-e8e71176d4ef","ios":"levelo://app?vid=e9385f69-d5bb-4855-8038-e8e71176d4ef"},"vehicle_type_id":"4","last_reported":1728713504,"current_range_meters":24400,"station_id":"ce4bhnp2rcd13ifvqh0g","pricing_plan_id":"cebpf4jnsgd1na2vs0mg"},{"bike_id":"631afeb3-ff24-4869-b570-0bf0c9ce47b0","system_id":"levelo_inurba_marseille","lat":43.32022,"lon":5.38636,"is_reserved":false,"is_disabled":false,"rental_uris":{"android":"levelo://app?vid=631afeb3-ff24-4869-b570-0bf0c9ce47b0","ios":"levelo://app?vid=631afeb3-ff24-4869-b570-0bf0c9ce47b0"},"vehicle_type_id":"4","last_reported":1728713504,"current_range_meters":19600,"station_id":"","pricing_plan_id":"cebpf4jnsgd1na2vs0mg"},{"bike_id":"a343ef2a-9dab-4dfa-aae7-81033db70aac","system_id":"levelo_inurba_marseille","lat":43.23187,"lon":5.39968,"is_reserved":false,"is_disabled":false,"rental_uris":{"android":"levelo://app?vid=a343ef2a-9dab-4dfa-aae7-81033db70aac","ios":"levelo://app?vid=a343ef2a-9dab-4dfa-aae7-81033db70aac"},"vehicle_type_id":"4","last_reported":1728713504,"current_range_meters":16800,"station_id":"ce4bhn12rcd13ifvqgqg","pricing_plan_id":"cebpf4jnsgd1na2vs0mg"},{"bike_id":"6ecf43cd-4bb1-441e-8899-174d35efbd0b","system_id":"levelo_inurba_marseille","lat":43.27917,"lon":5.39582,"is_reserved":false,"is_disabled":false,"rental_uris":{"android":"levelo://app?vid=6ecf43cd-4bb1-441e-8899-174d35efbd0b","ios":"levelo://app?vid=6ecf43cd-4bb1-441e-8899-174d35efbd0b"},"vehicle_type_id":"4","last_reported":1728713504,"current_range_meters":15200,"station_id":"ce4bhf92rcd13ifvqf40","pricing_plan_id":"cebpf4jnsgd1na2vs0mg"},{"bike_id":"946485a9-4277-4957-8546-1df937d706d7","system_id":"levelo_inurba_marseille","lat":43.30655,"lon":5.40078,"is_reserved":false,"is_disabled":false,"rental_uris":{"android":"levelo://app?vid=946485a9-4277-4957-8546-1df937d706d7","ios":"levelo://app?vid=946485a9-4277-4957-8546-1df937d706d7"},"vehicle_type_id":"4","last_reported":1728713504,"current_range_meters":32800,"station_id":"ce4bh112rcd13ifvqda0","pricing_plan_id":"cebpf4jnsgd1na2vs0mg"},{"bike_id":"4ae873b4-083d-4804-8059-f44b65811c68","system_id":"levelo_inurba_marseille","lat":43.31282,"lon":5.40164,"is_reserved":false,"is_disabled":false,"rental_uris":{"android":"levelo://app?vid=4ae873b4-083d-4804-8059-f44b65811c68","ios":"levelo://app?vid=4ae873b4-083d-4804-8059-f44b65811c68"},"vehicle_type_id":"4","last_reported":1728713504,"current_range_meters":8000,"station_id":"ce4bh092rcd13ifvqd30","pricing_plan_id":"cebpf4jnsgd1na2vs0mg"},{"bike_id":"225e01b2-3d0a-4d0b-944d-209bc854728c","system_id":"levelo_inurba_marseille","lat":43.29164,"lon":5.37157,"is_reserved":false,"is_disabled":false,"rental_uris":{"android":"levelo://app?vid=225e01b2-3d0a-4d0b-944d-209bc854728c","ios":"levelo://app?vid=225e01b2-3d0a-4d0b-944d-209bc854728c"},"vehicle_type_id":"4","last_reported":1728713504,"current_range_meters":37600,"station_id":"ce4bha92rcd13ifvqeh0","pricing_plan_id":"cebpf4jnsgd1na2vs0mg"},{"bike_id":"064b6e67-aa01-4c68-81ea-1fecbd187ab2","system_id":"levelo_inurba_marseille","lat":43.31076,"lon":5.38341,"is_reserved":false,"is_disabled":false,"rental_uris":{"android":"levelo://app?vid=064b6e67-aa01-4c68-81ea-1fecbd187ab2","ios":"levelo://app?vid=064b6e67-aa01-4c68-81ea-1fecbd187ab2"},"vehicle_type_id":"4","last_reported":1728713504,"current_range_meters":30800,"station_id":"ce4bgv92rcd13ifvqcr0","pricing_plan_id":"cebpf4jnsgd1na2vs0mg"},{"bike_id":"36565d48-4bec-48af-a8ce-cbd32f1a85a2","system_id":"levelo_inurba_marseille","lat":43.24804,"lon":5.37456,"is_reserved":false,"is_disabled":false,"rental_uris":{"android":"levelo://app?vid=36565d48-4bec-48af-a8ce-cbd32f1a85a2","ios":"levelo://app?vid=36565d48-4bec-48af-a8ce-cbd32f1a85a2"},"vehicle_type_id":"4","last_reported":1728713504,"current_range_meters":20000,"station_id":"ce4bhgh2rcd13ifvqfb0","pricing_plan_id":"cebpf4jnsgd1na2vs0mg"},{"bike_id":"91aa0f0e-f007-4bc8-8e7f-28c28d61940c","system_id":"levelo_inurba_marseille","lat":43.31088,"lon":5.38328,"is_reserved":false,"is_disabled":false,"rental_uris":{"android":"levelo://app?vid=91aa0f0e-f007-4bc8-8e7f-28c28d61940c","ios":"levelo://app?vid=91aa0f0e-f007-4bc8-8e7f-28c28d61940c"},"vehicle_type_id":"4","last_reported":1728713504,"current_range_meters":38400,"station_id":"ce4bgv92rcd13ifvqcr0","pricing_plan_id":"cebpf4jnsgd1na2vs0mg"},{"bike_id":"ee07c02b-d551-4d47-b823-c2e7ac073308","system_id":"levelo_inurba_marseille","lat":43.28358,"lon":5.38112,"is_reserved":false,"is_disabled":false,"rental_uris":{"android":"levelo://app?vid=ee07c02b-d551-4d47-b823-c2e7ac073308","ios":"levelo://app?vid=ee07c02b-d551-4d47-b823-c2e7ac073308"},"vehicle_type_id":"4","last_reported":1728713504,"current_range_meters":32800,"station_id":"ce4bh412rcd13ifvqdr0","pricing_plan_id":"cebpf4jnsgd1na2vs0mg"},{"bike_id":"791d34e4-5f14-4623-8885-7b697689fb2a","system_id":"levelo_inurba_marseille","lat":43.29258,"lon":5.40907,"is_reserved":false,"is_disabled":false,"rental_uris":{"android":"levelo://app?vid=791d34e4-5f14-4623-8885-7b697689fb2a","ios":"levelo://app?vid=791d34e4-5f14-4623-8885-7b697689fb2a"},"vehicle_type_id":"4","last_reported":1728713504,"current_range_meters":8400,"station_id":"ce4bh192rcd13ifvqdc0","pricing_plan_id":"cebpf4jnsgd1na2vs0mg"},{"bike_id":"11d06557-a0b1-4796-bfb4-4e8fa2013d2e","system_id":"levelo_inurba_marseille","lat":43.28039,"lon":5.36949,"is_reserved":false,"is_disabled":false,"rental_uris":{"android":"levelo://app?vid=11d06557-a0b1-4796-bfb4-4e8fa2013d2e","ios":"levelo://app?vid=11d06557-a0b1-4796-bfb4-4e8fa2013d2e"},"vehicle_type_id":"4","last_reported":1728713504,"current_range_meters":6400,"station_id":"ce4bha12rcd13ifvqef0","pricing_plan_id":"cebpf4jnsgd1na2vs0mg"},{"bike_id":"293443a5-ce09-4190-b244-f581c225f846","system_id":"levelo_inurba_marseille","lat":43.27918,"lon":5.38006,"is_reserved":false,"is_disabled":false,"rental_uris":{"android":"levelo://app?vid=293443a5-ce09-4190-b244-f581c225f846","ios":"levelo://app?vid=293443a5-ce09-4190-b244-f581c225f846"},"vehicle_type_id":"4","last_reported":1728713504,"current_range_meters":38400,"station_id":"ce4bhf92rcd13ifvqf50","pricing_plan_id":"cebpf4jnsgd1na2vs0mg"},{"bike_id":"86851483-6460-4f2a-8d92-b3b47e5c55aa","system_id":"levelo_inurba_marseille","lat":43.2396,"lon":5.36632,"is_reserved":false,"is_disabled":false,"rental_uris":{"android":"levelo://app?vid=86851483-6460-4f2a-8d92-b3b47e5c55aa","ios":"levelo://app?vid=86851483-6460-4f2a-8d92-b3b47e5c55aa"},"vehicle_type_id":"4","last_reported":1728713504,"current_range_meters":38800,"station_id":"ce4bhi12rcd13ifvqfp0","pricing_plan_id":"cebpf4jnsgd1na2vs0mg"},{"bike_id":"a4e81d89-063a-43eb-a55f-1719e1ac79ed","system_id":"levelo_inurba_marseille","lat":43.2721,"lon":5.3918,"is_reserved":false,"is_disabled":false,"rental_uris":{"android":"levelo://app?vid=a4e81d89-063a-43eb-a55f-1719e1ac79ed","ios":"levelo://app?vid=a4e81d89-063a-43eb-a55f-1719e1ac79ed"},"vehicle_type_id":"4","last_reported":1728713504,"current_range_meters":39200,"station_id":"ce4bhhp2rcd13ifvqfm0","pricing_plan_id":"cebpf4jnsgd1na2vs0mg"},{"bike_id":"f9e8aa60-08ba-42a6-a193-9374a16d5579","system_id":"levelo_inurba_marseille","lat":43.29894,"lon":5.43663,"is_reserved":false,"is_disabled":false,"rental_uris":{"android":"levelo://app?vid=f9e8aa60-08ba-42a6-a193-9374a16d5579","ios":"levelo://app?vid=f9e8aa60-08ba-42a6-a193-9374a16d5579"},"vehicle_type_id":"4","last_reported":1728713504,"current_range_meters":38000,"station_id":"ce4bhpp2rcd13ifvqhfg","pricing_plan_id":"cebpf4jnsgd1na2vs0mg"},{"bike_id":"c279047e-1d70-4dd1-b2ee-b3555d0fddbe","system_id":"levelo_inurba_marseille","lat":43.3361,"lon":5.41028,"is_reserved":false,"is_disabled":false,"rental_uris":{"android":"levelo://app?vid=c279047e-1d70-4dd1-b2ee-b3555d0fddbe","ios":"levelo://app?vid=c279047e-1d70-4dd1-b2ee-b3555d0fddbe"},"vehicle_type_id":"4","last_reported":1728713504,"current_range_meters":11200,"station_id":"ce4bhqh2rcd13ifvqhmg","pricing_plan_id":"cebpf4jnsgd1na2vs0mg"},{"bike_id":"cee78d86-4025-4487-bfad-e8ac45825165","system_id":"levelo_inurba_marseille","lat":43.30493,"lon":5.36725,"is_reserved":false,"is_disabled":false,"rental_uris":{"android":"levelo://app?vid=cee78d86-4025-4487-bfad-e8ac45825165","ios":"levelo://app?vid=cee78d86-4025-4487-bfad-e8ac45825165"},"vehicle_type_id":"4","last_reported":1728713504,"current_range_meters":37600,"station_id":"ce4bgrp2rcd13ifvqc9g","pricing_plan_id":"cebpf4jnsgd1na2vs0mg"},{"bike_id":"18e50b7c-f98f-46f1-90ae-1ebf8e17e6aa","system_id":"levelo_inurba_marseille","lat":43.27182,"lon":5.40984,"is_reserved":false,"is_disabled":false,"rental_uris":{"android":"levelo://app?vid=18e50b7c-f98f-46f1-90ae-1ebf8e17e6aa","ios":"levelo://app?vid=18e50b7c-f98f-46f1-90ae-1ebf8e17e6aa"},"vehicle_type_id":"4","last_reported":1728713504,"current_range_meters":27200,"station_id":"ce4bhl12rcd13ifvqgf0","pricing_plan_id":"cebpf4jnsgd1na2vs0mg"},{"bike_id":"120ce475-86ea-4767-8511-a96473d1462c","system_id":"levelo_inurba_marseille","lat":43.31068,"lon":5.38337,"is_reserved":false,"is_disabled":false,"rental_uris":{"android":"levelo://app?vid=120ce475-86ea-4767-8511-a96473d1462c","ios":"levelo://app?vid=120ce475-86ea-4767-8511-a96473d1462c"},"vehicle_type_id":"4","last_reported":1728713504,"current_range_meters":22800,"station_id":"ce4bgv92rcd13ifvqcr0","pricing_plan_id":"cebpf4jnsgd1na2vs0mg"},{"bike_id":"93cf6e6a-b59b-4d63-9a00-c25bf3ea1f05","system_id":"levelo_inurba_marseille","lat":43.298975,"lon":5.436665,"is_reserved":false,"is_disabled":false,"rental_uris":{"android":"levelo://app?vid=93cf6e6a-b59b-4d63-9a00-c25bf3ea1f05","ios":"levelo://app?vid=93cf6e6a-b59b-4d63-9a00-c25bf3ea1f05"},"vehicle_type_id":"4","last_reported":1728713504,"current_range_meters":38800,"station_id":"ce4bhpp2rcd13ifvqhfg","pricing_plan_id":"cebpf4jnsgd1na2vs0mg"},{"bike_id":"e3de75fa-eb08-4bef-a680-231d1c38a9eb","system_id":"levelo_inurba_marseille","lat":43.33723,"lon":5.39174,"is_reserved":false,"is_disabled":false,"rental_uris":{"android":"levelo://app?vid=e3de75fa-eb08-4bef-a680-231d1c38a9eb","ios":"levelo://app?vid=e3de75fa-eb08-4bef-a680-231d1c38a9eb"},"vehicle_type_id":"4","last_reported":1728713504,"current_range_meters":27600,"station_id":"ce4bhr92rcd13ifvqhsg","pricing_plan_id":"cebpf4jnsgd1na2vs0mg"},{"bike_id":"76f1ad97-08ac-481e-8b74-6cf8ab3c95f2","system_id":"levelo_inurba_marseille","lat":43.29591,"lon":5.38105,"is_reserved":false,"is_disabled":false,"rental_uris":{"android":"levelo://app?vid=76f1ad97-08ac-481e-8b74-6cf8ab3c95f2","ios":"levelo://app?vid=76f1ad97-08ac-481e-8b74-6cf8ab3c95f2"},"vehicle_type_id":"4","last_reported":1728713504,"current_range_meters":38800,"station_id":"ce4bgl12rcd13ifvqbo0","pricing_plan_id":"cebpf4jnsgd1na2vs0mg"},{"bike_id":"c43b90fe-b1cf-4e98-956f-85ab60fd1421","system_id":"levelo_inurba_marseille","lat":43.24649,"lon":5.38895,"is_reserved":false,"is_disabled":false,"rental_uris":{"android":"levelo://app?vid=c43b90fe-b1cf-4e98-956f-85ab60fd1421","ios":"levelo://app?vid=c43b90fe-b1cf-4e98-956f-85ab60fd1421"},"vehicle_type_id":"4","last_reported":1728713504,"current_range_meters":17600,"station_id":"ce4bhg12rcd13ifvqf60","pricing_plan_id":"cebpf4jnsgd1na2vs0mg"},{"bike_id":"b27220ce-643c-4cda-b1cf-ddebfd37a8aa","system_id":"levelo_inurba_marseille","lat":43.23189,"lon":5.39981,"is_reserved":false,"is_disabled":false,"rental_uris":{"android":"levelo://app?vid=b27220ce-643c-4cda-b1cf-ddebfd37a8aa","ios":"levelo://app?vid=b27220ce-643c-4cda-b1cf-ddebfd37a8aa"},"vehicle_type_id":"4","last_reported":1728713504,"current_range_meters":38800,"station_id":"ce4bhn12rcd13ifvqgqg","pricing_plan_id":"cebpf4jnsgd1na2vs0mg"},{"bike_id":"3392ebf7-bca0-4284-9786-c6359ba370d8","system_id":"levelo_inurba_marseille","lat":43.27834,"lon":5.39219,"is_reserved":false,"is_disabled":false,"rental_uris":{"android":"levelo://app?vid=3392ebf7-bca0-4284-9786-c6359ba370d8","ios":"levelo://app?vid=3392ebf7-bca0-4284-9786-c6359ba370d8"},"vehicle_type_id":"4","last_reported":1728713504,"current_range_meters":3200,"station_id":"ce4bhjp2rcd13ifvqga0","pricing_plan_id":"cebpf4jnsgd1na2vs0mg"},{"bike_id":"7c1d3079-9a7b-4fd7-bdd4-19234fa9e900","system_id":"levelo_inurba_marseille","lat":43.28569,"lon":5.39506,"is_reserved":false,"is_disabled":false,"rental_uris":{"android":"levelo://app?vid=7c1d3079-9a7b-4fd7-bdd4-19234fa9e900","ios":"levelo://app?vid=7c1d3079-9a7b-4fd7-bdd4-19234fa9e900"},"vehicle_type_id":"4","last_reported":1728713504,"current_range_meters":36400,"station_id":"ce4bh292rcd13ifvqdg0","pricing_plan_id":"cebpf4jnsgd1na2vs0mg"},{"bike_id":"6b32da0f-8535-41b1-98ae-900e0f6f1d04","system_id":"levelo_inurba_marseille","lat":43.30426,"lon":5.41277,"is_reserved":false,"is_disabled":false,"rental_uris":{"android":"levelo://app?vid=6b32da0f-8535-41b1-98ae-900e0f6f1d04","ios":"levelo://app?vid=6b32da0f-8535-41b1-98ae-900e0f6f1d04"},"vehicle_type_id":"4","last_reported":1728713504,"current_range_meters":38400,"station_id":"ce4bhop2rcd13ifvqh8g","pricing_plan_id":"cebpf4jnsgd1na2vs0mg"},{"bike_id":"ad8a9ef2-f42d-4e1d-8d36-d245a4d6ecfd","system_id":"levelo_inurba_marseille","lat":43.23192,"lon":5.39981,"is_reserved":false,"is_disabled":false,"rental_uris":{"android":"levelo://app?vid=ad8a9ef2-f42d-4e1d-8d36-d245a4d6ecfd","ios":"levelo://app?vid=ad8a9ef2-f42d-4e1d-8d36-d245a4d6ecfd"},"vehicle_type_id":"4","last_reported":1728713504,"current_range_meters":19200,"station_id":"ce4bhn12rcd13ifvqgqg","pricing_plan_id":"cebpf4jnsgd1na2vs0mg"},{"bike_id":"5d12f613-66aa-4e6d-a242-23c3ec514eec","system_id":"levelo_inurba_marseille","lat":43.29606,"lon":5.38114,"is_reserved":false,"is_disabled":false,"rental_uris":{"android":"levelo://app?vid=5d12f613-66aa-4e6d-a242-23c3ec514eec","ios":"levelo://app?vid=5d12f613-66aa-4e6d-a242-23c3ec514eec"},"vehicle_type_id":"4","last_reported":1728713504,"current_range_meters":24000,"station_id":"ce4bgl12rcd13ifvqbo0","pricing_plan_id":"cebpf4jnsgd1na2vs0mg"},{"bike_id":"aed2777a-4f8a-4d24-802a-93026f052e7d","system_id":"levelo_inurba_marseille","lat":43.25571,"lon":5.38227,"is_reserved":false,"is_disabled":false,"rental_uris":{"android":"levelo://app?vid=aed2777a-4f8a-4d24-802a-93026f052e7d","ios":"levelo://app?vid=aed2777a-4f8a-4d24-802a-93026f052e7d"},"vehicle_type_id":"4","last_reported":1728713504,"current_range_meters":30400,"station_id":"ce4bhih2rcd13ifvqfs0","pricing_plan_id":"cebpf4jnsgd1na2vs0mg"},{"bike_id":"848ffe43-e8c1-4910-85fa-52acbe69956f","system_id":"levelo_inurba_marseille","lat":43.28403,"lon":5.37512,"is_reserved":false,"is_disabled":false,"rental_uris":{"android":"levelo://app?vid=848ffe43-e8c1-4910-85fa-52acbe69956f","ios":"levelo://app?vid=848ffe43-e8c1-4910-85fa-52acbe69956f"},"vehicle_type_id":"4","last_reported":1728713504,"current_range_meters":39200,"station_id":"ce4bh412rcd13ifvqds0","pricing_plan_id":"cebpf4jnsgd1na2vs0mg"},{"bike_id":"c2709d8c-182c-4c66-9678-32143d413767","system_id":"levelo_inurba_marseille","lat":43.22934,"lon":5.35381,"is_reserved":false,"is_disabled":false,"rental_uris":{"android":"levelo://app?vid=c2709d8c-182c-4c66-9678-32143d413767","ios":"levelo://app?vid=c2709d8c-182c-4c66-9678-32143d413767"},"vehicle_type_id":"4","last_reported":1728713504,"current_range_meters":27600,"station_id":"cpo3532slgdg3j2ikp40","pricing_plan_id":"cebpf4jnsgd1na2vs0mg"},{"bike_id":"57213862-b739-4110-bda6-17d1437662ee","system_id":"levelo_inurba_marseille","lat":43.30159,"lon":5.38094,"is_reserved":false,"is_disabled":false,"rental_uris":{"android":"levelo://app?vid=57213862-b739-4110-bda6-17d1437662ee","ios":"levelo://app?vid=57213862-b739-4110-bda6-17d1437662ee"},"vehicle_type_id":"4","last_reported":1728713504,"current_range_meters":9600,"station_id":"ce4bgjp2rcd13ifvqbh0","pricing_plan_id":"cebpf4jnsgd1na2vs0mg"},{"bike_id":"7405a26a-be8e-404b-a2db-8d22e866b8a4","system_id":"levelo_inurba_marseille","lat":43.2835,"lon":5.38109,"is_reserved":false,"is_disabled":false,"rental_uris":{"android":"levelo://app?vid=7405a26a-be8e-404b-a2db-8d22e866b8a4","ios":"levelo://app?vid=7405a26a-be8e-404b-a2db-8d22e866b8a4"},"vehicle_type_id":"4","last_reported":1728713504,"current_range_meters":38800,"station_id":"ce4bh412rcd13ifvqdr0","pricing_plan_id":"cebpf4jnsgd1na2vs0mg"},{"bike_id":"76f36b61-2fe4-4f45-a4f4-68ffbfbfbb32","system_id":"levelo_inurba_marseille","lat":43.30952,"lon":5.39039,"is_reserved":false,"is_disabled":false,"rental_uris":{"android":"levelo://app?vid=76f36b61-2fe4-4f45-a4f4-68ffbfbfbb32","ios":"levelo://app?vid=76f36b61-2fe4-4f45-a4f4-68ffbfbfbb32"},"vehicle_type_id":"4","last_reported":1728713504,"current_range_meters":6800,"station_id":"ce4bgup2rcd13ifvqco0","pricing_plan_id":"cebpf4jnsgd1na2vs0mg"},{"bike_id":"01df8aca-1142-4d99-9d88-605c9ee1e899","system_id":"levelo_inurba_marseille","lat":43.30784,"lon":5.37637,"is_reserved":false,"is_disabled":false,"rental_uris":{"android":"levelo://app?vid=01df8aca-1142-4d99-9d88-605c9ee1e899","ios":"levelo://app?vid=01df8aca-1142-4d99-9d88-605c9ee1e899"},"vehicle_type_id":"4","last_reported":1728713504,"current_range_meters":34800,"station_id":"ce4bgv92rcd13ifvqcq0","pricing_plan_id":"cebpf4jnsgd1na2vs0mg"},{"bike_id":"cada2e3e-fa68-42f7-87ce-cc501f3a6b61","system_id":"levelo_inurba_marseille","lat":43.336107,"lon":5.410235,"is_reserved":false,"is_disabled":false,"rental_uris":{"android":"levelo://app?vid=cada2e3e-fa68-42f7-87ce-cc501f3a6b61","ios":"levelo://app?vid=cada2e3e-fa68-42f7-87ce-cc501f3a6b61"},"vehicle_type_id":"4","last_reported":1728713504,"current_range_meters":23200,"station_id":"ce4bhqh2rcd13ifvqhmg","pricing_plan_id":"cebpf4jnsgd1na2vs0mg"},{"bike_id":"2c07c0ad-e597-45f6-8bf8-0bd88a56ad5b","system_id":"levelo_inurba_marseille","lat":43.27131,"lon":5.38586,"is_reserved":false,"is_disabled":false,"rental_uris":{"android":"levelo://app?vid=2c07c0ad-e597-45f6-8bf8-0bd88a56ad5b","ios":"levelo://app?vid=2c07c0ad-e597-45f6-8bf8-0bd88a56ad5b"},"vehicle_type_id":"4","last_reported":1728713504,"current_range_meters":28800,"station_id":"ce4bhh92rcd13ifvqfh0","pricing_plan_id":"cebpf4jnsgd1na2vs0mg"},{"bike_id":"68bde495-88e9-4cfb-ada1-b35ecbd2d941","system_id":"levelo_inurba_marseille","lat":43.33024,"lon":5.39043,"is_reserved":false,"is_disabled":false,"rental_uris":{"android":"levelo://app?vid=68bde495-88e9-4cfb-ada1-b35ecbd2d941","ios":"levelo://app?vid=68bde495-88e9-4cfb-ada1-b35ecbd2d941"},"vehicle_type_id":"4","last_reported":1728713504,"current_range_meters":28800,"station_id":"ce4bhr92rcd13ifvqhrg","pricing_plan_id":"cebpf4jnsgd1na2vs0mg"},{"bike_id":"b5ebf581-ee83-4793-bd67-976719116a5b","system_id":"levelo_inurba_marseille","lat":43.26776,"lon":5.39425,"is_reserved":false,"is_disabled":false,"rental_uris":{"android":"levelo://app?vid=b5ebf581-ee83-4793-bd67-976719116a5b","ios":"levelo://app?vid=b5ebf581-ee83-4793-bd67-976719116a5b"},"vehicle_type_id":"4","last_reported":1728713504,"current_range_meters":18000,"station_id":"ce4bhh12rcd13ifvqfg0","pricing_plan_id":"cebpf4jnsgd1na2vs0mg"},{"bike_id":"ddab0e12-ba97-4e06-86f6-0b889c402408","system_id":"levelo_inurba_marseille","lat":43.32363,"lon":5.38885,"is_reserved":false,"is_disabled":false,"rental_uris":{"android":"levelo://app?vid=ddab0e12-ba97-4e06-86f6-0b889c402408","ios":"levelo://app?vid=ddab0e12-ba97-4e06-86f6-0b889c402408"},"vehicle_type_id":"4","last_reported":1728713504,"current_range_meters":38800,"station_id":"ce4bhqp2rcd13ifvqhog","pricing_plan_id":"cebpf4jnsgd1na2vs0mg"},{"bike_id":"8e239f3d-cff5-4a84-a158-f79f300861fd","system_id":"levelo_inurba_marseille","lat":43.25858,"lon":5.39901,"is_reserved":false,"is_disabled":false,"rental_uris":{"android":"levelo://app?vid=8e239f3d-cff5-4a84-a158-f79f300861fd","ios":"levelo://app?vid=8e239f3d-cff5-4a84-a158-f79f300861fd"},"vehicle_type_id":"4","last_reported":1728713504,"current_range_meters":26800,"station_id":"ce4bhl92rcd13ifvqghg","pricing_plan_id":"cebpf4jnsgd1na2vs0mg"},{"bike_id":"48389cc3-4996-4f77-b7c8-1ed9ee8e4abd","system_id":"levelo_inurba_marseille","lat":43.27315,"lon":5.39073,"is_reserved":false,"is_disabled":false,"rental_uris":{"android":"levelo://app?vid=48389cc3-4996-4f77-b7c8-1ed9ee8e4abd","ios":"levelo://app?vid=48389cc3-4996-4f77-b7c8-1ed9ee8e4abd"},"vehicle_type_id":"4","last_reported":1728713504,"current_range_meters":35200,"station_id":"ce4bhgp2rcd13ifvqfe0","pricing_plan_id":"cebpf4jnsgd1na2vs0mg"},{"bike_id":"9ec6e1e0-7b84-4fd6-9453-00710f7a41d1","system_id":"levelo_inurba_marseille","lat":43.32545,"lon":5.41445,"is_reserved":false,"is_disabled":false,"rental_uris":{"android":"levelo://app?vid=9ec6e1e0-7b84-4fd6-9453-00710f7a41d1","ios":"levelo://app?vid=9ec6e1e0-7b84-4fd6-9453-00710f7a41d1"},"vehicle_type_id":"4","last_reported":1728713504,"current_range_meters":38800,"station_id":"ce4bhq12rcd13ifvqhhg","pricing_plan_id":"cebpf4jnsgd1na2vs0mg"},{"bike_id":"fe499ee7-6375-4ecd-b57e-a932fe0f65cf","system_id":"levelo_inurba_marseille","lat":43.33724,"lon":5.39182,"is_reserved":false,"is_disabled":false,"rental_uris":{"android":"levelo://app?vid=fe499ee7-6375-4ecd-b57e-a932fe0f65cf","ios":"levelo://app?vid=fe499ee7-6375-4ecd-b57e-a932fe0f65cf"},"vehicle_type_id":"4","last_reported":1728713504,"current_range_meters":9600,"station_id":"ce4bhr92rcd13ifvqhsg","pricing_plan_id":"cebpf4jnsgd1na2vs0mg"},{"bike_id":"fbffa957-ac49-4590-b223-7d57f26e111b","system_id":"levelo_inurba_marseille","lat":43.32264,"lon":5.38269,"is_reserved":false,"is_disabled":false,"rental_uris":{"android":"levelo://app?vid=fbffa957-ac49-4590-b223-7d57f26e111b","ios":"levelo://app?vid=fbffa957-ac49-4590-b223-7d57f26e111b"},"vehicle_type_id":"4","last_reported":1728713504,"current_range_meters":30000,"station_id":"ce4bhr12rcd13ifvqhqg","pricing_plan_id":"cebpf4jnsgd1na2vs0mg"},{"bike_id":"c3da83c3-6f43-4efe-83cd-566b56e8f03e","system_id":"levelo_inurba_marseille","lat":43.29274,"lon":5.38436,"is_reserved":false,"is_disabled":false,"rental_uris":{"android":"levelo://app?vid=c3da83c3-6f43-4efe-83cd-566b56e8f03e","ios":"levelo://app?vid=c3da83c3-6f43-4efe-83cd-566b56e8f03e"},"vehicle_type_id":"4","last_reported":1728713504,"current_range_meters":38000,"station_id":"ce4bh692rcd13ifvqea0","pricing_plan_id":"cebpf4jnsgd1na2vs0mg"},{"bike_id":"e8134384-9f2e-430f-8d41-28d909a67feb","system_id":"levelo_inurba_marseille","lat":43.3066,"lon":5.40082,"is_reserved":false,"is_disabled":false,"rental_uris":{"android":"levelo://app?vid=e8134384-9f2e-430f-8d41-28d909a67feb","ios":"levelo://app?vid=e8134384-9f2e-430f-8d41-28d909a67feb"},"vehicle_type_id":"4","last_reported":1728713504,"current_range_meters":38800,"station_id":"ce4bh112rcd13ifvqda0","pricing_plan_id":"cebpf4jnsgd1na2vs0mg"},{"bike_id":"3bd6033b-b9e1-4e43-9cda-44c3e3f9f5ad","system_id":"levelo_inurba_marseille","lat":43.32332,"lon":5.40625,"is_reserved":false,"is_disabled":false,"rental_uris":{"android":"levelo://app?vid=3bd6033b-b9e1-4e43-9cda-44c3e3f9f5ad","ios":"levelo://app?vid=3bd6033b-b9e1-4e43-9cda-44c3e3f9f5ad"},"vehicle_type_id":"4","last_reported":1728713504,"current_range_meters":22800,"station_id":"ce4bhq92rcd13ifvqhjg","pricing_plan_id":"cebpf4jnsgd1na2vs0mg"},{"bike_id":"04f2c4d7-68a8-42e0-a16b-4d065732130a","system_id":"levelo_inurba_marseille","lat":43.3107,"lon":5.38343,"is_reserved":false,"is_disabled":false,"rental_uris":{"android":"levelo://app?vid=04f2c4d7-68a8-42e0-a16b-4d065732130a","ios":"levelo://app?vid=04f2c4d7-68a8-42e0-a16b-4d065732130a"},"vehicle_type_id":"4","last_reported":1728713504,"current_range_meters":8000,"station_id":"ce4bgv92rcd13ifvqcr0","pricing_plan_id":"cebpf4jnsgd1na2vs0mg"},{"bike_id":"983318bf-7bf9-4b17-845c-d97a43296f64","system_id":"levelo_inurba_marseille","lat":43.29021,"lon":5.38648,"is_reserved":false,"is_disabled":false,"rental_uris":{"android":"levelo://app?vid=983318bf-7bf9-4b17-845c-d97a43296f64","ios":"levelo://app?vid=983318bf-7bf9-4b17-845c-d97a43296f64"},"vehicle_type_id":"4","last_reported":1728713504,"current_range_meters":28000,"station_id":"ce4bh4p2rcd13ifvqe0g","pricing_plan_id":"cebpf4jnsgd1na2vs0mg"},{"bike_id":"de35409b-1483-4e14-bbeb-20fe0c2d4117","system_id":"levelo_inurba_marseille","lat":43.25718,"lon":5.41105,"is_reserved":false,"is_disabled":false,"rental_uris":{"android":"levelo://app?vid=de35409b-1483-4e14-bbeb-20fe0c2d4117","ios":"levelo://app?vid=de35409b-1483-4e14-bbeb-20fe0c2d4117"},"vehicle_type_id":"4","last_reported":1728713504,"current_range_meters":37600,"station_id":"ce4bhkp2rcd13ifvqgd0","pricing_plan_id":"cebpf4jnsgd1na2vs0mg"},{"bike_id":"ad9508a3-6339-4b15-ad7f-7867f29affe1","system_id":"levelo_inurba_marseille","lat":43.23968,"lon":5.36629,"is_reserved":false,"is_disabled":false,"rental_uris":{"android":"levelo://app?vid=ad9508a3-6339-4b15-ad7f-7867f29affe1","ios":"levelo://app?vid=ad9508a3-6339-4b15-ad7f-7867f29affe1"},"vehicle_type_id":"4","last_reported":1728713504,"current_range_meters":30800,"station_id":"ce4bhi12rcd13ifvqfp0","pricing_plan_id":"cebpf4jnsgd1na2vs0mg"},{"bike_id":"62625ea1-3929-430a-afec-c3646cd56051","system_id":"levelo_inurba_marseille","lat":43.290461,"lon":5.359326,"is_reserved":false,"is_disabled":false,"rental_uris":{"android":"levelo://app?vid=62625ea1-3929-430a-afec-c3646cd56051","ios":"levelo://app?vid=62625ea1-3929-430a-afec-c3646cd56051"},"vehicle_type_id":"4","last_reported":1728713504,"current_range_meters":38400,"station_id":"ce4bha92rcd13ifvqeg0","pricing_plan_id":"cebpf4jnsgd1na2vs0mg"},{"bike_id":"5eda1e4e-8f05-4c52-a6c4-e3483e007081","system_id":"levelo_inurba_marseille","lat":43.30922,"lon":5.4014,"is_reserved":false,"is_disabled":false,"rental_uris":{"android":"levelo://app?vid=5eda1e4e-8f05-4c52-a6c4-e3483e007081","ios":"levelo://app?vid=5eda1e4e-8f05-4c52-a6c4-e3483e007081"},"vehicle_type_id":"4","last_reported":1728713504,"current_range_meters":36400,"station_id":"ce4bgvp2rcd13ifvqct0","pricing_plan_id":"cebpf4jnsgd1na2vs0mg"},{"bike_id":"b1f337f6-46e6-469d-bc5f-2ee64924c64c","system_id":"levelo_inurba_marseille","lat":43.24665,"lon":5.38165,"is_reserved":false,"is_disabled":false,"rental_uris":{"android":"levelo://app?vid=b1f337f6-46e6-469d-bc5f-2ee64924c64c","ios":"levelo://app?vid=b1f337f6-46e6-469d-bc5f-2ee64924c64c"},"vehicle_type_id":"4","last_reported":1728713504,"current_range_meters":24400,"station_id":"ce4bhih2rcd13ifvqfr0","pricing_plan_id":"cebpf4jnsgd1na2vs0mg"},{"bike_id":"6b10fb70-8928-448c-9332-a992ab5f585a","system_id":"levelo_inurba_marseille","lat":43.24997,"lon":5.38925,"is_reserved":false,"is_disabled":false,"rental_uris":{"android":"levelo://app?vid=6b10fb70-8928-448c-9332-a992ab5f585a","ios":"levelo://app?vid=6b10fb70-8928-448c-9332-a992ab5f585a"},"vehicle_type_id":"4","last_reported":1728713504,"current_range_meters":9200,"station_id":"ce4bhgp2rcd13ifvqfd0","pricing_plan_id":"cebpf4jnsgd1na2vs0mg"},{"bike_id":"1cec8fed-d90f-4d63-a8c6-08f1b144e53b","system_id":"levelo_inurba_marseille","lat":43.29018,"lon":5.39956,"is_reserved":false,"is_disabled":false,"rental_uris":{"android":"levelo://app?vid=1cec8fed-d90f-4d63-a8c6-08f1b144e53b","ios":"levelo://app?vid=1cec8fed-d90f-4d63-a8c6-08f1b144e53b"},"vehicle_type_id":"4","last_reported":1728713504,"current_range_meters":7200,"station_id":"ce4bh392rcd13ifvqdm0","pricing_plan_id":"cebpf4jnsgd1na2vs0mg"},{"bike_id":"5bc82fca-43af-4201-891c-b197527e32ad","system_id":"levelo_inurba_marseille","lat":43.23188,"lon":5.39978,"is_reserved":false,"is_disabled":false,"rental_uris":{"android":"levelo://app?vid=5bc82fca-43af-4201-891c-b197527e32ad","ios":"levelo://app?vid=5bc82fca-43af-4201-891c-b197527e32ad"},"vehicle_type_id":"4","last_reported":1728713504,"current_range_meters":9200,"station_id":"ce4bhn12rcd13ifvqgqg","pricing_plan_id":"cebpf4jnsgd1na2vs0mg"},{"bike_id":"7c84ba11-c20f-4c7e-901f-d514605a3973","system_id":"levelo_inurba_marseille","lat":43.30463,"lon":5.37896,"is_reserved":false,"is_disabled":false,"rental_uris":{"android":"levelo://app?vid=7c84ba11-c20f-4c7e-901f-d514605a3973","ios":"levelo://app?vid=7c84ba11-c20f-4c7e-901f-d514605a3973"},"vehicle_type_id":"4","last_reported":1728713504,"current_range_meters":38800,"station_id":"ce4bgup2rcd13ifvqcn0","pricing_plan_id":"cebpf4jnsgd1na2vs0mg"},{"bike_id":"48acdb57-3fd1-4bd4-9d11-543b7896498e","system_id":"levelo_inurba_marseille","lat":43.296102,"lon":5.375798,"is_reserved":false,"is_disabled":false,"rental_uris":{"android":"levelo://app?vid=48acdb57-3fd1-4bd4-9d11-543b7896498e","ios":"levelo://app?vid=48acdb57-3fd1-4bd4-9d11-543b7896498e"},"vehicle_type_id":"4","last_reported":1728713504,"current_range_meters":25200,"station_id":"ce4bgh92rcd13ifvqb50","pricing_plan_id":"cebpf4jnsgd1na2vs0mg"},{"bike_id":"a49f0919-36fa-4eb4-8b1e-4f56526b00f7","system_id":"levelo_inurba_marseille","lat":43.27177,"lon":5.40991,"is_reserved":false,"is_disabled":false,"rental_uris":{"android":"levelo://app?vid=a49f0919-36fa-4eb4-8b1e-4f56526b00f7","ios":"levelo://app?vid=a49f0919-36fa-4eb4-8b1e-4f56526b00f7"},"vehicle_type_id":"4","last_reported":1728713504,"current_range_meters":38800,"station_id":"ce4bhl12rcd13ifvqgf0","pricing_plan_id":"cebpf4jnsgd1na2vs0mg"},{"bike_id":"d734f5c5-f070-468a-973c-3bf37674a53d","system_id":"levelo_inurba_marseille","lat":43.33754,"lon":5.37457,"is_reserved":false,"is_disabled":false,"rental_uris":{"android":"levelo://app?vid=d734f5c5-f070-468a-973c-3bf37674a53d","ios":"levelo://app?vid=d734f5c5-f070-468a-973c-3bf37674a53d"},"vehicle_type_id":"4","last_reported":1728713504,"current_range_meters":27600,"station_id":"","pricing_plan_id":"cebpf4jnsgd1na2vs0mg"},{"bike_id":"23d8589a-f57d-424d-a70a-057d6e0dae5b","system_id":"levelo_inurba_marseille","lat":43.30665,"lon":5.40079,"is_reserved":false,"is_disabled":false,"rental_uris":{"android":"levelo://app?vid=23d8589a-f57d-424d-a70a-057d6e0dae5b","ios":"levelo://app?vid=23d8589a-f57d-424d-a70a-057d6e0dae5b"},"vehicle_type_id":"4","last_reported":1728713504,"current_range_meters":4800,"station_id":"ce4bh112rcd13ifvqda0","pricing_plan_id":"cebpf4jnsgd1na2vs0mg"},{"bike_id":"ef772543-6dcc-4917-a2bf-044cfc19e6bb","system_id":"levelo_inurba_marseille","lat":43.26678,"lon":5.38267,"is_reserved":false,"is_disabled":false,"rental_uris":{"android":"levelo://app?vid=ef772543-6dcc-4917-a2bf-044cfc19e6bb","ios":"levelo://app?vid=ef772543-6dcc-4917-a2bf-044cfc19e6bb"},"vehicle_type_id":"4","last_reported":1728713504,"current_range_meters":27600,"station_id":"ce4bhg92rcd13ifvqf90","pricing_plan_id":"cebpf4jnsgd1na2vs0mg"},{"bike_id":"9ccc55ab-9e3f-4a0f-b409-9a56add2c2a5","system_id":"levelo_inurba_marseille","lat":43.286997,"lon":5.399946,"is_reserved":false,"is_disabled":false,"rental_uris":{"android":"levelo://app?vid=9ccc55ab-9e3f-4a0f-b409-9a56add2c2a5","ios":"levelo://app?vid=9ccc55ab-9e3f-4a0f-b409-9a56add2c2a5"},"vehicle_type_id":"4","last_reported":1728713504,"current_range_meters":17600,"station_id":"ce4bh392rcd13ifvqdm0","pricing_plan_id":"cebpf4jnsgd1na2vs0mg"},{"bike_id":"181f74b0-293f-4d0e-a89c-8e96919b398a","system_id":"levelo_inurba_marseille","lat":43.30889,"lon":5.3963,"is_reserved":false,"is_disabled":false,"rental_uris":{"android":"levelo://app?vid=181f74b0-293f-4d0e-a89c-8e96919b398a","ios":"levelo://app?vid=181f74b0-293f-4d0e-a89c-8e96919b398a"},"vehicle_type_id":"4","last_reported":1728713504,"current_range_meters":38800,"station_id":"ce4bh012rcd13ifvqcv0","pricing_plan_id":"cebpf4jnsgd1na2vs0mg"},{"bike_id":"b322c67d-4ce2-4758-9d59-d70a9cd62f6d","system_id":"levelo_inurba_marseille","lat":43.33617,"lon":5.41026,"is_reserved":false,"is_disabled":false,"rental_uris":{"android":"levelo://app?vid=b322c67d-4ce2-4758-9d59-d70a9cd62f6d","ios":"levelo://app?vid=b322c67d-4ce2-4758-9d59-d70a9cd62f6d"},"vehicle_type_id":"4","last_reported":1728713504,"current_range_meters":19200,"station_id":"ce4bhqh2rcd13ifvqhmg","pricing_plan_id":"cebpf4jnsgd1na2vs0mg"},{"bike_id":"eb0d4180-a3f3-46d5-8ccd-67bf4c5d4b93","system_id":"levelo_inurba_marseille","lat":43.30466,"lon":5.37904,"is_reserved":false,"is_disabled":false,"rental_uris":{"android":"levelo://app?vid=eb0d4180-a3f3-46d5-8ccd-67bf4c5d4b93","ios":"levelo://app?vid=eb0d4180-a3f3-46d5-8ccd-67bf4c5d4b93"},"vehicle_type_id":"4","last_reported":1728713504,"current_range_meters":32000,"station_id":"ce4bgup2rcd13ifvqcn0","pricing_plan_id":"cebpf4jnsgd1na2vs0mg"},{"bike_id":"fd301c4f-88d0-470b-8444-02e732c4a052","system_id":"levelo_inurba_marseille","lat":43.24973,"lon":5.38103,"is_reserved":false,"is_disabled":false,"rental_uris":{"android":"levelo://app?vid=fd301c4f-88d0-470b-8444-02e732c4a052","ios":"levelo://app?vid=fd301c4f-88d0-470b-8444-02e732c4a052"},"vehicle_type_id":"4","last_reported":1728713504,"current_range_meters":29600,"station_id":"","pricing_plan_id":"cebpf4jnsgd1na2vs0mg"},{"bike_id":"982a3d38-465a-4749-9097-231a5b91810b","system_id":"levelo_inurba_marseille","lat":43.32032,"lon":5.41565,"is_reserved":false,"is_disabled":false,"rental_uris":{"android":"levelo://app?vid=982a3d38-465a-4749-9097-231a5b91810b","ios":"levelo://app?vid=982a3d38-465a-4749-9097-231a5b91810b"},"vehicle_type_id":"4","last_reported":1728713504,"current_range_meters":5600,"station_id":"ce4bhq92rcd13ifvqhkg","pricing_plan_id":"cebpf4jnsgd1na2vs0mg"},{"bike_id":"68652680-9514-4504-8e80-b3473c04bda8","system_id":"levelo_inurba_marseille","lat":43.33609,"lon":5.41026,"is_reserved":false,"is_disabled":false,"rental_uris":{"android":"levelo://app?vid=68652680-9514-4504-8e80-b3473c04bda8","ios":"levelo://app?vid=68652680-9514-4504-8e80-b3473c04bda8"},"vehicle_type_id":"4","last_reported":1728713504,"current_range_meters":38800,"station_id":"ce4bhqh2rcd13ifvqhmg","pricing_plan_id":"cebpf4jnsgd1na2vs0mg"},{"bike_id":"e82530db-9da0-4449-ae24-c84eebf2d6c2","system_id":"levelo_inurba_marseille","lat":43.30797,"lon":5.43519,"is_reserved":false,"is_disabled":false,"rental_uris":{"android":"levelo://app?vid=e82530db-9da0-4449-ae24-c84eebf2d6c2","ios":"levelo://app?vid=e82530db-9da0-4449-ae24-c84eebf2d6c2"},"vehicle_type_id":"4","last_reported":1728713504,"current_range_meters":38000,"station_id":"ce4bhph2rcd13ifvqheg","pricing_plan_id":"cebpf4jnsgd1na2vs0mg"},{"bike_id":"ff68b789-7173-415f-860f-fb58c1b9d01d","system_id":"levelo_inurba_marseille","lat":43.22928,"lon":5.35375,"is_reserved":false,"is_disabled":false,"rental_uris":{"android":"levelo://app?vid=ff68b789-7173-415f-860f-fb58c1b9d01d","ios":"levelo://app?vid=ff68b789-7173-415f-860f-fb58c1b9d01d"},"vehicle_type_id":"4","last_reported":1728713504,"current_range_meters":27600,"station_id":"cpo3532slgdg3j2ikp40","pricing_plan_id":"cebpf4jnsgd1na2vs0mg"},{"bike_id":"d17c5d15-902e-4679-a4e9-3b854d8c49ed","system_id":"levelo_inurba_marseille","lat":43.27302,"lon":5.39073,"is_reserved":false,"is_disabled":false,"rental_uris":{"android":"levelo://app?vid=d17c5d15-902e-4679-a4e9-3b854d8c49ed","ios":"levelo://app?vid=d17c5d15-902e-4679-a4e9-3b854d8c49ed"},"vehicle_type_id":"4","last_reported":1728713504,"current_range_meters":33600,"station_id":"ce4bhgp2rcd13ifvqfe0","pricing_plan_id":"cebpf4jnsgd1na2vs0mg"},{"bike_id":"eef35c71-94ab-46dd-8a6f-f850e68db10c","system_id":"levelo_inurba_marseille","lat":43.30334,"lon":5.40366,"is_reserved":false,"is_disabled":false,"rental_uris":{"android":"levelo://app?vid=eef35c71-94ab-46dd-8a6f-f850e68db10c","ios":"levelo://app?vid=eef35c71-94ab-46dd-8a6f-f850e68db10c"},"vehicle_type_id":"4","last_reported":1728713504,"current_range_meters":10000,"station_id":"","pricing_plan_id":"cebpf4jnsgd1na2vs0mg"},{"bike_id":"92c1af36-5649-40f5-84ed-a7b062884571","system_id":"levelo_inurba_marseille","lat":43.23963,"lon":5.36632,"is_reserved":false,"is_disabled":false,"rental_uris":{"android":"levelo://app?vid=92c1af36-5649-40f5-84ed-a7b062884571","ios":"levelo://app?vid=92c1af36-5649-40f5-84ed-a7b062884571"},"vehicle_type_id":"4","last_reported":1728713504,"current_range_meters":36000,"station_id":"ce4bhi12rcd13ifvqfp0","pricing_plan_id":"cebpf4jnsgd1na2vs0mg"},{"bike_id":"1cfa4cf4-1347-47e2-95c4-ece46524b5f8","system_id":"levelo_inurba_marseille","lat":43.31998,"lon":5.38151,"is_reserved":false,"is_disabled":false,"rental_uris":{"android":"levelo://app?vid=1cfa4cf4-1347-47e2-95c4-ece46524b5f8","ios":"levelo://app?vid=1cfa4cf4-1347-47e2-95c4-ece46524b5f8"},"vehicle_type_id":"4","last_reported":1728713504,"current_range_meters":35200,"station_id":"ce4bhr12rcd13ifvqhpg","pricing_plan_id":"cebpf4jnsgd1na2vs0mg"},{"bike_id":"6cb5b02c-2401-484a-8b7d-b4d2106d6b08","system_id":"levelo_inurba_marseille","lat":43.2319,"lon":5.35559,"is_reserved":false,"is_disabled":false,"rental_uris":{"android":"levelo://app?vid=6cb5b02c-2401-484a-8b7d-b4d2106d6b08","ios":"levelo://app?vid=6cb5b02c-2401-484a-8b7d-b4d2106d6b08"},"vehicle_type_id":"4","last_reported":1728713504,"current_range_meters":32000,"station_id":"ce4bhu92rcd13ifvqi70","pricing_plan_id":"cebpf4jnsgd1na2vs0mg"},{"bike_id":"751ab8f4-b66e-4832-9b92-433be04fd785","system_id":"levelo_inurba_marseille","lat":43.33028,"lon":5.39039,"is_reserved":false,"is_disabled":false,"rental_uris":{"android":"levelo://app?vid=751ab8f4-b66e-4832-9b92-433be04fd785","ios":"levelo://app?vid=751ab8f4-b66e-4832-9b92-433be04fd785"},"vehicle_type_id":"4","last_reported":1728713504,"current_range_meters":25200,"station_id":"ce4bhr92rcd13ifvqhrg","pricing_plan_id":"cebpf4jnsgd1na2vs0mg"},{"bike_id":"571d400c-b2ad-4cc1-93a6-72d2f409b610","system_id":"levelo_inurba_marseille","lat":43.31756,"lon":5.39018,"is_reserved":false,"is_disabled":false,"rental_uris":{"android":"levelo://app?vid=571d400c-b2ad-4cc1-93a6-72d2f409b610","ios":"levelo://app?vid=571d400c-b2ad-4cc1-93a6-72d2f409b610"},"vehicle_type_id":"4","last_reported":1728713504,"current_range_meters":31200,"station_id":"ce4bhqp2rcd13ifvqhng","pricing_plan_id":"cebpf4jnsgd1na2vs0mg"},{"bike_id":"7ca55e86-9c7c-46ab-895b-d04de23dc7ec","system_id":"levelo_inurba_marseille","lat":43.30895,"lon":5.372,"is_reserved":false,"is_disabled":false,"rental_uris":{"android":"levelo://app?vid=7ca55e86-9c7c-46ab-895b-d04de23dc7ec","ios":"levelo://app?vid=7ca55e86-9c7c-46ab-895b-d04de23dc7ec"},"vehicle_type_id":"4","last_reported":1728713504,"current_range_meters":38800,"station_id":"ce4bguh2rcd13ifvqckg","pricing_plan_id":"cebpf4jnsgd1na2vs0mg"},{"bike_id":"c10642b6-8892-458d-8daf-e018e04f78ce","system_id":"levelo_inurba_marseille","lat":43.27912,"lon":5.38003,"is_reserved":false,"is_disabled":false,"rental_uris":{"android":"levelo://app?vid=c10642b6-8892-458d-8daf-e018e04f78ce","ios":"levelo://app?vid=c10642b6-8892-458d-8daf-e018e04f78ce"},"vehicle_type_id":"4","last_reported":1728713504,"current_range_meters":38800,"station_id":"ce4bhf92rcd13ifvqf50","pricing_plan_id":"cebpf4jnsgd1na2vs0mg"},{"bike_id":"0a9a733e-3835-4850-9176-f67c8e9e35c8","system_id":"levelo_inurba_marseille","lat":43.30472,"lon":5.379,"is_reserved":false,"is_disabled":false,"rental_uris":{"android":"levelo://app?vid=0a9a733e-3835-4850-9176-f67c8e9e35c8","ios":"levelo://app?vid=0a9a733e-3835-4850-9176-f67c8e9e35c8"},"vehicle_type_id":"4","last_reported":1728713504,"current_range_meters":16800,"station_id":"ce4bgup2rcd13ifvqcn0","pricing_plan_id":"cebpf4jnsgd1na2vs0mg"},{"bike_id":"a6f101ba-ce20-4c36-9a53-277496ed829c","system_id":"levelo_inurba_marseille","lat":43.31121,"lon":5.3776,"is_reserved":false,"is_disabled":false,"rental_uris":{"android":"levelo://app?vid=a6f101ba-ce20-4c36-9a53-277496ed829c","ios":"levelo://app?vid=a6f101ba-ce20-4c36-9a53-277496ed829c"},"vehicle_type_id":"4","last_reported":1728713504,"current_range_meters":26800,"station_id":"ce4bgt92rcd13ifvqcg0","pricing_plan_id":"cebpf4jnsgd1na2vs0mg"},{"bike_id":"7fc3f7e7-7809-4f18-b936-d8f740ae97a7","system_id":"levelo_inurba_marseille","lat":43.32334,"lon":5.40626,"is_reserved":false,"is_disabled":false,"rental_uris":{"android":"levelo://app?vid=7fc3f7e7-7809-4f18-b936-d8f740ae97a7","ios":"levelo://app?vid=7fc3f7e7-7809-4f18-b936-d8f740ae97a7"},"vehicle_type_id":"4","last_reported":1728713504,"current_range_meters":4800,"station_id":"ce4bhq92rcd13ifvqhjg","pricing_plan_id":"cebpf4jnsgd1na2vs0mg"},{"bike_id":"d49aae7f-df9d-4a2e-a055-bcb5bd2d1b43","system_id":"levelo_inurba_marseille","lat":43.317551,"lon":5.390191,"is_reserved":false,"is_disabled":false,"rental_uris":{"android":"levelo://app?vid=d49aae7f-df9d-4a2e-a055-bcb5bd2d1b43","ios":"levelo://app?vid=d49aae7f-df9d-4a2e-a055-bcb5bd2d1b43"},"vehicle_type_id":"4","last_reported":1728713504,"current_range_meters":6800,"station_id":"ce4bhqp2rcd13ifvqhng","pricing_plan_id":"cebpf4jnsgd1na2vs0mg"},{"bike_id":"1a447486-9c95-4c93-bc09-8e212e9d81e0","system_id":"levelo_inurba_marseille","lat":43.30662,"lon":5.40089,"is_reserved":false,"is_disabled":false,"rental_uris":{"android":"levelo://app?vid=1a447486-9c95-4c93-bc09-8e212e9d81e0","ios":"levelo://app?vid=1a447486-9c95-4c93-bc09-8e212e9d81e0"},"vehicle_type_id":"4","last_reported":1728713504,"current_range_meters":11600,"station_id":"ce4bh112rcd13ifvqda0","pricing_plan_id":"cebpf4jnsgd1na2vs0mg"},{"bike_id":"1241951e-4d85-43a4-9b92-38a3f1a123db","system_id":"levelo_inurba_marseille","lat":43.3072,"lon":5.40143,"is_reserved":false,"is_disabled":false,"rental_uris":{"android":"levelo://app?vid=1241951e-4d85-43a4-9b92-38a3f1a123db","ios":"levelo://app?vid=1241951e-4d85-43a4-9b92-38a3f1a123db"},"vehicle_type_id":"4","last_reported":1728713504,"current_range_meters":18800,"station_id":"","pricing_plan_id":"cebpf4jnsgd1na2vs0mg"},{"bike_id":"74b71dea-f5e6-4b43-b66b-181db5a0d47f","system_id":"levelo_inurba_marseille","lat":43.28665,"lon":5.36346,"is_reserved":false,"is_disabled":false,"rental_uris":{"android":"levelo://app?vid=74b71dea-f5e6-4b43-b66b-181db5a0d47f","ios":"levelo://app?vid=74b71dea-f5e6-4b43-b66b-181db5a0d47f"},"vehicle_type_id":"4","last_reported":1728713504,"current_range_meters":38800,"station_id":"ce4bhah2rcd13ifvqej0","pricing_plan_id":"cebpf4jnsgd1na2vs0mg"},{"bike_id":"f80c2e75-b47f-4161-9783-8454957aba75","system_id":"levelo_inurba_marseille","lat":43.32102,"lon":5.3677,"is_reserved":false,"is_disabled":false,"rental_uris":{"android":"levelo://app?vid=f80c2e75-b47f-4161-9783-8454957aba75","ios":"levelo://app?vid=f80c2e75-b47f-4161-9783-8454957aba75"},"vehicle_type_id":"4","last_reported":1728713504,"current_range_meters":37600,"station_id":"ce4bhrh2rcd13ifvqhug","pricing_plan_id":"cebpf4jnsgd1na2vs0mg"},{"bike_id":"264d2141-1e20-485f-a145-9f11d899c8da","system_id":"levelo_inurba_marseille","lat":43.3171,"lon":5.43703,"is_reserved":false,"is_disabled":false,"rental_uris":{"android":"levelo://app?vid=264d2141-1e20-485f-a145-9f11d899c8da","ios":"levelo://app?vid=264d2141-1e20-485f-a145-9f11d899c8da"},"vehicle_type_id":"4","last_reported":1728713504,"current_range_meters":12000,"station_id":"ce4bhp92rcd13ifvqhcg","pricing_plan_id":"cebpf4jnsgd1na2vs0mg"},{"bike_id":"3715f3c5-d892-4e43-8c88-9d7abbfe57b4","system_id":"levelo_inurba_marseille","lat":43.29605,"lon":5.38109,"is_reserved":false,"is_disabled":false,"rental_uris":{"android":"levelo://app?vid=3715f3c5-d892-4e43-8c88-9d7abbfe57b4","ios":"levelo://app?vid=3715f3c5-d892-4e43-8c88-9d7abbfe57b4"},"vehicle_type_id":"4","last_reported":1728713504,"current_range_meters":38400,"station_id":"ce4bgl12rcd13ifvqbo0","pricing_plan_id":"cebpf4jnsgd1na2vs0mg"},{"bike_id":"7bf8a373-147a-4e25-a6db-97b183cf1a08","system_id":"levelo_inurba_marseille","lat":43.30884,"lon":5.39643,"is_reserved":false,"is_disabled":false,"rental_uris":{"android":"levelo://app?vid=7bf8a373-147a-4e25-a6db-97b183cf1a08","ios":"levelo://app?vid=7bf8a373-147a-4e25-a6db-97b183cf1a08"},"vehicle_type_id":"4","last_reported":1728713504,"current_range_meters":3200,"station_id":"ce4bh012rcd13ifvqcv0","pricing_plan_id":"cebpf4jnsgd1na2vs0mg"},{"bike_id":"47800cc3-b4aa-4d02-bd42-90cb5272b1a4","system_id":"levelo_inurba_marseille","lat":43.23188,"lon":5.39981,"is_reserved":false,"is_disabled":false,"rental_uris":{"android":"levelo://app?vid=47800cc3-b4aa-4d02-bd42-90cb5272b1a4","ios":"levelo://app?vid=47800cc3-b4aa-4d02-bd42-90cb5272b1a4"},"vehicle_type_id":"4","last_reported":1728713504,"current_range_meters":20400,"station_id":"ce4bhn12rcd13ifvqgqg","pricing_plan_id":"cebpf4jnsgd1na2vs0mg"},{"bike_id":"1ee7c975-8729-436a-9326-5f02ab630976","system_id":"levelo_inurba_marseille","lat":43.287,"lon":5.39982,"is_reserved":false,"is_disabled":false,"rental_uris":{"android":"levelo://app?vid=1ee7c975-8729-436a-9326-5f02ab630976","ios":"levelo://app?vid=1ee7c975-8729-436a-9326-5f02ab630976"},"vehicle_type_id":"4","last_reported":1728713504,"current_range_meters":8000,"station_id":"ce4bho92rcd13ifvqh3g","pricing_plan_id":"cebpf4jnsgd1na2vs0mg"},{"bike_id":"f32ac0cf-abef-4988-883d-52109139d31f","system_id":"levelo_inurba_marseille","lat":43.27811,"lon":5.4071,"is_reserved":false,"is_disabled":false,"rental_uris":{"android":"levelo://app?vid=f32ac0cf-abef-4988-883d-52109139d31f","ios":"levelo://app?vid=f32ac0cf-abef-4988-883d-52109139d31f"},"vehicle_type_id":"4","last_reported":1728713504,"current_range_meters":9600,"station_id":"ce4bhnh2rcd13ifvqgtg","pricing_plan_id":"cebpf4jnsgd1na2vs0mg"},{"bike_id":"4ad6fd42-f540-4a7c-95c1-6e20141307a7","system_id":"levelo_inurba_marseille","lat":43.29263,"lon":5.40913,"is_reserved":false,"is_disabled":false,"rental_uris":{"android":"levelo://app?vid=4ad6fd42-f540-4a7c-95c1-6e20141307a7","ios":"levelo://app?vid=4ad6fd42-f540-4a7c-95c1-6e20141307a7"},"vehicle_type_id":"4","last_reported":1728713504,"current_range_meters":14000,"station_id":"ce4bh192rcd13ifvqdc0","pricing_plan_id":"cebpf4jnsgd1na2vs0mg"},{"bike_id":"eb13ce98-c7cd-4847-9fd8-cfd12e303ad0","system_id":"levelo_inurba_marseille","lat":43.28041,"lon":5.36941,"is_reserved":false,"is_disabled":false,"rental_uris":{"android":"levelo://app?vid=eb13ce98-c7cd-4847-9fd8-cfd12e303ad0","ios":"levelo://app?vid=eb13ce98-c7cd-4847-9fd8-cfd12e303ad0"},"vehicle_type_id":"4","last_reported":1728713504,"current_range_meters":4400,"station_id":"ce4bha12rcd13ifvqef0","pricing_plan_id":"cebpf4jnsgd1na2vs0mg"},{"bike_id":"51a405b6-b17e-4d49-abcb-c2fd26ff72eb","system_id":"levelo_inurba_marseille","lat":43.250035,"lon":5.389258,"is_reserved":false,"is_disabled":false,"rental_uris":{"android":"levelo://app?vid=51a405b6-b17e-4d49-abcb-c2fd26ff72eb","ios":"levelo://app?vid=51a405b6-b17e-4d49-abcb-c2fd26ff72eb"},"vehicle_type_id":"4","last_reported":1728713504,"current_range_meters":32800,"station_id":"ce4bhgp2rcd13ifvqfd0","pricing_plan_id":"cebpf4jnsgd1na2vs0mg"},{"bike_id":"b933402b-d1ca-49a8-bbf7-fb19281d941c","system_id":"levelo_inurba_marseille","lat":43.23192,"lon":5.35543,"is_reserved":false,"is_disabled":false,"rental_uris":{"android":"levelo://app?vid=b933402b-d1ca-49a8-bbf7-fb19281d941c","ios":"levelo://app?vid=b933402b-d1ca-49a8-bbf7-fb19281d941c"},"vehicle_type_id":"4","last_reported":1728713504,"current_range_meters":23200,"station_id":"ce4bhu92rcd13ifvqi70","pricing_plan_id":"cebpf4jnsgd1na2vs0mg"},{"bike_id":"44ad3bed-3412-4247-af9c-42535c90faeb","system_id":"levelo_inurba_marseille","lat":43.24672,"lon":5.38159,"is_reserved":false,"is_disabled":false,"rental_uris":{"android":"levelo://app?vid=44ad3bed-3412-4247-af9c-42535c90faeb","ios":"levelo://app?vid=44ad3bed-3412-4247-af9c-42535c90faeb"},"vehicle_type_id":"4","last_reported":1728713504,"current_range_meters":38800,"station_id":"ce4bhih2rcd13ifvqfr0","pricing_plan_id":"cebpf4jnsgd1na2vs0mg"},{"bike_id":"7321e454-b603-4701-b367-86d7a6d5c2da","system_id":"levelo_inurba_marseille","lat":43.2836,"lon":5.38645,"is_reserved":false,"is_disabled":false,"rental_uris":{"android":"levelo://app?vid=7321e454-b603-4701-b367-86d7a6d5c2da","ios":"levelo://app?vid=7321e454-b603-4701-b367-86d7a6d5c2da"},"vehicle_type_id":"4","last_reported":1728713504,"current_range_meters":4400,"station_id":"ce4bh492rcd13ifvqdvg","pricing_plan_id":"cebpf4jnsgd1na2vs0mg"},{"bike_id":"0db66df0-a352-45a7-b97a-79c2d6b8bb1d","system_id":"levelo_inurba_marseille","lat":43.27181,"lon":5.40983,"is_reserved":false,"is_disabled":false,"rental_uris":{"android":"levelo://app?vid=0db66df0-a352-45a7-b97a-79c2d6b8bb1d","ios":"levelo://app?vid=0db66df0-a352-45a7-b97a-79c2d6b8bb1d"},"vehicle_type_id":"4","last_reported":1728713504,"current_range_meters":38800,"station_id":"ce4bhl12rcd13ifvqgf0","pricing_plan_id":"cebpf4jnsgd1na2vs0mg"},{"bike_id":"80f6703b-2daa-4181-af98-ffe8f337374f","system_id":"levelo_inurba_marseille","lat":43.3055,"lon":5.36524,"is_reserved":false,"is_disabled":false,"rental_uris":{"android":"levelo://app?vid=80f6703b-2daa-4181-af98-ffe8f337374f","ios":"levelo://app?vid=80f6703b-2daa-4181-af98-ffe8f337374f"},"vehicle_type_id":"4","last_reported":1728713504,"current_range_meters":38800,"station_id":"ce4bgs12rcd13ifvqcag","pricing_plan_id":"cebpf4jnsgd1na2vs0mg"},{"bike_id":"97ea6e4c-722b-4acd-bced-5c59a6641973","system_id":"levelo_inurba_marseille","lat":43.28948,"lon":5.38187,"is_reserved":false,"is_disabled":false,"rental_uris":{"android":"levelo://app?vid=97ea6e4c-722b-4acd-bced-5c59a6641973","ios":"levelo://app?vid=97ea6e4c-722b-4acd-bced-5c59a6641973"},"vehicle_type_id":"4","last_reported":1728713504,"current_range_meters":37600,"station_id":"","pricing_plan_id":"cebpf4jnsgd1na2vs0mg"},{"bike_id":"24b97797-e5fd-4f10-85b3-13d8297697b4","system_id":"levelo_inurba_marseille","lat":43.30537,"lon":5.38427,"is_reserved":false,"is_disabled":false,"rental_uris":{"android":"levelo://app?vid=24b97797-e5fd-4f10-85b3-13d8297697b4","ios":"levelo://app?vid=24b97797-e5fd-4f10-85b3-13d8297697b4"},"vehicle_type_id":"4","last_reported":1728713504,"current_range_meters":38400,"station_id":"ce4bgg92rcd13ifvqb30","pricing_plan_id":"cebpf4jnsgd1na2vs0mg"},{"bike_id":"7d469463-2bae-4cf2-a448-7fb40b0bc1a5","system_id":"levelo_inurba_marseille","lat":43.30143,"lon":5.39874,"is_reserved":false,"is_disabled":false,"rental_uris":{"android":"levelo://app?vid=7d469463-2bae-4cf2-a448-7fb40b0bc1a5","ios":"levelo://app?vid=7d469463-2bae-4cf2-a448-7fb40b0bc1a5"},"vehicle_type_id":"4","last_reported":1728713504,"current_range_meters":27200,"station_id":"ce4bh0h2rcd13ifvqd40","pricing_plan_id":"cebpf4jnsgd1na2vs0mg"},{"bike_id":"9d1d620b-66c5-4751-b96b-2d2834ca74c8","system_id":"levelo_inurba_marseille","lat":43.34148,"lon":5.40903,"is_reserved":false,"is_disabled":false,"rental_uris":{"android":"levelo://app?vid=9d1d620b-66c5-4751-b96b-2d2834ca74c8","ios":"levelo://app?vid=9d1d620b-66c5-4751-b96b-2d2834ca74c8"},"vehicle_type_id":"4","last_reported":1728713504,"current_range_meters":38000,"station_id":"ce4bhqh2rcd13ifvqhlg","pricing_plan_id":"cebpf4jnsgd1na2vs0mg"},{"bike_id":"3871984b-2d7d-41a4-9aa7-2f8c4ecb9958","system_id":"levelo_inurba_marseille","lat":43.281,"lon":5.37838,"is_reserved":false,"is_disabled":false,"rental_uris":{"android":"levelo://app?vid=3871984b-2d7d-41a4-9aa7-2f8c4ecb9958","ios":"levelo://app?vid=3871984b-2d7d-41a4-9aa7-2f8c4ecb9958"},"vehicle_type_id":"4","last_reported":1728713504,"current_range_meters":9600,"station_id":"ce4bha12rcd13ifvqee0","pricing_plan_id":"cebpf4jnsgd1na2vs0mg"},{"bike_id":"7bb6a68b-a090-400b-990c-0b6cbbf45129","system_id":"levelo_inurba_marseille","lat":43.24184,"lon":5.39728,"is_reserved":false,"is_disabled":false,"rental_uris":{"android":"levelo://app?vid=7bb6a68b-a090-400b-990c-0b6cbbf45129","ios":"levelo://app?vid=7bb6a68b-a090-400b-990c-0b6cbbf45129"},"vehicle_type_id":"4","last_reported":1728713504,"current_range_meters":33200,"station_id":"ce4bhn12rcd13ifvqgpg","pricing_plan_id":"cebpf4jnsgd1na2vs0mg"},{"bike_id":"22424af8-96e9-42c2-8994-24820dfba4ea","system_id":"levelo_inurba_marseille","lat":43.30882,"lon":5.39643,"is_reserved":false,"is_disabled":false,"rental_uris":{"android":"levelo://app?vid=22424af8-96e9-42c2-8994-24820dfba4ea","ios":"levelo://app?vid=22424af8-96e9-42c2-8994-24820dfba4ea"},"vehicle_type_id":"4","last_reported":1728713504,"current_range_meters":28800,"station_id":"ce4bh012rcd13ifvqcv0","pricing_plan_id":"cebpf4jnsgd1na2vs0mg"},{"bike_id":"931b36f8-95f2-4e4a-bee3-7a4a6dfd9165","system_id":"levelo_inurba_marseille","lat":43.26943,"lon":5.40254,"is_reserved":false,"is_disabled":false,"rental_uris":{"android":"levelo://app?vid=931b36f8-95f2-4e4a-bee3-7a4a6dfd9165","ios":"levelo://app?vid=931b36f8-95f2-4e4a-bee3-7a4a6dfd9165"},"vehicle_type_id":"4","last_reported":1728713504,"current_range_meters":19600,"station_id":"cjm6bp8fraef2m0cb0m0","pricing_plan_id":"cebpf4jnsgd1na2vs0mg"},{"bike_id":"286baabf-b45b-4acd-805a-a7938257d24b","system_id":"levelo_inurba_marseille","lat":43.26488,"lon":5.39541,"is_reserved":false,"is_disabled":false,"rental_uris":{"android":"levelo://app?vid=286baabf-b45b-4acd-805a-a7938257d24b","ios":"levelo://app?vid=286baabf-b45b-4acd-805a-a7938257d24b"},"vehicle_type_id":"4","last_reported":1728713504,"current_range_meters":20400,"station_id":"ce4bhi12rcd13ifvqfq0","pricing_plan_id":"cebpf4jnsgd1na2vs0mg"},{"bike_id":"484a4c63-4ef1-4433-b27a-9a9ca5ad2f9a","system_id":"levelo_inurba_marseille","lat":43.22929,"lon":5.35378,"is_reserved":false,"is_disabled":false,"rental_uris":{"android":"levelo://app?vid=484a4c63-4ef1-4433-b27a-9a9ca5ad2f9a","ios":"levelo://app?vid=484a4c63-4ef1-4433-b27a-9a9ca5ad2f9a"},"vehicle_type_id":"4","last_reported":1728713504,"current_range_meters":11200,"station_id":"cpo3532slgdg3j2ikp40","pricing_plan_id":"cebpf4jnsgd1na2vs0mg"},{"bike_id":"d8644448-7698-4ba5-ba37-f6083176f920","system_id":"levelo_inurba_marseille","lat":43.25577,"lon":5.38233,"is_reserved":false,"is_disabled":false,"rental_uris":{"android":"levelo://app?vid=d8644448-7698-4ba5-ba37-f6083176f920","ios":"levelo://app?vid=d8644448-7698-4ba5-ba37-f6083176f920"},"vehicle_type_id":"4","last_reported":1728713504,"current_range_meters":27600,"station_id":"ce4bhih2rcd13ifvqfs0","pricing_plan_id":"cebpf4jnsgd1na2vs0mg"},{"bike_id":"ac630ff4-f036-4870-b81a-553d503e95d1","system_id":"levelo_inurba_marseille","lat":43.29256,"lon":5.40904,"is_reserved":false,"is_disabled":false,"rental_uris":{"android":"levelo://app?vid=ac630ff4-f036-4870-b81a-553d503e95d1","ios":"levelo://app?vid=ac630ff4-f036-4870-b81a-553d503e95d1"},"vehicle_type_id":"4","last_reported":1728713504,"current_range_meters":32000,"station_id":"ce4bh192rcd13ifvqdc0","pricing_plan_id":"cebpf4jnsgd1na2vs0mg"},{"bike_id":"4620d63a-873d-4561-8511-c14073990746","system_id":"levelo_inurba_marseille","lat":43.31525,"lon":5.38918,"is_reserved":false,"is_disabled":false,"rental_uris":{"android":"levelo://app?vid=4620d63a-873d-4561-8511-c14073990746","ios":"levelo://app?vid=4620d63a-873d-4561-8511-c14073990746"},"vehicle_type_id":"4","last_reported":1728713504,"current_range_meters":38800,"station_id":"","pricing_plan_id":"cebpf4jnsgd1na2vs0mg"},{"bike_id":"e6336660-e5d0-4336-aab6-9e2081b4b551","system_id":"levelo_inurba_marseille","lat":43.33727,"lon":5.39185,"is_reserved":false,"is_disabled":false,"rental_uris":{"android":"levelo://app?vid=e6336660-e5d0-4336-aab6-9e2081b4b551","ios":"levelo://app?vid=e6336660-e5d0-4336-aab6-9e2081b4b551"},"vehicle_type_id":"4","last_reported":1728713504,"current_range_meters":25200,"station_id":"ce4bhr92rcd13ifvqhsg","pricing_plan_id":"cebpf4jnsgd1na2vs0mg"},{"bike_id":"eea7b379-dd77-40f6-878f-9bf82690cfa0","system_id":"levelo_inurba_marseille","lat":43.30077,"lon":5.37041,"is_reserved":false,"is_disabled":false,"rental_uris":{"android":"levelo://app?vid=eea7b379-dd77-40f6-878f-9bf82690cfa0","ios":"levelo://app?vid=eea7b379-dd77-40f6-878f-9bf82690cfa0"},"vehicle_type_id":"4","last_reported":1728713504,"current_range_meters":17600,"station_id":"","pricing_plan_id":"cebpf4jnsgd1na2vs0mg"},{"bike_id":"c825f050-86f5-4931-9839-2a781d7a2de1","system_id":"levelo_inurba_marseille","lat":43.27324,"lon":5.39083,"is_reserved":false,"is_disabled":false,"rental_uris":{"android":"levelo://app?vid=c825f050-86f5-4931-9839-2a781d7a2de1","ios":"levelo://app?vid=c825f050-86f5-4931-9839-2a781d7a2de1"},"vehicle_type_id":"4","last_reported":1728713504,"current_range_meters":37600,"station_id":"ce4bhgp2rcd13ifvqfe0","pricing_plan_id":"cebpf4jnsgd1na2vs0mg"},{"bike_id":"c7932ebc-40c2-41af-92e1-9d5f28b5738a","system_id":"levelo_inurba_marseille","lat":43.2319,"lon":5.39975,"is_reserved":false,"is_disabled":false,"rental_uris":{"android":"levelo://app?vid=c7932ebc-40c2-41af-92e1-9d5f28b5738a","ios":"levelo://app?vid=c7932ebc-40c2-41af-92e1-9d5f28b5738a"},"vehicle_type_id":"4","last_reported":1728713504,"current_range_meters":6800,"station_id":"ce4bhn12rcd13ifvqgqg","pricing_plan_id":"cebpf4jnsgd1na2vs0mg"},{"bike_id":"22c6a4a8-e229-4825-8682-0268307e2e5a","system_id":"levelo_inurba_marseille","lat":43.28371,"lon":5.38646,"is_reserved":false,"is_disabled":false,"rental_uris":{"android":"levelo://app?vid=22c6a4a8-e229-4825-8682-0268307e2e5a","ios":"levelo://app?vid=22c6a4a8-e229-4825-8682-0268307e2e5a"},"vehicle_type_id":"4","last_reported":1728713504,"current_range_meters":38800,"station_id":"ce4bh492rcd13ifvqdvg","pricing_plan_id":"cebpf4jnsgd1na2vs0mg"},{"bike_id":"0bb7ddfd-36b6-4bca-9b60-fa225ffd9753","system_id":"levelo_inurba_marseille","lat":43.25858,"lon":5.39908,"is_reserved":false,"is_disabled":false,"rental_uris":{"android":"levelo://app?vid=0bb7ddfd-36b6-4bca-9b60-fa225ffd9753","ios":"levelo://app?vid=0bb7ddfd-36b6-4bca-9b60-fa225ffd9753"},"vehicle_type_id":"4","last_reported":1728713504,"current_range_meters":20400,"station_id":"ce4bhl92rcd13ifvqghg","pricing_plan_id":"cebpf4jnsgd1na2vs0mg"},{"bike_id":"5b9f2409-af94-4530-bdcb-ef3b7e257a37","system_id":"levelo_inurba_marseille","lat":43.31998,"lon":5.38153,"is_reserved":false,"is_disabled":false,"rental_uris":{"android":"levelo://app?vid=5b9f2409-af94-4530-bdcb-ef3b7e257a37","ios":"levelo://app?vid=5b9f2409-af94-4530-bdcb-ef3b7e257a37"},"vehicle_type_id":"4","last_reported":1728713504,"current_range_meters":38000,"station_id":"ce4bhr12rcd13ifvqhpg","pricing_plan_id":"cebpf4jnsgd1na2vs0mg"},{"bike_id":"9f39e2db-f5e2-47a0-a7c3-6c33d18c8d3e","system_id":"levelo_inurba_marseille","lat":43.31692,"lon":5.404692,"is_reserved":false,"is_disabled":false,"rental_uris":{"android":"levelo://app?vid=9f39e2db-f5e2-47a0-a7c3-6c33d18c8d3e","ios":"levelo://app?vid=9f39e2db-f5e2-47a0-a7c3-6c33d18c8d3e"},"vehicle_type_id":"4","last_reported":1728713504,"current_range_meters":36400,"station_id":"ce4bh012rcd13ifvqd00","pricing_plan_id":"cebpf4jnsgd1na2vs0mg"},{"bike_id":"1daa9aba-edf3-4752-8919-ce8a71ac9a5b","system_id":"levelo_inurba_marseille","lat":43.30649,"lon":5.40079,"is_reserved":false,"is_disabled":false,"rental_uris":{"android":"levelo://app?vid=1daa9aba-edf3-4752-8919-ce8a71ac9a5b","ios":"levelo://app?vid=1daa9aba-edf3-4752-8919-ce8a71ac9a5b"},"vehicle_type_id":"4","last_reported":1728713504,"current_range_meters":35200,"station_id":"ce4bh112rcd13ifvqda0","pricing_plan_id":"cebpf4jnsgd1na2vs0mg"},{"bike_id":"9420c6dc-b19d-4421-8c0c-72e39b809c6b","system_id":"levelo_inurba_marseille","lat":43.22931,"lon":5.35377,"is_reserved":false,"is_disabled":false,"rental_uris":{"android":"levelo://app?vid=9420c6dc-b19d-4421-8c0c-72e39b809c6b","ios":"levelo://app?vid=9420c6dc-b19d-4421-8c0c-72e39b809c6b"},"vehicle_type_id":"4","last_reported":1728713504,"current_range_meters":37600,"station_id":"cpo3532slgdg3j2ikp40","pricing_plan_id":"cebpf4jnsgd1na2vs0mg"},{"bike_id":"5a5649e8-a9bc-4d0f-be41-ed6fc56a9baf","system_id":"levelo_inurba_marseille","lat":43.22928,"lon":5.35374,"is_reserved":false,"is_disabled":false,"rental_uris":{"android":"levelo://app?vid=5a5649e8-a9bc-4d0f-be41-ed6fc56a9baf","ios":"levelo://app?vid=5a5649e8-a9bc-4d0f-be41-ed6fc56a9baf"},"vehicle_type_id":"4","last_reported":1728713504,"current_range_meters":33200,"station_id":"cpo3532slgdg3j2ikp40","pricing_plan_id":"cebpf4jnsgd1na2vs0mg"},{"bike_id":"fca3d910-bf6c-45cc-b739-63597142000b","system_id":"levelo_inurba_marseille","lat":43.30586,"lon":5.39357,"is_reserved":false,"is_disabled":false,"rental_uris":{"android":"levelo://app?vid=fca3d910-bf6c-45cc-b739-63597142000b","ios":"levelo://app?vid=fca3d910-bf6c-45cc-b739-63597142000b"},"vehicle_type_id":"4","last_reported":1728713504,"current_range_meters":35600,"station_id":"ce4bh0p2rcd13ifvqd80","pricing_plan_id":"cebpf4jnsgd1na2vs0mg"},{"bike_id":"602a314d-c816-438b-9d44-b3d990e0da7f","system_id":"levelo_inurba_marseille","lat":43.27067,"lon":5.42275,"is_reserved":false,"is_disabled":false,"rental_uris":{"android":"levelo://app?vid=602a314d-c816-438b-9d44-b3d990e0da7f","ios":"levelo://app?vid=602a314d-c816-438b-9d44-b3d990e0da7f"},"vehicle_type_id":"4","last_reported":1728713504,"current_range_meters":37600,"station_id":"ce4bhk92rcd13ifvqgb0","pricing_plan_id":"cebpf4jnsgd1na2vs0mg"},{"bike_id":"2357ddb0-5c1c-4d48-a1bf-df8502c235e6","system_id":"levelo_inurba_marseille","lat":43.290046,"lon":5.355861,"is_reserved":false,"is_disabled":false,"rental_uris":{"android":"levelo://app?vid=2357ddb0-5c1c-4d48-a1bf-df8502c235e6","ios":"levelo://app?vid=2357ddb0-5c1c-4d48-a1bf-df8502c235e6"},"vehicle_type_id":"4","last_reported":1728713504,"current_range_meters":36800,"station_id":"ce4bhb92rcd13ifvqen0","pricing_plan_id":"cebpf4jnsgd1na2vs0mg"},{"bike_id":"d66fdf2f-07a9-4b26-b71a-667699602f45","system_id":"levelo_inurba_marseille","lat":43.27953,"lon":5.41032,"is_reserved":false,"is_disabled":false,"rental_uris":{"android":"levelo://app?vid=d66fdf2f-07a9-4b26-b71a-667699602f45","ios":"levelo://app?vid=d66fdf2f-07a9-4b26-b71a-667699602f45"},"vehicle_type_id":"4","last_reported":1728713504,"current_range_meters":7200,"station_id":"ce4bhnp2rcd13ifvqh0g","pricing_plan_id":"cebpf4jnsgd1na2vs0mg"},{"bike_id":"8d7480be-366f-43b4-b9fb-6c56be09d343","system_id":"levelo_inurba_marseille","lat":43.29556,"lon":5.42283,"is_reserved":false,"is_disabled":false,"rental_uris":{"android":"levelo://app?vid=8d7480be-366f-43b4-b9fb-6c56be09d343","ios":"levelo://app?vid=8d7480be-366f-43b4-b9fb-6c56be09d343"},"vehicle_type_id":"4","last_reported":1728713504,"current_range_meters":19200,"station_id":"ce4bhph2rcd13ifvqhdg","pricing_plan_id":"cebpf4jnsgd1na2vs0mg"},{"bike_id":"4dd7febd-1bac-461d-b8de-a6315d11a1c7","system_id":"levelo_inurba_marseille","lat":43.26054,"lon":5.39396,"is_reserved":false,"is_disabled":false,"rental_uris":{"android":"levelo://app?vid=4dd7febd-1bac-461d-b8de-a6315d11a1c7","ios":"levelo://app?vid=4dd7febd-1bac-461d-b8de-a6315d11a1c7"},"vehicle_type_id":"4","last_reported":1728713504,"current_range_meters":27600,"station_id":"ce4bhh92rcd13ifvqfj0","pricing_plan_id":"cebpf4jnsgd1na2vs0mg"},{"bike_id":"e7b80a9d-8eab-4c55-afa3-0f8d67be8e22","system_id":"levelo_inurba_marseille","lat":43.24388,"lon":5.37055,"is_reserved":false,"is_disabled":false,"rental_uris":{"android":"levelo://app?vid=e7b80a9d-8eab-4c55-afa3-0f8d67be8e22","ios":"levelo://app?vid=e7b80a9d-8eab-4c55-afa3-0f8d67be8e22"},"vehicle_type_id":"4","last_reported":1728713504,"current_range_meters":38800,"station_id":"ce4bhhh2rcd13ifvqfk0","pricing_plan_id":"cebpf4jnsgd1na2vs0mg"},{"bike_id":"046e278b-f0ee-47d7-8922-6022b7960e7c","system_id":"levelo_inurba_marseille","lat":43.30319,"lon":5.40446,"is_reserved":false,"is_disabled":false,"rental_uris":{"android":"levelo://app?vid=046e278b-f0ee-47d7-8922-6022b7960e7c","ios":"levelo://app?vid=046e278b-f0ee-47d7-8922-6022b7960e7c"},"vehicle_type_id":"4","last_reported":1728713504,"current_range_meters":30000,"station_id":"ce4bh012rcd13ifvqd10","pricing_plan_id":"cebpf4jnsgd1na2vs0mg"},{"bike_id":"379d6363-9152-4e84-bd42-6ec02dd02b54","system_id":"levelo_inurba_marseille","lat":43.31995,"lon":5.38143,"is_reserved":false,"is_disabled":false,"rental_uris":{"android":"levelo://app?vid=379d6363-9152-4e84-bd42-6ec02dd02b54","ios":"levelo://app?vid=379d6363-9152-4e84-bd42-6ec02dd02b54"},"vehicle_type_id":"4","last_reported":1728713504,"current_range_meters":38000,"station_id":"ce4bhr12rcd13ifvqhpg","pricing_plan_id":"cebpf4jnsgd1na2vs0mg"},{"bike_id":"8fb2b431-bcb9-46ba-80fb-e26e84592fc5","system_id":"levelo_inurba_marseille","lat":43.23187,"lon":5.35552,"is_reserved":false,"is_disabled":false,"rental_uris":{"android":"levelo://app?vid=8fb2b431-bcb9-46ba-80fb-e26e84592fc5","ios":"levelo://app?vid=8fb2b431-bcb9-46ba-80fb-e26e84592fc5"},"vehicle_type_id":"4","last_reported":1728713504,"current_range_meters":33200,"station_id":"ce4bhu92rcd13ifvqi70","pricing_plan_id":"cebpf4jnsgd1na2vs0mg"},{"bike_id":"d25e2e0f-501d-4262-8147-167fff2c0578","system_id":"levelo_inurba_marseille","lat":43.30934,"lon":5.40135,"is_reserved":false,"is_disabled":false,"rental_uris":{"android":"levelo://app?vid=d25e2e0f-501d-4262-8147-167fff2c0578","ios":"levelo://app?vid=d25e2e0f-501d-4262-8147-167fff2c0578"},"vehicle_type_id":"4","last_reported":1728713504,"current_range_meters":16400,"station_id":"ce4bgvp2rcd13ifvqct0","pricing_plan_id":"cebpf4jnsgd1na2vs0mg"},{"bike_id":"a53b276c-67b6-4397-8369-5717d22041e1","system_id":"levelo_inurba_marseille","lat":43.30888,"lon":5.39632,"is_reserved":false,"is_disabled":false,"rental_uris":{"android":"levelo://app?vid=a53b276c-67b6-4397-8369-5717d22041e1","ios":"levelo://app?vid=a53b276c-67b6-4397-8369-5717d22041e1"},"vehicle_type_id":"4","last_reported":1728713504,"current_range_meters":37600,"station_id":"ce4bh012rcd13ifvqcv0","pricing_plan_id":"cebpf4jnsgd1na2vs0mg"},{"bike_id":"56abc702-f6b6-44e9-8296-6eedc4f5e9a5","system_id":"levelo_inurba_marseille","lat":43.26936,"lon":5.38911,"is_reserved":false,"is_disabled":false,"rental_uris":{"android":"levelo://app?vid=56abc702-f6b6-44e9-8296-6eedc4f5e9a5","ios":"levelo://app?vid=56abc702-f6b6-44e9-8296-6eedc4f5e9a5"},"vehicle_type_id":"4","last_reported":1728713504,"current_range_meters":29600,"station_id":"ce4bhhh2rcd13ifvqfl0","pricing_plan_id":"cebpf4jnsgd1na2vs0mg"},{"bike_id":"6e78bd64-8eea-4f6d-92b3-de18fcbdf4b0","system_id":"levelo_inurba_marseille","lat":43.30886,"lon":5.39636,"is_reserved":false,"is_disabled":false,"rental_uris":{"android":"levelo://app?vid=6e78bd64-8eea-4f6d-92b3-de18fcbdf4b0","ios":"levelo://app?vid=6e78bd64-8eea-4f6d-92b3-de18fcbdf4b0"},"vehicle_type_id":"4","last_reported":1728713504,"current_range_meters":28400,"station_id":"ce4bh012rcd13ifvqcv0","pricing_plan_id":"cebpf4jnsgd1na2vs0mg"},{"bike_id":"8233b71b-891a-4e52-ba59-3fa8be51a63e","system_id":"levelo_inurba_marseille","lat":43.26802,"lon":5.3941,"is_reserved":false,"is_disabled":false,"rental_uris":{"android":"levelo://app?vid=8233b71b-891a-4e52-ba59-3fa8be51a63e","ios":"levelo://app?vid=8233b71b-891a-4e52-ba59-3fa8be51a63e"},"vehicle_type_id":"4","last_reported":1728713504,"current_range_meters":36800,"station_id":"ce4bhh12rcd13ifvqfg0","pricing_plan_id":"cebpf4jnsgd1na2vs0mg"},{"bike_id":"fda49d5b-dbe4-4e87-8872-8390879a8835","system_id":"levelo_inurba_marseille","lat":43.28271,"lon":5.35065,"is_reserved":false,"is_disabled":false,"rental_uris":{"android":"levelo://app?vid=fda49d5b-dbe4-4e87-8872-8390879a8835","ios":"levelo://app?vid=fda49d5b-dbe4-4e87-8872-8390879a8835"},"vehicle_type_id":"4","last_reported":1728713504,"current_range_meters":38800,"station_id":"ce4bhbp2rcd13ifvqerg","pricing_plan_id":"cebpf4jnsgd1na2vs0mg"},{"bike_id":"642898bb-67f5-471e-9014-9749de38e655","system_id":"levelo_inurba_marseille","lat":43.22934,"lon":5.35376,"is_reserved":false,"is_disabled":false,"rental_uris":{"android":"levelo://app?vid=642898bb-67f5-471e-9014-9749de38e655","ios":"levelo://app?vid=642898bb-67f5-471e-9014-9749de38e655"},"vehicle_type_id":"4","last_reported":1728713504,"current_range_meters":11200,"station_id":"cpo3532slgdg3j2ikp40","pricing_plan_id":"cebpf4jnsgd1na2vs0mg"},{"bike_id":"ada7472e-6027-403a-a239-d414f24cd2e0","system_id":"levelo_inurba_marseille","lat":43.32331,"lon":5.40616,"is_reserved":false,"is_disabled":false,"rental_uris":{"android":"levelo://app?vid=ada7472e-6027-403a-a239-d414f24cd2e0","ios":"levelo://app?vid=ada7472e-6027-403a-a239-d414f24cd2e0"},"vehicle_type_id":"4","last_reported":1728713504,"current_range_meters":35600,"station_id":"ce4bhq92rcd13ifvqhjg","pricing_plan_id":"cebpf4jnsgd1na2vs0mg"},{"bike_id":"7e1ddba8-7450-4208-9e1f-1b36cd00e2bc","system_id":"levelo_inurba_marseille","lat":43.31892,"lon":5.40721,"is_reserved":false,"is_disabled":false,"rental_uris":{"android":"levelo://app?vid=7e1ddba8-7450-4208-9e1f-1b36cd00e2bc","ios":"levelo://app?vid=7e1ddba8-7450-4208-9e1f-1b36cd00e2bc"},"vehicle_type_id":"4","last_reported":1728713504,"current_range_meters":38800,"station_id":"ce4bhq12rcd13ifvqhig","pricing_plan_id":"cebpf4jnsgd1na2vs0mg"},{"bike_id":"0e43f052-9c62-442f-8c97-ea23dd8be5d8","system_id":"levelo_inurba_marseille","lat":43.30152,"lon":5.38078,"is_reserved":false,"is_disabled":false,"rental_uris":{"android":"levelo://app?vid=0e43f052-9c62-442f-8c97-ea23dd8be5d8","ios":"levelo://app?vid=0e43f052-9c62-442f-8c97-ea23dd8be5d8"},"vehicle_type_id":"4","last_reported":1728713504,"current_range_meters":36800,"station_id":"ce4bgjp2rcd13ifvqbh0","pricing_plan_id":"cebpf4jnsgd1na2vs0mg"},{"bike_id":"a27554a6-a50a-485f-8f1f-4487a4aa2e01","system_id":"levelo_inurba_marseille","lat":43.306,"lon":5.38072,"is_reserved":false,"is_disabled":false,"rental_uris":{"android":"levelo://app?vid=a27554a6-a50a-485f-8f1f-4487a4aa2e01","ios":"levelo://app?vid=a27554a6-a50a-485f-8f1f-4487a4aa2e01"},"vehicle_type_id":"4","last_reported":1728713504,"current_range_meters":28000,"station_id":"","pricing_plan_id":"cebpf4jnsgd1na2vs0mg"},{"bike_id":"80edcabb-2be4-4626-ada2-6b5e1b7dc548","system_id":"levelo_inurba_marseille","lat":43.28864,"lon":5.3586,"is_reserved":false,"is_disabled":false,"rental_uris":{"android":"levelo://app?vid=80edcabb-2be4-4626-ada2-6b5e1b7dc548","ios":"levelo://app?vid=80edcabb-2be4-4626-ada2-6b5e1b7dc548"},"vehicle_type_id":"4","last_reported":1728713504,"current_range_meters":24400,"station_id":"ce4bhb12rcd13ifvqem0","pricing_plan_id":"cebpf4jnsgd1na2vs0mg"},{"bike_id":"e4e0c7d9-743e-4987-b12c-cc30909aebea","system_id":"levelo_inurba_marseille","lat":43.24652,"lon":5.3889,"is_reserved":false,"is_disabled":false,"rental_uris":{"android":"levelo://app?vid=e4e0c7d9-743e-4987-b12c-cc30909aebea","ios":"levelo://app?vid=e4e0c7d9-743e-4987-b12c-cc30909aebea"},"vehicle_type_id":"4","last_reported":1728713504,"current_range_meters":39200,"station_id":"ce4bhg12rcd13ifvqf60","pricing_plan_id":"cebpf4jnsgd1na2vs0mg"},{"bike_id":"4fef5b2f-9801-402a-9d31-60b14ebee105","system_id":"levelo_inurba_marseille","lat":43.2721,"lon":5.39185,"is_reserved":false,"is_disabled":false,"rental_uris":{"android":"levelo://app?vid=4fef5b2f-9801-402a-9d31-60b14ebee105","ios":"levelo://app?vid=4fef5b2f-9801-402a-9d31-60b14ebee105"},"vehicle_type_id":"4","last_reported":1728713504,"current_range_meters":35600,"station_id":"ce4bhhp2rcd13ifvqfm0","pricing_plan_id":"cebpf4jnsgd1na2vs0mg"},{"bike_id":"8c80cb23-a64e-4fe6-824b-143e5bb832fd","system_id":"levelo_inurba_marseille","lat":43.32288,"lon":5.38267,"is_reserved":false,"is_disabled":false,"rental_uris":{"android":"levelo://app?vid=8c80cb23-a64e-4fe6-824b-143e5bb832fd","ios":"levelo://app?vid=8c80cb23-a64e-4fe6-824b-143e5bb832fd"},"vehicle_type_id":"4","last_reported":1728713504,"current_range_meters":37600,"station_id":"ce4bhr12rcd13ifvqhqg","pricing_plan_id":"cebpf4jnsgd1na2vs0mg"},{"bike_id":"74319710-9438-4b38-b9de-3ca24e309eaf","system_id":"levelo_inurba_marseille","lat":43.2804,"lon":5.36946,"is_reserved":false,"is_disabled":false,"rental_uris":{"android":"levelo://app?vid=74319710-9438-4b38-b9de-3ca24e309eaf","ios":"levelo://app?vid=74319710-9438-4b38-b9de-3ca24e309eaf"},"vehicle_type_id":"4","last_reported":1728713504,"current_range_meters":38800,"station_id":"ce4bha12rcd13ifvqef0","pricing_plan_id":"cebpf4jnsgd1na2vs0mg"},{"bike_id":"8d4fa04b-4062-460e-b516-8963625f5487","system_id":"levelo_inurba_marseille","lat":43.31084,"lon":5.42435,"is_reserved":false,"is_disabled":false,"rental_uris":{"android":"levelo://app?vid=8d4fa04b-4062-460e-b516-8963625f5487","ios":"levelo://app?vid=8d4fa04b-4062-460e-b516-8963625f5487"},"vehicle_type_id":"4","last_reported":1728713504,"current_range_meters":38800,"station_id":"ce4bhp92rcd13ifvqhag","pricing_plan_id":"cebpf4jnsgd1na2vs0mg"},{"bike_id":"c36aff0a-f3df-42cb-a930-4206e34e64f6","system_id":"levelo_inurba_marseille","lat":43.29792,"lon":5.38095,"is_reserved":false,"is_disabled":false,"rental_uris":{"android":"levelo://app?vid=c36aff0a-f3df-42cb-a930-4206e34e64f6","ios":"levelo://app?vid=c36aff0a-f3df-42cb-a930-4206e34e64f6"},"vehicle_type_id":"4","last_reported":1728713504,"current_range_meters":38800,"station_id":"ce4bgip2rcd13ifvqbb0","pricing_plan_id":"cebpf4jnsgd1na2vs0mg"},{"bike_id":"facab282-a00a-42c6-b102-647c7dc5306e","system_id":"levelo_inurba_marseille","lat":43.30883,"lon":5.39639,"is_reserved":false,"is_disabled":false,"rental_uris":{"android":"levelo://app?vid=facab282-a00a-42c6-b102-647c7dc5306e","ios":"levelo://app?vid=facab282-a00a-42c6-b102-647c7dc5306e"},"vehicle_type_id":"4","last_reported":1728713504,"current_range_meters":38800,"station_id":"ce4bh012rcd13ifvqcv0","pricing_plan_id":"cebpf4jnsgd1na2vs0mg"},{"bike_id":"de368da8-cc67-41de-bf98-14855e4e33c8","system_id":"levelo_inurba_marseille","lat":43.25494,"lon":5.3765,"is_reserved":false,"is_disabled":false,"rental_uris":{"android":"levelo://app?vid=de368da8-cc67-41de-bf98-14855e4e33c8","ios":"levelo://app?vid=de368da8-cc67-41de-bf98-14855e4e33c8"},"vehicle_type_id":"4","last_reported":1728713504,"current_range_meters":27200,"station_id":"ce4bhh12rcd13ifvqff0","pricing_plan_id":"cebpf4jnsgd1na2vs0mg"},{"bike_id":"b3653bef-4106-4da2-834e-52d35f32d4b7","system_id":"levelo_inurba_marseille","lat":43.27491,"lon":5.4245,"is_reserved":false,"is_disabled":false,"rental_uris":{"android":"levelo://app?vid=b3653bef-4106-4da2-834e-52d35f32d4b7","ios":"levelo://app?vid=b3653bef-4106-4da2-834e-52d35f32d4b7"},"vehicle_type_id":"4","last_reported":1728713504,"current_range_meters":26000,"station_id":"ce4bhn92rcd13ifvqgrg","pricing_plan_id":"cebpf4jnsgd1na2vs0mg"},{"bike_id":"56183593-f201-498f-ace6-50ce532e2d43","system_id":"levelo_inurba_marseille","lat":43.29043,"lon":5.39977,"is_reserved":false,"is_disabled":false,"rental_uris":{"android":"levelo://app?vid=56183593-f201-498f-ace6-50ce532e2d43","ios":"levelo://app?vid=56183593-f201-498f-ace6-50ce532e2d43"},"vehicle_type_id":"4","last_reported":1728713504,"current_range_meters":31200,"station_id":"ce4bh392rcd13ifvqdm0","pricing_plan_id":"cebpf4jnsgd1na2vs0mg"},{"bike_id":"8970f247-f3e1-417e-aa3c-bb5b7ef663d8","system_id":"levelo_inurba_marseille","lat":43.33601,"lon":5.41026,"is_reserved":false,"is_disabled":false,"rental_uris":{"android":"levelo://app?vid=8970f247-f3e1-417e-aa3c-bb5b7ef663d8","ios":"levelo://app?vid=8970f247-f3e1-417e-aa3c-bb5b7ef663d8"},"vehicle_type_id":"4","last_reported":1728713504,"current_range_meters":19600,"station_id":"ce4bhqh2rcd13ifvqhmg","pricing_plan_id":"cebpf4jnsgd1na2vs0mg"},{"bike_id":"4f084084-81b7-4d98-8eac-e8894430c993","system_id":"levelo_inurba_marseille","lat":43.28665,"lon":5.36352,"is_reserved":false,"is_disabled":false,"rental_uris":{"android":"levelo://app?vid=4f084084-81b7-4d98-8eac-e8894430c993","ios":"levelo://app?vid=4f084084-81b7-4d98-8eac-e8894430c993"},"vehicle_type_id":"4","last_reported":1728713504,"current_range_meters":38800,"station_id":"ce4bhah2rcd13ifvqej0","pricing_plan_id":"cebpf4jnsgd1na2vs0mg"},{"bike_id":"1c386ef6-2eff-470f-b71b-1fc1591eea11","system_id":"levelo_inurba_marseille","lat":43.2694,"lon":5.40245,"is_reserved":false,"is_disabled":false,"rental_uris":{"android":"levelo://app?vid=1c386ef6-2eff-470f-b71b-1fc1591eea11","ios":"levelo://app?vid=1c386ef6-2eff-470f-b71b-1fc1591eea11"},"vehicle_type_id":"4","last_reported":1728713504,"current_range_meters":35600,"station_id":"cjm6bp8fraef2m0cb0m0","pricing_plan_id":"cebpf4jnsgd1na2vs0mg"},{"bike_id":"270a4027-4d3e-4baf-94a6-0168db04581b","system_id":"levelo_inurba_marseille","lat":43.26953,"lon":5.38633,"is_reserved":false,"is_disabled":false,"rental_uris":{"android":"levelo://app?vid=270a4027-4d3e-4baf-94a6-0168db04581b","ios":"levelo://app?vid=270a4027-4d3e-4baf-94a6-0168db04581b"},"vehicle_type_id":"4","last_reported":1728713504,"current_range_meters":36800,"station_id":"ce4bhh92rcd13ifvqfh0","pricing_plan_id":"cebpf4jnsgd1na2vs0mg"},{"bike_id":"d352d592-1cb1-4e8c-ba52-c73a3440f812","system_id":"levelo_inurba_marseille","lat":43.317554,"lon":5.390145,"is_reserved":false,"is_disabled":false,"rental_uris":{"android":"levelo://app?vid=d352d592-1cb1-4e8c-ba52-c73a3440f812","ios":"levelo://app?vid=d352d592-1cb1-4e8c-ba52-c73a3440f812"},"vehicle_type_id":"4","last_reported":1728713504,"current_range_meters":38000,"station_id":"ce4bhqp2rcd13ifvqhng","pricing_plan_id":"cebpf4jnsgd1na2vs0mg"},{"bike_id":"e5bd0faf-e2e0-4933-bde0-abec19aa0d5b","system_id":"levelo_inurba_marseille","lat":43.28104,"lon":5.37852,"is_reserved":false,"is_disabled":false,"rental_uris":{"android":"levelo://app?vid=e5bd0faf-e2e0-4933-bde0-abec19aa0d5b","ios":"levelo://app?vid=e5bd0faf-e2e0-4933-bde0-abec19aa0d5b"},"vehicle_type_id":"4","last_reported":1728713504,"current_range_meters":37600,"station_id":"ce4bha12rcd13ifvqee0","pricing_plan_id":"cebpf4jnsgd1na2vs0mg"},{"bike_id":"6679af2b-8116-4301-8670-6ea1ef01716b","system_id":"levelo_inurba_marseille","lat":43.28682,"lon":5.38643,"is_reserved":false,"is_disabled":false,"rental_uris":{"android":"levelo://app?vid=6679af2b-8116-4301-8670-6ea1ef01716b","ios":"levelo://app?vid=6679af2b-8116-4301-8670-6ea1ef01716b"},"vehicle_type_id":"4","last_reported":1728713504,"current_range_meters":19200,"station_id":"ce4bh492rcd13ifvqdug","pricing_plan_id":"cebpf4jnsgd1na2vs0mg"},{"bike_id":"5c872fd4-09c0-47b3-8b3e-a80d66625ffa","system_id":"levelo_inurba_marseille","lat":43.29118,"lon":5.3812,"is_reserved":false,"is_disabled":false,"rental_uris":{"android":"levelo://app?vid=5c872fd4-09c0-47b3-8b3e-a80d66625ffa","ios":"levelo://app?vid=5c872fd4-09c0-47b3-8b3e-a80d66625ffa"},"vehicle_type_id":"4","last_reported":1728713504,"current_range_meters":31200,"station_id":"ce4bh512rcd13ifvqe2g","pricing_plan_id":"cebpf4jnsgd1na2vs0mg"},{"bike_id":"69c42b91-3d29-4b8d-9cff-007b8fe67f63","system_id":"levelo_inurba_marseille","lat":43.30801,"lon":5.38148,"is_reserved":false,"is_disabled":false,"rental_uris":{"android":"levelo://app?vid=69c42b91-3d29-4b8d-9cff-007b8fe67f63","ios":"levelo://app?vid=69c42b91-3d29-4b8d-9cff-007b8fe67f63"},"vehicle_type_id":"4","last_reported":1728713504,"current_range_meters":38000,"station_id":"ce4bgt12rcd13ifvqce0","pricing_plan_id":"cebpf4jnsgd1na2vs0mg"},{"bike_id":"96a24fc9-d55a-4476-a465-61644fa09933","system_id":"levelo_inurba_marseille","lat":43.2315,"lon":5.43708,"is_reserved":false,"is_disabled":false,"rental_uris":{"android":"levelo://app?vid=96a24fc9-d55a-4476-a465-61644fa09933","ios":"levelo://app?vid=96a24fc9-d55a-4476-a465-61644fa09933"},"vehicle_type_id":"4","last_reported":1728713504,"current_range_meters":4800,"station_id":"ce4bhmp2rcd13ifvqgog","pricing_plan_id":"cebpf4jnsgd1na2vs0mg"},{"bike_id":"07565f7d-6f02-471c-82a1-16a7c1c15713","system_id":"levelo_inurba_marseille","lat":43.31888,"lon":5.40733,"is_reserved":false,"is_disabled":false,"rental_uris":{"android":"levelo://app?vid=07565f7d-6f02-471c-82a1-16a7c1c15713","ios":"levelo://app?vid=07565f7d-6f02-471c-82a1-16a7c1c15713"},"vehicle_type_id":"4","last_reported":1728713504,"current_range_meters":16400,"station_id":"ce4bhq12rcd13ifvqhig","pricing_plan_id":"cebpf4jnsgd1na2vs0mg"},{"bike_id":"d5b42d16-ced5-4b18-93ee-c3c67fc5fb0c","system_id":"levelo_inurba_marseille","lat":43.31695,"lon":5.40468,"is_reserved":false,"is_disabled":false,"rental_uris":{"android":"levelo://app?vid=d5b42d16-ced5-4b18-93ee-c3c67fc5fb0c","ios":"levelo://app?vid=d5b42d16-ced5-4b18-93ee-c3c67fc5fb0c"},"vehicle_type_id":"4","last_reported":1728713504,"current_range_meters":15200,"station_id":"ce4bh012rcd13ifvqd00","pricing_plan_id":"cebpf4jnsgd1na2vs0mg"},{"bike_id":"fa788d65-ef44-407c-8d29-e3cbbca2e385","system_id":"levelo_inurba_marseille","lat":43.342352,"lon":5.400938,"is_reserved":false,"is_disabled":false,"rental_uris":{"android":"levelo://app?vid=fa788d65-ef44-407c-8d29-e3cbbca2e385","ios":"levelo://app?vid=fa788d65-ef44-407c-8d29-e3cbbca2e385"},"vehicle_type_id":"4","last_reported":1728713504,"current_range_meters":4800,"station_id":"","pricing_plan_id":"cebpf4jnsgd1na2vs0mg"},{"bike_id":"b585be87-dbd2-42c8-b2e2-6a41d03816ee","system_id":"levelo_inurba_marseille","lat":43.26955,"lon":5.38626,"is_reserved":false,"is_disabled":false,"rental_uris":{"android":"levelo://app?vid=b585be87-dbd2-42c8-b2e2-6a41d03816ee","ios":"levelo://app?vid=b585be87-dbd2-42c8-b2e2-6a41d03816ee"},"vehicle_type_id":"4","last_reported":1728713504,"current_range_meters":14800,"station_id":"ce4bhh92rcd13ifvqfh0","pricing_plan_id":"cebpf4jnsgd1na2vs0mg"},{"bike_id":"348f0c52-9e13-4e14-8ed6-823a5349d896","system_id":"levelo_inurba_marseille","lat":43.28077,"lon":5.39655,"is_reserved":false,"is_disabled":false,"rental_uris":{"android":"levelo://app?vid=348f0c52-9e13-4e14-8ed6-823a5349d896","ios":"levelo://app?vid=348f0c52-9e13-4e14-8ed6-823a5349d896"},"vehicle_type_id":"4","last_reported":1728713504,"current_range_meters":38800,"station_id":"ce4bho12rcd13ifvqh2g","pricing_plan_id":"cebpf4jnsgd1na2vs0mg"},{"bike_id":"d274d380-f72b-43ae-8161-154bfdd180db","system_id":"levelo_inurba_marseille","lat":43.28351,"lon":5.38098,"is_reserved":false,"is_disabled":false,"rental_uris":{"android":"levelo://app?vid=d274d380-f72b-43ae-8161-154bfdd180db","ios":"levelo://app?vid=d274d380-f72b-43ae-8161-154bfdd180db"},"vehicle_type_id":"4","last_reported":1728713504,"current_range_meters":38000,"station_id":"ce4bh412rcd13ifvqdr0","pricing_plan_id":"cebpf4jnsgd1na2vs0mg"},{"bike_id":"8509fa5d-c6d9-4cb2-b4b1-4f2065b2666e","system_id":"levelo_inurba_marseille","lat":43.28338,"lon":5.41053,"is_reserved":false,"is_disabled":false,"rental_uris":{"android":"levelo://app?vid=8509fa5d-c6d9-4cb2-b4b1-4f2065b2666e","ios":"levelo://app?vid=8509fa5d-c6d9-4cb2-b4b1-4f2065b2666e"},"vehicle_type_id":"4","last_reported":1728713504,"current_range_meters":4400,"station_id":"","pricing_plan_id":"cebpf4jnsgd1na2vs0mg"},{"bike_id":"0050ec81-d40c-4f97-9f78-04c3b2b280fd","system_id":"levelo_inurba_marseille","lat":43.28443,"lon":5.39186,"is_reserved":false,"is_disabled":false,"rental_uris":{"android":"levelo://app?vid=0050ec81-d40c-4f97-9f78-04c3b2b280fd","ios":"levelo://app?vid=0050ec81-d40c-4f97-9f78-04c3b2b280fd"},"vehicle_type_id":"4","last_reported":1728713504,"current_range_meters":37600,"station_id":"ce4bhoh2rcd13ifvqh5g","pricing_plan_id":"cebpf4jnsgd1na2vs0mg"},{"bike_id":"45849005-04b8-4d68-9ab2-cd8b443e491a","system_id":"levelo_inurba_marseille","lat":43.30355,"lon":5.4188,"is_reserved":false,"is_disabled":false,"rental_uris":{"android":"levelo://app?vid=45849005-04b8-4d68-9ab2-cd8b443e491a","ios":"levelo://app?vid=45849005-04b8-4d68-9ab2-cd8b443e491a"},"vehicle_type_id":"4","last_reported":1728713504,"current_range_meters":29600,"station_id":"ce4bhop2rcd13ifvqh7g","pricing_plan_id":"cebpf4jnsgd1na2vs0mg"},{"bike_id":"06a6cd5f-dc12-4ad9-ade4-2a000588a3cd","system_id":"levelo_inurba_marseille","lat":43.30659,"lon":5.40074,"is_reserved":false,"is_disabled":false,"rental_uris":{"android":"levelo://app?vid=06a6cd5f-dc12-4ad9-ade4-2a000588a3cd","ios":"levelo://app?vid=06a6cd5f-dc12-4ad9-ade4-2a000588a3cd"},"vehicle_type_id":"4","last_reported":1728713504,"current_range_meters":29600,"station_id":"ce4bh112rcd13ifvqda0","pricing_plan_id":"cebpf4jnsgd1na2vs0mg"},{"bike_id":"07383877-5b62-46c7-ae62-12c05ffe0665","system_id":"levelo_inurba_marseille","lat":43.29791,"lon":5.38094,"is_reserved":false,"is_disabled":false,"rental_uris":{"android":"levelo://app?vid=07383877-5b62-46c7-ae62-12c05ffe0665","ios":"levelo://app?vid=07383877-5b62-46c7-ae62-12c05ffe0665"},"vehicle_type_id":"4","last_reported":1728713504,"current_range_meters":37600,"station_id":"ce4bgip2rcd13ifvqbb0","pricing_plan_id":"cebpf4jnsgd1na2vs0mg"},{"bike_id":"087f0942-c4f9-4849-84d2-f966e863446b","system_id":"levelo_inurba_marseille","lat":43.26811,"lon":5.40263,"is_reserved":false,"is_disabled":false,"rental_uris":{"android":"levelo://app?vid=087f0942-c4f9-4849-84d2-f966e863446b","ios":"levelo://app?vid=087f0942-c4f9-4849-84d2-f966e863446b"},"vehicle_type_id":"4","last_reported":1728713504,"current_range_meters":37600,"station_id":"ce501612rcd8frsf0b60","pricing_plan_id":"cebpf4jnsgd1na2vs0mg"},{"bike_id":"e8d89085-ce40-4276-9845-483fa65c0f52","system_id":"levelo_inurba_marseille","lat":43.28563,"lon":5.39495,"is_reserved":false,"is_disabled":false,"rental_uris":{"android":"levelo://app?vid=e8d89085-ce40-4276-9845-483fa65c0f52","ios":"levelo://app?vid=e8d89085-ce40-4276-9845-483fa65c0f52"},"vehicle_type_id":"4","last_reported":1728713504,"current_range_meters":32400,"station_id":"ce4bh292rcd13ifvqdg0","pricing_plan_id":"cebpf4jnsgd1na2vs0mg"},{"bike_id":"734e414b-a3c5-4285-bfe1-4534f8f780ed","system_id":"levelo_inurba_marseille","lat":43.2926,"lon":5.40902,"is_reserved":false,"is_disabled":false,"rental_uris":{"android":"levelo://app?vid=734e414b-a3c5-4285-bfe1-4534f8f780ed","ios":"levelo://app?vid=734e414b-a3c5-4285-bfe1-4534f8f780ed"},"vehicle_type_id":"4","last_reported":1728713504,"current_range_meters":22400,"station_id":"ce4bh192rcd13ifvqdc0","pricing_plan_id":"cebpf4jnsgd1na2vs0mg"},{"bike_id":"522bd8c7-808d-4fd2-af61-af6350e9454a","system_id":"levelo_inurba_marseille","lat":43.3015,"lon":5.38786,"is_reserved":false,"is_disabled":false,"rental_uris":{"android":"levelo://app?vid=522bd8c7-808d-4fd2-af61-af6350e9454a","ios":"levelo://app?vid=522bd8c7-808d-4fd2-af61-af6350e9454a"},"vehicle_type_id":"4","last_reported":1728713504,"current_range_meters":30800,"station_id":"ce4bghh2rcd13ifvqb60","pricing_plan_id":"cebpf4jnsgd1na2vs0mg"},{"bike_id":"ab83bd1f-4cc4-460f-865a-4bafc48999b0","system_id":"levelo_inurba_marseille","lat":43.29551,"lon":5.42289,"is_reserved":false,"is_disabled":false,"rental_uris":{"android":"levelo://app?vid=ab83bd1f-4cc4-460f-865a-4bafc48999b0","ios":"levelo://app?vid=ab83bd1f-4cc4-460f-865a-4bafc48999b0"},"vehicle_type_id":"4","last_reported":1728713504,"current_range_meters":38800,"station_id":"ce4bhph2rcd13ifvqhdg","pricing_plan_id":"cebpf4jnsgd1na2vs0mg"},