{"last_updated":1743937628,"ttl":60,"version":"2.2","data":{"bikes":[{"bike_id":"f3d252ea-e976-44fc-9f52-47809355c1c2","system_id":"levelo_inurba_marseille","lat":43.29622,"lon":5.37167,"is_reserved":false,"is_disabled":false,"rental_uris":{"android":"levelo://app?vid=f3d252ea-e976-44fc-9f52-47809355c1c2","ios":"levelo://app?vid=f3d252ea-e976-44fc-9f52-47809355c1c2"},"vehicle_type_id":"4","last_reported":1743937628,"current_range_meters":2800,"station_id":"ce4bgnh2rcd13ifvqc0g","pricing_plan_id":"cebpf4jnsgd1na2vs0mg"},{"bike_id":"c73a85e2-fb2d-4d21-bea0-c717ffa7bb89","system_id":"levelo_inurba_marseille","lat":43.30464,"lon":5.36693,"is_reserved":false,"is_disabled":true,"rental_uris":{"android":"levelo://app?vid=c73a85e2-fb2d-4d21-bea0-c717ffa7bb89","ios":"levelo://app?vid=c73a85e2-fb2d-4d21-bea0-c717ffa7bb89"},"vehicle_type_id":"4","last_reported":1743937628,"current_range_meters":2800,"station_id":"","pricing_plan_id":"cebpf4jnsgd1na2vs0mg"},{"bike_id":"b2b04fa9-3ed9-48c0-a9e7-caf9be96a439","system_id":"levelo_inurba_marseille","lat":43.217431,"lon":5.346015,"is_reserved":false,"is_disabled":true,"rental_uris":{"android":"levelo://app?vid=b2b04fa9-3ed9-48c0-a9e7-caf9be96a439","ios":"levelo://app?vid=b2b04fa9-3ed9-48c0-a9e7-caf9be96a439"},"vehicle_type_id":"4","last_reported":1743937628,"current_range_meters":2800,"station_id":"st_cvj6r9ubvosntc0bgbag","pricing_plan_id":"cebpf4jnsgd1na2vs0mg"},{"bike_id":"e305bb19-e2ae-4884-808f-5733977f0f09","system_id":"levelo_inurba_marseille","lat":43.240739,"lon":5.377565,"is_reserved":false,"is_disabled":false,"rental_uris":{"android":"levelo://app?vid=e305bb19-e2ae-4884-808f-5733977f0f09","ios":"levelo://app?vid=e305bb19-e2ae-4884-808f-5733977f0f09"},"vehicle_type_id":"4","last_reported":1743937628,"current_range_meters":2000,"station_id":"ce4bhnp2rcd13ifvqgvg","pricing_plan_id":"cebpf4jnsgd1na2vs0mg"},{"bike_id":"69d81f2f-97bc-4c98-8c1c-7bfea1bf9f8e","system_id":"levelo_inurba_marseille","lat":43.31683,"lon":5.40475,"is_reserved":false,"is_disabled":false,"rental_uris":{"android":"levelo://app?vid=69d81f2f-97bc-4c98-8c1c-7bfea1bf9f8e","ios":"levelo://app?vid=69d81f2f-97bc-4c98-8c1c-7bfea1bf9f8e"},"vehicle_type_id":"4","last_reported":1743937628,"current_range_meters":2800,"station_id":"ce4bh012rcd13ifvqd00","pricing_plan_id":"cebpf4jnsgd1na2vs0mg"},{"bike_id":"3fe05fa3-b268-4d5c-ad1d-16078e117803","system_id":"levelo_inurba_marseille","lat":43.21194,"lon":5.35081,"is_reserved":false,"is_disabled":false,"rental_uris":{"android":"levelo://app?vid=3fe05fa3-b268-4d5c-ad1d-16078e117803","ios":"levelo://app?vid=3fe05fa3-b268-4d5c-ad1d-16078e117803"},"vehicle_type_id":"4","last_reported":1743937628,"current_range_meters":2800,"station_id":"st_cvj6sg6p6f1abm77japg","pricing_plan_id":"cebpf4jnsgd1na2vs0mg"},{"bike_id":"8627093e-d1d5-4343-9826-a304c7470d26","system_id":"levelo_inurba_marseille","lat":43.24809,"lon":5.37444,"is_reserved":false,"is_disabled":false,"rental_uris":{"android":"levelo://app?vid=8627093e-d1d5-4343-9826-a304c7470d26","ios":"levelo://app?vid=8627093e-d1d5-4343-9826-a304c7470d26"},"vehicle_type_id":"4","last_reported":1743937628,"current_range_meters":2800,"station_id":"ce4bhgh2rcd13ifvqfb0","pricing_plan_id":"cebpf4jnsgd1na2vs0mg"},{"bike_id":"fd58406c-d1be-45c3-b89b-ab1308645910","system_id":"levelo_inurba_marseille","lat":43.25494,"lon":5.37646,"is_reserved":false,"is_disabled":false,"rental_uris":{"android":"levelo://app?vid=fd58406c-d1be-45c3-b89b-ab1308645910","ios":"levelo://app?vid=fd58406c-d1be-45c3-b89b-ab1308645910"},"vehicle_type_id":"4","last_reported":1743937628,"current_range_meters":3200,"station_id":"ce4bhh12rcd13ifvqff0","pricing_plan_id":"cebpf4jnsgd1na2vs0mg"},{"bike_id":"050a0ea3-f288-4335-82d4-1c0a70d44252","system_id":"levelo_inurba_marseille","lat":43.29562,"lon":5.37361,"is_reserved":false,"is_disabled":false,"rental_uris":{"android":"levelo://app?vid=050a0ea3-f288-4335-82d4-1c0a70d44252","ios":"levelo://app?vid=050a0ea3-f288-4335-82d4-1c0a70d44252"},"vehicle_type_id":"4","last_reported":1743937628,"current_range_meters":3200,"station_id":"","pricing_plan_id":"cebpf4jnsgd1na2vs0mg"},{"bike_id":"e7b956ce-2ab2-4301-8fd3-6312d753e8f6","system_id":"levelo_inurba_marseille","lat":43.24662,"lon":5.38165,"is_reserved":false,"is_disabled":true,"rental_uris":{"android":"levelo://app?vid=e7b956ce-2ab2-4301-8fd3-6312d753e8f6","ios":"levelo://app?vid=e7b956ce-2ab2-4301-8fd3-6312d753e8f6"},"vehicle_type_id":"4","last_reported":1743937628,"current_range_meters":3200,"station_id":"ce4bhih2rcd13ifvqfr0","pricing_plan_id":"cebpf4jnsgd1na2vs0mg"},{"bike_id":"afc41c80-9133-49d9-9191-e48f71a2f6c5","system_id":"levelo_inurba_marseille","lat":43.24391,"lon":5.37064,"is_reserved":false,"is_disabled":false,"rental_uris":{"android":"levelo://app?vid=afc41c80-9133-49d9-9191-e48f71a2f6c5","ios":"levelo://app?vid=afc41c80-9133-49d9-9191-e48f71a2f6c5"},"vehicle_type_id":"4","last_reported":1743937628,"current_range_meters":3200,"station_id":"ce4bhhh2rcd13ifvqfk0","pricing_plan_id":"cebpf4jnsgd1na2vs0mg"},{"bike_id":"3319d4ef-fc07-4c09-9aab-f72f800e1e94","system_id":"levelo_inurba_marseille","lat":43.28277,"lon":5.3509,"is_reserved":false,"is_disabled":false,"rental_uris":{"android":"levelo://app?vid=3319d4ef-fc07-4c09-9aab-f72f800e1e94","ios":"levelo://app?vid=3319d4ef-fc07-4c09-9aab-f72f800e1e94"},"vehicle_type_id":"4","last_reported":1743937628,"current_range_meters":3600,"station_id":"ce4bhbp2rcd13ifvqerg","pricing_plan_id":"cebpf4jnsgd1na2vs0mg"},{"bike_id":"04f8a33a-bc8c-422a-9d3d-1de8e5a2d43d","system_id":"levelo_inurba_marseille","lat":43.23147,"lon":5.43719,"is_reserved":false,"is_disabled":false,"rental_uris":{"android":"levelo://app?vid=04f8a33a-bc8c-422a-9d3d-1de8e5a2d43d","ios":"levelo://app?vid=04f8a33a-bc8c-422a-9d3d-1de8e5a2d43d"},"vehicle_type_id":"4","last_reported":1743937628,"current_range_meters":3600,"station_id":"ce4bhmp2rcd13ifvqgog","pricing_plan_id":"cebpf4jnsgd1na2vs0mg"},{"bike_id":"8fa92ff1-c2cb-4fa2-b3ce-e14c12ce1bf4","system_id":"levelo_inurba_marseille","lat":43.28113,"lon":5.42637,"is_reserved":false,"is_disabled":false,"rental_uris":{"android":"levelo://app?vid=8fa92ff1-c2cb-4fa2-b3ce-e14c12ce1bf4","ios":"levelo://app?vid=8fa92ff1-c2cb-4fa2-b3ce-e14c12ce1bf4"},"vehicle_type_id":"4","last_reported":1743937628,"current_range_meters":4000,"station_id":"ce4bhnh2rcd13ifvqgug","pricing_plan_id":"cebpf4jnsgd1na2vs0mg"},{"bike_id":"51d5d37a-4e9b-4486-88f3-5048e41c8d02","system_id":"levelo_inurba_marseille","lat":43.23134,"lon":5.43708,"is_reserved":false,"is_disabled":false,"rental_uris":{"android":"levelo://app?vid=51d5d37a-4e9b-4486-88f3-5048e41c8d02","ios":"levelo://app?vid=51d5d37a-4e9b-4486-88f3-5048e41c8d02"},"vehicle_type_id":"4","last_reported":1743937628,"current_range_meters":4000,"station_id":"ce4bhmp2rcd13ifvqgog","pricing_plan_id":"cebpf4jnsgd1na2vs0mg"},{"bike_id":"b0d04959-b91f-4777-abe1-7e4431ff04c6","system_id":"levelo_inurba_marseille","lat":43.23181,"lon":5.39993,"is_reserved":false,"is_disabled":false,"rental_uris":{"android":"levelo://app?vid=b0d04959-b91f-4777-abe1-7e4431ff04c6","ios":"levelo://app?vid=b0d04959-b91f-4777-abe1-7e4431ff04c6"},"vehicle_type_id":"4","last_reported":1743937628,"current_range_meters":4000,"station_id":"ce4bhn12rcd13ifvqgqg","pricing_plan_id":"cebpf4jnsgd1na2vs0mg"},{"bike_id":"ffed1c87-e8a8-4763-9984-02934a6e21bc","system_id":"levelo_inurba_marseille","lat":43.27368,"lon":5.36263,"is_reserved":false,"is_disabled":false,"rental_uris":{"android":"levelo://app?vid=ffed1c87-e8a8-4763-9984-02934a6e21bc","ios":"levelo://app?vid=ffed1c87-e8a8-4763-9984-02934a6e21bc"},"vehicle_type_id":"4","last_reported":1743937628,"current_range_meters":4000,"station_id":"ce4bhbh2rcd13ifvqeo0","pricing_plan_id":"cebpf4jnsgd1na2vs0mg"},{"bike_id":"a274bc71-7eb3-4490-b095-00964540f83d","system_id":"levelo_inurba_marseille","lat":43.21192,"lon":5.35074,"is_reserved":false,"is_disabled":false,"rental_uris":{"android":"levelo://app?vid=a274bc71-7eb3-4490-b095-00964540f83d","ios":"levelo://app?vid=a274bc71-7eb3-4490-b095-00964540f83d"},"vehicle_type_id":"4","last_reported":1743937628,"current_range_meters":4000,"station_id":"st_cvj6sg6p6f1abm77japg","pricing_plan_id":"cebpf4jnsgd1na2vs0mg"},{"bike_id":"feb6e46c-3fb2-45a9-a2fb-22ac62feb505","system_id":"levelo_inurba_marseille","lat":43.23046,"lon":5.35504,"is_reserved":false,"is_disabled":true,"rental_uris":{"android":"levelo://app?vid=feb6e46c-3fb2-45a9-a2fb-22ac62feb505","ios":"levelo://app?vid=feb6e46c-3fb2-45a9-a2fb-22ac62feb505"},"vehicle_type_id":"4","last_reported":1743937628,"current_range_meters":4000,"station_id":"cpo3342slgdg3j2ifvpg","pricing_plan_id":"cebpf4jnsgd1na2vs0mg"},{"bike_id":"1420a77d-a614-4af5-b906-de886dcfb6f0","system_id":"levelo_inurba_marseille","lat":43.2417,"lon":5.36396,"is_reserved":false,"is_disabled":false,"rental_uris":{"android":"levelo://app?vid=1420a77d-a614-4af5-b906-de886dcfb6f0","ios":"levelo://app?vid=1420a77d-a614-4af5-b906-de886dcfb6f0"},"vehicle_type_id":"4","last_reported":1743937628,"current_range_meters":4400,"station_id":"cpo36qri1sfpv3e86is0","pricing_plan_id":"cebpf4jnsgd1na2vs0mg"},{"bike_id":"9a36e749-313f-43fc-ac90-b52b5015306e","system_id":"levelo_inurba_marseille","lat":43.21197,"lon":5.35069,"is_reserved":false,"is_disabled":false,"rental_uris":{"android":"levelo://app?vid=9a36e749-313f-43fc-ac90-b52b5015306e","ios":"levelo://app?vid=9a36e749-313f-43fc-ac90-b52b5015306e"},"vehicle_type_id":"4","last_reported":1743937628,"current_range_meters":4400,"station_id":"st_cvj6sg6p6f1abm77japg","pricing_plan_id":"cebpf4jnsgd1na2vs0mg"},{"bike_id":"3e49762c-f5f2-4be5-8001-03dfedd1c1e4","system_id":"levelo_inurba_marseille","lat":43.21191,"lon":5.35074,"is_reserved":false,"is_disabled":false,"rental_uris":{"android":"levelo://app?vid=3e49762c-f5f2-4be5-8001-03dfedd1c1e4","ios":"levelo://app?vid=3e49762c-f5f2-4be5-8001-03dfedd1c1e4"},"vehicle_type_id":"4","last_reported":1743937628,"current_range_meters":4400,"station_id":"st_cvj6sg6p6f1abm77japg","pricing_plan_id":"cebpf4jnsgd1na2vs0mg"},{"bike_id":"e639f33a-3e76-44c0-9ea0-806503c47db7","system_id":"levelo_inurba_marseille","lat":43.29199,"lon":5.39315,"is_reserved":false,"is_disabled":false,"rental_uris":{"android":"levelo://app?vid=e639f33a-3e76-44c0-9ea0-806503c47db7","ios":"levelo://app?vid=e639f33a-3e76-44c0-9ea0-806503c47db7"},"vehicle_type_id":"4","last_reported":1743937628,"current_range_meters":4400,"station_id":"ce4bh192rcd13ifvqdd0","pricing_plan_id":"cebpf4jnsgd1na2vs0mg"},{"bike_id":"b538d2a3-4f09-4b79-be69-a689cd7559df","system_id":"levelo_inurba_marseille","lat":43.28143,"lon":5.42653,"is_reserved":false,"is_disabled":false,"rental_uris":{"android":"levelo://app?vid=b538d2a3-4f09-4b79-be69-a689cd7559df","ios":"levelo://app?vid=b538d2a3-4f09-4b79-be69-a689cd7559df"},"vehicle_type_id":"4","last_reported":1743937628,"current_range_meters":4400,"station_id":"ce4bhnh2rcd13ifvqgug","pricing_plan_id":"cebpf4jnsgd1na2vs0mg"},{"bike_id":"00cb19b4-d8e0-485f-a15a-3e8fa94a0c5e","system_id":"levelo_inurba_marseille","lat":43.23057,"lon":5.35492,"is_reserved":false,"is_disabled":false,"rental_uris":{"android":"levelo://app?vid=00cb19b4-d8e0-485f-a15a-3e8fa94a0c5e","ios":"levelo://app?vid=00cb19b4-d8e0-485f-a15a-3e8fa94a0c5e"},"vehicle_type_id":"4","last_reported":1743937628,"current_range_meters":4800,"station_id":"cpo3342slgdg3j2ifvpg","pricing_plan_id":"cebpf4jnsgd1na2vs0mg"},{"bike_id":"cc289fc0-b3b2-4129-b7c0-da32984c66c4","system_id":"levelo_inurba_marseille","lat":43.264197,"lon":5.377819,"is_reserved":false,"is_disabled":false,"rental_uris":{"android":"levelo://app?vid=cc289fc0-b3b2-4129-b7c0-da32984c66c4","ios":"levelo://app?vid=cc289fc0-b3b2-4129-b7c0-da32984c66c4"},"vehicle_type_id":"4","last_reported":1743937628,"current_range_meters":4800,"station_id":"ce4bhgp2rcd13ifvqfc0","pricing_plan_id":"cebpf4jnsgd1na2vs0mg"},{"bike_id":"2cbb6dc3-aafd-42a1-8326-324602b54fb8","system_id":"levelo_inurba_marseille","lat":43.231519,"lon":5.436989,"is_reserved":false,"is_disabled":false,"rental_uris":{"android":"levelo://app?vid=2cbb6dc3-aafd-42a1-8326-324602b54fb8","ios":"levelo://app?vid=2cbb6dc3-aafd-42a1-8326-324602b54fb8"},"vehicle_type_id":"4","last_reported":1743937628,"current_range_meters":4800,"station_id":"ce4bhmp2rcd13ifvqgog","pricing_plan_id":"cebpf4jnsgd1na2vs0mg"},{"bike_id":"126b041e-f111-47c2-b7db-d5e4759694c2","system_id":"levelo_inurba_marseille","lat":43.2737,"lon":5.36263,"is_reserved":false,"is_disabled":false,"rental_uris":{"android":"levelo://app?vid=126b041e-f111-47c2-b7db-d5e4759694c2","ios":"levelo://app?vid=126b041e-f111-47c2-b7db-d5e4759694c2"},"vehicle_type_id":"4","last_reported":1743937628,"current_range_meters":5600,"station_id":"ce4bhbh2rcd13ifvqeo0","pricing_plan_id":"cebpf4jnsgd1na2vs0mg"},{"bike_id":"9934a692-7aac-4101-a681-1b7c4eb8d158","system_id":"levelo_inurba_marseille","lat":43.24388,"lon":5.3706,"is_reserved":false,"is_disabled":false,"rental_uris":{"android":"levelo://app?vid=9934a692-7aac-4101-a681-1b7c4eb8d158","ios":"levelo://app?vid=9934a692-7aac-4101-a681-1b7c4eb8d158"},"vehicle_type_id":"4","last_reported":1743937628,"current_range_meters":5600,"station_id":"ce4bhhh2rcd13ifvqfk0","pricing_plan_id":"cebpf4jnsgd1na2vs0mg"},{"bike_id":"fb0d4993-67fa-4314-9525-ef2ba9197c72","system_id":"levelo_inurba_marseille","lat":43.30321,"lon":5.4059,"is_reserved":false,"is_disabled":false,"rental_uris":{"android":"levelo://app?vid=fb0d4993-67fa-4314-9525-ef2ba9197c72","ios":"levelo://app?vid=fb0d4993-67fa-4314-9525-ef2ba9197c72"},"vehicle_type_id":"4","last_reported":1743937628,"current_range_meters":5600,"station_id":"","pricing_plan_id":"cebpf4jnsgd1na2vs0mg"},{"bike_id":"221fb5aa-079f-4d1c-b2ad-b0fa597e34e5","system_id":"levelo_inurba_marseille","lat":43.31746,"lon":5.39018,"is_reserved":false,"is_disabled":false,"rental_uris":{"android":"levelo://app?vid=221fb5aa-079f-4d1c-b2ad-b0fa597e34e5","ios":"levelo://app?vid=221fb5aa-079f-4d1c-b2ad-b0fa597e34e5"},"vehicle_type_id":"4","last_reported":1743937628,"current_range_meters":5600,"station_id":"ce4bhqp2rcd13ifvqhng","pricing_plan_id":"cebpf4jnsgd1na2vs0mg"},{"bike_id":"8bcbfd65-fe31-4f79-8ab6-3f3954af8f76","system_id":"levelo_inurba_marseille","lat":43.27377,"lon":5.36263,"is_reserved":false,"is_disabled":false,"rental_uris":{"android":"levelo://app?vid=8bcbfd65-fe31-4f79-8ab6-3f3954af8f76","ios":"levelo://app?vid=8bcbfd65-fe31-4f79-8ab6-3f3954af8f76"},"vehicle_type_id":"4","last_reported":1743937628,"current_range_meters":6000,"station_id":"ce4bhbh2rcd13ifvqeo0","pricing_plan_id":"cebpf4jnsgd1na2vs0mg"},{"bike_id":"cb26abe7-dbbf-4163-a5ba-302d5933f79e","system_id":"levelo_inurba_marseille","lat":43.22925,"lon":5.35381,"is_reserved":false,"is_disabled":false,"rental_uris":{"android":"levelo://app?vid=cb26abe7-dbbf-4163-a5ba-302d5933f79e","ios":"levelo://app?vid=cb26abe7-dbbf-4163-a5ba-302d5933f79e"},"vehicle_type_id":"4","last_reported":1743937628,"current_range_meters":6000,"station_id":"cpo3532slgdg3j2ikp40","pricing_plan_id":"cebpf4jnsgd1na2vs0mg"},{"bike_id":"ac7a85da-6a1d-42f4-b3e0-decaec458451","system_id":"levelo_inurba_marseille","lat":43.22923,"lon":5.3538,"is_reserved":false,"is_disabled":true,"rental_uris":{"android":"levelo://app?vid=ac7a85da-6a1d-42f4-b3e0-decaec458451","ios":"levelo://app?vid=ac7a85da-6a1d-42f4-b3e0-decaec458451"},"vehicle_type_id":"4","last_reported":1743937628,"current_range_meters":6000,"station_id":"cpo3532slgdg3j2ikp40","pricing_plan_id":"cebpf4jnsgd1na2vs0mg"},{"bike_id":"72bf7179-d0ce-4574-88ef-9320fde316f7","system_id":"levelo_inurba_marseille","lat":43.23965,"lon":5.36635,"is_reserved":false,"is_disabled":false,"rental_uris":{"android":"levelo://app?vid=72bf7179-d0ce-4574-88ef-9320fde316f7","ios":"levelo://app?vid=72bf7179-d0ce-4574-88ef-9320fde316f7"},"vehicle_type_id":"4","last_reported":1743937628,"current_range_meters":6000,"station_id":"ce4bhi12rcd13ifvqfp0","pricing_plan_id":"cebpf4jnsgd1na2vs0mg"},{"bike_id":"8e8105ce-63e2-4441-9ebe-d6a09a08a22e","system_id":"levelo_inurba_marseille","lat":43.29668,"lon":5.36204,"is_reserved":false,"is_disabled":false,"rental_uris":{"android":"levelo://app?vid=8e8105ce-63e2-4441-9ebe-d6a09a08a22e","ios":"levelo://app?vid=8e8105ce-63e2-4441-9ebe-d6a09a08a22e"},"vehicle_type_id":"4","last_reported":1743937628,"current_range_meters":6000,"station_id":"","pricing_plan_id":"cebpf4jnsgd1na2vs0mg"},{"bike_id":"c750e755-6e43-4146-887d-449edd6757ab","system_id":"levelo_inurba_marseille","lat":43.29271,"lon":5.36846,"is_reserved":false,"is_disabled":false,"rental_uris":{"android":"levelo://app?vid=c750e755-6e43-4146-887d-449edd6757ab","ios":"levelo://app?vid=c750e755-6e43-4146-887d-449edd6757ab"},"vehicle_type_id":"4","last_reported":1743937628,"current_range_meters":6000,"station_id":"ce4bhbp2rcd13ifvqesg","pricing_plan_id":"cebpf4jnsgd1na2vs0mg"},{"bike_id":"fb7a6658-65a4-4af9-acc1-679ce624548f","system_id":"levelo_inurba_marseille","lat":43.26155,"lon":5.40447,"is_reserved":false,"is_disabled":false,"rental_uris":{"android":"levelo://app?vid=fb7a6658-65a4-4af9-acc1-679ce624548f","ios":"levelo://app?vid=fb7a6658-65a4-4af9-acc1-679ce624548f"},"vehicle_type_id":"4","last_reported":1743937628,"current_range_meters":6400,"station_id":"ce4bhmh2rcd13ifvqgmg","pricing_plan_id":"cebpf4jnsgd1na2vs0mg"},{"bike_id":"eb79d1f9-7c91-4ea2-b5f8-796189743e1a","system_id":"levelo_inurba_marseille","lat":43.33717,"lon":5.39174,"is_reserved":false,"is_disabled":false,"rental_uris":{"android":"levelo://app?vid=eb79d1f9-7c91-4ea2-b5f8-796189743e1a","ios":"levelo://app?vid=eb79d1f9-7c91-4ea2-b5f8-796189743e1a"},"vehicle_type_id":"4","last_reported":1743937628,"current_range_meters":6400,"station_id":"ce4bhr92rcd13ifvqhsg","pricing_plan_id":"cebpf4jnsgd1na2vs0mg"},{"bike_id":"78e4fdce-aa72-4f5c-8312-46649dab0d0a","system_id":"levelo_inurba_marseille","lat":43.29993,"lon":5.38516,"is_reserved":false,"is_disabled":false,"rental_uris":{"android":"levelo://app?vid=78e4fdce-aa72-4f5c-8312-46649dab0d0a","ios":"levelo://app?vid=78e4fdce-aa72-4f5c-8312-46649dab0d0a"},"vehicle_type_id":"4","last_reported":1743937628,"current_range_meters":6400,"station_id":"ce4bgj92rcd13ifvqbd0","pricing_plan_id":"cebpf4jnsgd1na2vs0mg"},{"bike_id":"cc2d744b-eb42-4c4a-add2-a3ffee668a62","system_id":"levelo_inurba_marseille","lat":43.285123,"lon":5.38498,"is_reserved":false,"is_disabled":false,"rental_uris":{"android":"levelo://app?vid=cc2d744b-eb42-4c4a-add2-a3ffee668a62","ios":"levelo://app?vid=cc2d744b-eb42-4c4a-add2-a3ffee668a62"},"vehicle_type_id":"4","last_reported":1743937628,"current_range_meters":8000,"station_id":"ce4bh8p2rcd13ifvqeb0","pricing_plan_id":"cebpf4jnsgd1na2vs0mg"},{"bike_id":"6dd424a7-e86a-4bd0-995e-513df8232cfb","system_id":"levelo_inurba_marseille","lat":43.28462,"lon":5.35888,"is_reserved":false,"is_disabled":false,"rental_uris":{"android":"levelo://app?vid=6dd424a7-e86a-4bd0-995e-513df8232cfb","ios":"levelo://app?vid=6dd424a7-e86a-4bd0-995e-513df8232cfb"},"vehicle_type_id":"4","last_reported":1743937628,"current_range_meters":6000,"station_id":"ce4bhah2rcd13ifvqei0","pricing_plan_id":"cebpf4jnsgd1na2vs0mg"},{"bike_id":"34bc9d21-bd2c-447e-a2c3-e9ba7bc60e82","system_id":"levelo_inurba_marseille","lat":43.26213,"lon":5.37438,"is_reserved":false,"is_disabled":false,"rental_uris":{"android":"levelo://app?vid=34bc9d21-bd2c-447e-a2c3-e9ba7bc60e82","ios":"levelo://app?vid=34bc9d21-bd2c-447e-a2c3-e9ba7bc60e82"},"vehicle_type_id":"4","last_reported":1743937628,"current_range_meters":6400,"station_id":"ce4bhgp2rcd13ifvqfc0","pricing_plan_id":"cebpf4jnsgd1na2vs0mg"},{"bike_id":"45e8eb92-adf7-416c-b33e-6edb1bafe48a","system_id":"levelo_inurba_marseille","lat":43.27812,"lon":5.40715,"is_reserved":false,"is_disabled":false,"rental_uris":{"android":"levelo://app?vid=45e8eb92-adf7-416c-b33e-6edb1bafe48a","ios":"levelo://app?vid=45e8eb92-adf7-416c-b33e-6edb1bafe48a"},"vehicle_type_id":"4","last_reported":1743937628,"current_range_meters":6800,"station_id":"ce4bhnh2rcd13ifvqgtg","pricing_plan_id":"cebpf4jnsgd1na2vs0mg"},{"bike_id":"da2c0523-95d2-4536-9674-1400e7cb2212","system_id":"levelo_inurba_marseille","lat":43.24178,"lon":5.39718,"is_reserved":false,"is_disabled":false,"rental_uris":{"android":"levelo://app?vid=da2c0523-95d2-4536-9674-1400e7cb2212","ios":"levelo://app?vid=da2c0523-95d2-4536-9674-1400e7cb2212"},"vehicle_type_id":"4","last_reported":1743937628,"current_range_meters":6800,"station_id":"ce4bhn12rcd13ifvqgpg","pricing_plan_id":"cebpf4jnsgd1na2vs0mg"},{"bike_id":"3f556349-2e14-40ec-96ca-a31083969b14","system_id":"levelo_inurba_marseille","lat":43.28417,"lon":5.34992,"is_reserved":false,"is_disabled":false,"rental_uris":{"android":"levelo://app?vid=3f556349-2e14-40ec-96ca-a31083969b14","ios":"levelo://app?vid=3f556349-2e14-40ec-96ca-a31083969b14"},"vehicle_type_id":"4","last_reported":1743937628,"current_range_meters":6800,"station_id":"ce4bhbh2rcd13ifvqepg","pricing_plan_id":"cebpf4jnsgd1na2vs0mg"},{"bike_id":"2244e016-3e47-49a7-9667-a076cc0d1855","system_id":"levelo_inurba_marseille","lat":43.27824,"lon":5.40711,"is_reserved":false,"is_disabled":false,"rental_uris":{"android":"levelo://app?vid=2244e016-3e47-49a7-9667-a076cc0d1855","ios":"levelo://app?vid=2244e016-3e47-49a7-9667-a076cc0d1855"},"vehicle_type_id":"4","last_reported":1743937628,"current_range_meters":6800,"station_id":"ce4bhnh2rcd13ifvqgtg","pricing_plan_id":"cebpf4jnsgd1na2vs0mg"},{"bike_id":"4c56a531-a775-4390-9c58-c654fe4a9a8c","system_id":"levelo_inurba_marseille","lat":43.23149,"lon":5.43712,"is_reserved":false,"is_disabled":false,"rental_uris":{"android":"levelo://app?vid=4c56a531-a775-4390-9c58-c654fe4a9a8c","ios":"levelo://app?vid=4c56a531-a775-4390-9c58-c654fe4a9a8c"},"vehicle_type_id":"4","last_reported":1743937628,"current_range_meters":6800,"station_id":"ce4bhmp2rcd13ifvqgog","pricing_plan_id":"cebpf4jnsgd1na2vs0mg"},{"bike_id":"d0a10f6f-b535-48bd-8067-86f19477a3ea","system_id":"levelo_inurba_marseille","lat":43.24649,"lon":5.38908,"is_reserved":false,"is_disabled":false,"rental_uris":{"android":"levelo://app?vid=d0a10f6f-b535-48bd-8067-86f19477a3ea","ios":"levelo://app?vid=d0a10f6f-b535-48bd-8067-86f19477a3ea"},"vehicle_type_id":"4","last_reported":1743937628,"current_range_meters":6800,"station_id":"ce4bhg12rcd13ifvqf60","pricing_plan_id":"cebpf4jnsgd1na2vs0mg"},{"bike_id":"1499110b-2dac-43d9-8fb6-7c5af74cb757","system_id":"levelo_inurba_marseille","lat":43.26212,"lon":5.37435,"is_reserved":false,"is_disabled":false,"rental_uris":{"android":"levelo://app?vid=1499110b-2dac-43d9-8fb6-7c5af74cb757","ios":"levelo://app?vid=1499110b-2dac-43d9-8fb6-7c5af74cb757"},"vehicle_type_id":"4","last_reported":1743937628,"current_range_meters":6800,"station_id":"ce4bhgp2rcd13ifvqfc0","pricing_plan_id":"cebpf4jnsgd1na2vs0mg"},{"bike_id":"e358e10f-6c19-488e-be75-32a3b14fcb46","system_id":"levelo_inurba_marseille","lat":43.26215,"lon":5.37446,"is_reserved":false,"is_disabled":false,"rental_uris":{"android":"levelo://app?vid=e358e10f-6c19-488e-be75-32a3b14fcb46","ios":"levelo://app?vid=e358e10f-6c19-488e-be75-32a3b14fcb46"},"vehicle_type_id":"4","last_reported":1743937628,"current_range_meters":6800,"station_id":"ce4bhgp2rcd13ifvqfc0","pricing_plan_id":"cebpf4jnsgd1na2vs0mg"},{"bike_id":"94d5708b-6da2-4d4b-bad2-faf8a130a565","system_id":"levelo_inurba_marseille","lat":43.25505,"lon":5.37651,"is_reserved":false,"is_disabled":false,"rental_uris":{"android":"levelo://app?vid=94d5708b-6da2-4d4b-bad2-faf8a130a565","ios":"levelo://app?vid=94d5708b-6da2-4d4b-bad2-faf8a130a565"},"vehicle_type_id":"4","last_reported":1743937628,"current_range_meters":7200,"station_id":"ce4bhh12rcd13ifvqff0","pricing_plan_id":"cebpf4jnsgd1na2vs0mg"},{"bike_id":"597e3cb0-7bf1-4c5c-814c-bff699977597","system_id":"levelo_inurba_marseille","lat":43.33163,"lon":5.38165,"is_reserved":false,"is_disabled":false,"rental_uris":{"android":"levelo://app?vid=597e3cb0-7bf1-4c5c-814c-bff699977597","ios":"levelo://app?vid=597e3cb0-7bf1-4c5c-814c-bff699977597"},"vehicle_type_id":"4","last_reported":1743937628,"current_range_meters":7200,"station_id":"","pricing_plan_id":"cebpf4jnsgd1na2vs0mg"},{"bike_id":"8b6dd355-a197-4928-adf9-433947a39421","system_id":"levelo_inurba_marseille","lat":43.26212,"lon":5.37445,"is_reserved":false,"is_disabled":false,"rental_uris":{"android":"levelo://app?vid=8b6dd355-a197-4928-adf9-433947a39421","ios":"levelo://app?vid=8b6dd355-a197-4928-adf9-433947a39421"},"vehicle_type_id":"4","last_reported":1743937628,"current_range_meters":7200,"station_id":"ce4bhgp2rcd13ifvqfc0","pricing_plan_id":"cebpf4jnsgd1na2vs0mg"},{"bike_id":"53bc376f-e4d1-4ba2-b652-37ab1ceb6614","system_id":"levelo_inurba_marseille","lat":43.27372,"lon":5.36252,"is_reserved":false,"is_disabled":false,"rental_uris":{"android":"levelo://app?vid=53bc376f-e4d1-4ba2-b652-37ab1ceb6614","ios":"levelo://app?vid=53bc376f-e4d1-4ba2-b652-37ab1ceb6614"},"vehicle_type_id":"4","last_reported":1743937628,"current_range_meters":7200,"station_id":"ce4bhbh2rcd13ifvqeo0","pricing_plan_id":"cebpf4jnsgd1na2vs0mg"},{"bike_id":"9378cab7-1ef7-47d6-af28-c6473192be1a","system_id":"levelo_inurba_marseille","lat":43.311814,"lon":5.407721,"is_reserved":false,"is_disabled":false,"rental_uris":{"android":"levelo://app?vid=9378cab7-1ef7-47d6-af28-c6473192be1a","ios":"levelo://app?vid=9378cab7-1ef7-47d6-af28-c6473192be1a"},"vehicle_type_id":"4","last_reported":1743937628,"current_range_meters":7200,"station_id":"","pricing_plan_id":"cebpf4jnsgd1na2vs0mg"},{"bike_id":"013e580e-e391-4b96-9aed-5f0527e81f77","system_id":"levelo_inurba_marseille","lat":43.23961,"lon":5.36627,"is_reserved":false,"is_disabled":false,"rental_uris":{"android":"levelo://app?vid=013e580e-e391-4b96-9aed-5f0527e81f77","ios":"levelo://app?vid=013e580e-e391-4b96-9aed-5f0527e81f77"},"vehicle_type_id":"4","last_reported":1743937628,"current_range_meters":7200,"station_id":"ce4bhi12rcd13ifvqfp0","pricing_plan_id":"cebpf4jnsgd1na2vs0mg"},{"bike_id":"2e4d7bbf-cca2-492c-9e7d-d7532b294a63","system_id":"levelo_inurba_marseille","lat":43.27373,"lon":5.36263,"is_reserved":false,"is_disabled":false,"rental_uris":{"android":"levelo://app?vid=2e4d7bbf-cca2-492c-9e7d-d7532b294a63","ios":"levelo://app?vid=2e4d7bbf-cca2-492c-9e7d-d7532b294a63"},"vehicle_type_id":"4","last_reported":1743937628,"current_range_meters":7200,"station_id":"ce4bhbh2rcd13ifvqeo0","pricing_plan_id":"cebpf4jnsgd1na2vs0mg"},{"bike_id":"e2d4b866-18da-4a35-8f67-21395f587d0b","system_id":"levelo_inurba_marseille","lat":43.30379,"lon":5.42494,"is_reserved":false,"is_disabled":false,"rental_uris":{"android":"levelo://app?vid=e2d4b866-18da-4a35-8f67-21395f587d0b","ios":"levelo://app?vid=e2d4b866-18da-4a35-8f67-21395f587d0b"},"vehicle_type_id":"4","last_reported":1743937628,"current_range_meters":7200,"station_id":"ce4bhoh2rcd13ifvqh6g","pricing_plan_id":"cebpf4jnsgd1na2vs0mg"},{"bike_id":"30b57730-cb66-4122-bd93-7dabcaba84e7","system_id":"levelo_inurba_marseille","lat":43.24906,"lon":5.40684,"is_reserved":false,"is_disabled":false,"rental_uris":{"android":"levelo://app?vid=30b57730-cb66-4122-bd93-7dabcaba84e7","ios":"levelo://app?vid=30b57730-cb66-4122-bd93-7dabcaba84e7"},"vehicle_type_id":"4","last_reported":1743937628,"current_range_meters":7200,"station_id":"","pricing_plan_id":"cebpf4jnsgd1na2vs0mg"},{"bike_id":"25cac0ac-e925-4256-90b0-fda8e32689e7","system_id":"levelo_inurba_marseille","lat":43.21192,"lon":5.35087,"is_reserved":false,"is_disabled":false,"rental_uris":{"android":"levelo://app?vid=25cac0ac-e925-4256-90b0-fda8e32689e7","ios":"levelo://app?vid=25cac0ac-e925-4256-90b0-fda8e32689e7"},"vehicle_type_id":"4","last_reported":1743937628,"current_range_meters":7200,"station_id":"st_cvj6sg6p6f1abm77japg","pricing_plan_id":"cebpf4jnsgd1na2vs0mg"},{"bike_id":"db29433a-c7f6-40d6-b0e1-3a1f0abf15ab","system_id":"levelo_inurba_marseille","lat":43.241712,"lon":5.364041,"is_reserved":false,"is_disabled":true,"rental_uris":{"android":"levelo://app?vid=db29433a-c7f6-40d6-b0e1-3a1f0abf15ab","ios":"levelo://app?vid=db29433a-c7f6-40d6-b0e1-3a1f0abf15ab"},"vehicle_type_id":"4","last_reported":1743937628,"current_range_meters":8000,"station_id":"ce4bh412rcd13ifvqdr0","pricing_plan_id":"cebpf4jnsgd1na2vs0mg"},{"bike_id":"cef17466-4d77-4cfc-94a0-924d6328c8dd","system_id":"levelo_inurba_marseille","lat":43.21751,"lon":5.34605,"is_reserved":false,"is_disabled":false,"rental_uris":{"android":"levelo://app?vid=cef17466-4d77-4cfc-94a0-924d6328c8dd","ios":"levelo://app?vid=cef17466-4d77-4cfc-94a0-924d6328c8dd"},"vehicle_type_id":"4","last_reported":1743937628,"current_range_meters":8000,"station_id":"st_cvj6r9ubvosntc0bgbag","pricing_plan_id":"cebpf4jnsgd1na2vs0mg"},{"bike_id":"fdfd01fc-093d-4c48-8c80-06fe1b4633e3","system_id":"levelo_inurba_marseille","lat":43.29259,"lon":5.38429,"is_reserved":false,"is_disabled":true,"rental_uris":{"android":"levelo://app?vid=fdfd01fc-093d-4c48-8c80-06fe1b4633e3","ios":"levelo://app?vid=fdfd01fc-093d-4c48-8c80-06fe1b4633e3"},"vehicle_type_id":"4","last_reported":1743937628,"current_range_meters":8000,"station_id":"ce4bh692rcd13ifvqea0","pricing_plan_id":"cebpf4jnsgd1na2vs0mg"},{"bike_id":"610c568a-218c-4dae-aa02-3dd38966684c","system_id":"levelo_inurba_marseille","lat":43.21193,"lon":5.35074,"is_reserved":false,"is_disabled":false,"rental_uris":{"android":"levelo://app?vid=610c568a-218c-4dae-aa02-3dd38966684c","ios":"levelo://app?vid=610c568a-218c-4dae-aa02-3dd38966684c"},"vehicle_type_id":"4","last_reported":1743937628,"current_range_meters":8000,"station_id":"","pricing_plan_id":"cebpf4jnsgd1na2vs0mg"},{"bike_id":"267eeb16-6453-4fb7-8038-3b408a6bb427","system_id":"levelo_inurba_marseille","lat":43.314321,"lon":5.369956,"is_reserved":false,"is_disabled":false,"rental_uris":{"android":"levelo://app?vid=267eeb16-6453-4fb7-8038-3b408a6bb427","ios":"levelo://app?vid=267eeb16-6453-4fb7-8038-3b408a6bb427"},"vehicle_type_id":"4","last_reported":1743937628,"current_range_meters":8000,"station_id":"","pricing_plan_id":"cebpf4jnsgd1na2vs0mg"},{"bike_id":"b7a6d371-4cea-45c6-b168-85005dec8f56","system_id":"levelo_inurba_marseille","lat":43.31344,"lon":5.39679,"is_reserved":false,"is_disabled":false,"rental_uris":{"android":"levelo://app?vid=b7a6d371-4cea-45c6-b168-85005dec8f56","ios":"levelo://app?vid=b7a6d371-4cea-45c6-b168-85005dec8f56"},"vehicle_type_id":"4","last_reported":1743937628,"current_range_meters":8000,"station_id":"ce4bgvp2rcd13ifvqcu0","pricing_plan_id":"cebpf4jnsgd1na2vs0mg"},{"bike_id":"1d787b89-5820-491c-a68f-894f08afc5e3","system_id":"levelo_inurba_marseille","lat":43.24389,"lon":5.37055,"is_reserved":false,"is_disabled":false,"rental_uris":{"android":"levelo://app?vid=1d787b89-5820-491c-a68f-894f08afc5e3","ios":"levelo://app?vid=1d787b89-5820-491c-a68f-894f08afc5e3"},"vehicle_type_id":"4","last_reported":1743937628,"current_range_meters":8000,"station_id":"ce4bhhh2rcd13ifvqfk0","pricing_plan_id":"cebpf4jnsgd1na2vs0mg"},{"bike_id":"c12b6a1f-085a-413f-a6ce-680e9afe7fd1","system_id":"levelo_inurba_marseille","lat":43.29783,"lon":5.38093,"is_reserved":false,"is_disabled":true,"rental_uris":{"android":"levelo://app?vid=c12b6a1f-085a-413f-a6ce-680e9afe7fd1","ios":"levelo://app?vid=c12b6a1f-085a-413f-a6ce-680e9afe7fd1"},"vehicle_type_id":"4","last_reported":1743937628,"current_range_meters":8000,"station_id":"ce4bgip2rcd13ifvqbb0","pricing_plan_id":"cebpf4jnsgd1na2vs0mg"},{"bike_id":"0285caab-1493-4e0b-b3ba-3eb4cd23dcb3","system_id":"levelo_inurba_marseille","lat":43.23982,"lon":5.36616,"is_reserved":false,"is_disabled":false,"rental_uris":{"android":"levelo://app?vid=0285caab-1493-4e0b-b3ba-3eb4cd23dcb3","ios":"levelo://app?vid=0285caab-1493-4e0b-b3ba-3eb4cd23dcb3"},"vehicle_type_id":"4","last_reported":1743937628,"current_range_meters":8000,"station_id":"ce4bhi12rcd13ifvqfp0","pricing_plan_id":"cebpf4jnsgd1na2vs0mg"},{"bike_id":"d038f6bc-94ee-4332-b7fd-8b03da226fc5","system_id":"levelo_inurba_marseille","lat":43.22933,"lon":5.35382,"is_reserved":false,"is_disabled":false,"rental_uris":{"android":"levelo://app?vid=d038f6bc-94ee-4332-b7fd-8b03da226fc5","ios":"levelo://app?vid=d038f6bc-94ee-4332-b7fd-8b03da226fc5"},"vehicle_type_id":"4","last_reported":1743937628,"current_range_meters":8000,"station_id":"cpo3532slgdg3j2ikp40","pricing_plan_id":"cebpf4jnsgd1na2vs0mg"},{"bike_id":"5b7b7b74-cba2-41ff-b62e-3bd12324b082","system_id":"levelo_inurba_marseille","lat":43.21765,"lon":5.34592,"is_reserved":false,"is_disabled":false,"rental_uris":{"android":"levelo://app?vid=5b7b7b74-cba2-41ff-b62e-3bd12324b082","ios":"levelo://app?vid=5b7b7b74-cba2-41ff-b62e-3bd12324b082"},"vehicle_type_id":"4","last_reported":1743937628,"current_range_meters":8000,"station_id":"st_cvj6r9ubvosntc0bgbag","pricing_plan_id":"cebpf4jnsgd1na2vs0mg"},{"bike_id":"5519561e-6a78-4e38-8de4-84b7f76a38b0","system_id":"levelo_inurba_marseille","lat":43.3066,"lon":5.39969,"is_reserved":false,"is_disabled":true,"rental_uris":{"android":"levelo://app?vid=5519561e-6a78-4e38-8de4-84b7f76a38b0","ios":"levelo://app?vid=5519561e-6a78-4e38-8de4-84b7f76a38b0"},"vehicle_type_id":"4","last_reported":1743937628,"current_range_meters":8000,"station_id":"ce4bh112rcd13ifvqda0","pricing_plan_id":"cebpf4jnsgd1na2vs0mg"},{"bike_id":"54d91ec5-b729-4d2a-b57c-1c6319681b53","system_id":"levelo_inurba_marseille","lat":43.28271,"lon":5.35084,"is_reserved":false,"is_disabled":false,"rental_uris":{"android":"levelo://app?vid=54d91ec5-b729-4d2a-b57c-1c6319681b53","ios":"levelo://app?vid=54d91ec5-b729-4d2a-b57c-1c6319681b53"},"vehicle_type_id":"4","last_reported":1743937628,"current_range_meters":8000,"station_id":"ce4bhbp2rcd13ifvqerg","pricing_plan_id":"cebpf4jnsgd1na2vs0mg"},{"bike_id":"02779b29-7a5d-439e-936a-d77d08eab911","system_id":"levelo_inurba_marseille","lat":43.24994,"lon":5.38927,"is_reserved":false,"is_disabled":false,"rental_uris":{"android":"levelo://app?vid=02779b29-7a5d-439e-936a-d77d08eab911","ios":"levelo://app?vid=02779b29-7a5d-439e-936a-d77d08eab911"},"vehicle_type_id":"4","last_reported":1743937628,"current_range_meters":8000,"station_id":"ce4bhgp2rcd13ifvqfd0","pricing_plan_id":"cebpf4jnsgd1na2vs0mg"},{"bike_id":"36752c33-0b8f-49fa-9c15-8751151820d7","system_id":"levelo_inurba_marseille","lat":43.2707,"lon":5.42282,"is_reserved":false,"is_disabled":false,"rental_uris":{"android":"levelo://app?vid=36752c33-0b8f-49fa-9c15-8751151820d7","ios":"levelo://app?vid=36752c33-0b8f-49fa-9c15-8751151820d7"},"vehicle_type_id":"4","last_reported":1743937628,"current_range_meters":8000,"station_id":"ce4bhk92rcd13ifvqgb0","pricing_plan_id":"cebpf4jnsgd1na2vs0mg"},{"bike_id":"288267db-bf40-4b2f-98cd-1abc9da268aa","system_id":"levelo_inurba_marseille","lat":43.25501,"lon":5.37646,"is_reserved":false,"is_disabled":false,"rental_uris":{"android":"levelo://app?vid=288267db-bf40-4b2f-98cd-1abc9da268aa","ios":"levelo://app?vid=288267db-bf40-4b2f-98cd-1abc9da268aa"},"vehicle_type_id":"4","last_reported":1743937628,"current_range_meters":8400,"station_id":"ce4bhh12rcd13ifvqff0","pricing_plan_id":"cebpf4jnsgd1na2vs0mg"},{"bike_id":"301b6729-c45c-4915-8ef6-dadde3959d3d","system_id":"levelo_inurba_marseille","lat":43.26556,"lon":5.39011,"is_reserved":false,"is_disabled":true,"rental_uris":{"android":"levelo://app?vid=301b6729-c45c-4915-8ef6-dadde3959d3d","ios":"levelo://app?vid=301b6729-c45c-4915-8ef6-dadde3959d3d"},"vehicle_type_id":"4","last_reported":1743937628,"current_range_meters":8400,"station_id":"ce4bhe12rcd13ifvqf30","pricing_plan_id":"cebpf4jnsgd1na2vs0mg"},{"bike_id":"43718d37-b132-4a2d-9430-23101833a89e","system_id":"levelo_inurba_marseille","lat":43.30855,"lon":5.38053,"is_reserved":false,"is_disabled":false,"rental_uris":{"android":"levelo://app?vid=43718d37-b132-4a2d-9430-23101833a89e","ios":"levelo://app?vid=43718d37-b132-4a2d-9430-23101833a89e"},"vehicle_type_id":"4","last_reported":1743937628,"current_range_meters":8400,"station_id":"","pricing_plan_id":"cebpf4jnsgd1na2vs0mg"},{"bike_id":"2f324fac-0a24-495d-b2d7-b11fc91f1f5c","system_id":"levelo_inurba_marseille","lat":43.31332,"lon":5.39692,"is_reserved":false,"is_disabled":false,"rental_uris":{"android":"levelo://app?vid=2f324fac-0a24-495d-b2d7-b11fc91f1f5c","ios":"levelo://app?vid=2f324fac-0a24-495d-b2d7-b11fc91f1f5c"},"vehicle_type_id":"4","last_reported":1743937628,"current_range_meters":8000,"station_id":"ce4bgvp2rcd13ifvqcu0","pricing_plan_id":"cebpf4jnsgd1na2vs0mg"},{"bike_id":"4c25fb76-cd0e-4544-8837-d2585ee48375","system_id":"levelo_inurba_marseille","lat":43.298924,"lon":5.436683,"is_reserved":false,"is_disabled":false,"rental_uris":{"android":"levelo://app?vid=4c25fb76-cd0e-4544-8837-d2585ee48375","ios":"levelo://app?vid=4c25fb76-cd0e-4544-8837-d2585ee48375"},"vehicle_type_id":"4","last_reported":1743937628,"current_range_meters":8400,"station_id":"ce4bhpp2rcd13ifvqhfg","pricing_plan_id":"cebpf4jnsgd1na2vs0mg"},{"bike_id":"e5a7e6b1-2168-407f-8739-469989498272","system_id":"levelo_inurba_marseille","lat":43.31715,"lon":5.43711,"is_reserved":false,"is_disabled":false,"rental_uris":{"android":"levelo://app?vid=e5a7e6b1-2168-407f-8739-469989498272","ios":"levelo://app?vid=e5a7e6b1-2168-407f-8739-469989498272"},"vehicle_type_id":"4","last_reported":1743937628,"current_range_meters":8400,"station_id":"ce4bhp92rcd13ifvqhcg","pricing_plan_id":"cebpf4jnsgd1na2vs0mg"},{"bike_id":"72ab5ae4-c45b-4b12-928d-904d18062df0","system_id":"levelo_inurba_marseille","lat":43.27375,"lon":5.36259,"is_reserved":false,"is_disabled":false,"rental_uris":{"android":"levelo://app?vid=72ab5ae4-c45b-4b12-928d-904d18062df0","ios":"levelo://app?vid=72ab5ae4-c45b-4b12-928d-904d18062df0"},"vehicle_type_id":"4","last_reported":1743937628,"current_range_meters":8400,"station_id":"ce4bhbh2rcd13ifvqeo0","pricing_plan_id":"cebpf4jnsgd1na2vs0mg"},{"bike_id":"7a935817-47e2-4cb3-8324-a647fdf3a140","system_id":"levelo_inurba_marseille","lat":43.29539,"lon":5.38559,"is_reserved":false,"is_disabled":true,"rental_uris":{"android":"levelo://app?vid=7a935817-47e2-4cb3-8324-a647fdf3a140","ios":"levelo://app?vid=7a935817-47e2-4cb3-8324-a647fdf3a140"},"vehicle_type_id":"4","last_reported":1743937628,"current_range_meters":8400,"station_id":"ce4bgih2rcd13ifvqba0","pricing_plan_id":"cebpf4jnsgd1na2vs0mg"},{"bike_id":"45b4008f-54c1-4d17-8bbf-96f80d4fa84f","system_id":"levelo_inurba_marseille","lat":43.32098,"lon":5.36823,"is_reserved":false,"is_disabled":false,"rental_uris":{"android":"levelo://app?vid=45b4008f-54c1-4d17-8bbf-96f80d4fa84f","ios":"levelo://app?vid=45b4008f-54c1-4d17-8bbf-96f80d4fa84f"},"vehicle_type_id":"4","last_reported":1743937628,"current_range_meters":8400,"station_id":"ce4bhrh2rcd13ifvqhug","pricing_plan_id":"cebpf4jnsgd1na2vs0mg"},{"bike_id":"bde8b6f1-b0e6-4612-b853-c2f682209dd3","system_id":"levelo_inurba_marseille","lat":43.25821,"lon":5.39434,"is_reserved":false,"is_disabled":false,"rental_uris":{"android":"levelo://app?vid=bde8b6f1-b0e6-4612-b853-c2f682209dd3","ios":"levelo://app?vid=bde8b6f1-b0e6-4612-b853-c2f682209dd3"},"vehicle_type_id":"4","last_reported":1743937628,"current_range_meters":8800,"station_id":"ce4bhip2rcd13ifvqft0","pricing_plan_id":"cebpf4jnsgd1na2vs0mg"},{"bike_id":"619bed52-6ad3-4816-b72f-bebe3179f299","system_id":"levelo_inurba_marseille","lat":43.29707,"lon":5.36604,"is_reserved":false,"is_disabled":true,"rental_uris":{"android":"levelo://app?vid=619bed52-6ad3-4816-b72f-bebe3179f299","ios":"levelo://app?vid=619bed52-6ad3-4816-b72f-bebe3179f299"},"vehicle_type_id":"4","last_reported":1743937628,"current_range_meters":8800,"station_id":"ce4bgn12rcd13ifvqbt0","pricing_plan_id":"cebpf4jnsgd1na2vs0mg"},{"bike_id":"aeaafdce-072b-410b-bb71-bd5216dc505b","system_id":"levelo_inurba_marseille","lat":43.2313,"lon":5.40048,"is_reserved":false,"is_disabled":false,"rental_uris":{"android":"levelo://app?vid=aeaafdce-072b-410b-bb71-bd5216dc505b","ios":"levelo://app?vid=aeaafdce-072b-410b-bb71-bd5216dc505b"},"vehicle_type_id":"4","last_reported":1743937628,"current_range_meters":8800,"station_id":"","pricing_plan_id":"cebpf4jnsgd1na2vs0mg"},{"bike_id":"1d16e172-d477-4a96-8d7d-42ff6a622d2e","system_id":"levelo_inurba_marseille","lat":43.24692,"lon":5.41188,"is_reserved":false,"is_disabled":false,"rental_uris":{"android":"levelo://app?vid=1d16e172-d477-4a96-8d7d-42ff6a622d2e","ios":"levelo://app?vid=1d16e172-d477-4a96-8d7d-42ff6a622d2e"},"vehicle_type_id":"4","last_reported":1743937628,"current_range_meters":8800,"station_id":"","pricing_plan_id":"cebpf4jnsgd1na2vs0mg"},{"bike_id":"b059c917-8031-400c-a661-5fbb963bff9d","system_id":"levelo_inurba_marseille","lat":43.21189,"lon":5.35077,"is_reserved":false,"is_disabled":true,"rental_uris":{"android":"levelo://app?vid=b059c917-8031-400c-a661-5fbb963bff9d","ios":"levelo://app?vid=b059c917-8031-400c-a661-5fbb963bff9d"},"vehicle_type_id":"4","last_reported":1743937628,"current_range_meters":8800,"station_id":"ce4bhc92rcd13ifvqetg","pricing_plan_id":"cebpf4jnsgd1na2vs0mg"},{"bike_id":"b70cced5-dc6e-4ac4-aef4-4cfbee9a2e11","system_id":"levelo_inurba_marseille","lat":43.29603,"lon":5.37718,"is_reserved":false,"is_disabled":true,"rental_uris":{"android":"levelo://app?vid=b70cced5-dc6e-4ac4-aef4-4cfbee9a2e11","ios":"levelo://app?vid=b70cced5-dc6e-4ac4-aef4-4cfbee9a2e11"},"vehicle_type_id":"4","last_reported":1743937628,"current_range_meters":8800,"station_id":"ce4bgi92rcd13ifvqb90","pricing_plan_id":"cebpf4jnsgd1na2vs0mg"},{"bike_id":"9e870f17-7734-420d-bcba-c8fe8efed10d","system_id":"levelo_inurba_marseille","lat":43.284125,"lon":5.349905,"is_reserved":false,"is_disabled":false,"rental_uris":{"android":"levelo://app?vid=9e870f17-7734-420d-bcba-c8fe8efed10d","ios":"levelo://app?vid=9e870f17-7734-420d-bcba-c8fe8efed10d"},"vehicle_type_id":"4","last_reported":1743937628,"current_range_meters":8800,"station_id":"ce4bhbh2rcd13ifvqepg","pricing_plan_id":"cebpf4jnsgd1na2vs0mg"},{"bike_id":"b3f596b6-6162-46ee-bd5f-0d649a70b25a","system_id":"levelo_inurba_marseille","lat":43.26558,"lon":5.37283,"is_reserved":false,"is_disabled":false,"rental_uris":{"android":"levelo://app?vid=b3f596b6-6162-46ee-bd5f-0d649a70b25a","ios":"levelo://app?vid=b3f596b6-6162-46ee-bd5f-0d649a70b25a"},"vehicle_type_id":"4","last_reported":1743937628,"current_range_meters":8800,"station_id":"ce4bhg12rcd13ifvqf70","pricing_plan_id":"cebpf4jnsgd1na2vs0mg"},{"bike_id":"1622461e-25a5-4ec6-9188-643400d8cf0e","system_id":"levelo_inurba_marseille","lat":43.3078,"lon":5.43535,"is_reserved":false,"is_disabled":false,"rental_uris":{"android":"levelo://app?vid=1622461e-25a5-4ec6-9188-643400d8cf0e","ios":"levelo://app?vid=1622461e-25a5-4ec6-9188-643400d8cf0e"},"vehicle_type_id":"4","last_reported":1743937628,"current_range_meters":9200,"station_id":"ce4bhph2rcd13ifvqheg","pricing_plan_id":"cebpf4jnsgd1na2vs0mg"},{"bike_id":"e88afb4e-368c-47c8-b157-e76449c1f186","system_id":"levelo_inurba_marseille","lat":43.32484,"lon":5.365553,"is_reserved":false,"is_disabled":false,"rental_uris":{"android":"levelo://app?vid=e88afb4e-368c-47c8-b157-e76449c1f186","ios":"levelo://app?vid=e88afb4e-368c-47c8-b157-e76449c1f186"},"vehicle_type_id":"4","last_reported":1743937628,"current_range_meters":9200,"station_id":"ce4bhs12rcd13ifvqhvg","pricing_plan_id":"cebpf4jnsgd1na2vs0mg"},{"bike_id":"5a538f26-3ff2-47ba-b8a7-928bd0afc9c2","system_id":"levelo_inurba_marseille","lat":43.28272,"lon":5.35057,"is_reserved":false,"is_disabled":false,"rental_uris":{"android":"levelo://app?vid=5a538f26-3ff2-47ba-b8a7-928bd0afc9c2","ios":"levelo://app?vid=5a538f26-3ff2-47ba-b8a7-928bd0afc9c2"},"vehicle_type_id":"4","last_reported":1743937628,"current_range_meters":9200,"station_id":"ce4bhbp2rcd13ifvqerg","pricing_plan_id":"cebpf4jnsgd1na2vs0mg"},{"bike_id":"2532add1-ba2e-46af-92de-0d6b5f935e06","system_id":"levelo_inurba_marseille","lat":43.282451,"lon":5.350658,"is_reserved":false,"is_disabled":false,"rental_uris":{"android":"levelo://app?vid=2532add1-ba2e-46af-92de-0d6b5f935e06","ios":"levelo://app?vid=2532add1-ba2e-46af-92de-0d6b5f935e06"},"vehicle_type_id":"4","last_reported":1743937628,"current_range_meters":9200,"station_id":"ce4bhch2rcd13ifvqeug","pricing_plan_id":"cebpf4jnsgd1na2vs0mg"},{"bike_id":"b0c91071-e0e1-4b9f-8897-848ff5955cb4","system_id":"levelo_inurba_marseille","lat":43.24389,"lon":5.37068,"is_reserved":false,"is_disabled":false,"rental_uris":{"android":"levelo://app?vid=b0c91071-e0e1-4b9f-8897-848ff5955cb4","ios":"levelo://app?vid=b0c91071-e0e1-4b9f-8897-848ff5955cb4"},"vehicle_type_id":"4","last_reported":1743937628,"current_range_meters":9200,"station_id":"ce4bhhh2rcd13ifvqfk0","pricing_plan_id":"cebpf4jnsgd1na2vs0mg"},{"bike_id":"d45e12a1-e0b1-434a-9664-ecd990299001","system_id":"levelo_inurba_marseille","lat":43.27617,"lon":5.36102,"is_reserved":false,"is_disabled":false,"rental_uris":{"android":"levelo://app?vid=d45e12a1-e0b1-434a-9664-ecd990299001","ios":"levelo://app?vid=d45e12a1-e0b1-434a-9664-ecd990299001"},"vehicle_type_id":"4","last_reported":1743937628,"current_range_meters":9200,"station_id":"ce4bgj92rcd13ifvqbe0","pricing_plan_id":"cebpf4jnsgd1na2vs0mg"},{"bike_id":"5c6d8bc8-fb82-420d-beab-bbe8314d251f","system_id":"levelo_inurba_marseille","lat":43.28273,"lon":5.35072,"is_reserved":false,"is_disabled":false,"rental_uris":{"android":"levelo://app?vid=5c6d8bc8-fb82-420d-beab-bbe8314d251f","ios":"levelo://app?vid=5c6d8bc8-fb82-420d-beab-bbe8314d251f"},"vehicle_type_id":"4","last_reported":1743937628,"current_range_meters":9200,"station_id":"ce4bhbp2rcd13ifvqerg","pricing_plan_id":"cebpf4jnsgd1na2vs0mg"},{"bike_id":"3a4d8516-6aad-43be-93de-4d6f470df8ab","system_id":"levelo_inurba_marseille","lat":43.281555,"lon":5.426408,"is_reserved":false,"is_disabled":false,"rental_uris":{"android":"levelo://app?vid=3a4d8516-6aad-43be-93de-4d6f470df8ab","ios":"levelo://app?vid=3a4d8516-6aad-43be-93de-4d6f470df8ab"},"vehicle_type_id":"4","last_reported":1743937628,"current_range_meters":9200,"station_id":"ce4bhnh2rcd13ifvqgug","pricing_plan_id":"cebpf4jnsgd1na2vs0mg"},{"bike_id":"02ac6a13-5778-4c84-a653-72d04daf8c9b","system_id":"levelo_inurba_marseille","lat":43.26216,"lon":5.3744,"is_reserved":false,"is_disabled":false,"rental_uris":{"android":"levelo://app?vid=02ac6a13-5778-4c84-a653-72d04daf8c9b","ios":"levelo://app?vid=02ac6a13-5778-4c84-a653-72d04daf8c9b"},"vehicle_type_id":"4","last_reported":1743937628,"current_range_meters":9200,"station_id":"ce4bhgp2rcd13ifvqfc0","pricing_plan_id":"cebpf4jnsgd1na2vs0mg"},{"bike_id":"6b652b17-4709-4398-8896-6b070cee45a3","system_id":"levelo_inurba_marseille","lat":43.31509,"lon":5.38044,"is_reserved":false,"is_disabled":false,"rental_uris":{"android":"levelo://app?vid=6b652b17-4709-4398-8896-6b070cee45a3","ios":"levelo://app?vid=6b652b17-4709-4398-8896-6b070cee45a3"},"vehicle_type_id":"4","last_reported":1743937628,"current_range_meters":9600,"station_id":"ce4bhsp2rcd13ifvqi50","pricing_plan_id":"cebpf4jnsgd1na2vs0mg"},{"bike_id":"9511d52f-3fae-4767-9d38-e40ec6ec27bc","system_id":"levelo_inurba_marseille","lat":43.30136,"lon":5.3878,"is_reserved":false,"is_disabled":false,"rental_uris":{"android":"levelo://app?vid=9511d52f-3fae-4767-9d38-e40ec6ec27bc","ios":"levelo://app?vid=9511d52f-3fae-4767-9d38-e40ec6ec27bc"},"vehicle_type_id":"4","last_reported":1743937628,"current_range_meters":9600,"station_id":"ce4bghh2rcd13ifvqb60","pricing_plan_id":"cebpf4jnsgd1na2vs0mg"},{"bike_id":"1bf28fcd-357a-43a7-b215-31bb2951a59c","system_id":"levelo_inurba_marseille","lat":43.29596,"lon":5.4234,"is_reserved":false,"is_disabled":false,"rental_uris":{"android":"levelo://app?vid=1bf28fcd-357a-43a7-b215-31bb2951a59c","ios":"levelo://app?vid=1bf28fcd-357a-43a7-b215-31bb2951a59c"},"vehicle_type_id":"4","last_reported":1743937628,"current_range_meters":9600,"station_id":"","pricing_plan_id":"cebpf4jnsgd1na2vs0mg"},{"bike_id":"64928ba1-df5f-4bed-a597-6dab5f3f4879","system_id":"levelo_inurba_marseille","lat":43.217463,"lon":5.346034,"is_reserved":false,"is_disabled":false,"rental_uris":{"android":"levelo://app?vid=64928ba1-df5f-4bed-a597-6dab5f3f4879","ios":"levelo://app?vid=64928ba1-df5f-4bed-a597-6dab5f3f4879"},"vehicle_type_id":"4","last_reported":1743937628,"current_range_meters":9600,"station_id":"","pricing_plan_id":"cebpf4jnsgd1na2vs0mg"},{"bike_id":"4f7c2cc0-5ad1-402b-80a6-41908fad589f","system_id":"levelo_inurba_marseille","lat":43.22937,"lon":5.3538,"is_reserved":false,"is_disabled":false,"rental_uris":{"android":"levelo://app?vid=4f7c2cc0-5ad1-402b-80a6-41908fad589f","ios":"levelo://app?vid=4f7c2cc0-5ad1-402b-80a6-41908fad589f"},"vehicle_type_id":"4","last_reported":1743937628,"current_range_meters":9600,"station_id":"cpo3532slgdg3j2ikp40","pricing_plan_id":"cebpf4jnsgd1na2vs0mg"},{"bike_id":"28ff0676-fcea-4037-9515-74beb9cff6fd","system_id":"levelo_inurba_marseille","lat":43.24394,"lon":5.37064,"is_reserved":false,"is_disabled":false,"rental_uris":{"android":"levelo://app?vid=28ff0676-fcea-4037-9515-74beb9cff6fd","ios":"levelo://app?vid=28ff0676-fcea-4037-9515-74beb9cff6fd"},"vehicle_type_id":"4","last_reported":1743937628,"current_range_meters":9600,"station_id":"ce4bhhh2rcd13ifvqfk0","pricing_plan_id":"cebpf4jnsgd1na2vs0mg"},{"bike_id":"45b8dd20-e5f1-4de7-a2b5-67236bd48b66","system_id":"levelo_inurba_marseille","lat":43.25823,"lon":5.39436,"is_reserved":false,"is_disabled":false,"rental_uris":{"android":"levelo://app?vid=45b8dd20-e5f1-4de7-a2b5-67236bd48b66","ios":"levelo://app?vid=45b8dd20-e5f1-4de7-a2b5-67236bd48b66"},"vehicle_type_id":"4","last_reported":1743937628,"current_range_meters":9600,"station_id":"ce4bhip2rcd13ifvqft0","pricing_plan_id":"cebpf4jnsgd1na2vs0mg"},{"bike_id":"21f8acc6-ad6e-4601-b104-7de5e76cb194","system_id":"levelo_inurba_marseille","lat":43.28117,"lon":5.42648,"is_reserved":false,"is_disabled":false,"rental_uris":{"android":"levelo://app?vid=21f8acc6-ad6e-4601-b104-7de5e76cb194","ios":"levelo://app?vid=21f8acc6-ad6e-4601-b104-7de5e76cb194"},"vehicle_type_id":"4","last_reported":1743937628,"current_range_meters":9600,"station_id":"ce4bhnh2rcd13ifvqgug","pricing_plan_id":"cebpf4jnsgd1na2vs0mg"},{"bike_id":"1af7d4de-8d57-4107-9189-d18c5d7cfef7","system_id":"levelo_inurba_marseille","lat":43.21743,"lon":5.346042,"is_reserved":false,"is_disabled":false,"rental_uris":{"android":"levelo://app?vid=1af7d4de-8d57-4107-9189-d18c5d7cfef7","ios":"levelo://app?vid=1af7d4de-8d57-4107-9189-d18c5d7cfef7"},"vehicle_type_id":"4","last_reported":1743937628,"current_range_meters":9600,"station_id":"st_cvj6r9ubvosntc0bgbag","pricing_plan_id":"cebpf4jnsgd1na2vs0mg"},{"bike_id":"8406f094-18bf-4a53-a10d-1fbc93d617b7","system_id":"levelo_inurba_marseille","lat":43.26211,"lon":5.37451,"is_reserved":false,"is_disabled":false,"rental_uris":{"android":"levelo://app?vid=8406f094-18bf-4a53-a10d-1fbc93d617b7","ios":"levelo://app?vid=8406f094-18bf-4a53-a10d-1fbc93d617b7"},"vehicle_type_id":"4","last_reported":1743937628,"current_range_meters":9600,"station_id":"ce4bhgp2rcd13ifvqfc0","pricing_plan_id":"cebpf4jnsgd1na2vs0mg"},{"bike_id":"ac6c36a1-34a5-40c4-8259-2f01ad2e816c","system_id":"levelo_inurba_marseille","lat":43.29789,"lon":5.38102,"is_reserved":false,"is_disabled":false,"rental_uris":{"android":"levelo://app?vid=ac6c36a1-34a5-40c4-8259-2f01ad2e816c","ios":"levelo://app?vid=ac6c36a1-34a5-40c4-8259-2f01ad2e816c"},"vehicle_type_id":"4","last_reported":1743937628,"current_range_meters":10000,"station_id":"ce4bgip2rcd13ifvqbb0","pricing_plan_id":"cebpf4jnsgd1na2vs0mg"},{"bike_id":"9c9e91df-e133-414a-8295-3f6a292805f6","system_id":"levelo_inurba_marseille","lat":43.231864,"lon":5.35566,"is_reserved":false,"is_disabled":true,"rental_uris":{"android":"levelo://app?vid=9c9e91df-e133-414a-8295-3f6a292805f6","ios":"levelo://app?vid=9c9e91df-e133-414a-8295-3f6a292805f6"},"vehicle_type_id":"4","last_reported":1743937628,"current_range_meters":10000,"station_id":"ce4bhu92rcd13ifvqi70","pricing_plan_id":"cebpf4jnsgd1na2vs0mg"},{"bike_id":"1a7c01f2-3cf6-4cba-b0b7-ce692aca6e4c","system_id":"levelo_inurba_marseille","lat":43.25728,"lon":5.41099,"is_reserved":false,"is_disabled":false,"rental_uris":{"android":"levelo://app?vid=1a7c01f2-3cf6-4cba-b0b7-ce692aca6e4c","ios":"levelo://app?vid=1a7c01f2-3cf6-4cba-b0b7-ce692aca6e4c"},"vehicle_type_id":"4","last_reported":1743937628,"current_range_meters":9600,"station_id":"ce4bhkp2rcd13ifvqgd0","pricing_plan_id":"cebpf4jnsgd1na2vs0mg"},{"bike_id":"dcaa303c-c90e-4dbe-a066-83bca5808075","system_id":"levelo_inurba_marseille","lat":43.25581,"lon":5.38236,"is_reserved":false,"is_disabled":false,"rental_uris":{"android":"levelo://app?vid=dcaa303c-c90e-4dbe-a066-83bca5808075","ios":"levelo://app?vid=dcaa303c-c90e-4dbe-a066-83bca5808075"},"vehicle_type_id":"4","last_reported":1743937628,"current_range_meters":10000,"station_id":"ce4bhih2rcd13ifvqfs0","pricing_plan_id":"cebpf4jnsgd1na2vs0mg"},{"bike_id":"883df00d-eee5-468f-9b74-27061ebe6c95","system_id":"levelo_inurba_marseille","lat":43.30881,"lon":5.39656,"is_reserved":false,"is_disabled":false,"rental_uris":{"android":"levelo://app?vid=883df00d-eee5-468f-9b74-27061ebe6c95","ios":"levelo://app?vid=883df00d-eee5-468f-9b74-27061ebe6c95"},"vehicle_type_id":"4","last_reported":1743937628,"current_range_meters":9600,"station_id":"ce4bh012rcd13ifvqcv0","pricing_plan_id":"cebpf4jnsgd1na2vs0mg"},{"bike_id":"b598b6b8-69a3-4491-bd9b-eb0a2b32b0cf","system_id":"levelo_inurba_marseille","lat":43.30999,"lon":5.38071,"is_reserved":false,"is_disabled":false,"rental_uris":{"android":"levelo://app?vid=b598b6b8-69a3-4491-bd9b-eb0a2b32b0cf","ios":"levelo://app?vid=b598b6b8-69a3-4491-bd9b-eb0a2b32b0cf"},"vehicle_type_id":"4","last_reported":1743937628,"current_range_meters":10800,"station_id":"","pricing_plan_id":"cebpf4jnsgd1na2vs0mg"},{"bike_id":"00393ee2-317d-4e98-a30d-fd25773ef49f","system_id":"levelo_inurba_marseille","lat":43.35234,"lon":5.35785,"is_reserved":false,"is_disabled":false,"rental_uris":{"android":"levelo://app?vid=00393ee2-317d-4e98-a30d-fd25773ef49f","ios":"levelo://app?vid=00393ee2-317d-4e98-a30d-fd25773ef49f"},"vehicle_type_id":"4","last_reported":1743937628,"current_range_meters":10800,"station_id":"","pricing_plan_id":"cebpf4jnsgd1na2vs0mg"},{"bike_id":"98514e77-22f5-4e2b-9f65-8efc32d06320","system_id":"levelo_inurba_marseille","lat":43.2512,"lon":5.40312,"is_reserved":false,"is_disabled":false,"rental_uris":{"android":"levelo://app?vid=98514e77-22f5-4e2b-9f65-8efc32d06320","ios":"levelo://app?vid=98514e77-22f5-4e2b-9f65-8efc32d06320"},"vehicle_type_id":"4","last_reported":1743937628,"current_range_meters":10000,"station_id":"ce4bhlh2rcd13ifvqgig","pricing_plan_id":"cebpf4jnsgd1na2vs0mg"},{"bike_id":"b9b7860b-a144-44b3-807b-98b9f8aae364","system_id":"levelo_inurba_marseille","lat":43.28728,"lon":5.3609,"is_reserved":false,"is_disabled":false,"rental_uris":{"android":"levelo://app?vid=b9b7860b-a144-44b3-807b-98b9f8aae364","ios":"levelo://app?vid=b9b7860b-a144-44b3-807b-98b9f8aae364"},"vehicle_type_id":"4","last_reported":1743937628,"current_range_meters":10000,"station_id":"cki0cbj6b192h4jlfktg","pricing_plan_id":"cebpf4jnsgd1na2vs0mg"},{"bike_id":"0db79626-80f8-4250-8bc9-558f5d952fb2","system_id":"levelo_inurba_marseille","lat":43.23158,"lon":5.43706,"is_reserved":false,"is_disabled":false,"rental_uris":{"android":"levelo://app?vid=0db79626-80f8-4250-8bc9-558f5d952fb2","ios":"levelo://app?vid=0db79626-80f8-4250-8bc9-558f5d952fb2"},"vehicle_type_id":"4","last_reported":1743937628,"current_range_meters":10800,"station_id":"ce4bhmp2rcd13ifvqgog","pricing_plan_id":"cebpf4jnsgd1na2vs0mg"},{"bike_id":"d26c9dcb-6d69-463b-8dc7-e44cc145e825","system_id":"levelo_inurba_marseille","lat":43.27808,"lon":5.40707,"is_reserved":false,"is_disabled":false,"rental_uris":{"android":"levelo://app?vid=d26c9dcb-6d69-463b-8dc7-e44cc145e825","ios":"levelo://app?vid=d26c9dcb-6d69-463b-8dc7-e44cc145e825"},"vehicle_type_id":"4","last_reported":1743937628,"current_range_meters":10800,"station_id":"ce4bhnh2rcd13ifvqgtg","pricing_plan_id":"cebpf4jnsgd1na2vs0mg"},{"bike_id":"6023584e-870f-454d-88b0-bf3dc0e21fbe","system_id":"levelo_inurba_marseille","lat":43.24397,"lon":5.37063,"is_reserved":false,"is_disabled":true,"rental_uris":{"android":"levelo://app?vid=6023584e-870f-454d-88b0-bf3dc0e21fbe","ios":"levelo://app?vid=6023584e-870f-454d-88b0-bf3dc0e21fbe"},"vehicle_type_id":"4","last_reported":1743937628,"current_range_meters":10800,"station_id":"ce4bhhh2rcd13ifvqfk0","pricing_plan_id":"cebpf4jnsgd1na2vs0mg"},{"bike_id":"33bf81d2-bcf6-4e68-b9e7-94139225717b","system_id":"levelo_inurba_marseille","lat":43.26027,"lon":5.37547,"is_reserved":false,"is_disabled":false,"rental_uris":{"android":"levelo://app?vid=33bf81d2-bcf6-4e68-b9e7-94139225717b","ios":"levelo://app?vid=33bf81d2-bcf6-4e68-b9e7-94139225717b"},"vehicle_type_id":"4","last_reported":1743937628,"current_range_meters":11200,"station_id":"ce4bhgh2rcd13ifvqfa0","pricing_plan_id":"cebpf4jnsgd1na2vs0mg"},{"bike_id":"abde5d83-9b30-4b2f-8a88-f914ca452329","system_id":"levelo_inurba_marseille","lat":43.3121,"lon":5.38684,"is_reserved":false,"is_disabled":false,"rental_uris":{"android":"levelo://app?vid=abde5d83-9b30-4b2f-8a88-f914ca452329","ios":"levelo://app?vid=abde5d83-9b30-4b2f-8a88-f914ca452329"},"vehicle_type_id":"4","last_reported":1743937628,"current_range_meters":11200,"station_id":"","pricing_plan_id":"cebpf4jnsgd1na2vs0mg"},{"bike_id":"6c6ed658-12bf-4807-9ab3-ef3e2e6746dc","system_id":"levelo_inurba_marseille","lat":43.24172,"lon":5.36398,"is_reserved":false,"is_disabled":false,"rental_uris":{"android":"levelo://app?vid=6c6ed658-12bf-4807-9ab3-ef3e2e6746dc","ios":"levelo://app?vid=6c6ed658-12bf-4807-9ab3-ef3e2e6746dc"},"vehicle_type_id":"4","last_reported":1743937628,"current_range_meters":11200,"station_id":"cpo36qri1sfpv3e86is0","pricing_plan_id":"cebpf4jnsgd1na2vs0mg"},{"bike_id":"ceba594e-ff69-4140-828e-f8a961103e51","system_id":"levelo_inurba_marseille","lat":43.24173,"lon":5.36397,"is_reserved":false,"is_disabled":false,"rental_uris":{"android":"levelo://app?vid=ceba594e-ff69-4140-828e-f8a961103e51","ios":"levelo://app?vid=ceba594e-ff69-4140-828e-f8a961103e51"},"vehicle_type_id":"4","last_reported":1743937628,"current_range_meters":11200,"station_id":"cpo36qri1sfpv3e86is0","pricing_plan_id":"cebpf4jnsgd1na2vs0mg"},{"bike_id":"8f6dc4df-021c-4b49-b773-41ad9c5221cf","system_id":"levelo_inurba_marseille","lat":43.31047,"lon":5.371397,"is_reserved":false,"is_disabled":false,"rental_uris":{"android":"levelo://app?vid=8f6dc4df-021c-4b49-b773-41ad9c5221cf","ios":"levelo://app?vid=8f6dc4df-021c-4b49-b773-41ad9c5221cf"},"vehicle_type_id":"4","last_reported":1743937628,"current_range_meters":11200,"station_id":"","pricing_plan_id":"cebpf4jnsgd1na2vs0mg"},{"bike_id":"7fd0635d-68ad-4ce6-a52b-daef56987b4b","system_id":"levelo_inurba_marseille","lat":43.30858,"lon":5.38561,"is_reserved":false,"is_disabled":false,"rental_uris":{"android":"levelo://app?vid=7fd0635d-68ad-4ce6-a52b-daef56987b4b","ios":"levelo://app?vid=7fd0635d-68ad-4ce6-a52b-daef56987b4b"},"vehicle_type_id":"4","last_reported":1743937628,"current_range_meters":11200,"station_id":"","pricing_plan_id":"cebpf4jnsgd1na2vs0mg"},{"bike_id":"c1eb280b-aae9-48bd-bd47-36bd712edc92","system_id":"levelo_inurba_marseille","lat":43.273712,"lon":5.362583,"is_reserved":false,"is_disabled":false,"rental_uris":{"android":"levelo://app?vid=c1eb280b-aae9-48bd-bd47-36bd712edc92","ios":"levelo://app?vid=c1eb280b-aae9-48bd-bd47-36bd712edc92"},"vehicle_type_id":"4","last_reported":1743937628,"current_range_meters":11200,"station_id":"ce4bhbh2rcd13ifvqeo0","pricing_plan_id":"cebpf4jnsgd1na2vs0mg"},{"bike_id":"136b6e45-ee21-453e-aa22-e07947db9071","system_id":"levelo_inurba_marseille","lat":43.231511,"lon":5.437108,"is_reserved":false,"is_disabled":true,"rental_uris":{"android":"levelo://app?vid=136b6e45-ee21-453e-aa22-e07947db9071","ios":"levelo://app?vid=136b6e45-ee21-453e-aa22-e07947db9071"},"vehicle_type_id":"4","last_reported":1743937628,"current_range_meters":11200,"station_id":"ce4bhmp2rcd13ifvqgog","pricing_plan_id":"cebpf4jnsgd1na2vs0mg"},{"bike_id":"1f9006c0-6130-498f-9399-ca1c8ff0c462","system_id":"levelo_inurba_marseille","lat":43.32096,"lon":5.36755,"is_reserved":false,"is_disabled":false,"rental_uris":{"android":"levelo://app?vid=1f9006c0-6130-498f-9399-ca1c8ff0c462","ios":"levelo://app?vid=1f9006c0-6130-498f-9399-ca1c8ff0c462"},"vehicle_type_id":"4","last_reported":1743937628,"current_range_meters":11200,"station_id":"ce4bhrh2rcd13ifvqhug","pricing_plan_id":"cebpf4jnsgd1na2vs0mg"},{"bike_id":"347b59a6-7fab-4bf0-a924-eac626981b6e","system_id":"levelo_inurba_marseille","lat":43.24155,"lon":5.39728,"is_reserved":false,"is_disabled":false,"rental_uris":{"android":"levelo://app?vid=347b59a6-7fab-4bf0-a924-eac626981b6e","ios":"levelo://app?vid=347b59a6-7fab-4bf0-a924-eac626981b6e"},"vehicle_type_id":"4","last_reported":1743937628,"current_range_meters":11600,"station_id":"ce4bhn12rcd13ifvqgpg","pricing_plan_id":"cebpf4jnsgd1na2vs0mg"},{"bike_id":"5b26f200-5b49-4d8a-93a2-ce335b258e0d","system_id":"levelo_inurba_marseille","lat":43.28407,"lon":5.34998,"is_reserved":false,"is_disabled":false,"rental_uris":{"android":"levelo://app?vid=5b26f200-5b49-4d8a-93a2-ce335b258e0d","ios":"levelo://app?vid=5b26f200-5b49-4d8a-93a2-ce335b258e0d"},"vehicle_type_id":"4","last_reported":1743937628,"current_range_meters":11600,"station_id":"ce4bhbh2rcd13ifvqepg","pricing_plan_id":"cebpf4jnsgd1na2vs0mg"},{"bike_id":"71dc840a-2175-4b66-91da-3b59357cee99","system_id":"levelo_inurba_marseille","lat":43.27378,"lon":5.36257,"is_reserved":false,"is_disabled":false,"rental_uris":{"android":"levelo://app?vid=71dc840a-2175-4b66-91da-3b59357cee99","ios":"levelo://app?vid=71dc840a-2175-4b66-91da-3b59357cee99"},"vehicle_type_id":"4","last_reported":1743937628,"current_range_meters":11600,"station_id":"ce4bhbh2rcd13ifvqeo0","pricing_plan_id":"cebpf4jnsgd1na2vs0mg"},{"bike_id":"aab17747-ef50-479d-87f4-f5d51b95e7cd","system_id":"levelo_inurba_marseille","lat":43.27374,"lon":5.36257,"is_reserved":false,"is_disabled":false,"rental_uris":{"android":"levelo://app?vid=aab17747-ef50-479d-87f4-f5d51b95e7cd","ios":"levelo://app?vid=aab17747-ef50-479d-87f4-f5d51b95e7cd"},"vehicle_type_id":"4","last_reported":1743937628,"current_range_meters":11600,"station_id":"ce4bhbh2rcd13ifvqeo0","pricing_plan_id":"cebpf4jnsgd1na2vs0mg"},{"bike_id":"39119060-af49-409e-96d3-c184076822f9","system_id":"levelo_inurba_marseille","lat":43.30536,"lon":5.36563,"is_reserved":false,"is_disabled":false,"rental_uris":{"android":"levelo://app?vid=39119060-af49-409e-96d3-c184076822f9","ios":"levelo://app?vid=39119060-af49-409e-96d3-c184076822f9"},"vehicle_type_id":"4","last_reported":1743937628,"current_range_meters":12000,"station_id":"ce4bgs12rcd13ifvqcag","pricing_plan_id":"cebpf4jnsgd1na2vs0mg"},{"bike_id":"c9bcb9ed-89fa-4f1d-bf29-12fb5d644696","system_id":"levelo_inurba_marseille","lat":43.279842,"lon":5.416717,"is_reserved":false,"is_disabled":false,"rental_uris":{"android":"levelo://app?vid=c9bcb9ed-89fa-4f1d-bf29-12fb5d644696","ios":"levelo://app?vid=c9bcb9ed-89fa-4f1d-bf29-12fb5d644696"},"vehicle_type_id":"4","last_reported":1743937628,"current_range_meters":12000,"station_id":"ce4bho12rcd13ifvqh1g","pricing_plan_id":"cebpf4jnsgd1na2vs0mg"},{"bike_id":"3bf5d9ad-e9b1-49fa-83fa-32db8c03a158","system_id":"levelo_inurba_marseille","lat":43.24388,"lon":5.37025,"is_reserved":false,"is_disabled":false,"rental_uris":{"android":"levelo://app?vid=3bf5d9ad-e9b1-49fa-83fa-32db8c03a158","ios":"levelo://app?vid=3bf5d9ad-e9b1-49fa-83fa-32db8c03a158"},"vehicle_type_id":"4","last_reported":1743937628,"current_range_meters":12000,"station_id":"ce4bhhh2rcd13ifvqfk0","pricing_plan_id":"cebpf4jnsgd1na2vs0mg"},{"bike_id":"8908f5a3-3568-458d-bd58-b80b0bebbfd4","system_id":"levelo_inurba_marseille","lat":43.21747,"lon":5.34601,"is_reserved":false,"is_disabled":false,"rental_uris":{"android":"levelo://app?vid=8908f5a3-3568-458d-bd58-b80b0bebbfd4","ios":"levelo://app?vid=8908f5a3-3568-458d-bd58-b80b0bebbfd4"},"vehicle_type_id":"4","last_reported":1743937628,"current_range_meters":12000,"station_id":"st_cvj6r9ubvosntc0bgbag","pricing_plan_id":"cebpf4jnsgd1na2vs0mg"},{"bike_id":"c3e6d442-6282-4c88-9f90-93d85aff9e76","system_id":"levelo_inurba_marseille","lat":43.2816,"lon":5.42654,"is_reserved":false,"is_disabled":false,"rental_uris":{"android":"levelo://app?vid=c3e6d442-6282-4c88-9f90-93d85aff9e76","ios":"levelo://app?vid=c3e6d442-6282-4c88-9f90-93d85aff9e76"},"vehicle_type_id":"4","last_reported":1743937628,"current_range_meters":12000,"station_id":"ce4bhnh2rcd13ifvqgug","pricing_plan_id":"cebpf4jnsgd1na2vs0mg"},{"bike_id":"eabbef24-ea14-42c7-9651-aa71753deea0","system_id":"levelo_inurba_marseille","lat":43.26013,"lon":5.37569,"is_reserved":false,"is_disabled":false,"rental_uris":{"android":"levelo://app?vid=eabbef24-ea14-42c7-9651-aa71753deea0","ios":"levelo://app?vid=eabbef24-ea14-42c7-9651-aa71753deea0"},"vehicle_type_id":"4","last_reported":1743937628,"current_range_meters":12000,"station_id":"ce4bhgh2rcd13ifvqfa0","pricing_plan_id":"cebpf4jnsgd1na2vs0mg"},{"bike_id":"1f501dd1-17f1-4e60-a7d9-309a922f65a4","system_id":"levelo_inurba_marseille","lat":43.28278,"lon":5.35058,"is_reserved":false,"is_disabled":false,"rental_uris":{"android":"levelo://app?vid=1f501dd1-17f1-4e60-a7d9-309a922f65a4","ios":"levelo://app?vid=1f501dd1-17f1-4e60-a7d9-309a922f65a4"},"vehicle_type_id":"4","last_reported":1743937628,"current_range_meters":12000,"station_id":"ce4bhbp2rcd13ifvqerg","pricing_plan_id":"cebpf4jnsgd1na2vs0mg"},{"bike_id":"67a01fd5-0edb-4cbc-9e46-03213dac2452","system_id":"levelo_inurba_marseille","lat":43.29556,"lon":5.4227,"is_reserved":false,"is_disabled":false,"rental_uris":{"android":"levelo://app?vid=67a01fd5-0edb-4cbc-9e46-03213dac2452","ios":"levelo://app?vid=67a01fd5-0edb-4cbc-9e46-03213dac2452"},"vehicle_type_id":"4","last_reported":1743937628,"current_range_meters":12000,"station_id":"ce4bhph2rcd13ifvqhdg","pricing_plan_id":"cebpf4jnsgd1na2vs0mg"},{"bike_id":"5d40b06b-f88c-438b-a124-c6e520eec699","system_id":"levelo_inurba_marseille","lat":43.27371,"lon":5.36244,"is_reserved":false,"is_disabled":false,"rental_uris":{"android":"levelo://app?vid=5d40b06b-f88c-438b-a124-c6e520eec699","ios":"levelo://app?vid=5d40b06b-f88c-438b-a124-c6e520eec699"},"vehicle_type_id":"4","last_reported":1743937628,"current_range_meters":12000,"station_id":"ce4bhbh2rcd13ifvqeo0","pricing_plan_id":"cebpf4jnsgd1na2vs0mg"},{"bike_id":"c0935291-84b7-47b7-9504-f9d3f3d8a8ed","system_id":"levelo_inurba_marseille","lat":43.28104,"lon":5.37834,"is_reserved":false,"is_disabled":false,"rental_uris":{"android":"levelo://app?vid=c0935291-84b7-47b7-9504-f9d3f3d8a8ed","ios":"levelo://app?vid=c0935291-84b7-47b7-9504-f9d3f3d8a8ed"},"vehicle_type_id":"4","last_reported":1743937628,"current_range_meters":11600,"station_id":"ce4bha12rcd13ifvqee0","pricing_plan_id":"cebpf4jnsgd1na2vs0mg"},{"bike_id":"b7604dfb-d021-4e47-8430-554b32ba87ec","system_id":"levelo_inurba_marseille","lat":43.2318,"lon":5.43683,"is_reserved":false,"is_disabled":false,"rental_uris":{"android":"levelo://app?vid=b7604dfb-d021-4e47-8430-554b32ba87ec","ios":"levelo://app?vid=b7604dfb-d021-4e47-8430-554b32ba87ec"},"vehicle_type_id":"4","last_reported":1743937628,"current_range_meters":12000,"station_id":"ce4bhmp2rcd13ifvqgog","pricing_plan_id":"cebpf4jnsgd1na2vs0mg"},{"bike_id":"7d2dde4f-5a6a-4005-a47e-231c9dacefe3","system_id":"levelo_inurba_marseille","lat":43.307955,"lon":5.435241,"is_reserved":false,"is_disabled":false,"rental_uris":{"android":"levelo://app?vid=7d2dde4f-5a6a-4005-a47e-231c9dacefe3","ios":"levelo://app?vid=7d2dde4f-5a6a-4005-a47e-231c9dacefe3"},"vehicle_type_id":"4","last_reported":1743937628,"current_range_meters":12400,"station_id":"ce4bhph2rcd13ifvqheg","pricing_plan_id":"cebpf4jnsgd1na2vs0mg"},{"bike_id":"3f9f60e9-46e5-408d-a83f-6ffb283e0d47","system_id":"levelo_inurba_marseille","lat":43.24184,"lon":5.39743,"is_reserved":false,"is_disabled":false,"rental_uris":{"android":"levelo://app?vid=3f9f60e9-46e5-408d-a83f-6ffb283e0d47","ios":"levelo://app?vid=3f9f60e9-46e5-408d-a83f-6ffb283e0d47"},"vehicle_type_id":"4","last_reported":1743937628,"current_range_meters":12400,"station_id":"ce4bhn12rcd13ifvqgpg","pricing_plan_id":"cebpf4jnsgd1na2vs0mg"},{"bike_id":"c2c27c97-cdb9-4118-84ef-b2dc6e9357e6","system_id":"levelo_inurba_marseille","lat":43.306176,"lon":5.371661,"is_reserved":false,"is_disabled":false,"rental_uris":{"android":"levelo://app?vid=c2c27c97-cdb9-4118-84ef-b2dc6e9357e6","ios":"levelo://app?vid=c2c27c97-cdb9-4118-84ef-b2dc6e9357e6"},"vehicle_type_id":"4","last_reported":1743937628,"current_range_meters":12400,"station_id":"ce4bgqh2rcd13ifvqc4g","pricing_plan_id":"cebpf4jnsgd1na2vs0mg"},{"bike_id":"f7e3b8fa-9062-4469-bcee-58c5aa5cfb6e","system_id":"levelo_inurba_marseille","lat":43.295358,"lon":5.385491,"is_reserved":false,"is_disabled":true,"rental_uris":{"android":"levelo://app?vid=f7e3b8fa-9062-4469-bcee-58c5aa5cfb6e","ios":"levelo://app?vid=f7e3b8fa-9062-4469-bcee-58c5aa5cfb6e"},"vehicle_type_id":"4","last_reported":1743937628,"current_range_meters":12400,"station_id":"ce4bgih2rcd13ifvqba0","pricing_plan_id":"cebpf4jnsgd1na2vs0mg"},{"bike_id":"f2a4a726-900d-43d4-8328-76c9d2f6012d","system_id":"levelo_inurba_marseille","lat":43.29015,"lon":5.3557,"is_reserved":false,"is_disabled":true,"rental_uris":{"android":"levelo://app?vid=f2a4a726-900d-43d4-8328-76c9d2f6012d","ios":"levelo://app?vid=f2a4a726-900d-43d4-8328-76c9d2f6012d"},"vehicle_type_id":"4","last_reported":1743937628,"current_range_meters":12400,"station_id":"ce4bhb92rcd13ifvqen0","pricing_plan_id":"cebpf4jnsgd1na2vs0mg"},{"bike_id":"534707bc-c9d4-46c8-9fbf-2650ffde696c","system_id":"levelo_inurba_marseille","lat":43.32475,"lon":5.36561,"is_reserved":false,"is_disabled":false,"rental_uris":{"android":"levelo://app?vid=534707bc-c9d4-46c8-9fbf-2650ffde696c","ios":"levelo://app?vid=534707bc-c9d4-46c8-9fbf-2650ffde696c"},"vehicle_type_id":"4","last_reported":1743937628,"current_range_meters":12800,"station_id":"ce4bhs12rcd13ifvqhvg","pricing_plan_id":"cebpf4jnsgd1na2vs0mg"},{"bike_id":"6ee85d75-9576-48a6-9ea1-92da0dac2d73","system_id":"levelo_inurba_marseille","lat":43.30819,"lon":5.43516,"is_reserved":false,"is_disabled":false,"rental_uris":{"android":"levelo://app?vid=6ee85d75-9576-48a6-9ea1-92da0dac2d73","ios":"levelo://app?vid=6ee85d75-9576-48a6-9ea1-92da0dac2d73"},"vehicle_type_id":"4","last_reported":1743937628,"current_range_meters":12800,"station_id":"ce4bhph2rcd13ifvqheg","pricing_plan_id":"cebpf4jnsgd1na2vs0mg"},{"bike_id":"e0a3f2d8-cfd9-42df-808f-8fa1abe2ba8f","system_id":"levelo_inurba_marseille","lat":43.21192,"lon":5.35069,"is_reserved":false,"is_disabled":true,"rental_uris":{"android":"levelo://app?vid=e0a3f2d8-cfd9-42df-808f-8fa1abe2ba8f","ios":"levelo://app?vid=e0a3f2d8-cfd9-42df-808f-8fa1abe2ba8f"},"vehicle_type_id":"4","last_reported":1743937628,"current_range_meters":13600,"station_id":"st_cvj6sg6p6f1abm77japg","pricing_plan_id":"cebpf4jnsgd1na2vs0mg"},{"bike_id":"4a79947f-5a38-484f-87e2-60b6af9027ff","system_id":"levelo_inurba_marseille","lat":43.28161,"lon":5.4266,"is_reserved":false,"is_disabled":false,"rental_uris":{"android":"levelo://app?vid=4a79947f-5a38-484f-87e2-60b6af9027ff","ios":"levelo://app?vid=4a79947f-5a38-484f-87e2-60b6af9027ff"},"vehicle_type_id":"4","last_reported":1743937628,"current_range_meters":13600,"station_id":"ce4bhnh2rcd13ifvqgug","pricing_plan_id":"cebpf4jnsgd1na2vs0mg"},{"bike_id":"e332aab8-1fe3-40e9-8086-1f7d5ff35118","system_id":"levelo_inurba_marseille","lat":43.33167,"lon":5.38171,"is_reserved":false,"is_disabled":false,"rental_uris":{"android":"levelo://app?vid=e332aab8-1fe3-40e9-8086-1f7d5ff35118","ios":"levelo://app?vid=e332aab8-1fe3-40e9-8086-1f7d5ff35118"},"vehicle_type_id":"4","last_reported":1743937628,"current_range_meters":13600,"station_id":"","pricing_plan_id":"cebpf4jnsgd1na2vs0mg"},{"bike_id":"8a38320c-a733-4cf5-8c8e-152497fe8f8f","system_id":"levelo_inurba_marseille","lat":43.28142,"lon":5.42639,"is_reserved":false,"is_disabled":false,"rental_uris":{"android":"levelo://app?vid=8a38320c-a733-4cf5-8c8e-152497fe8f8f","ios":"levelo://app?vid=8a38320c-a733-4cf5-8c8e-152497fe8f8f"},"vehicle_type_id":"4","last_reported":1743937628,"current_range_meters":13600,"station_id":"ce4bhnh2rcd13ifvqgug","pricing_plan_id":"cebpf4jnsgd1na2vs0mg"},{"bike_id":"afcc8d6a-d8c4-48c1-9563-f71cff0bbaa9","system_id":"levelo_inurba_marseille","lat":43.282637,"lon":5.35073,"is_reserved":false,"is_disabled":false,"rental_uris":{"android":"levelo://app?vid=afcc8d6a-d8c4-48c1-9563-f71cff0bbaa9","ios":"levelo://app?vid=afcc8d6a-d8c4-48c1-9563-f71cff0bbaa9"},"vehicle_type_id":"4","last_reported":1743937628,"current_range_meters":13600,"station_id":"ce4bhbp2rcd13ifvqesg","pricing_plan_id":"cebpf4jnsgd1na2vs0mg"},{"bike_id":"a409c3f0-8991-4228-afb5-57b19bb06658","system_id":"levelo_inurba_marseille","lat":43.32401,"lon":5.38997,"is_reserved":false,"is_disabled":false,"rental_uris":{"android":"levelo://app?vid=a409c3f0-8991-4228-afb5-57b19bb06658","ios":"levelo://app?vid=a409c3f0-8991-4228-afb5-57b19bb06658"},"vehicle_type_id":"4","last_reported":1743937628,"current_range_meters":13600,"station_id":"","pricing_plan_id":"cebpf4jnsgd1na2vs0mg"},{"bike_id":"63e1d95c-79be-4b82-a868-e312bf827ceb","system_id":"levelo_inurba_marseille","lat":43.29025,"lon":5.38652,"is_reserved":false,"is_disabled":true,"rental_uris":{"android":"levelo://app?vid=63e1d95c-79be-4b82-a868-e312bf827ceb","ios":"levelo://app?vid=63e1d95c-79be-4b82-a868-e312bf827ceb"},"vehicle_type_id":"4","last_reported":1743937628,"current_range_meters":13600,"station_id":"ce4bh4p2rcd13ifvqe0g","pricing_plan_id":"cebpf4jnsgd1na2vs0mg"},{"bike_id":"c5a180ee-9b66-4c05-bdde-4100257c7dd0","system_id":"levelo_inurba_marseille","lat":43.21763,"lon":5.34595,"is_reserved":false,"is_disabled":false,"rental_uris":{"android":"levelo://app?vid=c5a180ee-9b66-4c05-bdde-4100257c7dd0","ios":"levelo://app?vid=c5a180ee-9b66-4c05-bdde-4100257c7dd0"},"vehicle_type_id":"4","last_reported":1743937628,"current_range_meters":13600,"station_id":"st_cvj6r9ubvosntc0bgbag","pricing_plan_id":"cebpf4jnsgd1na2vs0mg"},{"bike_id":"ff9ef596-c9fe-40d6-8248-8bf710f11e83","system_id":"levelo_inurba_marseille","lat":43.25006,"lon":5.3894,"is_reserved":false,"is_disabled":false,"rental_uris":{"android":"levelo://app?vid=ff9ef596-c9fe-40d6-8248-8bf710f11e83","ios":"levelo://app?vid=ff9ef596-c9fe-40d6-8248-8bf710f11e83"},"vehicle_type_id":"4","last_reported":1743937628,"current_range_meters":13600,"station_id":"ce4bhgp2rcd13ifvqfd0","pricing_plan_id":"cebpf4jnsgd1na2vs0mg"},{"bike_id":"fefe83d6-22ae-4bdc-9846-80fca8c3f8b6","system_id":"levelo_inurba_marseille","lat":43.26232,"lon":5.40457,"is_reserved":false,"is_disabled":false,"rental_uris":{"android":"levelo://app?vid=fefe83d6-22ae-4bdc-9846-80fca8c3f8b6","ios":"levelo://app?vid=fefe83d6-22ae-4bdc-9846-80fca8c3f8b6"},"vehicle_type_id":"4","last_reported":1743937628,"current_range_meters":13600,"station_id":"ce4bhmh2rcd13ifvqgmg","pricing_plan_id":"cebpf4jnsgd1na2vs0mg"},{"bike_id":"873b9cb9-411d-441c-81fa-204f209e04e7","system_id":"levelo_inurba_marseille","lat":43.308379,"lon":5.373946,"is_reserved":false,"is_disabled":false,"rental_uris":{"android":"levelo://app?vid=873b9cb9-411d-441c-81fa-204f209e04e7","ios":"levelo://app?vid=873b9cb9-411d-441c-81fa-204f209e04e7"},"vehicle_type_id":"4","last_reported":1743937628,"current_range_meters":14000,"station_id":"","pricing_plan_id":"cebpf4jnsgd1na2vs0mg"},{"bike_id":"2f73db1d-d88a-4ee0-af49-5127f513333a","system_id":"levelo_inurba_marseille","lat":43.26561,"lon":5.37282,"is_reserved":false,"is_disabled":false,"rental_uris":{"android":"levelo://app?vid=2f73db1d-d88a-4ee0-af49-5127f513333a","ios":"levelo://app?vid=2f73db1d-d88a-4ee0-af49-5127f513333a"},"vehicle_type_id":"4","last_reported":1743937628,"current_range_meters":14000,"station_id":"ce4bhg12rcd13ifvqf70","pricing_plan_id":"cebpf4jnsgd1na2vs0mg"},{"bike_id":"c7ceadc8-5833-450c-9f34-10cd43b4c73f","system_id":"levelo_inurba_marseille","lat":43.3053,"lon":5.36542,"is_reserved":false,"is_disabled":false,"rental_uris":{"android":"levelo://app?vid=c7ceadc8-5833-450c-9f34-10cd43b4c73f","ios":"levelo://app?vid=c7ceadc8-5833-450c-9f34-10cd43b4c73f"},"vehicle_type_id":"4","last_reported":1743937628,"current_range_meters":14000,"station_id":"ce4bgs12rcd13ifvqcag","pricing_plan_id":"cebpf4jnsgd1na2vs0mg"},{"bike_id":"e4d4dc7a-abcd-4c1d-8017-887f937d011f","system_id":"levelo_inurba_marseille","lat":43.29568,"lon":5.39963,"is_reserved":false,"is_disabled":true,"rental_uris":{"android":"levelo://app?vid=e4d4dc7a-abcd-4c1d-8017-887f937d011f","ios":"levelo://app?vid=e4d4dc7a-abcd-4c1d-8017-887f937d011f"},"vehicle_type_id":"4","last_reported":1743937628,"current_range_meters":14000,"station_id":"ce4bh312rcd13ifvqdj0","pricing_plan_id":"cebpf4jnsgd1na2vs0mg"},{"bike_id":"73272853-088e-4b39-8e6e-94fe10fc353c","system_id":"levelo_inurba_marseille","lat":43.33762,"lon":5.37485,"is_reserved":false,"is_disabled":false,"rental_uris":{"android":"levelo://app?vid=73272853-088e-4b39-8e6e-94fe10fc353c","ios":"levelo://app?vid=73272853-088e-4b39-8e6e-94fe10fc353c"},"vehicle_type_id":"4","last_reported":1743937628,"current_range_meters":14000,"station_id":"","pricing_plan_id":"cebpf4jnsgd1na2vs0mg"},{"bike_id":"a7a2f2aa-a386-4038-9199-de9bee92d13a","system_id":"levelo_inurba_marseille","lat":43.23963,"lon":5.36628,"is_reserved":false,"is_disabled":false,"rental_uris":{"android":"levelo://app?vid=a7a2f2aa-a386-4038-9199-de9bee92d13a","ios":"levelo://app?vid=a7a2f2aa-a386-4038-9199-de9bee92d13a"},"vehicle_type_id":"4","last_reported":1743937628,"current_range_meters":14000,"station_id":"ce4bhi12rcd13ifvqfp0","pricing_plan_id":"cebpf4jnsgd1na2vs0mg"},{"bike_id":"63563121-e017-4c69-ba22-7f201e7788e0","system_id":"levelo_inurba_marseille","lat":43.24394,"lon":5.37066,"is_reserved":false,"is_disabled":false,"rental_uris":{"android":"levelo://app?vid=63563121-e017-4c69-ba22-7f201e7788e0","ios":"levelo://app?vid=63563121-e017-4c69-ba22-7f201e7788e0"},"vehicle_type_id":"4","last_reported":1743937628,"current_range_meters":14000,"station_id":"ce4bhhh2rcd13ifvqfk0","pricing_plan_id":"cebpf4jnsgd1na2vs0mg"},{"bike_id":"d553dd87-8cd1-4b81-808e-8aeb82a0fa0c","system_id":"levelo_inurba_marseille","lat":43.28035,"lon":5.36936,"is_reserved":false,"is_disabled":true,"rental_uris":{"android":"levelo://app?vid=d553dd87-8cd1-4b81-808e-8aeb82a0fa0c","ios":"levelo://app?vid=d553dd87-8cd1-4b81-808e-8aeb82a0fa0c"},"vehicle_type_id":"4","last_reported":1743937628,"current_range_meters":14000,"station_id":"ce4bha12rcd13ifvqef0","pricing_plan_id":"cebpf4jnsgd1na2vs0mg"},{"bike_id":"724a05c8-19ae-4c97-8f77-1ba5f6c6cdec","system_id":"levelo_inurba_marseille","lat":43.28268,"lon":5.35064,"is_reserved":false,"is_disabled":false,"rental_uris":{"android":"levelo://app?vid=724a05c8-19ae-4c97-8f77-1ba5f6c6cdec","ios":"levelo://app?vid=724a05c8-19ae-4c97-8f77-1ba5f6c6cdec"},"vehicle_type_id":"4","last_reported":1743937628,"current_range_meters":14400,"station_id":"ce4bhbp2rcd13ifvqerg","pricing_plan_id":"cebpf4jnsgd1na2vs0mg"},{"bike_id":"33a51f47-1ca1-4130-8e69-c392093386f3","system_id":"levelo_inurba_marseille","lat":43.28573,"lon":5.395,"is_reserved":false,"is_disabled":false,"rental_uris":{"android":"levelo://app?vid=33a51f47-1ca1-4130-8e69-c392093386f3","ios":"levelo://app?vid=33a51f47-1ca1-4130-8e69-c392093386f3"},"vehicle_type_id":"4","last_reported":1743937628,"current_range_meters":14000,"station_id":"ce4bh292rcd13ifvqdg0","pricing_plan_id":"cebpf4jnsgd1na2vs0mg"},{"bike_id":"b71b02b1-12bc-45c4-a8aa-ef79cda3221c","system_id":"levelo_inurba_marseille","lat":43.217407,"lon":5.34605,"is_reserved":false,"is_disabled":false,"rental_uris":{"android":"levelo://app?vid=b71b02b1-12bc-45c4-a8aa-ef79cda3221c","ios":"levelo://app?vid=b71b02b1-12bc-45c4-a8aa-ef79cda3221c"},"vehicle_type_id":"4","last_reported":1743937628,"current_range_meters":14400,"station_id":"st_cvj6r9ubvosntc0bgbag","pricing_plan_id":"cebpf4jnsgd1na2vs0mg"},{"bike_id":"73da4ec2-07ab-49b0-840e-487dd77ca4ac","system_id":"levelo_inurba_marseille","lat":43.2119,"lon":5.35063,"is_reserved":false,"is_disabled":true,"rental_uris":{"android":"levelo://app?vid=73da4ec2-07ab-49b0-840e-487dd77ca4ac","ios":"levelo://app?vid=73da4ec2-07ab-49b0-840e-487dd77ca4ac"},"vehicle_type_id":"4","last_reported":1743937628,"current_range_meters":14400,"station_id":"st_cvj6sg6p6f1abm77japg","pricing_plan_id":"cebpf4jnsgd1na2vs0mg"},{"bike_id":"67543609-b9cf-4400-a995-43fad110570e","system_id":"levelo_inurba_marseille","lat":43.2621,"lon":5.37446,"is_reserved":false,"is_disabled":false,"rental_uris":{"android":"levelo://app?vid=67543609-b9cf-4400-a995-43fad110570e","ios":"levelo://app?vid=67543609-b9cf-4400-a995-43fad110570e"},"vehicle_type_id":"4","last_reported":1743937628,"current_range_meters":14400,"station_id":"ce4bhgp2rcd13ifvqfc0","pricing_plan_id":"cebpf4jnsgd1na2vs0mg"},{"bike_id":"eb036402-0cb4-4e3c-8d1e-0b7a29d2ba31","system_id":"levelo_inurba_marseille","lat":43.34151,"lon":5.40902,"is_reserved":false,"is_disabled":false,"rental_uris":{"android":"levelo://app?vid=eb036402-0cb4-4e3c-8d1e-0b7a29d2ba31","ios":"levelo://app?vid=eb036402-0cb4-4e3c-8d1e-0b7a29d2ba31"},"vehicle_type_id":"4","last_reported":1743937628,"current_range_meters":14400,"station_id":"ce4bhqh2rcd13ifvqhlg","pricing_plan_id":"cebpf4jnsgd1na2vs0mg"},{"bike_id":"08a9177e-b0f9-4f5c-8d83-473e1e57a81a","system_id":"levelo_inurba_marseille","lat":43.29271,"lon":5.36861,"is_reserved":false,"is_disabled":false,"rental_uris":{"android":"levelo://app?vid=08a9177e-b0f9-4f5c-8d83-473e1e57a81a","ios":"levelo://app?vid=08a9177e-b0f9-4f5c-8d83-473e1e57a81a"},"vehicle_type_id":"4","last_reported":1743937628,"current_range_meters":14400,"station_id":"ce4bhbp2rcd13ifvqesg","pricing_plan_id":"cebpf4jnsgd1na2vs0mg"},{"bike_id":"d6c3d7f4-760c-422c-8667-25e15a7934b3","system_id":"levelo_inurba_marseille","lat":43.30781,"lon":5.37457,"is_reserved":false,"is_disabled":false,"rental_uris":{"android":"levelo://app?vid=d6c3d7f4-760c-422c-8667-25e15a7934b3","ios":"levelo://app?vid=d6c3d7f4-760c-422c-8667-25e15a7934b3"},"vehicle_type_id":"4","last_reported":1743937628,"current_range_meters":14800,"station_id":"","pricing_plan_id":"cebpf4jnsgd1na2vs0mg"},{"bike_id":"7dcd2399-e92f-44ab-9ceb-90709a47fcc8","system_id":"levelo_inurba_marseille","lat":43.26208,"lon":5.37432,"is_reserved":false,"is_disabled":false,"rental_uris":{"android":"levelo://app?vid=7dcd2399-e92f-44ab-9ceb-90709a47fcc8","ios":"levelo://app?vid=7dcd2399-e92f-44ab-9ceb-90709a47fcc8"},"vehicle_type_id":"4","last_reported":1743937628,"current_range_meters":14800,"station_id":"ce4bhgp2rcd13ifvqfc0","pricing_plan_id":"cebpf4jnsgd1na2vs0mg"},{"bike_id":"530e934d-fa5f-4174-942f-60d0ca8604f7","system_id":"levelo_inurba_marseille","lat":43.28177,"lon":5.42656,"is_reserved":false,"is_disabled":false,"rental_uris":{"android":"levelo://app?vid=530e934d-fa5f-4174-942f-60d0ca8604f7","ios":"levelo://app?vid=530e934d-fa5f-4174-942f-60d0ca8604f7"},"vehicle_type_id":"4","last_reported":1743937628,"current_range_meters":14800,"station_id":"ce4bhnh2rcd13ifvqgug","pricing_plan_id":"cebpf4jnsgd1na2vs0mg"},{"bike_id":"d256a6ab-8ab7-42a1-b58d-89fd7976d156","system_id":"levelo_inurba_marseille","lat":43.2718,"lon":5.40983,"is_reserved":false,"is_disabled":false,"rental_uris":{"android":"levelo://app?vid=d256a6ab-8ab7-42a1-b58d-89fd7976d156","ios":"levelo://app?vid=d256a6ab-8ab7-42a1-b58d-89fd7976d156"},"vehicle_type_id":"4","last_reported":1743937628,"current_range_meters":14800,"station_id":"ce4bhl12rcd13ifvqgf0","pricing_plan_id":"cebpf4jnsgd1na2vs0mg"},{"bike_id":"b2e6d730-1ae9-4dd3-ab0c-1de601c116c2","system_id":"levelo_inurba_marseille","lat":43.24731,"lon":5.39557,"is_reserved":false,"is_disabled":false,"rental_uris":{"android":"levelo://app?vid=b2e6d730-1ae9-4dd3-ab0c-1de601c116c2","ios":"levelo://app?vid=b2e6d730-1ae9-4dd3-ab0c-1de601c116c2"},"vehicle_type_id":"4","last_reported":1743937628,"current_range_meters":14800,"station_id":"","pricing_plan_id":"cebpf4jnsgd1na2vs0mg"},{"bike_id":"cc8e49e6-a408-4f2b-9358-55f50dd0cf5a","system_id":"levelo_inurba_marseille","lat":43.32071,"lon":5.41537,"is_reserved":false,"is_disabled":false,"rental_uris":{"android":"levelo://app?vid=cc8e49e6-a408-4f2b-9358-55f50dd0cf5a","ios":"levelo://app?vid=cc8e49e6-a408-4f2b-9358-55f50dd0cf5a"},"vehicle_type_id":"4","last_reported":1743937628,"current_range_meters":15200,"station_id":"ce4bhq92rcd13ifvqhkg","pricing_plan_id":"cebpf4jnsgd1na2vs0mg"},{"bike_id":"efec85ca-2d6e-4c82-a039-cf35fe914ec9","system_id":"levelo_inurba_marseille","lat":43.29578,"lon":5.36745,"is_reserved":false,"is_disabled":false,"rental_uris":{"android":"levelo://app?vid=efec85ca-2d6e-4c82-a039-cf35fe914ec9","ios":"levelo://app?vid=efec85ca-2d6e-4c82-a039-cf35fe914ec9"},"vehicle_type_id":"4","last_reported":1743937628,"current_range_meters":14800,"station_id":"ce4bgph2rcd13ifvqc2g","pricing_plan_id":"cebpf4jnsgd1na2vs0mg"},{"bike_id":"018416df-8616-481e-9ed4-92823884cc5e","system_id":"levelo_inurba_marseille","lat":43.21333,"lon":5.3495,"is_reserved":false,"is_disabled":false,"rental_uris":{"android":"levelo://app?vid=018416df-8616-481e-9ed4-92823884cc5e","ios":"levelo://app?vid=018416df-8616-481e-9ed4-92823884cc5e"},"vehicle_type_id":"4","last_reported":1743937628,"current_range_meters":15200,"station_id":"","pricing_plan_id":"cebpf4jnsgd1na2vs0mg"},{"bike_id":"128a30de-e51c-42dc-b986-2522c336bcd8","system_id":"levelo_inurba_marseille","lat":43.29532,"lon":5.38547,"is_reserved":false,"is_disabled":false,"rental_uris":{"android":"levelo://app?vid=128a30de-e51c-42dc-b986-2522c336bcd8","ios":"levelo://app?vid=128a30de-e51c-42dc-b986-2522c336bcd8"},"vehicle_type_id":"4","last_reported":1743937628,"current_range_meters":15200,"station_id":"ce4bgih2rcd13ifvqba0","pricing_plan_id":"cebpf4jnsgd1na2vs0mg"},{"bike_id":"f84b956f-2981-462e-8cf6-186374de0c37","system_id":"levelo_inurba_marseille","lat":43.31706,"lon":5.43701,"is_reserved":false,"is_disabled":false,"rental_uris":{"android":"levelo://app?vid=f84b956f-2981-462e-8cf6-186374de0c37","ios":"levelo://app?vid=f84b956f-2981-462e-8cf6-186374de0c37"},"vehicle_type_id":"4","last_reported":1743937628,"current_range_meters":15200,"station_id":"ce4bhp92rcd13ifvqhcg","pricing_plan_id":"cebpf4jnsgd1na2vs0mg"},{"bike_id":"4ae9fd03-2baf-4a1e-943a-2a3a32248bb3","system_id":"levelo_inurba_marseille","lat":43.29551,"lon":5.42267,"is_reserved":false,"is_disabled":false,"rental_uris":{"android":"levelo://app?vid=4ae9fd03-2baf-4a1e-943a-2a3a32248bb3","ios":"levelo://app?vid=4ae9fd03-2baf-4a1e-943a-2a3a32248bb3"},"vehicle_type_id":"4","last_reported":1743937628,"current_range_meters":16000,"station_id":"ce4bhph2rcd13ifvqhdg","pricing_plan_id":"cebpf4jnsgd1na2vs0mg"},{"bike_id":"8cfd8938-ab02-4f88-9086-591f1be1afd7","system_id":"levelo_inurba_marseille","lat":43.23083,"lon":5.35401,"is_reserved":false,"is_disabled":true,"rental_uris":{"android":"levelo://app?vid=8cfd8938-ab02-4f88-9086-591f1be1afd7","ios":"levelo://app?vid=8cfd8938-ab02-4f88-9086-591f1be1afd7"},"vehicle_type_id":"4","last_reported":1743937628,"current_range_meters":16000,"station_id":"cpo3342slgdg3j2ifvpg","pricing_plan_id":"cebpf4jnsgd1na2vs0mg"},{"bike_id":"9f6c7f8b-794e-4729-b896-de00d56a3055","system_id":"levelo_inurba_marseille","lat":43.28269,"lon":5.3507,"is_reserved":false,"is_disabled":false,"rental_uris":{"android":"levelo://app?vid=9f6c7f8b-794e-4729-b896-de00d56a3055","ios":"levelo://app?vid=9f6c7f8b-794e-4729-b896-de00d56a3055"},"vehicle_type_id":"4","last_reported":1743937628,"current_range_meters":16000,"station_id":"ce4bhbp2rcd13ifvqerg","pricing_plan_id":"cebpf4jnsgd1na2vs0mg"},{"bike_id":"93e1eefc-8b3b-4897-abfc-410bf4f6c835","system_id":"levelo_inurba_marseille","lat":43.27377,"lon":5.36254,"is_reserved":false,"is_disabled":false,"rental_uris":{"android":"levelo://app?vid=93e1eefc-8b3b-4897-abfc-410bf4f6c835","ios":"levelo://app?vid=93e1eefc-8b3b-4897-abfc-410bf4f6c835"},"vehicle_type_id":"4","last_reported":1743937628,"current_range_meters":16000,"station_id":"ce4bhbh2rcd13ifvqeo0","pricing_plan_id":"cebpf4jnsgd1na2vs0mg"},{"bike_id":"a959694d-18ce-4d80-917f-23c91ed81065","system_id":"levelo_inurba_marseille","lat":43.29899,"lon":5.43655,"is_reserved":false,"is_disabled":false,"rental_uris":{"android":"levelo://app?vid=a959694d-18ce-4d80-917f-23c91ed81065","ios":"levelo://app?vid=a959694d-18ce-4d80-917f-23c91ed81065"},"vehicle_type_id":"4","last_reported":1743937628,"current_range_meters":16000,"station_id":"ce4bhpp2rcd13ifvqhfg","pricing_plan_id":"cebpf4jnsgd1na2vs0mg"},{"bike_id":"eaae87de-2f52-4e1e-bad4-e89ef6784ebb","system_id":"levelo_inurba_marseille","lat":43.21727,"lon":5.34618,"is_reserved":false,"is_disabled":false,"rental_uris":{"android":"levelo://app?vid=eaae87de-2f52-4e1e-bad4-e89ef6784ebb","ios":"levelo://app?vid=eaae87de-2f52-4e1e-bad4-e89ef6784ebb"},"vehicle_type_id":"4","last_reported":1743937628,"current_range_meters":16000,"station_id":"st_cvj6r9ubvosntc0bgbag","pricing_plan_id":"cebpf4jnsgd1na2vs0mg"},{"bike_id":"4ca885ad-bf65-4540-b5d0-1baba23daec6","system_id":"levelo_inurba_marseille","lat":43.22503,"lon":5.34784,"is_reserved":false,"is_disabled":false,"rental_uris":{"android":"levelo://app?vid=4ca885ad-bf65-4540-b5d0-1baba23daec6","ios":"levelo://app?vid=4ca885ad-bf65-4540-b5d0-1baba23daec6"},"vehicle_type_id":"4","last_reported":1743937628,"current_range_meters":16000,"station_id":"ce4bh612rcd13ifvqe6g","pricing_plan_id":"cebpf4jnsgd1na2vs0mg"},{"bike_id":"a1a74f1b-fb44-455f-8438-c57f314bba18","system_id":"levelo_inurba_marseille","lat":43.2175,"lon":5.34599,"is_reserved":false,"is_disabled":false,"rental_uris":{"android":"levelo://app?vid=a1a74f1b-fb44-455f-8438-c57f314bba18","ios":"levelo://app?vid=a1a74f1b-fb44-455f-8438-c57f314bba18"},"vehicle_type_id":"4","last_reported":1743937628,"current_range_meters":16000,"station_id":"st_cvj6r9ubvosntc0bgbag","pricing_plan_id":"cebpf4jnsgd1na2vs0mg"},{"bike_id":"bea14fb3-88d6-486d-8f7d-110dd9104e6d","system_id":"levelo_inurba_marseille","lat":43.28489,"lon":5.38559,"is_reserved":false,"is_disabled":false,"rental_uris":{"android":"levelo://app?vid=bea14fb3-88d6-486d-8f7d-110dd9104e6d","ios":"levelo://app?vid=bea14fb3-88d6-486d-8f7d-110dd9104e6d"},"vehicle_type_id":"4","last_reported":1743937628,"current_range_meters":16000,"station_id":"ce4bh8p2rcd13ifvqeb0","pricing_plan_id":"cebpf4jnsgd1na2vs0mg"},{"bike_id":"fb52679d-2c03-4399-96da-69a10ac7c259","system_id":"levelo_inurba_marseille","lat":43.324921,"lon":5.366653,"is_reserved":false,"is_disabled":false,"rental_uris":{"android":"levelo://app?vid=fb52679d-2c03-4399-96da-69a10ac7c259","ios":"levelo://app?vid=fb52679d-2c03-4399-96da-69a10ac7c259"},"vehicle_type_id":"4","last_reported":1743937628,"current_range_meters":16800,"station_id":"ce4bhs12rcd13ifvqhvg","pricing_plan_id":"cebpf4jnsgd1na2vs0mg"},{"bike_id":"2670f8ec-74a4-4ac3-ba9d-c93728a399c7","system_id":"levelo_inurba_marseille","lat":43.27374,"lon":5.36255,"is_reserved":false,"is_disabled":false,"rental_uris":{"android":"levelo://app?vid=2670f8ec-74a4-4ac3-ba9d-c93728a399c7","ios":"levelo://app?vid=2670f8ec-74a4-4ac3-ba9d-c93728a399c7"},"vehicle_type_id":"4","last_reported":1743937628,"current_range_meters":16400,"station_id":"ce4bhbh2rcd13ifvqeo0","pricing_plan_id":"cebpf4jnsgd1na2vs0mg"},{"bike_id":"26917ba2-a987-4b4c-85e2-204645024679","system_id":"levelo_inurba_marseille","lat":43.23965,"lon":5.36629,"is_reserved":false,"is_disabled":false,"rental_uris":{"android":"levelo://app?vid=26917ba2-a987-4b4c-85e2-204645024679","ios":"levelo://app?vid=26917ba2-a987-4b4c-85e2-204645024679"},"vehicle_type_id":"4","last_reported":1743937628,"current_range_meters":16400,"station_id":"ce4bhi12rcd13ifvqfp0","pricing_plan_id":"cebpf4jnsgd1na2vs0mg"},{"bike_id":"750bc9c2-8244-4f27-a571-77c62d7d6b92","system_id":"levelo_inurba_marseille","lat":43.31277,"lon":5.37757,"is_reserved":false,"is_disabled":false,"rental_uris":{"android":"levelo://app?vid=750bc9c2-8244-4f27-a571-77c62d7d6b92","ios":"levelo://app?vid=750bc9c2-8244-4f27-a571-77c62d7d6b92"},"vehicle_type_id":"4","last_reported":1743937628,"current_range_meters":16800,"station_id":"","pricing_plan_id":"cebpf4jnsgd1na2vs0mg"},{"bike_id":"9277b721-20e5-43a1-91f4-a949bf469478","system_id":"levelo_inurba_marseille","lat":43.2815,"lon":5.42639,"is_reserved":false,"is_disabled":false,"rental_uris":{"android":"levelo://app?vid=9277b721-20e5-43a1-91f4-a949bf469478","ios":"levelo://app?vid=9277b721-20e5-43a1-91f4-a949bf469478"},"vehicle_type_id":"4","last_reported":1743937628,"current_range_meters":16800,"station_id":"ce4bhnh2rcd13ifvqgug","pricing_plan_id":"cebpf4jnsgd1na2vs0mg"},{"bike_id":"1145dafd-2d63-45d4-95e7-cc211cf26bab","system_id":"levelo_inurba_marseille","lat":43.24401,"lon":5.37062,"is_reserved":false,"is_disabled":false,"rental_uris":{"android":"levelo://app?vid=1145dafd-2d63-45d4-95e7-cc211cf26bab","ios":"levelo://app?vid=1145dafd-2d63-45d4-95e7-cc211cf26bab"},"vehicle_type_id":"4","last_reported":1743937628,"current_range_meters":16800,"station_id":"ce4bhhh2rcd13ifvqfk0","pricing_plan_id":"cebpf4jnsgd1na2vs0mg"},{"bike_id":"e338e8a5-afb4-4d06-9c24-800f0027ea83","system_id":"levelo_inurba_marseille","lat":43.27373,"lon":5.36262,"is_reserved":false,"is_disabled":false,"rental_uris":{"android":"levelo://app?vid=e338e8a5-afb4-4d06-9c24-800f0027ea83","ios":"levelo://app?vid=e338e8a5-afb4-4d06-9c24-800f0027ea83"},"vehicle_type_id":"4","last_reported":1743937628,"current_range_meters":16800,"station_id":"ce4bhbh2rcd13ifvqeo0","pricing_plan_id":"cebpf4jnsgd1na2vs0mg"},{"bike_id":"9c53551f-9989-42ef-8106-05b3d0cb9736","system_id":"levelo_inurba_marseille","lat":43.25499,"lon":5.37651,"is_reserved":false,"is_disabled":false,"rental_uris":{"android":"levelo://app?vid=9c53551f-9989-42ef-8106-05b3d0cb9736","ios":"levelo://app?vid=9c53551f-9989-42ef-8106-05b3d0cb9736"},"vehicle_type_id":"4","last_reported":1743937628,"current_range_meters":16800,"station_id":"ce4bhh12rcd13ifvqff0","pricing_plan_id":"cebpf4jnsgd1na2vs0mg"},{"bike_id":"e7c88587-6383-4296-b75b-fb8bc5500d98","system_id":"levelo_inurba_marseille","lat":43.240671,"lon":5.377429,"is_reserved":false,"is_disabled":false,"rental_uris":{"android":"levelo://app?vid=e7c88587-6383-4296-b75b-fb8bc5500d98","ios":"levelo://app?vid=e7c88587-6383-4296-b75b-fb8bc5500d98"},"vehicle_type_id":"4","last_reported":1743937628,"current_range_meters":16800,"station_id":"ce4bhnp2rcd13ifvqgvg","pricing_plan_id":"cebpf4jnsgd1na2vs0mg"},{"bike_id":"d3940f6d-6c26-4ccb-aa36-1b12f0ca6ef4","system_id":"levelo_inurba_marseille","lat":43.31475,"lon":5.39027,"is_reserved":false,"is_disabled":false,"rental_uris":{"android":"levelo://app?vid=d3940f6d-6c26-4ccb-aa36-1b12f0ca6ef4","ios":"levelo://app?vid=d3940f6d-6c26-4ccb-aa36-1b12f0ca6ef4"},"vehicle_type_id":"4","last_reported":1743937628,"current_range_meters":16800,"station_id":"","pricing_plan_id":"cebpf4jnsgd1na2vs0mg"},{"bike_id":"33f3816c-12e7-49be-befd-aeb487ab17aa","system_id":"levelo_inurba_marseille","lat":43.30807,"lon":5.43534,"is_reserved":false,"is_disabled":false,"rental_uris":{"android":"levelo://app?vid=33f3816c-12e7-49be-befd-aeb487ab17aa","ios":"levelo://app?vid=33f3816c-12e7-49be-befd-aeb487ab17aa"},"vehicle_type_id":"4","last_reported":1743937628,"current_range_meters":16800,"station_id":"ce4bhph2rcd13ifvqheg","pricing_plan_id":"cebpf4jnsgd1na2vs0mg"},{"bike_id":"94dca6d6-c238-449f-976d-f4fe7aa8faf3","system_id":"levelo_inurba_marseille","lat":43.305527,"lon":5.365582,"is_reserved":false,"is_disabled":false,"rental_uris":{"android":"levelo://app?vid=94dca6d6-c238-449f-976d-f4fe7aa8faf3","ios":"levelo://app?vid=94dca6d6-c238-449f-976d-f4fe7aa8faf3"},"vehicle_type_id":"4","last_reported":1743937628,"current_range_meters":16800,"station_id":"ce4bgs12rcd13ifvqcag","pricing_plan_id":"cebpf4jnsgd1na2vs0mg"},{"bike_id":"5dde6aad-cd3a-40a3-820f-d90c69bfdc14","system_id":"levelo_inurba_marseille","lat":43.23152,"lon":5.43721,"is_reserved":false,"is_disabled":false,"rental_uris":{"android":"levelo://app?vid=5dde6aad-cd3a-40a3-820f-d90c69bfdc14","ios":"levelo://app?vid=5dde6aad-cd3a-40a3-820f-d90c69bfdc14"},"vehicle_type_id":"4","last_reported":1743937628,"current_range_meters":16800,"station_id":"ce4bhmp2rcd13ifvqgog","pricing_plan_id":"cebpf4jnsgd1na2vs0mg"},{"bike_id":"0a8d39e4-73d4-4351-bd1c-db5927bdbfa5","system_id":"levelo_inurba_marseille","lat":43.23961,"lon":5.36629,"is_reserved":false,"is_disabled":false,"rental_uris":{"android":"levelo://app?vid=0a8d39e4-73d4-4351-bd1c-db5927bdbfa5","ios":"levelo://app?vid=0a8d39e4-73d4-4351-bd1c-db5927bdbfa5"},"vehicle_type_id":"4","last_reported":1743937628,"current_range_meters":17200,"station_id":"ce4bhi12rcd13ifvqfp0","pricing_plan_id":"cebpf4jnsgd1na2vs0mg"},{"bike_id":"6e217a23-f060-4f45-8e61-acb2d4792324","system_id":"levelo_inurba_marseille","lat":43.29225,"lon":5.36062,"is_reserved":false,"is_disabled":false,"rental_uris":{"android":"levelo://app?vid=6e217a23-f060-4f45-8e61-acb2d4792324","ios":"levelo://app?vid=6e217a23-f060-4f45-8e61-acb2d4792324"},"vehicle_type_id":"4","last_reported":1743937628,"current_range_meters":17200,"station_id":"ce4bhbh2rcd13ifvqeqg","pricing_plan_id":"cebpf4jnsgd1na2vs0mg"},{"bike_id":"ffcd348c-8570-4fb6-b395-927457d7e480","system_id":"levelo_inurba_marseille","lat":43.25498,"lon":5.37652,"is_reserved":false,"is_disabled":false,"rental_uris":{"android":"levelo://app?vid=ffcd348c-8570-4fb6-b395-927457d7e480","ios":"levelo://app?vid=ffcd348c-8570-4fb6-b395-927457d7e480"},"vehicle_type_id":"4","last_reported":1743937628,"current_range_meters":15200,"station_id":"ce4bhh12rcd13ifvqff0","pricing_plan_id":"cebpf4jnsgd1na2vs0mg"},{"bike_id":"f179cb40-cdc7-4731-87a1-59b0e28e0ad0","system_id":"levelo_inurba_marseille","lat":43.28421,"lon":5.3499,"is_reserved":false,"is_disabled":false,"rental_uris":{"android":"levelo://app?vid=f179cb40-cdc7-4731-87a1-59b0e28e0ad0","ios":"levelo://app?vid=f179cb40-cdc7-4731-87a1-59b0e28e0ad0"},"vehicle_type_id":"4","last_reported":1743937628,"current_range_meters":17200,"station_id":"ce4bhbh2rcd13ifvqepg","pricing_plan_id":"cebpf4jnsgd1na2vs0mg"},{"bike_id":"46057c1a-ef15-49c0-8328-133f1962cf6c","system_id":"levelo_inurba_marseille","lat":43.32237,"lon":5.36816,"is_reserved":false,"is_disabled":false,"rental_uris":{"android":"levelo://app?vid=46057c1a-ef15-49c0-8328-133f1962cf6c","ios":"levelo://app?vid=46057c1a-ef15-49c0-8328-133f1962cf6c"},"vehicle_type_id":"4","last_reported":1743937628,"current_range_meters":17200,"station_id":"","pricing_plan_id":"cebpf4jnsgd1na2vs0mg"},{"bike_id":"6d8de12f-a5c8-4495-9b9e-d7214b4590bf","system_id":"levelo_inurba_marseille","lat":43.27071,"lon":5.42279,"is_reserved":false,"is_disabled":false,"rental_uris":{"android":"levelo://app?vid=6d8de12f-a5c8-4495-9b9e-d7214b4590bf","ios":"levelo://app?vid=6d8de12f-a5c8-4495-9b9e-d7214b4590bf"},"vehicle_type_id":"4","last_reported":1743937628,"current_range_meters":17200,"station_id":"ce4bhk92rcd13ifvqgb0","pricing_plan_id":"cebpf4jnsgd1na2vs0mg"},{"bike_id":"071c071d-b71b-4c7a-a82a-b26ad2854c20","system_id":"levelo_inurba_marseille","lat":43.28266,"lon":5.351,"is_reserved":false,"is_disabled":false,"rental_uris":{"android":"levelo://app?vid=071c071d-b71b-4c7a-a82a-b26ad2854c20","ios":"levelo://app?vid=071c071d-b71b-4c7a-a82a-b26ad2854c20"},"vehicle_type_id":"4","last_reported":1743937628,"current_range_meters":17200,"station_id":"ce4bhbp2rcd13ifvqerg","pricing_plan_id":"cebpf4jnsgd1na2vs0mg"},{"bike_id":"a0b4cb9a-0031-4b92-b196-4dc55c61ba95","system_id":"levelo_inurba_marseille","lat":43.22921,"lon":5.35389,"is_reserved":false,"is_disabled":false,"rental_uris":{"android":"levelo://app?vid=a0b4cb9a-0031-4b92-b196-4dc55c61ba95","ios":"levelo://app?vid=a0b4cb9a-0031-4b92-b196-4dc55c61ba95"},"vehicle_type_id":"4","last_reported":1743937628,"current_range_meters":17600,"station_id":"cpo3532slgdg3j2ikp40","pricing_plan_id":"cebpf4jnsgd1na2vs0mg"},