{"last_updated":1733014718,"ttl":60,"version":"2.2","data":{"bikes":[{"bike_id":"d0adae0d-5139-4c37-b759-c780aa93d035","system_id":"levelo_inurba_marseille","lat":43.31526,"lon":5.38031,"is_reserved":false,"is_disabled":false,"rental_uris":{"android":"levelo://app?vid=d0adae0d-5139-4c37-b759-c780aa93d035","ios":"levelo://app?vid=d0adae0d-5139-4c37-b759-c780aa93d035"},"vehicle_type_id":"4","last_reported":1733014719,"current_range_meters":38800,"station_id":"ce4bhsp2rcd13ifvqi50","pricing_plan_id":"cebpf4jnsgd1na2vs0mg"},{"bike_id":"20fae55c-5700-4c5d-96e7-1cf98c8dd109","system_id":"levelo_inurba_marseille","lat":43.28005,"lon":5.4166,"is_reserved":false,"is_disabled":false,"rental_uris":{"android":"levelo://app?vid=20fae55c-5700-4c5d-96e7-1cf98c8dd109","ios":"levelo://app?vid=20fae55c-5700-4c5d-96e7-1cf98c8dd109"},"vehicle_type_id":"4","last_reported":1733014719,"current_range_meters":30000,"station_id":"ce4bho12rcd13ifvqh1g","pricing_plan_id":"cebpf4jnsgd1na2vs0mg"},{"bike_id":"0211ccf7-7c90-4b91-8074-e75656f3a2bd","system_id":"levelo_inurba_marseille","lat":43.29447,"lon":5.39745,"is_reserved":false,"is_disabled":true,"rental_uris":{"android":"levelo://app?vid=0211ccf7-7c90-4b91-8074-e75656f3a2bd","ios":"levelo://app?vid=0211ccf7-7c90-4b91-8074-e75656f3a2bd"},"vehicle_type_id":"4","last_reported":1733014719,"current_range_meters":400,"station_id":"ce4bh3h2rcd13ifvqdo0","pricing_plan_id":"cebpf4jnsgd1na2vs0mg"},{"bike_id":"a74f0006-cae8-42fa-977f-0eed24ecb1d4","system_id":"levelo_inurba_marseille","lat":43.25001,"lon":5.38925,"is_reserved":false,"is_disabled":false,"rental_uris":{"android":"levelo://app?vid=a74f0006-cae8-42fa-977f-0eed24ecb1d4","ios":"levelo://app?vid=a74f0006-cae8-42fa-977f-0eed24ecb1d4"},"vehicle_type_id":"4","last_reported":1733014719,"current_range_meters":22400,"station_id":"ce4bhgp2rcd13ifvqfd0","pricing_plan_id":"cebpf4jnsgd1na2vs0mg"},{"bike_id":"b856c8b4-412d-4c25-bdd4-e6b29aed04cb","system_id":"levelo_inurba_marseille","lat":43.22933,"lon":5.35379,"is_reserved":false,"is_disabled":false,"rental_uris":{"android":"levelo://app?vid=b856c8b4-412d-4c25-bdd4-e6b29aed04cb","ios":"levelo://app?vid=b856c8b4-412d-4c25-bdd4-e6b29aed04cb"},"vehicle_type_id":"4","last_reported":1733014719,"current_range_meters":38800,"station_id":"cpo3532slgdg3j2ikp40","pricing_plan_id":"cebpf4jnsgd1na2vs0mg"},{"bike_id":"6322a6f8-4d80-4ee7-bb76-393e223f3b00","system_id":"levelo_inurba_marseille","lat":43.26954,"lon":5.38619,"is_reserved":false,"is_disabled":false,"rental_uris":{"android":"levelo://app?vid=6322a6f8-4d80-4ee7-bb76-393e223f3b00","ios":"levelo://app?vid=6322a6f8-4d80-4ee7-bb76-393e223f3b00"},"vehicle_type_id":"4","last_reported":1733014719,"current_range_meters":38800,"station_id":"ce4bhh92rcd13ifvqfh0","pricing_plan_id":"cebpf4jnsgd1na2vs0mg"},{"bike_id":"ff51338e-34cb-4200-8adc-8e367fac0299","system_id":"levelo_inurba_marseille","lat":43.31171,"lon":5.38715,"is_reserved":false,"is_disabled":false,"rental_uris":{"android":"levelo://app?vid=ff51338e-34cb-4200-8adc-8e367fac0299","ios":"levelo://app?vid=ff51338e-34cb-4200-8adc-8e367fac0299"},"vehicle_type_id":"4","last_reported":1733014719,"current_range_meters":27200,"station_id":"ce4bgv12rcd13ifvqcp0","pricing_plan_id":"cebpf4jnsgd1na2vs0mg"},{"bike_id":"70f8aa89-39e0-4063-8254-3e9e259a8f99","system_id":"levelo_inurba_marseille","lat":43.28724,"lon":5.36073,"is_reserved":false,"is_disabled":false,"rental_uris":{"android":"levelo://app?vid=70f8aa89-39e0-4063-8254-3e9e259a8f99","ios":"levelo://app?vid=70f8aa89-39e0-4063-8254-3e9e259a8f99"},"vehicle_type_id":"4","last_reported":1733014719,"current_range_meters":38800,"station_id":"cki0cbj6b192h4jlfktg","pricing_plan_id":"cebpf4jnsgd1na2vs0mg"},{"bike_id":"7c2f5026-8e41-43e5-86a3-f20271746f98","system_id":"levelo_inurba_marseille","lat":43.2846,"lon":5.3589,"is_reserved":false,"is_disabled":false,"rental_uris":{"android":"levelo://app?vid=7c2f5026-8e41-43e5-86a3-f20271746f98","ios":"levelo://app?vid=7c2f5026-8e41-43e5-86a3-f20271746f98"},"vehicle_type_id":"4","last_reported":1733014719,"current_range_meters":24000,"station_id":"ce4bhah2rcd13ifvqei0","pricing_plan_id":"cebpf4jnsgd1na2vs0mg"},{"bike_id":"2a899b71-468c-432d-add8-c6f2f6e0559a","system_id":"levelo_inurba_marseille","lat":43.26504,"lon":5.39531,"is_reserved":false,"is_disabled":false,"rental_uris":{"android":"levelo://app?vid=2a899b71-468c-432d-add8-c6f2f6e0559a","ios":"levelo://app?vid=2a899b71-468c-432d-add8-c6f2f6e0559a"},"vehicle_type_id":"4","last_reported":1733014719,"current_range_meters":28000,"station_id":"ce4bhi12rcd13ifvqfq0","pricing_plan_id":"cebpf4jnsgd1na2vs0mg"},{"bike_id":"43ab4558-e84d-4f03-ac41-44397041a7cf","system_id":"levelo_inurba_marseille","lat":43.28699,"lon":5.37381,"is_reserved":false,"is_disabled":false,"rental_uris":{"android":"levelo://app?vid=43ab4558-e84d-4f03-ac41-44397041a7cf","ios":"levelo://app?vid=43ab4558-e84d-4f03-ac41-44397041a7cf"},"vehicle_type_id":"4","last_reported":1733014719,"current_range_meters":16800,"station_id":"ce4bh3p2rcd13ifvqdq0","pricing_plan_id":"cebpf4jnsgd1na2vs0mg"},{"bike_id":"eb19a031-c26a-428c-a6ee-e6ca1f8e884e","system_id":"levelo_inurba_marseille","lat":43.29262,"lon":5.40897,"is_reserved":false,"is_disabled":false,"rental_uris":{"android":"levelo://app?vid=eb19a031-c26a-428c-a6ee-e6ca1f8e884e","ios":"levelo://app?vid=eb19a031-c26a-428c-a6ee-e6ca1f8e884e"},"vehicle_type_id":"4","last_reported":1733014719,"current_range_meters":18000,"station_id":"ce4bh192rcd13ifvqdc0","pricing_plan_id":"cebpf4jnsgd1na2vs0mg"},{"bike_id":"5b811d3a-cae0-4f12-9af9-b5fb1f651755","system_id":"levelo_inurba_marseille","lat":43.25113,"lon":5.40329,"is_reserved":false,"is_disabled":false,"rental_uris":{"android":"levelo://app?vid=5b811d3a-cae0-4f12-9af9-b5fb1f651755","ios":"levelo://app?vid=5b811d3a-cae0-4f12-9af9-b5fb1f651755"},"vehicle_type_id":"4","last_reported":1733014719,"current_range_meters":38000,"station_id":"ce4bhlh2rcd13ifvqgig","pricing_plan_id":"cebpf4jnsgd1na2vs0mg"},{"bike_id":"3f7d1b83-7fbe-4b4b-b621-09fc8c3dc4a5","system_id":"levelo_inurba_marseille","lat":43.33604,"lon":5.4103,"is_reserved":false,"is_disabled":false,"rental_uris":{"android":"levelo://app?vid=3f7d1b83-7fbe-4b4b-b621-09fc8c3dc4a5","ios":"levelo://app?vid=3f7d1b83-7fbe-4b4b-b621-09fc8c3dc4a5"},"vehicle_type_id":"4","last_reported":1733014719,"current_range_meters":30000,"station_id":"ce4bhqh2rcd13ifvqhmg","pricing_plan_id":"cebpf4jnsgd1na2vs0mg"},{"bike_id":"967e9a74-8d35-43a8-bb3f-b2f2942f3b6d","system_id":"levelo_inurba_marseille","lat":43.30564,"lon":5.36697,"is_reserved":false,"is_disabled":true,"rental_uris":{"android":"levelo://app?vid=967e9a74-8d35-43a8-bb3f-b2f2942f3b6d","ios":"levelo://app?vid=967e9a74-8d35-43a8-bb3f-b2f2942f3b6d"},"vehicle_type_id":"4","last_reported":1733014719,"current_range_meters":38400,"station_id":"ce4bgrp2rcd13ifvqc9g","pricing_plan_id":"cebpf4jnsgd1na2vs0mg"},{"bike_id":"966791e8-cdff-4838-a42b-c9b609a533a7","system_id":"levelo_inurba_marseille","lat":43.27446,"lon":5.40068,"is_reserved":false,"is_disabled":true,"rental_uris":{"android":"levelo://app?vid=966791e8-cdff-4838-a42b-c9b609a533a7","ios":"levelo://app?vid=966791e8-cdff-4838-a42b-c9b609a533a7"},"vehicle_type_id":"4","last_reported":1733014719,"current_range_meters":0,"station_id":"","pricing_plan_id":"cebpf4jnsgd1na2vs0mg"},{"bike_id":"3135885e-3f99-4048-a049-afde352cc915","system_id":"levelo_inurba_marseille","lat":43.29961,"lon":5.41322,"is_reserved":false,"is_disabled":false,"rental_uris":{"android":"levelo://app?vid=3135885e-3f99-4048-a049-afde352cc915","ios":"levelo://app?vid=3135885e-3f99-4048-a049-afde352cc915"},"vehicle_type_id":"4","last_reported":1733014719,"current_range_meters":38800,"station_id":"ce4bhp12rcd13ifvqh9g","pricing_plan_id":"cebpf4jnsgd1na2vs0mg"},{"bike_id":"7974306f-50f1-4979-96e6-42a3a669c81a","system_id":"levelo_inurba_marseille","lat":43.32004,"lon":5.38163,"is_reserved":false,"is_disabled":false,"rental_uris":{"android":"levelo://app?vid=7974306f-50f1-4979-96e6-42a3a669c81a","ios":"levelo://app?vid=7974306f-50f1-4979-96e6-42a3a669c81a"},"vehicle_type_id":"4","last_reported":1733014719,"current_range_meters":8400,"station_id":"ce4bhr12rcd13ifvqhpg","pricing_plan_id":"cebpf4jnsgd1na2vs0mg"},{"bike_id":"cde1050f-394a-4b45-ac65-f5bd69ab4904","system_id":"levelo_inurba_marseille","lat":43.28664,"lon":5.36346,"is_reserved":false,"is_disabled":false,"rental_uris":{"android":"levelo://app?vid=cde1050f-394a-4b45-ac65-f5bd69ab4904","ios":"levelo://app?vid=cde1050f-394a-4b45-ac65-f5bd69ab4904"},"vehicle_type_id":"4","last_reported":1733014719,"current_range_meters":22800,"station_id":"ce4bhah2rcd13ifvqej0","pricing_plan_id":"cebpf4jnsgd1na2vs0mg"},{"bike_id":"a30848b9-846b-4c84-ab58-b51490c2ee6f","system_id":"levelo_inurba_marseille","lat":43.27985,"lon":5.40019,"is_reserved":false,"is_disabled":false,"rental_uris":{"android":"levelo://app?vid=a30848b9-846b-4c84-ab58-b51490c2ee6f","ios":"levelo://app?vid=a30848b9-846b-4c84-ab58-b51490c2ee6f"},"vehicle_type_id":"4","last_reported":1733014719,"current_range_meters":22400,"station_id":"ce4bho92rcd13ifvqh4g","pricing_plan_id":"cebpf4jnsgd1na2vs0mg"},{"bike_id":"676c315a-b492-4490-813c-1e0aa3b114ba","system_id":"levelo_inurba_marseille","lat":43.30912,"lon":5.36851,"is_reserved":false,"is_disabled":false,"rental_uris":{"android":"levelo://app?vid=676c315a-b492-4490-813c-1e0aa3b114ba","ios":"levelo://app?vid=676c315a-b492-4490-813c-1e0aa3b114ba"},"vehicle_type_id":"4","last_reported":1733014719,"current_range_meters":22800,"station_id":"ce4bgn92rcd13ifvqbvg","pricing_plan_id":"cebpf4jnsgd1na2vs0mg"},{"bike_id":"ee3c4318-4146-4fe4-86b0-fc0b9ce70693","system_id":"levelo_inurba_marseille","lat":43.23065,"lon":5.35499,"is_reserved":false,"is_disabled":false,"rental_uris":{"android":"levelo://app?vid=ee3c4318-4146-4fe4-86b0-fc0b9ce70693","ios":"levelo://app?vid=ee3c4318-4146-4fe4-86b0-fc0b9ce70693"},"vehicle_type_id":"4","last_reported":1733014719,"current_range_meters":33200,"station_id":"cpo3342slgdg3j2ifvpg","pricing_plan_id":"cebpf4jnsgd1na2vs0mg"},{"bike_id":"124f06fb-64b7-451d-bd38-84866709eeee","system_id":"levelo_inurba_marseille","lat":43.24054,"lon":5.37756,"is_reserved":false,"is_disabled":false,"rental_uris":{"android":"levelo://app?vid=124f06fb-64b7-451d-bd38-84866709eeee","ios":"levelo://app?vid=124f06fb-64b7-451d-bd38-84866709eeee"},"vehicle_type_id":"4","last_reported":1733014719,"current_range_meters":38800,"station_id":"ce4bhnp2rcd13ifvqgvg","pricing_plan_id":"cebpf4jnsgd1na2vs0mg"},{"bike_id":"bbe63c49-f9d4-4d01-a90b-d71e29ad9f67","system_id":"levelo_inurba_marseille","lat":43.24654,"lon":5.38896,"is_reserved":false,"is_disabled":false,"rental_uris":{"android":"levelo://app?vid=bbe63c49-f9d4-4d01-a90b-d71e29ad9f67","ios":"levelo://app?vid=bbe63c49-f9d4-4d01-a90b-d71e29ad9f67"},"vehicle_type_id":"4","last_reported":1733014719,"current_range_meters":27600,"station_id":"ce4bhg12rcd13ifvqf60","pricing_plan_id":"cebpf4jnsgd1na2vs0mg"},{"bike_id":"c7124f38-3d56-473c-9e8b-76061f1c5a09","system_id":"levelo_inurba_marseille","lat":43.27067,"lon":5.42273,"is_reserved":false,"is_disabled":false,"rental_uris":{"android":"levelo://app?vid=c7124f38-3d56-473c-9e8b-76061f1c5a09","ios":"levelo://app?vid=c7124f38-3d56-473c-9e8b-76061f1c5a09"},"vehicle_type_id":"4","last_reported":1733014719,"current_range_meters":38400,"station_id":"ce4bhk92rcd13ifvqgb0","pricing_plan_id":"cebpf4jnsgd1na2vs0mg"},{"bike_id":"23566205-4f0c-48d0-b9d6-3eb3af3e76c7","system_id":"levelo_inurba_marseille","lat":43.29256,"lon":5.40896,"is_reserved":false,"is_disabled":false,"rental_uris":{"android":"levelo://app?vid=23566205-4f0c-48d0-b9d6-3eb3af3e76c7","ios":"levelo://app?vid=23566205-4f0c-48d0-b9d6-3eb3af3e76c7"},"vehicle_type_id":"4","last_reported":1733014719,"current_range_meters":35600,"station_id":"ce4bh192rcd13ifvqdc0","pricing_plan_id":"cebpf4jnsgd1na2vs0mg"},{"bike_id":"bc349d87-33fa-417a-b576-c9e08ccf7a4b","system_id":"levelo_inurba_marseille","lat":43.30952,"lon":5.3903,"is_reserved":false,"is_disabled":false,"rental_uris":{"android":"levelo://app?vid=bc349d87-33fa-417a-b576-c9e08ccf7a4b","ios":"levelo://app?vid=bc349d87-33fa-417a-b576-c9e08ccf7a4b"},"vehicle_type_id":"4","last_reported":1733014719,"current_range_meters":38800,"station_id":"ce4bgup2rcd13ifvqco0","pricing_plan_id":"cebpf4jnsgd1na2vs0mg"},{"bike_id":"b0bd4cdf-7308-45f0-8e99-a0d5811907ff","system_id":"levelo_inurba_marseille","lat":43.25459,"lon":5.38148,"is_reserved":false,"is_disabled":true,"rental_uris":{"android":"levelo://app?vid=b0bd4cdf-7308-45f0-8e99-a0d5811907ff","ios":"levelo://app?vid=b0bd4cdf-7308-45f0-8e99-a0d5811907ff"},"vehicle_type_id":"4","last_reported":1733014719,"current_range_meters":0,"station_id":"","pricing_plan_id":"cebpf4jnsgd1na2vs0mg"},{"bike_id":"de1c482b-f44e-4cf8-a9d1-e367d542d92f","system_id":"levelo_inurba_marseille","lat":43.31184,"lon":5.38714,"is_reserved":false,"is_disabled":false,"rental_uris":{"android":"levelo://app?vid=de1c482b-f44e-4cf8-a9d1-e367d542d92f","ios":"levelo://app?vid=de1c482b-f44e-4cf8-a9d1-e367d542d92f"},"vehicle_type_id":"4","last_reported":1733014719,"current_range_meters":30400,"station_id":"ce4bgv12rcd13ifvqcp0","pricing_plan_id":"cebpf4jnsgd1na2vs0mg"},{"bike_id":"c593dfd4-4ae3-41ca-96b4-88fea2aa536d","system_id":"levelo_inurba_marseille","lat":43.33733,"lon":5.39185,"is_reserved":false,"is_disabled":true,"rental_uris":{"android":"levelo://app?vid=c593dfd4-4ae3-41ca-96b4-88fea2aa536d","ios":"levelo://app?vid=c593dfd4-4ae3-41ca-96b4-88fea2aa536d"},"vehicle_type_id":"4","last_reported":1733014719,"current_range_meters":6800,"station_id":"ce4bhr92rcd13ifvqhsg","pricing_plan_id":"cebpf4jnsgd1na2vs0mg"},{"bike_id":"73d6737c-22c2-4bea-b69e-b74c082097d4","system_id":"levelo_inurba_marseille","lat":43.30527,"lon":5.3671,"is_reserved":false,"is_disabled":false,"rental_uris":{"android":"levelo://app?vid=73d6737c-22c2-4bea-b69e-b74c082097d4","ios":"levelo://app?vid=73d6737c-22c2-4bea-b69e-b74c082097d4"},"vehicle_type_id":"4","last_reported":1733014719,"current_range_meters":38800,"station_id":"ce4bgrp2rcd13ifvqc9g","pricing_plan_id":"cebpf4jnsgd1na2vs0mg"},{"bike_id":"f0ca66be-c5fa-4f1d-8e2b-9450ca0243d7","system_id":"levelo_inurba_marseille","lat":43.30164,"lon":5.38108,"is_reserved":false,"is_disabled":true,"rental_uris":{"android":"levelo://app?vid=f0ca66be-c5fa-4f1d-8e2b-9450ca0243d7","ios":"levelo://app?vid=f0ca66be-c5fa-4f1d-8e2b-9450ca0243d7"},"vehicle_type_id":"4","last_reported":1733014719,"current_range_meters":35600,"station_id":"ce4bgjp2rcd13ifvqbh0","pricing_plan_id":"cebpf4jnsgd1na2vs0mg"},{"bike_id":"21e63416-2bf9-4519-965f-264ac2187b74","system_id":"levelo_inurba_marseille","lat":43.28659,"lon":5.36346,"is_reserved":false,"is_disabled":false,"rental_uris":{"android":"levelo://app?vid=21e63416-2bf9-4519-965f-264ac2187b74","ios":"levelo://app?vid=21e63416-2bf9-4519-965f-264ac2187b74"},"vehicle_type_id":"4","last_reported":1733014719,"current_range_meters":12000,"station_id":"ce4bhah2rcd13ifvqej0","pricing_plan_id":"cebpf4jnsgd1na2vs0mg"},{"bike_id":"6f7949e1-de87-4a49-8620-fec27e04447f","system_id":"levelo_inurba_marseille","lat":43.33728,"lon":5.39195,"is_reserved":false,"is_disabled":false,"rental_uris":{"android":"levelo://app?vid=6f7949e1-de87-4a49-8620-fec27e04447f","ios":"levelo://app?vid=6f7949e1-de87-4a49-8620-fec27e04447f"},"vehicle_type_id":"4","last_reported":1733014719,"current_range_meters":26000,"station_id":"ce4bhr92rcd13ifvqhsg","pricing_plan_id":"cebpf4jnsgd1na2vs0mg"},{"bike_id":"c552ed6d-0761-488e-8878-bf569826bb18","system_id":"levelo_inurba_marseille","lat":43.28451,"lon":5.35888,"is_reserved":false,"is_disabled":false,"rental_uris":{"android":"levelo://app?vid=c552ed6d-0761-488e-8878-bf569826bb18","ios":"levelo://app?vid=c552ed6d-0761-488e-8878-bf569826bb18"},"vehicle_type_id":"4","last_reported":1733014719,"current_range_meters":20000,"station_id":"ce4bhah2rcd13ifvqei0","pricing_plan_id":"cebpf4jnsgd1na2vs0mg"},{"bike_id":"7066298c-8444-4dbb-8e5a-afa45f0890f5","system_id":"levelo_inurba_marseille","lat":43.288545,"lon":5.393216,"is_reserved":false,"is_disabled":true,"rental_uris":{"android":"levelo://app?vid=7066298c-8444-4dbb-8e5a-afa45f0890f5","ios":"levelo://app?vid=7066298c-8444-4dbb-8e5a-afa45f0890f5"},"vehicle_type_id":"4","last_reported":1733014719,"current_range_meters":10000,"station_id":"ce4bh2p2rcd13ifvqdi0","pricing_plan_id":"cebpf4jnsgd1na2vs0mg"},{"bike_id":"79da6e11-068f-4f85-891a-bf5d6033ae1b","system_id":"levelo_inurba_marseille","lat":43.29189,"lon":5.39312,"is_reserved":false,"is_disabled":true,"rental_uris":{"android":"levelo://app?vid=79da6e11-068f-4f85-891a-bf5d6033ae1b","ios":"levelo://app?vid=79da6e11-068f-4f85-891a-bf5d6033ae1b"},"vehicle_type_id":"4","last_reported":1733014719,"current_range_meters":22000,"station_id":"ce4bh192rcd13ifvqdd0","pricing_plan_id":"cebpf4jnsgd1na2vs0mg"},{"bike_id":"67219899-4fb3-4a00-86a5-7ea8a29fdefe","system_id":"levelo_inurba_marseille","lat":43.30437,"lon":5.38883,"is_reserved":false,"is_disabled":false,"rental_uris":{"android":"levelo://app?vid=67219899-4fb3-4a00-86a5-7ea8a29fdefe","ios":"levelo://app?vid=67219899-4fb3-4a00-86a5-7ea8a29fdefe"},"vehicle_type_id":"4","last_reported":1733014719,"current_range_meters":38800,"station_id":"ce4bgk12rcd13ifvqbi0","pricing_plan_id":"cebpf4jnsgd1na2vs0mg"},{"bike_id":"60b56983-4dd0-4c43-a512-0e9952841805","system_id":"levelo_inurba_marseille","lat":43.3237,"lon":5.38874,"is_reserved":false,"is_disabled":false,"rental_uris":{"android":"levelo://app?vid=60b56983-4dd0-4c43-a512-0e9952841805","ios":"levelo://app?vid=60b56983-4dd0-4c43-a512-0e9952841805"},"vehicle_type_id":"4","last_reported":1733014719,"current_range_meters":16400,"station_id":"ce4bhqp2rcd13ifvqhog","pricing_plan_id":"cebpf4jnsgd1na2vs0mg"},{"bike_id":"c979ff36-215b-4a95-8704-47060028edae","system_id":"levelo_inurba_marseille","lat":43.28451,"lon":5.35883,"is_reserved":false,"is_disabled":false,"rental_uris":{"android":"levelo://app?vid=c979ff36-215b-4a95-8704-47060028edae","ios":"levelo://app?vid=c979ff36-215b-4a95-8704-47060028edae"},"vehicle_type_id":"4","last_reported":1733014719,"current_range_meters":11200,"station_id":"ce4bhah2rcd13ifvqei0","pricing_plan_id":"cebpf4jnsgd1na2vs0mg"},{"bike_id":"adcf561a-8a88-4c37-b670-89abb02d4d5c","system_id":"levelo_inurba_marseille","lat":43.30891,"lon":5.39659,"is_reserved":false,"is_disabled":false,"rental_uris":{"android":"levelo://app?vid=adcf561a-8a88-4c37-b670-89abb02d4d5c","ios":"levelo://app?vid=adcf561a-8a88-4c37-b670-89abb02d4d5c"},"vehicle_type_id":"4","last_reported":1733014719,"current_range_meters":38800,"station_id":"ce4bh012rcd13ifvqcv0","pricing_plan_id":"cebpf4jnsgd1na2vs0mg"},{"bike_id":"114e0915-573b-4faa-a468-a394c2bf69cb","system_id":"levelo_inurba_marseille","lat":43.32656,"lon":5.40991,"is_reserved":false,"is_disabled":false,"rental_uris":{"android":"levelo://app?vid=114e0915-573b-4faa-a468-a394c2bf69cb","ios":"levelo://app?vid=114e0915-573b-4faa-a468-a394c2bf69cb"},"vehicle_type_id":"4","last_reported":1733014719,"current_range_meters":18000,"station_id":"ce4bhpp2rcd13ifvqhgg","pricing_plan_id":"cebpf4jnsgd1na2vs0mg"},{"bike_id":"967d63b8-080b-48e0-8160-35acc111be9f","system_id":"levelo_inurba_marseille","lat":43.2695,"lon":5.38638,"is_reserved":false,"is_disabled":false,"rental_uris":{"android":"levelo://app?vid=967d63b8-080b-48e0-8160-35acc111be9f","ios":"levelo://app?vid=967d63b8-080b-48e0-8160-35acc111be9f"},"vehicle_type_id":"4","last_reported":1733014719,"current_range_meters":21600,"station_id":"ce4bhh92rcd13ifvqfh0","pricing_plan_id":"cebpf4jnsgd1na2vs0mg"},{"bike_id":"2e741d69-fd4e-4c10-b025-4e7a51d280c7","system_id":"levelo_inurba_marseille","lat":43.31084,"lon":5.42431,"is_reserved":false,"is_disabled":false,"rental_uris":{"android":"levelo://app?vid=2e741d69-fd4e-4c10-b025-4e7a51d280c7","ios":"levelo://app?vid=2e741d69-fd4e-4c10-b025-4e7a51d280c7"},"vehicle_type_id":"4","last_reported":1733014719,"current_range_meters":10800,"station_id":"ce4bhp92rcd13ifvqhag","pricing_plan_id":"cebpf4jnsgd1na2vs0mg"},{"bike_id":"a0f85c10-8e22-402d-b0a6-d224b35a3b53","system_id":"levelo_inurba_marseille","lat":43.25817,"lon":5.39427,"is_reserved":false,"is_disabled":false,"rental_uris":{"android":"levelo://app?vid=a0f85c10-8e22-402d-b0a6-d224b35a3b53","ios":"levelo://app?vid=a0f85c10-8e22-402d-b0a6-d224b35a3b53"},"vehicle_type_id":"4","last_reported":1733014719,"current_range_meters":38800,"station_id":"ce4bhip2rcd13ifvqft0","pricing_plan_id":"cebpf4jnsgd1na2vs0mg"},{"bike_id":"7cccf4b6-e305-406f-aa1d-0998f168efc1","system_id":"levelo_inurba_marseille","lat":43.2789,"lon":5.37996,"is_reserved":false,"is_disabled":false,"rental_uris":{"android":"levelo://app?vid=7cccf4b6-e305-406f-aa1d-0998f168efc1","ios":"levelo://app?vid=7cccf4b6-e305-406f-aa1d-0998f168efc1"},"vehicle_type_id":"4","last_reported":1733014719,"current_range_meters":12800,"station_id":"ce4bhf92rcd13ifvqf50","pricing_plan_id":"cebpf4jnsgd1na2vs0mg"},{"bike_id":"7e34e2cc-7262-4633-b6ee-8a75aae8a374","system_id":"levelo_inurba_marseille","lat":43.29001,"lon":5.35605,"is_reserved":false,"is_disabled":false,"rental_uris":{"android":"levelo://app?vid=7e34e2cc-7262-4633-b6ee-8a75aae8a374","ios":"levelo://app?vid=7e34e2cc-7262-4633-b6ee-8a75aae8a374"},"vehicle_type_id":"4","last_reported":1733014719,"current_range_meters":38000,"station_id":"ce4bhb92rcd13ifvqen0","pricing_plan_id":"cebpf4jnsgd1na2vs0mg"},{"bike_id":"98037c3a-9b2c-4fc3-b5c9-984ee3607601","system_id":"levelo_inurba_marseille","lat":43.32366,"lon":5.36763,"is_reserved":false,"is_disabled":false,"rental_uris":{"android":"levelo://app?vid=98037c3a-9b2c-4fc3-b5c9-984ee3607601","ios":"levelo://app?vid=98037c3a-9b2c-4fc3-b5c9-984ee3607601"},"vehicle_type_id":"4","last_reported":1733014719,"current_range_meters":38800,"station_id":"ce4bhsh2rcd13ifvqi2g","pricing_plan_id":"cebpf4jnsgd1na2vs0mg"},{"bike_id":"7ed2229e-6e77-42d8-826e-e15ec9f33077","system_id":"levelo_inurba_marseille","lat":43.26686,"lon":5.38273,"is_reserved":false,"is_disabled":true,"rental_uris":{"android":"levelo://app?vid=7ed2229e-6e77-42d8-826e-e15ec9f33077","ios":"levelo://app?vid=7ed2229e-6e77-42d8-826e-e15ec9f33077"},"vehicle_type_id":"4","last_reported":1733014719,"current_range_meters":19200,"station_id":"ce4bhg92rcd13ifvqf90","pricing_plan_id":"cebpf4jnsgd1na2vs0mg"},{"bike_id":"8fdf0680-166b-4766-a655-d02e84d131fa","system_id":"levelo_inurba_marseille","lat":43.30959,"lon":5.39017,"is_reserved":false,"is_disabled":true,"rental_uris":{"android":"levelo://app?vid=8fdf0680-166b-4766-a655-d02e84d131fa","ios":"levelo://app?vid=8fdf0680-166b-4766-a655-d02e84d131fa"},"vehicle_type_id":"4","last_reported":1733014719,"current_range_meters":38800,"station_id":"ce4bgup2rcd13ifvqco0","pricing_plan_id":"cebpf4jnsgd1na2vs0mg"},{"bike_id":"8cf056f9-30ec-4a7b-83cb-00f2a6a1b412","system_id":"levelo_inurba_marseille","lat":43.29221,"lon":5.36051,"is_reserved":false,"is_disabled":false,"rental_uris":{"android":"levelo://app?vid=8cf056f9-30ec-4a7b-83cb-00f2a6a1b412","ios":"levelo://app?vid=8cf056f9-30ec-4a7b-83cb-00f2a6a1b412"},"vehicle_type_id":"4","last_reported":1733014719,"current_range_meters":28000,"station_id":"ce4bhbh2rcd13ifvqeqg","pricing_plan_id":"cebpf4jnsgd1na2vs0mg"},{"bike_id":"64cbfd6a-4a4e-4d37-982c-18402a201eee","system_id":"levelo_inurba_marseille","lat":43.28652,"lon":5.36371,"is_reserved":false,"is_disabled":true,"rental_uris":{"android":"levelo://app?vid=64cbfd6a-4a4e-4d37-982c-18402a201eee","ios":"levelo://app?vid=64cbfd6a-4a4e-4d37-982c-18402a201eee"},"vehicle_type_id":"4","last_reported":1733014719,"current_range_meters":19200,"station_id":"ce4bhah2rcd13ifvqej0","pricing_plan_id":"cebpf4jnsgd1na2vs0mg"},{"bike_id":"c0054edb-5a8c-4cde-93a6-194d063ea63c","system_id":"levelo_inurba_marseille","lat":43.26195,"lon":5.37927,"is_reserved":false,"is_disabled":false,"rental_uris":{"android":"levelo://app?vid=c0054edb-5a8c-4cde-93a6-194d063ea63c","ios":"levelo://app?vid=c0054edb-5a8c-4cde-93a6-194d063ea63c"},"vehicle_type_id":"4","last_reported":1733014719,"current_range_meters":38800,"station_id":"ce4bhjp2rcd13ifvqg90","pricing_plan_id":"cebpf4jnsgd1na2vs0mg"},{"bike_id":"9dddafc6-95e3-45cc-8a69-dd4276cf3471","system_id":"levelo_inurba_marseille","lat":43.29981,"lon":5.37175,"is_reserved":false,"is_disabled":false,"rental_uris":{"android":"levelo://app?vid=9dddafc6-95e3-45cc-8a69-dd4276cf3471","ios":"levelo://app?vid=9dddafc6-95e3-45cc-8a69-dd4276cf3471"},"vehicle_type_id":"4","last_reported":1733014719,"current_range_meters":20800,"station_id":"ce4bgr92rcd13ifvqc7g","pricing_plan_id":"cebpf4jnsgd1na2vs0mg"},{"bike_id":"3ab4c64b-a573-471d-9dc1-aa13385ed60a","system_id":"levelo_inurba_marseille","lat":43.32649,"lon":5.40996,"is_reserved":false,"is_disabled":false,"rental_uris":{"android":"levelo://app?vid=3ab4c64b-a573-471d-9dc1-aa13385ed60a","ios":"levelo://app?vid=3ab4c64b-a573-471d-9dc1-aa13385ed60a"},"vehicle_type_id":"4","last_reported":1733014719,"current_range_meters":39200,"station_id":"ce4bhpp2rcd13ifvqhgg","pricing_plan_id":"cebpf4jnsgd1na2vs0mg"},{"bike_id":"1aa61925-f4ba-4fd5-b1de-08db522586c3","system_id":"levelo_inurba_marseille","lat":43.27064,"lon":5.40257,"is_reserved":false,"is_disabled":false,"rental_uris":{"android":"levelo://app?vid=1aa61925-f4ba-4fd5-b1de-08db522586c3","ios":"levelo://app?vid=1aa61925-f4ba-4fd5-b1de-08db522586c3"},"vehicle_type_id":"4","last_reported":1733014719,"current_range_meters":38800,"station_id":"ce4bhk92rcd13ifvqgc0","pricing_plan_id":"cebpf4jnsgd1na2vs0mg"},{"bike_id":"706099cd-f999-45b2-b657-accb6dff59e3","system_id":"levelo_inurba_marseille","lat":43.29537,"lon":5.38552,"is_reserved":false,"is_disabled":false,"rental_uris":{"android":"levelo://app?vid=706099cd-f999-45b2-b657-accb6dff59e3","ios":"levelo://app?vid=706099cd-f999-45b2-b657-accb6dff59e3"},"vehicle_type_id":"4","last_reported":1733014719,"current_range_meters":10000,"station_id":"ce4bgih2rcd13ifvqba0","pricing_plan_id":"cebpf4jnsgd1na2vs0mg"},{"bike_id":"694ada16-62be-4cd2-822e-a4599887121c","system_id":"levelo_inurba_marseille","lat":43.23191,"lon":5.35557,"is_reserved":false,"is_disabled":false,"rental_uris":{"android":"levelo://app?vid=694ada16-62be-4cd2-822e-a4599887121c","ios":"levelo://app?vid=694ada16-62be-4cd2-822e-a4599887121c"},"vehicle_type_id":"4","last_reported":1733014719,"current_range_meters":34000,"station_id":"ce4bhu92rcd13ifvqi70","pricing_plan_id":"cebpf4jnsgd1na2vs0mg"},{"bike_id":"a99b7b52-d829-4dd1-8d82-0e889be4d3e0","system_id":"levelo_inurba_marseille","lat":43.2794,"lon":5.41045,"is_reserved":false,"is_disabled":false,"rental_uris":{"android":"levelo://app?vid=a99b7b52-d829-4dd1-8d82-0e889be4d3e0","ios":"levelo://app?vid=a99b7b52-d829-4dd1-8d82-0e889be4d3e0"},"vehicle_type_id":"4","last_reported":1733014719,"current_range_meters":13600,"station_id":"ce4bhnp2rcd13ifvqh0g","pricing_plan_id":"cebpf4jnsgd1na2vs0mg"},{"bike_id":"67fa2a9e-eed8-4ed6-bdd8-7d1023a52b4e","system_id":"levelo_inurba_marseille","lat":43.26937,"lon":5.38925,"is_reserved":false,"is_disabled":true,"rental_uris":{"android":"levelo://app?vid=67fa2a9e-eed8-4ed6-bdd8-7d1023a52b4e","ios":"levelo://app?vid=67fa2a9e-eed8-4ed6-bdd8-7d1023a52b4e"},"vehicle_type_id":"4","last_reported":1733014719,"current_range_meters":8000,"station_id":"ce4bhhh2rcd13ifvqfl0","pricing_plan_id":"cebpf4jnsgd1na2vs0mg"},{"bike_id":"c8537d05-a067-41ab-8139-dc89a2af92b1","system_id":"levelo_inurba_marseille","lat":43.31885,"lon":5.40743,"is_reserved":false,"is_disabled":false,"rental_uris":{"android":"levelo://app?vid=c8537d05-a067-41ab-8139-dc89a2af92b1","ios":"levelo://app?vid=c8537d05-a067-41ab-8139-dc89a2af92b1"},"vehicle_type_id":"4","last_reported":1733014719,"current_range_meters":18000,"station_id":"ce4bhq12rcd13ifvqhig","pricing_plan_id":"cebpf4jnsgd1na2vs0mg"},{"bike_id":"6bd29d51-cdaf-464d-8632-5d5f71be0ed4","system_id":"levelo_inurba_marseille","lat":43.27579,"lon":5.38416,"is_reserved":false,"is_disabled":false,"rental_uris":{"android":"levelo://app?vid=6bd29d51-cdaf-464d-8632-5d5f71be0ed4","ios":"levelo://app?vid=6bd29d51-cdaf-464d-8632-5d5f71be0ed4"},"vehicle_type_id":"4","last_reported":1733014719,"current_range_meters":15200,"station_id":"ce4bhh92rcd13ifvqfi0","pricing_plan_id":"cebpf4jnsgd1na2vs0mg"},{"bike_id":"f453dc37-c945-448b-80e2-38bae3f013a5","system_id":"levelo_inurba_marseille","lat":43.32,"lon":5.38187,"is_reserved":false,"is_disabled":false,"rental_uris":{"android":"levelo://app?vid=f453dc37-c945-448b-80e2-38bae3f013a5","ios":"levelo://app?vid=f453dc37-c945-448b-80e2-38bae3f013a5"},"vehicle_type_id":"4","last_reported":1733014719,"current_range_meters":32000,"station_id":"ce4bhr12rcd13ifvqhpg","pricing_plan_id":"cebpf4jnsgd1na2vs0mg"},{"bike_id":"60d0d009-d791-4c47-9ce7-ec77d17beb97","system_id":"levelo_inurba_marseille","lat":43.29254,"lon":5.40906,"is_reserved":false,"is_disabled":false,"rental_uris":{"android":"levelo://app?vid=60d0d009-d791-4c47-9ce7-ec77d17beb97","ios":"levelo://app?vid=60d0d009-d791-4c47-9ce7-ec77d17beb97"},"vehicle_type_id":"4","last_reported":1733014719,"current_range_meters":8800,"station_id":"ce4bh192rcd13ifvqdc0","pricing_plan_id":"cebpf4jnsgd1na2vs0mg"},{"bike_id":"db859837-cb21-41ca-b64b-3ebed09d2649","system_id":"levelo_inurba_marseille","lat":43.26689,"lon":5.38275,"is_reserved":false,"is_disabled":false,"rental_uris":{"android":"levelo://app?vid=db859837-cb21-41ca-b64b-3ebed09d2649","ios":"levelo://app?vid=db859837-cb21-41ca-b64b-3ebed09d2649"},"vehicle_type_id":"4","last_reported":1733014719,"current_range_meters":39200,"station_id":"ce4bhg92rcd13ifvqf90","pricing_plan_id":"cebpf4jnsgd1na2vs0mg"},{"bike_id":"e12c81c6-9629-486c-8758-7915652128f3","system_id":"levelo_inurba_marseille","lat":43.26501,"lon":5.39536,"is_reserved":false,"is_disabled":false,"rental_uris":{"android":"levelo://app?vid=e12c81c6-9629-486c-8758-7915652128f3","ios":"levelo://app?vid=e12c81c6-9629-486c-8758-7915652128f3"},"vehicle_type_id":"4","last_reported":1733014719,"current_range_meters":19600,"station_id":"ce4bhi12rcd13ifvqfq0","pricing_plan_id":"cebpf4jnsgd1na2vs0mg"},{"bike_id":"19e9d73e-81b9-4898-a612-4a6c7d093668","system_id":"levelo_inurba_marseille","lat":43.27995,"lon":5.41662,"is_reserved":false,"is_disabled":false,"rental_uris":{"android":"levelo://app?vid=19e9d73e-81b9-4898-a612-4a6c7d093668","ios":"levelo://app?vid=19e9d73e-81b9-4898-a612-4a6c7d093668"},"vehicle_type_id":"4","last_reported":1733014719,"current_range_meters":37600,"station_id":"ce4bho12rcd13ifvqh1g","pricing_plan_id":"cebpf4jnsgd1na2vs0mg"},{"bike_id":"f8968860-9ebe-425f-866f-a253a48101dd","system_id":"levelo_inurba_marseille","lat":43.2845,"lon":5.35895,"is_reserved":false,"is_disabled":false,"rental_uris":{"android":"levelo://app?vid=f8968860-9ebe-425f-866f-a253a48101dd","ios":"levelo://app?vid=f8968860-9ebe-425f-866f-a253a48101dd"},"vehicle_type_id":"4","last_reported":1733014719,"current_range_meters":36400,"station_id":"ce4bhah2rcd13ifvqei0","pricing_plan_id":"cebpf4jnsgd1na2vs0mg"},{"bike_id":"bc749360-3ce4-4dd6-a0ac-83aa82c323a7","system_id":"levelo_inurba_marseille","lat":43.28154,"lon":5.42639,"is_reserved":false,"is_disabled":true,"rental_uris":{"android":"levelo://app?vid=bc749360-3ce4-4dd6-a0ac-83aa82c323a7","ios":"levelo://app?vid=bc749360-3ce4-4dd6-a0ac-83aa82c323a7"},"vehicle_type_id":"4","last_reported":1733014719,"current_range_meters":32400,"station_id":"ce4bhnh2rcd13ifvqgug","pricing_plan_id":"cebpf4jnsgd1na2vs0mg"},{"bike_id":"f1d5a9ca-69bd-46e0-990d-3997ecd75a21","system_id":"levelo_inurba_marseille","lat":43.25718,"lon":5.41113,"is_reserved":false,"is_disabled":false,"rental_uris":{"android":"levelo://app?vid=f1d5a9ca-69bd-46e0-990d-3997ecd75a21","ios":"levelo://app?vid=f1d5a9ca-69bd-46e0-990d-3997ecd75a21"},"vehicle_type_id":"4","last_reported":1733014719,"current_range_meters":24000,"station_id":"ce4bhkp2rcd13ifvqgd0","pricing_plan_id":"cebpf4jnsgd1na2vs0mg"},{"bike_id":"0c121fdf-68e5-4b36-b3e7-e4c85e4a5bd4","system_id":"levelo_inurba_marseille","lat":43.24806,"lon":5.37455,"is_reserved":false,"is_disabled":false,"rental_uris":{"android":"levelo://app?vid=0c121fdf-68e5-4b36-b3e7-e4c85e4a5bd4","ios":"levelo://app?vid=0c121fdf-68e5-4b36-b3e7-e4c85e4a5bd4"},"vehicle_type_id":"4","last_reported":1733014719,"current_range_meters":38800,"station_id":"ce4bhgh2rcd13ifvqfb0","pricing_plan_id":"cebpf4jnsgd1na2vs0mg"},{"bike_id":"4d4c884f-6933-49c0-8899-f9856d90f44d","system_id":"levelo_inurba_marseille","lat":43.29748,"lon":5.37971,"is_reserved":false,"is_disabled":true,"rental_uris":{"android":"levelo://app?vid=4d4c884f-6933-49c0-8899-f9856d90f44d","ios":"levelo://app?vid=4d4c884f-6933-49c0-8899-f9856d90f44d"},"vehicle_type_id":"4","last_reported":1733014719,"current_range_meters":0,"station_id":"","pricing_plan_id":"cebpf4jnsgd1na2vs0mg"},{"bike_id":"49383f8c-5e0c-4bb5-aa2b-e1c81f4536f3","system_id":"levelo_inurba_marseille","lat":43.32295,"lon":5.38257,"is_reserved":false,"is_disabled":false,"rental_uris":{"android":"levelo://app?vid=49383f8c-5e0c-4bb5-aa2b-e1c81f4536f3","ios":"levelo://app?vid=49383f8c-5e0c-4bb5-aa2b-e1c81f4536f3"},"vehicle_type_id":"4","last_reported":1733014719,"current_range_meters":28000,"station_id":"ce4bhr12rcd13ifvqhqg","pricing_plan_id":"cebpf4jnsgd1na2vs0mg"},{"bike_id":"62b2d2e3-746b-4129-93de-4f5e3efe1d55","system_id":"levelo_inurba_marseille","lat":43.26948,"lon":5.38636,"is_reserved":false,"is_disabled":false,"rental_uris":{"android":"levelo://app?vid=62b2d2e3-746b-4129-93de-4f5e3efe1d55","ios":"levelo://app?vid=62b2d2e3-746b-4129-93de-4f5e3efe1d55"},"vehicle_type_id":"4","last_reported":1733014719,"current_range_meters":37600,"station_id":"ce4bhh92rcd13ifvqfh0","pricing_plan_id":"cebpf4jnsgd1na2vs0mg"},{"bike_id":"508e99d3-eb30-4039-9dc9-672fe0ea36b7","system_id":"levelo_inurba_marseille","lat":43.2757,"lon":5.38431,"is_reserved":false,"is_disabled":false,"rental_uris":{"android":"levelo://app?vid=508e99d3-eb30-4039-9dc9-672fe0ea36b7","ios":"levelo://app?vid=508e99d3-eb30-4039-9dc9-672fe0ea36b7"},"vehicle_type_id":"4","last_reported":1733014719,"current_range_meters":30000,"station_id":"ce4bhh92rcd13ifvqfi0","pricing_plan_id":"cebpf4jnsgd1na2vs0mg"},{"bike_id":"c6fd581e-fb92-4619-ac86-89d0d8c3fccf","system_id":"levelo_inurba_marseille","lat":43.28664,"lon":5.36354,"is_reserved":false,"is_disabled":false,"rental_uris":{"android":"levelo://app?vid=c6fd581e-fb92-4619-ac86-89d0d8c3fccf","ios":"levelo://app?vid=c6fd581e-fb92-4619-ac86-89d0d8c3fccf"},"vehicle_type_id":"4","last_reported":1733014719,"current_range_meters":18800,"station_id":"ce4bhah2rcd13ifvqej0","pricing_plan_id":"cebpf4jnsgd1na2vs0mg"},{"bike_id":"9009be37-c6b1-406b-b0a8-fbab355f715e","system_id":"levelo_inurba_marseille","lat":43.33763,"lon":5.37495,"is_reserved":false,"is_disabled":false,"rental_uris":{"android":"levelo://app?vid=9009be37-c6b1-406b-b0a8-fbab355f715e","ios":"levelo://app?vid=9009be37-c6b1-406b-b0a8-fbab355f715e"},"vehicle_type_id":"4","last_reported":1733014719,"current_range_meters":34000,"station_id":"","pricing_plan_id":"cebpf4jnsgd1na2vs0mg"},{"bike_id":"b4fa6c6b-8e1c-4442-9b62-cd3f702b4004","system_id":"levelo_inurba_marseille","lat":43.32484,"lon":5.36561,"is_reserved":false,"is_disabled":false,"rental_uris":{"android":"levelo://app?vid=b4fa6c6b-8e1c-4442-9b62-cd3f702b4004","ios":"levelo://app?vid=b4fa6c6b-8e1c-4442-9b62-cd3f702b4004"},"vehicle_type_id":"4","last_reported":1733014719,"current_range_meters":13600,"station_id":"ce4bhs12rcd13ifvqhvg","pricing_plan_id":"cebpf4jnsgd1na2vs0mg"},{"bike_id":"b7b33697-14a7-4110-9b8b-4194e6ef5f3f","system_id":"levelo_inurba_marseille","lat":43.27281,"lon":5.39204,"is_reserved":false,"is_disabled":true,"rental_uris":{"android":"levelo://app?vid=b7b33697-14a7-4110-9b8b-4194e6ef5f3f","ios":"levelo://app?vid=b7b33697-14a7-4110-9b8b-4194e6ef5f3f"},"vehicle_type_id":"4","last_reported":1733014719,"current_range_meters":0,"station_id":"","pricing_plan_id":"cebpf4jnsgd1na2vs0mg"},{"bike_id":"e4aad7d9-91ba-40da-ab51-51d240abcedf","system_id":"levelo_inurba_marseille","lat":43.31069,"lon":5.3835,"is_reserved":false,"is_disabled":false,"rental_uris":{"android":"levelo://app?vid=e4aad7d9-91ba-40da-ab51-51d240abcedf","ios":"levelo://app?vid=e4aad7d9-91ba-40da-ab51-51d240abcedf"},"vehicle_type_id":"4","last_reported":1733014719,"current_range_meters":14800,"station_id":"ce4bgv92rcd13ifvqcr0","pricing_plan_id":"cebpf4jnsgd1na2vs0mg"},{"bike_id":"ac49fba4-30df-4893-b052-7d9d76fd86a2","system_id":"levelo_inurba_marseille","lat":43.29254,"lon":5.3843,"is_reserved":false,"is_disabled":true,"rental_uris":{"android":"levelo://app?vid=ac49fba4-30df-4893-b052-7d9d76fd86a2","ios":"levelo://app?vid=ac49fba4-30df-4893-b052-7d9d76fd86a2"},"vehicle_type_id":"4","last_reported":1733014719,"current_range_meters":14800,"station_id":"ce4bh692rcd13ifvqea0","pricing_plan_id":"cebpf4jnsgd1na2vs0mg"},{"bike_id":"a3d540a5-c9e8-4c92-9399-ec0baac57a71","system_id":"levelo_inurba_marseille","lat":43.29531,"lon":5.38535,"is_reserved":false,"is_disabled":true,"rental_uris":{"android":"levelo://app?vid=a3d540a5-c9e8-4c92-9399-ec0baac57a71","ios":"levelo://app?vid=a3d540a5-c9e8-4c92-9399-ec0baac57a71"},"vehicle_type_id":"4","last_reported":1733014719,"current_range_meters":36800,"station_id":"ce4bgih2rcd13ifvqba0","pricing_plan_id":"cebpf4jnsgd1na2vs0mg"},{"bike_id":"f8c96851-0afb-4e76-963e-6a283010bcce","system_id":"levelo_inurba_marseille","lat":43.25728,"lon":5.41111,"is_reserved":false,"is_disabled":false,"rental_uris":{"android":"levelo://app?vid=f8c96851-0afb-4e76-963e-6a283010bcce","ios":"levelo://app?vid=f8c96851-0afb-4e76-963e-6a283010bcce"},"vehicle_type_id":"4","last_reported":1733014719,"current_range_meters":12800,"station_id":"ce4bhkp2rcd13ifvqgd0","pricing_plan_id":"cebpf4jnsgd1na2vs0mg"},{"bike_id":"ea17848e-140e-4e59-866b-7b61d3c6d0ff","system_id":"levelo_inurba_marseille","lat":43.30789,"lon":5.38134,"is_reserved":false,"is_disabled":false,"rental_uris":{"android":"levelo://app?vid=ea17848e-140e-4e59-866b-7b61d3c6d0ff","ios":"levelo://app?vid=ea17848e-140e-4e59-866b-7b61d3c6d0ff"},"vehicle_type_id":"4","last_reported":1733014719,"current_range_meters":32000,"station_id":"ce4bgt12rcd13ifvqce0","pricing_plan_id":"cebpf4jnsgd1na2vs0mg"},{"bike_id":"70a61c2b-1936-471a-ab44-14a89c19f8e3","system_id":"levelo_inurba_marseille","lat":43.28702,"lon":5.39985,"is_reserved":false,"is_disabled":false,"rental_uris":{"android":"levelo://app?vid=70a61c2b-1936-471a-ab44-14a89c19f8e3","ios":"levelo://app?vid=70a61c2b-1936-471a-ab44-14a89c19f8e3"},"vehicle_type_id":"4","last_reported":1733014719,"current_range_meters":20400,"station_id":"ce4bho92rcd13ifvqh3g","pricing_plan_id":"cebpf4jnsgd1na2vs0mg"},{"bike_id":"3abdb507-aca9-41cf-ab5c-c13fb795c3a0","system_id":"levelo_inurba_marseille","lat":43.28434,"lon":5.34999,"is_reserved":false,"is_disabled":false,"rental_uris":{"android":"levelo://app?vid=3abdb507-aca9-41cf-ab5c-c13fb795c3a0","ios":"levelo://app?vid=3abdb507-aca9-41cf-ab5c-c13fb795c3a0"},"vehicle_type_id":"4","last_reported":1733014719,"current_range_meters":6000,"station_id":"ce4bhbh2rcd13ifvqepg","pricing_plan_id":"cebpf4jnsgd1na2vs0mg"},{"bike_id":"cc2b3d18-a038-4bc3-86be-7bfa09c84b01","system_id":"levelo_inurba_marseille","lat":43.3254,"lon":5.41442,"is_reserved":false,"is_disabled":false,"rental_uris":{"android":"levelo://app?vid=cc2b3d18-a038-4bc3-86be-7bfa09c84b01","ios":"levelo://app?vid=cc2b3d18-a038-4bc3-86be-7bfa09c84b01"},"vehicle_type_id":"4","last_reported":1733014719,"current_range_meters":38800,"station_id":"ce4bhq12rcd13ifvqhhg","pricing_plan_id":"cebpf4jnsgd1na2vs0mg"},{"bike_id":"7fda7038-d61c-405a-a660-6de6859d9497","system_id":"levelo_inurba_marseille","lat":43.32658,"lon":5.40988,"is_reserved":false,"is_disabled":false,"rental_uris":{"android":"levelo://app?vid=7fda7038-d61c-405a-a660-6de6859d9497","ios":"levelo://app?vid=7fda7038-d61c-405a-a660-6de6859d9497"},"vehicle_type_id":"4","last_reported":1733014719,"current_range_meters":38800,"station_id":"ce4bhpp2rcd13ifvqhgg","pricing_plan_id":"cebpf4jnsgd1na2vs0mg"},{"bike_id":"97b35c0e-7e77-4f0a-83fa-58fbc99a2959","system_id":"levelo_inurba_marseille","lat":43.337444,"lon":5.374475,"is_reserved":false,"is_disabled":false,"rental_uris":{"android":"levelo://app?vid=97b35c0e-7e77-4f0a-83fa-58fbc99a2959","ios":"levelo://app?vid=97b35c0e-7e77-4f0a-83fa-58fbc99a2959"},"vehicle_type_id":"4","last_reported":1733014719,"current_range_meters":33200,"station_id":"","pricing_plan_id":"cebpf4jnsgd1na2vs0mg"},{"bike_id":"90e6624d-f15b-40a9-aa21-66d0047fb8c0","system_id":"levelo_inurba_marseille","lat":43.33734,"lon":5.37457,"is_reserved":false,"is_disabled":false,"rental_uris":{"android":"levelo://app?vid=90e6624d-f15b-40a9-aa21-66d0047fb8c0","ios":"levelo://app?vid=90e6624d-f15b-40a9-aa21-66d0047fb8c0"},"vehicle_type_id":"4","last_reported":1733014719,"current_range_meters":8000,"station_id":"","pricing_plan_id":"cebpf4jnsgd1na2vs0mg"},{"bike_id":"b66fb375-1876-4d28-b6f1-9e22a60ae722","system_id":"levelo_inurba_marseille","lat":43.25824,"lon":5.39428,"is_reserved":false,"is_disabled":false,"rental_uris":{"android":"levelo://app?vid=b66fb375-1876-4d28-b6f1-9e22a60ae722","ios":"levelo://app?vid=b66fb375-1876-4d28-b6f1-9e22a60ae722"},"vehicle_type_id":"4","last_reported":1733014719,"current_range_meters":38000,"station_id":"ce4bhip2rcd13ifvqft0","pricing_plan_id":"cebpf4jnsgd1na2vs0mg"},{"bike_id":"0f2c3dea-2ab0-4ee6-a0d3-ab75daa9c1e8","system_id":"levelo_inurba_marseille","lat":43.29275,"lon":5.40122,"is_reserved":false,"is_disabled":false,"rental_uris":{"android":"levelo://app?vid=0f2c3dea-2ab0-4ee6-a0d3-ab75daa9c1e8","ios":"levelo://app?vid=0f2c3dea-2ab0-4ee6-a0d3-ab75daa9c1e8"},"vehicle_type_id":"4","last_reported":1733014719,"current_range_meters":26000,"station_id":"ce4bh312rcd13ifvqdk0","pricing_plan_id":"cebpf4jnsgd1na2vs0mg"},{"bike_id":"314d1365-c0f9-4b36-8299-e279909a774d","system_id":"levelo_inurba_marseille","lat":43.31214,"lon":5.36859,"is_reserved":false,"is_disabled":true,"rental_uris":{"android":"levelo://app?vid=314d1365-c0f9-4b36-8299-e279909a774d","ios":"levelo://app?vid=314d1365-c0f9-4b36-8299-e279909a774d"},"vehicle_type_id":"4","last_reported":1733014719,"current_range_meters":400,"station_id":"ce4bgl92rcd13ifvqbq0","pricing_plan_id":"cebpf4jnsgd1na2vs0mg"},{"bike_id":"c4e5279c-8597-4610-8585-502e60022764","system_id":"levelo_inurba_marseille","lat":43.25111,"lon":5.40317,"is_reserved":false,"is_disabled":false,"rental_uris":{"android":"levelo://app?vid=c4e5279c-8597-4610-8585-502e60022764","ios":"levelo://app?vid=c4e5279c-8597-4610-8585-502e60022764"},"vehicle_type_id":"4","last_reported":1733014719,"current_range_meters":14000,"station_id":"ce4bhlh2rcd13ifvqgig","pricing_plan_id":"cebpf4jnsgd1na2vs0mg"},{"bike_id":"7c30d76c-ee78-40d0-9520-699c67246c6e","system_id":"levelo_inurba_marseille","lat":43.279168,"lon":5.395765,"is_reserved":false,"is_disabled":false,"rental_uris":{"android":"levelo://app?vid=7c30d76c-ee78-40d0-9520-699c67246c6e","ios":"levelo://app?vid=7c30d76c-ee78-40d0-9520-699c67246c6e"},"vehicle_type_id":"4","last_reported":1733014719,"current_range_meters":6400,"station_id":"ce4bhf92rcd13ifvqf40","pricing_plan_id":"cebpf4jnsgd1na2vs0mg"},{"bike_id":"256ed7b4-aff1-4687-9338-98ca1590cf7b","system_id":"levelo_inurba_marseille","lat":43.33746,"lon":5.37457,"is_reserved":false,"is_disabled":false,"rental_uris":{"android":"levelo://app?vid=256ed7b4-aff1-4687-9338-98ca1590cf7b","ios":"levelo://app?vid=256ed7b4-aff1-4687-9338-98ca1590cf7b"},"vehicle_type_id":"4","last_reported":1733014719,"current_range_meters":20000,"station_id":"","pricing_plan_id":"cebpf4jnsgd1na2vs0mg"},{"bike_id":"6e4c32a8-d3cb-4042-8d08-03d91616343f","system_id":"levelo_inurba_marseille","lat":43.2549,"lon":5.37648,"is_reserved":false,"is_disabled":false,"rental_uris":{"android":"levelo://app?vid=6e4c32a8-d3cb-4042-8d08-03d91616343f","ios":"levelo://app?vid=6e4c32a8-d3cb-4042-8d08-03d91616343f"},"vehicle_type_id":"4","last_reported":1733014719,"current_range_meters":38800,"station_id":"","pricing_plan_id":"cebpf4jnsgd1na2vs0mg"},{"bike_id":"064861a6-5a15-4e22-bc40-26ea165590ab","system_id":"levelo_inurba_marseille","lat":43.29194,"lon":5.39311,"is_reserved":false,"is_disabled":true,"rental_uris":{"android":"levelo://app?vid=064861a6-5a15-4e22-bc40-26ea165590ab","ios":"levelo://app?vid=064861a6-5a15-4e22-bc40-26ea165590ab"},"vehicle_type_id":"4","last_reported":1733014719,"current_range_meters":26000,"station_id":"ce4bh192rcd13ifvqdd0","pricing_plan_id":"cebpf4jnsgd1na2vs0mg"},{"bike_id":"7bbcbdb2-4b3f-4330-a16c-082808276357","system_id":"levelo_inurba_marseille","lat":43.26684,"lon":5.38274,"is_reserved":false,"is_disabled":false,"rental_uris":{"android":"levelo://app?vid=7bbcbdb2-4b3f-4330-a16c-082808276357","ios":"levelo://app?vid=7bbcbdb2-4b3f-4330-a16c-082808276357"},"vehicle_type_id":"4","last_reported":1733014719,"current_range_meters":29600,"station_id":"ce4bhg92rcd13ifvqf90","pricing_plan_id":"cebpf4jnsgd1na2vs0mg"},{"bike_id":"e8fa7be1-2407-41a7-b843-e7c70f1917ef","system_id":"levelo_inurba_marseille","lat":43.27611,"lon":5.36109,"is_reserved":false,"is_disabled":true,"rental_uris":{"android":"levelo://app?vid=e8fa7be1-2407-41a7-b843-e7c70f1917ef","ios":"levelo://app?vid=e8fa7be1-2407-41a7-b843-e7c70f1917ef"},"vehicle_type_id":"4","last_reported":1733014719,"current_range_meters":0,"station_id":"ce4bgj92rcd13ifvqbe0","pricing_plan_id":"cebpf4jnsgd1na2vs0mg"},{"bike_id":"0bc3b5e8-65cb-4f30-9fd7-1e22402dc7eb","system_id":"levelo_inurba_marseille","lat":43.30894,"lon":5.39645,"is_reserved":false,"is_disabled":false,"rental_uris":{"android":"levelo://app?vid=0bc3b5e8-65cb-4f30-9fd7-1e22402dc7eb","ios":"levelo://app?vid=0bc3b5e8-65cb-4f30-9fd7-1e22402dc7eb"},"vehicle_type_id":"4","last_reported":1733014719,"current_range_meters":11600,"station_id":"ce4bh012rcd13ifvqcv0","pricing_plan_id":"cebpf4jnsgd1na2vs0mg"},{"bike_id":"a4404dac-00c5-4861-a1ae-6d042a4030f1","system_id":"levelo_inurba_marseille","lat":43.337423,"lon":5.374615,"is_reserved":false,"is_disabled":false,"rental_uris":{"android":"levelo://app?vid=a4404dac-00c5-4861-a1ae-6d042a4030f1","ios":"levelo://app?vid=a4404dac-00c5-4861-a1ae-6d042a4030f1"},"vehicle_type_id":"4","last_reported":1733014719,"current_range_meters":6000,"station_id":"","pricing_plan_id":"cebpf4jnsgd1na2vs0mg"},{"bike_id":"4c0c3b2b-5f7d-4de3-a282-4907faa58b67","system_id":"levelo_inurba_marseille","lat":43.30609,"lon":5.37223,"is_reserved":false,"is_disabled":false,"rental_uris":{"android":"levelo://app?vid=4c0c3b2b-5f7d-4de3-a282-4907faa58b67","ios":"levelo://app?vid=4c0c3b2b-5f7d-4de3-a282-4907faa58b67"},"vehicle_type_id":"4","last_reported":1733014719,"current_range_meters":25600,"station_id":"ce4bgqh2rcd13ifvqc4g","pricing_plan_id":"cebpf4jnsgd1na2vs0mg"},{"bike_id":"d11d6980-1e58-4ebf-a5f7-47401392087f","system_id":"levelo_inurba_marseille","lat":43.25577,"lon":5.38237,"is_reserved":false,"is_disabled":false,"rental_uris":{"android":"levelo://app?vid=d11d6980-1e58-4ebf-a5f7-47401392087f","ios":"levelo://app?vid=d11d6980-1e58-4ebf-a5f7-47401392087f"},"vehicle_type_id":"4","last_reported":1733014719,"current_range_meters":10000,"station_id":"ce4bhih2rcd13ifvqfs0","pricing_plan_id":"cebpf4jnsgd1na2vs0mg"},{"bike_id":"99eb7eb9-bd1d-4ce7-a4f7-a6a9b0362636","system_id":"levelo_inurba_marseille","lat":43.3212,"lon":5.36777,"is_reserved":false,"is_disabled":false,"rental_uris":{"android":"levelo://app?vid=99eb7eb9-bd1d-4ce7-a4f7-a6a9b0362636","ios":"levelo://app?vid=99eb7eb9-bd1d-4ce7-a4f7-a6a9b0362636"},"vehicle_type_id":"4","last_reported":1733014719,"current_range_meters":20000,"station_id":"ce4bhrh2rcd13ifvqhug","pricing_plan_id":"cebpf4jnsgd1na2vs0mg"},{"bike_id":"ae110baa-6fa5-463d-9c19-2aa3237d6213","system_id":"levelo_inurba_marseille","lat":43.23194,"lon":5.35547,"is_reserved":false,"is_disabled":false,"rental_uris":{"android":"levelo://app?vid=ae110baa-6fa5-463d-9c19-2aa3237d6213","ios":"levelo://app?vid=ae110baa-6fa5-463d-9c19-2aa3237d6213"},"vehicle_type_id":"4","last_reported":1733014719,"current_range_meters":23200,"station_id":"ce4bhu92rcd13ifvqi70","pricing_plan_id":"cebpf4jnsgd1na2vs0mg"},{"bike_id":"eb84d778-f8b0-4aba-be39-7acc8e4527fc","system_id":"levelo_inurba_marseille","lat":43.25113,"lon":5.40325,"is_reserved":false,"is_disabled":false,"rental_uris":{"android":"levelo://app?vid=eb84d778-f8b0-4aba-be39-7acc8e4527fc","ios":"levelo://app?vid=eb84d778-f8b0-4aba-be39-7acc8e4527fc"},"vehicle_type_id":"4","last_reported":1733014719,"current_range_meters":38800,"station_id":"ce4bhlh2rcd13ifvqgig","pricing_plan_id":"cebpf4jnsgd1na2vs0mg"},{"bike_id":"3d2323bb-85c9-46fb-93a1-985fd4eea11e","system_id":"levelo_inurba_marseille","lat":43.31713,"lon":5.43708,"is_reserved":false,"is_disabled":false,"rental_uris":{"android":"levelo://app?vid=3d2323bb-85c9-46fb-93a1-985fd4eea11e","ios":"levelo://app?vid=3d2323bb-85c9-46fb-93a1-985fd4eea11e"},"vehicle_type_id":"4","last_reported":1733014719,"current_range_meters":37600,"station_id":"ce4bhp92rcd13ifvqhcg","pricing_plan_id":"cebpf4jnsgd1na2vs0mg"},{"bike_id":"9700beae-0fbf-4e58-beda-d02b6fed27fe","system_id":"levelo_inurba_marseille","lat":43.337444,"lon":5.374475,"is_reserved":false,"is_disabled":false,"rental_uris":{"android":"levelo://app?vid=9700beae-0fbf-4e58-beda-d02b6fed27fe","ios":"levelo://app?vid=9700beae-0fbf-4e58-beda-d02b6fed27fe"},"vehicle_type_id":"4","last_reported":1733014719,"current_range_meters":36000,"station_id":"","pricing_plan_id":"cebpf4jnsgd1na2vs0mg"},{"bike_id":"a3239f7a-5811-45ee-a06a-24fca205e6da","system_id":"levelo_inurba_marseille","lat":43.27438,"lon":5.39407,"is_reserved":false,"is_disabled":false,"rental_uris":{"android":"levelo://app?vid=a3239f7a-5811-45ee-a06a-24fca205e6da","ios":"levelo://app?vid=a3239f7a-5811-45ee-a06a-24fca205e6da"},"vehicle_type_id":"4","last_reported":1733014719,"current_range_meters":38800,"station_id":"ce4bhdp2rcd13ifvqf20","pricing_plan_id":"cebpf4jnsgd1na2vs0mg"},{"bike_id":"d8111db7-3758-4677-b7ba-69de2a0f45f6","system_id":"levelo_inurba_marseille","lat":43.3112,"lon":5.37759,"is_reserved":false,"is_disabled":false,"rental_uris":{"android":"levelo://app?vid=d8111db7-3758-4677-b7ba-69de2a0f45f6","ios":"levelo://app?vid=d8111db7-3758-4677-b7ba-69de2a0f45f6"},"vehicle_type_id":"4","last_reported":1733014719,"current_range_meters":20800,"station_id":"ce4bgt92rcd13ifvqcg0","pricing_plan_id":"cebpf4jnsgd1na2vs0mg"},{"bike_id":"af12a5f9-720e-4019-987d-3779fe2b91a2","system_id":"levelo_inurba_marseille","lat":43.30822,"lon":5.37404,"is_reserved":false,"is_disabled":false,"rental_uris":{"android":"levelo://app?vid=af12a5f9-720e-4019-987d-3779fe2b91a2","ios":"levelo://app?vid=af12a5f9-720e-4019-987d-3779fe2b91a2"},"vehicle_type_id":"4","last_reported":1733014719,"current_range_meters":3600,"station_id":"","pricing_plan_id":"cebpf4jnsgd1na2vs0mg"},{"bike_id":"b1fb2dba-bfa9-4cd7-a438-ec21bfc31d25","system_id":"levelo_inurba_marseille","lat":43.29764,"lon":5.42171,"is_reserved":false,"is_disabled":false,"rental_uris":{"android":"levelo://app?vid=b1fb2dba-bfa9-4cd7-a438-ec21bfc31d25","ios":"levelo://app?vid=b1fb2dba-bfa9-4cd7-a438-ec21bfc31d25"},"vehicle_type_id":"4","last_reported":1733014719,"current_range_meters":26800,"station_id":"","pricing_plan_id":"cebpf4jnsgd1na2vs0mg"},{"bike_id":"bda343cf-e156-4d25-bead-67c2734e4d77","system_id":"levelo_inurba_marseille","lat":43.30438,"lon":5.38887,"is_reserved":false,"is_disabled":false,"rental_uris":{"android":"levelo://app?vid=bda343cf-e156-4d25-bead-67c2734e4d77","ios":"levelo://app?vid=bda343cf-e156-4d25-bead-67c2734e4d77"},"vehicle_type_id":"4","last_reported":1733014719,"current_range_meters":17600,"station_id":"ce4bgk12rcd13ifvqbi0","pricing_plan_id":"cebpf4jnsgd1na2vs0mg"},{"bike_id":"1e9083aa-d16d-4df9-886f-cfc4f967ee6c","system_id":"levelo_inurba_marseille","lat":43.28262,"lon":5.35071,"is_reserved":false,"is_disabled":true,"rental_uris":{"android":"levelo://app?vid=1e9083aa-d16d-4df9-886f-cfc4f967ee6c","ios":"levelo://app?vid=1e9083aa-d16d-4df9-886f-cfc4f967ee6c"},"vehicle_type_id":"4","last_reported":1733014719,"current_range_meters":0,"station_id":"ce4bhbp2rcd13ifvqerg","pricing_plan_id":"cebpf4jnsgd1na2vs0mg"},{"bike_id":"fb83408f-3dff-4038-95c5-15a16584c94a","system_id":"levelo_inurba_marseille","lat":43.2705,"lon":5.39226,"is_reserved":false,"is_disabled":false,"rental_uris":{"android":"levelo://app?vid=fb83408f-3dff-4038-95c5-15a16584c94a","ios":"levelo://app?vid=fb83408f-3dff-4038-95c5-15a16584c94a"},"vehicle_type_id":"4","last_reported":1733014719,"current_range_meters":6000,"station_id":"","pricing_plan_id":"cebpf4jnsgd1na2vs0mg"},{"bike_id":"1a35c333-eb42-4417-8eaa-9a2af37f5919","system_id":"levelo_inurba_marseille","lat":43.2694,"lon":5.4025,"is_reserved":false,"is_disabled":false,"rental_uris":{"android":"levelo://app?vid=1a35c333-eb42-4417-8eaa-9a2af37f5919","ios":"levelo://app?vid=1a35c333-eb42-4417-8eaa-9a2af37f5919"},"vehicle_type_id":"4","last_reported":1733014719,"current_range_meters":36400,"station_id":"cjm6bp8fraef2m0cb0m0","pricing_plan_id":"cebpf4jnsgd1na2vs0mg"},{"bike_id":"a81f0370-9437-4c42-a8c8-3783fbcc99f5","system_id":"levelo_inurba_marseille","lat":43.26058,"lon":5.39396,"is_reserved":false,"is_disabled":false,"rental_uris":{"android":"levelo://app?vid=a81f0370-9437-4c42-a8c8-3783fbcc99f5","ios":"levelo://app?vid=a81f0370-9437-4c42-a8c8-3783fbcc99f5"},"vehicle_type_id":"4","last_reported":1733014719,"current_range_meters":26800,"station_id":"ce4bhh92rcd13ifvqfj0","pricing_plan_id":"cebpf4jnsgd1na2vs0mg"},{"bike_id":"9b5f2d4e-8cde-416b-b636-0ec56955677d","system_id":"levelo_inurba_marseille","lat":43.32475,"lon":5.36585,"is_reserved":false,"is_disabled":false,"rental_uris":{"android":"levelo://app?vid=9b5f2d4e-8cde-416b-b636-0ec56955677d","ios":"levelo://app?vid=9b5f2d4e-8cde-416b-b636-0ec56955677d"},"vehicle_type_id":"4","last_reported":1733014719,"current_range_meters":19600,"station_id":"ce4bhs12rcd13ifvqhvg","pricing_plan_id":"cebpf4jnsgd1na2vs0mg"},{"bike_id":"b214c4c4-5e35-4801-b2ae-a2bc8f411e25","system_id":"levelo_inurba_marseille","lat":43.25579,"lon":5.38243,"is_reserved":false,"is_disabled":false,"rental_uris":{"android":"levelo://app?vid=b214c4c4-5e35-4801-b2ae-a2bc8f411e25","ios":"levelo://app?vid=b214c4c4-5e35-4801-b2ae-a2bc8f411e25"},"vehicle_type_id":"4","last_reported":1733014719,"current_range_meters":25200,"station_id":"ce4bhih2rcd13ifvqfs0","pricing_plan_id":"cebpf4jnsgd1na2vs0mg"},{"bike_id":"4a2be555-d056-454c-bed3-fe781ba86f8e","system_id":"levelo_inurba_marseille","lat":43.25886,"lon":5.39954,"is_reserved":false,"is_disabled":true,"rental_uris":{"android":"levelo://app?vid=4a2be555-d056-454c-bed3-fe781ba86f8e","ios":"levelo://app?vid=4a2be555-d056-454c-bed3-fe781ba86f8e"},"vehicle_type_id":"4","last_reported":1733014719,"current_range_meters":0,"station_id":"","pricing_plan_id":"cebpf4jnsgd1na2vs0mg"},{"bike_id":"776dfc7d-3831-4a44-81a9-15ac51b2ba28","system_id":"levelo_inurba_marseille","lat":43.32482,"lon":5.36556,"is_reserved":false,"is_disabled":false,"rental_uris":{"android":"levelo://app?vid=776dfc7d-3831-4a44-81a9-15ac51b2ba28","ios":"levelo://app?vid=776dfc7d-3831-4a44-81a9-15ac51b2ba28"},"vehicle_type_id":"4","last_reported":1733014719,"current_range_meters":38800,"station_id":"ce4bhs12rcd13ifvqhvg","pricing_plan_id":"cebpf4jnsgd1na2vs0mg"},{"bike_id":"bdaf15ef-30a6-43fb-b654-b47fa5d101b0","system_id":"levelo_inurba_marseille","lat":43.232,"lon":5.35564,"is_reserved":false,"is_disabled":false,"rental_uris":{"android":"levelo://app?vid=bdaf15ef-30a6-43fb-b654-b47fa5d101b0","ios":"levelo://app?vid=bdaf15ef-30a6-43fb-b654-b47fa5d101b0"},"vehicle_type_id":"4","last_reported":1733014719,"current_range_meters":38800,"station_id":"ce4bhu92rcd13ifvqi70","pricing_plan_id":"cebpf4jnsgd1na2vs0mg"},{"bike_id":"3514cf32-f5b9-4ece-ad78-2fbb554b81b6","system_id":"levelo_inurba_marseille","lat":43.25006,"lon":5.38914,"is_reserved":false,"is_disabled":false,"rental_uris":{"android":"levelo://app?vid=3514cf32-f5b9-4ece-ad78-2fbb554b81b6","ios":"levelo://app?vid=3514cf32-f5b9-4ece-ad78-2fbb554b81b6"},"vehicle_type_id":"4","last_reported":1733014719,"current_range_meters":22000,"station_id":"ce4bhgp2rcd13ifvqfd0","pricing_plan_id":"cebpf4jnsgd1na2vs0mg"},{"bike_id":"41329919-d8a6-4529-9c36-e6723e50ee60","system_id":"levelo_inurba_marseille","lat":43.30305,"lon":5.3921,"is_reserved":false,"is_disabled":true,"rental_uris":{"android":"levelo://app?vid=41329919-d8a6-4529-9c36-e6723e50ee60","ios":"levelo://app?vid=41329919-d8a6-4529-9c36-e6723e50ee60"},"vehicle_type_id":"4","last_reported":1733014719,"current_range_meters":32800,"station_id":"ce4bgkh2rcd13ifvqbk0","pricing_plan_id":"cebpf4jnsgd1na2vs0mg"},{"bike_id":"3ec2af63-7cba-4635-8a69-907574b70c71","system_id":"levelo_inurba_marseille","lat":43.23192,"lon":5.35549,"is_reserved":false,"is_disabled":false,"rental_uris":{"android":"levelo://app?vid=3ec2af63-7cba-4635-8a69-907574b70c71","ios":"levelo://app?vid=3ec2af63-7cba-4635-8a69-907574b70c71"},"vehicle_type_id":"4","last_reported":1733014719,"current_range_meters":30000,"station_id":"ce4bhu92rcd13ifvqi70","pricing_plan_id":"cebpf4jnsgd1na2vs0mg"},{"bike_id":"d8c01208-bed9-46e9-bd62-67737a6788cf","system_id":"levelo_inurba_marseille","lat":43.3211,"lon":5.36771,"is_reserved":false,"is_disabled":false,"rental_uris":{"android":"levelo://app?vid=d8c01208-bed9-46e9-bd62-67737a6788cf","ios":"levelo://app?vid=d8c01208-bed9-46e9-bd62-67737a6788cf"},"vehicle_type_id":"4","last_reported":1733014719,"current_range_meters":8000,"station_id":"ce4bhrh2rcd13ifvqhug","pricing_plan_id":"cebpf4jnsgd1na2vs0mg"},{"bike_id":"f91c92a9-381f-4b6d-80c7-72d43980fc46","system_id":"levelo_inurba_marseille","lat":43.27067,"lon":5.42278,"is_reserved":false,"is_disabled":false,"rental_uris":{"android":"levelo://app?vid=f91c92a9-381f-4b6d-80c7-72d43980fc46","ios":"levelo://app?vid=f91c92a9-381f-4b6d-80c7-72d43980fc46"},"vehicle_type_id":"4","last_reported":1733014719,"current_range_meters":38800,"station_id":"ce4bhk92rcd13ifvqgb0","pricing_plan_id":"cebpf4jnsgd1na2vs0mg"},{"bike_id":"000b518d-442b-4752-8b9a-e2fc3654d286","system_id":"levelo_inurba_marseille","lat":43.29443,"lon":5.39754,"is_reserved":false,"is_disabled":true,"rental_uris":{"android":"levelo://app?vid=000b518d-442b-4752-8b9a-e2fc3654d286","ios":"levelo://app?vid=000b518d-442b-4752-8b9a-e2fc3654d286"},"vehicle_type_id":"4","last_reported":1733014719,"current_range_meters":19600,"station_id":"ce4bh3h2rcd13ifvqdo0","pricing_plan_id":"cebpf4jnsgd1na2vs0mg"},{"bike_id":"e36c7284-fef6-4d0c-9b81-2d7bf519cd53","system_id":"levelo_inurba_marseille","lat":43.28456,"lon":5.35884,"is_reserved":false,"is_disabled":false,"rental_uris":{"android":"levelo://app?vid=e36c7284-fef6-4d0c-9b81-2d7bf519cd53","ios":"levelo://app?vid=e36c7284-fef6-4d0c-9b81-2d7bf519cd53"},"vehicle_type_id":"4","last_reported":1733014719,"current_range_meters":10800,"station_id":"ce4bhah2rcd13ifvqei0","pricing_plan_id":"cebpf4jnsgd1na2vs0mg"},{"bike_id":"0f87cd88-4544-4bea-8a03-96998f957fbe","system_id":"levelo_inurba_marseille","lat":43.30435,"lon":5.38883,"is_reserved":false,"is_disabled":true,"rental_uris":{"android":"levelo://app?vid=0f87cd88-4544-4bea-8a03-96998f957fbe","ios":"levelo://app?vid=0f87cd88-4544-4bea-8a03-96998f957fbe"},"vehicle_type_id":"4","last_reported":1733014719,"current_range_meters":0,"station_id":"ce4bgk12rcd13ifvqbi0","pricing_plan_id":"cebpf4jnsgd1na2vs0mg"},{"bike_id":"f1f635b4-0a6b-4ee6-903a-41289ec89338","system_id":"levelo_inurba_marseille","lat":43.28104,"lon":5.37851,"is_reserved":false,"is_disabled":false,"rental_uris":{"android":"levelo://app?vid=f1f635b4-0a6b-4ee6-903a-41289ec89338","ios":"levelo://app?vid=f1f635b4-0a6b-4ee6-903a-41289ec89338"},"vehicle_type_id":"4","last_reported":1733014719,"current_range_meters":16400,"station_id":"ce4bha12rcd13ifvqee0","pricing_plan_id":"cebpf4jnsgd1na2vs0mg"},{"bike_id":"d9b65755-777a-471e-af75-f95e32f0a46b","system_id":"levelo_inurba_marseille","lat":43.30885,"lon":5.37188,"is_reserved":false,"is_disabled":false,"rental_uris":{"android":"levelo://app?vid=d9b65755-777a-471e-af75-f95e32f0a46b","ios":"levelo://app?vid=d9b65755-777a-471e-af75-f95e32f0a46b"},"vehicle_type_id":"4","last_reported":1733014719,"current_range_meters":37600,"station_id":"ce4bguh2rcd13ifvqckg","pricing_plan_id":"cebpf4jnsgd1na2vs0mg"},{"bike_id":"57228fd0-8246-4837-bb77-585bcc392ae4","system_id":"levelo_inurba_marseille","lat":43.287123,"lon":5.379307,"is_reserved":false,"is_disabled":false,"rental_uris":{"android":"levelo://app?vid=57228fd0-8246-4837-bb77-585bcc392ae4","ios":"levelo://app?vid=57228fd0-8246-4837-bb77-585bcc392ae4"},"vehicle_type_id":"4","last_reported":1733014719,"current_range_meters":24400,"station_id":"ce4bh9p2rcd13ifvqec0","pricing_plan_id":"cebpf4jnsgd1na2vs0mg"},{"bike_id":"06e6470a-e7c6-43e1-8faf-2131a4d6a529","system_id":"levelo_inurba_marseille","lat":43.23177,"lon":5.39984,"is_reserved":false,"is_disabled":false,"rental_uris":{"android":"levelo://app?vid=06e6470a-e7c6-43e1-8faf-2131a4d6a529","ios":"levelo://app?vid=06e6470a-e7c6-43e1-8faf-2131a4d6a529"},"vehicle_type_id":"4","last_reported":1733014719,"current_range_meters":16000,"station_id":"ce4bhn12rcd13ifvqgqg","pricing_plan_id":"cebpf4jnsgd1na2vs0mg"},{"bike_id":"21d95713-8a92-4bd3-ad43-a6b370801048","system_id":"levelo_inurba_marseille","lat":43.27429,"lon":5.39413,"is_reserved":false,"is_disabled":false,"rental_uris":{"android":"levelo://app?vid=21d95713-8a92-4bd3-ad43-a6b370801048","ios":"levelo://app?vid=21d95713-8a92-4bd3-ad43-a6b370801048"},"vehicle_type_id":"4","last_reported":1733014719,"current_range_meters":27600,"station_id":"ce4bhdp2rcd13ifvqf20","pricing_plan_id":"cebpf4jnsgd1na2vs0mg"},{"bike_id":"b535dfd0-ec01-4a13-996f-71245b6113cc","system_id":"levelo_inurba_marseille","lat":43.27978,"lon":5.41229,"is_reserved":false,"is_disabled":true,"rental_uris":{"android":"levelo://app?vid=b535dfd0-ec01-4a13-996f-71245b6113cc","ios":"levelo://app?vid=b535dfd0-ec01-4a13-996f-71245b6113cc"},"vehicle_type_id":"4","last_reported":1733014719,"current_range_meters":400,"station_id":"","pricing_plan_id":"cebpf4jnsgd1na2vs0mg"},{"bike_id":"c3390fe1-5a17-4c42-97eb-e3e28db178a9","system_id":"levelo_inurba_marseille","lat":43.31325,"lon":5.39697,"is_reserved":false,"is_disabled":false,"rental_uris":{"android":"levelo://app?vid=c3390fe1-5a17-4c42-97eb-e3e28db178a9","ios":"levelo://app?vid=c3390fe1-5a17-4c42-97eb-e3e28db178a9"},"vehicle_type_id":"4","last_reported":1733014719,"current_range_meters":16400,"station_id":"ce4bgvp2rcd13ifvqcu0","pricing_plan_id":"cebpf4jnsgd1na2vs0mg"},{"bike_id":"3509e33d-c67e-427e-8254-df53d2cef4bd","system_id":"levelo_inurba_marseille","lat":43.27903,"lon":5.37998,"is_reserved":false,"is_disabled":false,"rental_uris":{"android":"levelo://app?vid=3509e33d-c67e-427e-8254-df53d2cef4bd","ios":"levelo://app?vid=3509e33d-c67e-427e-8254-df53d2cef4bd"},"vehicle_type_id":"4","last_reported":1733014719,"current_range_meters":12400,"station_id":"ce4bhf92rcd13ifvqf50","pricing_plan_id":"cebpf4jnsgd1na2vs0mg"},{"bike_id":"39b3f021-df75-4cd6-8b4e-a707899d7c80","system_id":"levelo_inurba_marseille","lat":43.28101,"lon":5.37839,"is_reserved":false,"is_disabled":false,"rental_uris":{"android":"levelo://app?vid=39b3f021-df75-4cd6-8b4e-a707899d7c80","ios":"levelo://app?vid=39b3f021-df75-4cd6-8b4e-a707899d7c80"},"vehicle_type_id":"4","last_reported":1733014719,"current_range_meters":14000,"station_id":"ce4bha12rcd13ifvqee0","pricing_plan_id":"cebpf4jnsgd1na2vs0mg"},{"bike_id":"a9536cf9-1546-4fa9-b064-a4f2cd515fd5","system_id":"levelo_inurba_marseille","lat":43.27568,"lon":5.38411,"is_reserved":false,"is_disabled":false,"rental_uris":{"android":"levelo://app?vid=a9536cf9-1546-4fa9-b064-a4f2cd515fd5","ios":"levelo://app?vid=a9536cf9-1546-4fa9-b064-a4f2cd515fd5"},"vehicle_type_id":"4","last_reported":1733014719,"current_range_meters":7200,"station_id":"ce4bhh92rcd13ifvqfi0","pricing_plan_id":"cebpf4jnsgd1na2vs0mg"},{"bike_id":"b642d79a-bd2c-495a-acdd-099583f67bf5","system_id":"levelo_inurba_marseille","lat":43.3229,"lon":5.38265,"is_reserved":false,"is_disabled":false,"rental_uris":{"android":"levelo://app?vid=b642d79a-bd2c-495a-acdd-099583f67bf5","ios":"levelo://app?vid=b642d79a-bd2c-495a-acdd-099583f67bf5"},"vehicle_type_id":"4","last_reported":1733014719,"current_range_meters":28800,"station_id":"ce4bhr12rcd13ifvqhqg","pricing_plan_id":"cebpf4jnsgd1na2vs0mg"},{"bike_id":"80716805-d456-4ba0-8610-1e1290c6f102","system_id":"levelo_inurba_marseille","lat":43.30421,"lon":5.41283,"is_reserved":false,"is_disabled":false,"rental_uris":{"android":"levelo://app?vid=80716805-d456-4ba0-8610-1e1290c6f102","ios":"levelo://app?vid=80716805-d456-4ba0-8610-1e1290c6f102"},"vehicle_type_id":"4","last_reported":1733014719,"current_range_meters":15200,"station_id":"ce4bhop2rcd13ifvqh8g","pricing_plan_id":"cebpf4jnsgd1na2vs0mg"},{"bike_id":"aad4be0a-2a0d-4e6a-bfa0-4d4086eb2d91","system_id":"levelo_inurba_marseille","lat":43.23155,"lon":5.43708,"is_reserved":false,"is_disabled":false,"rental_uris":{"android":"levelo://app?vid=aad4be0a-2a0d-4e6a-bfa0-4d4086eb2d91","ios":"levelo://app?vid=aad4be0a-2a0d-4e6a-bfa0-4d4086eb2d91"},"vehicle_type_id":"4","last_reported":1733014719,"current_range_meters":38400,"station_id":"ce4bhmp2rcd13ifvqgog","pricing_plan_id":"cebpf4jnsgd1na2vs0mg"},{"bike_id":"d82dd79b-4292-4ee6-a33d-922a6af5f6a0","system_id":"levelo_inurba_marseille","lat":43.27317,"lon":5.39086,"is_reserved":false,"is_disabled":false,"rental_uris":{"android":"levelo://app?vid=d82dd79b-4292-4ee6-a33d-922a6af5f6a0","ios":"levelo://app?vid=d82dd79b-4292-4ee6-a33d-922a6af5f6a0"},"vehicle_type_id":"4","last_reported":1733014719,"current_range_meters":25600,"station_id":"ce4bhgp2rcd13ifvqfe0","pricing_plan_id":"cebpf4jnsgd1na2vs0mg"},{"bike_id":"5b9d6f48-f6d1-42ec-91ce-2705b20346f7","system_id":"levelo_inurba_marseille","lat":43.27624,"lon":5.36115,"is_reserved":false,"is_disabled":true,"rental_uris":{"android":"levelo://app?vid=5b9d6f48-f6d1-42ec-91ce-2705b20346f7","ios":"levelo://app?vid=5b9d6f48-f6d1-42ec-91ce-2705b20346f7"},"vehicle_type_id":"4","last_reported":1733014719,"current_range_meters":0,"station_id":"ce4bgj92rcd13ifvqbe0","pricing_plan_id":"cebpf4jnsgd1na2vs0mg"},{"bike_id":"dfae53f2-2072-45ad-83ba-eb288c672871","system_id":"levelo_inurba_marseille","lat":43.30887,"lon":5.37193,"is_reserved":false,"is_disabled":false,"rental_uris":{"android":"levelo://app?vid=dfae53f2-2072-45ad-83ba-eb288c672871","ios":"levelo://app?vid=dfae53f2-2072-45ad-83ba-eb288c672871"},"vehicle_type_id":"4","last_reported":1733014719,"current_range_meters":38000,"station_id":"ce4bguh2rcd13ifvqckg","pricing_plan_id":"cebpf4jnsgd1na2vs0mg"},{"bike_id":"0174841e-8011-4a7b-bd18-480101bee765","system_id":"levelo_inurba_marseille","lat":43.2395,"lon":5.36628,"is_reserved":false,"is_disabled":true,"rental_uris":{"android":"levelo://app?vid=0174841e-8011-4a7b-bd18-480101bee765","ios":"levelo://app?vid=0174841e-8011-4a7b-bd18-480101bee765"},"vehicle_type_id":"4","last_reported":1733014719,"current_range_meters":0,"station_id":"ce4bhi12rcd13ifvqfp0","pricing_plan_id":"cebpf4jnsgd1na2vs0mg"},{"bike_id":"1a9aa7e6-0eb4-47d5-925a-9a0e4589144e","system_id":"levelo_inurba_marseille","lat":43.30796,"lon":5.38147,"is_reserved":false,"is_disabled":false,"rental_uris":{"android":"levelo://app?vid=1a9aa7e6-0eb4-47d5-925a-9a0e4589144e","ios":"levelo://app?vid=1a9aa7e6-0eb4-47d5-925a-9a0e4589144e"},"vehicle_type_id":"4","last_reported":1733014719,"current_range_meters":10000,"station_id":"ce4bgt12rcd13ifvqce0","pricing_plan_id":"cebpf4jnsgd1na2vs0mg"},{"bike_id":"1fc66134-af2c-4130-9b8c-02694efb43e5","system_id":"levelo_inurba_marseille","lat":43.26926,"lon":5.40261,"is_reserved":false,"is_disabled":false,"rental_uris":{"android":"levelo://app?vid=1fc66134-af2c-4130-9b8c-02694efb43e5","ios":"levelo://app?vid=1fc66134-af2c-4130-9b8c-02694efb43e5"},"vehicle_type_id":"4","last_reported":1733014719,"current_range_meters":32400,"station_id":"cjm6bp8fraef2m0cb0m0","pricing_plan_id":"cebpf4jnsgd1na2vs0mg"},{"bike_id":"c649ed6b-e213-48f4-9ad0-c15ff1fb4287","system_id":"levelo_inurba_marseille","lat":43.29378,"lon":5.37489,"is_reserved":false,"is_disabled":false,"rental_uris":{"android":"levelo://app?vid=c649ed6b-e213-48f4-9ad0-c15ff1fb4287","ios":"levelo://app?vid=c649ed6b-e213-48f4-9ad0-c15ff1fb4287"},"vehicle_type_id":"4","last_reported":1733014719,"current_range_meters":35200,"station_id":"","pricing_plan_id":"cebpf4jnsgd1na2vs0mg"},{"bike_id":"1535eed4-64e0-4c8d-9917-169fda5b86c5","system_id":"levelo_inurba_marseille","lat":43.27922,"lon":5.39583,"is_reserved":false,"is_disabled":false,"rental_uris":{"android":"levelo://app?vid=1535eed4-64e0-4c8d-9917-169fda5b86c5","ios":"levelo://app?vid=1535eed4-64e0-4c8d-9917-169fda5b86c5"},"vehicle_type_id":"4","last_reported":1733014719,"current_range_meters":26800,"station_id":"ce4bhf92rcd13ifvqf40","pricing_plan_id":"cebpf4jnsgd1na2vs0mg"},{"bike_id":"a233b25b-869e-422b-bf5e-63d3d8ff686f","system_id":"levelo_inurba_marseille","lat":43.309333,"lon":5.401445,"is_reserved":false,"is_disabled":true,"rental_uris":{"android":"levelo://app?vid=a233b25b-869e-422b-bf5e-63d3d8ff686f","ios":"levelo://app?vid=a233b25b-869e-422b-bf5e-63d3d8ff686f"},"vehicle_type_id":"4","last_reported":1733014719,"current_range_meters":28800,"station_id":"ce4bgvp2rcd13ifvqct0","pricing_plan_id":"cebpf4jnsgd1na2vs0mg"},{"bike_id":"ca06fb5f-11e1-4d8e-8f6e-d8bf571b0044","system_id":"levelo_inurba_marseille","lat":43.31103,"lon":5.38431,"is_reserved":false,"is_disabled":false,"rental_uris":{"android":"levelo://app?vid=ca06fb5f-11e1-4d8e-8f6e-d8bf571b0044","ios":"levelo://app?vid=ca06fb5f-11e1-4d8e-8f6e-d8bf571b0044"},"vehicle_type_id":"4","last_reported":1733014719,"current_range_meters":18000,"station_id":"","pricing_plan_id":"cebpf4jnsgd1na2vs0mg"},{"bike_id":"80500cf4-24f9-4a03-8f99-f899916117f1","system_id":"levelo_inurba_marseille","lat":43.27174,"lon":5.40996,"is_reserved":false,"is_disabled":false,"rental_uris":{"android":"levelo://app?vid=80500cf4-24f9-4a03-8f99-f899916117f1","ios":"levelo://app?vid=80500cf4-24f9-4a03-8f99-f899916117f1"},"vehicle_type_id":"4","last_reported":1733014719,"current_range_meters":22800,"station_id":"ce4bhl12rcd13ifvqgf0","pricing_plan_id":"cebpf4jnsgd1na2vs0mg"},{"bike_id":"fd7cc24c-85db-4379-bdde-56a004546773","system_id":"levelo_inurba_marseille","lat":43.30806,"lon":5.38157,"is_reserved":false,"is_disabled":false,"rental_uris":{"android":"levelo://app?vid=fd7cc24c-85db-4379-bdde-56a004546773","ios":"levelo://app?vid=fd7cc24c-85db-4379-bdde-56a004546773"},"vehicle_type_id":"4","last_reported":1733014719,"current_range_meters":35200,"station_id":"ce4bgt12rcd13ifvqce0","pricing_plan_id":"cebpf4jnsgd1na2vs0mg"},{"bike_id":"beedd42b-11d1-4bd9-a3b7-2b7ebaf524b2","system_id":"levelo_inurba_marseille","lat":43.31708,"lon":5.37791,"is_reserved":false,"is_disabled":false,"rental_uris":{"android":"levelo://app?vid=beedd42b-11d1-4bd9-a3b7-2b7ebaf524b2","ios":"levelo://app?vid=beedd42b-11d1-4bd9-a3b7-2b7ebaf524b2"},"vehicle_type_id":"4","last_reported":1733014719,"current_range_meters":36800,"station_id":"ce4bgth2rcd13ifvqch0","pricing_plan_id":"cebpf4jnsgd1na2vs0mg"},{"bike_id":"7db095fe-335f-455d-9456-2582bbc72d93","system_id":"levelo_inurba_marseille","lat":43.299004,"lon":5.436589,"is_reserved":false,"is_disabled":false,"rental_uris":{"android":"levelo://app?vid=7db095fe-335f-455d-9456-2582bbc72d93","ios":"levelo://app?vid=7db095fe-335f-455d-9456-2582bbc72d93"},"vehicle_type_id":"4","last_reported":1733014719,"current_range_meters":20400,"station_id":"ce4bhpp2rcd13ifvqhfg","pricing_plan_id":"cebpf4jnsgd1na2vs0mg"},{"bike_id":"8b6e6175-7f08-4801-9f30-4f66c567836a","system_id":"levelo_inurba_marseille","lat":43.30451,"lon":5.37916,"is_reserved":false,"is_disabled":false,"rental_uris":{"android":"levelo://app?vid=8b6e6175-7f08-4801-9f30-4f66c567836a","ios":"levelo://app?vid=8b6e6175-7f08-4801-9f30-4f66c567836a"},"vehicle_type_id":"4","last_reported":1733014719,"current_range_meters":34800,"station_id":"ce4bgup2rcd13ifvqcn0","pricing_plan_id":"cebpf4jnsgd1na2vs0mg"},{"bike_id":"ddbda7d5-c035-4416-b36b-d29a627465ea","system_id":"levelo_inurba_marseille","lat":43.25,"lon":5.38923,"is_reserved":false,"is_disabled":false,"rental_uris":{"android":"levelo://app?vid=ddbda7d5-c035-4416-b36b-d29a627465ea","ios":"levelo://app?vid=ddbda7d5-c035-4416-b36b-d29a627465ea"},"vehicle_type_id":"4","last_reported":1733014719,"current_range_meters":38800,"station_id":"ce4bhgp2rcd13ifvqfd0","pricing_plan_id":"cebpf4jnsgd1na2vs0mg"},{"bike_id":"4e6829cd-8988-40d0-b6c9-a0b3034c0be3","system_id":"levelo_inurba_marseille","lat":43.33605,"lon":5.41036,"is_reserved":false,"is_disabled":true,"rental_uris":{"android":"levelo://app?vid=4e6829cd-8988-40d0-b6c9-a0b3034c0be3","ios":"levelo://app?vid=4e6829cd-8988-40d0-b6c9-a0b3034c0be3"},"vehicle_type_id":"4","last_reported":1733014719,"current_range_meters":0,"station_id":"ce4bhqh2rcd13ifvqhmg","pricing_plan_id":"cebpf4jnsgd1na2vs0mg"},{"bike_id":"bab2c541-cee6-43ec-9133-02677927cda0","system_id":"levelo_inurba_marseille","lat":43.30137,"lon":5.37409,"is_reserved":false,"is_disabled":false,"rental_uris":{"android":"levelo://app?vid=bab2c541-cee6-43ec-9133-02677927cda0","ios":"levelo://app?vid=bab2c541-cee6-43ec-9133-02677927cda0"},"vehicle_type_id":"4","last_reported":1733014719,"current_range_meters":32400,"station_id":"ce4bgs92rcd13ifvqcc0","pricing_plan_id":"cebpf4jnsgd1na2vs0mg"},{"bike_id":"42dff1c4-6053-46d6-ab14-2b44877e8b55","system_id":"levelo_inurba_marseille","lat":43.28443,"lon":5.39187,"is_reserved":false,"is_disabled":true,"rental_uris":{"android":"levelo://app?vid=42dff1c4-6053-46d6-ab14-2b44877e8b55","ios":"levelo://app?vid=42dff1c4-6053-46d6-ab14-2b44877e8b55"},"vehicle_type_id":"4","last_reported":1733014719,"current_range_meters":38800,"station_id":"ce4bhoh2rcd13ifvqh5g","pricing_plan_id":"cebpf4jnsgd1na2vs0mg"},{"bike_id":"27d13c7a-6338-48dc-81dd-618b3e4ff60b","system_id":"levelo_inurba_marseille","lat":43.28359,"lon":5.38639,"is_reserved":false,"is_disabled":true,"rental_uris":{"android":"levelo://app?vid=27d13c7a-6338-48dc-81dd-618b3e4ff60b","ios":"levelo://app?vid=27d13c7a-6338-48dc-81dd-618b3e4ff60b"},"vehicle_type_id":"4","last_reported":1733014719,"current_range_meters":37600,"station_id":"ce4bh492rcd13ifvqdvg","pricing_plan_id":"cebpf4jnsgd1na2vs0mg"},{"bike_id":"4c8314eb-3d1a-47ee-9e78-736f194ad865","system_id":"levelo_inurba_marseille","lat":43.26069,"lon":5.39399,"is_reserved":false,"is_disabled":false,"rental_uris":{"android":"levelo://app?vid=4c8314eb-3d1a-47ee-9e78-736f194ad865","ios":"levelo://app?vid=4c8314eb-3d1a-47ee-9e78-736f194ad865"},"vehicle_type_id":"4","last_reported":1733014719,"current_range_meters":12800,"station_id":"ce4bhh92rcd13ifvqfj0","pricing_plan_id":"cebpf4jnsgd1na2vs0mg"},{"bike_id":"13151158-c4ba-49c7-a920-9a61c5dd56f2","system_id":"levelo_inurba_marseille","lat":43.239586,"lon":5.366238,"is_reserved":false,"is_disabled":true,"rental_uris":{"android":"levelo://app?vid=13151158-c4ba-49c7-a920-9a61c5dd56f2","ios":"levelo://app?vid=13151158-c4ba-49c7-a920-9a61c5dd56f2"},"vehicle_type_id":"4","last_reported":1733014719,"current_range_meters":0,"station_id":"ce4bhi12rcd13ifvqfp0","pricing_plan_id":"cebpf4jnsgd1na2vs0mg"},{"bike_id":"56cb3e7c-6c87-4cfb-90a4-655a05f8edd6","system_id":"levelo_inurba_marseille","lat":43.28264,"lon":5.35065,"is_reserved":false,"is_disabled":false,"rental_uris":{"android":"levelo://app?vid=56cb3e7c-6c87-4cfb-90a4-655a05f8edd6","ios":"levelo://app?vid=56cb3e7c-6c87-4cfb-90a4-655a05f8edd6"},"vehicle_type_id":"4","last_reported":1733014719,"current_range_meters":38800,"station_id":"ce4bhbp2rcd13ifvqerg","pricing_plan_id":"cebpf4jnsgd1na2vs0mg"},{"bike_id":"709fba4f-cca8-4e5a-ae0a-a636f0e935fd","system_id":"levelo_inurba_marseille","lat":43.26954,"lon":5.38626,"is_reserved":false,"is_disabled":false,"rental_uris":{"android":"levelo://app?vid=709fba4f-cca8-4e5a-ae0a-a636f0e935fd","ios":"levelo://app?vid=709fba4f-cca8-4e5a-ae0a-a636f0e935fd"},"vehicle_type_id":"4","last_reported":1733014719,"current_range_meters":36800,"station_id":"ce4bhh92rcd13ifvqfh0","pricing_plan_id":"cebpf4jnsgd1na2vs0mg"},{"bike_id":"acf4a756-d86a-4aba-99d9-8148b7db3378","system_id":"levelo_inurba_marseille","lat":43.27993,"lon":5.40001,"is_reserved":false,"is_disabled":true,"rental_uris":{"android":"levelo://app?vid=acf4a756-d86a-4aba-99d9-8148b7db3378","ios":"levelo://app?vid=acf4a756-d86a-4aba-99d9-8148b7db3378"},"vehicle_type_id":"4","last_reported":1733014719,"current_range_meters":0,"station_id":"ce4bho92rcd13ifvqh4g","pricing_plan_id":"cebpf4jnsgd1na2vs0mg"},{"bike_id":"4018fb8f-45f3-45d0-a054-90a03257f3a3","system_id":"levelo_inurba_marseille","lat":43.28317,"lon":5.40529,"is_reserved":false,"is_disabled":false,"rental_uris":{"android":"levelo://app?vid=4018fb8f-45f3-45d0-a054-90a03257f3a3","ios":"levelo://app?vid=4018fb8f-45f3-45d0-a054-90a03257f3a3"},"vehicle_type_id":"4","last_reported":1733014719,"current_range_meters":24800,"station_id":"","pricing_plan_id":"cebpf4jnsgd1na2vs0mg"},{"bike_id":"00380040-c3b4-4225-abdf-20f91c43c884","system_id":"levelo_inurba_marseille","lat":43.27905,"lon":5.38022,"is_reserved":false,"is_disabled":false,"rental_uris":{"android":"levelo://app?vid=00380040-c3b4-4225-abdf-20f91c43c884","ios":"levelo://app?vid=00380040-c3b4-4225-abdf-20f91c43c884"},"vehicle_type_id":"4","last_reported":1733014719,"current_range_meters":8800,"station_id":"ce4bhf92rcd13ifvqf50","pricing_plan_id":"cebpf4jnsgd1na2vs0mg"},{"bike_id":"c6f5e608-7d38-4654-a814-121e87a357b4","system_id":"levelo_inurba_marseille","lat":43.30635,"lon":5.40087,"is_reserved":false,"is_disabled":false,"rental_uris":{"android":"levelo://app?vid=c6f5e608-7d38-4654-a814-121e87a357b4","ios":"levelo://app?vid=c6f5e608-7d38-4654-a814-121e87a357b4"},"vehicle_type_id":"4","last_reported":1733014719,"current_range_meters":4400,"station_id":"ce4bh112rcd13ifvqda0","pricing_plan_id":"cebpf4jnsgd1na2vs0mg"},{"bike_id":"18299652-2a9d-4717-aa6c-9d08b0165b52","system_id":"levelo_inurba_marseille","lat":43.33026,"lon":5.39039,"is_reserved":false,"is_disabled":false,"rental_uris":{"android":"levelo://app?vid=18299652-2a9d-4717-aa6c-9d08b0165b52","ios":"levelo://app?vid=18299652-2a9d-4717-aa6c-9d08b0165b52"},"vehicle_type_id":"4","last_reported":1733014719,"current_range_meters":38800,"station_id":"ce4bhr92rcd13ifvqhrg","pricing_plan_id":"cebpf4jnsgd1na2vs0mg"},{"bike_id":"e583fbe0-0561-4674-b1d5-a7f38707bfaf","system_id":"levelo_inurba_marseille","lat":43.29253,"lon":5.40902,"is_reserved":false,"is_disabled":false,"rental_uris":{"android":"levelo://app?vid=e583fbe0-0561-4674-b1d5-a7f38707bfaf","ios":"levelo://app?vid=e583fbe0-0561-4674-b1d5-a7f38707bfaf"},"vehicle_type_id":"4","last_reported":1733014719,"current_range_meters":8800,"station_id":"ce4bh192rcd13ifvqdc0","pricing_plan_id":"cebpf4jnsgd1na2vs0mg"},{"bike_id":"e0161261-fd33-45e3-8038-51d77778a6b0","system_id":"levelo_inurba_marseille","lat":43.30651,"lon":5.40095,"is_reserved":false,"is_disabled":true,"rental_uris":{"android":"levelo://app?vid=e0161261-fd33-45e3-8038-51d77778a6b0","ios":"levelo://app?vid=e0161261-fd33-45e3-8038-51d77778a6b0"},"vehicle_type_id":"4","last_reported":1733014719,"current_range_meters":38000,"station_id":"ce4bh112rcd13ifvqda0","pricing_plan_id":"cebpf4jnsgd1na2vs0mg"},{"bike_id":"f4d19859-dbfb-4982-b796-c8007145699f","system_id":"levelo_inurba_marseille","lat":43.28614,"lon":5.35102,"is_reserved":false,"is_disabled":false,"rental_uris":{"android":"levelo://app?vid=f4d19859-dbfb-4982-b796-c8007145699f","ios":"levelo://app?vid=f4d19859-dbfb-4982-b796-c8007145699f"},"vehicle_type_id":"4","last_reported":1733014719,"current_range_meters":17200,"station_id":"ce4bhch2rcd13ifvqeug","pricing_plan_id":"cebpf4jnsgd1na2vs0mg"},{"bike_id":"748823b5-89d6-4a52-bcc0-c1c0a4beb5f8","system_id":"levelo_inurba_marseille","lat":43.30881,"lon":5.39642,"is_reserved":false,"is_disabled":false,"rental_uris":{"android":"levelo://app?vid=748823b5-89d6-4a52-bcc0-c1c0a4beb5f8","ios":"levelo://app?vid=748823b5-89d6-4a52-bcc0-c1c0a4beb5f8"},"vehicle_type_id":"4","last_reported":1733014719,"current_range_meters":38800,"station_id":"ce4bh012rcd13ifvqcv0","pricing_plan_id":"cebpf4jnsgd1na2vs0mg"},{"bike_id":"bfb856cf-7615-4aa7-a7e4-859a62ce8248","system_id":"levelo_inurba_marseille","lat":43.337378,"lon":5.374539,"is_reserved":false,"is_disabled":false,"rental_uris":{"android":"levelo://app?vid=bfb856cf-7615-4aa7-a7e4-859a62ce8248","ios":"levelo://app?vid=bfb856cf-7615-4aa7-a7e4-859a62ce8248"},"vehicle_type_id":"4","last_reported":1733014719,"current_range_meters":14400,"station_id":"","pricing_plan_id":"cebpf4jnsgd1na2vs0mg"},{"bike_id":"56fcd19c-5506-43c9-abe1-45a182f70e42","system_id":"levelo_inurba_marseille","lat":43.27621,"lon":5.36108,"is_reserved":false,"is_disabled":false,"rental_uris":{"android":"levelo://app?vid=56fcd19c-5506-43c9-abe1-45a182f70e42","ios":"levelo://app?vid=56fcd19c-5506-43c9-abe1-45a182f70e42"},"vehicle_type_id":"4","last_reported":1733014719,"current_range_meters":20000,"station_id":"ce4bgj92rcd13ifvqbe0","pricing_plan_id":"cebpf4jnsgd1na2vs0mg"},{"bike_id":"68f984c9-51a6-4902-b463-f264f9fe3444","system_id":"levelo_inurba_marseille","lat":43.3254,"lon":5.41444,"is_reserved":false,"is_disabled":false,"rental_uris":{"android":"levelo://app?vid=68f984c9-51a6-4902-b463-f264f9fe3444","ios":"levelo://app?vid=68f984c9-51a6-4902-b463-f264f9fe3444"},"vehicle_type_id":"4","last_reported":1733014719,"current_range_meters":38800,"station_id":"ce4bhq12rcd13ifvqhhg","pricing_plan_id":"cebpf4jnsgd1na2vs0mg"},{"bike_id":"f6406f66-5153-40ce-bc97-7cea00959e6b","system_id":"levelo_inurba_marseille","lat":43.31269,"lon":5.4017,"is_reserved":false,"is_disabled":true,"rental_uris":{"android":"levelo://app?vid=f6406f66-5153-40ce-bc97-7cea00959e6b","ios":"levelo://app?vid=f6406f66-5153-40ce-bc97-7cea00959e6b"},"vehicle_type_id":"4","last_reported":1733014719,"current_range_meters":4400,"station_id":"ce4bh092rcd13ifvqd30","pricing_plan_id":"cebpf4jnsgd1na2vs0mg"},{"bike_id":"4abebe2b-dec7-442c-a6a0-da33deb742de","system_id":"levelo_inurba_marseille","lat":43.32106,"lon":5.36804,"is_reserved":false,"is_disabled":false,"rental_uris":{"android":"levelo://app?vid=4abebe2b-dec7-442c-a6a0-da33deb742de","ios":"levelo://app?vid=4abebe2b-dec7-442c-a6a0-da33deb742de"},"vehicle_type_id":"4","last_reported":1733014719,"current_range_meters":35600,"station_id":"ce4bhrh2rcd13ifvqhug","pricing_plan_id":"cebpf4jnsgd1na2vs0mg"},{"bike_id":"ce20c844-7914-4b0b-b70c-e7bdec0d808d","system_id":"levelo_inurba_marseille","lat":43.25937,"lon":5.40904,"is_reserved":false,"is_disabled":false,"rental_uris":{"android":"levelo://app?vid=ce20c844-7914-4b0b-b70c-e7bdec0d808d","ios":"levelo://app?vid=ce20c844-7914-4b0b-b70c-e7bdec0d808d"},"vehicle_type_id":"4","last_reported":1733014719,"current_range_meters":14800,"station_id":"ce4bhm92rcd13ifvqglg","pricing_plan_id":"cebpf4jnsgd1na2vs0mg"},{"bike_id":"e6d3d061-6cef-4ef8-8617-2120150fda9b","system_id":"levelo_inurba_marseille","lat":43.28359,"lon":5.38638,"is_reserved":false,"is_disabled":true,"rental_uris":{"android":"levelo://app?vid=e6d3d061-6cef-4ef8-8617-2120150fda9b","ios":"levelo://app?vid=e6d3d061-6cef-4ef8-8617-2120150fda9b"},"vehicle_type_id":"4","last_reported":1733014719,"current_range_meters":16000,"station_id":"ce4bh492rcd13ifvqdvg","pricing_plan_id":"cebpf4jnsgd1na2vs0mg"},{"bike_id":"5a611c5d-797f-4bfd-8428-57f80dec50e7","system_id":"levelo_inurba_marseille","lat":43.26956,"lon":5.38638,"is_reserved":false,"is_disabled":false,"rental_uris":{"android":"levelo://app?vid=5a611c5d-797f-4bfd-8428-57f80dec50e7","ios":"levelo://app?vid=5a611c5d-797f-4bfd-8428-57f80dec50e7"},"vehicle_type_id":"4","last_reported":1733014719,"current_range_meters":38000,"station_id":"ce4bhh92rcd13ifvqfh0","pricing_plan_id":"cebpf4jnsgd1na2vs0mg"},{"bike_id":"58f5d99c-c01f-4bd1-ac20-b06556b13d63","system_id":"levelo_inurba_marseille","lat":43.30804,"lon":5.43526,"is_reserved":false,"is_disabled":false,"rental_uris":{"android":"levelo://app?vid=58f5d99c-c01f-4bd1-ac20-b06556b13d63","ios":"levelo://app?vid=58f5d99c-c01f-4bd1-ac20-b06556b13d63"},"vehicle_type_id":"4","last_reported":1733014719,"current_range_meters":13600,"station_id":"ce4bhph2rcd13ifvqheg","pricing_plan_id":"cebpf4jnsgd1na2vs0mg"},{"bike_id":"6b3e3713-df70-4471-beb6-70eb7c7287a6","system_id":"levelo_inurba_marseille","lat":43.25,"lon":5.38925,"is_reserved":false,"is_disabled":false,"rental_uris":{"android":"levelo://app?vid=6b3e3713-df70-4471-beb6-70eb7c7287a6","ios":"levelo://app?vid=6b3e3713-df70-4471-beb6-70eb7c7287a6"},"vehicle_type_id":"4","last_reported":1733014719,"current_range_meters":11200,"station_id":"ce4bhgp2rcd13ifvqfd0","pricing_plan_id":"cebpf4jnsgd1na2vs0mg"},{"bike_id":"c811bcc7-7263-4e71-9899-d225062584c5","system_id":"levelo_inurba_marseille","lat":43.30775,"lon":5.37659,"is_reserved":false,"is_disabled":false,"rental_uris":{"android":"levelo://app?vid=c811bcc7-7263-4e71-9899-d225062584c5","ios":"levelo://app?vid=c811bcc7-7263-4e71-9899-d225062584c5"},"vehicle_type_id":"4","last_reported":1733014719,"current_range_meters":37600,"station_id":"ce4bgv92rcd13ifvqcq0","pricing_plan_id":"cebpf4jnsgd1na2vs0mg"},{"bike_id":"cf36a015-b289-4af2-831c-669d9ba41aee","system_id":"levelo_inurba_marseille","lat":43.27983,"lon":5.38744,"is_reserved":false,"is_disabled":true,"rental_uris":{"android":"levelo://app?vid=cf36a015-b289-4af2-831c-669d9ba41aee","ios":"levelo://app?vid=cf36a015-b289-4af2-831c-669d9ba41aee"},"vehicle_type_id":"4","last_reported":1733014719,"current_range_meters":0,"station_id":"ce4bhg12rcd13ifvqf80","pricing_plan_id":"cebpf4jnsgd1na2vs0mg"},{"bike_id":"6fb15089-ca1e-4f80-9255-381fc8b4ee17","system_id":"levelo_inurba_marseille","lat":43.24645,"lon":5.38886,"is_reserved":false,"is_disabled":false,"rental_uris":{"android":"levelo://app?vid=6fb15089-ca1e-4f80-9255-381fc8b4ee17","ios":"levelo://app?vid=6fb15089-ca1e-4f80-9255-381fc8b4ee17"},"vehicle_type_id":"4","last_reported":1733014719,"current_range_meters":17600,"station_id":"ce4bhg12rcd13ifvqf60","pricing_plan_id":"cebpf4jnsgd1na2vs0mg"},{"bike_id":"c649c1d2-5deb-4455-9f15-9e50441eef46","system_id":"levelo_inurba_marseille","lat":43.32117,"lon":5.36768,"is_reserved":false,"is_disabled":false,"rental_uris":{"android":"levelo://app?vid=c649c1d2-5deb-4455-9f15-9e50441eef46","ios":"levelo://app?vid=c649c1d2-5deb-4455-9f15-9e50441eef46"},"vehicle_type_id":"4","last_reported":1733014719,"current_range_meters":38800,"station_id":"ce4bhrh2rcd13ifvqhug","pricing_plan_id":"cebpf4jnsgd1na2vs0mg"},{"bike_id":"7dc2caec-37b5-482a-abad-d1d2f62e7e82","system_id":"levelo_inurba_marseille","lat":43.31252,"lon":5.36956,"is_reserved":false,"is_disabled":true,"rental_uris":{"android":"levelo://app?vid=7dc2caec-37b5-482a-abad-d1d2f62e7e82","ios":"levelo://app?vid=7dc2caec-37b5-482a-abad-d1d2f62e7e82"},"vehicle_type_id":"4","last_reported":1733014719,"current_range_meters":0,"station_id":"","pricing_plan_id":"cebpf4jnsgd1na2vs0mg"},{"bike_id":"c36f8385-9bb9-401f-af30-8e3b4489ff5b","system_id":"levelo_inurba_marseille","lat":43.2742,"lon":5.39415,"is_reserved":false,"is_disabled":false,"rental_uris":{"android":"levelo://app?vid=c36f8385-9bb9-401f-af30-8e3b4489ff5b","ios":"levelo://app?vid=c36f8385-9bb9-401f-af30-8e3b4489ff5b"},"vehicle_type_id":"4","last_reported":1733014719,"current_range_meters":18800,"station_id":"ce4bhdp2rcd13ifvqf20","pricing_plan_id":"cebpf4jnsgd1na2vs0mg"},{"bike_id":"bd219634-e04a-4bbd-96ff-b54e24456095","system_id":"levelo_inurba_marseille","lat":43.2558,"lon":5.38236,"is_reserved":false,"is_disabled":false,"rental_uris":{"android":"levelo://app?vid=bd219634-e04a-4bbd-96ff-b54e24456095","ios":"levelo://app?vid=bd219634-e04a-4bbd-96ff-b54e24456095"},"vehicle_type_id":"4","last_reported":1733014719,"current_range_meters":32400,"station_id":"ce4bhih2rcd13ifvqfs0","pricing_plan_id":"cebpf4jnsgd1na2vs0mg"},{"bike_id":"d096a05a-f487-4e0d-9d29-6cd024c7c698","system_id":"levelo_inurba_marseille","lat":43.24997,"lon":5.38926,"is_reserved":false,"is_disabled":false,"rental_uris":{"android":"levelo://app?vid=d096a05a-f487-4e0d-9d29-6cd024c7c698","ios":"levelo://app?vid=d096a05a-f487-4e0d-9d29-6cd024c7c698"},"vehicle_type_id":"4","last_reported":1733014719,"current_range_meters":34000,"station_id":"ce4bhgp2rcd13ifvqfd0","pricing_plan_id":"cebpf4jnsgd1na2vs0mg"},{"bike_id":"9dd1fc98-a89e-437a-b707-6eb8b3c899e8","system_id":"levelo_inurba_marseille","lat":43.29038,"lon":5.35915,"is_reserved":false,"is_disabled":true,"rental_uris":{"android":"levelo://app?vid=9dd1fc98-a89e-437a-b707-6eb8b3c899e8","ios":"levelo://app?vid=9dd1fc98-a89e-437a-b707-6eb8b3c899e8"},"vehicle_type_id":"4","last_reported":1733014719,"current_range_meters":1200,"station_id":"ce4bha92rcd13ifvqeg0","pricing_plan_id":"cebpf4jnsgd1na2vs0mg"},{"bike_id":"28a82196-100a-4883-b98e-31aeb1068b5e","system_id":"levelo_inurba_marseille","lat":43.29687,"lon":5.36255,"is_reserved":false,"is_disabled":false,"rental_uris":{"android":"levelo://app?vid=28a82196-100a-4883-b98e-31aeb1068b5e","ios":"levelo://app?vid=28a82196-100a-4883-b98e-31aeb1068b5e"},"vehicle_type_id":"4","last_reported":1733014719,"current_range_meters":36000,"station_id":"","pricing_plan_id":"cebpf4jnsgd1na2vs0mg"},{"bike_id":"aea6b7a8-fa3c-4842-89c6-693b08a99724","system_id":"levelo_inurba_marseille","lat":43.33752,"lon":5.37428,"is_reserved":false,"is_disabled":false,"rental_uris":{"android":"levelo://app?vid=aea6b7a8-fa3c-4842-89c6-693b08a99724","ios":"levelo://app?vid=aea6b7a8-fa3c-4842-89c6-693b08a99724"},"vehicle_type_id":"4","last_reported":1733014719,"current_range_meters":36400,"station_id":"","pricing_plan_id":"cebpf4jnsgd1na2vs0mg"},{"bike_id":"1d61ce94-fc69-4547-98a1-1bc3b6deaebc","system_id":"levelo_inurba_marseille","lat":43.28845,"lon":5.35853,"is_reserved":false,"is_disabled":false,"rental_uris":{"android":"levelo://app?vid=1d61ce94-fc69-4547-98a1-1bc3b6deaebc","ios":"levelo://app?vid=1d61ce94-fc69-4547-98a1-1bc3b6deaebc"},"vehicle_type_id":"4","last_reported":1733014719,"current_range_meters":30400,"station_id":"ce4bhb12rcd13ifvqem0","pricing_plan_id":"cebpf4jnsgd1na2vs0mg"},{"bike_id":"88c7bf8e-4811-46fd-b06d-1e00a7503400","system_id":"levelo_inurba_marseille","lat":43.25105,"lon":5.40329,"is_reserved":false,"is_disabled":false,"rental_uris":{"android":"levelo://app?vid=88c7bf8e-4811-46fd-b06d-1e00a7503400","ios":"levelo://app?vid=88c7bf8e-4811-46fd-b06d-1e00a7503400"},"vehicle_type_id":"4","last_reported":1733014719,"current_range_meters":7200,"station_id":"ce4bhlh2rcd13ifvqgig","pricing_plan_id":"cebpf4jnsgd1na2vs0mg"},{"bike_id":"ff90587f-4b59-47e3-82d7-9ecb2f1bc4ef","system_id":"levelo_inurba_marseille","lat":43.32351,"lon":5.40608,"is_reserved":false,"is_disabled":false,"rental_uris":{"android":"levelo://app?vid=ff90587f-4b59-47e3-82d7-9ecb2f1bc4ef","ios":"levelo://app?vid=ff90587f-4b59-47e3-82d7-9ecb2f1bc4ef"},"vehicle_type_id":"4","last_reported":1733014719,"current_range_meters":38800,"station_id":"ce4bhq92rcd13ifvqhjg","pricing_plan_id":"cebpf4jnsgd1na2vs0mg"},{"bike_id":"1b4091b4-9da5-4e08-a623-15bd0eb83e75","system_id":"levelo_inurba_marseille","lat":43.29304,"lon":5.37177,"is_reserved":false,"is_disabled":true,"rental_uris":{"android":"levelo://app?vid=1b4091b4-9da5-4e08-a623-15bd0eb83e75","ios":"levelo://app?vid=1b4091b4-9da5-4e08-a623-15bd0eb83e75"},"vehicle_type_id":"4","last_reported":1733014719,"current_range_meters":8800,"station_id":"ce4bgh92rcd13ifvqb40","pricing_plan_id":"cebpf4jnsgd1na2vs0mg"},{"bike_id":"01dd0f6c-5d7c-4e63-a161-668f65657b81","system_id":"levelo_inurba_marseille","lat":43.2293,"lon":5.35376,"is_reserved":false,"is_disabled":false,"rental_uris":{"android":"levelo://app?vid=01dd0f6c-5d7c-4e63-a161-668f65657b81","ios":"levelo://app?vid=01dd0f6c-5d7c-4e63-a161-668f65657b81"},"vehicle_type_id":"4","last_reported":1733014719,"current_range_meters":38800,"station_id":"cpo3532slgdg3j2ikp40","pricing_plan_id":"cebpf4jnsgd1na2vs0mg"},{"bike_id":"b0924600-8287-4199-b791-e13b75ba6670","system_id":"levelo_inurba_marseille","lat":43.31176,"lon":5.38704,"is_reserved":false,"is_disabled":false,"rental_uris":{"android":"levelo://app?vid=b0924600-8287-4199-b791-e13b75ba6670","ios":"levelo://app?vid=b0924600-8287-4199-b791-e13b75ba6670"},"vehicle_type_id":"4","last_reported":1733014719,"current_range_meters":20000,"station_id":"ce4bgv12rcd13ifvqcp0","pricing_plan_id":"cebpf4jnsgd1na2vs0mg"},{"bike_id":"a054c468-8cf6-4708-bfde-533f0a3e2365","system_id":"levelo_inurba_marseille","lat":43.30631,"lon":5.40083,"is_reserved":false,"is_disabled":false,"rental_uris":{"android":"levelo://app?vid=a054c468-8cf6-4708-bfde-533f0a3e2365","ios":"levelo://app?vid=a054c468-8cf6-4708-bfde-533f0a3e2365"},"vehicle_type_id":"4","last_reported":1733014719,"current_range_meters":38800,"station_id":"ce4bh112rcd13ifvqda0","pricing_plan_id":"cebpf4jnsgd1na2vs0mg"},{"bike_id":"ce5712b8-c5d6-4540-8a8e-3a7d8ef33d65","system_id":"levelo_inurba_marseille","lat":43.32487,"lon":5.36602,"is_reserved":false,"is_disabled":false,"rental_uris":{"android":"levelo://app?vid=ce5712b8-c5d6-4540-8a8e-3a7d8ef33d65","ios":"levelo://app?vid=ce5712b8-c5d6-4540-8a8e-3a7d8ef33d65"},"vehicle_type_id":"4","last_reported":1733014719,"current_range_meters":6800,"station_id":"ce4bhs12rcd13ifvqhvg","pricing_plan_id":"cebpf4jnsgd1na2vs0mg"},{"bike_id":"c1a51721-b7c0-40d4-852d-da5a8ce7692f","system_id":"levelo_inurba_marseille","lat":43.27174,"lon":5.40996,"is_reserved":false,"is_disabled":false,"rental_uris":{"android":"levelo://app?vid=c1a51721-b7c0-40d4-852d-da5a8ce7692f","ios":"levelo://app?vid=c1a51721-b7c0-40d4-852d-da5a8ce7692f"},"vehicle_type_id":"4","last_reported":1733014719,"current_range_meters":31200,"station_id":"ce4bhl12rcd13ifvqgf0","pricing_plan_id":"cebpf4jnsgd1na2vs0mg"},{"bike_id":"ea2d9b3a-9e80-4461-84cc-2fc2254da8c5","system_id":"levelo_inurba_marseille","lat":43.27666,"lon":5.38881,"is_reserved":false,"is_disabled":false,"rental_uris":{"android":"levelo://app?vid=ea2d9b3a-9e80-4461-84cc-2fc2254da8c5","ios":"levelo://app?vid=ea2d9b3a-9e80-4461-84cc-2fc2254da8c5"},"vehicle_type_id":"4","last_reported":1733014719,"current_range_meters":17200,"station_id":"ce4bhi12rcd13ifvqfo0","pricing_plan_id":"cebpf4jnsgd1na2vs0mg"},{"bike_id":"167686ca-8000-484a-9a28-c4e6488cae30","system_id":"levelo_inurba_marseille","lat":43.24078,"lon":5.37754,"is_reserved":false,"is_disabled":false,"rental_uris":{"android":"levelo://app?vid=167686ca-8000-484a-9a28-c4e6488cae30","ios":"levelo://app?vid=167686ca-8000-484a-9a28-c4e6488cae30"},"vehicle_type_id":"4","last_reported":1733014719,"current_range_meters":30000,"station_id":"ce4bhnp2rcd13ifvqgvg","pricing_plan_id":"cebpf4jnsgd1na2vs0mg"},{"bike_id":"e5951ee3-4a5a-4ebb-b469-096c5188dfa3","system_id":"levelo_inurba_marseille","lat":43.23188,"lon":5.35552,"is_reserved":false,"is_disabled":false,"rental_uris":{"android":"levelo://app?vid=e5951ee3-4a5a-4ebb-b469-096c5188dfa3","ios":"levelo://app?vid=e5951ee3-4a5a-4ebb-b469-096c5188dfa3"},"vehicle_type_id":"4","last_reported":1733014719,"current_range_meters":16000,"station_id":"ce4bhu92rcd13ifvqi70","pricing_plan_id":"cebpf4jnsgd1na2vs0mg"},{"bike_id":"f9a63393-5401-4f98-ae5a-dfbb8291ab6d","system_id":"levelo_inurba_marseille","lat":43.3004,"lon":5.37551,"is_reserved":false,"is_disabled":true,"rental_uris":{"android":"levelo://app?vid=f9a63393-5401-4f98-ae5a-dfbb8291ab6d","ios":"levelo://app?vid=f9a63393-5401-4f98-ae5a-dfbb8291ab6d"},"vehicle_type_id":"4","last_reported":1733014719,"current_range_meters":0,"station_id":"","pricing_plan_id":"cebpf4jnsgd1na2vs0mg"},{"bike_id":"06599288-d807-4934-b5f6-d05885940fb7","system_id":"levelo_inurba_marseille","lat":43.27832,"lon":5.39208,"is_reserved":false,"is_disabled":false,"rental_uris":{"android":"levelo://app?vid=06599288-d807-4934-b5f6-d05885940fb7","ios":"levelo://app?vid=06599288-d807-4934-b5f6-d05885940fb7"},"vehicle_type_id":"4","last_reported":1733014719,"current_range_meters":39200,"station_id":"ce4bhjp2rcd13ifvqga0","pricing_plan_id":"cebpf4jnsgd1na2vs0mg"},{"bike_id":"b38c09bb-a215-4e8b-b764-0091f548550c","system_id":"levelo_inurba_marseille","lat":43.22934,"lon":5.35384,"is_reserved":false,"is_disabled":false,"rental_uris":{"android":"levelo://app?vid=b38c09bb-a215-4e8b-b764-0091f548550c","ios":"levelo://app?vid=b38c09bb-a215-4e8b-b764-0091f548550c"},"vehicle_type_id":"4","last_reported":1733014719,"current_range_meters":38400,"station_id":"cpo3532slgdg3j2ikp40","pricing_plan_id":"cebpf4jnsgd1na2vs0mg"},{"bike_id":"2dc38ade-27f7-4963-9993-df653a004c9b","system_id":"levelo_inurba_marseille","lat":43.27379,"lon":5.3626,"is_reserved":false,"is_disabled":false,"rental_uris":{"android":"levelo://app?vid=2dc38ade-27f7-4963-9993-df653a004c9b","ios":"levelo://app?vid=2dc38ade-27f7-4963-9993-df653a004c9b"},"vehicle_type_id":"4","last_reported":1733014719,"current_range_meters":25600,"station_id":"ce4bhbh2rcd13ifvqeo0","pricing_plan_id":"cebpf4jnsgd1na2vs0mg"},{"bike_id":"b187126a-f02d-4468-8acb-d4cf5bf2e5e6","system_id":"levelo_inurba_marseille","lat":43.31265,"lon":5.40163,"is_reserved":false,"is_disabled":false,"rental_uris":{"android":"levelo://app?vid=b187126a-f02d-4468-8acb-d4cf5bf2e5e6","ios":"levelo://app?vid=b187126a-f02d-4468-8acb-d4cf5bf2e5e6"},"vehicle_type_id":"4","last_reported":1733014719,"current_range_meters":28400,"station_id":"ce4bh092rcd13ifvqd30","pricing_plan_id":"cebpf4jnsgd1na2vs0mg"},{"bike_id":"26713caa-0f32-4b6f-b768-c7f1d6b8068f","system_id":"levelo_inurba_marseille","lat":43.31495,"lon":5.37307,"is_reserved":false,"is_disabled":false,"rental_uris":{"android":"levelo://app?vid=26713caa-0f32-4b6f-b768-c7f1d6b8068f","ios":"levelo://app?vid=26713caa-0f32-4b6f-b768-c7f1d6b8068f"},"vehicle_type_id":"4","last_reported":1733014719,"current_range_meters":17200,"station_id":"ce4bgt12rcd13ifvqcd0","pricing_plan_id":"cebpf4jnsgd1na2vs0mg"},{"bike_id":"ea461fa6-489e-4de7-89c7-2f448445227c","system_id":"levelo_inurba_marseille","lat":43.29306,"lon":5.37171,"is_reserved":false,"is_disabled":true,"rental_uris":{"android":"levelo://app?vid=ea461fa6-489e-4de7-89c7-2f448445227c","ios":"levelo://app?vid=ea461fa6-489e-4de7-89c7-2f448445227c"},"vehicle_type_id":"4","last_reported":1733014719,"current_range_meters":38800,"station_id":"ce4bgh92rcd13ifvqb40","pricing_plan_id":"cebpf4jnsgd1na2vs0mg"},{"bike_id":"b0bda3a0-8d9d-4bd3-a5b8-75ccdf39fdf3","system_id":"levelo_inurba_marseille","lat":43.29441,"lon":5.39755,"is_reserved":false,"is_disabled":true,"rental_uris":{"android":"levelo://app?vid=b0bda3a0-8d9d-4bd3-a5b8-75ccdf39fdf3","ios":"levelo://app?vid=b0bda3a0-8d9d-4bd3-a5b8-75ccdf39fdf3"},"vehicle_type_id":"4","last_reported":1733014719,"current_range_meters":26800,"station_id":"ce4bh3h2rcd13ifvqdo0","pricing_plan_id":"cebpf4jnsgd1na2vs0mg"},{"bike_id":"04791269-9bad-451a-a252-9b63a8db9660","system_id":"levelo_inurba_marseille","lat":43.28032,"lon":5.36945,"is_reserved":false,"is_disabled":false,"rental_uris":{"android":"levelo://app?vid=04791269-9bad-451a-a252-9b63a8db9660","ios":"levelo://app?vid=04791269-9bad-451a-a252-9b63a8db9660"},"vehicle_type_id":"4","last_reported":1733014719,"current_range_meters":24800,"station_id":"ce4bha12rcd13ifvqef0","pricing_plan_id":"cebpf4jnsgd1na2vs0mg"},{"bike_id":"6c1938c7-d149-48ab-a773-6a6268472da0","system_id":"levelo_inurba_marseille","lat":43.28729,"lon":5.38923,"is_reserved":false,"is_disabled":false,"rental_uris":{"android":"levelo://app?vid=6c1938c7-d149-48ab-a773-6a6268472da0","ios":"levelo://app?vid=6c1938c7-d149-48ab-a773-6a6268472da0"},"vehicle_type_id":"4","last_reported":1733014719,"current_range_meters":10000,"station_id":"","pricing_plan_id":"cebpf4jnsgd1na2vs0mg"},