{"last_updated":1701644798,"ttl":30,"version":"2.2","data":{"bikes":[{"bike_id":"4027fb6a-cd16-48a4-b326-09b38a1dad34","system_id":"levelo_inurba_marseille","lat":43.312239,"lon":5.368562,"is_reserved":false,"is_disabled":false,"rental_uris":{"android":"levelo://app?vid=4027fb6a-cd16-48a4-b326-09b38a1dad34","ios":"levelo://app?vid=4027fb6a-cd16-48a4-b326-09b38a1dad34"},"vehicle_type_id":"4","last_reported":1701644799,"current_range_meters":16800,"station_id":"ce4bgl92rcd13ifvqbq0","pricing_plan_id":"free"},{"bike_id":"6a8b5a04-02e1-490e-9cd1-990021dcf706","system_id":"levelo_inurba_marseille","lat":43.314811,"lon":5.373103,"is_reserved":false,"is_disabled":false,"rental_uris":{"android":"levelo://app?vid=6a8b5a04-02e1-490e-9cd1-990021dcf706","ios":"levelo://app?vid=6a8b5a04-02e1-490e-9cd1-990021dcf706"},"vehicle_type_id":"4","last_reported":1701644799,"current_range_meters":11600,"station_id":"ce4bgt12rcd13ifvqcd0","pricing_plan_id":"free"},{"bike_id":"73343222-2e19-4003-aa65-f0321d8ccb82","system_id":"levelo_inurba_marseille","lat":43.309039,"lon":5.371797,"is_reserved":false,"is_disabled":false,"rental_uris":{"android":"levelo://app?vid=73343222-2e19-4003-aa65-f0321d8ccb82","ios":"levelo://app?vid=73343222-2e19-4003-aa65-f0321d8ccb82"},"vehicle_type_id":"4","last_reported":1701644799,"current_range_meters":13600,"station_id":"ce4bguh2rcd13ifvqckg","pricing_plan_id":"free"},{"bike_id":"6e0d9897-9d07-4d15-b8b9-6c712cd1bdae","system_id":"levelo_inurba_marseille","lat":43.305989,"lon":5.37225,"is_reserved":false,"is_disabled":false,"rental_uris":{"android":"levelo://app?vid=6e0d9897-9d07-4d15-b8b9-6c712cd1bdae","ios":"levelo://app?vid=6e0d9897-9d07-4d15-b8b9-6c712cd1bdae"},"vehicle_type_id":"4","last_reported":1701644799,"current_range_meters":16400,"station_id":"ce4bgqh2rcd13ifvqc4g","pricing_plan_id":"free"},{"bike_id":"f427a2c3-6e4a-446b-ae2f-9be8aa7f4122","system_id":"levelo_inurba_marseille","lat":43.31719,"lon":5.376813,"is_reserved":false,"is_disabled":false,"rental_uris":{"android":"levelo://app?vid=f427a2c3-6e4a-446b-ae2f-9be8aa7f4122","ios":"levelo://app?vid=f427a2c3-6e4a-446b-ae2f-9be8aa7f4122"},"vehicle_type_id":"4","last_reported":1701644799,"current_range_meters":0,"station_id":"","pricing_plan_id":"free"},{"bike_id":"e913f328-1e31-4c22-bd87-f809ea246de4","system_id":"levelo_inurba_marseille","lat":43.317168,"lon":5.376883,"is_reserved":false,"is_disabled":false,"rental_uris":{"android":"levelo://app?vid=e913f328-1e31-4c22-bd87-f809ea246de4","ios":"levelo://app?vid=e913f328-1e31-4c22-bd87-f809ea246de4"},"vehicle_type_id":"4","last_reported":1701644799,"current_range_meters":0,"station_id":"","pricing_plan_id":"free"},{"bike_id":"1c04753e-6979-4f1e-af31-3b4feaef49b4","system_id":"levelo_inurba_marseille","lat":43.317075,"lon":5.377367,"is_reserved":false,"is_disabled":false,"rental_uris":{"android":"levelo://app?vid=1c04753e-6979-4f1e-af31-3b4feaef49b4","ios":"levelo://app?vid=1c04753e-6979-4f1e-af31-3b4feaef49b4"},"vehicle_type_id":"4","last_reported":1701644799,"current_range_meters":28400,"station_id":"ce4bgth2rcd13ifvqch0","pricing_plan_id":"free"},{"bike_id":"fb6fd937-527b-4585-9058-0dfdc6436ac8","system_id":"levelo_inurba_marseille","lat":43.31351,"lon":5.37909,"is_reserved":false,"is_disabled":false,"rental_uris":{"android":"levelo://app?vid=fb6fd937-527b-4585-9058-0dfdc6436ac8","ios":"levelo://app?vid=fb6fd937-527b-4585-9058-0dfdc6436ac8"},"vehicle_type_id":"4","last_reported":1701644799,"current_range_meters":16400,"station_id":"","pricing_plan_id":"free"},{"bike_id":"ba7abdb0-9f74-4c3b-b538-f9c84551d6e8","system_id":"levelo_inurba_marseille","lat":43.308012,"lon":5.381511,"is_reserved":false,"is_disabled":false,"rental_uris":{"android":"levelo://app?vid=ba7abdb0-9f74-4c3b-b538-f9c84551d6e8","ios":"levelo://app?vid=ba7abdb0-9f74-4c3b-b538-f9c84551d6e8"},"vehicle_type_id":"4","last_reported":1701644799,"current_range_meters":11200,"station_id":"ce4bgt12rcd13ifvqce0","pricing_plan_id":"free"},{"bike_id":"4c3f7a0c-08ef-4d28-81d5-8623fa9371e5","system_id":"levelo_inurba_marseille","lat":43.30143,"lon":5.37413,"is_reserved":false,"is_disabled":false,"rental_uris":{"android":"levelo://app?vid=4c3f7a0c-08ef-4d28-81d5-8623fa9371e5","ios":"levelo://app?vid=4c3f7a0c-08ef-4d28-81d5-8623fa9371e5"},"vehicle_type_id":"4","last_reported":1701644799,"current_range_meters":10000,"station_id":"ce4bgs92rcd13ifvqcc0","pricing_plan_id":"free"},{"bike_id":"c32b4a1c-8be5-4f93-a794-fd809cd16078","system_id":"levelo_inurba_marseille","lat":43.319886,"lon":5.381485,"is_reserved":false,"is_disabled":false,"rental_uris":{"android":"levelo://app?vid=c32b4a1c-8be5-4f93-a794-fd809cd16078","ios":"levelo://app?vid=c32b4a1c-8be5-4f93-a794-fd809cd16078"},"vehicle_type_id":"4","last_reported":1701644799,"current_range_meters":9600,"station_id":"ce4bhr12rcd13ifvqhpg","pricing_plan_id":"free"},{"bike_id":"1b836397-024f-4ce5-8ba8-e625623686d0","system_id":"levelo_inurba_marseille","lat":43.31996,"lon":5.38147,"is_reserved":false,"is_disabled":false,"rental_uris":{"android":"levelo://app?vid=1b836397-024f-4ce5-8ba8-e625623686d0","ios":"levelo://app?vid=1b836397-024f-4ce5-8ba8-e625623686d0"},"vehicle_type_id":"4","last_reported":1701644799,"current_range_meters":7200,"station_id":"ce4bhr12rcd13ifvqhpg","pricing_plan_id":"free"},{"bike_id":"2275aca5-3158-4c2c-8022-ca5d2714bc86","system_id":"levelo_inurba_marseille","lat":43.319997,"lon":5.381594,"is_reserved":false,"is_disabled":false,"rental_uris":{"android":"levelo://app?vid=2275aca5-3158-4c2c-8022-ca5d2714bc86","ios":"levelo://app?vid=2275aca5-3158-4c2c-8022-ca5d2714bc86"},"vehicle_type_id":"4","last_reported":1701644799,"current_range_meters":10000,"station_id":"ce4bhr12rcd13ifvqhpg","pricing_plan_id":"free"},{"bike_id":"ff6e4030-1cc9-48b6-ade9-660e13444a51","system_id":"levelo_inurba_marseille","lat":43.313571,"lon":5.384829,"is_reserved":false,"is_disabled":false,"rental_uris":{"android":"levelo://app?vid=ff6e4030-1cc9-48b6-ade9-660e13444a51","ios":"levelo://app?vid=ff6e4030-1cc9-48b6-ade9-660e13444a51"},"vehicle_type_id":"4","last_reported":1701644799,"current_range_meters":30800,"station_id":"ce4bgt92rcd13ifvqcf0","pricing_plan_id":"free"},{"bike_id":"aaa26a12-246b-4d79-95da-dfbdfaf67518","system_id":"levelo_inurba_marseille","lat":43.313571,"lon":5.384829,"is_reserved":false,"is_disabled":false,"rental_uris":{"android":"levelo://app?vid=aaa26a12-246b-4d79-95da-dfbdfaf67518","ios":"levelo://app?vid=aaa26a12-246b-4d79-95da-dfbdfaf67518"},"vehicle_type_id":"4","last_reported":1701644799,"current_range_meters":26000,"station_id":"ce4bgt92rcd13ifvqcf0","pricing_plan_id":"free"},{"bike_id":"9fdb7f97-586d-42d2-befd-15216ba2e422","system_id":"levelo_inurba_marseille","lat":43.31183,"lon":5.38523,"is_reserved":false,"is_disabled":false,"rental_uris":{"android":"levelo://app?vid=9fdb7f97-586d-42d2-befd-15216ba2e422","ios":"levelo://app?vid=9fdb7f97-586d-42d2-befd-15216ba2e422"},"vehicle_type_id":"4","last_reported":1701644799,"current_range_meters":0,"station_id":"","pricing_plan_id":"free"},{"bike_id":"748d12ab-8e09-4ecd-b2d2-cbe0ea9624f6","system_id":"levelo_inurba_marseille","lat":43.298932,"lon":5.367301,"is_reserved":false,"is_disabled":false,"rental_uris":{"android":"levelo://app?vid=748d12ab-8e09-4ecd-b2d2-cbe0ea9624f6","ios":"levelo://app?vid=748d12ab-8e09-4ecd-b2d2-cbe0ea9624f6"},"vehicle_type_id":"4","last_reported":1701644799,"current_range_meters":0,"station_id":"","pricing_plan_id":"free"},{"bike_id":"8f471969-8e2d-4ef5-8d2e-654dab26d28a","system_id":"levelo_inurba_marseille","lat":43.312309,"lon":5.386652,"is_reserved":false,"is_disabled":false,"rental_uris":{"android":"levelo://app?vid=8f471969-8e2d-4ef5-8d2e-654dab26d28a","ios":"levelo://app?vid=8f471969-8e2d-4ef5-8d2e-654dab26d28a"},"vehicle_type_id":"4","last_reported":1701644799,"current_range_meters":19600,"station_id":"","pricing_plan_id":"free"},{"bike_id":"631c0f0a-c87a-4ac2-8c86-a55effd3d60b","system_id":"levelo_inurba_marseille","lat":43.298433,"lon":5.362774,"is_reserved":false,"is_disabled":false,"rental_uris":{"android":"levelo://app?vid=631c0f0a-c87a-4ac2-8c86-a55effd3d60b","ios":"levelo://app?vid=631c0f0a-c87a-4ac2-8c86-a55effd3d60b"},"vehicle_type_id":"4","last_reported":1701644799,"current_range_meters":27600,"station_id":"ce4bgpp2rcd13ifvqc3g","pricing_plan_id":"free"},{"bike_id":"10a8c54c-4f01-46b5-a081-7d07eab5f5e2","system_id":"levelo_inurba_marseille","lat":43.311722,"lon":5.387247,"is_reserved":false,"is_disabled":false,"rental_uris":{"android":"levelo://app?vid=10a8c54c-4f01-46b5-a081-7d07eab5f5e2","ios":"levelo://app?vid=10a8c54c-4f01-46b5-a081-7d07eab5f5e2"},"vehicle_type_id":"4","last_reported":1701644799,"current_range_meters":15200,"station_id":"ce4bgv12rcd13ifvqcp0","pricing_plan_id":"free"},{"bike_id":"bf5eb96b-135f-4b1b-99db-873403575c86","system_id":"levelo_inurba_marseille","lat":43.311722,"lon":5.387247,"is_reserved":false,"is_disabled":false,"rental_uris":{"android":"levelo://app?vid=bf5eb96b-135f-4b1b-99db-873403575c86","ios":"levelo://app?vid=bf5eb96b-135f-4b1b-99db-873403575c86"},"vehicle_type_id":"4","last_reported":1701644799,"current_range_meters":26000,"station_id":"ce4bgv12rcd13ifvqcp0","pricing_plan_id":"free"},{"bike_id":"0a39dd03-261e-42e4-8565-1ecf12f7bfae","system_id":"levelo_inurba_marseille","lat":43.322872,"lon":5.382756,"is_reserved":false,"is_disabled":false,"rental_uris":{"android":"levelo://app?vid=0a39dd03-261e-42e4-8565-1ecf12f7bfae","ios":"levelo://app?vid=0a39dd03-261e-42e4-8565-1ecf12f7bfae"},"vehicle_type_id":"4","last_reported":1701644799,"current_range_meters":21200,"station_id":"ce4bhr12rcd13ifvqhqg","pricing_plan_id":"free"},{"bike_id":"08a721db-bf5d-46b3-9ba3-2a9c6c13bcf6","system_id":"levelo_inurba_marseille","lat":43.328256,"lon":5.366905,"is_reserved":false,"is_disabled":false,"rental_uris":{"android":"levelo://app?vid=08a721db-bf5d-46b3-9ba3-2a9c6c13bcf6","ios":"levelo://app?vid=08a721db-bf5d-46b3-9ba3-2a9c6c13bcf6"},"vehicle_type_id":"4","last_reported":1701644799,"current_range_meters":23200,"station_id":"","pricing_plan_id":"free"},{"bike_id":"65a9133c-c61d-4979-8e7b-24fafb96941b","system_id":"levelo_inurba_marseille","lat":43.328371,"lon":5.366909,"is_reserved":false,"is_disabled":false,"rental_uris":{"android":"levelo://app?vid=65a9133c-c61d-4979-8e7b-24fafb96941b","ios":"levelo://app?vid=65a9133c-c61d-4979-8e7b-24fafb96941b"},"vehicle_type_id":"4","last_reported":1701644799,"current_range_meters":9600,"station_id":"ce4bhs92rcd13ifvqi0g","pricing_plan_id":"free"},{"bike_id":"8874ef37-d11b-4860-b7df-daab8952a737","system_id":"levelo_inurba_marseille","lat":43.328371,"lon":5.366909,"is_reserved":false,"is_disabled":false,"rental_uris":{"android":"levelo://app?vid=8874ef37-d11b-4860-b7df-daab8952a737","ios":"levelo://app?vid=8874ef37-d11b-4860-b7df-daab8952a737"},"vehicle_type_id":"4","last_reported":1701644799,"current_range_meters":22000,"station_id":"ce4bhs92rcd13ifvqi0g","pricing_plan_id":"free"},{"bike_id":"56c27ac6-d3be-4b1b-a869-2d0f1759ad4a","system_id":"levelo_inurba_marseille","lat":43.298208,"lon":5.376707,"is_reserved":false,"is_disabled":false,"rental_uris":{"android":"levelo://app?vid=56c27ac6-d3be-4b1b-a869-2d0f1759ad4a","ios":"levelo://app?vid=56c27ac6-d3be-4b1b-a869-2d0f1759ad4a"},"vehicle_type_id":"4","last_reported":1701644799,"current_range_meters":0,"station_id":"","pricing_plan_id":"free"},{"bike_id":"eaa0e7e7-2390-47fa-909b-7b240952cbef","system_id":"levelo_inurba_marseille","lat":43.316511,"lon":5.3896,"is_reserved":false,"is_disabled":false,"rental_uris":{"android":"levelo://app?vid=eaa0e7e7-2390-47fa-909b-7b240952cbef","ios":"levelo://app?vid=eaa0e7e7-2390-47fa-909b-7b240952cbef"},"vehicle_type_id":"4","last_reported":1701644799,"current_range_meters":17200,"station_id":"","pricing_plan_id":"free"},{"bike_id":"50451858-4fd4-406d-badc-776a2e8a63c3","system_id":"levelo_inurba_marseille","lat":43.32973,"lon":5.36732,"is_reserved":false,"is_disabled":false,"rental_uris":{"android":"levelo://app?vid=50451858-4fd4-406d-badc-776a2e8a63c3","ios":"levelo://app?vid=50451858-4fd4-406d-badc-776a2e8a63c3"},"vehicle_type_id":"4","last_reported":1701644799,"current_range_meters":18400,"station_id":"","pricing_plan_id":"free"},{"bike_id":"f4daf710-bed7-47b5-9cbf-34beff69fe75","system_id":"levelo_inurba_marseille","lat":43.309589,"lon":5.390258,"is_reserved":false,"is_disabled":false,"rental_uris":{"android":"levelo://app?vid=f4daf710-bed7-47b5-9cbf-34beff69fe75","ios":"levelo://app?vid=f4daf710-bed7-47b5-9cbf-34beff69fe75"},"vehicle_type_id":"4","last_reported":1701644799,"current_range_meters":25600,"station_id":"ce4bgup2rcd13ifvqco0","pricing_plan_id":"free"},{"bike_id":"a7d6993c-889b-472d-8005-f6e35e313883","system_id":"levelo_inurba_marseille","lat":43.309589,"lon":5.390258,"is_reserved":false,"is_disabled":false,"rental_uris":{"android":"levelo://app?vid=a7d6993c-889b-472d-8005-f6e35e313883","ios":"levelo://app?vid=a7d6993c-889b-472d-8005-f6e35e313883"},"vehicle_type_id":"4","last_reported":1701644799,"current_range_meters":24400,"station_id":"ce4bgup2rcd13ifvqco0","pricing_plan_id":"free"},{"bike_id":"d7b46bee-d340-476c-9aab-d55e5cf22500","system_id":"levelo_inurba_marseille","lat":43.317557,"lon":5.390173,"is_reserved":false,"is_disabled":false,"rental_uris":{"android":"levelo://app?vid=d7b46bee-d340-476c-9aab-d55e5cf22500","ios":"levelo://app?vid=d7b46bee-d340-476c-9aab-d55e5cf22500"},"vehicle_type_id":"4","last_reported":1701644799,"current_range_meters":31200,"station_id":"ce4bhqp2rcd13ifvqhng","pricing_plan_id":"free"},{"bike_id":"34cf9a3a-1af8-455f-a8e2-765ba2e53d8e","system_id":"levelo_inurba_marseille","lat":43.304274,"lon":5.388873,"is_reserved":false,"is_disabled":false,"rental_uris":{"android":"levelo://app?vid=34cf9a3a-1af8-455f-a8e2-765ba2e53d8e","ios":"levelo://app?vid=34cf9a3a-1af8-455f-a8e2-765ba2e53d8e"},"vehicle_type_id":"4","last_reported":1701644799,"current_range_meters":26400,"station_id":"ce4bgk12rcd13ifvqbi0","pricing_plan_id":"free"},{"bike_id":"cd658f39-ae35-4715-9a31-46b3c24f5bc4","system_id":"levelo_inurba_marseille","lat":43.293249,"lon":5.371578,"is_reserved":false,"is_disabled":false,"rental_uris":{"android":"levelo://app?vid=cd658f39-ae35-4715-9a31-46b3c24f5bc4","ios":"levelo://app?vid=cd658f39-ae35-4715-9a31-46b3c24f5bc4"},"vehicle_type_id":"4","last_reported":1701644799,"current_range_meters":23600,"station_id":"ce4bgh92rcd13ifvqb40","pricing_plan_id":"free"},{"bike_id":"b012eb8c-302d-4a90-9bd6-1c47deb0d4bf","system_id":"levelo_inurba_marseille","lat":43.29282,"lon":5.36849,"is_reserved":false,"is_disabled":false,"rental_uris":{"android":"levelo://app?vid=b012eb8c-302d-4a90-9bd6-1c47deb0d4bf","ios":"levelo://app?vid=b012eb8c-302d-4a90-9bd6-1c47deb0d4bf"},"vehicle_type_id":"4","last_reported":1701644799,"current_range_meters":27600,"station_id":"ce4bhbp2rcd13ifvqesg","pricing_plan_id":"free"},{"bike_id":"d178684a-3833-4439-a2f3-d901665bb3d1","system_id":"levelo_inurba_marseille","lat":43.293249,"lon":5.371578,"is_reserved":false,"is_disabled":false,"rental_uris":{"android":"levelo://app?vid=d178684a-3833-4439-a2f3-d901665bb3d1","ios":"levelo://app?vid=d178684a-3833-4439-a2f3-d901665bb3d1"},"vehicle_type_id":"4","last_reported":1701644799,"current_range_meters":19200,"station_id":"ce4bgh92rcd13ifvqb40","pricing_plan_id":"free"},{"bike_id":"7233bf92-8e9d-4e2e-8572-43cda1791189","system_id":"levelo_inurba_marseille","lat":43.309038,"lon":5.396546,"is_reserved":false,"is_disabled":false,"rental_uris":{"android":"levelo://app?vid=7233bf92-8e9d-4e2e-8572-43cda1791189","ios":"levelo://app?vid=7233bf92-8e9d-4e2e-8572-43cda1791189"},"vehicle_type_id":"4","last_reported":1701644799,"current_range_meters":31200,"station_id":"ce4bh012rcd13ifvqcv0","pricing_plan_id":"free"},{"bike_id":"29afa83c-4bd7-4ecf-8c8a-6f1436c8ade0","system_id":"levelo_inurba_marseille","lat":43.309038,"lon":5.396546,"is_reserved":false,"is_disabled":false,"rental_uris":{"android":"levelo://app?vid=29afa83c-4bd7-4ecf-8c8a-6f1436c8ade0","ios":"levelo://app?vid=29afa83c-4bd7-4ecf-8c8a-6f1436c8ade0"},"vehicle_type_id":"4","last_reported":1701644799,"current_range_meters":13600,"station_id":"ce4bh012rcd13ifvqcv0","pricing_plan_id":"free"},{"bike_id":"e61f74f4-4454-4f65-98ed-b35b1802a0ba","system_id":"levelo_inurba_marseille","lat":43.309038,"lon":5.396546,"is_reserved":false,"is_disabled":false,"rental_uris":{"android":"levelo://app?vid=e61f74f4-4454-4f65-98ed-b35b1802a0ba","ios":"levelo://app?vid=e61f74f4-4454-4f65-98ed-b35b1802a0ba"},"vehicle_type_id":"4","last_reported":1701644799,"current_range_meters":20400,"station_id":"ce4bh012rcd13ifvqcv0","pricing_plan_id":"free"},{"bike_id":"8992b905-d17b-44f0-b9b1-ed23aea04030","system_id":"levelo_inurba_marseille","lat":43.289468,"lon":5.363719,"is_reserved":false,"is_disabled":false,"rental_uris":{"android":"levelo://app?vid=8992b905-d17b-44f0-b9b1-ed23aea04030","ios":"levelo://app?vid=8992b905-d17b-44f0-b9b1-ed23aea04030"},"vehicle_type_id":"4","last_reported":1701644799,"current_range_meters":800,"station_id":"ce4bhc92rcd13ifvqetg","pricing_plan_id":"free"},{"bike_id":"5c26bdfb-7b7c-43fb-8a01-250128a1a6f8","system_id":"levelo_inurba_marseille","lat":43.3361,"lon":5.363277,"is_reserved":false,"is_disabled":false,"rental_uris":{"android":"levelo://app?vid=5c26bdfb-7b7c-43fb-8a01-250128a1a6f8","ios":"levelo://app?vid=5c26bdfb-7b7c-43fb-8a01-250128a1a6f8"},"vehicle_type_id":"4","last_reported":1701644799,"current_range_meters":17600,"station_id":"","pricing_plan_id":"free"},{"bike_id":"1b1214a4-b78b-4208-b610-3e5124f751ea","system_id":"levelo_inurba_marseille","lat":43.309038,"lon":5.396546,"is_reserved":false,"is_disabled":false,"rental_uris":{"android":"levelo://app?vid=1b1214a4-b78b-4208-b610-3e5124f751ea","ios":"levelo://app?vid=1b1214a4-b78b-4208-b610-3e5124f751ea"},"vehicle_type_id":"4","last_reported":1701644799,"current_range_meters":8400,"station_id":"ce4bh012rcd13ifvqcv0","pricing_plan_id":"free"},{"bike_id":"2b6a70a5-e2a6-4a63-83c9-af34b8e0e7eb","system_id":"levelo_inurba_marseille","lat":43.290104,"lon":5.356111,"is_reserved":false,"is_disabled":false,"rental_uris":{"android":"levelo://app?vid=2b6a70a5-e2a6-4a63-83c9-af34b8e0e7eb","ios":"levelo://app?vid=2b6a70a5-e2a6-4a63-83c9-af34b8e0e7eb"},"vehicle_type_id":"4","last_reported":1701644799,"current_range_meters":24800,"station_id":"ce4bhb92rcd13ifvqen0","pricing_plan_id":"free"},{"bike_id":"dd9cd122-3ebd-4024-9b7c-9cf57fb2d6df","system_id":"levelo_inurba_marseille","lat":43.29056,"lon":5.37936,"is_reserved":false,"is_disabled":false,"rental_uris":{"android":"levelo://app?vid=dd9cd122-3ebd-4024-9b7c-9cf57fb2d6df","ios":"levelo://app?vid=dd9cd122-3ebd-4024-9b7c-9cf57fb2d6df"},"vehicle_type_id":"4","last_reported":1701644799,"current_range_meters":18000,"station_id":"","pricing_plan_id":"free"},{"bike_id":"56010b17-f426-4375-84f5-6bb1ba478236","system_id":"levelo_inurba_marseille","lat":43.33043,"lon":5.38924,"is_reserved":false,"is_disabled":false,"rental_uris":{"android":"levelo://app?vid=56010b17-f426-4375-84f5-6bb1ba478236","ios":"levelo://app?vid=56010b17-f426-4375-84f5-6bb1ba478236"},"vehicle_type_id":"4","last_reported":1701644799,"current_range_meters":25600,"station_id":"ce4bhr92rcd13ifvqhrg","pricing_plan_id":"free"},{"bike_id":"4f620db0-1287-420c-a2a9-2dc18fbc27a0","system_id":"levelo_inurba_marseille","lat":43.297847,"lon":5.393504,"is_reserved":false,"is_disabled":false,"rental_uris":{"android":"levelo://app?vid=4f620db0-1287-420c-a2a9-2dc18fbc27a0","ios":"levelo://app?vid=4f620db0-1287-420c-a2a9-2dc18fbc27a0"},"vehicle_type_id":"4","last_reported":1701644799,"current_range_meters":11600,"station_id":"chh1huq6cuj3fo74tm60","pricing_plan_id":"free"},{"bike_id":"2b5e35e6-55a6-4fe6-9e15-2f35ad8bebed","system_id":"levelo_inurba_marseille","lat":43.288553,"lon":5.358577,"is_reserved":false,"is_disabled":false,"rental_uris":{"android":"levelo://app?vid=2b5e35e6-55a6-4fe6-9e15-2f35ad8bebed","ios":"levelo://app?vid=2b5e35e6-55a6-4fe6-9e15-2f35ad8bebed"},"vehicle_type_id":"4","last_reported":1701644799,"current_range_meters":18400,"station_id":"ce4bhb12rcd13ifvqem0","pricing_plan_id":"free"},{"bike_id":"008e61b1-150d-480e-9475-1843ed340590","system_id":"levelo_inurba_marseille","lat":43.30935,"lon":5.40147,"is_reserved":false,"is_disabled":false,"rental_uris":{"android":"levelo://app?vid=008e61b1-150d-480e-9475-1843ed340590","ios":"levelo://app?vid=008e61b1-150d-480e-9475-1843ed340590"},"vehicle_type_id":"4","last_reported":1701644799,"current_range_meters":22400,"station_id":"ce4bgvp2rcd13ifvqct0","pricing_plan_id":"free"},{"bike_id":"c98a605e-726c-4b19-94c4-e6112942b5dc","system_id":"levelo_inurba_marseille","lat":43.30642,"lon":5.401031,"is_reserved":false,"is_disabled":false,"rental_uris":{"android":"levelo://app?vid=c98a605e-726c-4b19-94c4-e6112942b5dc","ios":"levelo://app?vid=c98a605e-726c-4b19-94c4-e6112942b5dc"},"vehicle_type_id":"4","last_reported":1701644799,"current_range_meters":29600,"station_id":"ce4bh112rcd13ifvqda0","pricing_plan_id":"free"},{"bike_id":"b6ec7a72-8883-4412-ab81-98adf3c95513","system_id":"levelo_inurba_marseille","lat":43.306412,"lon":5.401035,"is_reserved":false,"is_disabled":false,"rental_uris":{"android":"levelo://app?vid=b6ec7a72-8883-4412-ab81-98adf3c95513","ios":"levelo://app?vid=b6ec7a72-8883-4412-ab81-98adf3c95513"},"vehicle_type_id":"4","last_reported":1701644799,"current_range_meters":26800,"station_id":"ce4bh112rcd13ifvqda0","pricing_plan_id":"free"},{"bike_id":"c2920d2a-41a8-45fa-8bf8-58ef40b1983f","system_id":"levelo_inurba_marseille","lat":43.30929,"lon":5.40153,"is_reserved":false,"is_disabled":false,"rental_uris":{"android":"levelo://app?vid=c2920d2a-41a8-45fa-8bf8-58ef40b1983f","ios":"levelo://app?vid=c2920d2a-41a8-45fa-8bf8-58ef40b1983f"},"vehicle_type_id":"4","last_reported":1701644799,"current_range_meters":17600,"station_id":"ce4bgvp2rcd13ifvqct0","pricing_plan_id":"free"},{"bike_id":"0d80984f-884c-486f-afff-73b2c72742a7","system_id":"levelo_inurba_marseille","lat":43.28727,"lon":5.36078,"is_reserved":false,"is_disabled":false,"rental_uris":{"android":"levelo://app?vid=0d80984f-884c-486f-afff-73b2c72742a7","ios":"levelo://app?vid=0d80984f-884c-486f-afff-73b2c72742a7"},"vehicle_type_id":"4","last_reported":1701644799,"current_range_meters":0,"station_id":"cki0cbj6b192h4jlfktg","pricing_plan_id":"free"},{"bike_id":"252b1b76-89c1-4eff-8f83-44b5ac01926f","system_id":"levelo_inurba_marseille","lat":43.286591,"lon":5.363346,"is_reserved":false,"is_disabled":false,"rental_uris":{"android":"levelo://app?vid=252b1b76-89c1-4eff-8f83-44b5ac01926f","ios":"levelo://app?vid=252b1b76-89c1-4eff-8f83-44b5ac01926f"},"vehicle_type_id":"4","last_reported":1701644799,"current_range_meters":2400,"station_id":"ce4bhah2rcd13ifvqej0","pricing_plan_id":"free"},{"bike_id":"d277906a-d34c-4bcd-a9fb-319a9eab5bd8","system_id":"levelo_inurba_marseille","lat":43.298681,"lon":5.397225,"is_reserved":false,"is_disabled":false,"rental_uris":{"android":"levelo://app?vid=d277906a-d34c-4bcd-a9fb-319a9eab5bd8","ios":"levelo://app?vid=d277906a-d34c-4bcd-a9fb-319a9eab5bd8"},"vehicle_type_id":"4","last_reported":1701644799,"current_range_meters":2800,"station_id":"ce4bh0h2rcd13ifvqd50","pricing_plan_id":"free"},{"bike_id":"f1ad633b-82f0-402a-afe0-6b248b30593e","system_id":"levelo_inurba_marseille","lat":43.298681,"lon":5.397225,"is_reserved":false,"is_disabled":false,"rental_uris":{"android":"levelo://app?vid=f1ad633b-82f0-402a-afe0-6b248b30593e","ios":"levelo://app?vid=f1ad633b-82f0-402a-afe0-6b248b30593e"},"vehicle_type_id":"4","last_reported":1701644799,"current_range_meters":12800,"station_id":"ce4bh0h2rcd13ifvqd50","pricing_plan_id":"free"},{"bike_id":"865bbc53-bebb-43ff-9dea-6d76b83b72a1","system_id":"levelo_inurba_marseille","lat":43.286961,"lon":5.373785,"is_reserved":false,"is_disabled":false,"rental_uris":{"android":"levelo://app?vid=865bbc53-bebb-43ff-9dea-6d76b83b72a1","ios":"levelo://app?vid=865bbc53-bebb-43ff-9dea-6d76b83b72a1"},"vehicle_type_id":"4","last_reported":1701644799,"current_range_meters":31200,"station_id":"ce4bh3p2rcd13ifvqdq0","pricing_plan_id":"free"},{"bike_id":"4c4dd060-cc2c-4063-a880-d6406b50b97f","system_id":"levelo_inurba_marseille","lat":43.302759,"lon":5.400793,"is_reserved":false,"is_disabled":false,"rental_uris":{"android":"levelo://app?vid=4c4dd060-cc2c-4063-a880-d6406b50b97f","ios":"levelo://app?vid=4c4dd060-cc2c-4063-a880-d6406b50b97f"},"vehicle_type_id":"4","last_reported":1701644799,"current_range_meters":24800,"station_id":"ce4bgvh2rcd13ifvqcs0","pricing_plan_id":"free"},{"bike_id":"babd77de-fad5-4adb-93e1-d0facd9af22a","system_id":"levelo_inurba_marseille","lat":43.302759,"lon":5.400793,"is_reserved":false,"is_disabled":false,"rental_uris":{"android":"levelo://app?vid=babd77de-fad5-4adb-93e1-d0facd9af22a","ios":"levelo://app?vid=babd77de-fad5-4adb-93e1-d0facd9af22a"},"vehicle_type_id":"4","last_reported":1701644799,"current_range_meters":16400,"station_id":"ce4bgvh2rcd13ifvqcs0","pricing_plan_id":"free"},{"bike_id":"cf77288c-20a7-4362-9b0e-6c3677b9ef0d","system_id":"levelo_inurba_marseille","lat":43.302759,"lon":5.400793,"is_reserved":false,"is_disabled":false,"rental_uris":{"android":"levelo://app?vid=cf77288c-20a7-4362-9b0e-6c3677b9ef0d","ios":"levelo://app?vid=cf77288c-20a7-4362-9b0e-6c3677b9ef0d"},"vehicle_type_id":"4","last_reported":1701644799,"current_range_meters":5200,"station_id":"ce4bgvh2rcd13ifvqcs0","pricing_plan_id":"free"},{"bike_id":"2391f2f5-4916-4a72-978f-d121de153032","system_id":"levelo_inurba_marseille","lat":43.287185,"lon":5.379373,"is_reserved":false,"is_disabled":false,"rental_uris":{"android":"levelo://app?vid=2391f2f5-4916-4a72-978f-d121de153032","ios":"levelo://app?vid=2391f2f5-4916-4a72-978f-d121de153032"},"vehicle_type_id":"4","last_reported":1701644799,"current_range_meters":5600,"station_id":"ce4bh9p2rcd13ifvqec0","pricing_plan_id":"free"},{"bike_id":"0d604e16-f3a5-4d04-9185-fe8967ed334b","system_id":"levelo_inurba_marseille","lat":43.291994,"lon":5.392907,"is_reserved":false,"is_disabled":false,"rental_uris":{"android":"levelo://app?vid=0d604e16-f3a5-4d04-9185-fe8967ed334b","ios":"levelo://app?vid=0d604e16-f3a5-4d04-9185-fe8967ed334b"},"vehicle_type_id":"4","last_reported":1701644799,"current_range_meters":24000,"station_id":"ce4bh192rcd13ifvqdd0","pricing_plan_id":"free"},{"bike_id":"47e7ac63-2632-4ae8-9f67-dc575c2b67f4","system_id":"levelo_inurba_marseille","lat":43.284538,"lon":5.358657,"is_reserved":false,"is_disabled":false,"rental_uris":{"android":"levelo://app?vid=47e7ac63-2632-4ae8-9f67-dc575c2b67f4","ios":"levelo://app?vid=47e7ac63-2632-4ae8-9f67-dc575c2b67f4"},"vehicle_type_id":"4","last_reported":1701644799,"current_range_meters":25200,"station_id":"ce4bhah2rcd13ifvqei0","pricing_plan_id":"free"},{"bike_id":"7139f4f6-993e-4275-a374-7720f24f2359","system_id":"levelo_inurba_marseille","lat":43.284534,"lon":5.358662,"is_reserved":false,"is_disabled":false,"rental_uris":{"android":"levelo://app?vid=7139f4f6-993e-4275-a374-7720f24f2359","ios":"levelo://app?vid=7139f4f6-993e-4275-a374-7720f24f2359"},"vehicle_type_id":"4","last_reported":1701644799,"current_range_meters":14400,"station_id":"ce4bhah2rcd13ifvqei0","pricing_plan_id":"free"},{"bike_id":"104ab63b-334e-45c3-9308-421bb28d97e8","system_id":"levelo_inurba_marseille","lat":43.284538,"lon":5.358657,"is_reserved":false,"is_disabled":false,"rental_uris":{"android":"levelo://app?vid=104ab63b-334e-45c3-9308-421bb28d97e8","ios":"levelo://app?vid=104ab63b-334e-45c3-9308-421bb28d97e8"},"vehicle_type_id":"4","last_reported":1701644799,"current_range_meters":27200,"station_id":"ce4bhah2rcd13ifvqei0","pricing_plan_id":"free"},{"bike_id":"4f16a13c-1bcc-4bf1-a7c2-20a6ff94aa57","system_id":"levelo_inurba_marseille","lat":43.294314,"lon":5.397498,"is_reserved":false,"is_disabled":false,"rental_uris":{"android":"levelo://app?vid=4f16a13c-1bcc-4bf1-a7c2-20a6ff94aa57","ios":"levelo://app?vid=4f16a13c-1bcc-4bf1-a7c2-20a6ff94aa57"},"vehicle_type_id":"4","last_reported":1701644799,"current_range_meters":30000,"station_id":"ce4bh3h2rcd13ifvqdo0","pricing_plan_id":"free"},{"bike_id":"0a9171ae-d19b-4f95-9a43-7c63ce3e268b","system_id":"levelo_inurba_marseille","lat":43.284538,"lon":5.358657,"is_reserved":false,"is_disabled":false,"rental_uris":{"android":"levelo://app?vid=0a9171ae-d19b-4f95-9a43-7c63ce3e268b","ios":"levelo://app?vid=0a9171ae-d19b-4f95-9a43-7c63ce3e268b"},"vehicle_type_id":"4","last_reported":1701644799,"current_range_meters":28000,"station_id":"ce4bhah2rcd13ifvqei0","pricing_plan_id":"free"},{"bike_id":"f02f3243-ea83-483a-8af1-4c8628210ea2","system_id":"levelo_inurba_marseille","lat":43.2861,"lon":5.35101,"is_reserved":false,"is_disabled":false,"rental_uris":{"android":"levelo://app?vid=f02f3243-ea83-483a-8af1-4c8628210ea2","ios":"levelo://app?vid=f02f3243-ea83-483a-8af1-4c8628210ea2"},"vehicle_type_id":"4","last_reported":1701644799,"current_range_meters":14800,"station_id":"ce4bhch2rcd13ifvqeug","pricing_plan_id":"free"},{"bike_id":"5a6d5c80-a7a9-47e6-85e0-6875bc9e2103","system_id":"levelo_inurba_marseille","lat":43.283998,"lon":5.375062,"is_reserved":false,"is_disabled":false,"rental_uris":{"android":"levelo://app?vid=5a6d5c80-a7a9-47e6-85e0-6875bc9e2103","ios":"levelo://app?vid=5a6d5c80-a7a9-47e6-85e0-6875bc9e2103"},"vehicle_type_id":"4","last_reported":1701644799,"current_range_meters":30000,"station_id":"ce4bh412rcd13ifvqds0","pricing_plan_id":"free"},{"bike_id":"b716489b-9c40-4d3d-bc45-02769c398e16","system_id":"levelo_inurba_marseille","lat":43.283998,"lon":5.375062,"is_reserved":false,"is_disabled":false,"rental_uris":{"android":"levelo://app?vid=b716489b-9c40-4d3d-bc45-02769c398e16","ios":"levelo://app?vid=b716489b-9c40-4d3d-bc45-02769c398e16"},"vehicle_type_id":"4","last_reported":1701644799,"current_range_meters":27200,"station_id":"ce4bh412rcd13ifvqds0","pricing_plan_id":"free"},{"bike_id":"9f2d8c5b-bdeb-42f8-b0e0-c9f775444842","system_id":"levelo_inurba_marseille","lat":43.286595,"lon":5.386795,"is_reserved":false,"is_disabled":false,"rental_uris":{"android":"levelo://app?vid=9f2d8c5b-bdeb-42f8-b0e0-c9f775444842","ios":"levelo://app?vid=9f2d8c5b-bdeb-42f8-b0e0-c9f775444842"},"vehicle_type_id":"4","last_reported":1701644799,"current_range_meters":0,"station_id":"ce4bh492rcd13ifvqdug","pricing_plan_id":"free"},{"bike_id":"23a6e18e-5ad6-40cf-b6fb-7a4b1a6034c9","system_id":"levelo_inurba_marseille","lat":43.33745,"lon":5.39116,"is_reserved":false,"is_disabled":false,"rental_uris":{"android":"levelo://app?vid=23a6e18e-5ad6-40cf-b6fb-7a4b1a6034c9","ios":"levelo://app?vid=23a6e18e-5ad6-40cf-b6fb-7a4b1a6034c9"},"vehicle_type_id":"4","last_reported":1701644799,"current_range_meters":26400,"station_id":"","pricing_plan_id":"free"},{"bike_id":"2f73a9c6-ea7c-45de-beee-438befc58a7b","system_id":"levelo_inurba_marseille","lat":43.33717,"lon":5.391857,"is_reserved":false,"is_disabled":false,"rental_uris":{"android":"levelo://app?vid=2f73a9c6-ea7c-45de-beee-438befc58a7b","ios":"levelo://app?vid=2f73a9c6-ea7c-45de-beee-438befc58a7b"},"vehicle_type_id":"4","last_reported":1701644799,"current_range_meters":18000,"station_id":"ce4bhr92rcd13ifvqhsg","pricing_plan_id":"free"},{"bike_id":"4b021143-be23-4d8d-ac72-086548831286","system_id":"levelo_inurba_marseille","lat":43.33717,"lon":5.391857,"is_reserved":false,"is_disabled":false,"rental_uris":{"android":"levelo://app?vid=4b021143-be23-4d8d-ac72-086548831286","ios":"levelo://app?vid=4b021143-be23-4d8d-ac72-086548831286"},"vehicle_type_id":"4","last_reported":1701644799,"current_range_meters":31200,"station_id":"ce4bhr92rcd13ifvqhsg","pricing_plan_id":"free"},{"bike_id":"37772c8d-3f91-455d-aefa-a4e2589a6f00","system_id":"levelo_inurba_marseille","lat":43.284793,"lon":5.384113,"is_reserved":false,"is_disabled":false,"rental_uris":{"android":"levelo://app?vid=37772c8d-3f91-455d-aefa-a4e2589a6f00","ios":"levelo://app?vid=37772c8d-3f91-455d-aefa-a4e2589a6f00"},"vehicle_type_id":"4","last_reported":1701644799,"current_range_meters":25200,"station_id":"ce4bh512rcd13ifvqe3g","pricing_plan_id":"free"},{"bike_id":"58faae51-31bc-49c1-8fe8-285e251e0747","system_id":"levelo_inurba_marseille","lat":43.284787,"lon":5.384116,"is_reserved":false,"is_disabled":false,"rental_uris":{"android":"levelo://app?vid=58faae51-31bc-49c1-8fe8-285e251e0747","ios":"levelo://app?vid=58faae51-31bc-49c1-8fe8-285e251e0747"},"vehicle_type_id":"4","last_reported":1701644799,"current_range_meters":1200,"station_id":"ce4bh512rcd13ifvqe3g","pricing_plan_id":"free"},{"bike_id":"95d6ef80-fcd5-4aad-aaa5-c911324ca1ff","system_id":"levelo_inurba_marseille","lat":43.284793,"lon":5.384119,"is_reserved":false,"is_disabled":false,"rental_uris":{"android":"levelo://app?vid=95d6ef80-fcd5-4aad-aaa5-c911324ca1ff","ios":"levelo://app?vid=95d6ef80-fcd5-4aad-aaa5-c911324ca1ff"},"vehicle_type_id":"4","last_reported":1701644799,"current_range_meters":3600,"station_id":"ce4bh512rcd13ifvqe3g","pricing_plan_id":"free"},{"bike_id":"73851b35-806c-423c-a848-91cb62f77226","system_id":"levelo_inurba_marseille","lat":43.29806,"lon":5.40403,"is_reserved":false,"is_disabled":false,"rental_uris":{"android":"levelo://app?vid=73851b35-806c-423c-a848-91cb62f77226","ios":"levelo://app?vid=73851b35-806c-423c-a848-91cb62f77226"},"vehicle_type_id":"4","last_reported":1701644799,"current_range_meters":2400,"station_id":"ce4bh112rcd13ifvqd90","pricing_plan_id":"free"},{"bike_id":"92787865-7b75-4adf-be0f-d91a8e7acc79","system_id":"levelo_inurba_marseille","lat":43.28847,"lon":5.39297,"is_reserved":false,"is_disabled":false,"rental_uris":{"android":"levelo://app?vid=92787865-7b75-4adf-be0f-d91a8e7acc79","ios":"levelo://app?vid=92787865-7b75-4adf-be0f-d91a8e7acc79"},"vehicle_type_id":"4","last_reported":1701644799,"current_range_meters":22800,"station_id":"ce4bh2p2rcd13ifvqdi0","pricing_plan_id":"free"},{"bike_id":"8819edde-f48a-4a77-9ef7-b61525dfc6c9","system_id":"levelo_inurba_marseille","lat":43.288549,"lon":5.393197,"is_reserved":false,"is_disabled":false,"rental_uris":{"android":"levelo://app?vid=8819edde-f48a-4a77-9ef7-b61525dfc6c9","ios":"levelo://app?vid=8819edde-f48a-4a77-9ef7-b61525dfc6c9"},"vehicle_type_id":"4","last_reported":1701644799,"current_range_meters":28400,"station_id":"ce4bh2p2rcd13ifvqdi0","pricing_plan_id":"free"},{"bike_id":"e66e629b-b4fe-41b0-8a9f-fba2626b6f6a","system_id":"levelo_inurba_marseille","lat":43.289363,"lon":5.396322,"is_reserved":false,"is_disabled":false,"rental_uris":{"android":"levelo://app?vid=e66e629b-b4fe-41b0-8a9f-fba2626b6f6a","ios":"levelo://app?vid=e66e629b-b4fe-41b0-8a9f-fba2626b6f6a"},"vehicle_type_id":"4","last_reported":1701644799,"current_range_meters":22000,"station_id":"ce4bh3h2rcd13ifvqdn0","pricing_plan_id":"free"},{"bike_id":"ffd0f445-c315-47d0-bd2e-08562e20ea25","system_id":"levelo_inurba_marseille","lat":43.282744,"lon":5.350533,"is_reserved":false,"is_disabled":false,"rental_uris":{"android":"levelo://app?vid=ffd0f445-c315-47d0-bd2e-08562e20ea25","ios":"levelo://app?vid=ffd0f445-c315-47d0-bd2e-08562e20ea25"},"vehicle_type_id":"4","last_reported":1701644799,"current_range_meters":27200,"station_id":"ce4bhbp2rcd13ifvqerg","pricing_plan_id":"free"},{"bike_id":"a9cec647-2fa3-4d82-a42f-4dd28accb0c0","system_id":"levelo_inurba_marseille","lat":43.28039,"lon":5.369297,"is_reserved":false,"is_disabled":false,"rental_uris":{"android":"levelo://app?vid=a9cec647-2fa3-4d82-a42f-4dd28accb0c0","ios":"levelo://app?vid=a9cec647-2fa3-4d82-a42f-4dd28accb0c0"},"vehicle_type_id":"4","last_reported":1701644799,"current_range_meters":30000,"station_id":"ce4bha12rcd13ifvqef0","pricing_plan_id":"free"},{"bike_id":"2bc3ede3-14be-4629-9ad4-5b4ae198650f","system_id":"levelo_inurba_marseille","lat":43.28039,"lon":5.369297,"is_reserved":false,"is_disabled":false,"rental_uris":{"android":"levelo://app?vid=2bc3ede3-14be-4629-9ad4-5b4ae198650f","ios":"levelo://app?vid=2bc3ede3-14be-4629-9ad4-5b4ae198650f"},"vehicle_type_id":"4","last_reported":1701644799,"current_range_meters":28400,"station_id":"ce4bha12rcd13ifvqef0","pricing_plan_id":"free"},{"bike_id":"d34773e4-53de-42ff-b5e5-b94ea94ea31f","system_id":"levelo_inurba_marseille","lat":43.290441,"lon":5.399553,"is_reserved":false,"is_disabled":false,"rental_uris":{"android":"levelo://app?vid=d34773e4-53de-42ff-b5e5-b94ea94ea31f","ios":"levelo://app?vid=d34773e4-53de-42ff-b5e5-b94ea94ea31f"},"vehicle_type_id":"4","last_reported":1701644799,"current_range_meters":30000,"station_id":"ce4bh392rcd13ifvqdm0","pricing_plan_id":"free"},{"bike_id":"570f6efa-fb40-4e1b-af98-52b2809cbf59","system_id":"levelo_inurba_marseille","lat":43.290397,"lon":5.399517,"is_reserved":false,"is_disabled":false,"rental_uris":{"android":"levelo://app?vid=570f6efa-fb40-4e1b-af98-52b2809cbf59","ios":"levelo://app?vid=570f6efa-fb40-4e1b-af98-52b2809cbf59"},"vehicle_type_id":"4","last_reported":1701644799,"current_range_meters":26400,"station_id":"ce4bh392rcd13ifvqdm0","pricing_plan_id":"free"},{"bike_id":"7bc46e26-33f0-43fd-a689-12fb5df1b67c","system_id":"levelo_inurba_marseille","lat":43.29046,"lon":5.399601,"is_reserved":false,"is_disabled":false,"rental_uris":{"android":"levelo://app?vid=7bc46e26-33f0-43fd-a689-12fb5df1b67c","ios":"levelo://app?vid=7bc46e26-33f0-43fd-a689-12fb5df1b67c"},"vehicle_type_id":"4","last_reported":1701644799,"current_range_meters":30400,"station_id":"ce4bh392rcd13ifvqdm0","pricing_plan_id":"free"},{"bike_id":"c2e7ec07-25a3-4392-b6e1-4106c5c3194d","system_id":"levelo_inurba_marseille","lat":43.29042,"lon":5.39956,"is_reserved":false,"is_disabled":false,"rental_uris":{"android":"levelo://app?vid=c2e7ec07-25a3-4392-b6e1-4106c5c3194d","ios":"levelo://app?vid=c2e7ec07-25a3-4392-b6e1-4106c5c3194d"},"vehicle_type_id":"4","last_reported":1701644799,"current_range_meters":18800,"station_id":"ce4bh392rcd13ifvqdm0","pricing_plan_id":"free"},{"bike_id":"22e16aa0-943e-4392-baa8-d7779108c3f6","system_id":"levelo_inurba_marseille","lat":43.29043,"lon":5.39958,"is_reserved":false,"is_disabled":false,"rental_uris":{"android":"levelo://app?vid=22e16aa0-943e-4392-baa8-d7779108c3f6","ios":"levelo://app?vid=22e16aa0-943e-4392-baa8-d7779108c3f6"},"vehicle_type_id":"4","last_reported":1701644799,"current_range_meters":26400,"station_id":"ce4bh392rcd13ifvqdm0","pricing_plan_id":"free"},{"bike_id":"96559383-a678-4cf5-9a80-ec586428b8ff","system_id":"levelo_inurba_marseille","lat":43.290467,"lon":5.39966,"is_reserved":false,"is_disabled":false,"rental_uris":{"android":"levelo://app?vid=96559383-a678-4cf5-9a80-ec586428b8ff","ios":"levelo://app?vid=96559383-a678-4cf5-9a80-ec586428b8ff"},"vehicle_type_id":"4","last_reported":1701644799,"current_range_meters":27200,"station_id":"ce4bh392rcd13ifvqdm0","pricing_plan_id":"free"},{"bike_id":"dbcbf86b-13a4-4678-8bd9-66eca4d1e0c7","system_id":"levelo_inurba_marseille","lat":43.29036,"lon":5.399587,"is_reserved":false,"is_disabled":false,"rental_uris":{"android":"levelo://app?vid=dbcbf86b-13a4-4678-8bd9-66eca4d1e0c7","ios":"levelo://app?vid=dbcbf86b-13a4-4678-8bd9-66eca4d1e0c7"},"vehicle_type_id":"4","last_reported":1701644799,"current_range_meters":29200,"station_id":"ce4bh392rcd13ifvqdm0","pricing_plan_id":"free"},{"bike_id":"71d699ef-34cb-4fb5-b790-9187a787ae0c","system_id":"levelo_inurba_marseille","lat":43.290363,"lon":5.399592,"is_reserved":false,"is_disabled":false,"rental_uris":{"android":"levelo://app?vid=71d699ef-34cb-4fb5-b790-9187a787ae0c","ios":"levelo://app?vid=71d699ef-34cb-4fb5-b790-9187a787ae0c"},"vehicle_type_id":"4","last_reported":1701644799,"current_range_meters":25600,"station_id":"ce4bh392rcd13ifvqdm0","pricing_plan_id":"free"},{"bike_id":"e5233931-1b72-4a0d-a95d-e0549c9dbf7b","system_id":"levelo_inurba_marseille","lat":43.290377,"lon":5.399618,"is_reserved":false,"is_disabled":false,"rental_uris":{"android":"levelo://app?vid=e5233931-1b72-4a0d-a95d-e0549c9dbf7b","ios":"levelo://app?vid=e5233931-1b72-4a0d-a95d-e0549c9dbf7b"},"vehicle_type_id":"4","last_reported":1701644799,"current_range_meters":28800,"station_id":"ce4bh392rcd13ifvqdm0","pricing_plan_id":"free"},{"bike_id":"24c3c60d-c67e-4865-81ff-736fa4ff165d","system_id":"levelo_inurba_marseille","lat":43.290374,"lon":5.399615,"is_reserved":false,"is_disabled":false,"rental_uris":{"android":"levelo://app?vid=24c3c60d-c67e-4865-81ff-736fa4ff165d","ios":"levelo://app?vid=24c3c60d-c67e-4865-81ff-736fa4ff165d"},"vehicle_type_id":"4","last_reported":1701644799,"current_range_meters":20000,"station_id":"ce4bh392rcd13ifvqdm0","pricing_plan_id":"free"},{"bike_id":"889da68a-4ee9-4663-a628-b18a37e19ac1","system_id":"levelo_inurba_marseille","lat":43.290366,"lon":5.399621,"is_reserved":false,"is_disabled":false,"rental_uris":{"android":"levelo://app?vid=889da68a-4ee9-4663-a628-b18a37e19ac1","ios":"levelo://app?vid=889da68a-4ee9-4663-a628-b18a37e19ac1"},"vehicle_type_id":"4","last_reported":1701644799,"current_range_meters":26800,"station_id":"ce4bh392rcd13ifvqdm0","pricing_plan_id":"free"},{"bike_id":"96207197-1a09-412a-9210-4cb5a4ecfae4","system_id":"levelo_inurba_marseille","lat":43.29033,"lon":5.399605,"is_reserved":false,"is_disabled":false,"rental_uris":{"android":"levelo://app?vid=96207197-1a09-412a-9210-4cb5a4ecfae4","ios":"levelo://app?vid=96207197-1a09-412a-9210-4cb5a4ecfae4"},"vehicle_type_id":"4","last_reported":1701644799,"current_range_meters":18800,"station_id":"ce4bh392rcd13ifvqdm0","pricing_plan_id":"free"},{"bike_id":"7a33bebd-e3e5-425f-960b-fe25aec483ef","system_id":"levelo_inurba_marseille","lat":43.280957,"lon":5.378492,"is_reserved":false,"is_disabled":false,"rental_uris":{"android":"levelo://app?vid=7a33bebd-e3e5-425f-960b-fe25aec483ef","ios":"levelo://app?vid=7a33bebd-e3e5-425f-960b-fe25aec483ef"},"vehicle_type_id":"4","last_reported":1701644799,"current_range_meters":0,"station_id":"ce4bha12rcd13ifvqee0","pricing_plan_id":"free"},{"bike_id":"ec072393-b678-4914-979e-97b206813db4","system_id":"levelo_inurba_marseille","lat":43.290248,"lon":5.40031,"is_reserved":false,"is_disabled":false,"rental_uris":{"android":"levelo://app?vid=ec072393-b678-4914-979e-97b206813db4","ios":"levelo://app?vid=ec072393-b678-4914-979e-97b206813db4"},"vehicle_type_id":"4","last_reported":1701644799,"current_range_meters":28000,"station_id":"ce4bh392rcd13ifvqdm0","pricing_plan_id":"free"},{"bike_id":"9d7489d3-986c-4d49-b567-95127c977aa8","system_id":"levelo_inurba_marseille","lat":43.285742,"lon":5.395004,"is_reserved":false,"is_disabled":false,"rental_uris":{"android":"levelo://app?vid=9d7489d3-986c-4d49-b567-95127c977aa8","ios":"levelo://app?vid=9d7489d3-986c-4d49-b567-95127c977aa8"},"vehicle_type_id":"4","last_reported":1701644799,"current_range_meters":30000,"station_id":"ce4bh292rcd13ifvqdg0","pricing_plan_id":"free"},{"bike_id":"2bb6c6e3-3605-48ff-aa4a-063f9b7b33fd","system_id":"levelo_inurba_marseille","lat":43.279087,"lon":5.380114,"is_reserved":false,"is_disabled":false,"rental_uris":{"android":"levelo://app?vid=2bb6c6e3-3605-48ff-aa4a-063f9b7b33fd","ios":"levelo://app?vid=2bb6c6e3-3605-48ff-aa4a-063f9b7b33fd"},"vehicle_type_id":"4","last_reported":1701644799,"current_range_meters":27200,"station_id":"ce4bhf92rcd13ifvqf50","pricing_plan_id":"free"},{"bike_id":"8e0b97f3-3b4c-4f83-bf69-3018bda8bee3","system_id":"levelo_inurba_marseille","lat":43.287154,"lon":5.399979,"is_reserved":false,"is_disabled":false,"rental_uris":{"android":"levelo://app?vid=8e0b97f3-3b4c-4f83-bf69-3018bda8bee3","ios":"levelo://app?vid=8e0b97f3-3b4c-4f83-bf69-3018bda8bee3"},"vehicle_type_id":"4","last_reported":1701644799,"current_range_meters":23200,"station_id":"ce4bho92rcd13ifvqh3g","pricing_plan_id":"free"},{"bike_id":"596a10dd-4ed5-4e09-b61d-66b163227f65","system_id":"levelo_inurba_marseille","lat":43.279087,"lon":5.380114,"is_reserved":false,"is_disabled":false,"rental_uris":{"android":"levelo://app?vid=596a10dd-4ed5-4e09-b61d-66b163227f65","ios":"levelo://app?vid=596a10dd-4ed5-4e09-b61d-66b163227f65"},"vehicle_type_id":"4","last_reported":1701644799,"current_range_meters":14800,"station_id":"ce4bhf92rcd13ifvqf50","pricing_plan_id":"free"},{"bike_id":"28f16f48-1bc0-49c3-85a2-e30ededa2bb6","system_id":"levelo_inurba_marseille","lat":43.292569,"lon":5.409107,"is_reserved":false,"is_disabled":false,"rental_uris":{"android":"levelo://app?vid=28f16f48-1bc0-49c3-85a2-e30ededa2bb6","ios":"levelo://app?vid=28f16f48-1bc0-49c3-85a2-e30ededa2bb6"},"vehicle_type_id":"4","last_reported":1701644799,"current_range_meters":18800,"station_id":"ce4bh192rcd13ifvqdc0","pricing_plan_id":"free"},{"bike_id":"097c96f8-84ee-41ee-b796-e491ace19258","system_id":"levelo_inurba_marseille","lat":43.292569,"lon":5.409107,"is_reserved":false,"is_disabled":false,"rental_uris":{"android":"levelo://app?vid=097c96f8-84ee-41ee-b796-e491ace19258","ios":"levelo://app?vid=097c96f8-84ee-41ee-b796-e491ace19258"},"vehicle_type_id":"4","last_reported":1701644799,"current_range_meters":15200,"station_id":"ce4bh192rcd13ifvqdc0","pricing_plan_id":"free"},{"bike_id":"5eb1a746-4276-4225-bc14-6ccba3ade2d1","system_id":"levelo_inurba_marseille","lat":43.292571,"lon":5.409107,"is_reserved":false,"is_disabled":false,"rental_uris":{"android":"levelo://app?vid=5eb1a746-4276-4225-bc14-6ccba3ade2d1","ios":"levelo://app?vid=5eb1a746-4276-4225-bc14-6ccba3ade2d1"},"vehicle_type_id":"4","last_reported":1701644799,"current_range_meters":17200,"station_id":"ce4bh192rcd13ifvqdc0","pricing_plan_id":"free"},{"bike_id":"5a25bf69-6178-4680-ba62-eb181662b01d","system_id":"levelo_inurba_marseille","lat":43.325243,"lon":5.414326,"is_reserved":false,"is_disabled":false,"rental_uris":{"android":"levelo://app?vid=5a25bf69-6178-4680-ba62-eb181662b01d","ios":"levelo://app?vid=5a25bf69-6178-4680-ba62-eb181662b01d"},"vehicle_type_id":"4","last_reported":1701644799,"current_range_meters":26800,"station_id":"ce4bhq12rcd13ifvqhhg","pricing_plan_id":"free"},{"bike_id":"58bb1f55-d991-4e2a-8111-73fb3c89f284","system_id":"levelo_inurba_marseille","lat":43.292571,"lon":5.409107,"is_reserved":false,"is_disabled":false,"rental_uris":{"android":"levelo://app?vid=58bb1f55-d991-4e2a-8111-73fb3c89f284","ios":"levelo://app?vid=58bb1f55-d991-4e2a-8111-73fb3c89f284"},"vehicle_type_id":"4","last_reported":1701644799,"current_range_meters":31200,"station_id":"ce4bh192rcd13ifvqdc0","pricing_plan_id":"free"},{"bike_id":"009bf07d-22e4-4b53-a9d0-cef8aea5fc81","system_id":"levelo_inurba_marseille","lat":43.33612,"lon":5.410321,"is_reserved":false,"is_disabled":false,"rental_uris":{"android":"levelo://app?vid=009bf07d-22e4-4b53-a9d0-cef8aea5fc81","ios":"levelo://app?vid=009bf07d-22e4-4b53-a9d0-cef8aea5fc81"},"vehicle_type_id":"4","last_reported":1701644799,"current_range_meters":18800,"station_id":"ce4bhqh2rcd13ifvqhmg","pricing_plan_id":"free"},{"bike_id":"1b0343ba-8c6a-452a-99ff-56ba12d6c2e5","system_id":"levelo_inurba_marseille","lat":43.33612,"lon":5.410321,"is_reserved":false,"is_disabled":false,"rental_uris":{"android":"levelo://app?vid=1b0343ba-8c6a-452a-99ff-56ba12d6c2e5","ios":"levelo://app?vid=1b0343ba-8c6a-452a-99ff-56ba12d6c2e5"},"vehicle_type_id":"4","last_reported":1701644799,"current_range_meters":21200,"station_id":"ce4bhqh2rcd13ifvqhmg","pricing_plan_id":"free"},{"bike_id":"434f8c2d-8b04-4ae4-ba85-9191f2b000bc","system_id":"levelo_inurba_marseille","lat":43.336148,"lon":5.410349,"is_reserved":false,"is_disabled":false,"rental_uris":{"android":"levelo://app?vid=434f8c2d-8b04-4ae4-ba85-9191f2b000bc","ios":"levelo://app?vid=434f8c2d-8b04-4ae4-ba85-9191f2b000bc"},"vehicle_type_id":"4","last_reported":1701644799,"current_range_meters":26400,"station_id":"ce4bhqh2rcd13ifvqhmg","pricing_plan_id":"free"},{"bike_id":"583542c5-23c7-402a-a75e-774d530474ba","system_id":"levelo_inurba_marseille","lat":43.33612,"lon":5.410321,"is_reserved":false,"is_disabled":false,"rental_uris":{"android":"levelo://app?vid=583542c5-23c7-402a-a75e-774d530474ba","ios":"levelo://app?vid=583542c5-23c7-402a-a75e-774d530474ba"},"vehicle_type_id":"4","last_reported":1701644799,"current_range_meters":31200,"station_id":"ce4bhqh2rcd13ifvqhmg","pricing_plan_id":"free"},{"bike_id":"5c824ecc-0e25-42a2-a011-1d90e8c7f343","system_id":"levelo_inurba_marseille","lat":43.276769,"lon":5.388787,"is_reserved":false,"is_disabled":false,"rental_uris":{"android":"levelo://app?vid=5c824ecc-0e25-42a2-a011-1d90e8c7f343","ios":"levelo://app?vid=5c824ecc-0e25-42a2-a011-1d90e8c7f343"},"vehicle_type_id":"4","last_reported":1701644799,"current_range_meters":20400,"station_id":"ce4bhi12rcd13ifvqfo0","pricing_plan_id":"free"},{"bike_id":"1eee92e8-0649-46de-949d-588fc917e64f","system_id":"levelo_inurba_marseille","lat":43.279952,"lon":5.400085,"is_reserved":false,"is_disabled":false,"rental_uris":{"android":"levelo://app?vid=1eee92e8-0649-46de-949d-588fc917e64f","ios":"levelo://app?vid=1eee92e8-0649-46de-949d-588fc917e64f"},"vehicle_type_id":"4","last_reported":1701644799,"current_range_meters":26000,"station_id":"ce4bho92rcd13ifvqh4g","pricing_plan_id":"free"},{"bike_id":"ee4024f5-e2a3-4ee7-ad91-692fd6ea21f0","system_id":"levelo_inurba_marseille","lat":43.317252,"lon":5.423942,"is_reserved":false,"is_disabled":false,"rental_uris":{"android":"levelo://app?vid=ee4024f5-e2a3-4ee7-ad91-692fd6ea21f0","ios":"levelo://app?vid=ee4024f5-e2a3-4ee7-ad91-692fd6ea21f0"},"vehicle_type_id":"4","last_reported":1701644799,"current_range_meters":5200,"station_id":"ce4bhp92rcd13ifvqhbg","pricing_plan_id":"free"},{"bike_id":"cb1010f4-fa9f-4bbc-b283-d588277e480a","system_id":"levelo_inurba_marseille","lat":43.31728,"lon":5.42394,"is_reserved":false,"is_disabled":false,"rental_uris":{"android":"levelo://app?vid=cb1010f4-fa9f-4bbc-b283-d588277e480a","ios":"levelo://app?vid=cb1010f4-fa9f-4bbc-b283-d588277e480a"},"vehicle_type_id":"4","last_reported":1701644799,"current_range_meters":24400,"station_id":"ce4bhp92rcd13ifvqhbg","pricing_plan_id":"free"},{"bike_id":"ba2cdc49-316c-4fb7-ae87-5812c3ece311","system_id":"levelo_inurba_marseille","lat":43.317272,"lon":5.423943,"is_reserved":false,"is_disabled":false,"rental_uris":{"android":"levelo://app?vid=ba2cdc49-316c-4fb7-ae87-5812c3ece311","ios":"levelo://app?vid=ba2cdc49-316c-4fb7-ae87-5812c3ece311"},"vehicle_type_id":"4","last_reported":1701644799,"current_range_meters":31200,"station_id":"ce4bhp92rcd13ifvqhbg","pricing_plan_id":"free"},{"bike_id":"ae9af643-001e-42d9-8c47-cb12ff606b64","system_id":"levelo_inurba_marseille","lat":43.31723,"lon":5.42395,"is_reserved":false,"is_disabled":false,"rental_uris":{"android":"levelo://app?vid=ae9af643-001e-42d9-8c47-cb12ff606b64","ios":"levelo://app?vid=ae9af643-001e-42d9-8c47-cb12ff606b64"},"vehicle_type_id":"4","last_reported":1701644799,"current_range_meters":18000,"station_id":"ce4bhp92rcd13ifvqhbg","pricing_plan_id":"free"},{"bike_id":"4c266738-4562-4ce1-aca7-b04f03b275b5","system_id":"levelo_inurba_marseille","lat":43.317121,"lon":5.423936,"is_reserved":false,"is_disabled":false,"rental_uris":{"android":"levelo://app?vid=4c266738-4562-4ce1-aca7-b04f03b275b5","ios":"levelo://app?vid=4c266738-4562-4ce1-aca7-b04f03b275b5"},"vehicle_type_id":"4","last_reported":1701644799,"current_range_meters":29200,"station_id":"ce4bhp92rcd13ifvqhbg","pricing_plan_id":"free"},{"bike_id":"910fd3aa-d2e0-4553-894a-6161d41c7fcd","system_id":"levelo_inurba_marseille","lat":43.27609,"lon":5.39475,"is_reserved":false,"is_disabled":false,"rental_uris":{"android":"levelo://app?vid=910fd3aa-d2e0-4553-894a-6161d41c7fcd","ios":"levelo://app?vid=910fd3aa-d2e0-4553-894a-6161d41c7fcd"},"vehicle_type_id":"4","last_reported":1701644799,"current_range_meters":13600,"station_id":"","pricing_plan_id":"free"},{"bike_id":"8583a456-009f-4ce4-99a2-cd24342591d6","system_id":"levelo_inurba_marseille","lat":43.340804,"lon":5.410219,"is_reserved":false,"is_disabled":false,"rental_uris":{"android":"levelo://app?vid=8583a456-009f-4ce4-99a2-cd24342591d6","ios":"levelo://app?vid=8583a456-009f-4ce4-99a2-cd24342591d6"},"vehicle_type_id":"4","last_reported":1701644799,"current_range_meters":15600,"station_id":"ce4bhqh2rcd13ifvqhlg","pricing_plan_id":"free"},{"bike_id":"7235a8e2-785d-4aa2-8081-aaece19cbd92","system_id":"levelo_inurba_marseille","lat":43.27789,"lon":5.39938,"is_reserved":false,"is_disabled":false,"rental_uris":{"android":"levelo://app?vid=7235a8e2-785d-4aa2-8081-aaece19cbd92","ios":"levelo://app?vid=7235a8e2-785d-4aa2-8081-aaece19cbd92"},"vehicle_type_id":"4","last_reported":1701644799,"current_range_meters":0,"station_id":"cjm6bp8fraef2m0cb0m0","pricing_plan_id":"free"},{"bike_id":"54af4fd1-b789-41e3-ab32-aefd176895e5","system_id":"levelo_inurba_marseille","lat":43.275907,"lon":5.396613,"is_reserved":false,"is_disabled":false,"rental_uris":{"android":"levelo://app?vid=54af4fd1-b789-41e3-ab32-aefd176895e5","ios":"levelo://app?vid=54af4fd1-b789-41e3-ab32-aefd176895e5"},"vehicle_type_id":"4","last_reported":1701644799,"current_range_meters":0,"station_id":"","pricing_plan_id":"free"},{"bike_id":"5d665a19-1fda-4c75-b513-92c4fde0a0f2","system_id":"levelo_inurba_marseille","lat":43.30419,"lon":5.42542,"is_reserved":false,"is_disabled":false,"rental_uris":{"android":"levelo://app?vid=5d665a19-1fda-4c75-b513-92c4fde0a0f2","ios":"levelo://app?vid=5d665a19-1fda-4c75-b513-92c4fde0a0f2"},"vehicle_type_id":"4","last_reported":1701644799,"current_range_meters":24400,"station_id":"ce4bhoh2rcd13ifvqh6g","pricing_plan_id":"free"},{"bike_id":"16ed0702-3beb-465e-8f72-aa4e21e2a2dc","system_id":"levelo_inurba_marseille","lat":43.295511,"lon":5.422926,"is_reserved":false,"is_disabled":false,"rental_uris":{"android":"levelo://app?vid=16ed0702-3beb-465e-8f72-aa4e21e2a2dc","ios":"levelo://app?vid=16ed0702-3beb-465e-8f72-aa4e21e2a2dc"},"vehicle_type_id":"4","last_reported":1701644799,"current_range_meters":29200,"station_id":"ce4bhph2rcd13ifvqhdg","pricing_plan_id":"free"},{"bike_id":"b2c2d860-979e-4069-ba1c-d868b86d0358","system_id":"levelo_inurba_marseille","lat":43.295511,"lon":5.422926,"is_reserved":false,"is_disabled":false,"rental_uris":{"android":"levelo://app?vid=b2c2d860-979e-4069-ba1c-d868b86d0358","ios":"levelo://app?vid=b2c2d860-979e-4069-ba1c-d868b86d0358"},"vehicle_type_id":"4","last_reported":1701644799,"current_range_meters":6400,"station_id":"ce4bhph2rcd13ifvqhdg","pricing_plan_id":"free"},{"bike_id":"6b1af463-319c-4ec7-900e-4c248fc9af9e","system_id":"levelo_inurba_marseille","lat":43.278128,"lon":5.407195,"is_reserved":false,"is_disabled":false,"rental_uris":{"android":"levelo://app?vid=6b1af463-319c-4ec7-900e-4c248fc9af9e","ios":"levelo://app?vid=6b1af463-319c-4ec7-900e-4c248fc9af9e"},"vehicle_type_id":"4","last_reported":1701644799,"current_range_meters":32000,"station_id":"ce4bhnh2rcd13ifvqgtg","pricing_plan_id":"free"},{"bike_id":"33dafeae-6400-4a6a-ad6a-3e25da0d2a79","system_id":"levelo_inurba_marseille","lat":43.278128,"lon":5.407195,"is_reserved":false,"is_disabled":false,"rental_uris":{"android":"levelo://app?vid=33dafeae-6400-4a6a-ad6a-3e25da0d2a79","ios":"levelo://app?vid=33dafeae-6400-4a6a-ad6a-3e25da0d2a79"},"vehicle_type_id":"4","last_reported":1701644799,"current_range_meters":16800,"station_id":"ce4bhnh2rcd13ifvqgtg","pricing_plan_id":"free"},{"bike_id":"d6bd0d5c-ab30-485f-8ce1-cf2a2d8b99aa","system_id":"levelo_inurba_marseille","lat":43.27943,"lon":5.410377,"is_reserved":false,"is_disabled":false,"rental_uris":{"android":"levelo://app?vid=d6bd0d5c-ab30-485f-8ce1-cf2a2d8b99aa","ios":"levelo://app?vid=d6bd0d5c-ab30-485f-8ce1-cf2a2d8b99aa"},"vehicle_type_id":"4","last_reported":1701644799,"current_range_meters":13200,"station_id":"ce4bhnp2rcd13ifvqh0g","pricing_plan_id":"free"},{"bike_id":"0ce340ee-4cc5-455c-8ef2-e149b03f6229","system_id":"levelo_inurba_marseille","lat":43.279465,"lon":5.410561,"is_reserved":false,"is_disabled":false,"rental_uris":{"android":"levelo://app?vid=0ce340ee-4cc5-455c-8ef2-e149b03f6229","ios":"levelo://app?vid=0ce340ee-4cc5-455c-8ef2-e149b03f6229"},"vehicle_type_id":"4","last_reported":1701644799,"current_range_meters":10800,"station_id":"ce4bhnp2rcd13ifvqh0g","pricing_plan_id":"free"},{"bike_id":"ab1261d9-d8e9-4c1b-b14d-57a40a679a18","system_id":"levelo_inurba_marseille","lat":43.27999,"lon":5.41666,"is_reserved":false,"is_disabled":false,"rental_uris":{"android":"levelo://app?vid=ab1261d9-d8e9-4c1b-b14d-57a40a679a18","ios":"levelo://app?vid=ab1261d9-d8e9-4c1b-b14d-57a40a679a18"},"vehicle_type_id":"4","last_reported":1701644799,"current_range_meters":28000,"station_id":"ce4bho12rcd13ifvqh1g","pricing_plan_id":"free"},{"bike_id":"3a085ded-79fe-4229-ba36-720621cc3c5b","system_id":"levelo_inurba_marseille","lat":43.27994,"lon":5.41664,"is_reserved":false,"is_disabled":false,"rental_uris":{"android":"levelo://app?vid=3a085ded-79fe-4229-ba36-720621cc3c5b","ios":"levelo://app?vid=3a085ded-79fe-4229-ba36-720621cc3c5b"},"vehicle_type_id":"4","last_reported":1701644799,"current_range_meters":26800,"station_id":"ce4bho12rcd13ifvqh1g","pricing_plan_id":"free"},{"bike_id":"dc1148e6-327f-4b57-8e91-cc724d9ac120","system_id":"levelo_inurba_marseille","lat":43.27986,"lon":5.41657,"is_reserved":false,"is_disabled":false,"rental_uris":{"android":"levelo://app?vid=dc1148e6-327f-4b57-8e91-cc724d9ac120","ios":"levelo://app?vid=dc1148e6-327f-4b57-8e91-cc724d9ac120"},"vehicle_type_id":"4","last_reported":1701644799,"current_range_meters":18800,"station_id":"ce4bho12rcd13ifvqh1g","pricing_plan_id":"free"},{"bike_id":"08c0ebf9-bf3e-4259-9641-66f2fdb4dde0","system_id":"levelo_inurba_marseille","lat":43.317104,"lon":5.436818,"is_reserved":false,"is_disabled":false,"rental_uris":{"android":"levelo://app?vid=08c0ebf9-bf3e-4259-9641-66f2fdb4dde0","ios":"levelo://app?vid=08c0ebf9-bf3e-4259-9641-66f2fdb4dde0"},"vehicle_type_id":"4","last_reported":1701644799,"current_range_meters":30400,"station_id":"ce4bhp92rcd13ifvqhcg","pricing_plan_id":"free"},{"bike_id":"4e417aa4-7879-4bf9-8b89-0b4ea8e17307","system_id":"levelo_inurba_marseille","lat":43.262012,"lon":5.379307,"is_reserved":false,"is_disabled":false,"rental_uris":{"android":"levelo://app?vid=4e417aa4-7879-4bf9-8b89-0b4ea8e17307","ios":"levelo://app?vid=4e417aa4-7879-4bf9-8b89-0b4ea8e17307"},"vehicle_type_id":"4","last_reported":1701644799,"current_range_meters":17600,"station_id":"ce4bhjp2rcd13ifvqg90","pricing_plan_id":"free"},{"bike_id":"b3a4a88c-d155-447c-ad55-fd92c25575ce","system_id":"levelo_inurba_marseille","lat":43.262012,"lon":5.379307,"is_reserved":false,"is_disabled":false,"rental_uris":{"android":"levelo://app?vid=b3a4a88c-d155-447c-ad55-fd92c25575ce","ios":"levelo://app?vid=b3a4a88c-d155-447c-ad55-fd92c25575ce"},"vehicle_type_id":"4","last_reported":1701644799,"current_range_meters":28800,"station_id":"ce4bhjp2rcd13ifvqg90","pricing_plan_id":"free"},{"bike_id":"5215f556-274e-425d-9d1c-f569d3935791","system_id":"levelo_inurba_marseille","lat":43.271388,"lon":5.409269,"is_reserved":false,"is_disabled":false,"rental_uris":{"android":"levelo://app?vid=5215f556-274e-425d-9d1c-f569d3935791","ios":"levelo://app?vid=5215f556-274e-425d-9d1c-f569d3935791"},"vehicle_type_id":"4","last_reported":1701644799,"current_range_meters":14000,"station_id":"ce4bhl12rcd13ifvqgf0","pricing_plan_id":"free"},{"bike_id":"3bb6943d-b5fe-4de5-88be-a93b0167c81b","system_id":"levelo_inurba_marseille","lat":43.281548,"lon":5.42643,"is_reserved":false,"is_disabled":false,"rental_uris":{"android":"levelo://app?vid=3bb6943d-b5fe-4de5-88be-a93b0167c81b","ios":"levelo://app?vid=3bb6943d-b5fe-4de5-88be-a93b0167c81b"},"vehicle_type_id":"4","last_reported":1701644799,"current_range_meters":26800,"station_id":"ce4bhnh2rcd13ifvqgug","pricing_plan_id":"free"},{"bike_id":"7a96db8f-5eb4-405b-8773-67506ad37afb","system_id":"levelo_inurba_marseille","lat":43.2816,"lon":5.42653,"is_reserved":false,"is_disabled":false,"rental_uris":{"android":"levelo://app?vid=7a96db8f-5eb4-405b-8773-67506ad37afb","ios":"levelo://app?vid=7a96db8f-5eb4-405b-8773-67506ad37afb"},"vehicle_type_id":"4","last_reported":1701644799,"current_range_meters":11600,"station_id":"ce4bhnh2rcd13ifvqgug","pricing_plan_id":"free"},{"bike_id":"5b3e0566-b00a-45ce-bada-6ddf6f7727ce","system_id":"levelo_inurba_marseille","lat":43.28157,"lon":5.42652,"is_reserved":false,"is_disabled":false,"rental_uris":{"android":"levelo://app?vid=5b3e0566-b00a-45ce-bada-6ddf6f7727ce","ios":"levelo://app?vid=5b3e0566-b00a-45ce-bada-6ddf6f7727ce"},"vehicle_type_id":"4","last_reported":1701644799,"current_range_meters":18400,"station_id":"ce4bhnh2rcd13ifvqgug","pricing_plan_id":"free"},{"bike_id":"0fd8254e-a95a-4dc5-963d-03782d038304","system_id":"levelo_inurba_marseille","lat":43.28146,"lon":5.42653,"is_reserved":false,"is_disabled":false,"rental_uris":{"android":"levelo://app?vid=0fd8254e-a95a-4dc5-963d-03782d038304","ios":"levelo://app?vid=0fd8254e-a95a-4dc5-963d-03782d038304"},"vehicle_type_id":"4","last_reported":1701644799,"current_range_meters":22000,"station_id":"ce4bhnh2rcd13ifvqgug","pricing_plan_id":"free"},{"bike_id":"2896d740-c829-4769-ab23-e2aa604b10cd","system_id":"levelo_inurba_marseille","lat":43.27494,"lon":5.42451,"is_reserved":false,"is_disabled":false,"rental_uris":{"android":"levelo://app?vid=2896d740-c829-4769-ab23-e2aa604b10cd","ios":"levelo://app?vid=2896d740-c829-4769-ab23-e2aa604b10cd"},"vehicle_type_id":"4","last_reported":1701644799,"current_range_meters":4400,"station_id":"ce4bhn92rcd13ifvqgrg","pricing_plan_id":"free"},{"bike_id":"17f35e7a-e54c-4208-a0bd-45b6b8360203","system_id":"levelo_inurba_marseille","lat":43.27493,"lon":5.42453,"is_reserved":false,"is_disabled":false,"rental_uris":{"android":"levelo://app?vid=17f35e7a-e54c-4208-a0bd-45b6b8360203","ios":"levelo://app?vid=17f35e7a-e54c-4208-a0bd-45b6b8360203"},"vehicle_type_id":"4","last_reported":1701644799,"current_range_meters":22400,"station_id":"ce4bhn92rcd13ifvqgrg","pricing_plan_id":"free"},{"bike_id":"b84c7cf6-2ad8-4347-b6e8-77b2394a0e95","system_id":"levelo_inurba_marseille","lat":43.25583,"lon":5.38237,"is_reserved":false,"is_disabled":false,"rental_uris":{"android":"levelo://app?vid=b84c7cf6-2ad8-4347-b6e8-77b2394a0e95","ios":"levelo://app?vid=b84c7cf6-2ad8-4347-b6e8-77b2394a0e95"},"vehicle_type_id":"4","last_reported":1701644799,"current_range_meters":25600,"station_id":"ce4bhih2rcd13ifvqfs0","pricing_plan_id":"free"},{"bike_id":"bdea206e-1802-42c9-a0bc-64f175e8b92f","system_id":"levelo_inurba_marseille","lat":43.270721,"lon":5.422764,"is_reserved":false,"is_disabled":false,"rental_uris":{"android":"levelo://app?vid=bdea206e-1802-42c9-a0bc-64f175e8b92f","ios":"levelo://app?vid=bdea206e-1802-42c9-a0bc-64f175e8b92f"},"vehicle_type_id":"4","last_reported":1701644799,"current_range_meters":10400,"station_id":"ce4bhk92rcd13ifvqgb0","pricing_plan_id":"free"},{"bike_id":"c5dda8c0-469f-496a-a8f7-bbd1aa160ecf","system_id":"levelo_inurba_marseille","lat":43.270721,"lon":5.422764,"is_reserved":false,"is_disabled":false,"rental_uris":{"android":"levelo://app?vid=c5dda8c0-469f-496a-a8f7-bbd1aa160ecf","ios":"levelo://app?vid=c5dda8c0-469f-496a-a8f7-bbd1aa160ecf"},"vehicle_type_id":"4","last_reported":1701644799,"current_range_meters":14800,"station_id":"ce4bhk92rcd13ifvqgb0","pricing_plan_id":"free"},{"bike_id":"91e9a8ab-02bf-4fcc-b8f1-587cd6d6e2d5","system_id":"levelo_inurba_marseille","lat":43.270721,"lon":5.422764,"is_reserved":false,"is_disabled":false,"rental_uris":{"android":"levelo://app?vid=91e9a8ab-02bf-4fcc-b8f1-587cd6d6e2d5","ios":"levelo://app?vid=91e9a8ab-02bf-4fcc-b8f1-587cd6d6e2d5"},"vehicle_type_id":"4","last_reported":1701644799,"current_range_meters":4000,"station_id":"ce4bhk92rcd13ifvqgb0","pricing_plan_id":"free"},{"bike_id":"e6fee166-d8ae-4019-abb3-6c4f3b176b93","system_id":"levelo_inurba_marseille","lat":43.270721,"lon":5.422764,"is_reserved":false,"is_disabled":false,"rental_uris":{"android":"levelo://app?vid=e6fee166-d8ae-4019-abb3-6c4f3b176b93","ios":"levelo://app?vid=e6fee166-d8ae-4019-abb3-6c4f3b176b93"},"vehicle_type_id":"4","last_reported":1701644799,"current_range_meters":26400,"station_id":"ce4bhk92rcd13ifvqgb0","pricing_plan_id":"free"},{"bike_id":"fc9aece4-475e-42e6-9aa9-4b31f99f89e4","system_id":"levelo_inurba_marseille","lat":43.258658,"lon":5.398935,"is_reserved":false,"is_disabled":false,"rental_uris":{"android":"levelo://app?vid=fc9aece4-475e-42e6-9aa9-4b31f99f89e4","ios":"levelo://app?vid=fc9aece4-475e-42e6-9aa9-4b31f99f89e4"},"vehicle_type_id":"4","last_reported":1701644799,"current_range_meters":4800,"station_id":"ce4bhl92rcd13ifvqghg","pricing_plan_id":"free"},{"bike_id":"ca9d0f5d-2933-436c-b221-f85ad9761023","system_id":"levelo_inurba_marseille","lat":43.257079,"lon":5.411051,"is_reserved":false,"is_disabled":false,"rental_uris":{"android":"levelo://app?vid=ca9d0f5d-2933-436c-b221-f85ad9761023","ios":"levelo://app?vid=ca9d0f5d-2933-436c-b221-f85ad9761023"},"vehicle_type_id":"4","last_reported":1701644799,"current_range_meters":30800,"station_id":"ce4bhkp2rcd13ifvqgd0","pricing_plan_id":"free"},{"bike_id":"d10a0046-453f-46e2-bcb4-5558cad0a0ca","system_id":"levelo_inurba_marseille","lat":43.250009,"lon":5.389195,"is_reserved":false,"is_disabled":false,"rental_uris":{"android":"levelo://app?vid=d10a0046-453f-46e2-bcb4-5558cad0a0ca","ios":"levelo://app?vid=d10a0046-453f-46e2-bcb4-5558cad0a0ca"},"vehicle_type_id":"4","last_reported":1701644799,"current_range_meters":27600,"station_id":"ce4bhgp2rcd13ifvqfd0","pricing_plan_id":"free"},{"bike_id":"f3031a93-c812-47f9-befb-cee3e4d878fb","system_id":"levelo_inurba_marseille","lat":43.2479,"lon":5.374457,"is_reserved":false,"is_disabled":false,"rental_uris":{"android":"levelo://app?vid=f3031a93-c812-47f9-befb-cee3e4d878fb","ios":"levelo://app?vid=f3031a93-c812-47f9-befb-cee3e4d878fb"},"vehicle_type_id":"4","last_reported":1701644799,"current_range_meters":30000,"station_id":"ce4bhgh2rcd13ifvqfb0","pricing_plan_id":"free"},{"bike_id":"95315ee5-452e-4237-9ab9-136307729c49","system_id":"levelo_inurba_marseille","lat":43.2479,"lon":5.374457,"is_reserved":false,"is_disabled":false,"rental_uris":{"android":"levelo://app?vid=95315ee5-452e-4237-9ab9-136307729c49","ios":"levelo://app?vid=95315ee5-452e-4237-9ab9-136307729c49"},"vehicle_type_id":"4","last_reported":1701644799,"current_range_meters":24400,"station_id":"ce4bhgh2rcd13ifvqfb0","pricing_plan_id":"free"},{"bike_id":"c44bfe06-236e-4b9f-aab8-9a279bba123a","system_id":"levelo_inurba_marseille","lat":43.2479,"lon":5.374457,"is_reserved":false,"is_disabled":false,"rental_uris":{"android":"levelo://app?vid=c44bfe06-236e-4b9f-aab8-9a279bba123a","ios":"levelo://app?vid=c44bfe06-236e-4b9f-aab8-9a279bba123a"},"vehicle_type_id":"4","last_reported":1701644799,"current_range_meters":6800,"station_id":"ce4bhgh2rcd13ifvqfb0","pricing_plan_id":"free"},{"bike_id":"2991e689-649d-4f95-9ad5-1f501c09a58e","system_id":"levelo_inurba_marseille","lat":43.2479,"lon":5.374457,"is_reserved":false,"is_disabled":false,"rental_uris":{"android":"levelo://app?vid=2991e689-649d-4f95-9ad5-1f501c09a58e","ios":"levelo://app?vid=2991e689-649d-4f95-9ad5-1f501c09a58e"},"vehicle_type_id":"4","last_reported":1701644799,"current_range_meters":14800,"station_id":"ce4bhgh2rcd13ifvqfb0","pricing_plan_id":"free"},{"bike_id":"ab651f20-342c-401a-ba35-80bb8d257ab6","system_id":"levelo_inurba_marseille","lat":43.2479,"lon":5.374457,"is_reserved":false,"is_disabled":false,"rental_uris":{"android":"levelo://app?vid=ab651f20-342c-401a-ba35-80bb8d257ab6","ios":"levelo://app?vid=ab651f20-342c-401a-ba35-80bb8d257ab6"},"vehicle_type_id":"4","last_reported":1701644799,"current_range_meters":18400,"station_id":"ce4bhgh2rcd13ifvqfb0","pricing_plan_id":"free"},{"bike_id":"2f185611-03fb-401c-be92-79ce82267c3e","system_id":"levelo_inurba_marseille","lat":43.24668,"lon":5.38155,"is_reserved":false,"is_disabled":false,"rental_uris":{"android":"levelo://app?vid=2f185611-03fb-401c-be92-79ce82267c3e","ios":"levelo://app?vid=2f185611-03fb-401c-be92-79ce82267c3e"},"vehicle_type_id":"4","last_reported":1701644799,"current_range_meters":16000,"station_id":"ce4bhih2rcd13ifvqfr0","pricing_plan_id":"free"},{"bike_id":"3ce492b4-56c5-4765-8b5b-9b637cfa3a78","system_id":"levelo_inurba_marseille","lat":43.24667,"lon":5.38169,"is_reserved":false,"is_disabled":false,"rental_uris":{"android":"levelo://app?vid=3ce492b4-56c5-4765-8b5b-9b637cfa3a78","ios":"levelo://app?vid=3ce492b4-56c5-4765-8b5b-9b637cfa3a78"},"vehicle_type_id":"4","last_reported":1701644799,"current_range_meters":19600,"station_id":"ce4bhih2rcd13ifvqfr0","pricing_plan_id":"free"},{"bike_id":"2b3584ea-ff18-4cbc-96e7-77f923d9f451","system_id":"levelo_inurba_marseille","lat":43.24665,"lon":5.38166,"is_reserved":false,"is_disabled":false,"rental_uris":{"android":"levelo://app?vid=2b3584ea-ff18-4cbc-96e7-77f923d9f451","ios":"levelo://app?vid=2b3584ea-ff18-4cbc-96e7-77f923d9f451"},"vehicle_type_id":"4","last_reported":1701644799,"current_range_meters":23200,"station_id":"ce4bhih2rcd13ifvqfr0","pricing_plan_id":"free"},{"bike_id":"47218376-6c80-47cd-991a-4badc7584f1a","system_id":"levelo_inurba_marseille","lat":43.25102,"lon":5.403214,"is_reserved":false,"is_disabled":false,"rental_uris":{"android":"levelo://app?vid=47218376-6c80-47cd-991a-4badc7584f1a","ios":"levelo://app?vid=47218376-6c80-47cd-991a-4badc7584f1a"},"vehicle_type_id":"4","last_reported":1701644799,"current_range_meters":26400,"station_id":"ce4bhlh2rcd13ifvqgig","pricing_plan_id":"free"},{"bike_id":"0b4d43f8-4b31-4b54-8b03-c02db7df8d78","system_id":"levelo_inurba_marseille","lat":43.25108,"lon":5.40325,"is_reserved":false,"is_disabled":false,"rental_uris":{"android":"levelo://app?vid=0b4d43f8-4b31-4b54-8b03-c02db7df8d78","ios":"levelo://app?vid=0b4d43f8-4b31-4b54-8b03-c02db7df8d78"},"vehicle_type_id":"4","last_reported":1701644799,"current_range_meters":14800,"station_id":"ce4bhlh2rcd13ifvqgig","pricing_plan_id":"free"},{"bike_id":"75d46db8-3715-440c-b22a-71065c63321a","system_id":"levelo_inurba_marseille","lat":43.25102,"lon":5.403214,"is_reserved":false,"is_disabled":false,"rental_uris":{"android":"levelo://app?vid=75d46db8-3715-440c-b22a-71065c63321a","ios":"levelo://app?vid=75d46db8-3715-440c-b22a-71065c63321a"},"vehicle_type_id":"4","last_reported":1701644799,"current_range_meters":29600,"station_id":"ce4bhlh2rcd13ifvqgig","pricing_plan_id":"free"},{"bike_id":"01d38d9d-a050-4ebb-b588-d2d5ba062212","system_id":"levelo_inurba_marseille","lat":43.246467,"lon":5.388984,"is_reserved":false,"is_disabled":false,"rental_uris":{"android":"levelo://app?vid=01d38d9d-a050-4ebb-b588-d2d5ba062212","ios":"levelo://app?vid=01d38d9d-a050-4ebb-b588-d2d5ba062212"},"vehicle_type_id":"4","last_reported":1701644799,"current_range_meters":26800,"station_id":"ce4bhg12rcd13ifvqf60","pricing_plan_id":"free"},{"bike_id":"370d8d0c-fead-40f1-9b16-d3e5b5f2faef","system_id":"levelo_inurba_marseille","lat":43.24073,"lon":5.3776,"is_reserved":false,"is_disabled":false,"rental_uris":{"android":"levelo://app?vid=370d8d0c-fead-40f1-9b16-d3e5b5f2faef","ios":"levelo://app?vid=370d8d0c-fead-40f1-9b16-d3e5b5f2faef"},"vehicle_type_id":"4","last_reported":1701644799,"current_range_meters":0,"station_id":"ce4bhnp2rcd13ifvqgvg","pricing_plan_id":"free"},{"bike_id":"b147e189-f8d6-4f19-b83d-273cd9dabf73","system_id":"levelo_inurba_marseille","lat":43.240623,"lon":5.377642,"is_reserved":false,"is_disabled":false,"rental_uris":{"android":"levelo://app?vid=b147e189-f8d6-4f19-b83d-273cd9dabf73","ios":"levelo://app?vid=b147e189-f8d6-4f19-b83d-273cd9dabf73"},"vehicle_type_id":"4","last_reported":1701644799,"current_range_meters":12000,"station_id":"ce4bhnp2rcd13ifvqgvg","pricing_plan_id":"free"},{"bike_id":"c75b2ba4-b197-45b4-91b3-d622061740e4","system_id":"levelo_inurba_marseille","lat":43.240623,"lon":5.377642,"is_reserved":false,"is_disabled":false,"rental_uris":{"android":"levelo://app?vid=c75b2ba4-b197-45b4-91b3-d622061740e4","ios":"levelo://app?vid=c75b2ba4-b197-45b4-91b3-d622061740e4"},"vehicle_type_id":"4","last_reported":1701644799,"current_range_meters":18000,"station_id":"ce4bhnp2rcd13ifvqgvg","pricing_plan_id":"free"},{"bike_id":"66d07158-1c05-469e-a266-b66692f04cb5","system_id":"levelo_inurba_marseille","lat":43.239588,"lon":5.366238,"is_reserved":false,"is_disabled":false,"rental_uris":{"android":"levelo://app?vid=66d07158-1c05-469e-a266-b66692f04cb5","ios":"levelo://app?vid=66d07158-1c05-469e-a266-b66692f04cb5"},"vehicle_type_id":"4","last_reported":1701644799,"current_range_meters":31200,"station_id":"ce4bhi12rcd13ifvqfp0","pricing_plan_id":"free"},{"bike_id":"f2d1c53e-c9ac-415e-8fd6-e07b040e3303","system_id":"levelo_inurba_marseille","lat":43.23963,"lon":5.36629,"is_reserved":false,"is_disabled":false,"rental_uris":{"android":"levelo://app?vid=f2d1c53e-c9ac-415e-8fd6-e07b040e3303","ios":"levelo://app?vid=f2d1c53e-c9ac-415e-8fd6-e07b040e3303"},"vehicle_type_id":"4","last_reported":1701644799,"current_range_meters":21600,"station_id":"ce4bhi12rcd13ifvqfp0","pricing_plan_id":"free"},{"bike_id":"a3aad75b-64ef-4634-9f77-a5b976c8f7fb","system_id":"levelo_inurba_marseille","lat":43.24178,"lon":5.39729,"is_reserved":false,"is_disabled":false,"rental_uris":{"android":"levelo://app?vid=a3aad75b-64ef-4634-9f77-a5b976c8f7fb","ios":"levelo://app?vid=a3aad75b-64ef-4634-9f77-a5b976c8f7fb"},"vehicle_type_id":"4","last_reported":1701644799,"current_range_meters":6400,"station_id":"ce4bhn12rcd13ifvqgpg","pricing_plan_id":"free"},{"bike_id":"9e01ee59-41e6-425c-ae1f-3e33312fefcd","system_id":"levelo_inurba_marseille","lat":43.231923,"lon":5.355545,"is_reserved":false,"is_disabled":false,"rental_uris":{"android":"levelo://app?vid=9e01ee59-41e6-425c-ae1f-3e33312fefcd","ios":"levelo://app?vid=9e01ee59-41e6-425c-ae1f-3e33312fefcd"},"vehicle_type_id":"4","last_reported":1701644799,"current_range_meters":14400,"station_id":"ce4bhu92rcd13ifvqi70","pricing_plan_id":"free"},{"bike_id":"6041d620-664b-4836-b597-a0e62593a032","system_id":"levelo_inurba_marseille","lat":43.231923,"lon":5.355545,"is_reserved":false,"is_disabled":false,"rental_uris":{"android":"levelo://app?vid=6041d620-664b-4836-b597-a0e62593a032","ios":"levelo://app?vid=6041d620-664b-4836-b597-a0e62593a032"},"vehicle_type_id":"4","last_reported":1701644799,"current_range_meters":26800,"station_id":"ce4bhu92rcd13ifvqi70","pricing_plan_id":"free"},{"bike_id":"87815193-0a9e-4a5a-8f22-63817bf9d429","system_id":"levelo_inurba_marseille","lat":43.231973,"lon":5.355432,"is_reserved":false,"is_disabled":false,"rental_uris":{"android":"levelo://app?vid=87815193-0a9e-4a5a-8f22-63817bf9d429","ios":"levelo://app?vid=87815193-0a9e-4a5a-8f22-63817bf9d429"},"vehicle_type_id":"4","last_reported":1701644799,"current_range_meters":28400,"station_id":"ce4bhu92rcd13ifvqi70","pricing_plan_id":"free"},{"bike_id":"58d4edcd-4441-486c-8457-28ebda4ac431","system_id":"levelo_inurba_marseille","lat":43.23194,"lon":5.35545,"is_reserved":false,"is_disabled":false,"rental_uris":{"android":"levelo://app?vid=58d4edcd-4441-486c-8457-28ebda4ac431","ios":"levelo://app?vid=58d4edcd-4441-486c-8457-28ebda4ac431"},"vehicle_type_id":"4","last_reported":1701644799,"current_range_meters":18400,"station_id":"ce4bhu92rcd13ifvqi70","pricing_plan_id":"free"},{"bike_id":"2b04708e-eed8-4471-916a-9fdeea01eec7","system_id":"levelo_inurba_marseille","lat":43.231923,"lon":5.355545,"is_reserved":false,"is_disabled":false,"rental_uris":{"android":"levelo://app?vid=2b04708e-eed8-4471-916a-9fdeea01eec7","ios":"levelo://app?vid=2b04708e-eed8-4471-916a-9fdeea01eec7"},"vehicle_type_id":"4","last_reported":1701644799,"current_range_meters":30400,"station_id":"ce4bhu92rcd13ifvqi70","pricing_plan_id":"free"},{"bike_id":"cf3102c4-88e0-4a41-86b7-69a76932d3e6","system_id":"levelo_inurba_marseille","lat":43.231923,"lon":5.355545,"is_reserved":false,"is_disabled":false,"rental_uris":{"android":"levelo://app?vid=cf3102c4-88e0-4a41-86b7-69a76932d3e6","ios":"levelo://app?vid=cf3102c4-88e0-4a41-86b7-69a76932d3e6"},"vehicle_type_id":"4","last_reported":1701644799,"current_range_meters":31200,"station_id":"ce4bhu92rcd13ifvqi70","pricing_plan_id":"free"},{"bike_id":"a2778a75-2f32-457d-810c-ad5c32010803","system_id":"levelo_inurba_marseille","lat":43.231912,"lon":5.355605,"is_reserved":false,"is_disabled":false,"rental_uris":{"android":"levelo://app?vid=a2778a75-2f32-457d-810c-ad5c32010803","ios":"levelo://app?vid=a2778a75-2f32-457d-810c-ad5c32010803"},"vehicle_type_id":"4","last_reported":1701644799,"current_range_meters":18400,"station_id":"ce4bhu92rcd13ifvqi70","pricing_plan_id":"free"},{"bike_id":"941004a4-21a1-40d0-a251-aacd94276fe6","system_id":"levelo_inurba_marseille","lat":43.231923,"lon":5.355545,"is_reserved":false,"is_disabled":false,"rental_uris":{"android":"levelo://app?vid=941004a4-21a1-40d0-a251-aacd94276fe6","ios":"levelo://app?vid=941004a4-21a1-40d0-a251-aacd94276fe6"},"vehicle_type_id":"4","last_reported":1701644799,"current_range_meters":6400,"station_id":"ce4bhu92rcd13ifvqi70","pricing_plan_id":"free"},{"bike_id":"88cf855f-bb31-40e0-8afc-686df3c193ab","system_id":"levelo_inurba_marseille","lat":43.231794,"lon":5.400052,"is_reserved":false,"is_disabled":false,"rental_uris":{"android":"levelo://app?vid=88cf855f-bb31-40e0-8afc-686df3c193ab","ios":"levelo://app?vid=88cf855f-bb31-40e0-8afc-686df3c193ab"},"vehicle_type_id":"4","last_reported":1701644799,"current_range_meters":28800,"station_id":"ce4bhn12rcd13ifvqgqg","pricing_plan_id":"free"},{"bike_id":"8f0fb87f-53e2-432d-b05f-ab1e816b61dc","system_id":"levelo_inurba_marseille","lat":43.231794,"lon":5.400052,"is_reserved":false,"is_disabled":false,"rental_uris":{"android":"levelo://app?vid=8f0fb87f-53e2-432d-b05f-ab1e816b61dc","ios":"levelo://app?vid=8f0fb87f-53e2-432d-b05f-ab1e816b61dc"},"vehicle_type_id":"4","last_reported":1701644799,"current_range_meters":14800,"station_id":"ce4bhn12rcd13ifvqgqg","pricing_plan_id":"free"},{"bike_id":"7119d2ec-3a1f-47f1-97aa-a12f1d72912d","system_id":"levelo_inurba_marseille","lat":43.23188,"lon":5.399803,"is_reserved":false,"is_disabled":false,"rental_uris":{"android":"levelo://app?vid=7119d2ec-3a1f-47f1-97aa-a12f1d72912d","ios":"levelo://app?vid=7119d2ec-3a1f-47f1-97aa-a12f1d72912d"},"vehicle_type_id":"4","last_reported":1701644799,"current_range_meters":11200,"station_id":"ce4bhn12rcd13ifvqgqg","pricing_plan_id":"free"},{"bike_id":"e47e98e0-4256-4c41-ae86-e531a41b9213","system_id":"levelo_inurba_marseille","lat":43.231794,"lon":5.400052,"is_reserved":false,"is_disabled":false,"rental_uris":{"android":"levelo://app?vid=e47e98e0-4256-4c41-ae86-e531a41b9213","ios":"levelo://app?vid=e47e98e0-4256-4c41-ae86-e531a41b9213"},"vehicle_type_id":"4","last_reported":1701644799,"current_range_meters":31600,"station_id":"ce4bhn12rcd13ifvqgqg","pricing_plan_id":"free"},{"bike_id":"8bb4a4e8-9672-4d13-b6c9-9d0eb28673b3","system_id":"levelo_inurba_marseille","lat":43.231793,"lon":5.400044,"is_reserved":false,"is_disabled":false,"rental_uris":{"android":"levelo://app?vid=8bb4a4e8-9672-4d13-b6c9-9d0eb28673b3","ios":"levelo://app?vid=8bb4a4e8-9672-4d13-b6c9-9d0eb28673b3"},"vehicle_type_id":"4","last_reported":1701644799,"current_range_meters":29600,"station_id":"ce4bhn12rcd13ifvqgqg","pricing_plan_id":"free"},{"bike_id":"d7955d6f-88ae-4e83-97c1-4a0668d076f6","system_id":"levelo_inurba_marseille","lat":43.23188,"lon":5.399845,"is_reserved":false,"is_disabled":false,"rental_uris":{"android":"levelo://app?vid=d7955d6f-88ae-4e83-97c1-4a0668d076f6","ios":"levelo://app?vid=d7955d6f-88ae-4e83-97c1-4a0668d076f6"},"vehicle_type_id":"4","last_reported":1701644799,"current_range_meters":17200,"station_id":"ce4bhn12rcd13ifvqgqg","pricing_plan_id":"free"},{"bike_id":"118d4a35-86b4-49cc-8abc-987caa7ffe62","system_id":"levelo_inurba_marseille","lat":43.231897,"lon":5.399944,"is_reserved":false,"is_disabled":false,"rental_uris":{"android":"levelo://app?vid=118d4a35-86b4-49cc-8abc-987caa7ffe62","ios":"levelo://app?vid=118d4a35-86b4-49cc-8abc-987caa7ffe62"},"vehicle_type_id":"4","last_reported":1701644799,"current_range_meters":30400,"station_id":"ce4bhn12rcd13ifvqgqg","pricing_plan_id":"free"},{"bike_id":"0cf73e26-cfe4-495a-8675-6603ab968aec","system_id":"levelo_inurba_marseille","lat":43.231794,"lon":5.400052,"is_reserved":false,"is_disabled":false,"rental_uris":{"android":"levelo://app?vid=0cf73e26-cfe4-495a-8675-6603ab968aec","ios":"levelo://app?vid=0cf73e26-cfe4-495a-8675-6603ab968aec"},"vehicle_type_id":"4","last_reported":1701644799,"current_range_meters":12000,"station_id":"ce4bhn12rcd13ifvqgqg","pricing_plan_id":"free"},{"bike_id":"77b1a551-da7f-429a-980e-bfc6767a5958","system_id":"levelo_inurba_marseille","lat":43.231794,"lon":5.400052,"is_reserved":false,"is_disabled":false,"rental_uris":{"android":"levelo://app?vid=77b1a551-da7f-429a-980e-bfc6767a5958","ios":"levelo://app?vid=77b1a551-da7f-429a-980e-bfc6767a5958"},"vehicle_type_id":"4","last_reported":1701644799,"current_range_meters":31200,"station_id":"ce4bhn12rcd13ifvqgqg","pricing_plan_id":"free"},{"bike_id":"ab5eae98-96ca-4718-91b7-353de917f40d","system_id":"levelo_inurba_marseille","lat":43.231793,"lon":5.400044,"is_reserved":false,"is_disabled":false,"rental_uris":{"android":"levelo://app?vid=ab5eae98-96ca-4718-91b7-353de917f40d","ios":"levelo://app?vid=ab5eae98-96ca-4718-91b7-353de917f40d"},"vehicle_type_id":"4","last_reported":1701644799,"current_range_meters":31200,"station_id":"ce4bhn12rcd13ifvqgqg","pricing_plan_id":"free"},{"bike_id":"4c8d669a-b5bc-4cf0-b8bd-219da83f4ef3","system_id":"levelo_inurba_marseille","lat":43.23187,"lon":5.39996,"is_reserved":false,"is_disabled":false,"rental_uris":{"android":"levelo://app?vid=4c8d669a-b5bc-4cf0-b8bd-219da83f4ef3","ios":"levelo://app?vid=4c8d669a-b5bc-4cf0-b8bd-219da83f4ef3"},"vehicle_type_id":"4","last_reported":1701644799,"current_range_meters":16400,"station_id":"ce4bhn12rcd13ifvqgqg","pricing_plan_id":"free"},{"bike_id":"554e18bc-f6bd-448a-9d3a-a49810d0b6de","system_id":"levelo_inurba_marseille","lat":43.231794,"lon":5.400052,"is_reserved":false,"is_disabled":false,"rental_uris":{"android":"levelo://app?vid=554e18bc-f6bd-448a-9d3a-a49810d0b6de","ios":"levelo://app?vid=554e18bc-f6bd-448a-9d3a-a49810d0b6de"},"vehicle_type_id":"4","last_reported":1701644799,"current_range_meters":16800,"station_id":"ce4bhn12rcd13ifvqgqg","pricing_plan_id":"free"},{"bike_id":"3fdd6789-d52a-4c7f-96f4-f754cbf436d6","system_id":"levelo_inurba_marseille","lat":43.231828,"lon":5.399811,"is_reserved":false,"is_disabled":false,"rental_uris":{"android":"levelo://app?vid=3fdd6789-d52a-4c7f-96f4-f754cbf436d6","ios":"levelo://app?vid=3fdd6789-d52a-4c7f-96f4-f754cbf436d6"},"vehicle_type_id":"4","last_reported":1701644799,"current_range_meters":30400,"station_id":"ce4bhn12rcd13ifvqgqg","pricing_plan_id":"free"},{"bike_id":"6bd9f065-50d9-4657-9ca0-a006f413d305","system_id":"levelo_inurba_marseille","lat":43.231794,"lon":5.400052,"is_reserved":false,"is_disabled":false,"rental_uris":{"android":"levelo://app?vid=6bd9f065-50d9-4657-9ca0-a006f413d305","ios":"levelo://app?vid=6bd9f065-50d9-4657-9ca0-a006f413d305"},"vehicle_type_id":"4","last_reported":1701644799,"current_range_meters":31600,"station_id":"ce4bhn12rcd13ifvqgqg","pricing_plan_id":"free"},{"bike_id":"4ee99995-f63f-4ddb-ac4b-88a5ee23324c","system_id":"levelo_inurba_marseille","lat":43.231807,"lon":5.399856,"is_reserved":false,"is_disabled":false,"rental_uris":{"android":"levelo://app?vid=4ee99995-f63f-4ddb-ac4b-88a5ee23324c","ios":"levelo://app?vid=4ee99995-f63f-4ddb-ac4b-88a5ee23324c"},"vehicle_type_id":"4","last_reported":1701644799,"current_range_meters":11600,"station_id":"ce4bhn12rcd13ifvqgqg","pricing_plan_id":"free"},{"bike_id":"22bd98e3-c33f-4c44-ae2b-f96729d36f4f","system_id":"levelo_inurba_marseille","lat":43.231793,"lon":5.400044,"is_reserved":false,"is_disabled":false,"rental_uris":{"android":"levelo://app?vid=22bd98e3-c33f-4c44-ae2b-f96729d36f4f","ios":"levelo://app?vid=22bd98e3-c33f-4c44-ae2b-f96729d36f4f"},"vehicle_type_id":"4","last_reported":1701644799,"current_range_meters":31200,"station_id":"ce4bhn12rcd13ifvqgqg","pricing_plan_id":"free"},{"bike_id":"457c552c-8af5-4b7b-9f6b-8c901265a623","system_id":"levelo_inurba_marseille","lat":43.23181,"lon":5.39997,"is_reserved":false,"is_disabled":false,"rental_uris":{"android":"levelo://app?vid=457c552c-8af5-4b7b-9f6b-8c901265a623","ios":"levelo://app?vid=457c552c-8af5-4b7b-9f6b-8c901265a623"},"vehicle_type_id":"4","last_reported":1701644799,"current_range_meters":26400,"station_id":"ce4bhn12rcd13ifvqgqg","pricing_plan_id":"free"},{"bike_id":"818b7971-a62f-4d0c-b4d6-ebcff5688a44","system_id":"levelo_inurba_marseille","lat":43.231562,"lon":5.436933,"is_reserved":false,"is_disabled":false,"rental_uris":{"android":"levelo://app?vid=818b7971-a62f-4d0c-b4d6-ebcff5688a44","ios":"levelo://app?vid=818b7971-a62f-4d0c-b4d6-ebcff5688a44"},"vehicle_type_id":"4","last_reported":1701644799,"current_range_meters":2800,"station_id":"ce4bhmp2rcd13ifvqgog","pricing_plan_id":"free"},{"bike_id":"9a101203-a4c3-4653-b04e-23d858664d35","system_id":"levelo_inurba_marseille","lat":43.231562,"lon":5.436933,"is_reserved":false,"is_disabled":false,"rental_uris":{"android":"levelo://app?vid=9a101203-a4c3-4653-b04e-23d858664d35","ios":"levelo://app?vid=9a101203-a4c3-4653-b04e-23d858664d35"},"vehicle_type_id":"4","last_reported":1701644799,"current_range_meters":12800,"station_id":"ce4bhmp2rcd13ifvqgog","pricing_plan_id":"free"},{"bike_id":"b718cec7-5e66-4216-830b-20c4cb80c1f6","system_id":"levelo_inurba_marseille","lat":43.231562,"lon":5.436933,"is_reserved":false,"is_disabled":false,"rental_uris":{"android":"levelo://app?vid=b718cec7-5e66-4216-830b-20c4cb80c1f6","ios":"levelo://app?vid=b718cec7-5e66-4216-830b-20c4cb80c1f6"},"vehicle_type_id":"4","last_reported":1701644799,"current_range_meters":11200,"station_id":"ce4bhmp2rcd13ifvqgog","pricing_plan_id":"free"},{"bike_id":"2e1f4911-ec15-4212-aa8f-8ade17ab151d","system_id":"levelo_inurba_marseille","lat":43.231562,"lon":5.436933,"is_reserved":false,"is_disabled":false,"rental_uris":{"android":"levelo://app?vid=2e1f4911-ec15-4212-aa8f-8ade17ab151d","ios":"levelo://app?vid=2e1f4911-ec15-4212-aa8f-8ade17ab151d"},"vehicle_type_id":"4","last_reported":1701644799,"current_range_meters":11600,"station_id":"ce4bhmp2rcd13ifvqgog","pricing_plan_id":"free"},{"bike_id":"31d0811f-403f-42aa-9ea6-b138ed5aedee","system_id":"levelo_inurba_marseille","lat":43.231562,"lon":5.436933,"is_reserved":false,"is_disabled":false,"rental_uris":{"android":"levelo://app?vid=31d0811f-403f-42aa-9ea6-b138ed5aedee","ios":"levelo://app?vid=31d0811f-403f-42aa-9ea6-b138ed5aedee"},"vehicle_type_id":"4","last_reported":1701644799,"current_range_meters":25600,"station_id":"ce4bhmp2rcd13ifvqgog","pricing_plan_id":"free"}]}}