{"last_updated":1724184599,"ttl":30,"version":"2.2","data":{"bikes":[{"bike_id":"8813e73a-2a82-48e7-b2d6-fcb32488d262","system_id":"levelo_inurba_marseille","lat":43.31368,"lon":5.36702,"is_reserved":false,"is_disabled":false,"rental_uris":{"android":"levelo://app?vid=8813e73a-2a82-48e7-b2d6-fcb32488d262","ios":"levelo://app?vid=8813e73a-2a82-48e7-b2d6-fcb32488d262"},"vehicle_type_id":"4","last_reported":1724184599,"current_range_meters":31200,"station_id":"ce4bgr92rcd13ifvqc6g","pricing_plan_id":"cebpf4jnsgd1na2vs0mg"},{"bike_id":"8b12aba9-164a-418f-8c4d-7c7ba274c726","system_id":"levelo_inurba_marseille","lat":43.312239,"lon":5.368562,"is_reserved":false,"is_disabled":false,"rental_uris":{"android":"levelo://app?vid=8b12aba9-164a-418f-8c4d-7c7ba274c726","ios":"levelo://app?vid=8b12aba9-164a-418f-8c4d-7c7ba274c726"},"vehicle_type_id":"4","last_reported":1724184599,"current_range_meters":2400,"station_id":"ce4bgl92rcd13ifvqbq0","pricing_plan_id":"cebpf4jnsgd1na2vs0mg"},{"bike_id":"1247f517-5cdb-4e26-8348-4fe369ee63f8","system_id":"levelo_inurba_marseille","lat":43.309076,"lon":5.368465,"is_reserved":false,"is_disabled":false,"rental_uris":{"android":"levelo://app?vid=1247f517-5cdb-4e26-8348-4fe369ee63f8","ios":"levelo://app?vid=1247f517-5cdb-4e26-8348-4fe369ee63f8"},"vehicle_type_id":"4","last_reported":1724184599,"current_range_meters":5200,"station_id":"ce4bgn92rcd13ifvqbvg","pricing_plan_id":"cebpf4jnsgd1na2vs0mg"},{"bike_id":"744df92c-e0a6-46a3-b7d5-c2cee71c40ea","system_id":"levelo_inurba_marseille","lat":43.30904,"lon":5.37184,"is_reserved":false,"is_disabled":false,"rental_uris":{"android":"levelo://app?vid=744df92c-e0a6-46a3-b7d5-c2cee71c40ea","ios":"levelo://app?vid=744df92c-e0a6-46a3-b7d5-c2cee71c40ea"},"vehicle_type_id":"4","last_reported":1724184599,"current_range_meters":18000,"station_id":"ce4bguh2rcd13ifvqckg","pricing_plan_id":"cebpf4jnsgd1na2vs0mg"},{"bike_id":"a64f775c-4670-466a-a60f-4409e6815c26","system_id":"levelo_inurba_marseille","lat":43.30887,"lon":5.37196,"is_reserved":false,"is_disabled":false,"rental_uris":{"android":"levelo://app?vid=a64f775c-4670-466a-a60f-4409e6815c26","ios":"levelo://app?vid=a64f775c-4670-466a-a60f-4409e6815c26"},"vehicle_type_id":"4","last_reported":1724184599,"current_range_meters":11200,"station_id":"ce4bguh2rcd13ifvqckg","pricing_plan_id":"cebpf4jnsgd1na2vs0mg"},{"bike_id":"8028ae83-4a93-4ad6-9d7b-10b11c3e1b16","system_id":"levelo_inurba_marseille","lat":43.309034,"lon":5.371783,"is_reserved":false,"is_disabled":false,"rental_uris":{"android":"levelo://app?vid=8028ae83-4a93-4ad6-9d7b-10b11c3e1b16","ios":"levelo://app?vid=8028ae83-4a93-4ad6-9d7b-10b11c3e1b16"},"vehicle_type_id":"4","last_reported":1724184599,"current_range_meters":31600,"station_id":"ce4bguh2rcd13ifvqckg","pricing_plan_id":"cebpf4jnsgd1na2vs0mg"},{"bike_id":"0c15cc4d-8df1-49bd-a974-b5482aff812d","system_id":"levelo_inurba_marseille","lat":43.298433,"lon":5.362774,"is_reserved":false,"is_disabled":false,"rental_uris":{"android":"levelo://app?vid=0c15cc4d-8df1-49bd-a974-b5482aff812d","ios":"levelo://app?vid=0c15cc4d-8df1-49bd-a974-b5482aff812d"},"vehicle_type_id":"4","last_reported":1724184599,"current_range_meters":26000,"station_id":"ce4bgpp2rcd13ifvqc3g","pricing_plan_id":"cebpf4jnsgd1na2vs0mg"},{"bike_id":"13ed464a-9d00-4699-8605-b813ae7078e1","system_id":"levelo_inurba_marseille","lat":43.30567,"lon":5.365437,"is_reserved":false,"is_disabled":false,"rental_uris":{"android":"levelo://app?vid=13ed464a-9d00-4699-8605-b813ae7078e1","ios":"levelo://app?vid=13ed464a-9d00-4699-8605-b813ae7078e1"},"vehicle_type_id":"4","last_reported":1724184599,"current_range_meters":31200,"station_id":"ce4bgs12rcd13ifvqcag","pricing_plan_id":"cebpf4jnsgd1na2vs0mg"},{"bike_id":"eff2e85b-2bc8-4e7b-8e12-663d4d1f9aa5","system_id":"levelo_inurba_marseille","lat":43.305714,"lon":5.365633,"is_reserved":false,"is_disabled":false,"rental_uris":{"android":"levelo://app?vid=eff2e85b-2bc8-4e7b-8e12-663d4d1f9aa5","ios":"levelo://app?vid=eff2e85b-2bc8-4e7b-8e12-663d4d1f9aa5"},"vehicle_type_id":"4","last_reported":1724184599,"current_range_meters":5200,"station_id":"ce4bgs12rcd13ifvqcag","pricing_plan_id":"cebpf4jnsgd1na2vs0mg"},{"bike_id":"08bf09b6-2553-4782-8a89-78cc0805f8fd","system_id":"levelo_inurba_marseille","lat":43.30549,"lon":5.365255,"is_reserved":false,"is_disabled":false,"rental_uris":{"android":"levelo://app?vid=08bf09b6-2553-4782-8a89-78cc0805f8fd","ios":"levelo://app?vid=08bf09b6-2553-4782-8a89-78cc0805f8fd"},"vehicle_type_id":"4","last_reported":1724184599,"current_range_meters":31200,"station_id":"ce4bgs12rcd13ifvqcag","pricing_plan_id":"cebpf4jnsgd1na2vs0mg"},{"bike_id":"c917aae2-3fd7-42b1-ae81-ed7a0973418f","system_id":"levelo_inurba_marseille","lat":43.305714,"lon":5.365633,"is_reserved":false,"is_disabled":false,"rental_uris":{"android":"levelo://app?vid=c917aae2-3fd7-42b1-ae81-ed7a0973418f","ios":"levelo://app?vid=c917aae2-3fd7-42b1-ae81-ed7a0973418f"},"vehicle_type_id":"4","last_reported":1724184599,"current_range_meters":8400,"station_id":"ce4bgs12rcd13ifvqcag","pricing_plan_id":"cebpf4jnsgd1na2vs0mg"},{"bike_id":"b1f29964-7897-4e05-b442-430b73a302da","system_id":"levelo_inurba_marseille","lat":43.305706,"lon":5.365654,"is_reserved":false,"is_disabled":false,"rental_uris":{"android":"levelo://app?vid=b1f29964-7897-4e05-b442-430b73a302da","ios":"levelo://app?vid=b1f29964-7897-4e05-b442-430b73a302da"},"vehicle_type_id":"4","last_reported":1724184599,"current_range_meters":30000,"station_id":"ce4bgs12rcd13ifvqcag","pricing_plan_id":"cebpf4jnsgd1na2vs0mg"},{"bike_id":"08afd546-1187-4862-b405-c55dfcd5af85","system_id":"levelo_inurba_marseille","lat":43.31088,"lon":5.37703,"is_reserved":false,"is_disabled":false,"rental_uris":{"android":"levelo://app?vid=08afd546-1187-4862-b405-c55dfcd5af85","ios":"levelo://app?vid=08afd546-1187-4862-b405-c55dfcd5af85"},"vehicle_type_id":"4","last_reported":1724184599,"current_range_meters":31200,"station_id":"","pricing_plan_id":"cebpf4jnsgd1na2vs0mg"},{"bike_id":"380ac9a0-0afb-40d3-9128-5ecdf3e9488b","system_id":"levelo_inurba_marseille","lat":43.311125,"lon":5.377624,"is_reserved":false,"is_disabled":false,"rental_uris":{"android":"levelo://app?vid=380ac9a0-0afb-40d3-9128-5ecdf3e9488b","ios":"levelo://app?vid=380ac9a0-0afb-40d3-9128-5ecdf3e9488b"},"vehicle_type_id":"4","last_reported":1724184599,"current_range_meters":24800,"station_id":"ce4bgt92rcd13ifvqcg0","pricing_plan_id":"cebpf4jnsgd1na2vs0mg"},{"bike_id":"12c2b4c9-285f-4a4d-8db1-7622b93b99ab","system_id":"levelo_inurba_marseille","lat":43.311125,"lon":5.377624,"is_reserved":false,"is_disabled":false,"rental_uris":{"android":"levelo://app?vid=12c2b4c9-285f-4a4d-8db1-7622b93b99ab","ios":"levelo://app?vid=12c2b4c9-285f-4a4d-8db1-7622b93b99ab"},"vehicle_type_id":"4","last_reported":1724184599,"current_range_meters":22400,"station_id":"ce4bgt92rcd13ifvqcg0","pricing_plan_id":"cebpf4jnsgd1na2vs0mg"},{"bike_id":"8fa8cafa-48c5-4beb-ad1b-1121aff4cda8","system_id":"levelo_inurba_marseille","lat":43.311131,"lon":5.377651,"is_reserved":false,"is_disabled":false,"rental_uris":{"android":"levelo://app?vid=8fa8cafa-48c5-4beb-ad1b-1121aff4cda8","ios":"levelo://app?vid=8fa8cafa-48c5-4beb-ad1b-1121aff4cda8"},"vehicle_type_id":"4","last_reported":1724184599,"current_range_meters":17600,"station_id":"ce4bgt92rcd13ifvqcg0","pricing_plan_id":"cebpf4jnsgd1na2vs0mg"},{"bike_id":"99831d40-9bdf-413c-bced-3148dbfafd6d","system_id":"levelo_inurba_marseille","lat":43.307945,"lon":5.376487,"is_reserved":false,"is_disabled":false,"rental_uris":{"android":"levelo://app?vid=99831d40-9bdf-413c-bced-3148dbfafd6d","ios":"levelo://app?vid=99831d40-9bdf-413c-bced-3148dbfafd6d"},"vehicle_type_id":"4","last_reported":1724184599,"current_range_meters":8400,"station_id":"ce4bgv92rcd13ifvqcq0","pricing_plan_id":"cebpf4jnsgd1na2vs0mg"},{"bike_id":"2a2cb3fd-deb8-4cd8-adc7-4ae45cc9d010","system_id":"levelo_inurba_marseille","lat":43.307945,"lon":5.376487,"is_reserved":false,"is_disabled":false,"rental_uris":{"android":"levelo://app?vid=2a2cb3fd-deb8-4cd8-adc7-4ae45cc9d010","ios":"levelo://app?vid=2a2cb3fd-deb8-4cd8-adc7-4ae45cc9d010"},"vehicle_type_id":"4","last_reported":1724184599,"current_range_meters":16400,"station_id":"ce4bgv92rcd13ifvqcq0","pricing_plan_id":"cebpf4jnsgd1na2vs0mg"},{"bike_id":"2cf75ba1-00d2-4235-a182-594928543df0","system_id":"levelo_inurba_marseille","lat":43.307945,"lon":5.376487,"is_reserved":false,"is_disabled":false,"rental_uris":{"android":"levelo://app?vid=2cf75ba1-00d2-4235-a182-594928543df0","ios":"levelo://app?vid=2cf75ba1-00d2-4235-a182-594928543df0"},"vehicle_type_id":"4","last_reported":1724184599,"current_range_meters":24000,"station_id":"ce4bgv92rcd13ifvqcq0","pricing_plan_id":"cebpf4jnsgd1na2vs0mg"},{"bike_id":"9e84b196-c033-4fc3-9622-df7ebaface8b","system_id":"levelo_inurba_marseille","lat":43.30784,"lon":5.37661,"is_reserved":false,"is_disabled":false,"rental_uris":{"android":"levelo://app?vid=9e84b196-c033-4fc3-9622-df7ebaface8b","ios":"levelo://app?vid=9e84b196-c033-4fc3-9622-df7ebaface8b"},"vehicle_type_id":"4","last_reported":1724184599,"current_range_meters":22800,"station_id":"ce4bgv92rcd13ifvqcq0","pricing_plan_id":"cebpf4jnsgd1na2vs0mg"},{"bike_id":"fa9ab0dd-c488-4516-95a9-7768dd8bab70","system_id":"levelo_inurba_marseille","lat":43.317075,"lon":5.377367,"is_reserved":false,"is_disabled":false,"rental_uris":{"android":"levelo://app?vid=fa9ab0dd-c488-4516-95a9-7768dd8bab70","ios":"levelo://app?vid=fa9ab0dd-c488-4516-95a9-7768dd8bab70"},"vehicle_type_id":"4","last_reported":1724184599,"current_range_meters":30800,"station_id":"ce4bgth2rcd13ifvqch0","pricing_plan_id":"cebpf4jnsgd1na2vs0mg"},{"bike_id":"75cd5b07-e655-478f-9d12-84bf54703b08","system_id":"levelo_inurba_marseille","lat":43.3102,"lon":5.37923,"is_reserved":false,"is_disabled":false,"rental_uris":{"android":"levelo://app?vid=75cd5b07-e655-478f-9d12-84bf54703b08","ios":"levelo://app?vid=75cd5b07-e655-478f-9d12-84bf54703b08"},"vehicle_type_id":"4","last_reported":1724184599,"current_range_meters":30800,"station_id":"","pricing_plan_id":"cebpf4jnsgd1na2vs0mg"},{"bike_id":"d73da962-1365-4176-83dd-e760c8e357aa","system_id":"levelo_inurba_marseille","lat":43.30313,"lon":5.369117,"is_reserved":false,"is_disabled":false,"rental_uris":{"android":"levelo://app?vid=d73da962-1365-4176-83dd-e760c8e357aa","ios":"levelo://app?vid=d73da962-1365-4176-83dd-e760c8e357aa"},"vehicle_type_id":"4","last_reported":1724184599,"current_range_meters":0,"station_id":"ce4bgqh2rcd13ifvqc5g","pricing_plan_id":"cebpf4jnsgd1na2vs0mg"},{"bike_id":"db60cd21-71b1-4365-991e-42899f97ab37","system_id":"levelo_inurba_marseille","lat":43.303046,"lon":5.368981,"is_reserved":false,"is_disabled":false,"rental_uris":{"android":"levelo://app?vid=db60cd21-71b1-4365-991e-42899f97ab37","ios":"levelo://app?vid=db60cd21-71b1-4365-991e-42899f97ab37"},"vehicle_type_id":"4","last_reported":1724184599,"current_range_meters":8800,"station_id":"ce4bgqh2rcd13ifvqc5g","pricing_plan_id":"cebpf4jnsgd1na2vs0mg"},{"bike_id":"1a312b1f-53da-4d16-8517-0d280c128ec4","system_id":"levelo_inurba_marseille","lat":43.315289,"lon":5.380349,"is_reserved":false,"is_disabled":false,"rental_uris":{"android":"levelo://app?vid=1a312b1f-53da-4d16-8517-0d280c128ec4","ios":"levelo://app?vid=1a312b1f-53da-4d16-8517-0d280c128ec4"},"vehicle_type_id":"4","last_reported":1724184599,"current_range_meters":26400,"station_id":"ce4bhsp2rcd13ifvqi50","pricing_plan_id":"cebpf4jnsgd1na2vs0mg"},{"bike_id":"b02e451a-def5-4a0f-b3fa-6a866225de08","system_id":"levelo_inurba_marseille","lat":43.315289,"lon":5.380349,"is_reserved":false,"is_disabled":false,"rental_uris":{"android":"levelo://app?vid=b02e451a-def5-4a0f-b3fa-6a866225de08","ios":"levelo://app?vid=b02e451a-def5-4a0f-b3fa-6a866225de08"},"vehicle_type_id":"4","last_reported":1724184599,"current_range_meters":14000,"station_id":"ce4bhsp2rcd13ifvqi50","pricing_plan_id":"cebpf4jnsgd1na2vs0mg"},{"bike_id":"05c8924a-606a-4fd9-a75c-a14e09b30a0c","system_id":"levelo_inurba_marseille","lat":43.301939,"lon":5.366286,"is_reserved":false,"is_disabled":false,"rental_uris":{"android":"levelo://app?vid=05c8924a-606a-4fd9-a75c-a14e09b30a0c","ios":"levelo://app?vid=05c8924a-606a-4fd9-a75c-a14e09b30a0c"},"vehicle_type_id":"4","last_reported":1724184599,"current_range_meters":23600,"station_id":"ce4bgrh2rcd13ifvqc8g","pricing_plan_id":"cebpf4jnsgd1na2vs0mg"},{"bike_id":"35beb1da-9519-4068-a399-56f9f4d36ddb","system_id":"levelo_inurba_marseille","lat":43.301939,"lon":5.366286,"is_reserved":false,"is_disabled":false,"rental_uris":{"android":"levelo://app?vid=35beb1da-9519-4068-a399-56f9f4d36ddb","ios":"levelo://app?vid=35beb1da-9519-4068-a399-56f9f4d36ddb"},"vehicle_type_id":"4","last_reported":1724184599,"current_range_meters":24400,"station_id":"ce4bgrh2rcd13ifvqc8g","pricing_plan_id":"cebpf4jnsgd1na2vs0mg"},{"bike_id":"438e463a-8746-4646-b21b-a410c79207d6","system_id":"levelo_inurba_marseille","lat":43.301939,"lon":5.366286,"is_reserved":false,"is_disabled":false,"rental_uris":{"android":"levelo://app?vid=438e463a-8746-4646-b21b-a410c79207d6","ios":"levelo://app?vid=438e463a-8746-4646-b21b-a410c79207d6"},"vehicle_type_id":"4","last_reported":1724184599,"current_range_meters":28400,"station_id":"ce4bgrh2rcd13ifvqc8g","pricing_plan_id":"cebpf4jnsgd1na2vs0mg"},{"bike_id":"a8099f67-a09b-496e-8b37-487608cf5422","system_id":"levelo_inurba_marseille","lat":43.308012,"lon":5.381511,"is_reserved":false,"is_disabled":false,"rental_uris":{"android":"levelo://app?vid=a8099f67-a09b-496e-8b37-487608cf5422","ios":"levelo://app?vid=a8099f67-a09b-496e-8b37-487608cf5422"},"vehicle_type_id":"4","last_reported":1724184599,"current_range_meters":0,"station_id":"ce4bgt12rcd13ifvqce0","pricing_plan_id":"cebpf4jnsgd1na2vs0mg"},{"bike_id":"56b3118c-9195-44be-8f4f-4f6e2d23d7e8","system_id":"levelo_inurba_marseille","lat":43.324771,"lon":5.36557,"is_reserved":false,"is_disabled":false,"rental_uris":{"android":"levelo://app?vid=56b3118c-9195-44be-8f4f-4f6e2d23d7e8","ios":"levelo://app?vid=56b3118c-9195-44be-8f4f-4f6e2d23d7e8"},"vehicle_type_id":"4","last_reported":1724184599,"current_range_meters":8000,"station_id":"ce4bhs12rcd13ifvqhvg","pricing_plan_id":"cebpf4jnsgd1na2vs0mg"},{"bike_id":"66ef9885-7735-4d61-b52d-704bb6c97e10","system_id":"levelo_inurba_marseille","lat":43.324771,"lon":5.36557,"is_reserved":false,"is_disabled":false,"rental_uris":{"android":"levelo://app?vid=66ef9885-7735-4d61-b52d-704bb6c97e10","ios":"levelo://app?vid=66ef9885-7735-4d61-b52d-704bb6c97e10"},"vehicle_type_id":"4","last_reported":1724184599,"current_range_meters":14800,"station_id":"ce4bhs12rcd13ifvqhvg","pricing_plan_id":"cebpf4jnsgd1na2vs0mg"},{"bike_id":"dc18ef80-7b17-4500-950b-a5b475701f80","system_id":"levelo_inurba_marseille","lat":43.324771,"lon":5.36557,"is_reserved":false,"is_disabled":false,"rental_uris":{"android":"levelo://app?vid=dc18ef80-7b17-4500-950b-a5b475701f80","ios":"levelo://app?vid=dc18ef80-7b17-4500-950b-a5b475701f80"},"vehicle_type_id":"4","last_reported":1724184599,"current_range_meters":6800,"station_id":"ce4bhs12rcd13ifvqhvg","pricing_plan_id":"cebpf4jnsgd1na2vs0mg"},{"bike_id":"99f85634-82f5-4457-8803-fca8ab05250f","system_id":"levelo_inurba_marseille","lat":43.310804,"lon":5.38359,"is_reserved":false,"is_disabled":false,"rental_uris":{"android":"levelo://app?vid=99f85634-82f5-4457-8803-fca8ab05250f","ios":"levelo://app?vid=99f85634-82f5-4457-8803-fca8ab05250f"},"vehicle_type_id":"4","last_reported":1724184599,"current_range_meters":12400,"station_id":"ce4bgv92rcd13ifvqcr0","pricing_plan_id":"cebpf4jnsgd1na2vs0mg"},{"bike_id":"534fb49a-2bd9-4746-8b36-14a9118ce17a","system_id":"levelo_inurba_marseille","lat":43.310804,"lon":5.38359,"is_reserved":false,"is_disabled":false,"rental_uris":{"android":"levelo://app?vid=534fb49a-2bd9-4746-8b36-14a9118ce17a","ios":"levelo://app?vid=534fb49a-2bd9-4746-8b36-14a9118ce17a"},"vehicle_type_id":"4","last_reported":1724184599,"current_range_meters":25200,"station_id":"ce4bgv92rcd13ifvqcr0","pricing_plan_id":"cebpf4jnsgd1na2vs0mg"},{"bike_id":"edb3dc63-2107-4de7-bac6-e5510d05851f","system_id":"levelo_inurba_marseille","lat":43.302784,"lon":5.377158,"is_reserved":false,"is_disabled":false,"rental_uris":{"android":"levelo://app?vid=edb3dc63-2107-4de7-bac6-e5510d05851f","ios":"levelo://app?vid=edb3dc63-2107-4de7-bac6-e5510d05851f"},"vehicle_type_id":"4","last_reported":1724184599,"current_range_meters":20800,"station_id":"ce4bguh2rcd13ifvqcj0","pricing_plan_id":"cebpf4jnsgd1na2vs0mg"},{"bike_id":"c189cf30-2a3c-489c-9290-aa5845b44724","system_id":"levelo_inurba_marseille","lat":43.302784,"lon":5.377158,"is_reserved":false,"is_disabled":false,"rental_uris":{"android":"levelo://app?vid=c189cf30-2a3c-489c-9290-aa5845b44724","ios":"levelo://app?vid=c189cf30-2a3c-489c-9290-aa5845b44724"},"vehicle_type_id":"4","last_reported":1724184599,"current_range_meters":26000,"station_id":"ce4bguh2rcd13ifvqcj0","pricing_plan_id":"cebpf4jnsgd1na2vs0mg"},{"bike_id":"80026ccc-77ee-4a9d-a599-d1c00bcb5cf0","system_id":"levelo_inurba_marseille","lat":43.308012,"lon":5.381511,"is_reserved":false,"is_disabled":false,"rental_uris":{"android":"levelo://app?vid=80026ccc-77ee-4a9d-a599-d1c00bcb5cf0","ios":"levelo://app?vid=80026ccc-77ee-4a9d-a599-d1c00bcb5cf0"},"vehicle_type_id":"4","last_reported":1724184599,"current_range_meters":21600,"station_id":"ce4bgt12rcd13ifvqce0","pricing_plan_id":"cebpf4jnsgd1na2vs0mg"},{"bike_id":"e46e4663-4b59-4890-8ea3-c1021b3d91ef","system_id":"levelo_inurba_marseille","lat":43.319935,"lon":5.381699,"is_reserved":false,"is_disabled":false,"rental_uris":{"android":"levelo://app?vid=e46e4663-4b59-4890-8ea3-c1021b3d91ef","ios":"levelo://app?vid=e46e4663-4b59-4890-8ea3-c1021b3d91ef"},"vehicle_type_id":"4","last_reported":1724184599,"current_range_meters":27600,"station_id":"ce4bhr12rcd13ifvqhpg","pricing_plan_id":"cebpf4jnsgd1na2vs0mg"},{"bike_id":"e0b78655-c169-4347-89af-7d849d57ccba","system_id":"levelo_inurba_marseille","lat":43.313571,"lon":5.384829,"is_reserved":false,"is_disabled":false,"rental_uris":{"android":"levelo://app?vid=e0b78655-c169-4347-89af-7d849d57ccba","ios":"levelo://app?vid=e0b78655-c169-4347-89af-7d849d57ccba"},"vehicle_type_id":"4","last_reported":1724184599,"current_range_meters":5200,"station_id":"ce4bgt92rcd13ifvqcf0","pricing_plan_id":"cebpf4jnsgd1na2vs0mg"},{"bike_id":"773eb99e-02af-4fc8-a2d2-db2dea2c46f9","system_id":"levelo_inurba_marseille","lat":43.31362,"lon":5.38491,"is_reserved":false,"is_disabled":false,"rental_uris":{"android":"levelo://app?vid=773eb99e-02af-4fc8-a2d2-db2dea2c46f9","ios":"levelo://app?vid=773eb99e-02af-4fc8-a2d2-db2dea2c46f9"},"vehicle_type_id":"4","last_reported":1724184599,"current_range_meters":23200,"station_id":"ce4bgt92rcd13ifvqcf0","pricing_plan_id":"cebpf4jnsgd1na2vs0mg"},{"bike_id":"7ca327b1-20af-4705-88ab-755c9b6ab95c","system_id":"levelo_inurba_marseille","lat":43.313571,"lon":5.384829,"is_reserved":false,"is_disabled":false,"rental_uris":{"android":"levelo://app?vid=7ca327b1-20af-4705-88ab-755c9b6ab95c","ios":"levelo://app?vid=7ca327b1-20af-4705-88ab-755c9b6ab95c"},"vehicle_type_id":"4","last_reported":1724184599,"current_range_meters":6800,"station_id":"ce4bgt92rcd13ifvqcf0","pricing_plan_id":"cebpf4jnsgd1na2vs0mg"},{"bike_id":"540569aa-b222-461d-9523-4d0c98b00fd2","system_id":"levelo_inurba_marseille","lat":43.313571,"lon":5.384829,"is_reserved":false,"is_disabled":false,"rental_uris":{"android":"levelo://app?vid=540569aa-b222-461d-9523-4d0c98b00fd2","ios":"levelo://app?vid=540569aa-b222-461d-9523-4d0c98b00fd2"},"vehicle_type_id":"4","last_reported":1724184599,"current_range_meters":31600,"station_id":"ce4bgt92rcd13ifvqcf0","pricing_plan_id":"cebpf4jnsgd1na2vs0mg"},{"bike_id":"03a742fa-1190-4c07-b6e9-54425bd42d48","system_id":"levelo_inurba_marseille","lat":43.30546,"lon":5.38199,"is_reserved":false,"is_disabled":false,"rental_uris":{"android":"levelo://app?vid=03a742fa-1190-4c07-b6e9-54425bd42d48","ios":"levelo://app?vid=03a742fa-1190-4c07-b6e9-54425bd42d48"},"vehicle_type_id":"4","last_reported":1724184599,"current_range_meters":25200,"station_id":"","pricing_plan_id":"cebpf4jnsgd1na2vs0mg"},{"bike_id":"5219cef4-0439-4ed6-b2b3-b1f196fd620d","system_id":"levelo_inurba_marseille","lat":43.31362,"lon":5.38507,"is_reserved":false,"is_disabled":false,"rental_uris":{"android":"levelo://app?vid=5219cef4-0439-4ed6-b2b3-b1f196fd620d","ios":"levelo://app?vid=5219cef4-0439-4ed6-b2b3-b1f196fd620d"},"vehicle_type_id":"4","last_reported":1724184599,"current_range_meters":0,"station_id":"ce4bgt92rcd13ifvqcf0","pricing_plan_id":"cebpf4jnsgd1na2vs0mg"},{"bike_id":"a6f593e9-9871-4456-8700-10b7beedb502","system_id":"levelo_inurba_marseille","lat":43.2998,"lon":5.37174,"is_reserved":false,"is_disabled":false,"rental_uris":{"android":"levelo://app?vid=a6f593e9-9871-4456-8700-10b7beedb502","ios":"levelo://app?vid=a6f593e9-9871-4456-8700-10b7beedb502"},"vehicle_type_id":"4","last_reported":1724184599,"current_range_meters":30000,"station_id":"ce4bgr92rcd13ifvqc7g","pricing_plan_id":"cebpf4jnsgd1na2vs0mg"},{"bike_id":"4e21e326-e557-4500-99c7-1ef1891953a6","system_id":"levelo_inurba_marseille","lat":43.299222,"lon":5.365554,"is_reserved":false,"is_disabled":false,"rental_uris":{"android":"levelo://app?vid=4e21e326-e557-4500-99c7-1ef1891953a6","ios":"levelo://app?vid=4e21e326-e557-4500-99c7-1ef1891953a6"},"vehicle_type_id":"4","last_reported":1724184599,"current_range_meters":30000,"station_id":"ce4bgm92rcd13ifvqbr0","pricing_plan_id":"cebpf4jnsgd1na2vs0mg"},{"bike_id":"f8551caa-51b5-4d0c-a80f-d47a9ee78d30","system_id":"levelo_inurba_marseille","lat":43.299724,"lon":5.371829,"is_reserved":false,"is_disabled":false,"rental_uris":{"android":"levelo://app?vid=f8551caa-51b5-4d0c-a80f-d47a9ee78d30","ios":"levelo://app?vid=f8551caa-51b5-4d0c-a80f-d47a9ee78d30"},"vehicle_type_id":"4","last_reported":1724184599,"current_range_meters":28000,"station_id":"ce4bgr92rcd13ifvqc7g","pricing_plan_id":"cebpf4jnsgd1na2vs0mg"},{"bike_id":"2a8c0b06-9fcd-4dd7-81ab-2d7ab27da0db","system_id":"levelo_inurba_marseille","lat":43.299222,"lon":5.365554,"is_reserved":false,"is_disabled":false,"rental_uris":{"android":"levelo://app?vid=2a8c0b06-9fcd-4dd7-81ab-2d7ab27da0db","ios":"levelo://app?vid=2a8c0b06-9fcd-4dd7-81ab-2d7ab27da0db"},"vehicle_type_id":"4","last_reported":1724184599,"current_range_meters":20000,"station_id":"ce4bgm92rcd13ifvqbr0","pricing_plan_id":"cebpf4jnsgd1na2vs0mg"},{"bike_id":"73024179-89c5-490c-857c-6b48f14b51d9","system_id":"levelo_inurba_marseille","lat":43.298433,"lon":5.362774,"is_reserved":false,"is_disabled":false,"rental_uris":{"android":"levelo://app?vid=73024179-89c5-490c-857c-6b48f14b51d9","ios":"levelo://app?vid=73024179-89c5-490c-857c-6b48f14b51d9"},"vehicle_type_id":"4","last_reported":1724184599,"current_range_meters":14800,"station_id":"ce4bgpp2rcd13ifvqc3g","pricing_plan_id":"cebpf4jnsgd1na2vs0mg"},{"bike_id":"cb8503a1-9b38-4b38-8adc-3e9196ed729a","system_id":"levelo_inurba_marseille","lat":43.298433,"lon":5.362774,"is_reserved":false,"is_disabled":false,"rental_uris":{"android":"levelo://app?vid=cb8503a1-9b38-4b38-8adc-3e9196ed729a","ios":"levelo://app?vid=cb8503a1-9b38-4b38-8adc-3e9196ed729a"},"vehicle_type_id":"4","last_reported":1724184599,"current_range_meters":28400,"station_id":"ce4bgpp2rcd13ifvqc3g","pricing_plan_id":"cebpf4jnsgd1na2vs0mg"},{"bike_id":"a3a8741d-f8c8-4b47-94a6-ba816ff90a5d","system_id":"levelo_inurba_marseille","lat":43.298433,"lon":5.362774,"is_reserved":false,"is_disabled":false,"rental_uris":{"android":"levelo://app?vid=a3a8741d-f8c8-4b47-94a6-ba816ff90a5d","ios":"levelo://app?vid=a3a8741d-f8c8-4b47-94a6-ba816ff90a5d"},"vehicle_type_id":"4","last_reported":1724184599,"current_range_meters":18000,"station_id":"ce4bgpp2rcd13ifvqc3g","pricing_plan_id":"cebpf4jnsgd1na2vs0mg"},{"bike_id":"4089e575-1e7e-44cf-bf13-86285053d471","system_id":"levelo_inurba_marseille","lat":43.305364,"lon":5.384119,"is_reserved":false,"is_disabled":false,"rental_uris":{"android":"levelo://app?vid=4089e575-1e7e-44cf-bf13-86285053d471","ios":"levelo://app?vid=4089e575-1e7e-44cf-bf13-86285053d471"},"vehicle_type_id":"4","last_reported":1724184599,"current_range_meters":800,"station_id":"ce4bgg92rcd13ifvqb30","pricing_plan_id":"cebpf4jnsgd1na2vs0mg"},{"bike_id":"eb655683-06e8-4ecd-8898-c08095156495","system_id":"levelo_inurba_marseille","lat":43.305364,"lon":5.384119,"is_reserved":false,"is_disabled":false,"rental_uris":{"android":"levelo://app?vid=eb655683-06e8-4ecd-8898-c08095156495","ios":"levelo://app?vid=eb655683-06e8-4ecd-8898-c08095156495"},"vehicle_type_id":"4","last_reported":1724184599,"current_range_meters":0,"station_id":"ce4bgg92rcd13ifvqb30","pricing_plan_id":"cebpf4jnsgd1na2vs0mg"},{"bike_id":"74e269d4-3bc6-4d4a-a239-72f32d3b90d2","system_id":"levelo_inurba_marseille","lat":43.305364,"lon":5.384119,"is_reserved":false,"is_disabled":false,"rental_uris":{"android":"levelo://app?vid=74e269d4-3bc6-4d4a-a239-72f32d3b90d2","ios":"levelo://app?vid=74e269d4-3bc6-4d4a-a239-72f32d3b90d2"},"vehicle_type_id":"4","last_reported":1724184599,"current_range_meters":0,"station_id":"ce4bgg92rcd13ifvqb30","pricing_plan_id":"cebpf4jnsgd1na2vs0mg"},{"bike_id":"392475f1-f0f9-413a-a0b3-c100e196f40e","system_id":"levelo_inurba_marseille","lat":43.299243,"lon":5.37481,"is_reserved":false,"is_disabled":false,"rental_uris":{"android":"levelo://app?vid=392475f1-f0f9-413a-a0b3-c100e196f40e","ios":"levelo://app?vid=392475f1-f0f9-413a-a0b3-c100e196f40e"},"vehicle_type_id":"4","last_reported":1724184599,"current_range_meters":3600,"station_id":"ce4bgjh2rcd13ifvqbg0","pricing_plan_id":"cebpf4jnsgd1na2vs0mg"},{"bike_id":"b45d591e-6f98-4b05-af10-4b61962980be","system_id":"levelo_inurba_marseille","lat":43.305364,"lon":5.384119,"is_reserved":false,"is_disabled":false,"rental_uris":{"android":"levelo://app?vid=b45d591e-6f98-4b05-af10-4b61962980be","ios":"levelo://app?vid=b45d591e-6f98-4b05-af10-4b61962980be"},"vehicle_type_id":"4","last_reported":1724184599,"current_range_meters":28400,"station_id":"ce4bgg92rcd13ifvqb30","pricing_plan_id":"cebpf4jnsgd1na2vs0mg"},{"bike_id":"0abc7191-c039-434c-b0e8-6444185ef43b","system_id":"levelo_inurba_marseille","lat":43.311722,"lon":5.387247,"is_reserved":false,"is_disabled":false,"rental_uris":{"android":"levelo://app?vid=0abc7191-c039-434c-b0e8-6444185ef43b","ios":"levelo://app?vid=0abc7191-c039-434c-b0e8-6444185ef43b"},"vehicle_type_id":"4","last_reported":1724184599,"current_range_meters":11200,"station_id":"ce4bgv12rcd13ifvqcp0","pricing_plan_id":"cebpf4jnsgd1na2vs0mg"},{"bike_id":"1dfa9383-b3c7-4408-9090-0c2b86faaa5a","system_id":"levelo_inurba_marseille","lat":43.299243,"lon":5.374807,"is_reserved":false,"is_disabled":false,"rental_uris":{"android":"levelo://app?vid=1dfa9383-b3c7-4408-9090-0c2b86faaa5a","ios":"levelo://app?vid=1dfa9383-b3c7-4408-9090-0c2b86faaa5a"},"vehicle_type_id":"4","last_reported":1724184599,"current_range_meters":28000,"station_id":"ce4bgjh2rcd13ifvqbg0","pricing_plan_id":"cebpf4jnsgd1na2vs0mg"},{"bike_id":"dd7f0d25-d5b4-4296-a5fe-85c902c0c71e","system_id":"levelo_inurba_marseille","lat":43.29832,"lon":5.36248,"is_reserved":false,"is_disabled":false,"rental_uris":{"android":"levelo://app?vid=dd7f0d25-d5b4-4296-a5fe-85c902c0c71e","ios":"levelo://app?vid=dd7f0d25-d5b4-4296-a5fe-85c902c0c71e"},"vehicle_type_id":"4","last_reported":1724184599,"current_range_meters":24400,"station_id":"ce4bgpp2rcd13ifvqc3g","pricing_plan_id":"cebpf4jnsgd1na2vs0mg"},{"bike_id":"4bbc7280-25ec-4650-984b-611268cba327","system_id":"levelo_inurba_marseille","lat":43.311722,"lon":5.387247,"is_reserved":false,"is_disabled":false,"rental_uris":{"android":"levelo://app?vid=4bbc7280-25ec-4650-984b-611268cba327","ios":"levelo://app?vid=4bbc7280-25ec-4650-984b-611268cba327"},"vehicle_type_id":"4","last_reported":1724184599,"current_range_meters":24400,"station_id":"ce4bgv12rcd13ifvqcp0","pricing_plan_id":"cebpf4jnsgd1na2vs0mg"},{"bike_id":"6409471f-26cc-4632-98bf-f3012b6e7033","system_id":"levelo_inurba_marseille","lat":43.311722,"lon":5.387247,"is_reserved":false,"is_disabled":false,"rental_uris":{"android":"levelo://app?vid=6409471f-26cc-4632-98bf-f3012b6e7033","ios":"levelo://app?vid=6409471f-26cc-4632-98bf-f3012b6e7033"},"vehicle_type_id":"4","last_reported":1724184599,"current_range_meters":10400,"station_id":"ce4bgv12rcd13ifvqcp0","pricing_plan_id":"cebpf4jnsgd1na2vs0mg"},{"bike_id":"a42e2646-3bd0-4c87-b22e-7f0c8fd89cd5","system_id":"levelo_inurba_marseille","lat":43.311722,"lon":5.387247,"is_reserved":false,"is_disabled":false,"rental_uris":{"android":"levelo://app?vid=a42e2646-3bd0-4c87-b22e-7f0c8fd89cd5","ios":"levelo://app?vid=a42e2646-3bd0-4c87-b22e-7f0c8fd89cd5"},"vehicle_type_id":"4","last_reported":1724184599,"current_range_meters":7600,"station_id":"ce4bgv12rcd13ifvqcp0","pricing_plan_id":"cebpf4jnsgd1na2vs0mg"},{"bike_id":"5e269e30-1533-4f95-8438-47c7ee7b0853","system_id":"levelo_inurba_marseille","lat":43.29824,"lon":5.36238,"is_reserved":false,"is_disabled":false,"rental_uris":{"android":"levelo://app?vid=5e269e30-1533-4f95-8438-47c7ee7b0853","ios":"levelo://app?vid=5e269e30-1533-4f95-8438-47c7ee7b0853"},"vehicle_type_id":"4","last_reported":1724184599,"current_range_meters":29200,"station_id":"ce4bgpp2rcd13ifvqc3g","pricing_plan_id":"cebpf4jnsgd1na2vs0mg"},{"bike_id":"b0246119-1443-40a8-be56-0bb47a4c0c82","system_id":"levelo_inurba_marseille","lat":43.311722,"lon":5.387247,"is_reserved":false,"is_disabled":false,"rental_uris":{"android":"levelo://app?vid=b0246119-1443-40a8-be56-0bb47a4c0c82","ios":"levelo://app?vid=b0246119-1443-40a8-be56-0bb47a4c0c82"},"vehicle_type_id":"4","last_reported":1724184599,"current_range_meters":19200,"station_id":"ce4bgv12rcd13ifvqcp0","pricing_plan_id":"cebpf4jnsgd1na2vs0mg"},{"bike_id":"3bede474-ed62-41cf-9063-46ef3c8806aa","system_id":"levelo_inurba_marseille","lat":43.297774,"lon":5.370875,"is_reserved":false,"is_disabled":false,"rental_uris":{"android":"levelo://app?vid=3bede474-ed62-41cf-9063-46ef3c8806aa","ios":"levelo://app?vid=3bede474-ed62-41cf-9063-46ef3c8806aa"},"vehicle_type_id":"4","last_reported":1724184599,"current_range_meters":30800,"station_id":"ce4bgop2rcd13ifvqc1g","pricing_plan_id":"cebpf4jnsgd1na2vs0mg"},{"bike_id":"72ee5bcc-c564-4def-a85b-42a7c2e5d2fc","system_id":"levelo_inurba_marseille","lat":43.298935,"lon":5.375989,"is_reserved":false,"is_disabled":false,"rental_uris":{"android":"levelo://app?vid=72ee5bcc-c564-4def-a85b-42a7c2e5d2fc","ios":"levelo://app?vid=72ee5bcc-c564-4def-a85b-42a7c2e5d2fc"},"vehicle_type_id":"4","last_reported":1724184599,"current_range_meters":8000,"station_id":"","pricing_plan_id":"cebpf4jnsgd1na2vs0mg"},{"bike_id":"9de35079-ff0b-4f26-9e89-a57d9850ad50","system_id":"levelo_inurba_marseille","lat":43.322872,"lon":5.382756,"is_reserved":false,"is_disabled":false,"rental_uris":{"android":"levelo://app?vid=9de35079-ff0b-4f26-9e89-a57d9850ad50","ios":"levelo://app?vid=9de35079-ff0b-4f26-9e89-a57d9850ad50"},"vehicle_type_id":"4","last_reported":1724184599,"current_range_meters":27600,"station_id":"ce4bhr12rcd13ifvqhqg","pricing_plan_id":"cebpf4jnsgd1na2vs0mg"},{"bike_id":"38b10a66-6051-4349-afd2-1d54758bdc3a","system_id":"levelo_inurba_marseille","lat":43.322872,"lon":5.382756,"is_reserved":false,"is_disabled":false,"rental_uris":{"android":"levelo://app?vid=38b10a66-6051-4349-afd2-1d54758bdc3a","ios":"levelo://app?vid=38b10a66-6051-4349-afd2-1d54758bdc3a"},"vehicle_type_id":"4","last_reported":1724184599,"current_range_meters":26800,"station_id":"ce4bhr12rcd13ifvqhqg","pricing_plan_id":"cebpf4jnsgd1na2vs0mg"},{"bike_id":"e90fb3b6-4ba5-4768-8484-edf2d46fa148","system_id":"levelo_inurba_marseille","lat":43.322872,"lon":5.382756,"is_reserved":false,"is_disabled":false,"rental_uris":{"android":"levelo://app?vid=e90fb3b6-4ba5-4768-8484-edf2d46fa148","ios":"levelo://app?vid=e90fb3b6-4ba5-4768-8484-edf2d46fa148"},"vehicle_type_id":"4","last_reported":1724184599,"current_range_meters":16800,"station_id":"ce4bhr12rcd13ifvqhqg","pricing_plan_id":"cebpf4jnsgd1na2vs0mg"},{"bike_id":"bf4f6403-c5ef-464e-b431-841f53d807fd","system_id":"levelo_inurba_marseille","lat":43.29811,"lon":5.37409,"is_reserved":false,"is_disabled":false,"rental_uris":{"android":"levelo://app?vid=bf4f6403-c5ef-464e-b431-841f53d807fd","ios":"levelo://app?vid=bf4f6403-c5ef-464e-b431-841f53d807fd"},"vehicle_type_id":"4","last_reported":1724184599,"current_range_meters":0,"station_id":"","pricing_plan_id":"cebpf4jnsgd1na2vs0mg"},{"bike_id":"13833267-e9a5-43c7-b6c8-c79baaf0d0df","system_id":"levelo_inurba_marseille","lat":43.297163,"lon":5.365866,"is_reserved":false,"is_disabled":false,"rental_uris":{"android":"levelo://app?vid=13833267-e9a5-43c7-b6c8-c79baaf0d0df","ios":"levelo://app?vid=13833267-e9a5-43c7-b6c8-c79baaf0d0df"},"vehicle_type_id":"4","last_reported":1724184599,"current_range_meters":6400,"station_id":"ce4bgn12rcd13ifvqbt0","pricing_plan_id":"cebpf4jnsgd1na2vs0mg"},{"bike_id":"b2ad7f90-2a77-4f9f-9d13-8cf163237556","system_id":"levelo_inurba_marseille","lat":43.297163,"lon":5.365866,"is_reserved":false,"is_disabled":false,"rental_uris":{"android":"levelo://app?vid=b2ad7f90-2a77-4f9f-9d13-8cf163237556","ios":"levelo://app?vid=b2ad7f90-2a77-4f9f-9d13-8cf163237556"},"vehicle_type_id":"4","last_reported":1724184599,"current_range_meters":29600,"station_id":"ce4bgn12rcd13ifvqbt0","pricing_plan_id":"cebpf4jnsgd1na2vs0mg"},{"bike_id":"b9841ba8-b523-4746-855d-b8666e0b40c0","system_id":"levelo_inurba_marseille","lat":43.297163,"lon":5.365866,"is_reserved":false,"is_disabled":false,"rental_uris":{"android":"levelo://app?vid=b9841ba8-b523-4746-855d-b8666e0b40c0","ios":"levelo://app?vid=b9841ba8-b523-4746-855d-b8666e0b40c0"},"vehicle_type_id":"4","last_reported":1724184599,"current_range_meters":12400,"station_id":"ce4bgn12rcd13ifvqbt0","pricing_plan_id":"cebpf4jnsgd1na2vs0mg"},{"bike_id":"2fc9d05e-ad70-452c-8cf5-ad214e6ac57b","system_id":"levelo_inurba_marseille","lat":43.297163,"lon":5.365866,"is_reserved":false,"is_disabled":false,"rental_uris":{"android":"levelo://app?vid=2fc9d05e-ad70-452c-8cf5-ad214e6ac57b","ios":"levelo://app?vid=2fc9d05e-ad70-452c-8cf5-ad214e6ac57b"},"vehicle_type_id":"4","last_reported":1724184599,"current_range_meters":16000,"station_id":"ce4bgn12rcd13ifvqbt0","pricing_plan_id":"cebpf4jnsgd1na2vs0mg"},{"bike_id":"989a3953-5a07-44d3-b043-a230a95d98a1","system_id":"levelo_inurba_marseille","lat":43.297163,"lon":5.365866,"is_reserved":false,"is_disabled":false,"rental_uris":{"android":"levelo://app?vid=989a3953-5a07-44d3-b043-a230a95d98a1","ios":"levelo://app?vid=989a3953-5a07-44d3-b043-a230a95d98a1"},"vehicle_type_id":"4","last_reported":1724184599,"current_range_meters":31200,"station_id":"ce4bgn12rcd13ifvqbt0","pricing_plan_id":"cebpf4jnsgd1na2vs0mg"},{"bike_id":"47bfd45e-eba3-4c86-b7a8-78afa96543a2","system_id":"levelo_inurba_marseille","lat":43.297163,"lon":5.365866,"is_reserved":false,"is_disabled":false,"rental_uris":{"android":"levelo://app?vid=47bfd45e-eba3-4c86-b7a8-78afa96543a2","ios":"levelo://app?vid=47bfd45e-eba3-4c86-b7a8-78afa96543a2"},"vehicle_type_id":"4","last_reported":1724184599,"current_range_meters":30000,"station_id":"ce4bgn12rcd13ifvqbt0","pricing_plan_id":"cebpf4jnsgd1na2vs0mg"},{"bike_id":"c90e8b16-8aba-45ef-b5e0-222c9d4a28f4","system_id":"levelo_inurba_marseille","lat":43.297163,"lon":5.365866,"is_reserved":false,"is_disabled":false,"rental_uris":{"android":"levelo://app?vid=c90e8b16-8aba-45ef-b5e0-222c9d4a28f4","ios":"levelo://app?vid=c90e8b16-8aba-45ef-b5e0-222c9d4a28f4"},"vehicle_type_id":"4","last_reported":1724184599,"current_range_meters":1600,"station_id":"ce4bgn12rcd13ifvqbt0","pricing_plan_id":"cebpf4jnsgd1na2vs0mg"},{"bike_id":"173c87e2-330e-4e49-92a9-1f77ef590222","system_id":"levelo_inurba_marseille","lat":43.29672,"lon":5.36435,"is_reserved":false,"is_disabled":false,"rental_uris":{"android":"levelo://app?vid=173c87e2-330e-4e49-92a9-1f77ef590222","ios":"levelo://app?vid=173c87e2-330e-4e49-92a9-1f77ef590222"},"vehicle_type_id":"4","last_reported":1724184599,"current_range_meters":26000,"station_id":"","pricing_plan_id":"cebpf4jnsgd1na2vs0mg"},{"bike_id":"9a64c590-cf8c-492d-997b-acebba765c26","system_id":"levelo_inurba_marseille","lat":43.29573,"lon":5.367355,"is_reserved":false,"is_disabled":false,"rental_uris":{"android":"levelo://app?vid=9a64c590-cf8c-492d-997b-acebba765c26","ios":"levelo://app?vid=9a64c590-cf8c-492d-997b-acebba765c26"},"vehicle_type_id":"4","last_reported":1724184599,"current_range_meters":31200,"station_id":"ce4bgph2rcd13ifvqc2g","pricing_plan_id":"cebpf4jnsgd1na2vs0mg"},{"bike_id":"245cfcf3-1e39-4779-91f4-7d8c461b83d0","system_id":"levelo_inurba_marseille","lat":43.29631,"lon":5.37184,"is_reserved":false,"is_disabled":false,"rental_uris":{"android":"levelo://app?vid=245cfcf3-1e39-4779-91f4-7d8c461b83d0","ios":"levelo://app?vid=245cfcf3-1e39-4779-91f4-7d8c461b83d0"},"vehicle_type_id":"4","last_reported":1724184599,"current_range_meters":24400,"station_id":"ce4bgnh2rcd13ifvqc0g","pricing_plan_id":"cebpf4jnsgd1na2vs0mg"},{"bike_id":"811dbe81-98a0-4fc9-9ee8-f5afbef887f4","system_id":"levelo_inurba_marseille","lat":43.29573,"lon":5.367355,"is_reserved":false,"is_disabled":false,"rental_uris":{"android":"levelo://app?vid=811dbe81-98a0-4fc9-9ee8-f5afbef887f4","ios":"levelo://app?vid=811dbe81-98a0-4fc9-9ee8-f5afbef887f4"},"vehicle_type_id":"4","last_reported":1724184599,"current_range_meters":31200,"station_id":"ce4bgph2rcd13ifvqc2g","pricing_plan_id":"cebpf4jnsgd1na2vs0mg"},{"bike_id":"8436cb7d-a3ec-48b7-9108-f088fe8129b5","system_id":"levelo_inurba_marseille","lat":43.299028,"lon":5.381509,"is_reserved":false,"is_disabled":false,"rental_uris":{"android":"levelo://app?vid=8436cb7d-a3ec-48b7-9108-f088fe8129b5","ios":"levelo://app?vid=8436cb7d-a3ec-48b7-9108-f088fe8129b5"},"vehicle_type_id":"4","last_reported":1724184599,"current_range_meters":2000,"station_id":"ce4bgj12rcd13ifvqbc0","pricing_plan_id":"cebpf4jnsgd1na2vs0mg"},{"bike_id":"e2a5d68a-5d74-4f55-9eb5-d39d861c36c8","system_id":"levelo_inurba_marseille","lat":43.296921,"lon":5.376579,"is_reserved":false,"is_disabled":false,"rental_uris":{"android":"levelo://app?vid=e2a5d68a-5d74-4f55-9eb5-d39d861c36c8","ios":"levelo://app?vid=e2a5d68a-5d74-4f55-9eb5-d39d861c36c8"},"vehicle_type_id":"4","last_reported":1724184599,"current_range_meters":26800,"station_id":"ce4bgkh2rcd13ifvqbl0","pricing_plan_id":"cebpf4jnsgd1na2vs0mg"},{"bike_id":"202c72ca-e9db-4d32-a42f-ddd48a09cb67","system_id":"levelo_inurba_marseille","lat":43.299137,"lon":5.38154,"is_reserved":false,"is_disabled":false,"rental_uris":{"android":"levelo://app?vid=202c72ca-e9db-4d32-a42f-ddd48a09cb67","ios":"levelo://app?vid=202c72ca-e9db-4d32-a42f-ddd48a09cb67"},"vehicle_type_id":"4","last_reported":1724184599,"current_range_meters":23600,"station_id":"ce4bgj12rcd13ifvqbc0","pricing_plan_id":"cebpf4jnsgd1na2vs0mg"},{"bike_id":"407df8fc-4f00-4132-b9e1-4fa065b320de","system_id":"levelo_inurba_marseille","lat":43.309502,"lon":5.390262,"is_reserved":false,"is_disabled":false,"rental_uris":{"android":"levelo://app?vid=407df8fc-4f00-4132-b9e1-4fa065b320de","ios":"levelo://app?vid=407df8fc-4f00-4132-b9e1-4fa065b320de"},"vehicle_type_id":"4","last_reported":1724184599,"current_range_meters":31200,"station_id":"ce4bgup2rcd13ifvqco0","pricing_plan_id":"cebpf4jnsgd1na2vs0mg"},{"bike_id":"1809dde7-164f-40d7-92ad-92d20508a8ca","system_id":"levelo_inurba_marseille","lat":43.299028,"lon":5.381509,"is_reserved":false,"is_disabled":false,"rental_uris":{"android":"levelo://app?vid=1809dde7-164f-40d7-92ad-92d20508a8ca","ios":"levelo://app?vid=1809dde7-164f-40d7-92ad-92d20508a8ca"},"vehicle_type_id":"4","last_reported":1724184599,"current_range_meters":26800,"station_id":"ce4bgj12rcd13ifvqbc0","pricing_plan_id":"cebpf4jnsgd1na2vs0mg"},{"bike_id":"5d934c6b-d6f7-4b0c-aa01-d0f9040d93eb","system_id":"levelo_inurba_marseille","lat":43.309589,"lon":5.390258,"is_reserved":false,"is_disabled":false,"rental_uris":{"android":"levelo://app?vid=5d934c6b-d6f7-4b0c-aa01-d0f9040d93eb","ios":"levelo://app?vid=5d934c6b-d6f7-4b0c-aa01-d0f9040d93eb"},"vehicle_type_id":"4","last_reported":1724184599,"current_range_meters":25200,"station_id":"ce4bgup2rcd13ifvqco0","pricing_plan_id":"cebpf4jnsgd1na2vs0mg"},{"bike_id":"ead46181-1ba8-4370-b4c2-0fb9d2b78c11","system_id":"levelo_inurba_marseille","lat":43.309589,"lon":5.390258,"is_reserved":false,"is_disabled":false,"rental_uris":{"android":"levelo://app?vid=ead46181-1ba8-4370-b4c2-0fb9d2b78c11","ios":"levelo://app?vid=ead46181-1ba8-4370-b4c2-0fb9d2b78c11"},"vehicle_type_id":"4","last_reported":1724184599,"current_range_meters":7600,"station_id":"ce4bgup2rcd13ifvqco0","pricing_plan_id":"cebpf4jnsgd1na2vs0mg"},{"bike_id":"c8e1e8bb-b705-4e65-a39a-d6b8430cbeb8","system_id":"levelo_inurba_marseille","lat":43.309589,"lon":5.390258,"is_reserved":false,"is_disabled":false,"rental_uris":{"android":"levelo://app?vid=c8e1e8bb-b705-4e65-a39a-d6b8430cbeb8","ios":"levelo://app?vid=c8e1e8bb-b705-4e65-a39a-d6b8430cbeb8"},"vehicle_type_id":"4","last_reported":1724184599,"current_range_meters":0,"station_id":"ce4bgup2rcd13ifvqco0","pricing_plan_id":"cebpf4jnsgd1na2vs0mg"},{"bike_id":"8fde73e5-4898-4b44-a1e4-7c191a491c0c","system_id":"levelo_inurba_marseille","lat":43.309589,"lon":5.390258,"is_reserved":false,"is_disabled":false,"rental_uris":{"android":"levelo://app?vid=8fde73e5-4898-4b44-a1e4-7c191a491c0c","ios":"levelo://app?vid=8fde73e5-4898-4b44-a1e4-7c191a491c0c"},"vehicle_type_id":"4","last_reported":1724184599,"current_range_meters":18800,"station_id":"ce4bgup2rcd13ifvqco0","pricing_plan_id":"cebpf4jnsgd1na2vs0mg"},{"bike_id":"43882113-c028-4dff-bd5b-f1396cc900d5","system_id":"levelo_inurba_marseille","lat":43.298037,"lon":5.381066,"is_reserved":false,"is_disabled":false,"rental_uris":{"android":"levelo://app?vid=43882113-c028-4dff-bd5b-f1396cc900d5","ios":"levelo://app?vid=43882113-c028-4dff-bd5b-f1396cc900d5"},"vehicle_type_id":"4","last_reported":1724184599,"current_range_meters":6400,"station_id":"ce4bgip2rcd13ifvqbb0","pricing_plan_id":"cebpf4jnsgd1na2vs0mg"},{"bike_id":"cc61c49f-5874-4137-b55c-7df5f8e5ace5","system_id":"levelo_inurba_marseille","lat":43.296264,"lon":5.377145,"is_reserved":false,"is_disabled":false,"rental_uris":{"android":"levelo://app?vid=cc61c49f-5874-4137-b55c-7df5f8e5ace5","ios":"levelo://app?vid=cc61c49f-5874-4137-b55c-7df5f8e5ace5"},"vehicle_type_id":"4","last_reported":1724184599,"current_range_meters":0,"station_id":"ce4bgi92rcd13ifvqb90","pricing_plan_id":"cebpf4jnsgd1na2vs0mg"},{"bike_id":"7f830404-90e8-454b-bfe8-097c3a959aed","system_id":"levelo_inurba_marseille","lat":43.29625,"lon":5.37713,"is_reserved":false,"is_disabled":false,"rental_uris":{"android":"levelo://app?vid=7f830404-90e8-454b-bfe8-097c3a959aed","ios":"levelo://app?vid=7f830404-90e8-454b-bfe8-097c3a959aed"},"vehicle_type_id":"4","last_reported":1724184599,"current_range_meters":800,"station_id":"ce4bgi92rcd13ifvqb90","pricing_plan_id":"cebpf4jnsgd1na2vs0mg"},{"bike_id":"23d75d01-69f9-4fcd-846a-21fd5b387fe1","system_id":"levelo_inurba_marseille","lat":43.296277,"lon":5.377108,"is_reserved":false,"is_disabled":false,"rental_uris":{"android":"levelo://app?vid=23d75d01-69f9-4fcd-846a-21fd5b387fe1","ios":"levelo://app?vid=23d75d01-69f9-4fcd-846a-21fd5b387fe1"},"vehicle_type_id":"4","last_reported":1724184599,"current_range_meters":1600,"station_id":"ce4bgi92rcd13ifvqb90","pricing_plan_id":"cebpf4jnsgd1na2vs0mg"},{"bike_id":"0644f4b1-558d-4ca5-b743-6b8ff88ab719","system_id":"levelo_inurba_marseille","lat":43.296277,"lon":5.377108,"is_reserved":false,"is_disabled":false,"rental_uris":{"android":"levelo://app?vid=0644f4b1-558d-4ca5-b743-6b8ff88ab719","ios":"levelo://app?vid=0644f4b1-558d-4ca5-b743-6b8ff88ab719"},"vehicle_type_id":"4","last_reported":1724184599,"current_range_meters":3200,"station_id":"ce4bgi92rcd13ifvqb90","pricing_plan_id":"cebpf4jnsgd1na2vs0mg"},{"bike_id":"5d668e97-d3d4-4712-a839-b28ac1b2d69e","system_id":"levelo_inurba_marseille","lat":43.29612,"lon":5.377167,"is_reserved":false,"is_disabled":false,"rental_uris":{"android":"levelo://app?vid=5d668e97-d3d4-4712-a839-b28ac1b2d69e","ios":"levelo://app?vid=5d668e97-d3d4-4712-a839-b28ac1b2d69e"},"vehicle_type_id":"4","last_reported":1724184599,"current_range_meters":8800,"station_id":"ce4bgi92rcd13ifvqb90","pricing_plan_id":"cebpf4jnsgd1na2vs0mg"},{"bike_id":"9d01177c-991c-413a-ba9b-1bf9a19dc3fc","system_id":"levelo_inurba_marseille","lat":43.296263,"lon":5.377094,"is_reserved":false,"is_disabled":false,"rental_uris":{"android":"levelo://app?vid=9d01177c-991c-413a-ba9b-1bf9a19dc3fc","ios":"levelo://app?vid=9d01177c-991c-413a-ba9b-1bf9a19dc3fc"},"vehicle_type_id":"4","last_reported":1724184599,"current_range_meters":19600,"station_id":"ce4bgi92rcd13ifvqb90","pricing_plan_id":"cebpf4jnsgd1na2vs0mg"},{"bike_id":"1e387b61-263a-4276-819c-d63f5e596d61","system_id":"levelo_inurba_marseille","lat":43.299707,"lon":5.384859,"is_reserved":false,"is_disabled":false,"rental_uris":{"android":"levelo://app?vid=1e387b61-263a-4276-819c-d63f5e596d61","ios":"levelo://app?vid=1e387b61-263a-4276-819c-d63f5e596d61"},"vehicle_type_id":"4","last_reported":1724184599,"current_range_meters":28000,"station_id":"ce4bgj92rcd13ifvqbd0","pricing_plan_id":"cebpf4jnsgd1na2vs0mg"},{"bike_id":"9ad1022e-3ab7-4c0a-ae01-112fd33a327a","system_id":"levelo_inurba_marseille","lat":43.299707,"lon":5.384859,"is_reserved":false,"is_disabled":false,"rental_uris":{"android":"levelo://app?vid=9ad1022e-3ab7-4c0a-ae01-112fd33a327a","ios":"levelo://app?vid=9ad1022e-3ab7-4c0a-ae01-112fd33a327a"},"vehicle_type_id":"4","last_reported":1724184599,"current_range_meters":25200,"station_id":"ce4bgj92rcd13ifvqbd0","pricing_plan_id":"cebpf4jnsgd1na2vs0mg"},{"bike_id":"b2c03e9a-dd4f-443f-af4a-e02a350b0c12","system_id":"levelo_inurba_marseille","lat":43.299707,"lon":5.384859,"is_reserved":false,"is_disabled":false,"rental_uris":{"android":"levelo://app?vid=b2c03e9a-dd4f-443f-af4a-e02a350b0c12","ios":"levelo://app?vid=b2c03e9a-dd4f-443f-af4a-e02a350b0c12"},"vehicle_type_id":"4","last_reported":1724184599,"current_range_meters":22800,"station_id":"ce4bgj92rcd13ifvqbd0","pricing_plan_id":"cebpf4jnsgd1na2vs0mg"},{"bike_id":"bad69546-d3ec-44b8-a8fb-5f9fba992c61","system_id":"levelo_inurba_marseille","lat":43.299707,"lon":5.384859,"is_reserved":false,"is_disabled":false,"rental_uris":{"android":"levelo://app?vid=bad69546-d3ec-44b8-a8fb-5f9fba992c61","ios":"levelo://app?vid=bad69546-d3ec-44b8-a8fb-5f9fba992c61"},"vehicle_type_id":"4","last_reported":1724184599,"current_range_meters":12400,"station_id":"ce4bgj92rcd13ifvqbd0","pricing_plan_id":"cebpf4jnsgd1na2vs0mg"},{"bike_id":"31473a03-a561-4230-bbac-7142600530c5","system_id":"levelo_inurba_marseille","lat":43.299707,"lon":5.384859,"is_reserved":false,"is_disabled":false,"rental_uris":{"android":"levelo://app?vid=31473a03-a561-4230-bbac-7142600530c5","ios":"levelo://app?vid=31473a03-a561-4230-bbac-7142600530c5"},"vehicle_type_id":"4","last_reported":1724184599,"current_range_meters":1200,"station_id":"ce4bgj92rcd13ifvqbd0","pricing_plan_id":"cebpf4jnsgd1na2vs0mg"},{"bike_id":"074091ce-663e-4d8c-9a77-d52059dcb8b2","system_id":"levelo_inurba_marseille","lat":43.299735,"lon":5.384985,"is_reserved":false,"is_disabled":false,"rental_uris":{"android":"levelo://app?vid=074091ce-663e-4d8c-9a77-d52059dcb8b2","ios":"levelo://app?vid=074091ce-663e-4d8c-9a77-d52059dcb8b2"},"vehicle_type_id":"4","last_reported":1724184599,"current_range_meters":0,"station_id":"ce4bgj92rcd13ifvqbd0","pricing_plan_id":"cebpf4jnsgd1na2vs0mg"},{"bike_id":"21abe1ac-a90b-4bb4-9e61-373b4d1ecfb1","system_id":"levelo_inurba_marseille","lat":43.299724,"lon":5.384848,"is_reserved":false,"is_disabled":false,"rental_uris":{"android":"levelo://app?vid=21abe1ac-a90b-4bb4-9e61-373b4d1ecfb1","ios":"levelo://app?vid=21abe1ac-a90b-4bb4-9e61-373b4d1ecfb1"},"vehicle_type_id":"4","last_reported":1724184599,"current_range_meters":30800,"station_id":"ce4bgj92rcd13ifvqbd0","pricing_plan_id":"cebpf4jnsgd1na2vs0mg"},{"bike_id":"6588d519-d83d-418b-a117-f523568efd12","system_id":"levelo_inurba_marseille","lat":43.299724,"lon":5.384848,"is_reserved":false,"is_disabled":false,"rental_uris":{"android":"levelo://app?vid=6588d519-d83d-418b-a117-f523568efd12","ios":"levelo://app?vid=6588d519-d83d-418b-a117-f523568efd12"},"vehicle_type_id":"4","last_reported":1724184599,"current_range_meters":14400,"station_id":"ce4bgj92rcd13ifvqbd0","pricing_plan_id":"cebpf4jnsgd1na2vs0mg"},{"bike_id":"6a00b770-30f7-4658-9167-5fcf146776c6","system_id":"levelo_inurba_marseille","lat":43.299724,"lon":5.384848,"is_reserved":false,"is_disabled":false,"rental_uris":{"android":"levelo://app?vid=6a00b770-30f7-4658-9167-5fcf146776c6","ios":"levelo://app?vid=6a00b770-30f7-4658-9167-5fcf146776c6"},"vehicle_type_id":"4","last_reported":1724184599,"current_range_meters":15600,"station_id":"ce4bgj92rcd13ifvqbd0","pricing_plan_id":"cebpf4jnsgd1na2vs0mg"},{"bike_id":"249633f3-c05b-4c3f-94c0-9a9d527fe7e2","system_id":"levelo_inurba_marseille","lat":43.295279,"lon":5.375048,"is_reserved":false,"is_disabled":false,"rental_uris":{"android":"levelo://app?vid=249633f3-c05b-4c3f-94c0-9a9d527fe7e2","ios":"levelo://app?vid=249633f3-c05b-4c3f-94c0-9a9d527fe7e2"},"vehicle_type_id":"4","last_reported":1724184599,"current_range_meters":30800,"station_id":"ce4bgkp2rcd13ifvqbmg","pricing_plan_id":"cebpf4jnsgd1na2vs0mg"},{"bike_id":"1015ff92-6e87-4eb7-bbd5-d9789c5ee81c","system_id":"levelo_inurba_marseille","lat":43.30143,"lon":5.38779,"is_reserved":false,"is_disabled":false,"rental_uris":{"android":"levelo://app?vid=1015ff92-6e87-4eb7-bbd5-d9789c5ee81c","ios":"levelo://app?vid=1015ff92-6e87-4eb7-bbd5-d9789c5ee81c"},"vehicle_type_id":"4","last_reported":1724184599,"current_range_meters":0,"station_id":"ce4bghh2rcd13ifvqb60","pricing_plan_id":"cebpf4jnsgd1na2vs0mg"},{"bike_id":"ccef5f5a-c1fd-4e29-b324-6663d630e1fa","system_id":"levelo_inurba_marseille","lat":43.30141,"lon":5.38778,"is_reserved":false,"is_disabled":false,"rental_uris":{"android":"levelo://app?vid=ccef5f5a-c1fd-4e29-b324-6663d630e1fa","ios":"levelo://app?vid=ccef5f5a-c1fd-4e29-b324-6663d630e1fa"},"vehicle_type_id":"4","last_reported":1724184599,"current_range_meters":27600,"station_id":"ce4bghh2rcd13ifvqb60","pricing_plan_id":"cebpf4jnsgd1na2vs0mg"},{"bike_id":"7d00275e-6661-4e69-b00f-0fa5ca76531b","system_id":"levelo_inurba_marseille","lat":43.30143,"lon":5.38782,"is_reserved":false,"is_disabled":false,"rental_uris":{"android":"levelo://app?vid=7d00275e-6661-4e69-b00f-0fa5ca76531b","ios":"levelo://app?vid=7d00275e-6661-4e69-b00f-0fa5ca76531b"},"vehicle_type_id":"4","last_reported":1724184599,"current_range_meters":0,"station_id":"ce4bghh2rcd13ifvqb60","pricing_plan_id":"cebpf4jnsgd1na2vs0mg"},{"bike_id":"dd633af3-cfd6-4efa-a4cc-06e766cb09c5","system_id":"levelo_inurba_marseille","lat":43.30138,"lon":5.3878,"is_reserved":false,"is_disabled":false,"rental_uris":{"android":"levelo://app?vid=dd633af3-cfd6-4efa-a4cc-06e766cb09c5","ios":"levelo://app?vid=dd633af3-cfd6-4efa-a4cc-06e766cb09c5"},"vehicle_type_id":"4","last_reported":1724184599,"current_range_meters":24400,"station_id":"ce4bghh2rcd13ifvqb60","pricing_plan_id":"cebpf4jnsgd1na2vs0mg"},{"bike_id":"1a4fe159-6e1f-4231-b064-cd7544dfc46d","system_id":"levelo_inurba_marseille","lat":43.301396,"lon":5.387812,"is_reserved":false,"is_disabled":false,"rental_uris":{"android":"levelo://app?vid=1a4fe159-6e1f-4231-b064-cd7544dfc46d","ios":"levelo://app?vid=1a4fe159-6e1f-4231-b064-cd7544dfc46d"},"vehicle_type_id":"4","last_reported":1724184599,"current_range_meters":1200,"station_id":"ce4bghh2rcd13ifvqb60","pricing_plan_id":"cebpf4jnsgd1na2vs0mg"},{"bike_id":"1beb4de4-db3b-487b-ae4d-9f9a9621412c","system_id":"levelo_inurba_marseille","lat":43.301396,"lon":5.387812,"is_reserved":false,"is_disabled":false,"rental_uris":{"android":"levelo://app?vid=1beb4de4-db3b-487b-ae4d-9f9a9621412c","ios":"levelo://app?vid=1beb4de4-db3b-487b-ae4d-9f9a9621412c"},"vehicle_type_id":"4","last_reported":1724184599,"current_range_meters":31200,"station_id":"ce4bghh2rcd13ifvqb60","pricing_plan_id":"cebpf4jnsgd1na2vs0mg"},{"bike_id":"6bea9c93-8d6e-48ee-860b-a64659c70646","system_id":"levelo_inurba_marseille","lat":43.30139,"lon":5.38786,"is_reserved":false,"is_disabled":false,"rental_uris":{"android":"levelo://app?vid=6bea9c93-8d6e-48ee-860b-a64659c70646","ios":"levelo://app?vid=6bea9c93-8d6e-48ee-860b-a64659c70646"},"vehicle_type_id":"4","last_reported":1724184599,"current_range_meters":0,"station_id":"ce4bghh2rcd13ifvqb60","pricing_plan_id":"cebpf4jnsgd1na2vs0mg"},{"bike_id":"7b18b9fe-097b-419d-b401-f843ae70f703","system_id":"levelo_inurba_marseille","lat":43.3013,"lon":5.38778,"is_reserved":false,"is_disabled":false,"rental_uris":{"android":"levelo://app?vid=7b18b9fe-097b-419d-b401-f843ae70f703","ios":"levelo://app?vid=7b18b9fe-097b-419d-b401-f843ae70f703"},"vehicle_type_id":"4","last_reported":1724184599,"current_range_meters":25600,"station_id":"ce4bghh2rcd13ifvqb60","pricing_plan_id":"cebpf4jnsgd1na2vs0mg"},{"bike_id":"44c3bb2e-5024-4656-b430-1530a131733d","system_id":"levelo_inurba_marseille","lat":43.30138,"lon":5.38787,"is_reserved":false,"is_disabled":false,"rental_uris":{"android":"levelo://app?vid=44c3bb2e-5024-4656-b430-1530a131733d","ios":"levelo://app?vid=44c3bb2e-5024-4656-b430-1530a131733d"},"vehicle_type_id":"4","last_reported":1724184599,"current_range_meters":27200,"station_id":"ce4bghh2rcd13ifvqb60","pricing_plan_id":"cebpf4jnsgd1na2vs0mg"},{"bike_id":"afb8e3cb-4283-476b-b06e-55151758bf00","system_id":"levelo_inurba_marseille","lat":43.301396,"lon":5.387812,"is_reserved":false,"is_disabled":false,"rental_uris":{"android":"levelo://app?vid=afb8e3cb-4283-476b-b06e-55151758bf00","ios":"levelo://app?vid=afb8e3cb-4283-476b-b06e-55151758bf00"},"vehicle_type_id":"4","last_reported":1724184599,"current_range_meters":30800,"station_id":"ce4bghh2rcd13ifvqb60","pricing_plan_id":"cebpf4jnsgd1na2vs0mg"},{"bike_id":"7082ef74-5b99-4f15-9541-a7f63ca14d36","system_id":"levelo_inurba_marseille","lat":43.301396,"lon":5.387812,"is_reserved":false,"is_disabled":false,"rental_uris":{"android":"levelo://app?vid=7082ef74-5b99-4f15-9541-a7f63ca14d36","ios":"levelo://app?vid=7082ef74-5b99-4f15-9541-a7f63ca14d36"},"vehicle_type_id":"4","last_reported":1724184599,"current_range_meters":30800,"station_id":"ce4bghh2rcd13ifvqb60","pricing_plan_id":"cebpf4jnsgd1na2vs0mg"},{"bike_id":"6d587793-101c-4d4d-8f66-f6ddbf2be032","system_id":"levelo_inurba_marseille","lat":43.305994,"lon":5.393687,"is_reserved":false,"is_disabled":false,"rental_uris":{"android":"levelo://app?vid=6d587793-101c-4d4d-8f66-f6ddbf2be032","ios":"levelo://app?vid=6d587793-101c-4d4d-8f66-f6ddbf2be032"},"vehicle_type_id":"4","last_reported":1724184599,"current_range_meters":25600,"station_id":"ce4bh0p2rcd13ifvqd80","pricing_plan_id":"cebpf4jnsgd1na2vs0mg"},{"bike_id":"2fa056b2-d6d5-4bb8-bf22-87e8fc203509","system_id":"levelo_inurba_marseille","lat":43.29602,"lon":5.381084,"is_reserved":false,"is_disabled":false,"rental_uris":{"android":"levelo://app?vid=2fa056b2-d6d5-4bb8-bf22-87e8fc203509","ios":"levelo://app?vid=2fa056b2-d6d5-4bb8-bf22-87e8fc203509"},"vehicle_type_id":"4","last_reported":1724184599,"current_range_meters":400,"station_id":"ce4bgl12rcd13ifvqbo0","pricing_plan_id":"cebpf4jnsgd1na2vs0mg"},{"bike_id":"bf49efc4-6d15-4a5c-9060-375860fe3620","system_id":"levelo_inurba_marseille","lat":43.29602,"lon":5.381084,"is_reserved":false,"is_disabled":false,"rental_uris":{"android":"levelo://app?vid=bf49efc4-6d15-4a5c-9060-375860fe3620","ios":"levelo://app?vid=bf49efc4-6d15-4a5c-9060-375860fe3620"},"vehicle_type_id":"4","last_reported":1724184599,"current_range_meters":15200,"station_id":"ce4bgl12rcd13ifvqbo0","pricing_plan_id":"cebpf4jnsgd1na2vs0mg"},{"bike_id":"83b4ec89-ff02-4a41-9a2b-5f9feea0e82e","system_id":"levelo_inurba_marseille","lat":43.29601,"lon":5.381084,"is_reserved":false,"is_disabled":false,"rental_uris":{"android":"levelo://app?vid=83b4ec89-ff02-4a41-9a2b-5f9feea0e82e","ios":"levelo://app?vid=83b4ec89-ff02-4a41-9a2b-5f9feea0e82e"},"vehicle_type_id":"4","last_reported":1724184599,"current_range_meters":27200,"station_id":"ce4bgl12rcd13ifvqbo0","pricing_plan_id":"cebpf4jnsgd1na2vs0mg"},{"bike_id":"161338fd-96ad-4c33-9247-a039b973f69c","system_id":"levelo_inurba_marseille","lat":43.29601,"lon":5.381084,"is_reserved":false,"is_disabled":false,"rental_uris":{"android":"levelo://app?vid=161338fd-96ad-4c33-9247-a039b973f69c","ios":"levelo://app?vid=161338fd-96ad-4c33-9247-a039b973f69c"},"vehicle_type_id":"4","last_reported":1724184599,"current_range_meters":4400,"station_id":"ce4bgl12rcd13ifvqbo0","pricing_plan_id":"cebpf4jnsgd1na2vs0mg"},{"bike_id":"7d80a46e-5474-4cc5-988e-05e7c50e269d","system_id":"levelo_inurba_marseille","lat":43.29602,"lon":5.381084,"is_reserved":false,"is_disabled":false,"rental_uris":{"android":"levelo://app?vid=7d80a46e-5474-4cc5-988e-05e7c50e269d","ios":"levelo://app?vid=7d80a46e-5474-4cc5-988e-05e7c50e269d"},"vehicle_type_id":"4","last_reported":1724184599,"current_range_meters":13600,"station_id":"ce4bgl12rcd13ifvqbo0","pricing_plan_id":"cebpf4jnsgd1na2vs0mg"},{"bike_id":"9faea13d-ddd9-4b29-9607-051396b2e7d1","system_id":"levelo_inurba_marseille","lat":43.29602,"lon":5.381084,"is_reserved":false,"is_disabled":false,"rental_uris":{"android":"levelo://app?vid=9faea13d-ddd9-4b29-9607-051396b2e7d1","ios":"levelo://app?vid=9faea13d-ddd9-4b29-9607-051396b2e7d1"},"vehicle_type_id":"4","last_reported":1724184599,"current_range_meters":12800,"station_id":"ce4bgl12rcd13ifvqbo0","pricing_plan_id":"cebpf4jnsgd1na2vs0mg"},{"bike_id":"95e5a08d-84be-442e-b106-43a0ed6d50ef","system_id":"levelo_inurba_marseille","lat":43.29601,"lon":5.381084,"is_reserved":false,"is_disabled":false,"rental_uris":{"android":"levelo://app?vid=95e5a08d-84be-442e-b106-43a0ed6d50ef","ios":"levelo://app?vid=95e5a08d-84be-442e-b106-43a0ed6d50ef"},"vehicle_type_id":"4","last_reported":1724184599,"current_range_meters":16000,"station_id":"ce4bgl12rcd13ifvqbo0","pricing_plan_id":"cebpf4jnsgd1na2vs0mg"},{"bike_id":"30550b09-84e3-43b0-9312-5e147531ab61","system_id":"levelo_inurba_marseille","lat":43.29602,"lon":5.381084,"is_reserved":false,"is_disabled":false,"rental_uris":{"android":"levelo://app?vid=30550b09-84e3-43b0-9312-5e147531ab61","ios":"levelo://app?vid=30550b09-84e3-43b0-9312-5e147531ab61"},"vehicle_type_id":"4","last_reported":1724184599,"current_range_meters":0,"station_id":"ce4bgl12rcd13ifvqbo0","pricing_plan_id":"cebpf4jnsgd1na2vs0mg"},{"bike_id":"6c6781fa-3a4e-4306-83c3-9e3fc0efce37","system_id":"levelo_inurba_marseille","lat":43.293233,"lon":5.371467,"is_reserved":false,"is_disabled":false,"rental_uris":{"android":"levelo://app?vid=6c6781fa-3a4e-4306-83c3-9e3fc0efce37","ios":"levelo://app?vid=6c6781fa-3a4e-4306-83c3-9e3fc0efce37"},"vehicle_type_id":"4","last_reported":1724184599,"current_range_meters":0,"station_id":"ce4bgh92rcd13ifvqb40","pricing_plan_id":"cebpf4jnsgd1na2vs0mg"},{"bike_id":"2101dae8-e3d0-4401-ae2d-13ee1fd28fc7","system_id":"levelo_inurba_marseille","lat":43.293249,"lon":5.371578,"is_reserved":false,"is_disabled":false,"rental_uris":{"android":"levelo://app?vid=2101dae8-e3d0-4401-ae2d-13ee1fd28fc7","ios":"levelo://app?vid=2101dae8-e3d0-4401-ae2d-13ee1fd28fc7"},"vehicle_type_id":"4","last_reported":1724184599,"current_range_meters":0,"station_id":"ce4bgh92rcd13ifvqb40","pricing_plan_id":"cebpf4jnsgd1na2vs0mg"},{"bike_id":"12659219-d3c4-4153-85d9-edc8b3fbf065","system_id":"levelo_inurba_marseille","lat":43.293259,"lon":5.371586,"is_reserved":false,"is_disabled":false,"rental_uris":{"android":"levelo://app?vid=12659219-d3c4-4153-85d9-edc8b3fbf065","ios":"levelo://app?vid=12659219-d3c4-4153-85d9-edc8b3fbf065"},"vehicle_type_id":"4","last_reported":1724184599,"current_range_meters":23200,"station_id":"ce4bgh92rcd13ifvqb40","pricing_plan_id":"cebpf4jnsgd1na2vs0mg"},{"bike_id":"56b463ae-6754-491a-ba4c-d1eee2aa568e","system_id":"levelo_inurba_marseille","lat":43.292749,"lon":5.368402,"is_reserved":false,"is_disabled":false,"rental_uris":{"android":"levelo://app?vid=56b463ae-6754-491a-ba4c-d1eee2aa568e","ios":"levelo://app?vid=56b463ae-6754-491a-ba4c-d1eee2aa568e"},"vehicle_type_id":"4","last_reported":1724184599,"current_range_meters":0,"station_id":"ce4bhbp2rcd13ifvqesg","pricing_plan_id":"cebpf4jnsgd1na2vs0mg"},{"bike_id":"8828d8af-7130-4fc2-8474-e22ecf70a723","system_id":"levelo_inurba_marseille","lat":43.2923,"lon":5.36634,"is_reserved":false,"is_disabled":false,"rental_uris":{"android":"levelo://app?vid=8828d8af-7130-4fc2-8474-e22ecf70a723","ios":"levelo://app?vid=8828d8af-7130-4fc2-8474-e22ecf70a723"},"vehicle_type_id":"4","last_reported":1724184599,"current_range_meters":16800,"station_id":"ce4bha92rcd13ifvqeh0","pricing_plan_id":"cebpf4jnsgd1na2vs0mg"},{"bike_id":"89a80d7a-fcf0-4ef2-8f1b-a2fd646c4566","system_id":"levelo_inurba_marseille","lat":43.293009,"lon":5.374584,"is_reserved":false,"is_disabled":false,"rental_uris":{"android":"levelo://app?vid=89a80d7a-fcf0-4ef2-8f1b-a2fd646c4566","ios":"levelo://app?vid=89a80d7a-fcf0-4ef2-8f1b-a2fd646c4566"},"vehicle_type_id":"4","last_reported":1724184599,"current_range_meters":31200,"station_id":"ce4bgi12rcd13ifvqb70","pricing_plan_id":"cebpf4jnsgd1na2vs0mg"},{"bike_id":"83c16143-21f1-40cc-b4ef-682a5494ec57","system_id":"levelo_inurba_marseille","lat":43.293009,"lon":5.374584,"is_reserved":false,"is_disabled":false,"rental_uris":{"android":"levelo://app?vid=83c16143-21f1-40cc-b4ef-682a5494ec57","ios":"levelo://app?vid=83c16143-21f1-40cc-b4ef-682a5494ec57"},"vehicle_type_id":"4","last_reported":1724184599,"current_range_meters":16400,"station_id":"ce4bgi12rcd13ifvqb70","pricing_plan_id":"cebpf4jnsgd1na2vs0mg"},{"bike_id":"d3d1b54c-7f54-481e-bfe7-bbaf5564b67f","system_id":"levelo_inurba_marseille","lat":43.305994,"lon":5.393687,"is_reserved":false,"is_disabled":false,"rental_uris":{"android":"levelo://app?vid=d3d1b54c-7f54-481e-bfe7-bbaf5564b67f","ios":"levelo://app?vid=d3d1b54c-7f54-481e-bfe7-bbaf5564b67f"},"vehicle_type_id":"4","last_reported":1724184599,"current_range_meters":30400,"station_id":"ce4bh0p2rcd13ifvqd80","pricing_plan_id":"cebpf4jnsgd1na2vs0mg"},{"bike_id":"da1ca04d-073e-4ab4-8ba6-1b4afdf879fe","system_id":"levelo_inurba_marseille","lat":43.305994,"lon":5.393687,"is_reserved":false,"is_disabled":false,"rental_uris":{"android":"levelo://app?vid=da1ca04d-073e-4ab4-8ba6-1b4afdf879fe","ios":"levelo://app?vid=da1ca04d-073e-4ab4-8ba6-1b4afdf879fe"},"vehicle_type_id":"4","last_reported":1724184599,"current_range_meters":29600,"station_id":"ce4bh0p2rcd13ifvqd80","pricing_plan_id":"cebpf4jnsgd1na2vs0mg"},{"bike_id":"0f98380e-918c-4329-b267-fc382234a741","system_id":"levelo_inurba_marseille","lat":43.305994,"lon":5.393687,"is_reserved":false,"is_disabled":false,"rental_uris":{"android":"levelo://app?vid=0f98380e-918c-4329-b267-fc382234a741","ios":"levelo://app?vid=0f98380e-918c-4329-b267-fc382234a741"},"vehicle_type_id":"4","last_reported":1724184599,"current_range_meters":14000,"station_id":"ce4bh0p2rcd13ifvqd80","pricing_plan_id":"cebpf4jnsgd1na2vs0mg"},{"bike_id":"c315bdd0-547b-49ed-98d0-f702a6407e42","system_id":"levelo_inurba_marseille","lat":43.305994,"lon":5.393687,"is_reserved":false,"is_disabled":false,"rental_uris":{"android":"levelo://app?vid=c315bdd0-547b-49ed-98d0-f702a6407e42","ios":"levelo://app?vid=c315bdd0-547b-49ed-98d0-f702a6407e42"},"vehicle_type_id":"4","last_reported":1724184599,"current_range_meters":31200,"station_id":"ce4bh0p2rcd13ifvqd80","pricing_plan_id":"cebpf4jnsgd1na2vs0mg"},{"bike_id":"f086056d-13e7-4535-bc01-ca8953c70a82","system_id":"levelo_inurba_marseille","lat":43.303002,"lon":5.392142,"is_reserved":false,"is_disabled":false,"rental_uris":{"android":"levelo://app?vid=f086056d-13e7-4535-bc01-ca8953c70a82","ios":"levelo://app?vid=f086056d-13e7-4535-bc01-ca8953c70a82"},"vehicle_type_id":"4","last_reported":1724184599,"current_range_meters":13600,"station_id":"ce4bgkh2rcd13ifvqbk0","pricing_plan_id":"cebpf4jnsgd1na2vs0mg"},{"bike_id":"f33472a2-1666-4723-8551-3d96d9ed9209","system_id":"levelo_inurba_marseille","lat":43.303002,"lon":5.392142,"is_reserved":false,"is_disabled":false,"rental_uris":{"android":"levelo://app?vid=f33472a2-1666-4723-8551-3d96d9ed9209","ios":"levelo://app?vid=f33472a2-1666-4723-8551-3d96d9ed9209"},"vehicle_type_id":"4","last_reported":1724184599,"current_range_meters":30400,"station_id":"ce4bgkh2rcd13ifvqbk0","pricing_plan_id":"cebpf4jnsgd1na2vs0mg"},{"bike_id":"3c944a26-a45e-4917-aa34-fe5bc447e201","system_id":"levelo_inurba_marseille","lat":43.303002,"lon":5.392142,"is_reserved":false,"is_disabled":false,"rental_uris":{"android":"levelo://app?vid=3c944a26-a45e-4917-aa34-fe5bc447e201","ios":"levelo://app?vid=3c944a26-a45e-4917-aa34-fe5bc447e201"},"vehicle_type_id":"4","last_reported":1724184599,"current_range_meters":26000,"station_id":"ce4bgkh2rcd13ifvqbk0","pricing_plan_id":"cebpf4jnsgd1na2vs0mg"},{"bike_id":"35b3a5ed-c08a-497b-8e3b-d03d72cd51c9","system_id":"levelo_inurba_marseille","lat":43.303002,"lon":5.392142,"is_reserved":false,"is_disabled":false,"rental_uris":{"android":"levelo://app?vid=35b3a5ed-c08a-497b-8e3b-d03d72cd51c9","ios":"levelo://app?vid=35b3a5ed-c08a-497b-8e3b-d03d72cd51c9"},"vehicle_type_id":"4","last_reported":1724184599,"current_range_meters":30000,"station_id":"ce4bgkh2rcd13ifvqbk0","pricing_plan_id":"cebpf4jnsgd1na2vs0mg"},{"bike_id":"b30d6867-da7c-49bd-b995-934b876b92b8","system_id":"levelo_inurba_marseille","lat":43.2936,"lon":5.37835,"is_reserved":false,"is_disabled":false,"rental_uris":{"android":"levelo://app?vid=b30d6867-da7c-49bd-b995-934b876b92b8","ios":"levelo://app?vid=b30d6867-da7c-49bd-b995-934b876b92b8"},"vehicle_type_id":"4","last_reported":1724184599,"current_range_meters":7600,"station_id":"ce4bgjh2rcd13ifvqbf0","pricing_plan_id":"cebpf4jnsgd1na2vs0mg"},{"bike_id":"bdb23ec9-ccf0-4336-834e-1a8e0d78378d","system_id":"levelo_inurba_marseille","lat":43.2936,"lon":5.37835,"is_reserved":false,"is_disabled":false,"rental_uris":{"android":"levelo://app?vid=bdb23ec9-ccf0-4336-834e-1a8e0d78378d","ios":"levelo://app?vid=bdb23ec9-ccf0-4336-834e-1a8e0d78378d"},"vehicle_type_id":"4","last_reported":1724184599,"current_range_meters":19600,"station_id":"ce4bgjh2rcd13ifvqbf0","pricing_plan_id":"cebpf4jnsgd1na2vs0mg"},{"bike_id":"5418e9ac-44b5-40c7-b92c-255859a9135d","system_id":"levelo_inurba_marseille","lat":43.300852,"lon":5.390859,"is_reserved":false,"is_disabled":false,"rental_uris":{"android":"levelo://app?vid=5418e9ac-44b5-40c7-b92c-255859a9135d","ios":"levelo://app?vid=5418e9ac-44b5-40c7-b92c-255859a9135d"},"vehicle_type_id":"4","last_reported":1724184599,"current_range_meters":26800,"station_id":"ce4bh192rcd13ifvqdb0","pricing_plan_id":"cebpf4jnsgd1na2vs0mg"},{"bike_id":"7eab7e14-04c2-4a74-9b63-e32b63c7bf09","system_id":"levelo_inurba_marseille","lat":43.300852,"lon":5.390859,"is_reserved":false,"is_disabled":false,"rental_uris":{"android":"levelo://app?vid=7eab7e14-04c2-4a74-9b63-e32b63c7bf09","ios":"levelo://app?vid=7eab7e14-04c2-4a74-9b63-e32b63c7bf09"},"vehicle_type_id":"4","last_reported":1724184599,"current_range_meters":17600,"station_id":"ce4bh192rcd13ifvqdb0","pricing_plan_id":"cebpf4jnsgd1na2vs0mg"},{"bike_id":"80fe4e59-56a1-412f-98ec-8c12ec05203f","system_id":"levelo_inurba_marseille","lat":43.30085,"lon":5.390856,"is_reserved":false,"is_disabled":false,"rental_uris":{"android":"levelo://app?vid=80fe4e59-56a1-412f-98ec-8c12ec05203f","ios":"levelo://app?vid=80fe4e59-56a1-412f-98ec-8c12ec05203f"},"vehicle_type_id":"4","last_reported":1724184599,"current_range_meters":24000,"station_id":"ce4bh192rcd13ifvqdb0","pricing_plan_id":"cebpf4jnsgd1na2vs0mg"},{"bike_id":"67af4f5a-cc99-4a58-9728-8106061bb2d0","system_id":"levelo_inurba_marseille","lat":43.300852,"lon":5.390859,"is_reserved":false,"is_disabled":false,"rental_uris":{"android":"levelo://app?vid=67af4f5a-cc99-4a58-9728-8106061bb2d0","ios":"levelo://app?vid=67af4f5a-cc99-4a58-9728-8106061bb2d0"},"vehicle_type_id":"4","last_reported":1724184599,"current_range_meters":31200,"station_id":"ce4bh192rcd13ifvqdb0","pricing_plan_id":"cebpf4jnsgd1na2vs0mg"},{"bike_id":"88cf835a-dde9-4b5a-952f-f6b1a9b0f7d4","system_id":"levelo_inurba_marseille","lat":43.292311,"lon":5.360731,"is_reserved":false,"is_disabled":false,"rental_uris":{"android":"levelo://app?vid=88cf835a-dde9-4b5a-952f-f6b1a9b0f7d4","ios":"levelo://app?vid=88cf835a-dde9-4b5a-952f-f6b1a9b0f7d4"},"vehicle_type_id":"4","last_reported":1724184599,"current_range_meters":31200,"station_id":"ce4bhbh2rcd13ifvqeqg","pricing_plan_id":"cebpf4jnsgd1na2vs0mg"},{"bike_id":"0b114b8e-4b1e-4aa3-80c8-111c55927384","system_id":"levelo_inurba_marseille","lat":43.300852,"lon":5.390859,"is_reserved":false,"is_disabled":false,"rental_uris":{"android":"levelo://app?vid=0b114b8e-4b1e-4aa3-80c8-111c55927384","ios":"levelo://app?vid=0b114b8e-4b1e-4aa3-80c8-111c55927384"},"vehicle_type_id":"4","last_reported":1724184599,"current_range_meters":12000,"station_id":"ce4bh192rcd13ifvqdb0","pricing_plan_id":"cebpf4jnsgd1na2vs0mg"},{"bike_id":"3f526e2a-d97a-42d9-bed3-083694a9c6c7","system_id":"levelo_inurba_marseille","lat":43.30085,"lon":5.390856,"is_reserved":false,"is_disabled":false,"rental_uris":{"android":"levelo://app?vid=3f526e2a-d97a-42d9-bed3-083694a9c6c7","ios":"levelo://app?vid=3f526e2a-d97a-42d9-bed3-083694a9c6c7"},"vehicle_type_id":"4","last_reported":1724184599,"current_range_meters":28800,"station_id":"ce4bh192rcd13ifvqdb0","pricing_plan_id":"cebpf4jnsgd1na2vs0mg"},{"bike_id":"c9c2c3e3-ac59-4a06-b13f-5d1e7afe7ccc","system_id":"levelo_inurba_marseille","lat":43.300852,"lon":5.390859,"is_reserved":false,"is_disabled":false,"rental_uris":{"android":"levelo://app?vid=c9c2c3e3-ac59-4a06-b13f-5d1e7afe7ccc","ios":"levelo://app?vid=c9c2c3e3-ac59-4a06-b13f-5d1e7afe7ccc"},"vehicle_type_id":"4","last_reported":1724184599,"current_range_meters":27600,"station_id":"ce4bh192rcd13ifvqdb0","pricing_plan_id":"cebpf4jnsgd1na2vs0mg"},{"bike_id":"f4819780-d25b-4f1a-aa0c-75d78c61d4fe","system_id":"levelo_inurba_marseille","lat":43.300852,"lon":5.390859,"is_reserved":false,"is_disabled":false,"rental_uris":{"android":"levelo://app?vid=f4819780-d25b-4f1a-aa0c-75d78c61d4fe","ios":"levelo://app?vid=f4819780-d25b-4f1a-aa0c-75d78c61d4fe"},"vehicle_type_id":"4","last_reported":1724184599,"current_range_meters":12000,"station_id":"ce4bh192rcd13ifvqdb0","pricing_plan_id":"cebpf4jnsgd1na2vs0mg"},{"bike_id":"1c14f1ea-53da-4684-90c8-ff43f365bfb4","system_id":"levelo_inurba_marseille","lat":43.30085,"lon":5.390856,"is_reserved":false,"is_disabled":false,"rental_uris":{"android":"levelo://app?vid=1c14f1ea-53da-4684-90c8-ff43f365bfb4","ios":"levelo://app?vid=1c14f1ea-53da-4684-90c8-ff43f365bfb4"},"vehicle_type_id":"4","last_reported":1724184599,"current_range_meters":22000,"station_id":"ce4bh192rcd13ifvqdb0","pricing_plan_id":"cebpf4jnsgd1na2vs0mg"},{"bike_id":"6f99c002-7e46-4d9e-808e-cf7b480731d4","system_id":"levelo_inurba_marseille","lat":43.30085,"lon":5.390856,"is_reserved":false,"is_disabled":false,"rental_uris":{"android":"levelo://app?vid=6f99c002-7e46-4d9e-808e-cf7b480731d4","ios":"levelo://app?vid=6f99c002-7e46-4d9e-808e-cf7b480731d4"},"vehicle_type_id":"4","last_reported":1724184599,"current_range_meters":31200,"station_id":"ce4bh192rcd13ifvqdb0","pricing_plan_id":"cebpf4jnsgd1na2vs0mg"},{"bike_id":"add90d5e-07be-4938-8b8b-15d58b9c8408","system_id":"levelo_inurba_marseille","lat":43.30085,"lon":5.390856,"is_reserved":false,"is_disabled":false,"rental_uris":{"android":"levelo://app?vid=add90d5e-07be-4938-8b8b-15d58b9c8408","ios":"levelo://app?vid=add90d5e-07be-4938-8b8b-15d58b9c8408"},"vehicle_type_id":"4","last_reported":1724184599,"current_range_meters":22000,"station_id":"ce4bh192rcd13ifvqdb0","pricing_plan_id":"cebpf4jnsgd1na2vs0mg"},{"bike_id":"f7d5c580-02ba-42a7-aabd-e6e06c398498","system_id":"levelo_inurba_marseille","lat":43.313625,"lon":5.396003,"is_reserved":false,"is_disabled":false,"rental_uris":{"android":"levelo://app?vid=f7d5c580-02ba-42a7-aabd-e6e06c398498","ios":"levelo://app?vid=f7d5c580-02ba-42a7-aabd-e6e06c398498"},"vehicle_type_id":"4","last_reported":1724184599,"current_range_meters":18800,"station_id":"","pricing_plan_id":"cebpf4jnsgd1na2vs0mg"},{"bike_id":"4751a908-f01e-4336-a1e6-b595962efcd1","system_id":"levelo_inurba_marseille","lat":43.298764,"lon":5.388973,"is_reserved":false,"is_disabled":false,"rental_uris":{"android":"levelo://app?vid=4751a908-f01e-4336-a1e6-b595962efcd1","ios":"levelo://app?vid=4751a908-f01e-4336-a1e6-b595962efcd1"},"vehicle_type_id":"4","last_reported":1724184599,"current_range_meters":28000,"station_id":"ce4bh392rcd13ifvqdl0","pricing_plan_id":"cebpf4jnsgd1na2vs0mg"},{"bike_id":"1bb80a83-c252-4feb-a94e-6bf3bea8a40a","system_id":"levelo_inurba_marseille","lat":43.292005,"lon":5.357875,"is_reserved":false,"is_disabled":false,"rental_uris":{"android":"levelo://app?vid=1bb80a83-c252-4feb-a94e-6bf3bea8a40a","ios":"levelo://app?vid=1bb80a83-c252-4feb-a94e-6bf3bea8a40a"},"vehicle_type_id":"4","last_reported":1724184599,"current_range_meters":2800,"station_id":"ce4bhb12rcd13ifvqel0","pricing_plan_id":"cebpf4jnsgd1na2vs0mg"},{"bike_id":"b03761e9-3365-4dd9-a1f0-f05b23f3c77e","system_id":"levelo_inurba_marseille","lat":43.292005,"lon":5.357875,"is_reserved":false,"is_disabled":false,"rental_uris":{"android":"levelo://app?vid=b03761e9-3365-4dd9-a1f0-f05b23f3c77e","ios":"levelo://app?vid=b03761e9-3365-4dd9-a1f0-f05b23f3c77e"},"vehicle_type_id":"4","last_reported":1724184599,"current_range_meters":24000,"station_id":"ce4bhb12rcd13ifvqel0","pricing_plan_id":"cebpf4jnsgd1na2vs0mg"},{"bike_id":"728215ad-16e6-40ec-848c-7f0fbcf800c2","system_id":"levelo_inurba_marseille","lat":43.30885,"lon":5.39643,"is_reserved":false,"is_disabled":false,"rental_uris":{"android":"levelo://app?vid=728215ad-16e6-40ec-848c-7f0fbcf800c2","ios":"levelo://app?vid=728215ad-16e6-40ec-848c-7f0fbcf800c2"},"vehicle_type_id":"4","last_reported":1724184599,"current_range_meters":24800,"station_id":"ce4bh012rcd13ifvqcv0","pricing_plan_id":"cebpf4jnsgd1na2vs0mg"},{"bike_id":"752573e1-c10c-48f9-b4ca-ae5944955254","system_id":"levelo_inurba_marseille","lat":43.313291,"lon":5.396838,"is_reserved":false,"is_disabled":false,"rental_uris":{"android":"levelo://app?vid=752573e1-c10c-48f9-b4ca-ae5944955254","ios":"levelo://app?vid=752573e1-c10c-48f9-b4ca-ae5944955254"},"vehicle_type_id":"4","last_reported":1724184599,"current_range_meters":8400,"station_id":"ce4bgvp2rcd13ifvqcu0","pricing_plan_id":"cebpf4jnsgd1na2vs0mg"},{"bike_id":"b0f21591-874f-4dc6-a194-17b545d1cc94","system_id":"levelo_inurba_marseille","lat":43.313291,"lon":5.396838,"is_reserved":false,"is_disabled":false,"rental_uris":{"android":"levelo://app?vid=b0f21591-874f-4dc6-a194-17b545d1cc94","ios":"levelo://app?vid=b0f21591-874f-4dc6-a194-17b545d1cc94"},"vehicle_type_id":"4","last_reported":1724184599,"current_range_meters":15600,"station_id":"ce4bgvp2rcd13ifvqcu0","pricing_plan_id":"cebpf4jnsgd1na2vs0mg"},{"bike_id":"066fb531-298f-4cec-bd0e-1d4ec4b3b3c7","system_id":"levelo_inurba_marseille","lat":43.313291,"lon":5.396838,"is_reserved":false,"is_disabled":false,"rental_uris":{"android":"levelo://app?vid=066fb531-298f-4cec-bd0e-1d4ec4b3b3c7","ios":"levelo://app?vid=066fb531-298f-4cec-bd0e-1d4ec4b3b3c7"},"vehicle_type_id":"4","last_reported":1724184599,"current_range_meters":10800,"station_id":"ce4bgvp2rcd13ifvqcu0","pricing_plan_id":"cebpf4jnsgd1na2vs0mg"},{"bike_id":"3e033e52-e5c6-4571-b496-11f76821f8c2","system_id":"levelo_inurba_marseille","lat":43.313291,"lon":5.396838,"is_reserved":false,"is_disabled":false,"rental_uris":{"android":"levelo://app?vid=3e033e52-e5c6-4571-b496-11f76821f8c2","ios":"levelo://app?vid=3e033e52-e5c6-4571-b496-11f76821f8c2"},"vehicle_type_id":"4","last_reported":1724184599,"current_range_meters":19200,"station_id":"ce4bgvp2rcd13ifvqcu0","pricing_plan_id":"cebpf4jnsgd1na2vs0mg"},{"bike_id":"e217995f-8ea2-44b3-b0e9-c8ff76ff96cc","system_id":"levelo_inurba_marseille","lat":43.30881,"lon":5.3965,"is_reserved":false,"is_disabled":false,"rental_uris":{"android":"levelo://app?vid=e217995f-8ea2-44b3-b0e9-c8ff76ff96cc","ios":"levelo://app?vid=e217995f-8ea2-44b3-b0e9-c8ff76ff96cc"},"vehicle_type_id":"4","last_reported":1724184599,"current_range_meters":0,"station_id":"ce4bh012rcd13ifvqcv0","pricing_plan_id":"cebpf4jnsgd1na2vs0mg"},{"bike_id":"037e8150-f4d2-45c2-aad6-92b9cdbfa645","system_id":"levelo_inurba_marseille","lat":43.309047,"lon":5.396551,"is_reserved":false,"is_disabled":false,"rental_uris":{"android":"levelo://app?vid=037e8150-f4d2-45c2-aad6-92b9cdbfa645","ios":"levelo://app?vid=037e8150-f4d2-45c2-aad6-92b9cdbfa645"},"vehicle_type_id":"4","last_reported":1724184599,"current_range_meters":0,"station_id":"ce4bh012rcd13ifvqcv0","pricing_plan_id":"cebpf4jnsgd1na2vs0mg"},{"bike_id":"b57f2251-b145-47d6-af88-def0b9acb51a","system_id":"levelo_inurba_marseille","lat":43.309047,"lon":5.396551,"is_reserved":false,"is_disabled":false,"rental_uris":{"android":"levelo://app?vid=b57f2251-b145-47d6-af88-def0b9acb51a","ios":"levelo://app?vid=b57f2251-b145-47d6-af88-def0b9acb51a"},"vehicle_type_id":"4","last_reported":1724184599,"current_range_meters":6000,"station_id":"ce4bh012rcd13ifvqcv0","pricing_plan_id":"cebpf4jnsgd1na2vs0mg"},{"bike_id":"ecc476b5-78e5-4ed0-88e6-b8666362792f","system_id":"levelo_inurba_marseille","lat":43.30884,"lon":5.39655,"is_reserved":false,"is_disabled":false,"rental_uris":{"android":"levelo://app?vid=ecc476b5-78e5-4ed0-88e6-b8666362792f","ios":"levelo://app?vid=ecc476b5-78e5-4ed0-88e6-b8666362792f"},"vehicle_type_id":"4","last_reported":1724184599,"current_range_meters":24400,"station_id":"ce4bh012rcd13ifvqcv0","pricing_plan_id":"cebpf4jnsgd1na2vs0mg"},{"bike_id":"9d9bdc37-1c32-4364-86c2-adbd7bffb4bf","system_id":"levelo_inurba_marseille","lat":43.30888,"lon":5.39656,"is_reserved":false,"is_disabled":false,"rental_uris":{"android":"levelo://app?vid=9d9bdc37-1c32-4364-86c2-adbd7bffb4bf","ios":"levelo://app?vid=9d9bdc37-1c32-4364-86c2-adbd7bffb4bf"},"vehicle_type_id":"4","last_reported":1724184599,"current_range_meters":27600,"station_id":"ce4bh012rcd13ifvqcv0","pricing_plan_id":"cebpf4jnsgd1na2vs0mg"},{"bike_id":"50210e03-5c4d-4cf7-9386-4d5f4b77f1e6","system_id":"levelo_inurba_marseille","lat":43.308885,"lon":5.396561,"is_reserved":false,"is_disabled":false,"rental_uris":{"android":"levelo://app?vid=50210e03-5c4d-4cf7-9386-4d5f4b77f1e6","ios":"levelo://app?vid=50210e03-5c4d-4cf7-9386-4d5f4b77f1e6"},"vehicle_type_id":"4","last_reported":1724184599,"current_range_meters":12800,"station_id":"ce4bh012rcd13ifvqcv0","pricing_plan_id":"cebpf4jnsgd1na2vs0mg"},{"bike_id":"6cf85575-8700-4e6a-913a-9d8d942ad76b","system_id":"levelo_inurba_marseille","lat":43.313291,"lon":5.396838,"is_reserved":false,"is_disabled":false,"rental_uris":{"android":"levelo://app?vid=6cf85575-8700-4e6a-913a-9d8d942ad76b","ios":"levelo://app?vid=6cf85575-8700-4e6a-913a-9d8d942ad76b"},"vehicle_type_id":"4","last_reported":1724184599,"current_range_meters":21600,"station_id":"ce4bgvp2rcd13ifvqcu0","pricing_plan_id":"cebpf4jnsgd1na2vs0mg"},{"bike_id":"37d25c77-c9b9-4ff9-822a-987818e722e6","system_id":"levelo_inurba_marseille","lat":43.30885,"lon":5.39657,"is_reserved":false,"is_disabled":false,"rental_uris":{"android":"levelo://app?vid=37d25c77-c9b9-4ff9-822a-987818e722e6","ios":"levelo://app?vid=37d25c77-c9b9-4ff9-822a-987818e722e6"},"vehicle_type_id":"4","last_reported":1724184599,"current_range_meters":18000,"station_id":"ce4bh012rcd13ifvqcv0","pricing_plan_id":"cebpf4jnsgd1na2vs0mg"},{"bike_id":"39ad501b-4e2a-444e-9203-f85299f050a5","system_id":"levelo_inurba_marseille","lat":43.30887,"lon":5.39658,"is_reserved":false,"is_disabled":false,"rental_uris":{"android":"levelo://app?vid=39ad501b-4e2a-444e-9203-f85299f050a5","ios":"levelo://app?vid=39ad501b-4e2a-444e-9203-f85299f050a5"},"vehicle_type_id":"4","last_reported":1724184599,"current_range_meters":6800,"station_id":"ce4bh012rcd13ifvqcv0","pricing_plan_id":"cebpf4jnsgd1na2vs0mg"},{"bike_id":"1d8a87ff-6a62-45b4-866a-44e1d9e15f5e","system_id":"levelo_inurba_marseille","lat":43.30887,"lon":5.39659,"is_reserved":false,"is_disabled":false,"rental_uris":{"android":"levelo://app?vid=1d8a87ff-6a62-45b4-866a-44e1d9e15f5e","ios":"levelo://app?vid=1d8a87ff-6a62-45b4-866a-44e1d9e15f5e"},"vehicle_type_id":"4","last_reported":1724184599,"current_range_meters":28400,"station_id":"ce4bh012rcd13ifvqcv0","pricing_plan_id":"cebpf4jnsgd1na2vs0mg"},{"bike_id":"c866744d-1f9c-4314-885f-a67434f8e15e","system_id":"levelo_inurba_marseille","lat":43.30885,"lon":5.3966,"is_reserved":false,"is_disabled":false,"rental_uris":{"android":"levelo://app?vid=c866744d-1f9c-4314-885f-a67434f8e15e","ios":"levelo://app?vid=c866744d-1f9c-4314-885f-a67434f8e15e"},"vehicle_type_id":"4","last_reported":1724184599,"current_range_meters":22400,"station_id":"ce4bh012rcd13ifvqcv0","pricing_plan_id":"cebpf4jnsgd1na2vs0mg"},{"bike_id":"a2af4794-90f8-4e5d-bff5-13787dadde5d","system_id":"levelo_inurba_marseille","lat":43.29529,"lon":5.385581,"is_reserved":false,"is_disabled":false,"rental_uris":{"android":"levelo://app?vid=a2af4794-90f8-4e5d-bff5-13787dadde5d","ios":"levelo://app?vid=a2af4794-90f8-4e5d-bff5-13787dadde5d"},"vehicle_type_id":"4","last_reported":1724184599,"current_range_meters":31600,"station_id":"ce4bgih2rcd13ifvqba0","pricing_plan_id":"cebpf4jnsgd1na2vs0mg"},{"bike_id":"eef31e06-ca7c-4677-9708-7157cc472d0d","system_id":"levelo_inurba_marseille","lat":43.29529,"lon":5.385581,"is_reserved":false,"is_disabled":false,"rental_uris":{"android":"levelo://app?vid=eef31e06-ca7c-4677-9708-7157cc472d0d","ios":"levelo://app?vid=eef31e06-ca7c-4677-9708-7157cc472d0d"},"vehicle_type_id":"4","last_reported":1724184599,"current_range_meters":29200,"station_id":"ce4bgih2rcd13ifvqba0","pricing_plan_id":"cebpf4jnsgd1na2vs0mg"},{"bike_id":"e00c30e1-b20c-48e8-9c87-9471b102ddb5","system_id":"levelo_inurba_marseille","lat":43.29535,"lon":5.38543,"is_reserved":false,"is_disabled":false,"rental_uris":{"android":"levelo://app?vid=e00c30e1-b20c-48e8-9c87-9471b102ddb5","ios":"levelo://app?vid=e00c30e1-b20c-48e8-9c87-9471b102ddb5"},"vehicle_type_id":"4","last_reported":1724184599,"current_range_meters":0,"station_id":"ce4bgih2rcd13ifvqba0","pricing_plan_id":"cebpf4jnsgd1na2vs0mg"},{"bike_id":"1f29d41f-fd57-49d1-a37a-e4e458e1dd36","system_id":"levelo_inurba_marseille","lat":43.309047,"lon":5.396551,"is_reserved":false,"is_disabled":false,"rental_uris":{"android":"levelo://app?vid=1f29d41f-fd57-49d1-a37a-e4e458e1dd36","ios":"levelo://app?vid=1f29d41f-fd57-49d1-a37a-e4e458e1dd36"},"vehicle_type_id":"4","last_reported":1724184599,"current_range_meters":8000,"station_id":"ce4bh012rcd13ifvqcv0","pricing_plan_id":"cebpf4jnsgd1na2vs0mg"},{"bike_id":"c2e40478-4b1e-46d5-acd9-4dbd0d0f4679","system_id":"levelo_inurba_marseille","lat":43.29529,"lon":5.385581,"is_reserved":false,"is_disabled":false,"rental_uris":{"android":"levelo://app?vid=c2e40478-4b1e-46d5-acd9-4dbd0d0f4679","ios":"levelo://app?vid=c2e40478-4b1e-46d5-acd9-4dbd0d0f4679"},"vehicle_type_id":"4","last_reported":1724184599,"current_range_meters":20000,"station_id":"ce4bgih2rcd13ifvqba0","pricing_plan_id":"cebpf4jnsgd1na2vs0mg"},{"bike_id":"9e11f451-479c-417e-be0d-a57ad4651a37","system_id":"levelo_inurba_marseille","lat":43.29533,"lon":5.38544,"is_reserved":false,"is_disabled":false,"rental_uris":{"android":"levelo://app?vid=9e11f451-479c-417e-be0d-a57ad4651a37","ios":"levelo://app?vid=9e11f451-479c-417e-be0d-a57ad4651a37"},"vehicle_type_id":"4","last_reported":1724184599,"current_range_meters":0,"station_id":"ce4bgih2rcd13ifvqba0","pricing_plan_id":"cebpf4jnsgd1na2vs0mg"},{"bike_id":"0675ab5e-0c31-488e-bb91-6aabd5941c49","system_id":"levelo_inurba_marseille","lat":43.29535,"lon":5.38548,"is_reserved":false,"is_disabled":false,"rental_uris":{"android":"levelo://app?vid=0675ab5e-0c31-488e-bb91-6aabd5941c49","ios":"levelo://app?vid=0675ab5e-0c31-488e-bb91-6aabd5941c49"},"vehicle_type_id":"4","last_reported":1724184599,"current_range_meters":21600,"station_id":"ce4bgih2rcd13ifvqba0","pricing_plan_id":"cebpf4jnsgd1na2vs0mg"},{"bike_id":"02657829-8a0a-477e-9397-b0fb1df3ccd5","system_id":"levelo_inurba_marseille","lat":43.29529,"lon":5.385581,"is_reserved":false,"is_disabled":false,"rental_uris":{"android":"levelo://app?vid=02657829-8a0a-477e-9397-b0fb1df3ccd5","ios":"levelo://app?vid=02657829-8a0a-477e-9397-b0fb1df3ccd5"},"vehicle_type_id":"4","last_reported":1724184599,"current_range_meters":13600,"station_id":"ce4bgih2rcd13ifvqba0","pricing_plan_id":"cebpf4jnsgd1na2vs0mg"},{"bike_id":"c4d46c83-8b68-4902-82e0-7c92dc408eb7","system_id":"levelo_inurba_marseille","lat":43.29529,"lon":5.385581,"is_reserved":false,"is_disabled":false,"rental_uris":{"android":"levelo://app?vid=c4d46c83-8b68-4902-82e0-7c92dc408eb7","ios":"levelo://app?vid=c4d46c83-8b68-4902-82e0-7c92dc408eb7"},"vehicle_type_id":"4","last_reported":1724184599,"current_range_meters":26000,"station_id":"ce4bgih2rcd13ifvqba0","pricing_plan_id":"cebpf4jnsgd1na2vs0mg"},{"bike_id":"11104bdc-e7cb-4967-a25b-9aa780dba493","system_id":"levelo_inurba_marseille","lat":43.29536,"lon":5.38551,"is_reserved":false,"is_disabled":false,"rental_uris":{"android":"levelo://app?vid=11104bdc-e7cb-4967-a25b-9aa780dba493","ios":"levelo://app?vid=11104bdc-e7cb-4967-a25b-9aa780dba493"},"vehicle_type_id":"4","last_reported":1724184599,"current_range_meters":14400,"station_id":"ce4bgih2rcd13ifvqba0","pricing_plan_id":"cebpf4jnsgd1na2vs0mg"},{"bike_id":"910e0885-011a-46c5-9c2f-35badc29bbc4","system_id":"levelo_inurba_marseille","lat":43.29529,"lon":5.385581,"is_reserved":false,"is_disabled":false,"rental_uris":{"android":"levelo://app?vid=910e0885-011a-46c5-9c2f-35badc29bbc4","ios":"levelo://app?vid=910e0885-011a-46c5-9c2f-35badc29bbc4"},"vehicle_type_id":"4","last_reported":1724184599,"current_range_meters":31200,"station_id":"ce4bgih2rcd13ifvqba0","pricing_plan_id":"cebpf4jnsgd1na2vs0mg"},{"bike_id":"cba5894f-315c-4590-9ad1-0bf75b63b896","system_id":"levelo_inurba_marseille","lat":43.29531,"lon":5.38543,"is_reserved":false,"is_disabled":false,"rental_uris":{"android":"levelo://app?vid=cba5894f-315c-4590-9ad1-0bf75b63b896","ios":"levelo://app?vid=cba5894f-315c-4590-9ad1-0bf75b63b896"},"vehicle_type_id":"4","last_reported":1724184599,"current_range_meters":28400,"station_id":"ce4bgih2rcd13ifvqba0","pricing_plan_id":"cebpf4jnsgd1na2vs0mg"},{"bike_id":"93fca5a7-e4c4-48ab-91bc-b388686b7391","system_id":"levelo_inurba_marseille","lat":43.29529,"lon":5.385581,"is_reserved":false,"is_disabled":false,"rental_uris":{"android":"levelo://app?vid=93fca5a7-e4c4-48ab-91bc-b388686b7391","ios":"levelo://app?vid=93fca5a7-e4c4-48ab-91bc-b388686b7391"},"vehicle_type_id":"4","last_reported":1724184599,"current_range_meters":30800,"station_id":"ce4bgih2rcd13ifvqba0","pricing_plan_id":"cebpf4jnsgd1na2vs0mg"},{"bike_id":"e1fbcf16-6514-4992-a935-9b9cbb4f8ce4","system_id":"levelo_inurba_marseille","lat":43.29529,"lon":5.385581,"is_reserved":false,"is_disabled":false,"rental_uris":{"android":"levelo://app?vid=e1fbcf16-6514-4992-a935-9b9cbb4f8ce4","ios":"levelo://app?vid=e1fbcf16-6514-4992-a935-9b9cbb4f8ce4"},"vehicle_type_id":"4","last_reported":1724184599,"current_range_meters":27200,"station_id":"ce4bgih2rcd13ifvqba0","pricing_plan_id":"cebpf4jnsgd1na2vs0mg"},{"bike_id":"5d1999cc-af1f-4365-a9fc-017c4b56df5a","system_id":"levelo_inurba_marseille","lat":43.29529,"lon":5.385581,"is_reserved":false,"is_disabled":false,"rental_uris":{"android":"levelo://app?vid=5d1999cc-af1f-4365-a9fc-017c4b56df5a","ios":"levelo://app?vid=5d1999cc-af1f-4365-a9fc-017c4b56df5a"},"vehicle_type_id":"4","last_reported":1724184599,"current_range_meters":800,"station_id":"ce4bgih2rcd13ifvqba0","pricing_plan_id":"cebpf4jnsgd1na2vs0mg"},{"bike_id":"5d1a31d0-371e-4ed6-9bba-b03fc7701999","system_id":"levelo_inurba_marseille","lat":43.29532,"lon":5.3855,"is_reserved":false,"is_disabled":false,"rental_uris":{"android":"levelo://app?vid=5d1a31d0-371e-4ed6-9bba-b03fc7701999","ios":"levelo://app?vid=5d1a31d0-371e-4ed6-9bba-b03fc7701999"},"vehicle_type_id":"4","last_reported":1724184599,"current_range_meters":5600,"station_id":"ce4bgih2rcd13ifvqba0","pricing_plan_id":"cebpf4jnsgd1na2vs0mg"},{"bike_id":"40c1feac-6139-4b42-aad3-c510de972fad","system_id":"levelo_inurba_marseille","lat":43.29529,"lon":5.385581,"is_reserved":false,"is_disabled":false,"rental_uris":{"android":"levelo://app?vid=40c1feac-6139-4b42-aad3-c510de972fad","ios":"levelo://app?vid=40c1feac-6139-4b42-aad3-c510de972fad"},"vehicle_type_id":"4","last_reported":1724184599,"current_range_meters":31200,"station_id":"ce4bgih2rcd13ifvqba0","pricing_plan_id":"cebpf4jnsgd1na2vs0mg"},{"bike_id":"c3786d57-6644-4542-a6a8-6749d5ada35f","system_id":"levelo_inurba_marseille","lat":43.29529,"lon":5.385581,"is_reserved":false,"is_disabled":false,"rental_uris":{"android":"levelo://app?vid=c3786d57-6644-4542-a6a8-6749d5ada35f","ios":"levelo://app?vid=c3786d57-6644-4542-a6a8-6749d5ada35f"},"vehicle_type_id":"4","last_reported":1724184599,"current_range_meters":29200,"station_id":"ce4bgih2rcd13ifvqba0","pricing_plan_id":"cebpf4jnsgd1na2vs0mg"},{"bike_id":"cbc8703f-863e-4d07-888e-9157e1b7cd37","system_id":"levelo_inurba_marseille","lat":43.29529,"lon":5.38546,"is_reserved":false,"is_disabled":false,"rental_uris":{"android":"levelo://app?vid=cbc8703f-863e-4d07-888e-9157e1b7cd37","ios":"levelo://app?vid=cbc8703f-863e-4d07-888e-9157e1b7cd37"},"vehicle_type_id":"4","last_reported":1724184599,"current_range_meters":14400,"station_id":"ce4bgih2rcd13ifvqba0","pricing_plan_id":"cebpf4jnsgd1na2vs0mg"},{"bike_id":"96c2a947-93c0-41a4-86d2-168c77b5f770","system_id":"levelo_inurba_marseille","lat":43.29529,"lon":5.38549,"is_reserved":false,"is_disabled":false,"rental_uris":{"android":"levelo://app?vid=96c2a947-93c0-41a4-86d2-168c77b5f770","ios":"levelo://app?vid=96c2a947-93c0-41a4-86d2-168c77b5f770"},"vehicle_type_id":"4","last_reported":1724184599,"current_range_meters":31200,"station_id":"ce4bgih2rcd13ifvqba0","pricing_plan_id":"cebpf4jnsgd1na2vs0mg"},{"bike_id":"c68ca823-2bcb-4fa4-9c35-951a32c436fb","system_id":"levelo_inurba_marseille","lat":43.29526,"lon":5.3855,"is_reserved":false,"is_disabled":false,"rental_uris":{"android":"levelo://app?vid=c68ca823-2bcb-4fa4-9c35-951a32c436fb","ios":"levelo://app?vid=c68ca823-2bcb-4fa4-9c35-951a32c436fb"},"vehicle_type_id":"4","last_reported":1724184599,"current_range_meters":11600,"station_id":"ce4bgih2rcd13ifvqba0","pricing_plan_id":"cebpf4jnsgd1na2vs0mg"},{"bike_id":"e5f470d9-d6c5-41ad-b89b-76c36ef5c658","system_id":"levelo_inurba_marseille","lat":43.33246,"lon":5.38068,"is_reserved":false,"is_disabled":false,"rental_uris":{"android":"levelo://app?vid=e5f470d9-d6c5-41ad-b89b-76c36ef5c658","ios":"levelo://app?vid=e5f470d9-d6c5-41ad-b89b-76c36ef5c658"},"vehicle_type_id":"4","last_reported":1724184599,"current_range_meters":13200,"station_id":"","pricing_plan_id":"cebpf4jnsgd1na2vs0mg"},{"bike_id":"1c51c65b-bd17-4bdc-8551-98772ff50972","system_id":"levelo_inurba_marseille","lat":43.29313,"lon":5.38122,"is_reserved":false,"is_disabled":false,"rental_uris":{"android":"levelo://app?vid=1c51c65b-bd17-4bdc-8551-98772ff50972","ios":"levelo://app?vid=1c51c65b-bd17-4bdc-8551-98772ff50972"},"vehicle_type_id":"4","last_reported":1724184599,"current_range_meters":31200,"station_id":"","pricing_plan_id":"cebpf4jnsgd1na2vs0mg"},{"bike_id":"19e9cb83-8fe5-4795-a40d-e38e8401040e","system_id":"levelo_inurba_marseille","lat":43.29176,"lon":5.37949,"is_reserved":false,"is_disabled":false,"rental_uris":{"android":"levelo://app?vid=19e9cb83-8fe5-4795-a40d-e38e8401040e","ios":"levelo://app?vid=19e9cb83-8fe5-4795-a40d-e38e8401040e"},"vehicle_type_id":"4","last_reported":1724184599,"current_range_meters":1600,"station_id":"","pricing_plan_id":"cebpf4jnsgd1na2vs0mg"},{"bike_id":"0c67a196-24e9-41be-bf9c-adb28743cbb3","system_id":"levelo_inurba_marseille","lat":43.290327,"lon":5.375711,"is_reserved":false,"is_disabled":false,"rental_uris":{"android":"levelo://app?vid=0c67a196-24e9-41be-bf9c-adb28743cbb3","ios":"levelo://app?vid=0c67a196-24e9-41be-bf9c-adb28743cbb3"},"vehicle_type_id":"4","last_reported":1724184599,"current_range_meters":30000,"station_id":"ce4bh692rcd13ifvqe90","pricing_plan_id":"cebpf4jnsgd1na2vs0mg"},{"bike_id":"82452eac-9e0f-47c6-92e0-9426edeb49ec","system_id":"levelo_inurba_marseille","lat":43.294153,"lon":5.386305,"is_reserved":false,"is_disabled":false,"rental_uris":{"android":"levelo://app?vid=82452eac-9e0f-47c6-92e0-9426edeb49ec","ios":"levelo://app?vid=82452eac-9e0f-47c6-92e0-9426edeb49ec"},"vehicle_type_id":"4","last_reported":1724184599,"current_range_meters":28800,"station_id":"ce4bh2h2rcd13ifvqdh0","pricing_plan_id":"cebpf4jnsgd1na2vs0mg"},{"bike_id":"9bb0333c-3eea-464c-b71e-dfac28da7860","system_id":"levelo_inurba_marseille","lat":43.29422,"lon":5.3862,"is_reserved":false,"is_disabled":false,"rental_uris":{"android":"levelo://app?vid=9bb0333c-3eea-464c-b71e-dfac28da7860","ios":"levelo://app?vid=9bb0333c-3eea-464c-b71e-dfac28da7860"},"vehicle_type_id":"4","last_reported":1724184599,"current_range_meters":5600,"station_id":"ce4bh2h2rcd13ifvqdh0","pricing_plan_id":"cebpf4jnsgd1na2vs0mg"},{"bike_id":"a7804be1-dacb-4828-924b-2455607fae70","system_id":"levelo_inurba_marseille","lat":43.29423,"lon":5.38622,"is_reserved":false,"is_disabled":false,"rental_uris":{"android":"levelo://app?vid=a7804be1-dacb-4828-924b-2455607fae70","ios":"levelo://app?vid=a7804be1-dacb-4828-924b-2455607fae70"},"vehicle_type_id":"4","last_reported":1724184599,"current_range_meters":23200,"station_id":"ce4bh2h2rcd13ifvqdh0","pricing_plan_id":"cebpf4jnsgd1na2vs0mg"},{"bike_id":"d9fba37d-0f61-48b9-80de-5b3f37cfd14f","system_id":"levelo_inurba_marseille","lat":43.29423,"lon":5.38625,"is_reserved":false,"is_disabled":false,"rental_uris":{"android":"levelo://app?vid=d9fba37d-0f61-48b9-80de-5b3f37cfd14f","ios":"levelo://app?vid=d9fba37d-0f61-48b9-80de-5b3f37cfd14f"},"vehicle_type_id":"4","last_reported":1724184599,"current_range_meters":0,"station_id":"ce4bh2h2rcd13ifvqdh0","pricing_plan_id":"cebpf4jnsgd1na2vs0mg"},{"bike_id":"afbba0f7-80ae-4c86-afcb-740fa8055475","system_id":"levelo_inurba_marseille","lat":43.29424,"lon":5.38627,"is_reserved":false,"is_disabled":false,"rental_uris":{"android":"levelo://app?vid=afbba0f7-80ae-4c86-afcb-740fa8055475","ios":"levelo://app?vid=afbba0f7-80ae-4c86-afcb-740fa8055475"},"vehicle_type_id":"4","last_reported":1724184599,"current_range_meters":25200,"station_id":"ce4bh2h2rcd13ifvqdh0","pricing_plan_id":"cebpf4jnsgd1na2vs0mg"},{"bike_id":"4d927fc9-7e6b-4fff-b18b-38a24ee2f641","system_id":"levelo_inurba_marseille","lat":43.29424,"lon":5.38628,"is_reserved":false,"is_disabled":false,"rental_uris":{"android":"levelo://app?vid=4d927fc9-7e6b-4fff-b18b-38a24ee2f641","ios":"levelo://app?vid=4d927fc9-7e6b-4fff-b18b-38a24ee2f641"},"vehicle_type_id":"4","last_reported":1724184599,"current_range_meters":27600,"station_id":"ce4bh2h2rcd13ifvqdh0","pricing_plan_id":"cebpf4jnsgd1na2vs0mg"},{"bike_id":"c16e1ea9-bbea-4686-bf55-8e387351dd97","system_id":"levelo_inurba_marseille","lat":43.29422,"lon":5.38628,"is_reserved":false,"is_disabled":false,"rental_uris":{"android":"levelo://app?vid=c16e1ea9-bbea-4686-bf55-8e387351dd97","ios":"levelo://app?vid=c16e1ea9-bbea-4686-bf55-8e387351dd97"},"vehicle_type_id":"4","last_reported":1724184599,"current_range_meters":22400,"station_id":"ce4bh2h2rcd13ifvqdh0","pricing_plan_id":"cebpf4jnsgd1na2vs0mg"},{"bike_id":"9f18b094-a7e4-4f93-901e-7b06e6c24347","system_id":"levelo_inurba_marseille","lat":43.29422,"lon":5.38628,"is_reserved":false,"is_disabled":false,"rental_uris":{"android":"levelo://app?vid=9f18b094-a7e4-4f93-901e-7b06e6c24347","ios":"levelo://app?vid=9f18b094-a7e4-4f93-901e-7b06e6c24347"},"vehicle_type_id":"4","last_reported":1724184599,"current_range_meters":18800,"station_id":"ce4bh2h2rcd13ifvqdh0","pricing_plan_id":"cebpf4jnsgd1na2vs0mg"},{"bike_id":"73322591-e8ee-4867-aaf8-1a9ca9863fe7","system_id":"levelo_inurba_marseille","lat":43.289184,"lon":5.366408,"is_reserved":false,"is_disabled":false,"rental_uris":{"android":"levelo://app?vid=73322591-e8ee-4867-aaf8-1a9ca9863fe7","ios":"levelo://app?vid=73322591-e8ee-4867-aaf8-1a9ca9863fe7"},"vehicle_type_id":"4","last_reported":1724184599,"current_range_meters":31200,"station_id":"ce4bhap2rcd13ifvqek0","pricing_plan_id":"cebpf4jnsgd1na2vs0mg"},{"bike_id":"79494a78-78f5-4551-8564-f9dbd21f15d8","system_id":"levelo_inurba_marseille","lat":43.2942,"lon":5.38625,"is_reserved":false,"is_disabled":false,"rental_uris":{"android":"levelo://app?vid=79494a78-78f5-4551-8564-f9dbd21f15d8","ios":"levelo://app?vid=79494a78-78f5-4551-8564-f9dbd21f15d8"},"vehicle_type_id":"4","last_reported":1724184599,"current_range_meters":10800,"station_id":"ce4bh2h2rcd13ifvqdh0","pricing_plan_id":"cebpf4jnsgd1na2vs0mg"},{"bike_id":"89a11b19-09b5-493f-80a4-b70481a99b4b","system_id":"levelo_inurba_marseille","lat":43.29421,"lon":5.38627,"is_reserved":false,"is_disabled":false,"rental_uris":{"android":"levelo://app?vid=89a11b19-09b5-493f-80a4-b70481a99b4b","ios":"levelo://app?vid=89a11b19-09b5-493f-80a4-b70481a99b4b"},"vehicle_type_id":"4","last_reported":1724184599,"current_range_meters":1600,"station_id":"ce4bh2h2rcd13ifvqdh0","pricing_plan_id":"cebpf4jnsgd1na2vs0mg"},{"bike_id":"bf88c4df-9b9e-48ab-939d-274a8dcbcaee","system_id":"levelo_inurba_marseille","lat":43.294188,"lon":5.38624,"is_reserved":false,"is_disabled":false,"rental_uris":{"android":"levelo://app?vid=bf88c4df-9b9e-48ab-939d-274a8dcbcaee","ios":"levelo://app?vid=bf88c4df-9b9e-48ab-939d-274a8dcbcaee"},"vehicle_type_id":"4","last_reported":1724184599,"current_range_meters":18400,"station_id":"ce4bh2h2rcd13ifvqdh0","pricing_plan_id":"cebpf4jnsgd1na2vs0mg"},{"bike_id":"e9f2cae1-c3fe-4c56-be70-caa24feb015d","system_id":"levelo_inurba_marseille","lat":43.29417,"lon":5.38622,"is_reserved":false,"is_disabled":false,"rental_uris":{"android":"levelo://app?vid=e9f2cae1-c3fe-4c56-be70-caa24feb015d","ios":"levelo://app?vid=e9f2cae1-c3fe-4c56-be70-caa24feb015d"},"vehicle_type_id":"4","last_reported":1724184599,"current_range_meters":12400,"station_id":"ce4bh2h2rcd13ifvqdh0","pricing_plan_id":"cebpf4jnsgd1na2vs0mg"},{"bike_id":"844977b7-b522-4347-9f05-392ac171730f","system_id":"levelo_inurba_marseille","lat":43.28946,"lon":5.36647,"is_reserved":false,"is_disabled":false,"rental_uris":{"android":"levelo://app?vid=844977b7-b522-4347-9f05-392ac171730f","ios":"levelo://app?vid=844977b7-b522-4347-9f05-392ac171730f"},"vehicle_type_id":"4","last_reported":1724184599,"current_range_meters":0,"station_id":"ce4bhap2rcd13ifvqek0","pricing_plan_id":"cebpf4jnsgd1na2vs0mg"},{"bike_id":"1d01f8ed-f437-46f6-a435-f2a3020cc063","system_id":"levelo_inurba_marseille","lat":43.290319,"lon":5.375732,"is_reserved":false,"is_disabled":false,"rental_uris":{"android":"levelo://app?vid=1d01f8ed-f437-46f6-a435-f2a3020cc063","ios":"levelo://app?vid=1d01f8ed-f437-46f6-a435-f2a3020cc063"},"vehicle_type_id":"4","last_reported":1724184599,"current_range_meters":28000,"station_id":"ce4bh692rcd13ifvqe90","pricing_plan_id":"cebpf4jnsgd1na2vs0mg"},{"bike_id":"db75ef17-0ce9-4814-b0ad-6711c6eec297","system_id":"levelo_inurba_marseille","lat":43.28946,"lon":5.36631,"is_reserved":false,"is_disabled":false,"rental_uris":{"android":"levelo://app?vid=db75ef17-0ce9-4814-b0ad-6711c6eec297","ios":"levelo://app?vid=db75ef17-0ce9-4814-b0ad-6711c6eec297"},"vehicle_type_id":"4","last_reported":1724184599,"current_range_meters":31200,"station_id":"ce4bhap2rcd13ifvqek0","pricing_plan_id":"cebpf4jnsgd1na2vs0mg"},{"bike_id":"6b1185c2-43a3-4b07-8896-7f94233537ff","system_id":"levelo_inurba_marseille","lat":43.29417,"lon":5.386235,"is_reserved":false,"is_disabled":false,"rental_uris":{"android":"levelo://app?vid=6b1185c2-43a3-4b07-8896-7f94233537ff","ios":"levelo://app?vid=6b1185c2-43a3-4b07-8896-7f94233537ff"},