{"last_updated":1742911848,"ttl":60,"version":"2.2","data":{"bikes":[{"bike_id":"d1257018-446a-4772-b636-eb92013c3d00","system_id":"levelo_inurba_marseille","lat":43.295229,"lon":5.375042,"is_reserved":false,"is_disabled":true,"rental_uris":{"android":"levelo://app?vid=d1257018-446a-4772-b636-eb92013c3d00","ios":"levelo://app?vid=d1257018-446a-4772-b636-eb92013c3d00"},"vehicle_type_id":"4","last_reported":1742911848,"current_range_meters":2800,"station_id":"","pricing_plan_id":"cebpf4jnsgd1na2vs0mg"},{"bike_id":"b89d5c58-0d7b-4f4f-8e36-d3e693accc3c","system_id":"levelo_inurba_marseille","lat":43.32359,"lon":5.36739,"is_reserved":false,"is_disabled":false,"rental_uris":{"android":"levelo://app?vid=b89d5c58-0d7b-4f4f-8e36-d3e693accc3c","ios":"levelo://app?vid=b89d5c58-0d7b-4f4f-8e36-d3e693accc3c"},"vehicle_type_id":"4","last_reported":1742911848,"current_range_meters":2800,"station_id":"ce4bhsh2rcd13ifvqi2g","pricing_plan_id":"cebpf4jnsgd1na2vs0mg"},{"bike_id":"23ba5fee-5cb2-4033-8976-f9dd0684d517","system_id":"levelo_inurba_marseille","lat":43.30134,"lon":5.39863,"is_reserved":false,"is_disabled":false,"rental_uris":{"android":"levelo://app?vid=23ba5fee-5cb2-4033-8976-f9dd0684d517","ios":"levelo://app?vid=23ba5fee-5cb2-4033-8976-f9dd0684d517"},"vehicle_type_id":"4","last_reported":1742911848,"current_range_meters":2000,"station_id":"ce4bh0h2rcd13ifvqd40","pricing_plan_id":"cebpf4jnsgd1na2vs0mg"},{"bike_id":"b171da26-119e-41e1-b2cd-afb442ce6a35","system_id":"levelo_inurba_marseille","lat":43.32363,"lon":5.36764,"is_reserved":false,"is_disabled":false,"rental_uris":{"android":"levelo://app?vid=b171da26-119e-41e1-b2cd-afb442ce6a35","ios":"levelo://app?vid=b171da26-119e-41e1-b2cd-afb442ce6a35"},"vehicle_type_id":"4","last_reported":1742911848,"current_range_meters":3200,"station_id":"ce4bhsh2rcd13ifvqi2g","pricing_plan_id":"cebpf4jnsgd1na2vs0mg"},{"bike_id":"4aeb3b10-8578-48b6-a50f-baa9a8c98166","system_id":"levelo_inurba_marseille","lat":43.30881,"lon":5.39656,"is_reserved":false,"is_disabled":false,"rental_uris":{"android":"levelo://app?vid=4aeb3b10-8578-48b6-a50f-baa9a8c98166","ios":"levelo://app?vid=4aeb3b10-8578-48b6-a50f-baa9a8c98166"},"vehicle_type_id":"4","last_reported":1742911848,"current_range_meters":3200,"station_id":"ce4bh012rcd13ifvqcv0","pricing_plan_id":"cebpf4jnsgd1na2vs0mg"},{"bike_id":"6e14284d-ac7f-4ce5-bd20-359d330e90c3","system_id":"levelo_inurba_marseille","lat":43.28158,"lon":5.42641,"is_reserved":false,"is_disabled":false,"rental_uris":{"android":"levelo://app?vid=6e14284d-ac7f-4ce5-bd20-359d330e90c3","ios":"levelo://app?vid=6e14284d-ac7f-4ce5-bd20-359d330e90c3"},"vehicle_type_id":"4","last_reported":1742911848,"current_range_meters":3200,"station_id":"ce4bhnh2rcd13ifvqgug","pricing_plan_id":"cebpf4jnsgd1na2vs0mg"},{"bike_id":"a636d69c-19b5-419a-b2eb-a8424be63df9","system_id":"levelo_inurba_marseille","lat":43.23194,"lon":5.3554,"is_reserved":false,"is_disabled":false,"rental_uris":{"android":"levelo://app?vid=a636d69c-19b5-419a-b2eb-a8424be63df9","ios":"levelo://app?vid=a636d69c-19b5-419a-b2eb-a8424be63df9"},"vehicle_type_id":"4","last_reported":1742911848,"current_range_meters":3200,"station_id":"ce4bhu92rcd13ifvqi70","pricing_plan_id":"cebpf4jnsgd1na2vs0mg"},{"bike_id":"c723a9e2-9573-4a67-8c27-178ee7e12990","system_id":"levelo_inurba_marseille","lat":43.27494,"lon":5.4246,"is_reserved":false,"is_disabled":false,"rental_uris":{"android":"levelo://app?vid=c723a9e2-9573-4a67-8c27-178ee7e12990","ios":"levelo://app?vid=c723a9e2-9573-4a67-8c27-178ee7e12990"},"vehicle_type_id":"4","last_reported":1742911848,"current_range_meters":3200,"station_id":"ce4bhn92rcd13ifvqgrg","pricing_plan_id":"cebpf4jnsgd1na2vs0mg"},{"bike_id":"5c831237-8e7e-41ab-895c-38555a454c3b","system_id":"levelo_inurba_marseille","lat":43.28437,"lon":5.39229,"is_reserved":false,"is_disabled":false,"rental_uris":{"android":"levelo://app?vid=5c831237-8e7e-41ab-895c-38555a454c3b","ios":"levelo://app?vid=5c831237-8e7e-41ab-895c-38555a454c3b"},"vehicle_type_id":"4","last_reported":1742911848,"current_range_meters":3200,"station_id":"ce4bhoh2rcd13ifvqh5g","pricing_plan_id":"cebpf4jnsgd1na2vs0mg"},{"bike_id":"e2f208bd-f711-40a8-b32a-bd83dc1cf70f","system_id":"levelo_inurba_marseille","lat":43.269633,"lon":5.386604,"is_reserved":false,"is_disabled":false,"rental_uris":{"android":"levelo://app?vid=e2f208bd-f711-40a8-b32a-bd83dc1cf70f","ios":"levelo://app?vid=e2f208bd-f711-40a8-b32a-bd83dc1cf70f"},"vehicle_type_id":"4","last_reported":1742911848,"current_range_meters":3200,"station_id":"ce4bhhp2rcd13ifvqfm0","pricing_plan_id":"cebpf4jnsgd1na2vs0mg"},{"bike_id":"0f7d7dea-98fe-49ce-8cee-d4e1fb891436","system_id":"levelo_inurba_marseille","lat":43.31348,"lon":5.36699,"is_reserved":false,"is_disabled":false,"rental_uris":{"android":"levelo://app?vid=0f7d7dea-98fe-49ce-8cee-d4e1fb891436","ios":"levelo://app?vid=0f7d7dea-98fe-49ce-8cee-d4e1fb891436"},"vehicle_type_id":"4","last_reported":1742911848,"current_range_meters":3200,"station_id":"ce4bgr92rcd13ifvqc6g","pricing_plan_id":"cebpf4jnsgd1na2vs0mg"},{"bike_id":"e8a8681a-90be-4ab3-80a0-95a4b8b4cbd9","system_id":"levelo_inurba_marseille","lat":43.31229,"lon":5.36854,"is_reserved":false,"is_disabled":false,"rental_uris":{"android":"levelo://app?vid=e8a8681a-90be-4ab3-80a0-95a4b8b4cbd9","ios":"levelo://app?vid=e8a8681a-90be-4ab3-80a0-95a4b8b4cbd9"},"vehicle_type_id":"4","last_reported":1742911848,"current_range_meters":3600,"station_id":"ce4bgl92rcd13ifvqbq0","pricing_plan_id":"cebpf4jnsgd1na2vs0mg"},{"bike_id":"63d408ea-96a9-4bbc-bae5-5a0b736f776f","system_id":"levelo_inurba_marseille","lat":43.29046,"lon":5.37156,"is_reserved":false,"is_disabled":false,"rental_uris":{"android":"levelo://app?vid=63d408ea-96a9-4bbc-bae5-5a0b736f776f","ios":"levelo://app?vid=63d408ea-96a9-4bbc-bae5-5a0b736f776f"},"vehicle_type_id":"4","last_reported":1742911848,"current_range_meters":4000,"station_id":"ce4bh5p2rcd13ifvqe4g","pricing_plan_id":"cebpf4jnsgd1na2vs0mg"},{"bike_id":"c3cfbb84-ec68-41c3-b101-b22bb89c1145","system_id":"levelo_inurba_marseille","lat":43.30417,"lon":5.39753,"is_reserved":false,"is_disabled":false,"rental_uris":{"android":"levelo://app?vid=c3cfbb84-ec68-41c3-b101-b22bb89c1145","ios":"levelo://app?vid=c3cfbb84-ec68-41c3-b101-b22bb89c1145"},"vehicle_type_id":"4","last_reported":1742911848,"current_range_meters":4000,"station_id":"ce4bh092rcd13ifvqd20","pricing_plan_id":"cebpf4jnsgd1na2vs0mg"},{"bike_id":"c674abf4-d5b2-45b5-99ee-1dd3f5179b2d","system_id":"levelo_inurba_marseille","lat":43.29683,"lon":5.36201,"is_reserved":false,"is_disabled":false,"rental_uris":{"android":"levelo://app?vid=c674abf4-d5b2-45b5-99ee-1dd3f5179b2d","ios":"levelo://app?vid=c674abf4-d5b2-45b5-99ee-1dd3f5179b2d"},"vehicle_type_id":"4","last_reported":1742911848,"current_range_meters":4000,"station_id":"","pricing_plan_id":"cebpf4jnsgd1na2vs0mg"},{"bike_id":"a0a460eb-34d7-43d6-85ef-87b30455cbf0","system_id":"levelo_inurba_marseille","lat":43.23963,"lon":5.36621,"is_reserved":false,"is_disabled":false,"rental_uris":{"android":"levelo://app?vid=a0a460eb-34d7-43d6-85ef-87b30455cbf0","ios":"levelo://app?vid=a0a460eb-34d7-43d6-85ef-87b30455cbf0"},"vehicle_type_id":"4","last_reported":1742911848,"current_range_meters":4000,"station_id":"ce4bhi12rcd13ifvqfp0","pricing_plan_id":"cebpf4jnsgd1na2vs0mg"},{"bike_id":"410f25d7-0de8-4257-b74d-079912b5ad7b","system_id":"levelo_inurba_marseille","lat":43.2706,"lon":5.40263,"is_reserved":false,"is_disabled":false,"rental_uris":{"android":"levelo://app?vid=410f25d7-0de8-4257-b74d-079912b5ad7b","ios":"levelo://app?vid=410f25d7-0de8-4257-b74d-079912b5ad7b"},"vehicle_type_id":"4","last_reported":1742911848,"current_range_meters":4000,"station_id":"ce4bhk92rcd13ifvqgc0","pricing_plan_id":"cebpf4jnsgd1na2vs0mg"},{"bike_id":"38c86b9d-9dd3-4ede-a2a3-f44b312eecca","system_id":"levelo_inurba_marseille","lat":43.31231,"lon":5.36897,"is_reserved":false,"is_disabled":false,"rental_uris":{"android":"levelo://app?vid=38c86b9d-9dd3-4ede-a2a3-f44b312eecca","ios":"levelo://app?vid=38c86b9d-9dd3-4ede-a2a3-f44b312eecca"},"vehicle_type_id":"4","last_reported":1742911848,"current_range_meters":4000,"station_id":"","pricing_plan_id":"cebpf4jnsgd1na2vs0mg"},{"bike_id":"ebf86de8-a3f7-4563-b9cd-62f5316ef4ec","system_id":"levelo_inurba_marseille","lat":43.30933,"lon":5.4016,"is_reserved":false,"is_disabled":true,"rental_uris":{"android":"levelo://app?vid=ebf86de8-a3f7-4563-b9cd-62f5316ef4ec","ios":"levelo://app?vid=ebf86de8-a3f7-4563-b9cd-62f5316ef4ec"},"vehicle_type_id":"4","last_reported":1742911848,"current_range_meters":4400,"station_id":"ce4bgvp2rcd13ifvqct0","pricing_plan_id":"cebpf4jnsgd1na2vs0mg"},{"bike_id":"b00ff642-be2e-436c-937d-290e7ef11bc5","system_id":"levelo_inurba_marseille","lat":43.25823,"lon":5.39429,"is_reserved":false,"is_disabled":false,"rental_uris":{"android":"levelo://app?vid=b00ff642-be2e-436c-937d-290e7ef11bc5","ios":"levelo://app?vid=b00ff642-be2e-436c-937d-290e7ef11bc5"},"vehicle_type_id":"4","last_reported":1742911848,"current_range_meters":4800,"station_id":"ce4bhip2rcd13ifvqft0","pricing_plan_id":"cebpf4jnsgd1na2vs0mg"},{"bike_id":"f02a77b8-f810-41ff-bf5b-5ab742b469a7","system_id":"levelo_inurba_marseille","lat":43.231534,"lon":5.436986,"is_reserved":false,"is_disabled":false,"rental_uris":{"android":"levelo://app?vid=f02a77b8-f810-41ff-bf5b-5ab742b469a7","ios":"levelo://app?vid=f02a77b8-f810-41ff-bf5b-5ab742b469a7"},"vehicle_type_id":"4","last_reported":1742911848,"current_range_meters":4800,"station_id":"ce4bhmp2rcd13ifvqgog","pricing_plan_id":"cebpf4jnsgd1na2vs0mg"},{"bike_id":"f374bb50-8f47-43ea-8426-603c9cc772ec","system_id":"levelo_inurba_marseille","lat":43.30883,"lon":5.39633,"is_reserved":false,"is_disabled":false,"rental_uris":{"android":"levelo://app?vid=f374bb50-8f47-43ea-8426-603c9cc772ec","ios":"levelo://app?vid=f374bb50-8f47-43ea-8426-603c9cc772ec"},"vehicle_type_id":"4","last_reported":1742911848,"current_range_meters":4800,"station_id":"ce4bh012rcd13ifvqcv0","pricing_plan_id":"cebpf4jnsgd1na2vs0mg"},{"bike_id":"b8727117-5b78-4931-b703-6482be2d0344","system_id":"levelo_inurba_marseille","lat":43.25572,"lon":5.3824,"is_reserved":false,"is_disabled":false,"rental_uris":{"android":"levelo://app?vid=b8727117-5b78-4931-b703-6482be2d0344","ios":"levelo://app?vid=b8727117-5b78-4931-b703-6482be2d0344"},"vehicle_type_id":"4","last_reported":1742911848,"current_range_meters":5600,"station_id":"ce4bhih2rcd13ifvqfs0","pricing_plan_id":"cebpf4jnsgd1na2vs0mg"},{"bike_id":"53eb109e-72a2-4341-b6d6-2c93af7d35b0","system_id":"levelo_inurba_marseille","lat":43.29274,"lon":5.3686,"is_reserved":false,"is_disabled":false,"rental_uris":{"android":"levelo://app?vid=53eb109e-72a2-4341-b6d6-2c93af7d35b0","ios":"levelo://app?vid=53eb109e-72a2-4341-b6d6-2c93af7d35b0"},"vehicle_type_id":"4","last_reported":1742911848,"current_range_meters":5600,"station_id":"ce4bhbp2rcd13ifvqesg","pricing_plan_id":"cebpf4jnsgd1na2vs0mg"},{"bike_id":"ff2e60d0-cc5d-485b-8b45-8f58e1016574","system_id":"levelo_inurba_marseille","lat":43.26681,"lon":5.3827,"is_reserved":false,"is_disabled":false,"rental_uris":{"android":"levelo://app?vid=ff2e60d0-cc5d-485b-8b45-8f58e1016574","ios":"levelo://app?vid=ff2e60d0-cc5d-485b-8b45-8f58e1016574"},"vehicle_type_id":"4","last_reported":1742911848,"current_range_meters":5600,"station_id":"ce4bhg92rcd13ifvqf90","pricing_plan_id":"cebpf4jnsgd1na2vs0mg"},{"bike_id":"2f08ba24-c017-4334-8cd8-6cb49eab4771","system_id":"levelo_inurba_marseille","lat":43.31663,"lon":5.37261,"is_reserved":false,"is_disabled":false,"rental_uris":{"android":"levelo://app?vid=2f08ba24-c017-4334-8cd8-6cb49eab4771","ios":"levelo://app?vid=2f08ba24-c017-4334-8cd8-6cb49eab4771"},"vehicle_type_id":"4","last_reported":1742911848,"current_range_meters":5600,"station_id":"","pricing_plan_id":"cebpf4jnsgd1na2vs0mg"},{"bike_id":"f4a6b6af-e9b6-4b66-bfaf-e88ff4aaf9e4","system_id":"levelo_inurba_marseille","lat":43.31276,"lon":5.40179,"is_reserved":false,"is_disabled":false,"rental_uris":{"android":"levelo://app?vid=f4a6b6af-e9b6-4b66-bfaf-e88ff4aaf9e4","ios":"levelo://app?vid=f4a6b6af-e9b6-4b66-bfaf-e88ff4aaf9e4"},"vehicle_type_id":"4","last_reported":1742911848,"current_range_meters":5600,"station_id":"ce4bh092rcd13ifvqd30","pricing_plan_id":"cebpf4jnsgd1na2vs0mg"},{"bike_id":"df632c8e-92f6-4b8a-9524-6d142d68aad1","system_id":"levelo_inurba_marseille","lat":43.25583,"lon":5.38235,"is_reserved":false,"is_disabled":false,"rental_uris":{"android":"levelo://app?vid=df632c8e-92f6-4b8a-9524-6d142d68aad1","ios":"levelo://app?vid=df632c8e-92f6-4b8a-9524-6d142d68aad1"},"vehicle_type_id":"4","last_reported":1742911848,"current_range_meters":6000,"station_id":"","pricing_plan_id":"cebpf4jnsgd1na2vs0mg"},{"bike_id":"0ddc82fe-7fb3-4823-954d-f779883301be","system_id":"levelo_inurba_marseille","lat":43.31227,"lon":5.36858,"is_reserved":false,"is_disabled":false,"rental_uris":{"android":"levelo://app?vid=0ddc82fe-7fb3-4823-954d-f779883301be","ios":"levelo://app?vid=0ddc82fe-7fb3-4823-954d-f779883301be"},"vehicle_type_id":"4","last_reported":1742911848,"current_range_meters":6000,"station_id":"ce4bgl92rcd13ifvqbq0","pricing_plan_id":"cebpf4jnsgd1na2vs0mg"},{"bike_id":"47fc243b-bfc2-4f15-abec-c10fb6e947a3","system_id":"levelo_inurba_marseille","lat":43.22939,"lon":5.35382,"is_reserved":false,"is_disabled":false,"rental_uris":{"android":"levelo://app?vid=47fc243b-bfc2-4f15-abec-c10fb6e947a3","ios":"levelo://app?vid=47fc243b-bfc2-4f15-abec-c10fb6e947a3"},"vehicle_type_id":"4","last_reported":1742911848,"current_range_meters":6000,"station_id":"cpo3532slgdg3j2ikp40","pricing_plan_id":"cebpf4jnsgd1na2vs0mg"},{"bike_id":"d0de300c-b25d-4431-929e-879e18667c2d","system_id":"levelo_inurba_marseille","lat":43.33107,"lon":5.38695,"is_reserved":false,"is_disabled":false,"rental_uris":{"android":"levelo://app?vid=d0de300c-b25d-4431-929e-879e18667c2d","ios":"levelo://app?vid=d0de300c-b25d-4431-929e-879e18667c2d"},"vehicle_type_id":"4","last_reported":1742911848,"current_range_meters":6400,"station_id":"","pricing_plan_id":"cebpf4jnsgd1na2vs0mg"},{"bike_id":"775601d0-1d64-4764-8b8d-386525c8a65d","system_id":"levelo_inurba_marseille","lat":43.32109,"lon":5.36797,"is_reserved":false,"is_disabled":false,"rental_uris":{"android":"levelo://app?vid=775601d0-1d64-4764-8b8d-386525c8a65d","ios":"levelo://app?vid=775601d0-1d64-4764-8b8d-386525c8a65d"},"vehicle_type_id":"4","last_reported":1742911848,"current_range_meters":6400,"station_id":"ce4bhrh2rcd13ifvqhug","pricing_plan_id":"cebpf4jnsgd1na2vs0mg"},{"bike_id":"8723922e-320e-4649-af0a-8190d390afa0","system_id":"levelo_inurba_marseille","lat":43.32102,"lon":5.36781,"is_reserved":false,"is_disabled":false,"rental_uris":{"android":"levelo://app?vid=8723922e-320e-4649-af0a-8190d390afa0","ios":"levelo://app?vid=8723922e-320e-4649-af0a-8190d390afa0"},"vehicle_type_id":"4","last_reported":1742911848,"current_range_meters":6400,"station_id":"ce4bhrh2rcd13ifvqhug","pricing_plan_id":"cebpf4jnsgd1na2vs0mg"},{"bike_id":"cf30ba2d-9dd5-4d8d-b3a7-9af496f3ef85","system_id":"levelo_inurba_marseille","lat":43.289226,"lon":5.381897,"is_reserved":false,"is_disabled":false,"rental_uris":{"android":"levelo://app?vid=cf30ba2d-9dd5-4d8d-b3a7-9af496f3ef85","ios":"levelo://app?vid=cf30ba2d-9dd5-4d8d-b3a7-9af496f3ef85"},"vehicle_type_id":"4","last_reported":1742911848,"current_range_meters":6400,"station_id":"ce4bh4p2rcd13ifvqe1g","pricing_plan_id":"cebpf4jnsgd1na2vs0mg"},{"bike_id":"13eb1deb-fb24-47f8-a37b-471311b60021","system_id":"levelo_inurba_marseille","lat":43.28158,"lon":5.42647,"is_reserved":false,"is_disabled":false,"rental_uris":{"android":"levelo://app?vid=13eb1deb-fb24-47f8-a37b-471311b60021","ios":"levelo://app?vid=13eb1deb-fb24-47f8-a37b-471311b60021"},"vehicle_type_id":"4","last_reported":1742911848,"current_range_meters":6400,"station_id":"ce4bhnh2rcd13ifvqgug","pricing_plan_id":"cebpf4jnsgd1na2vs0mg"},{"bike_id":"7fe9a385-3cb1-429e-bc3b-abab1a23a3a2","system_id":"levelo_inurba_marseille","lat":43.23056,"lon":5.35494,"is_reserved":false,"is_disabled":false,"rental_uris":{"android":"levelo://app?vid=7fe9a385-3cb1-429e-bc3b-abab1a23a3a2","ios":"levelo://app?vid=7fe9a385-3cb1-429e-bc3b-abab1a23a3a2"},"vehicle_type_id":"4","last_reported":1742911848,"current_range_meters":6400,"station_id":"cpo3342slgdg3j2ifvpg","pricing_plan_id":"cebpf4jnsgd1na2vs0mg"},{"bike_id":"ac9b27dd-30c7-4252-a0e7-a9b9c976a453","system_id":"levelo_inurba_marseille","lat":43.29714,"lon":5.37696,"is_reserved":false,"is_disabled":false,"rental_uris":{"android":"levelo://app?vid=ac9b27dd-30c7-4252-a0e7-a9b9c976a453","ios":"levelo://app?vid=ac9b27dd-30c7-4252-a0e7-a9b9c976a453"},"vehicle_type_id":"4","last_reported":1742911848,"current_range_meters":6800,"station_id":"ce4bgkh2rcd13ifvqbl0","pricing_plan_id":"cebpf4jnsgd1na2vs0mg"},{"bike_id":"1b65f3cd-728f-4b90-b6fb-89cc294d02b1","system_id":"levelo_inurba_marseille","lat":43.29897,"lon":5.43668,"is_reserved":false,"is_disabled":false,"rental_uris":{"android":"levelo://app?vid=1b65f3cd-728f-4b90-b6fb-89cc294d02b1","ios":"levelo://app?vid=1b65f3cd-728f-4b90-b6fb-89cc294d02b1"},"vehicle_type_id":"4","last_reported":1742911848,"current_range_meters":6400,"station_id":"ce4bhpp2rcd13ifvqhfg","pricing_plan_id":"cebpf4jnsgd1na2vs0mg"},{"bike_id":"aee65f89-d928-4f0d-b9ee-4a47671540a1","system_id":"levelo_inurba_marseille","lat":43.31224,"lon":5.36852,"is_reserved":false,"is_disabled":false,"rental_uris":{"android":"levelo://app?vid=aee65f89-d928-4f0d-b9ee-4a47671540a1","ios":"levelo://app?vid=aee65f89-d928-4f0d-b9ee-4a47671540a1"},"vehicle_type_id":"4","last_reported":1742911848,"current_range_meters":6800,"station_id":"ce4bgl92rcd13ifvqbq0","pricing_plan_id":"cebpf4jnsgd1na2vs0mg"},{"bike_id":"ffa8b16f-a83e-4bb4-82e1-70d1502f78b7","system_id":"levelo_inurba_marseille","lat":43.28864,"lon":5.35858,"is_reserved":false,"is_disabled":false,"rental_uris":{"android":"levelo://app?vid=ffa8b16f-a83e-4bb4-82e1-70d1502f78b7","ios":"levelo://app?vid=ffa8b16f-a83e-4bb4-82e1-70d1502f78b7"},"vehicle_type_id":"4","last_reported":1742911848,"current_range_meters":6800,"station_id":"ce4bhb12rcd13ifvqem0","pricing_plan_id":"cebpf4jnsgd1na2vs0mg"},{"bike_id":"df5148f7-80db-43ab-8f91-86d34986dc4e","system_id":"levelo_inurba_marseille","lat":43.29628,"lon":5.37171,"is_reserved":false,"is_disabled":false,"rental_uris":{"android":"levelo://app?vid=df5148f7-80db-43ab-8f91-86d34986dc4e","ios":"levelo://app?vid=df5148f7-80db-43ab-8f91-86d34986dc4e"},"vehicle_type_id":"4","last_reported":1742911848,"current_range_meters":6800,"station_id":"ce4bgnh2rcd13ifvqc0g","pricing_plan_id":"cebpf4jnsgd1na2vs0mg"},{"bike_id":"1cdb5e5f-6bda-4e07-b645-0554ed59cc39","system_id":"levelo_inurba_marseille","lat":43.25835,"lon":5.39442,"is_reserved":false,"is_disabled":false,"rental_uris":{"android":"levelo://app?vid=1cdb5e5f-6bda-4e07-b645-0554ed59cc39","ios":"levelo://app?vid=1cdb5e5f-6bda-4e07-b645-0554ed59cc39"},"vehicle_type_id":"4","last_reported":1742911848,"current_range_meters":6800,"station_id":"ce4bhip2rcd13ifvqft0","pricing_plan_id":"cebpf4jnsgd1na2vs0mg"},{"bike_id":"a1467c8d-d458-48fa-ae2a-398452ffafde","system_id":"levelo_inurba_marseille","lat":43.31759,"lon":5.39014,"is_reserved":false,"is_disabled":false,"rental_uris":{"android":"levelo://app?vid=a1467c8d-d458-48fa-ae2a-398452ffafde","ios":"levelo://app?vid=a1467c8d-d458-48fa-ae2a-398452ffafde"},"vehicle_type_id":"4","last_reported":1742911848,"current_range_meters":6800,"station_id":"ce4bhqp2rcd13ifvqhng","pricing_plan_id":"cebpf4jnsgd1na2vs0mg"},{"bike_id":"bd19e553-e5f5-4b5c-8770-02920f14b999","system_id":"levelo_inurba_marseille","lat":43.31373,"lon":5.36751,"is_reserved":false,"is_disabled":false,"rental_uris":{"android":"levelo://app?vid=bd19e553-e5f5-4b5c-8770-02920f14b999","ios":"levelo://app?vid=bd19e553-e5f5-4b5c-8770-02920f14b999"},"vehicle_type_id":"4","last_reported":1742911848,"current_range_meters":6800,"station_id":"","pricing_plan_id":"cebpf4jnsgd1na2vs0mg"},{"bike_id":"60a4bfdd-976f-4f2f-a21a-68c4e333ecd6","system_id":"levelo_inurba_marseille","lat":43.23064,"lon":5.35505,"is_reserved":false,"is_disabled":false,"rental_uris":{"android":"levelo://app?vid=60a4bfdd-976f-4f2f-a21a-68c4e333ecd6","ios":"levelo://app?vid=60a4bfdd-976f-4f2f-a21a-68c4e333ecd6"},"vehicle_type_id":"4","last_reported":1742911848,"current_range_meters":6800,"station_id":"cpo3342slgdg3j2ifvpg","pricing_plan_id":"cebpf4jnsgd1na2vs0mg"},{"bike_id":"423ece53-0c9a-4215-8bcc-b9583ef0fa65","system_id":"levelo_inurba_marseille","lat":43.26681,"lon":5.38263,"is_reserved":false,"is_disabled":false,"rental_uris":{"android":"levelo://app?vid=423ece53-0c9a-4215-8bcc-b9583ef0fa65","ios":"levelo://app?vid=423ece53-0c9a-4215-8bcc-b9583ef0fa65"},"vehicle_type_id":"4","last_reported":1742911848,"current_range_meters":6800,"station_id":"ce4bhg92rcd13ifvqf90","pricing_plan_id":"cebpf4jnsgd1na2vs0mg"},{"bike_id":"fbfecbb6-5794-4d9a-9176-1810e4b4a7ef","system_id":"levelo_inurba_marseille","lat":43.23063,"lon":5.355,"is_reserved":false,"is_disabled":false,"rental_uris":{"android":"levelo://app?vid=fbfecbb6-5794-4d9a-9176-1810e4b4a7ef","ios":"levelo://app?vid=fbfecbb6-5794-4d9a-9176-1810e4b4a7ef"},"vehicle_type_id":"4","last_reported":1742911848,"current_range_meters":6800,"station_id":"cpo3342slgdg3j2ifvpg","pricing_plan_id":"cebpf4jnsgd1na2vs0mg"},{"bike_id":"54a40a98-dfab-48eb-b83b-388ce6f29848","system_id":"levelo_inurba_marseille","lat":43.21952,"lon":5.41869,"is_reserved":false,"is_disabled":false,"rental_uris":{"android":"levelo://app?vid=54a40a98-dfab-48eb-b83b-388ce6f29848","ios":"levelo://app?vid=54a40a98-dfab-48eb-b83b-388ce6f29848"},"vehicle_type_id":"4","last_reported":1742911848,"current_range_meters":6800,"station_id":"","pricing_plan_id":"cebpf4jnsgd1na2vs0mg"},{"bike_id":"e117a0a5-1095-47c3-90e2-c8d5bf6e72e4","system_id":"levelo_inurba_marseille","lat":43.3063,"lon":5.36743,"is_reserved":false,"is_disabled":false,"rental_uris":{"android":"levelo://app?vid=e117a0a5-1095-47c3-90e2-c8d5bf6e72e4","ios":"levelo://app?vid=e117a0a5-1095-47c3-90e2-c8d5bf6e72e4"},"vehicle_type_id":"4","last_reported":1742911848,"current_range_meters":6800,"station_id":"","pricing_plan_id":"cebpf4jnsgd1na2vs0mg"},{"bike_id":"51c5b27d-c429-43f3-94ab-f80e22755c12","system_id":"levelo_inurba_marseille","lat":43.29533,"lon":5.3858,"is_reserved":false,"is_disabled":false,"rental_uris":{"android":"levelo://app?vid=51c5b27d-c429-43f3-94ab-f80e22755c12","ios":"levelo://app?vid=51c5b27d-c429-43f3-94ab-f80e22755c12"},"vehicle_type_id":"4","last_reported":1742911848,"current_range_meters":6800,"station_id":"ce4bgih2rcd13ifvqba0","pricing_plan_id":"cebpf4jnsgd1na2vs0mg"},{"bike_id":"2462aff4-312c-46a9-ae18-d864ef42c20c","system_id":"levelo_inurba_marseille","lat":43.24174,"lon":5.36388,"is_reserved":false,"is_disabled":false,"rental_uris":{"android":"levelo://app?vid=2462aff4-312c-46a9-ae18-d864ef42c20c","ios":"levelo://app?vid=2462aff4-312c-46a9-ae18-d864ef42c20c"},"vehicle_type_id":"4","last_reported":1742911848,"current_range_meters":7200,"station_id":"cpo36qri1sfpv3e86is0","pricing_plan_id":"cebpf4jnsgd1na2vs0mg"},{"bike_id":"1b8779ee-15bd-411f-8230-66fb3b9d06b8","system_id":"levelo_inurba_marseille","lat":43.29884,"lon":5.43648,"is_reserved":false,"is_disabled":false,"rental_uris":{"android":"levelo://app?vid=1b8779ee-15bd-411f-8230-66fb3b9d06b8","ios":"levelo://app?vid=1b8779ee-15bd-411f-8230-66fb3b9d06b8"},"vehicle_type_id":"4","last_reported":1742911848,"current_range_meters":7200,"station_id":"ce4bhpp2rcd13ifvqhfg","pricing_plan_id":"cebpf4jnsgd1na2vs0mg"},{"bike_id":"89726fdc-bac8-4a97-9944-0e6899c7f8d2","system_id":"levelo_inurba_marseille","lat":43.29713,"lon":5.362037,"is_reserved":false,"is_disabled":false,"rental_uris":{"android":"levelo://app?vid=89726fdc-bac8-4a97-9944-0e6899c7f8d2","ios":"levelo://app?vid=89726fdc-bac8-4a97-9944-0e6899c7f8d2"},"vehicle_type_id":"4","last_reported":1742911848,"current_range_meters":7200,"station_id":"","pricing_plan_id":"cebpf4jnsgd1na2vs0mg"},{"bike_id":"aed69125-97ee-4528-9111-b69673862534","system_id":"levelo_inurba_marseille","lat":43.28462,"lon":5.35888,"is_reserved":false,"is_disabled":false,"rental_uris":{"android":"levelo://app?vid=aed69125-97ee-4528-9111-b69673862534","ios":"levelo://app?vid=aed69125-97ee-4528-9111-b69673862534"},"vehicle_type_id":"4","last_reported":1742911848,"current_range_meters":7200,"station_id":"ce4bhah2rcd13ifvqei0","pricing_plan_id":"cebpf4jnsgd1na2vs0mg"},{"bike_id":"1a762c6f-693f-471c-96b9-bf1ebf4986dc","system_id":"levelo_inurba_marseille","lat":43.28433,"lon":5.34998,"is_reserved":false,"is_disabled":false,"rental_uris":{"android":"levelo://app?vid=1a762c6f-693f-471c-96b9-bf1ebf4986dc","ios":"levelo://app?vid=1a762c6f-693f-471c-96b9-bf1ebf4986dc"},"vehicle_type_id":"4","last_reported":1742911848,"current_range_meters":7200,"station_id":"","pricing_plan_id":"cebpf4jnsgd1na2vs0mg"},{"bike_id":"7e12ca1b-36c9-4b93-92c0-3a4589cc9871","system_id":"levelo_inurba_marseille","lat":43.28038,"lon":5.36944,"is_reserved":false,"is_disabled":false,"rental_uris":{"android":"levelo://app?vid=7e12ca1b-36c9-4b93-92c0-3a4589cc9871","ios":"levelo://app?vid=7e12ca1b-36c9-4b93-92c0-3a4589cc9871"},"vehicle_type_id":"4","last_reported":1742911848,"current_range_meters":7200,"station_id":"ce4bha12rcd13ifvqef0","pricing_plan_id":"cebpf4jnsgd1na2vs0mg"},{"bike_id":"b1d42ec9-b25c-405e-b481-e18d1d15116a","system_id":"levelo_inurba_marseille","lat":43.28454,"lon":5.358739,"is_reserved":false,"is_disabled":false,"rental_uris":{"android":"levelo://app?vid=b1d42ec9-b25c-405e-b481-e18d1d15116a","ios":"levelo://app?vid=b1d42ec9-b25c-405e-b481-e18d1d15116a"},"vehicle_type_id":"4","last_reported":1742911848,"current_range_meters":7200,"station_id":"ce4bhah2rcd13ifvqei0","pricing_plan_id":"cebpf4jnsgd1na2vs0mg"},{"bike_id":"077f2b93-8f43-4f08-8ace-a02b56488cac","system_id":"levelo_inurba_marseille","lat":43.26216,"lon":5.40463,"is_reserved":false,"is_disabled":false,"rental_uris":{"android":"levelo://app?vid=077f2b93-8f43-4f08-8ace-a02b56488cac","ios":"levelo://app?vid=077f2b93-8f43-4f08-8ace-a02b56488cac"},"vehicle_type_id":"4","last_reported":1742911848,"current_range_meters":7200,"station_id":"ce4bhmh2rcd13ifvqgmg","pricing_plan_id":"cebpf4jnsgd1na2vs0mg"},{"bike_id":"f01a01d5-64e6-4f60-92e1-632a58b05d8e","system_id":"levelo_inurba_marseille","lat":43.27377,"lon":5.36276,"is_reserved":false,"is_disabled":false,"rental_uris":{"android":"levelo://app?vid=f01a01d5-64e6-4f60-92e1-632a58b05d8e","ios":"levelo://app?vid=f01a01d5-64e6-4f60-92e1-632a58b05d8e"},"vehicle_type_id":"4","last_reported":1742911848,"current_range_meters":7200,"station_id":"ce4bhbh2rcd13ifvqeo0","pricing_plan_id":"cebpf4jnsgd1na2vs0mg"},{"bike_id":"77a03b96-f0ab-43d6-b7ff-6aa9452ba59b","system_id":"levelo_inurba_marseille","lat":43.23966,"lon":5.36629,"is_reserved":false,"is_disabled":false,"rental_uris":{"android":"levelo://app?vid=77a03b96-f0ab-43d6-b7ff-6aa9452ba59b","ios":"levelo://app?vid=77a03b96-f0ab-43d6-b7ff-6aa9452ba59b"},"vehicle_type_id":"4","last_reported":1742911848,"current_range_meters":7200,"station_id":"ce4bhi12rcd13ifvqfp0","pricing_plan_id":"cebpf4jnsgd1na2vs0mg"},{"bike_id":"54b2eb2e-f099-4f46-9067-448b807e02c4","system_id":"levelo_inurba_marseille","lat":43.29042,"lon":5.356,"is_reserved":false,"is_disabled":false,"rental_uris":{"android":"levelo://app?vid=54b2eb2e-f099-4f46-9067-448b807e02c4","ios":"levelo://app?vid=54b2eb2e-f099-4f46-9067-448b807e02c4"},"vehicle_type_id":"4","last_reported":1742911848,"current_range_meters":7200,"station_id":"","pricing_plan_id":"cebpf4jnsgd1na2vs0mg"},{"bike_id":"842c7bc3-0e16-497c-91f7-adf327267e98","system_id":"levelo_inurba_marseille","lat":43.29909,"lon":5.37492,"is_reserved":false,"is_disabled":false,"rental_uris":{"android":"levelo://app?vid=842c7bc3-0e16-497c-91f7-adf327267e98","ios":"levelo://app?vid=842c7bc3-0e16-497c-91f7-adf327267e98"},"vehicle_type_id":"4","last_reported":1742911848,"current_range_meters":7200,"station_id":"ce4bgjh2rcd13ifvqbg0","pricing_plan_id":"cebpf4jnsgd1na2vs0mg"},{"bike_id":"bd0bc6f0-9249-495c-a3ae-f63e6d7e80c9","system_id":"levelo_inurba_marseille","lat":43.30897,"lon":5.37448,"is_reserved":false,"is_disabled":false,"rental_uris":{"android":"levelo://app?vid=bd0bc6f0-9249-495c-a3ae-f63e6d7e80c9","ios":"levelo://app?vid=bd0bc6f0-9249-495c-a3ae-f63e6d7e80c9"},"vehicle_type_id":"4","last_reported":1742911848,"current_range_meters":7200,"station_id":"","pricing_plan_id":"cebpf4jnsgd1na2vs0mg"},{"bike_id":"043a26e2-2a14-4942-97e5-10a7e8ff3a14","system_id":"levelo_inurba_marseille","lat":43.30787,"lon":5.37648,"is_reserved":false,"is_disabled":false,"rental_uris":{"android":"levelo://app?vid=043a26e2-2a14-4942-97e5-10a7e8ff3a14","ios":"levelo://app?vid=043a26e2-2a14-4942-97e5-10a7e8ff3a14"},"vehicle_type_id":"4","last_reported":1742911848,"current_range_meters":8000,"station_id":"ce4bgv92rcd13ifvqcq0","pricing_plan_id":"cebpf4jnsgd1na2vs0mg"},{"bike_id":"72c1c403-148a-4fdb-985b-aaa84224115a","system_id":"levelo_inurba_marseille","lat":43.28265,"lon":5.35078,"is_reserved":false,"is_disabled":false,"rental_uris":{"android":"levelo://app?vid=72c1c403-148a-4fdb-985b-aaa84224115a","ios":"levelo://app?vid=72c1c403-148a-4fdb-985b-aaa84224115a"},"vehicle_type_id":"4","last_reported":1742911848,"current_range_meters":7200,"station_id":"ce4bhbp2rcd13ifvqerg","pricing_plan_id":"cebpf4jnsgd1na2vs0mg"},{"bike_id":"4d026f34-8dcc-4da0-9bb3-890242e97692","system_id":"levelo_inurba_marseille","lat":43.25578,"lon":5.38243,"is_reserved":false,"is_disabled":false,"rental_uris":{"android":"levelo://app?vid=4d026f34-8dcc-4da0-9bb3-890242e97692","ios":"levelo://app?vid=4d026f34-8dcc-4da0-9bb3-890242e97692"},"vehicle_type_id":"4","last_reported":1742911848,"current_range_meters":8000,"station_id":"ce4bhih2rcd13ifvqfs0","pricing_plan_id":"cebpf4jnsgd1na2vs0mg"},{"bike_id":"67a24af4-a750-43c5-8754-515c5fd4bf3e","system_id":"levelo_inurba_marseille","lat":43.304273,"lon":5.397502,"is_reserved":false,"is_disabled":false,"rental_uris":{"android":"levelo://app?vid=67a24af4-a750-43c5-8754-515c5fd4bf3e","ios":"levelo://app?vid=67a24af4-a750-43c5-8754-515c5fd4bf3e"},"vehicle_type_id":"4","last_reported":1742911848,"current_range_meters":8000,"station_id":"ce4bh092rcd13ifvqd20","pricing_plan_id":"cebpf4jnsgd1na2vs0mg"},{"bike_id":"640ea4b6-fa44-49b5-9378-cd6b5c97bbe6","system_id":"levelo_inurba_marseille","lat":43.29605,"lon":5.381,"is_reserved":false,"is_disabled":false,"rental_uris":{"android":"levelo://app?vid=640ea4b6-fa44-49b5-9378-cd6b5c97bbe6","ios":"levelo://app?vid=640ea4b6-fa44-49b5-9378-cd6b5c97bbe6"},"vehicle_type_id":"4","last_reported":1742911848,"current_range_meters":8000,"station_id":"ce4bgl12rcd13ifvqbo0","pricing_plan_id":"cebpf4jnsgd1na2vs0mg"},{"bike_id":"f1681b6a-7497-4c7b-a00f-0c281574068a","system_id":"levelo_inurba_marseille","lat":43.31003,"lon":5.3748,"is_reserved":false,"is_disabled":false,"rental_uris":{"android":"levelo://app?vid=f1681b6a-7497-4c7b-a00f-0c281574068a","ios":"levelo://app?vid=f1681b6a-7497-4c7b-a00f-0c281574068a"},"vehicle_type_id":"4","last_reported":1742911848,"current_range_meters":8000,"station_id":"","pricing_plan_id":"cebpf4jnsgd1na2vs0mg"},{"bike_id":"e4b3b44e-6b32-4d4e-b3f4-7fd739444307","system_id":"levelo_inurba_marseille","lat":43.29261,"lon":5.3685,"is_reserved":false,"is_disabled":false,"rental_uris":{"android":"levelo://app?vid=e4b3b44e-6b32-4d4e-b3f4-7fd739444307","ios":"levelo://app?vid=e4b3b44e-6b32-4d4e-b3f4-7fd739444307"},"vehicle_type_id":"4","last_reported":1742911848,"current_range_meters":8000,"station_id":"ce4bhbp2rcd13ifvqesg","pricing_plan_id":"cebpf4jnsgd1na2vs0mg"},{"bike_id":"21be2ddd-a33f-4821-9edb-0782de7ee7c9","system_id":"levelo_inurba_marseille","lat":43.2315,"lon":5.43718,"is_reserved":false,"is_disabled":false,"rental_uris":{"android":"levelo://app?vid=21be2ddd-a33f-4821-9edb-0782de7ee7c9","ios":"levelo://app?vid=21be2ddd-a33f-4821-9edb-0782de7ee7c9"},"vehicle_type_id":"4","last_reported":1742911848,"current_range_meters":8000,"station_id":"ce4bhmp2rcd13ifvqgog","pricing_plan_id":"cebpf4jnsgd1na2vs0mg"},{"bike_id":"983665a1-935c-4091-949a-429526afbbb9","system_id":"levelo_inurba_marseille","lat":43.27206,"lon":5.39177,"is_reserved":false,"is_disabled":false,"rental_uris":{"android":"levelo://app?vid=983665a1-935c-4091-949a-429526afbbb9","ios":"levelo://app?vid=983665a1-935c-4091-949a-429526afbbb9"},"vehicle_type_id":"4","last_reported":1742911848,"current_range_meters":8000,"station_id":"ce4bhnh2rcd13ifvqgtg","pricing_plan_id":"cebpf4jnsgd1na2vs0mg"},{"bike_id":"e4088ee9-1819-4edb-a33f-be6e30714bd1","system_id":"levelo_inurba_marseille","lat":43.29899,"lon":5.43667,"is_reserved":false,"is_disabled":false,"rental_uris":{"android":"levelo://app?vid=e4088ee9-1819-4edb-a33f-be6e30714bd1","ios":"levelo://app?vid=e4088ee9-1819-4edb-a33f-be6e30714bd1"},"vehicle_type_id":"4","last_reported":1742911848,"current_range_meters":8000,"station_id":"ce4bhpp2rcd13ifvqhfg","pricing_plan_id":"cebpf4jnsgd1na2vs0mg"},{"bike_id":"0dfb0d89-73f2-49b8-91e9-15d856e46939","system_id":"levelo_inurba_marseille","lat":43.24181,"lon":5.39742,"is_reserved":false,"is_disabled":false,"rental_uris":{"android":"levelo://app?vid=0dfb0d89-73f2-49b8-91e9-15d856e46939","ios":"levelo://app?vid=0dfb0d89-73f2-49b8-91e9-15d856e46939"},"vehicle_type_id":"4","last_reported":1742911848,"current_range_meters":8000,"station_id":"ce4bhn12rcd13ifvqgpg","pricing_plan_id":"cebpf4jnsgd1na2vs0mg"},{"bike_id":"c0802077-7a16-4727-a8dd-d6fc82bd7f7d","system_id":"levelo_inurba_marseille","lat":43.26684,"lon":5.38276,"is_reserved":false,"is_disabled":false,"rental_uris":{"android":"levelo://app?vid=c0802077-7a16-4727-a8dd-d6fc82bd7f7d","ios":"levelo://app?vid=c0802077-7a16-4727-a8dd-d6fc82bd7f7d"},"vehicle_type_id":"4","last_reported":1742911848,"current_range_meters":8000,"station_id":"ce4bhg92rcd13ifvqf90","pricing_plan_id":"cebpf4jnsgd1na2vs0mg"},{"bike_id":"5a1e8775-be44-4fcb-8b4e-ebf01f8c39c5","system_id":"levelo_inurba_marseille","lat":43.29032,"lon":5.37562,"is_reserved":false,"is_disabled":false,"rental_uris":{"android":"levelo://app?vid=5a1e8775-be44-4fcb-8b4e-ebf01f8c39c5","ios":"levelo://app?vid=5a1e8775-be44-4fcb-8b4e-ebf01f8c39c5"},"vehicle_type_id":"4","last_reported":1742911848,"current_range_meters":8000,"station_id":"ce4bh692rcd13ifvqe90","pricing_plan_id":"cebpf4jnsgd1na2vs0mg"},{"bike_id":"ebe7d085-ac3c-48e7-9a36-54a9f134007a","system_id":"levelo_inurba_marseille","lat":43.31371,"lon":5.36708,"is_reserved":false,"is_disabled":false,"rental_uris":{"android":"levelo://app?vid=ebe7d085-ac3c-48e7-9a36-54a9f134007a","ios":"levelo://app?vid=ebe7d085-ac3c-48e7-9a36-54a9f134007a"},"vehicle_type_id":"4","last_reported":1742911848,"current_range_meters":8000,"station_id":"","pricing_plan_id":"cebpf4jnsgd1na2vs0mg"},{"bike_id":"a0d4632a-7a87-4031-aeeb-061ca0feaca6","system_id":"levelo_inurba_marseille","lat":43.23959,"lon":5.36618,"is_reserved":false,"is_disabled":false,"rental_uris":{"android":"levelo://app?vid=a0d4632a-7a87-4031-aeeb-061ca0feaca6","ios":"levelo://app?vid=a0d4632a-7a87-4031-aeeb-061ca0feaca6"},"vehicle_type_id":"4","last_reported":1742911848,"current_range_meters":8400,"station_id":"ce4bhi12rcd13ifvqfp0","pricing_plan_id":"cebpf4jnsgd1na2vs0mg"},{"bike_id":"7aca359d-1ace-4fac-ad6a-efac77e7ea0f","system_id":"levelo_inurba_marseille","lat":43.30954,"lon":5.39031,"is_reserved":false,"is_disabled":false,"rental_uris":{"android":"levelo://app?vid=7aca359d-1ace-4fac-ad6a-efac77e7ea0f","ios":"levelo://app?vid=7aca359d-1ace-4fac-ad6a-efac77e7ea0f"},"vehicle_type_id":"4","last_reported":1742911848,"current_range_meters":8400,"station_id":"ce4bgup2rcd13ifvqco0","pricing_plan_id":"cebpf4jnsgd1na2vs0mg"},{"bike_id":"8863ea21-846f-4583-9230-75e6392ab351","system_id":"levelo_inurba_marseille","lat":43.31757,"lon":5.39031,"is_reserved":false,"is_disabled":false,"rental_uris":{"android":"levelo://app?vid=8863ea21-846f-4583-9230-75e6392ab351","ios":"levelo://app?vid=8863ea21-846f-4583-9230-75e6392ab351"},"vehicle_type_id":"4","last_reported":1742911848,"current_range_meters":8400,"station_id":"ce4bhqp2rcd13ifvqhng","pricing_plan_id":"cebpf4jnsgd1na2vs0mg"},{"bike_id":"e9187582-a016-40c8-9302-4171d5c1cef8","system_id":"levelo_inurba_marseille","lat":43.29021,"lon":5.38135,"is_reserved":false,"is_disabled":true,"rental_uris":{"android":"levelo://app?vid=e9187582-a016-40c8-9302-4171d5c1cef8","ios":"levelo://app?vid=e9187582-a016-40c8-9302-4171d5c1cef8"},"vehicle_type_id":"4","last_reported":1742911848,"current_range_meters":8400,"station_id":"ce4bh4p2rcd13ifvqe1g","pricing_plan_id":"cebpf4jnsgd1na2vs0mg"},{"bike_id":"ae79105d-199d-4161-9442-d125a615bfc5","system_id":"levelo_inurba_marseille","lat":43.26197,"lon":5.3793,"is_reserved":false,"is_disabled":false,"rental_uris":{"android":"levelo://app?vid=ae79105d-199d-4161-9442-d125a615bfc5","ios":"levelo://app?vid=ae79105d-199d-4161-9442-d125a615bfc5"},"vehicle_type_id":"4","last_reported":1742911848,"current_range_meters":8400,"station_id":"ce4bhjp2rcd13ifvqg90","pricing_plan_id":"cebpf4jnsgd1na2vs0mg"},{"bike_id":"6af6a1ba-d1aa-4b6e-a13c-10b67605fd05","system_id":"levelo_inurba_marseille","lat":43.27061,"lon":5.40262,"is_reserved":false,"is_disabled":false,"rental_uris":{"android":"levelo://app?vid=6af6a1ba-d1aa-4b6e-a13c-10b67605fd05","ios":"levelo://app?vid=6af6a1ba-d1aa-4b6e-a13c-10b67605fd05"},"vehicle_type_id":"4","last_reported":1742911848,"current_range_meters":8400,"station_id":"ce4bhk92rcd13ifvqgc0","pricing_plan_id":"cebpf4jnsgd1na2vs0mg"},{"bike_id":"a12928e8-2ec5-48bb-9fe6-e4726f6a2ad5","system_id":"levelo_inurba_marseille","lat":43.23064,"lon":5.35492,"is_reserved":false,"is_disabled":false,"rental_uris":{"android":"levelo://app?vid=a12928e8-2ec5-48bb-9fe6-e4726f6a2ad5","ios":"levelo://app?vid=a12928e8-2ec5-48bb-9fe6-e4726f6a2ad5"},"vehicle_type_id":"4","last_reported":1742911848,"current_range_meters":8800,"station_id":"cpo3342slgdg3j2ifvpg","pricing_plan_id":"cebpf4jnsgd1na2vs0mg"},{"bike_id":"9ccfb89e-2269-4681-8853-a54a13dc8458","system_id":"levelo_inurba_marseille","lat":43.2862,"lon":5.35101,"is_reserved":false,"is_disabled":false,"rental_uris":{"android":"levelo://app?vid=9ccfb89e-2269-4681-8853-a54a13dc8458","ios":"levelo://app?vid=9ccfb89e-2269-4681-8853-a54a13dc8458"},"vehicle_type_id":"4","last_reported":1742911848,"current_range_meters":8400,"station_id":"ce4bhch2rcd13ifvqeug","pricing_plan_id":"cebpf4jnsgd1na2vs0mg"},{"bike_id":"ef43d9bd-e531-4a59-b8a9-fdc80b41fa34","system_id":"levelo_inurba_marseille","lat":43.31272,"lon":5.40168,"is_reserved":false,"is_disabled":true,"rental_uris":{"android":"levelo://app?vid=ef43d9bd-e531-4a59-b8a9-fdc80b41fa34","ios":"levelo://app?vid=ef43d9bd-e531-4a59-b8a9-fdc80b41fa34"},"vehicle_type_id":"4","last_reported":1742911848,"current_range_meters":8800,"station_id":"ce4bh092rcd13ifvqd30","pricing_plan_id":"cebpf4jnsgd1na2vs0mg"},{"bike_id":"3643b12d-32b8-4478-a689-bc04d08e60aa","system_id":"levelo_inurba_marseille","lat":43.28612,"lon":5.37067,"is_reserved":false,"is_disabled":false,"rental_uris":{"android":"levelo://app?vid=3643b12d-32b8-4478-a689-bc04d08e60aa","ios":"levelo://app?vid=3643b12d-32b8-4478-a689-bc04d08e60aa"},"vehicle_type_id":"4","last_reported":1742911848,"current_range_meters":8800,"station_id":"ce4bht12rcd13ifvqi60","pricing_plan_id":"cebpf4jnsgd1na2vs0mg"},{"bike_id":"2bfb658b-05b8-4ec1-977c-04bd0741e130","system_id":"levelo_inurba_marseille","lat":43.30424,"lon":5.397496,"is_reserved":false,"is_disabled":false,"rental_uris":{"android":"levelo://app?vid=2bfb658b-05b8-4ec1-977c-04bd0741e130","ios":"levelo://app?vid=2bfb658b-05b8-4ec1-977c-04bd0741e130"},"vehicle_type_id":"4","last_reported":1742911848,"current_range_meters":8800,"station_id":"ce4bh092rcd13ifvqd20","pricing_plan_id":"cebpf4jnsgd1na2vs0mg"},{"bike_id":"d76a44c0-1fb0-4a2b-80ea-60642d0151e3","system_id":"levelo_inurba_marseille","lat":43.29005,"lon":5.35621,"is_reserved":false,"is_disabled":false,"rental_uris":{"android":"levelo://app?vid=d76a44c0-1fb0-4a2b-80ea-60642d0151e3","ios":"levelo://app?vid=d76a44c0-1fb0-4a2b-80ea-60642d0151e3"},"vehicle_type_id":"4","last_reported":1742911848,"current_range_meters":8800,"station_id":"ce4bhb92rcd13ifvqen0","pricing_plan_id":"cebpf4jnsgd1na2vs0mg"},{"bike_id":"d7c12436-4bbb-40d1-a28a-aede6f2646e5","system_id":"levelo_inurba_marseille","lat":43.31222,"lon":5.36851,"is_reserved":false,"is_disabled":false,"rental_uris":{"android":"levelo://app?vid=d7c12436-4bbb-40d1-a28a-aede6f2646e5","ios":"levelo://app?vid=d7c12436-4bbb-40d1-a28a-aede6f2646e5"},"vehicle_type_id":"4","last_reported":1742911848,"current_range_meters":8800,"station_id":"ce4bgl92rcd13ifvqbq0","pricing_plan_id":"cebpf4jnsgd1na2vs0mg"},{"bike_id":"c353c957-fbb8-408a-9097-46c8d6b68074","system_id":"levelo_inurba_marseille","lat":43.24183,"lon":5.39727,"is_reserved":false,"is_disabled":false,"rental_uris":{"android":"levelo://app?vid=c353c957-fbb8-408a-9097-46c8d6b68074","ios":"levelo://app?vid=c353c957-fbb8-408a-9097-46c8d6b68074"},"vehicle_type_id":"4","last_reported":1742911848,"current_range_meters":8800,"station_id":"ce4bhn12rcd13ifvqgpg","pricing_plan_id":"cebpf4jnsgd1na2vs0mg"},{"bike_id":"2a99ecb7-4bf0-4c00-89bb-11ff019b8a6d","system_id":"levelo_inurba_marseille","lat":43.22929,"lon":5.35389,"is_reserved":false,"is_disabled":false,"rental_uris":{"android":"levelo://app?vid=2a99ecb7-4bf0-4c00-89bb-11ff019b8a6d","ios":"levelo://app?vid=2a99ecb7-4bf0-4c00-89bb-11ff019b8a6d"},"vehicle_type_id":"4","last_reported":1742911848,"current_range_meters":9200,"station_id":"cpo3532slgdg3j2ikp40","pricing_plan_id":"cebpf4jnsgd1na2vs0mg"},{"bike_id":"508d0330-bd76-4295-b921-18b3f253d998","system_id":"levelo_inurba_marseille","lat":43.30431,"lon":5.39753,"is_reserved":false,"is_disabled":false,"rental_uris":{"android":"levelo://app?vid=508d0330-bd76-4295-b921-18b3f253d998","ios":"levelo://app?vid=508d0330-bd76-4295-b921-18b3f253d998"},"vehicle_type_id":"4","last_reported":1742911848,"current_range_meters":9200,"station_id":"ce4bh092rcd13ifvqd20","pricing_plan_id":"cebpf4jnsgd1na2vs0mg"},{"bike_id":"a830f52f-aeba-4ddd-9c3f-5756c42841a5","system_id":"levelo_inurba_marseille","lat":43.32471,"lon":5.36566,"is_reserved":false,"is_disabled":false,"rental_uris":{"android":"levelo://app?vid=a830f52f-aeba-4ddd-9c3f-5756c42841a5","ios":"levelo://app?vid=a830f52f-aeba-4ddd-9c3f-5756c42841a5"},"vehicle_type_id":"4","last_reported":1742911848,"current_range_meters":9200,"station_id":"ce4bhs12rcd13ifvqhvg","pricing_plan_id":"cebpf4jnsgd1na2vs0mg"},{"bike_id":"d0ce6a4c-8c1a-4117-b620-bb8816808dbc","system_id":"levelo_inurba_marseille","lat":43.23967,"lon":5.36638,"is_reserved":false,"is_disabled":false,"rental_uris":{"android":"levelo://app?vid=d0ce6a4c-8c1a-4117-b620-bb8816808dbc","ios":"levelo://app?vid=d0ce6a4c-8c1a-4117-b620-bb8816808dbc"},"vehicle_type_id":"4","last_reported":1742911848,"current_range_meters":9200,"station_id":"ce4bhi12rcd13ifvqfp0","pricing_plan_id":"cebpf4jnsgd1na2vs0mg"},{"bike_id":"45a13ddf-ec66-4658-b302-09971ec08da7","system_id":"levelo_inurba_marseille","lat":43.31227,"lon":5.36869,"is_reserved":false,"is_disabled":false,"rental_uris":{"android":"levelo://app?vid=45a13ddf-ec66-4658-b302-09971ec08da7","ios":"levelo://app?vid=45a13ddf-ec66-4658-b302-09971ec08da7"},"vehicle_type_id":"4","last_reported":1742911848,"current_range_meters":9200,"station_id":"ce4bgl92rcd13ifvqbq0","pricing_plan_id":"cebpf4jnsgd1na2vs0mg"},{"bike_id":"3eda11ca-a2a2-4677-b2a5-185a9e31a2b2","system_id":"levelo_inurba_marseille","lat":43.30955,"lon":5.39028,"is_reserved":false,"is_disabled":false,"rental_uris":{"android":"levelo://app?vid=3eda11ca-a2a2-4677-b2a5-185a9e31a2b2","ios":"levelo://app?vid=3eda11ca-a2a2-4677-b2a5-185a9e31a2b2"},"vehicle_type_id":"4","last_reported":1742911848,"current_range_meters":9200,"station_id":"ce4bgup2rcd13ifvqco0","pricing_plan_id":"cebpf4jnsgd1na2vs0mg"},{"bike_id":"d87ec311-c71e-482a-bbab-85a8f2648c64","system_id":"levelo_inurba_marseille","lat":43.307853,"lon":5.381612,"is_reserved":false,"is_disabled":false,"rental_uris":{"android":"levelo://app?vid=d87ec311-c71e-482a-bbab-85a8f2648c64","ios":"levelo://app?vid=d87ec311-c71e-482a-bbab-85a8f2648c64"},"vehicle_type_id":"4","last_reported":1742911848,"current_range_meters":9200,"station_id":"ce4bgt12rcd13ifvqce0","pricing_plan_id":"cebpf4jnsgd1na2vs0mg"},{"bike_id":"8871fee1-c30f-4721-bb9f-022f22051a94","system_id":"levelo_inurba_marseille","lat":43.24179,"lon":5.39733,"is_reserved":false,"is_disabled":false,"rental_uris":{"android":"levelo://app?vid=8871fee1-c30f-4721-bb9f-022f22051a94","ios":"levelo://app?vid=8871fee1-c30f-4721-bb9f-022f22051a94"},"vehicle_type_id":"4","last_reported":1742911848,"current_range_meters":9600,"station_id":"ce4bhn12rcd13ifvqgpg","pricing_plan_id":"cebpf4jnsgd1na2vs0mg"},{"bike_id":"c92ac62d-2e46-4289-843a-c760d8da0c94","system_id":"levelo_inurba_marseille","lat":43.25726,"lon":5.41115,"is_reserved":false,"is_disabled":false,"rental_uris":{"android":"levelo://app?vid=c92ac62d-2e46-4289-843a-c760d8da0c94","ios":"levelo://app?vid=c92ac62d-2e46-4289-843a-c760d8da0c94"},"vehicle_type_id":"4","last_reported":1742911848,"current_range_meters":9600,"station_id":"ce4bhkp2rcd13ifvqgd0","pricing_plan_id":"cebpf4jnsgd1na2vs0mg"},{"bike_id":"e3f76d45-4904-44a7-aac2-e04832e991bb","system_id":"levelo_inurba_marseille","lat":43.29963,"lon":5.41333,"is_reserved":false,"is_disabled":true,"rental_uris":{"android":"levelo://app?vid=e3f76d45-4904-44a7-aac2-e04832e991bb","ios":"levelo://app?vid=e3f76d45-4904-44a7-aac2-e04832e991bb"},"vehicle_type_id":"4","last_reported":1742911848,"current_range_meters":9600,"station_id":"ce4bhp12rcd13ifvqh9g","pricing_plan_id":"cebpf4jnsgd1na2vs0mg"},{"bike_id":"2f3e2a92-1301-4a27-8eaa-7b0ea525530e","system_id":"levelo_inurba_marseille","lat":43.31674,"lon":5.43667,"is_reserved":false,"is_disabled":false,"rental_uris":{"android":"levelo://app?vid=2f3e2a92-1301-4a27-8eaa-7b0ea525530e","ios":"levelo://app?vid=2f3e2a92-1301-4a27-8eaa-7b0ea525530e"},"vehicle_type_id":"4","last_reported":1742911848,"current_range_meters":9600,"station_id":"","pricing_plan_id":"cebpf4jnsgd1na2vs0mg"},{"bike_id":"1848cf99-7a86-429c-a1af-abe291b1144c","system_id":"levelo_inurba_marseille","lat":43.32471,"lon":5.36594,"is_reserved":false,"is_disabled":false,"rental_uris":{"android":"levelo://app?vid=1848cf99-7a86-429c-a1af-abe291b1144c","ios":"levelo://app?vid=1848cf99-7a86-429c-a1af-abe291b1144c"},"vehicle_type_id":"4","last_reported":1742911848,"current_range_meters":9600,"station_id":"ce4bhs12rcd13ifvqhvg","pricing_plan_id":"cebpf4jnsgd1na2vs0mg"},{"bike_id":"17e74052-fed6-430f-bd20-0cd014fae766","system_id":"levelo_inurba_marseille","lat":43.31084,"lon":5.4242,"is_reserved":false,"is_disabled":false,"rental_uris":{"android":"levelo://app?vid=17e74052-fed6-430f-bd20-0cd014fae766","ios":"levelo://app?vid=17e74052-fed6-430f-bd20-0cd014fae766"},"vehicle_type_id":"4","last_reported":1742911848,"current_range_meters":9600,"station_id":"ce4bhp92rcd13ifvqhag","pricing_plan_id":"cebpf4jnsgd1na2vs0mg"},{"bike_id":"31f837ee-8404-4318-964b-64f62f30646c","system_id":"levelo_inurba_marseille","lat":43.28099,"lon":5.37836,"is_reserved":false,"is_disabled":false,"rental_uris":{"android":"levelo://app?vid=31f837ee-8404-4318-964b-64f62f30646c","ios":"levelo://app?vid=31f837ee-8404-4318-964b-64f62f30646c"},"vehicle_type_id":"4","last_reported":1742911848,"current_range_meters":9600,"station_id":"ce4bha12rcd13ifvqee0","pricing_plan_id":"cebpf4jnsgd1na2vs0mg"},{"bike_id":"3ce866e0-f6ab-41fb-a634-0452008b5058","system_id":"levelo_inurba_marseille","lat":43.28464,"lon":5.3589,"is_reserved":false,"is_disabled":false,"rental_uris":{"android":"levelo://app?vid=3ce866e0-f6ab-41fb-a634-0452008b5058","ios":"levelo://app?vid=3ce866e0-f6ab-41fb-a634-0452008b5058"},"vehicle_type_id":"4","last_reported":1742911848,"current_range_meters":9600,"station_id":"ce4bhah2rcd13ifvqei0","pricing_plan_id":"cebpf4jnsgd1na2vs0mg"},{"bike_id":"55be0bb0-a922-4f39-bd2a-fdf7ce4ebdbe","system_id":"levelo_inurba_marseille","lat":43.306688,"lon":5.400776,"is_reserved":false,"is_disabled":false,"rental_uris":{"android":"levelo://app?vid=55be0bb0-a922-4f39-bd2a-fdf7ce4ebdbe","ios":"levelo://app?vid=55be0bb0-a922-4f39-bd2a-fdf7ce4ebdbe"},"vehicle_type_id":"4","last_reported":1742911848,"current_range_meters":9600,"station_id":"ce4bh112rcd13ifvqda0","pricing_plan_id":"cebpf4jnsgd1na2vs0mg"},{"bike_id":"5f886a9b-05db-4e7d-a43f-1585527388b8","system_id":"levelo_inurba_marseille","lat":43.304225,"lon":5.397502,"is_reserved":false,"is_disabled":false,"rental_uris":{"android":"levelo://app?vid=5f886a9b-05db-4e7d-a43f-1585527388b8","ios":"levelo://app?vid=5f886a9b-05db-4e7d-a43f-1585527388b8"},"vehicle_type_id":"4","last_reported":1742911848,"current_range_meters":9600,"station_id":"ce4bh092rcd13ifvqd20","pricing_plan_id":"cebpf4jnsgd1na2vs0mg"},{"bike_id":"b6fd1ec3-47b2-486f-8b84-f71e2b87ecef","system_id":"levelo_inurba_marseille","lat":43.31086,"lon":5.42426,"is_reserved":false,"is_disabled":true,"rental_uris":{"android":"levelo://app?vid=b6fd1ec3-47b2-486f-8b84-f71e2b87ecef","ios":"levelo://app?vid=b6fd1ec3-47b2-486f-8b84-f71e2b87ecef"},"vehicle_type_id":"4","last_reported":1742911848,"current_range_meters":9600,"station_id":"ce4bhp92rcd13ifvqhag","pricing_plan_id":"cebpf4jnsgd1na2vs0mg"},{"bike_id":"8f208df7-81e0-45c5-bd98-a49c85a38fa2","system_id":"levelo_inurba_marseille","lat":43.303124,"lon":5.369124,"is_reserved":false,"is_disabled":false,"rental_uris":{"android":"levelo://app?vid=8f208df7-81e0-45c5-bd98-a49c85a38fa2","ios":"levelo://app?vid=8f208df7-81e0-45c5-bd98-a49c85a38fa2"},"vehicle_type_id":"4","last_reported":1742911848,"current_range_meters":9600,"station_id":"ce4bgqh2rcd13ifvqc5g","pricing_plan_id":"cebpf4jnsgd1na2vs0mg"},{"bike_id":"6bb6f1fc-5b4f-4f3d-97c1-f093e7e9a8ef","system_id":"levelo_inurba_marseille","lat":43.23059,"lon":5.355016,"is_reserved":false,"is_disabled":false,"rental_uris":{"android":"levelo://app?vid=6bb6f1fc-5b4f-4f3d-97c1-f093e7e9a8ef","ios":"levelo://app?vid=6bb6f1fc-5b4f-4f3d-97c1-f093e7e9a8ef"},"vehicle_type_id":"4","last_reported":1742911848,"current_range_meters":9600,"station_id":"cpo3342slgdg3j2ifvpg","pricing_plan_id":"cebpf4jnsgd1na2vs0mg"},{"bike_id":"f8d9e271-1395-4359-b702-1bb66f9e2939","system_id":"levelo_inurba_marseille","lat":43.25573,"lon":5.38256,"is_reserved":false,"is_disabled":false,"rental_uris":{"android":"levelo://app?vid=f8d9e271-1395-4359-b702-1bb66f9e2939","ios":"levelo://app?vid=f8d9e271-1395-4359-b702-1bb66f9e2939"},"vehicle_type_id":"4","last_reported":1742911848,"current_range_meters":10000,"station_id":"ce4bhih2rcd13ifvqfs0","pricing_plan_id":"cebpf4jnsgd1na2vs0mg"},{"bike_id":"20cc3a16-0657-4490-93f2-4957a9022998","system_id":"levelo_inurba_marseille","lat":43.24808,"lon":5.37464,"is_reserved":false,"is_disabled":false,"rental_uris":{"android":"levelo://app?vid=20cc3a16-0657-4490-93f2-4957a9022998","ios":"levelo://app?vid=20cc3a16-0657-4490-93f2-4957a9022998"},"vehicle_type_id":"4","last_reported":1742911848,"current_range_meters":10000,"station_id":"ce4bhgh2rcd13ifvqfb0","pricing_plan_id":"cebpf4jnsgd1na2vs0mg"},{"bike_id":"20583967-c399-4959-972e-3b10138d9e16","system_id":"levelo_inurba_marseille","lat":43.26791,"lon":5.39414,"is_reserved":false,"is_disabled":false,"rental_uris":{"android":"levelo://app?vid=20583967-c399-4959-972e-3b10138d9e16","ios":"levelo://app?vid=20583967-c399-4959-972e-3b10138d9e16"},"vehicle_type_id":"4","last_reported":1742911848,"current_range_meters":10000,"station_id":"ce4bhh12rcd13ifvqfg0","pricing_plan_id":"cebpf4jnsgd1na2vs0mg"},{"bike_id":"225cbe9d-4f8e-432e-b5e7-cd7e14da2d62","system_id":"levelo_inurba_marseille","lat":43.28166,"lon":5.42642,"is_reserved":false,"is_disabled":false,"rental_uris":{"android":"levelo://app?vid=225cbe9d-4f8e-432e-b5e7-cd7e14da2d62","ios":"levelo://app?vid=225cbe9d-4f8e-432e-b5e7-cd7e14da2d62"},"vehicle_type_id":"4","last_reported":1742911848,"current_range_meters":10000,"station_id":"ce4bhnh2rcd13ifvqgug","pricing_plan_id":"cebpf4jnsgd1na2vs0mg"},{"bike_id":"ada4ba7b-2dc8-47ef-a5a8-9dc4e4bd1916","system_id":"levelo_inurba_marseille","lat":43.29642,"lon":5.36174,"is_reserved":false,"is_disabled":false,"rental_uris":{"android":"levelo://app?vid=ada4ba7b-2dc8-47ef-a5a8-9dc4e4bd1916","ios":"levelo://app?vid=ada4ba7b-2dc8-47ef-a5a8-9dc4e4bd1916"},"vehicle_type_id":"4","last_reported":1742911848,"current_range_meters":10000,"station_id":"","pricing_plan_id":"cebpf4jnsgd1na2vs0mg"},{"bike_id":"0ecdea8a-6bc9-4342-8852-7489cccba64b","system_id":"levelo_inurba_marseille","lat":43.29004,"lon":5.35612,"is_reserved":false,"is_disabled":false,"rental_uris":{"android":"levelo://app?vid=0ecdea8a-6bc9-4342-8852-7489cccba64b","ios":"levelo://app?vid=0ecdea8a-6bc9-4342-8852-7489cccba64b"},"vehicle_type_id":"4","last_reported":1742911848,"current_range_meters":10000,"station_id":"ce4bhb92rcd13ifvqen0","pricing_plan_id":"cebpf4jnsgd1na2vs0mg"},{"bike_id":"c4a2a488-ef95-4089-ae36-fe11ba22b190","system_id":"levelo_inurba_marseille","lat":43.2315,"lon":5.43716,"is_reserved":false,"is_disabled":false,"rental_uris":{"android":"levelo://app?vid=c4a2a488-ef95-4089-ae36-fe11ba22b190","ios":"levelo://app?vid=c4a2a488-ef95-4089-ae36-fe11ba22b190"},"vehicle_type_id":"4","last_reported":1742911848,"current_range_meters":10000,"station_id":"ce4bhmp2rcd13ifvqgog","pricing_plan_id":"cebpf4jnsgd1na2vs0mg"},{"bike_id":"549a4413-cc39-46f9-97a0-45a7dcb723da","system_id":"levelo_inurba_marseille","lat":43.25587,"lon":5.38233,"is_reserved":false,"is_disabled":false,"rental_uris":{"android":"levelo://app?vid=549a4413-cc39-46f9-97a0-45a7dcb723da","ios":"levelo://app?vid=549a4413-cc39-46f9-97a0-45a7dcb723da"},"vehicle_type_id":"4","last_reported":1742911848,"current_range_meters":10000,"station_id":"ce4bhih2rcd13ifvqfs0","pricing_plan_id":"cebpf4jnsgd1na2vs0mg"},{"bike_id":"3661a9a0-cbfd-4e88-b091-6c142dd10c1e","system_id":"levelo_inurba_marseille","lat":43.29798,"lon":5.38062,"is_reserved":false,"is_disabled":false,"rental_uris":{"android":"levelo://app?vid=3661a9a0-cbfd-4e88-b091-6c142dd10c1e","ios":"levelo://app?vid=3661a9a0-cbfd-4e88-b091-6c142dd10c1e"},"vehicle_type_id":"4","last_reported":1742911848,"current_range_meters":10000,"station_id":"ce4bgip2rcd13ifvqbb0","pricing_plan_id":"cebpf4jnsgd1na2vs0mg"},{"bike_id":"27eb11c3-c766-4761-a0f8-e217e7fd248d","system_id":"levelo_inurba_marseille","lat":43.26688,"lon":5.38289,"is_reserved":false,"is_disabled":false,"rental_uris":{"android":"levelo://app?vid=27eb11c3-c766-4761-a0f8-e217e7fd248d","ios":"levelo://app?vid=27eb11c3-c766-4761-a0f8-e217e7fd248d"},"vehicle_type_id":"4","last_reported":1742911848,"current_range_meters":10000,"station_id":"ce4bhg92rcd13ifvqf90","pricing_plan_id":"cebpf4jnsgd1na2vs0mg"},{"bike_id":"b72438e9-2390-4111-af9e-292065faca84","system_id":"levelo_inurba_marseille","lat":43.30282,"lon":5.37714,"is_reserved":false,"is_disabled":false,"rental_uris":{"android":"levelo://app?vid=b72438e9-2390-4111-af9e-292065faca84","ios":"levelo://app?vid=b72438e9-2390-4111-af9e-292065faca84"},"vehicle_type_id":"4","last_reported":1742911848,"current_range_meters":10000,"station_id":"ce4bguh2rcd13ifvqcj0","pricing_plan_id":"cebpf4jnsgd1na2vs0mg"},{"bike_id":"bf9315d0-8503-43cc-be5d-2a0d8d6ed54e","system_id":"levelo_inurba_marseille","lat":43.25577,"lon":5.38252,"is_reserved":false,"is_disabled":false,"rental_uris":{"android":"levelo://app?vid=bf9315d0-8503-43cc-be5d-2a0d8d6ed54e","ios":"levelo://app?vid=bf9315d0-8503-43cc-be5d-2a0d8d6ed54e"},"vehicle_type_id":"4","last_reported":1742911848,"current_range_meters":10000,"station_id":"ce4bhih2rcd13ifvqfs0","pricing_plan_id":"cebpf4jnsgd1na2vs0mg"},{"bike_id":"bb58f931-d39b-4674-bcbc-5096c1d815e7","system_id":"levelo_inurba_marseille","lat":43.24178,"lon":5.39736,"is_reserved":false,"is_disabled":false,"rental_uris":{"android":"levelo://app?vid=bb58f931-d39b-4674-bcbc-5096c1d815e7","ios":"levelo://app?vid=bb58f931-d39b-4674-bcbc-5096c1d815e7"},"vehicle_type_id":"4","last_reported":1742911848,"current_range_meters":10000,"station_id":"ce4bhn12rcd13ifvqgpg","pricing_plan_id":"cebpf4jnsgd1na2vs0mg"},{"bike_id":"89e75ed9-7f20-48f7-ad37-e0033e47c633","system_id":"levelo_inurba_marseille","lat":43.24644,"lon":5.38905,"is_reserved":false,"is_disabled":false,"rental_uris":{"android":"levelo://app?vid=89e75ed9-7f20-48f7-ad37-e0033e47c633","ios":"levelo://app?vid=89e75ed9-7f20-48f7-ad37-e0033e47c633"},"vehicle_type_id":"4","last_reported":1742911848,"current_range_meters":10000,"station_id":"ce4bhg12rcd13ifvqf60","pricing_plan_id":"cebpf4jnsgd1na2vs0mg"},{"bike_id":"73098e66-a44d-4fd1-a26f-b78f715d4d94","system_id":"levelo_inurba_marseille","lat":43.31218,"lon":5.36876,"is_reserved":false,"is_disabled":false,"rental_uris":{"android":"levelo://app?vid=73098e66-a44d-4fd1-a26f-b78f715d4d94","ios":"levelo://app?vid=73098e66-a44d-4fd1-a26f-b78f715d4d94"},"vehicle_type_id":"4","last_reported":1742911848,"current_range_meters":10800,"station_id":"ce4bgl92rcd13ifvqbq0","pricing_plan_id":"cebpf4jnsgd1na2vs0mg"},{"bike_id":"fdcc714d-c762-4a16-91da-437181feabf2","system_id":"levelo_inurba_marseille","lat":43.26679,"lon":5.38252,"is_reserved":false,"is_disabled":false,"rental_uris":{"android":"levelo://app?vid=fdcc714d-c762-4a16-91da-437181feabf2","ios":"levelo://app?vid=fdcc714d-c762-4a16-91da-437181feabf2"},"vehicle_type_id":"4","last_reported":1742911848,"current_range_meters":10800,"station_id":"ce4bhg92rcd13ifvqf90","pricing_plan_id":"cebpf4jnsgd1na2vs0mg"},{"bike_id":"74406c35-ee35-437d-be26-2d7711378046","system_id":"levelo_inurba_marseille","lat":43.3235,"lon":5.36744,"is_reserved":false,"is_disabled":false,"rental_uris":{"android":"levelo://app?vid=74406c35-ee35-437d-be26-2d7711378046","ios":"levelo://app?vid=74406c35-ee35-437d-be26-2d7711378046"},"vehicle_type_id":"4","last_reported":1742911848,"current_range_meters":10800,"station_id":"ce4bhsh2rcd13ifvqi2g","pricing_plan_id":"cebpf4jnsgd1na2vs0mg"},{"bike_id":"d7c9b119-99cc-4acd-80c4-6ecaf67a26b1","system_id":"levelo_inurba_marseille","lat":43.23066,"lon":5.35499,"is_reserved":false,"is_disabled":false,"rental_uris":{"android":"levelo://app?vid=d7c9b119-99cc-4acd-80c4-6ecaf67a26b1","ios":"levelo://app?vid=d7c9b119-99cc-4acd-80c4-6ecaf67a26b1"},"vehicle_type_id":"4","last_reported":1742911848,"current_range_meters":10800,"station_id":"cpo3342slgdg3j2ifvpg","pricing_plan_id":"cebpf4jnsgd1na2vs0mg"},{"bike_id":"46774e41-cc26-42e2-8ed3-a8ea17d2f850","system_id":"levelo_inurba_marseille","lat":43.31334,"lon":5.36703,"is_reserved":false,"is_disabled":false,"rental_uris":{"android":"levelo://app?vid=46774e41-cc26-42e2-8ed3-a8ea17d2f850","ios":"levelo://app?vid=46774e41-cc26-42e2-8ed3-a8ea17d2f850"},"vehicle_type_id":"4","last_reported":1742911848,"current_range_meters":10800,"station_id":"ce4bgr92rcd13ifvqc6g","pricing_plan_id":"cebpf4jnsgd1na2vs0mg"},{"bike_id":"a79c941c-0930-49ee-9a82-8539f7f697d8","system_id":"levelo_inurba_marseille","lat":43.30425,"lon":5.39752,"is_reserved":false,"is_disabled":false,"rental_uris":{"android":"levelo://app?vid=a79c941c-0930-49ee-9a82-8539f7f697d8","ios":"levelo://app?vid=a79c941c-0930-49ee-9a82-8539f7f697d8"},"vehicle_type_id":"4","last_reported":1742911848,"current_range_meters":10800,"station_id":"ce4bh092rcd13ifvqd20","pricing_plan_id":"cebpf4jnsgd1na2vs0mg"},{"bike_id":"0db522cf-6931-4040-96e3-e6dc59dc2856","system_id":"levelo_inurba_marseille","lat":43.255,"lon":5.37668,"is_reserved":false,"is_disabled":false,"rental_uris":{"android":"levelo://app?vid=0db522cf-6931-4040-96e3-e6dc59dc2856","ios":"levelo://app?vid=0db522cf-6931-4040-96e3-e6dc59dc2856"},"vehicle_type_id":"4","last_reported":1742911848,"current_range_meters":10800,"station_id":"ce4bhh12rcd13ifvqff0","pricing_plan_id":"cebpf4jnsgd1na2vs0mg"},{"bike_id":"0ac21c4a-b9c6-4ffc-8854-b76ca7c22a2b","system_id":"levelo_inurba_marseille","lat":43.2815,"lon":5.42647,"is_reserved":false,"is_disabled":false,"rental_uris":{"android":"levelo://app?vid=0ac21c4a-b9c6-4ffc-8854-b76ca7c22a2b","ios":"levelo://app?vid=0ac21c4a-b9c6-4ffc-8854-b76ca7c22a2b"},"vehicle_type_id":"4","last_reported":1742911848,"current_range_meters":11200,"station_id":"ce4bhnh2rcd13ifvqgug","pricing_plan_id":"cebpf4jnsgd1na2vs0mg"},{"bike_id":"5336a8ca-abfb-46ae-b16d-c019918b2528","system_id":"levelo_inurba_marseille","lat":43.24801,"lon":5.37462,"is_reserved":false,"is_disabled":false,"rental_uris":{"android":"levelo://app?vid=5336a8ca-abfb-46ae-b16d-c019918b2528","ios":"levelo://app?vid=5336a8ca-abfb-46ae-b16d-c019918b2528"},"vehicle_type_id":"4","last_reported":1742911848,"current_range_meters":11200,"station_id":"ce4bhgh2rcd13ifvqfb0","pricing_plan_id":"cebpf4jnsgd1na2vs0mg"},{"bike_id":"5aeb641c-8c67-430e-bd09-77076d22412d","system_id":"levelo_inurba_marseille","lat":43.31039,"lon":5.37555,"is_reserved":false,"is_disabled":false,"rental_uris":{"android":"levelo://app?vid=5aeb641c-8c67-430e-bd09-77076d22412d","ios":"levelo://app?vid=5aeb641c-8c67-430e-bd09-77076d22412d"},"vehicle_type_id":"4","last_reported":1742911848,"current_range_meters":11200,"station_id":"","pricing_plan_id":"cebpf4jnsgd1na2vs0mg"},{"bike_id":"6633349b-54ae-41b8-88d5-61ec5d012302","system_id":"levelo_inurba_marseille","lat":43.32116,"lon":5.36776,"is_reserved":false,"is_disabled":false,"rental_uris":{"android":"levelo://app?vid=6633349b-54ae-41b8-88d5-61ec5d012302","ios":"levelo://app?vid=6633349b-54ae-41b8-88d5-61ec5d012302"},"vehicle_type_id":"4","last_reported":1742911848,"current_range_meters":11200,"station_id":"ce4bhrh2rcd13ifvqhug","pricing_plan_id":"cebpf4jnsgd1na2vs0mg"},{"bike_id":"9521edc0-0246-4634-bcfa-c6f78d1cbaab","system_id":"levelo_inurba_marseille","lat":43.30519,"lon":5.36512,"is_reserved":false,"is_disabled":false,"rental_uris":{"android":"levelo://app?vid=9521edc0-0246-4634-bcfa-c6f78d1cbaab","ios":"levelo://app?vid=9521edc0-0246-4634-bcfa-c6f78d1cbaab"},"vehicle_type_id":"4","last_reported":1742911848,"current_range_meters":11200,"station_id":"","pricing_plan_id":"cebpf4jnsgd1na2vs0mg"},{"bike_id":"50e3359a-15f1-4f66-bbc8-eed7afb5cb08","system_id":"levelo_inurba_marseille","lat":43.25911,"lon":5.40901,"is_reserved":false,"is_disabled":false,"rental_uris":{"android":"levelo://app?vid=50e3359a-15f1-4f66-bbc8-eed7afb5cb08","ios":"levelo://app?vid=50e3359a-15f1-4f66-bbc8-eed7afb5cb08"},"vehicle_type_id":"4","last_reported":1742911848,"current_range_meters":11200,"station_id":"ce4bhm92rcd13ifvqglg","pricing_plan_id":"cebpf4jnsgd1na2vs0mg"},{"bike_id":"8583bcae-e817-4db7-ab92-448c595780ea","system_id":"levelo_inurba_marseille","lat":43.330293,"lon":5.390357,"is_reserved":false,"is_disabled":false,"rental_uris":{"android":"levelo://app?vid=8583bcae-e817-4db7-ab92-448c595780ea","ios":"levelo://app?vid=8583bcae-e817-4db7-ab92-448c595780ea"},"vehicle_type_id":"4","last_reported":1742911848,"current_range_meters":11200,"station_id":"ce4bhr92rcd13ifvqhrg","pricing_plan_id":"cebpf4jnsgd1na2vs0mg"},{"bike_id":"30bca957-3a75-4d80-904c-e6981e93293e","system_id":"levelo_inurba_marseille","lat":43.30329,"lon":5.40432,"is_reserved":false,"is_disabled":false,"rental_uris":{"android":"levelo://app?vid=30bca957-3a75-4d80-904c-e6981e93293e","ios":"levelo://app?vid=30bca957-3a75-4d80-904c-e6981e93293e"},"vehicle_type_id":"4","last_reported":1742911848,"current_range_meters":10800,"station_id":"ce4bh012rcd13ifvqd10","pricing_plan_id":"cebpf4jnsgd1na2vs0mg"},{"bike_id":"f0510ba7-c335-4b7a-aec7-5e60e076b988","system_id":"levelo_inurba_marseille","lat":43.27381,"lon":5.36268,"is_reserved":false,"is_disabled":false,"rental_uris":{"android":"levelo://app?vid=f0510ba7-c335-4b7a-aec7-5e60e076b988","ios":"levelo://app?vid=f0510ba7-c335-4b7a-aec7-5e60e076b988"},"vehicle_type_id":"4","last_reported":1742911848,"current_range_meters":11600,"station_id":"ce4bhbh2rcd13ifvqeo0","pricing_plan_id":"cebpf4jnsgd1na2vs0mg"},{"bike_id":"844d3370-21e5-4de2-9d45-2b091e1157d6","system_id":"levelo_inurba_marseille","lat":43.23968,"lon":5.36628,"is_reserved":false,"is_disabled":false,"rental_uris":{"android":"levelo://app?vid=844d3370-21e5-4de2-9d45-2b091e1157d6","ios":"levelo://app?vid=844d3370-21e5-4de2-9d45-2b091e1157d6"},"vehicle_type_id":"4","last_reported":1742911848,"current_range_meters":11600,"station_id":"ce4bhi12rcd13ifvqfp0","pricing_plan_id":"cebpf4jnsgd1na2vs0mg"},{"bike_id":"b599ec8c-9116-4cb3-980c-d0a7d1e83114","system_id":"levelo_inurba_marseille","lat":43.32485,"lon":5.36559,"is_reserved":false,"is_disabled":false,"rental_uris":{"android":"levelo://app?vid=b599ec8c-9116-4cb3-980c-d0a7d1e83114","ios":"levelo://app?vid=b599ec8c-9116-4cb3-980c-d0a7d1e83114"},"vehicle_type_id":"4","last_reported":1742911848,"current_range_meters":11600,"station_id":"ce4bhs12rcd13ifvqhvg","pricing_plan_id":"cebpf4jnsgd1na2vs0mg"},{"bike_id":"251e023a-b67b-4f7f-a025-8fd48dba36d9","system_id":"levelo_inurba_marseille","lat":43.28374,"lon":5.38647,"is_reserved":false,"is_disabled":false,"rental_uris":{"android":"levelo://app?vid=251e023a-b67b-4f7f-a025-8fd48dba36d9","ios":"levelo://app?vid=251e023a-b67b-4f7f-a025-8fd48dba36d9"},"vehicle_type_id":"4","last_reported":1742911848,"current_range_meters":12000,"station_id":"ce4bh492rcd13ifvqdvg","pricing_plan_id":"cebpf4jnsgd1na2vs0mg"},{"bike_id":"995d8929-71ce-4e8e-b55c-fcaecfd1327e","system_id":"levelo_inurba_marseille","lat":43.29201,"lon":5.39316,"is_reserved":false,"is_disabled":false,"rental_uris":{"android":"levelo://app?vid=995d8929-71ce-4e8e-b55c-fcaecfd1327e","ios":"levelo://app?vid=995d8929-71ce-4e8e-b55c-fcaecfd1327e"},"vehicle_type_id":"4","last_reported":1742911848,"current_range_meters":11600,"station_id":"ce4bh192rcd13ifvqdd0","pricing_plan_id":"cebpf4jnsgd1na2vs0mg"},{"bike_id":"fa0bd830-b5e1-4d00-82d7-ed272fa92124","system_id":"levelo_inurba_marseille","lat":43.27367,"lon":5.36252,"is_reserved":false,"is_disabled":false,"rental_uris":{"android":"levelo://app?vid=fa0bd830-b5e1-4d00-82d7-ed272fa92124","ios":"levelo://app?vid=fa0bd830-b5e1-4d00-82d7-ed272fa92124"},"vehicle_type_id":"4","last_reported":1742911848,"current_range_meters":12000,"station_id":"ce4bhbh2rcd13ifvqeo0","pricing_plan_id":"cebpf4jnsgd1na2vs0mg"},{"bike_id":"38351309-2dec-417c-a558-74c8bc991036","system_id":"levelo_inurba_marseille","lat":43.30812,"lon":5.40673,"is_reserved":false,"is_disabled":true,"rental_uris":{"android":"levelo://app?vid=38351309-2dec-417c-a558-74c8bc991036","ios":"levelo://app?vid=38351309-2dec-417c-a558-74c8bc991036"},"vehicle_type_id":"4","last_reported":1742911848,"current_range_meters":12000,"station_id":"","pricing_plan_id":"cebpf4jnsgd1na2vs0mg"},{"bike_id":"28dc0c8a-542b-45f8-a521-988655cfc900","system_id":"levelo_inurba_marseille","lat":43.31364,"lon":5.36683,"is_reserved":false,"is_disabled":false,"rental_uris":{"android":"levelo://app?vid=28dc0c8a-542b-45f8-a521-988655cfc900","ios":"levelo://app?vid=28dc0c8a-542b-45f8-a521-988655cfc900"},"vehicle_type_id":"4","last_reported":1742911848,"current_range_meters":12000,"station_id":"ce4bgr92rcd13ifvqc6g","pricing_plan_id":"cebpf4jnsgd1na2vs0mg"},{"bike_id":"51587de3-9f36-4381-8c56-728033ce9c30","system_id":"levelo_inurba_marseille","lat":43.29811,"lon":5.3804,"is_reserved":false,"is_disabled":false,"rental_uris":{"android":"levelo://app?vid=51587de3-9f36-4381-8c56-728033ce9c30","ios":"levelo://app?vid=51587de3-9f36-4381-8c56-728033ce9c30"},"vehicle_type_id":"4","last_reported":1742911848,"current_range_meters":11600,"station_id":"ce4bgip2rcd13ifvqbb0","pricing_plan_id":"cebpf4jnsgd1na2vs0mg"},{"bike_id":"99a08f21-197e-4c37-bd89-4c59bc8ffdd4","system_id":"levelo_inurba_marseille","lat":43.25114,"lon":5.40328,"is_reserved":false,"is_disabled":false,"rental_uris":{"android":"levelo://app?vid=99a08f21-197e-4c37-bd89-4c59bc8ffdd4","ios":"levelo://app?vid=99a08f21-197e-4c37-bd89-4c59bc8ffdd4"},"vehicle_type_id":"4","last_reported":1742911848,"current_range_meters":11600,"station_id":"ce4bhlh2rcd13ifvqgig","pricing_plan_id":"cebpf4jnsgd1na2vs0mg"},{"bike_id":"cc0dd961-35ed-4895-bf99-0e560df88e0e","system_id":"levelo_inurba_marseille","lat":43.29521,"lon":5.39052,"is_reserved":false,"is_disabled":false,"rental_uris":{"android":"levelo://app?vid=cc0dd961-35ed-4895-bf99-0e560df88e0e","ios":"levelo://app?vid=cc0dd961-35ed-4895-bf99-0e560df88e0e"},"vehicle_type_id":"4","last_reported":1742911848,"current_range_meters":12400,"station_id":"ce4bh3p2rcd13ifvqdp0","pricing_plan_id":"cebpf4jnsgd1na2vs0mg"},{"bike_id":"c88d67a4-7e1e-4d17-9d9f-a9795b9e054b","system_id":"levelo_inurba_marseille","lat":43.27823,"lon":5.39213,"is_reserved":false,"is_disabled":false,"rental_uris":{"android":"levelo://app?vid=c88d67a4-7e1e-4d17-9d9f-a9795b9e054b","ios":"levelo://app?vid=c88d67a4-7e1e-4d17-9d9f-a9795b9e054b"},"vehicle_type_id":"4","last_reported":1742911848,"current_range_meters":12000,"station_id":"ce4bhjp2rcd13ifvqga0","pricing_plan_id":"cebpf4jnsgd1na2vs0mg"},{"bike_id":"d05e1f0c-573c-4655-8591-0bbdf5223b99","system_id":"levelo_inurba_marseille","lat":43.29791,"lon":5.38104,"is_reserved":false,"is_disabled":false,"rental_uris":{"android":"levelo://app?vid=d05e1f0c-573c-4655-8591-0bbdf5223b99","ios":"levelo://app?vid=d05e1f0c-573c-4655-8591-0bbdf5223b99"},"vehicle_type_id":"4","last_reported":1742911848,"current_range_meters":12400,"station_id":"ce4bgip2rcd13ifvqbb0","pricing_plan_id":"cebpf4jnsgd1na2vs0mg"},{"bike_id":"ce62a1e9-6d28-40ee-8a55-8f80ae5d199f","system_id":"levelo_inurba_marseille","lat":43.324829,"lon":5.365711,"is_reserved":false,"is_disabled":false,"rental_uris":{"android":"levelo://app?vid=ce62a1e9-6d28-40ee-8a55-8f80ae5d199f","ios":"levelo://app?vid=ce62a1e9-6d28-40ee-8a55-8f80ae5d199f"},"vehicle_type_id":"4","last_reported":1742911848,"current_range_meters":17200,"station_id":"ce4bgt92rcd13ifvqcf0","pricing_plan_id":"cebpf4jnsgd1na2vs0mg"},{"bike_id":"f60dff67-8392-455d-abda-b163bfb65ce2","system_id":"levelo_inurba_marseille","lat":43.27321,"lon":5.39083,"is_reserved":false,"is_disabled":false,"rental_uris":{"android":"levelo://app?vid=f60dff67-8392-455d-abda-b163bfb65ce2","ios":"levelo://app?vid=f60dff67-8392-455d-abda-b163bfb65ce2"},"vehicle_type_id":"4","last_reported":1742911848,"current_range_meters":12000,"station_id":"ce4bhgp2rcd13ifvqfe0","pricing_plan_id":"cebpf4jnsgd1na2vs0mg"},{"bike_id":"405474af-a369-4f46-bd30-9c01040b10db","system_id":"levelo_inurba_marseille","lat":43.2794,"lon":5.41053,"is_reserved":false,"is_disabled":false,"rental_uris":{"android":"levelo://app?vid=405474af-a369-4f46-bd30-9c01040b10db","ios":"levelo://app?vid=405474af-a369-4f46-bd30-9c01040b10db"},"vehicle_type_id":"4","last_reported":1742911848,"current_range_meters":12800,"station_id":"ce4bhnp2rcd13ifvqh0g","pricing_plan_id":"cebpf4jnsgd1na2vs0mg"},{"bike_id":"1755d82f-d983-4d37-80a1-67423476c3b0","system_id":"levelo_inurba_marseille","lat":43.28575,"lon":5.39511,"is_reserved":false,"is_disabled":false,"rental_uris":{"android":"levelo://app?vid=1755d82f-d983-4d37-80a1-67423476c3b0","ios":"levelo://app?vid=1755d82f-d983-4d37-80a1-67423476c3b0"},"vehicle_type_id":"4","last_reported":1742911848,"current_range_meters":12800,"station_id":"ce4bh292rcd13ifvqdg0","pricing_plan_id":"cebpf4jnsgd1na2vs0mg"},{"bike_id":"605c60fb-51a1-46ee-9798-e2e3724c0d91","system_id":"levelo_inurba_marseille","lat":43.29887,"lon":5.4367,"is_reserved":false,"is_disabled":false,"rental_uris":{"android":"levelo://app?vid=605c60fb-51a1-46ee-9798-e2e3724c0d91","ios":"levelo://app?vid=605c60fb-51a1-46ee-9798-e2e3724c0d91"},"vehicle_type_id":"4","last_reported":1742911848,"current_range_meters":12800,"station_id":"ce4bhpp2rcd13ifvqhfg","pricing_plan_id":"cebpf4jnsgd1na2vs0mg"},{"bike_id":"df9ca7d4-4051-4f2e-8c84-46c5685400eb","system_id":"levelo_inurba_marseille","lat":43.24083,"lon":5.37758,"is_reserved":false,"is_disabled":false,"rental_uris":{"android":"levelo://app?vid=df9ca7d4-4051-4f2e-8c84-46c5685400eb","ios":"levelo://app?vid=df9ca7d4-4051-4f2e-8c84-46c5685400eb"},"vehicle_type_id":"4","last_reported":1742911848,"current_range_meters":12800,"station_id":"ce4bhnp2rcd13ifvqgvg","pricing_plan_id":"cebpf4jnsgd1na2vs0mg"},{"bike_id":"ecbb8c88-066d-4979-a1ca-79e53c204899","system_id":"levelo_inurba_marseille","lat":43.23963,"lon":5.36634,"is_reserved":false,"is_disabled":false,"rental_uris":{"android":"levelo://app?vid=ecbb8c88-066d-4979-a1ca-79e53c204899","ios":"levelo://app?vid=ecbb8c88-066d-4979-a1ca-79e53c204899"},"vehicle_type_id":"4","last_reported":1742911848,"current_range_meters":12800,"station_id":"ce4bhi12rcd13ifvqfp0","pricing_plan_id":"cebpf4jnsgd1na2vs0mg"},{"bike_id":"0b2381e9-90cd-40f9-9707-9105d09a211a","system_id":"levelo_inurba_marseille","lat":43.28955,"lon":5.36387,"is_reserved":false,"is_disabled":false,"rental_uris":{"android":"levelo://app?vid=0b2381e9-90cd-40f9-9707-9105d09a211a","ios":"levelo://app?vid=0b2381e9-90cd-40f9-9707-9105d09a211a"},"vehicle_type_id":"4","last_reported":1742911848,"current_range_meters":13600,"station_id":"ce4bhc92rcd13ifvqetg","pricing_plan_id":"cebpf4jnsgd1na2vs0mg"},{"bike_id":"1878cb00-829b-4819-b716-5a6d884419d0","system_id":"levelo_inurba_marseille","lat":43.298,"lon":5.381,"is_reserved":false,"is_disabled":false,"rental_uris":{"android":"levelo://app?vid=1878cb00-829b-4819-b716-5a6d884419d0","ios":"levelo://app?vid=1878cb00-829b-4819-b716-5a6d884419d0"},"vehicle_type_id":"4","last_reported":1742911848,"current_range_meters":13600,"station_id":"ce4bgip2rcd13ifvqbb0","pricing_plan_id":"cebpf4jnsgd1na2vs0mg"},{"bike_id":"d31d7e98-a60e-4361-87a4-77cff03e4ded","system_id":"levelo_inurba_marseille","lat":43.29041,"lon":5.35903,"is_reserved":false,"is_disabled":false,"rental_uris":{"android":"levelo://app?vid=d31d7e98-a60e-4361-87a4-77cff03e4ded","ios":"levelo://app?vid=d31d7e98-a60e-4361-87a4-77cff03e4ded"},"vehicle_type_id":"4","last_reported":1742911848,"current_range_meters":12800,"station_id":"ce4bha92rcd13ifvqeg0","pricing_plan_id":"cebpf4jnsgd1na2vs0mg"},{"bike_id":"ba75319e-65e4-471c-88a8-4147863e6236","system_id":"levelo_inurba_marseille","lat":43.31331,"lon":5.39697,"is_reserved":false,"is_disabled":false,"rental_uris":{"android":"levelo://app?vid=ba75319e-65e4-471c-88a8-4147863e6236","ios":"levelo://app?vid=ba75319e-65e4-471c-88a8-4147863e6236"},"vehicle_type_id":"4","last_reported":1742911848,"current_range_meters":13600,"station_id":"ce4bgvp2rcd13ifvqcu0","pricing_plan_id":"cebpf4jnsgd1na2vs0mg"},{"bike_id":"353abb0f-9a15-4c16-b40f-e16fe50451b2","system_id":"levelo_inurba_marseille","lat":43.28853,"lon":5.35856,"is_reserved":false,"is_disabled":false,"rental_uris":{"android":"levelo://app?vid=353abb0f-9a15-4c16-b40f-e16fe50451b2","ios":"levelo://app?vid=353abb0f-9a15-4c16-b40f-e16fe50451b2"},"vehicle_type_id":"4","last_reported":1742911848,"current_range_meters":13600,"station_id":"ce4bhb12rcd13ifvqem0","pricing_plan_id":"cebpf4jnsgd1na2vs0mg"},{"bike_id":"25c2d60a-2a9c-41c9-bd70-7dcc78fdc1f0","system_id":"levelo_inurba_marseille","lat":43.24085,"lon":5.37761,"is_reserved":false,"is_disabled":false,"rental_uris":{"android":"levelo://app?vid=25c2d60a-2a9c-41c9-bd70-7dcc78fdc1f0","ios":"levelo://app?vid=25c2d60a-2a9c-41c9-bd70-7dcc78fdc1f0"},"vehicle_type_id":"4","last_reported":1742911848,"current_range_meters":12800,"station_id":"ce4bhnp2rcd13ifvqgvg","pricing_plan_id":"cebpf4jnsgd1na2vs0mg"},{"bike_id":"b8dd6df4-e2e4-4d9a-a8b4-84fa5507046a","system_id":"levelo_inurba_marseille","lat":43.30884,"lon":5.37188,"is_reserved":false,"is_disabled":false,"rental_uris":{"android":"levelo://app?vid=b8dd6df4-e2e4-4d9a-a8b4-84fa5507046a","ios":"levelo://app?vid=b8dd6df4-e2e4-4d9a-a8b4-84fa5507046a"},"vehicle_type_id":"4","last_reported":1742911848,"current_range_meters":14400,"station_id":"ce4bguh2rcd13ifvqckg","pricing_plan_id":"cebpf4jnsgd1na2vs0mg"},{"bike_id":"b052d2e2-e875-4904-a7e7-4c54f441a36b","system_id":"levelo_inurba_marseille","lat":43.31222,"lon":5.36878,"is_reserved":false,"is_disabled":false,"rental_uris":{"android":"levelo://app?vid=b052d2e2-e875-4904-a7e7-4c54f441a36b","ios":"levelo://app?vid=b052d2e2-e875-4904-a7e7-4c54f441a36b"},"vehicle_type_id":"4","last_reported":1742911848,"current_range_meters":14000,"station_id":"","pricing_plan_id":"cebpf4jnsgd1na2vs0mg"},{"bike_id":"1d8a3249-9200-4972-bc96-75314e87b237","system_id":"levelo_inurba_marseille","lat":43.30626,"lon":5.36726,"is_reserved":false,"is_disabled":false,"rental_uris":{"android":"levelo://app?vid=1d8a3249-9200-4972-bc96-75314e87b237","ios":"levelo://app?vid=1d8a3249-9200-4972-bc96-75314e87b237"},"vehicle_type_id":"4","last_reported":1742911848,"current_range_meters":14000,"station_id":"","pricing_plan_id":"cebpf4jnsgd1na2vs0mg"},{"bike_id":"0737ea8b-6ae1-4e0e-aaf3-c29048f4f353","system_id":"levelo_inurba_marseille","lat":43.3054,"lon":5.36728,"is_reserved":false,"is_disabled":false,"rental_uris":{"android":"levelo://app?vid=0737ea8b-6ae1-4e0e-aaf3-c29048f4f353","ios":"levelo://app?vid=0737ea8b-6ae1-4e0e-aaf3-c29048f4f353"},"vehicle_type_id":"4","last_reported":1742911848,"current_range_meters":14400,"station_id":"ce4bgrp2rcd13ifvqc9g","pricing_plan_id":"cebpf4jnsgd1na2vs0mg"},{"bike_id":"76b8b44f-e55e-4e89-b1d2-6fba85b5194d","system_id":"levelo_inurba_marseille","lat":43.26504,"lon":5.39553,"is_reserved":false,"is_disabled":false,"rental_uris":{"android":"levelo://app?vid=76b8b44f-e55e-4e89-b1d2-6fba85b5194d","ios":"levelo://app?vid=76b8b44f-e55e-4e89-b1d2-6fba85b5194d"},"vehicle_type_id":"4","last_reported":1742911848,"current_range_meters":14400,"station_id":"ce4bhi12rcd13ifvqfq0","pricing_plan_id":"cebpf4jnsgd1na2vs0mg"},{"bike_id":"8eefde25-af04-4206-8672-1d6b97905cd3","system_id":"levelo_inurba_marseille","lat":43.23183,"lon":5.39988,"is_reserved":false,"is_disabled":false,"rental_uris":{"android":"levelo://app?vid=8eefde25-af04-4206-8672-1d6b97905cd3","ios":"levelo://app?vid=8eefde25-af04-4206-8672-1d6b97905cd3"},"vehicle_type_id":"4","last_reported":1742911848,"current_range_meters":14400,"station_id":"ce4bhn12rcd13ifvqgqg","pricing_plan_id":"cebpf4jnsgd1na2vs0mg"},{"bike_id":"da43d894-069e-486e-a738-14255c3635ad","system_id":"levelo_inurba_marseille","lat":43.26051,"lon":5.39395,"is_reserved":false,"is_disabled":false,"rental_uris":{"android":"levelo://app?vid=da43d894-069e-486e-a738-14255c3635ad","ios":"levelo://app?vid=da43d894-069e-486e-a738-14255c3635ad"},"vehicle_type_id":"4","last_reported":1742911848,"current_range_meters":14400,"station_id":"ce4bhh92rcd13ifvqfj0","pricing_plan_id":"cebpf4jnsgd1na2vs0mg"},{"bike_id":"7d40e5e6-f8d3-41ab-a360-3eeaf3861659","system_id":"levelo_inurba_marseille","lat":43.31116,"lon":5.37774,"is_reserved":false,"is_disabled":false,"rental_uris":{"android":"levelo://app?vid=7d40e5e6-f8d3-41ab-a360-3eeaf3861659","ios":"levelo://app?vid=7d40e5e6-f8d3-41ab-a360-3eeaf3861659"},"vehicle_type_id":"4","last_reported":1742911848,"current_range_meters":14400,"station_id":"ce4bgt92rcd13ifvqcg0","pricing_plan_id":"cebpf4jnsgd1na2vs0mg"},{"bike_id":"48844298-e040-4ef6-8a39-e65ba1d078c0","system_id":"levelo_inurba_marseille","lat":43.2194,"lon":5.41914,"is_reserved":false,"is_disabled":false,"rental_uris":{"android":"levelo://app?vid=48844298-e040-4ef6-8a39-e65ba1d078c0","ios":"levelo://app?vid=48844298-e040-4ef6-8a39-e65ba1d078c0"},"vehicle_type_id":"4","last_reported":1742911848,"current_range_meters":14400,"station_id":"","pricing_plan_id":"cebpf4jnsgd1na2vs0mg"},{"bike_id":"0aea2c8b-a3f7-47d3-88d0-95fbd5fe692b","system_id":"levelo_inurba_marseille","lat":43.26692,"lon":5.38255,"is_reserved":false,"is_disabled":false,"rental_uris":{"android":"levelo://app?vid=0aea2c8b-a3f7-47d3-88d0-95fbd5fe692b","ios":"levelo://app?vid=0aea2c8b-a3f7-47d3-88d0-95fbd5fe692b"},"vehicle_type_id":"4","last_reported":1742911848,"current_range_meters":14400,"station_id":"ce4bhg92rcd13ifvqf90","pricing_plan_id":"cebpf4jnsgd1na2vs0mg"},{"bike_id":"c61218b7-7718-4f29-bdd6-8b7c99f6c748","system_id":"levelo_inurba_marseille","lat":43.26687,"lon":5.38275,"is_reserved":false,"is_disabled":false,"rental_uris":{"android":"levelo://app?vid=c61218b7-7718-4f29-bdd6-8b7c99f6c748","ios":"levelo://app?vid=c61218b7-7718-4f29-bdd6-8b7c99f6c748"},"vehicle_type_id":"4","last_reported":1742911848,"current_range_meters":14800,"station_id":"ce4bhg92rcd13ifvqf90","pricing_plan_id":"cebpf4jnsgd1na2vs0mg"},{"bike_id":"d877fe28-f3c0-481e-b8b6-06089474508d","system_id":"levelo_inurba_marseille","lat":43.30421,"lon":5.3975,"is_reserved":false,"is_disabled":false,"rental_uris":{"android":"levelo://app?vid=d877fe28-f3c0-481e-b8b6-06089474508d","ios":"levelo://app?vid=d877fe28-f3c0-481e-b8b6-06089474508d"},"vehicle_type_id":"4","last_reported":1742911848,"current_range_meters":14400,"station_id":"ce4bh092rcd13ifvqd20","pricing_plan_id":"cebpf4jnsgd1na2vs0mg"},{"bike_id":"84a7a785-5392-42bc-8088-fb903bcc7f5c","system_id":"levelo_inurba_marseille","lat":43.23069,"lon":5.35493,"is_reserved":false,"is_disabled":false,"rental_uris":{"android":"levelo://app?vid=84a7a785-5392-42bc-8088-fb903bcc7f5c","ios":"levelo://app?vid=84a7a785-5392-42bc-8088-fb903bcc7f5c"},"vehicle_type_id":"4","last_reported":1742911848,"current_range_meters":14800,"station_id":"cpo3342slgdg3j2ifvpg","pricing_plan_id":"cebpf4jnsgd1na2vs0mg"},{"bike_id":"aff6496d-f527-493e-afec-1f09967180ee","system_id":"levelo_inurba_marseille","lat":43.27567,"lon":5.38429,"is_reserved":false,"is_disabled":false,"rental_uris":{"android":"levelo://app?vid=aff6496d-f527-493e-afec-1f09967180ee","ios":"levelo://app?vid=aff6496d-f527-493e-afec-1f09967180ee"},"vehicle_type_id":"4","last_reported":1742911848,"current_range_meters":14800,"station_id":"ce4bhh92rcd13ifvqfi0","pricing_plan_id":"cebpf4jnsgd1na2vs0mg"},{"bike_id":"e188127a-982e-47e7-a38c-97a0d95e1457","system_id":"levelo_inurba_marseille","lat":43.25826,"lon":5.39428,"is_reserved":false,"is_disabled":false,"rental_uris":{"android":"levelo://app?vid=e188127a-982e-47e7-a38c-97a0d95e1457","ios":"levelo://app?vid=e188127a-982e-47e7-a38c-97a0d95e1457"},"vehicle_type_id":"4","last_reported":1742911848,"current_range_meters":14800,"station_id":"ce4bhip2rcd13ifvqft0","pricing_plan_id":"cebpf4jnsgd1na2vs0mg"},{"bike_id":"7fdecdeb-36cb-4cf4-9c98-d803f5809435","system_id":"levelo_inurba_marseille","lat":43.26148,"lon":5.39865,"is_reserved":false,"is_disabled":false,"rental_uris":{"android":"levelo://app?vid=7fdecdeb-36cb-4cf4-9c98-d803f5809435","ios":"levelo://app?vid=7fdecdeb-36cb-4cf4-9c98-d803f5809435"},"vehicle_type_id":"4","last_reported":1742911848,"current_range_meters":14800,"station_id":"","pricing_plan_id":"cebpf4jnsgd1na2vs0mg"},{"bike_id":"39dd3a0d-5b61-48d8-a69f-25b5d345b395","system_id":"levelo_inurba_marseille","lat":43.30578,"lon":5.36438,"is_reserved":false,"is_disabled":false,"rental_uris":{"android":"levelo://app?vid=39dd3a0d-5b61-48d8-a69f-25b5d345b395","ios":"levelo://app?vid=39dd3a0d-5b61-48d8-a69f-25b5d345b395"},"vehicle_type_id":"4","last_reported":1742911848,"current_range_meters":14800,"station_id":"ce4bgs12rcd13ifvqcag","pricing_plan_id":"cebpf4jnsgd1na2vs0mg"},{"bike_id":"0106ab29-c8a1-4122-828d-e7530cd700de","system_id":"levelo_inurba_marseille","lat":43.29937,"lon":5.36552,"is_reserved":false,"is_disabled":false,"rental_uris":{"android":"levelo://app?vid=0106ab29-c8a1-4122-828d-e7530cd700de","ios":"levelo://app?vid=0106ab29-c8a1-4122-828d-e7530cd700de"},"vehicle_type_id":"4","last_reported":1742911848,"current_range_meters":15200,"station_id":"ce4bgm92rcd13ifvqbr0","pricing_plan_id":"cebpf4jnsgd1na2vs0mg"},{"bike_id":"105240cd-5b2e-4253-af98-21af348a3806","system_id":"levelo_inurba_marseille","lat":43.31766,"lon":5.39018,"is_reserved":false,"is_disabled":false,"rental_uris":{"android":"levelo://app?vid=105240cd-5b2e-4253-af98-21af348a3806","ios":"levelo://app?vid=105240cd-5b2e-4253-af98-21af348a3806"},"vehicle_type_id":"4","last_reported":1742911848,"current_range_meters":15200,"station_id":"ce4bhqp2rcd13ifvqhng","pricing_plan_id":"cebpf4jnsgd1na2vs0mg"},{"bike_id":"0c9cada4-2764-4013-a528-15089818cb84","system_id":"levelo_inurba_marseille","lat":43.27748,"lon":5.41164,"is_reserved":false,"is_disabled":false,"rental_uris":{"android":"levelo://app?vid=0c9cada4-2764-4013-a528-15089818cb84","ios":"levelo://app?vid=0c9cada4-2764-4013-a528-15089818cb84"},"vehicle_type_id":"4","last_reported":1742911848,"current_range_meters":15200,"station_id":"","pricing_plan_id":"cebpf4jnsgd1na2vs0mg"},{"bike_id":"974f5876-effd-44d0-911c-76ea7a107a8c","system_id":"levelo_inurba_marseille","lat":43.33292,"lon":5.35878,"is_reserved":false,"is_disabled":false,"rental_uris":{"android":"levelo://app?vid=974f5876-effd-44d0-911c-76ea7a107a8c","ios":"levelo://app?vid=974f5876-effd-44d0-911c-76ea7a107a8c"},"vehicle_type_id":"4","last_reported":1742911848,"current_range_meters":15200,"station_id":"","pricing_plan_id":"cebpf4jnsgd1na2vs0mg"},{"bike_id":"82219511-549c-4b63-baf5-ff8405cca9d7","system_id":"levelo_inurba_marseille","lat":43.31708,"lon":5.43692,"is_reserved":false,"is_disabled":false,"rental_uris":{"android":"levelo://app?vid=82219511-549c-4b63-baf5-ff8405cca9d7","ios":"levelo://app?vid=82219511-549c-4b63-baf5-ff8405cca9d7"},"vehicle_type_id":"4","last_reported":1742911848,"current_range_meters":15200,"station_id":"ce4bhp92rcd13ifvqhcg","pricing_plan_id":"cebpf4jnsgd1na2vs0mg"},{"bike_id":"8f5596d0-d76c-4fbb-8704-c9bc10893386","system_id":"levelo_inurba_marseille","lat":43.29976,"lon":5.37161,"is_reserved":false,"is_disabled":false,"rental_uris":{"android":"levelo://app?vid=8f5596d0-d76c-4fbb-8704-c9bc10893386","ios":"levelo://app?vid=8f5596d0-d76c-4fbb-8704-c9bc10893386"},"vehicle_type_id":"4","last_reported":1742911848,"current_range_meters":15200,"station_id":"ce4bgr92rcd13ifvqc7g","pricing_plan_id":"cebpf4jnsgd1na2vs0mg"},{"bike_id":"a818961d-5f1c-4a77-8216-5fd27d2d139f","system_id":"levelo_inurba_marseille","lat":43.31337,"lon":5.36665,"is_reserved":false,"is_disabled":false,"rental_uris":{"android":"levelo://app?vid=a818961d-5f1c-4a77-8216-5fd27d2d139f","ios":"levelo://app?vid=a818961d-5f1c-4a77-8216-5fd27d2d139f"},"vehicle_type_id":"4","last_reported":1742911848,"current_range_meters":15200,"station_id":"","pricing_plan_id":"cebpf4jnsgd1na2vs0mg"},{"bike_id":"e536e245-dcf1-475a-ad62-ff43149a7b75","system_id":"levelo_inurba_marseille","lat":43.26028,"lon":5.37559,"is_reserved":false,"is_disabled":false,"rental_uris":{"android":"levelo://app?vid=e536e245-dcf1-475a-ad62-ff43149a7b75","ios":"levelo://app?vid=e536e245-dcf1-475a-ad62-ff43149a7b75"},"vehicle_type_id":"4","last_reported":1742911848,"current_range_meters":16000,"station_id":"ce4bhgh2rcd13ifvqfa0","pricing_plan_id":"cebpf4jnsgd1na2vs0mg"},{"bike_id":"0d20b273-875a-432a-ba76-d960497c4a6a","system_id":"levelo_inurba_marseille","lat":43.30541,"lon":5.36527,"is_reserved":false,"is_disabled":false,"rental_uris":{"android":"levelo://app?vid=0d20b273-875a-432a-ba76-d960497c4a6a","ios":"levelo://app?vid=0d20b273-875a-432a-ba76-d960497c4a6a"},"vehicle_type_id":"4","last_reported":1742911848,"current_range_meters":16000,"station_id":"ce4bgs12rcd13ifvqcag","pricing_plan_id":"cebpf4jnsgd1na2vs0mg"},{"bike_id":"3721b4cb-71aa-4e30-b609-90ee53c26d0d","system_id":"levelo_inurba_marseille","lat":43.24073,"lon":5.37717,"is_reserved":false,"is_disabled":false,"rental_uris":{"android":"levelo://app?vid=3721b4cb-71aa-4e30-b609-90ee53c26d0d","ios":"levelo://app?vid=3721b4cb-71aa-4e30-b609-90ee53c26d0d"},"vehicle_type_id":"4","last_reported":1742911848,"current_range_meters":16000,"station_id":"ce4bhnp2rcd13ifvqgvg","pricing_plan_id":"cebpf4jnsgd1na2vs0mg"},{"bike_id":"8ba11d0e-dc45-4bc3-a15d-ccf081ccb3e7","system_id":"levelo_inurba_marseille","lat":43.23062,"lon":5.35482,"is_reserved":false,"is_disabled":false,"rental_uris":{"android":"levelo://app?vid=8ba11d0e-dc45-4bc3-a15d-ccf081ccb3e7","ios":"levelo://app?vid=8ba11d0e-dc45-4bc3-a15d-ccf081ccb3e7"},"vehicle_type_id":"4","last_reported":1742911848,"current_range_meters":16000,"station_id":"cpo3342slgdg3j2ifvpg","pricing_plan_id":"cebpf4jnsgd1na2vs0mg"},{"bike_id":"60666ae8-a12a-465f-886a-9566a4925c38","system_id":"levelo_inurba_marseille","lat":43.25719,"lon":5.41112,"is_reserved":false,"is_disabled":false,"rental_uris":{"android":"levelo://app?vid=60666ae8-a12a-465f-886a-9566a4925c38","ios":"levelo://app?vid=60666ae8-a12a-465f-886a-9566a4925c38"},"vehicle_type_id":"4","last_reported":1742911848,"current_range_meters":15200,"station_id":"ce4bhkp2rcd13ifvqgd0","pricing_plan_id":"cebpf4jnsgd1na2vs0mg"},{"bike_id":"dcaa9e68-40a4-43a6-871a-263bcf53d619","system_id":"levelo_inurba_marseille","lat":43.30547,"lon":5.36538,"is_reserved":false,"is_disabled":false,"rental_uris":{"android":"levelo://app?vid=dcaa9e68-40a4-43a6-871a-263bcf53d619","ios":"levelo://app?vid=dcaa9e68-40a4-43a6-871a-263bcf53d619"},"vehicle_type_id":"4","last_reported":1742911848,"current_range_meters":16000,"station_id":"ce4bgs12rcd13ifvqcag","pricing_plan_id":"cebpf4jnsgd1na2vs0mg"},{"bike_id":"bce27131-09e1-4c05-be45-f17ca0ec8286","system_id":"levelo_inurba_marseille","lat":43.29622,"lon":5.37159,"is_reserved":false,"is_disabled":false,"rental_uris":{"android":"levelo://app?vid=bce27131-09e1-4c05-be45-f17ca0ec8286","ios":"levelo://app?vid=bce27131-09e1-4c05-be45-f17ca0ec8286"},"vehicle_type_id":"4","last_reported":1742911848,"current_range_meters":15200,"station_id":"ce4bgnh2rcd13ifvqc0g","pricing_plan_id":"cebpf4jnsgd1na2vs0mg"},{"bike_id":"2d29b4f8-0ff0-4bb4-8719-77aef0f953da","system_id":"levelo_inurba_marseille","lat":43.2842,"lon":5.34983,"is_reserved":false,"is_disabled":false,"rental_uris":{"android":"levelo://app?vid=2d29b4f8-0ff0-4bb4-8719-77aef0f953da","ios":"levelo://app?vid=2d29b4f8-0ff0-4bb4-8719-77aef0f953da"},"vehicle_type_id":"4","last_reported":1742911848,"current_range_meters":16000,"station_id":"ce4bhbh2rcd13ifvqepg","pricing_plan_id":"cebpf4jnsgd1na2vs0mg"},{"bike_id":"0c1280e7-85c9-4561-8a52-ac479ebb355f","system_id":"levelo_inurba_marseille","lat":43.30136,"lon":5.38783,"is_reserved":false,"is_disabled":false,"rental_uris":{"android":"levelo://app?vid=0c1280e7-85c9-4561-8a52-ac479ebb355f","ios":"levelo://app?vid=0c1280e7-85c9-4561-8a52-ac479ebb355f"},"vehicle_type_id":"4","last_reported":1742911848,"current_range_meters":16000,"station_id":"ce4bghh2rcd13ifvqb60","pricing_plan_id":"cebpf4jnsgd1na2vs0mg"},{"bike_id":"f0a27edd-6a35-4f4e-b148-9a07d45ef037","system_id":"levelo_inurba_marseille","lat":43.26029,"lon":5.37555,"is_reserved":false,"is_disabled":false,"rental_uris":{"android":"levelo://app?vid=f0a27edd-6a35-4f4e-b148-9a07d45ef037","ios":"levelo://app?vid=f0a27edd-6a35-4f4e-b148-9a07d45ef037"},"vehicle_type_id":"4","last_reported":1742911848,"current_range_meters":16400,"station_id":"ce4bhgh2rcd13ifvqfa0","pricing_plan_id":"cebpf4jnsgd1na2vs0mg"},{"bike_id":"c4c112a2-c87a-48f3-b2ea-b5de9646d5a4","system_id":"levelo_inurba_marseille","lat":43.29799,"lon":5.38123,"is_reserved":false,"is_disabled":false,"rental_uris":{"android":"levelo://app?vid=c4c112a2-c87a-48f3-b2ea-b5de9646d5a4","ios":"levelo://app?vid=c4c112a2-c87a-48f3-b2ea-b5de9646d5a4"},"vehicle_type_id":"4","last_reported":1742911848,"current_range_meters":16400,"station_id":"ce4bgip2rcd13ifvqbb0","pricing_plan_id":"cebpf4jnsgd1na2vs0mg"},{"bike_id":"2428ad6b-c624-47a3-b4fd-a7140212771e","system_id":"levelo_inurba_marseille","lat":43.28937,"lon":5.36635,"is_reserved":false,"is_disabled":false,"rental_uris":{"android":"levelo://app?vid=2428ad6b-c624-47a3-b4fd-a7140212771e","ios":"levelo://app?vid=2428ad6b-c624-47a3-b4fd-a7140212771e"},"vehicle_type_id":"4","last_reported":1742911848,"current_range_meters":16400,"station_id":"ce4bhap2rcd13ifvqek0","pricing_plan_id":"cebpf4jnsgd1na2vs0mg"},{"bike_id":"26f00111-2fe1-4c78-b308-a98839a8be4f","system_id":"levelo_inurba_marseille","lat":43.28698,"lon":5.37383,"is_reserved":false,"is_disabled":false,"rental_uris":{"android":"levelo://app?vid=26f00111-2fe1-4c78-b308-a98839a8be4f","ios":"levelo://app?vid=26f00111-2fe1-4c78-b308-a98839a8be4f"},"vehicle_type_id":"4","last_reported":1742911848,"current_range_meters":16400,"station_id":"ce4bh3p2rcd13ifvqdq0","pricing_plan_id":"cebpf4jnsgd1na2vs0mg"},{"bike_id":"1f8eb693-fa65-437d-a974-6f47973f68d7","system_id":"levelo_inurba_marseille","lat":43.259,"lon":5.40866,"is_reserved":false,"is_disabled":false,"rental_uris":{"android":"levelo://app?vid=1f8eb693-fa65-437d-a974-6f47973f68d7","ios":"levelo://app?vid=1f8eb693-fa65-437d-a974-6f47973f68d7"},"vehicle_type_id":"4","last_reported":1742911848,"current_range_meters":16400,"station_id":"ce4bhm92rcd13ifvqglg","pricing_plan_id":"cebpf4jnsgd1na2vs0mg"},{"bike_id":"2349ea78-e5ff-44c1-8a9d-5755df83b4b0","system_id":"levelo_inurba_marseille","lat":43.28131,"lon":5.42683,"is_reserved":false,"is_disabled":false,"rental_uris":{"android":"levelo://app?vid=2349ea78-e5ff-44c1-8a9d-5755df83b4b0","ios":"levelo://app?vid=2349ea78-e5ff-44c1-8a9d-5755df83b4b0"},"vehicle_type_id":"4","last_reported":1742911848,"current_range_meters":16400,"station_id":"","pricing_plan_id":"cebpf4jnsgd1na2vs0mg"},{"bike_id":"1bfb707a-47e2-41d5-beaa-11dd438698a9","system_id":"levelo_inurba_marseille","lat":43.2418,"lon":5.39745,"is_reserved":false,"is_disabled":false,"rental_uris":{"android":"levelo://app?vid=1bfb707a-47e2-41d5-beaa-11dd438698a9","ios":"levelo://app?vid=1bfb707a-47e2-41d5-beaa-11dd438698a9"},"vehicle_type_id":"4","last_reported":1742911848,"current_range_meters":16400,"station_id":"ce4bhn12rcd13ifvqgpg","pricing_plan_id":"cebpf4jnsgd1na2vs0mg"},{"bike_id":"4fd33e02-d568-4e68-aa18-f01842c6c700","system_id":"levelo_inurba_marseille","lat":43.304463,"lon":5.397396,"is_reserved":false,"is_disabled":false,"rental_uris":{"android":"levelo://app?vid=4fd33e02-d568-4e68-aa18-f01842c6c700","ios":"levelo://app?vid=4fd33e02-d568-4e68-aa18-f01842c6c700"},"vehicle_type_id":"4","last_reported":1742911848,"current_range_meters":16400,"station_id":"ce4bh092rcd13ifvqd20","pricing_plan_id":"cebpf4jnsgd1na2vs0mg"},{"bike_id":"52793577-8d59-4388-bc9a-d81f8bc1b0fa","system_id":"levelo_inurba_marseille","lat":43.32471,"lon":5.36584,"is_reserved":false,"is_disabled":true,"rental_uris":{"android":"levelo://app?vid=52793577-8d59-4388-bc9a-d81f8bc1b0fa","ios":"levelo://app?vid=52793577-8d59-4388-bc9a-d81f8bc1b0fa"},"vehicle_type_id":"4","last_reported":1742911848,"current_range_meters":16400,"station_id":"ce4bhs12rcd13ifvqhvg","pricing_plan_id":"cebpf4jnsgd1na2vs0mg"},{"bike_id":"3e4ce8fc-d1a8-47e5-8b1e-c64006bac375","system_id":"levelo_inurba_marseille","lat":43.31082,"lon":5.42434,"is_reserved":false,"is_disabled":false,"rental_uris":{"android":"levelo://app?vid=3e4ce8fc-d1a8-47e5-8b1e-c64006bac375","ios":"levelo://app?vid=3e4ce8fc-d1a8-47e5-8b1e-c64006bac375"},"vehicle_type_id":"4","last_reported":1742911848,"current_range_meters":16400,"station_id":"ce4bhp92rcd13ifvqhag","pricing_plan_id":"cebpf4jnsgd1na2vs0mg"},{"bike_id":"9c23b3c2-c990-4dbf-aa18-6e694601de23","system_id":"levelo_inurba_marseille","lat":43.30424,"lon":5.41277,"is_reserved":false,"is_disabled":true,"rental_uris":{"android":"levelo://app?vid=9c23b3c2-c990-4dbf-aa18-6e694601de23","ios":"levelo://app?vid=9c23b3c2-c990-4dbf-aa18-6e694601de23"},"vehicle_type_id":"4","last_reported":1742911848,"current_range_meters":16800,"station_id":"ce4bhop2rcd13ifvqh8g","pricing_plan_id":"cebpf4jnsgd1na2vs0mg"},{"bike_id":"aac1d861-31b6-4fd4-a8a9-650bfeb67d57","system_id":"levelo_inurba_marseille","lat":43.30315,"lon":5.36891,"is_reserved":false,"is_disabled":false,"rental_uris":{"android":"levelo://app?vid=aac1d861-31b6-4fd4-a8a9-650bfeb67d57","ios":"levelo://app?vid=aac1d861-31b6-4fd4-a8a9-650bfeb67d57"},"vehicle_type_id":"4","last_reported":1742911848,"current_range_meters":16800,"station_id":"ce4bgqh2rcd13ifvqc5g","pricing_plan_id":"cebpf4jnsgd1na2vs0mg"},{"bike_id":"d5369e19-c61d-4d18-99ef-e45eea4820da","system_id":"levelo_inurba_marseille","lat":43.26677,"lon":5.38264,"is_reserved":false,"is_disabled":false,"rental_uris":{"android":"levelo://app?vid=d5369e19-c61d-4d18-99ef-e45eea4820da","ios":"levelo://app?vid=d5369e19-c61d-4d18-99ef-e45eea4820da"},"vehicle_type_id":"4","last_reported":1742911848,"current_range_meters":16800,"station_id":"ce4bhg92rcd13ifvqf90","pricing_plan_id":"cebpf4jnsgd1na2vs0mg"},{"bike_id":"046f982b-769b-4f96-b14f-4e8ec294fd36","system_id":"levelo_inurba_marseille","lat":43.24543,"lon":5.39518,"is_reserved":false,"is_disabled":false,"rental_uris":{"android":"levelo://app?vid=046f982b-769b-4f96-b14f-4e8ec294fd36","ios":"levelo://app?vid=046f982b-769b-4f96-b14f-4e8ec294fd36"},"vehicle_type_id":"4","last_reported":1742911848,"current_range_meters":16800,"station_id":"ce4bhlp2rcd13ifvqgjg","pricing_plan_id":"cebpf4jnsgd1na2vs0mg"},{"bike_id":"c7ebf56d-16eb-4076-88fc-9fc47c7163c1","system_id":"levelo_inurba_marseille","lat":43.24188,"lon":5.39735,"is_reserved":false,"is_disabled":false,"rental_uris":{"android":"levelo://app?vid=c7ebf56d-16eb-4076-88fc-9fc47c7163c1","ios":"levelo://app?vid=c7ebf56d-16eb-4076-88fc-9fc47c7163c1"},"vehicle_type_id":"4","last_reported":1742911848,"current_range_meters":16800,"station_id":"ce4bhn12rcd13ifvqgpg","pricing_plan_id":"cebpf4jnsgd1na2vs0mg"},{"bike_id":"07a0aada-5994-4f8b-a83a-0bba876ef3a3","system_id":"levelo_inurba_marseille","lat":43.24548,"lon":5.39529,"is_reserved":false,"is_disabled":false,"rental_uris":{"android":"levelo://app?vid=07a0aada-5994-4f8b-a83a-0bba876ef3a3","ios":"levelo://app?vid=07a0aada-5994-4f8b-a83a-0bba876ef3a3"},"vehicle_type_id":"4","last_reported":1742911848,"current_range_meters":16800,"station_id":"ce4bhlp2rcd13ifvqgjg","pricing_plan_id":"cebpf4jnsgd1na2vs0mg"},{"bike_id":"cbd91fe4-58fa-4742-a365-82fe247fbe75","system_id":"levelo_inurba_marseille","lat":43.28078,"lon":5.39632,"is_reserved":false,"is_disabled":false,"rental_uris":{"android":"levelo://app?vid=cbd91fe4-58fa-4742-a365-82fe247fbe75","ios":"levelo://app?vid=cbd91fe4-58fa-4742-a365-82fe247fbe75"},"vehicle_type_id":"4","last_reported":1742911848,"current_range_meters":16800,"station_id":"ce4bho12rcd13ifvqh2g","pricing_plan_id":"cebpf4jnsgd1na2vs0mg"},{"bike_id":"7f81d077-9440-451b-be84-55b609315a21","system_id":"levelo_inurba_marseille","lat":43.25713,"lon":5.41135,"is_reserved":false,"is_disabled":false,"rental_uris":{"android":"levelo://app?vid=7f81d077-9440-451b-be84-55b609315a21","ios":"levelo://app?vid=7f81d077-9440-451b-be84-55b609315a21"},"vehicle_type_id":"4","last_reported":1742911848,"current_range_meters":16800,"station_id":"ce4bhkp2rcd13ifvqgd0","pricing_plan_id":"cebpf4jnsgd1na2vs0mg"},{"bike_id":"b55a88c1-684a-4d71-b28c-1aa5f984196d","system_id":"levelo_inurba_marseille","lat":43.28434,"lon":5.39237,"is_reserved":false,"is_disabled":false,"rental_uris":{"android":"levelo://app?vid=b55a88c1-684a-4d71-b28c-1aa5f984196d","ios":"levelo://app?vid=b55a88c1-684a-4d71-b28c-1aa5f984196d"},"vehicle_type_id":"4","last_reported":1742911848,"current_range_meters":16800,"station_id":"ce4bhoh2rcd13ifvqh5g","pricing_plan_id":"cebpf4jnsgd1na2vs0mg"},{"bike_id":"9586ced0-2e26-4ebb-84dd-308588bd21e3","system_id":"levelo_inurba_marseille","lat":43.31481,"lon":5.37309,"is_reserved":false,"is_disabled":false,"rental_uris":{"android":"levelo://app?vid=9586ced0-2e26-4ebb-84dd-308588bd21e3","ios":"levelo://app?vid=9586ced0-2e26-4ebb-84dd-308588bd21e3"},"vehicle_type_id":"4","last_reported":1742911848,"current_range_meters":16800,"station_id":"ce4bgt12rcd13ifvqcd0","pricing_plan_id":"cebpf4jnsgd1na2vs0mg"},{"bike_id":"cbd73c7c-0f51-4e44-a559-4814faf49b03","system_id":"levelo_inurba_marseille","lat":43.24165,"lon":5.3971,"is_reserved":false,"is_disabled":false,"rental_uris":{"android":"levelo://app?vid=cbd73c7c-0f51-4e44-a559-4814faf49b03","ios":"levelo://app?vid=cbd73c7c-0f51-4e44-a559-4814faf49b03"},"vehicle_type_id":"4","last_reported":1742911848,"current_range_meters":17200,"station_id":"ce4bhn12rcd13ifvqgpg","pricing_plan_id":"cebpf4jnsgd1na2vs0mg"},