{"last_updated":1779186595,"ttl":60,"version":"2.2","data":{"bikes":[{"bike_id":"7d641315-6110-49cb-a9dd-d637ff032de1","system_id":"levelo_inurba_marseille","lat":43.337444,"lon":5.374475,"is_reserved":false,"is_disabled":false,"rental_uris":{"android":"levelo://app?vid=7d641315-6110-49cb-a9dd-d637ff032de1","ios":"levelo://app?vid=7d641315-6110-49cb-a9dd-d637ff032de1"},"vehicle_type_id":"4","last_reported":1779186596,"current_range_meters":0,"station_id":"","pricing_plan_id":"cebpf4jnsgd1na2vs0mg"},{"bike_id":"f46dc198-f447-4b28-8d13-72a1d78dd32a","system_id":"levelo_inurba_marseille","lat":43.2901,"lon":5.35472,"is_reserved":false,"is_disabled":false,"rental_uris":{"android":"levelo://app?vid=f46dc198-f447-4b28-8d13-72a1d78dd32a","ios":"levelo://app?vid=f46dc198-f447-4b28-8d13-72a1d78dd32a"},"vehicle_type_id":"4","last_reported":1779186596,"current_range_meters":2800,"station_id":"","pricing_plan_id":"cebpf4jnsgd1na2vs0mg"},{"bike_id":"c3043968-1751-408c-9ac4-e11aa6298c44","system_id":"levelo_inurba_marseille","lat":43.26197,"lon":5.37928,"is_reserved":false,"is_disabled":false,"rental_uris":{"android":"levelo://app?vid=c3043968-1751-408c-9ac4-e11aa6298c44","ios":"levelo://app?vid=c3043968-1751-408c-9ac4-e11aa6298c44"},"vehicle_type_id":"4","last_reported":1779186596,"current_range_meters":2800,"station_id":"ce4bhjp2rcd13ifvqg90","pricing_plan_id":"cebpf4jnsgd1na2vs0mg"},{"bike_id":"e9ca092f-eeb9-4bf2-8670-de7420368db8","system_id":"levelo_inurba_marseille","lat":43.262043,"lon":5.374319,"is_reserved":false,"is_disabled":false,"rental_uris":{"android":"levelo://app?vid=e9ca092f-eeb9-4bf2-8670-de7420368db8","ios":"levelo://app?vid=e9ca092f-eeb9-4bf2-8670-de7420368db8"},"vehicle_type_id":"4","last_reported":1779186596,"current_range_meters":2800,"station_id":"st_d3n2fo6cfp8s73cte1j0","pricing_plan_id":"cebpf4jnsgd1na2vs0mg"},{"bike_id":"6ea6c320-3fde-4b3f-983f-c4ea28652a4e","system_id":"levelo_inurba_marseille","lat":43.22565,"lon":5.41619,"is_reserved":false,"is_disabled":true,"rental_uris":{"android":"levelo://app?vid=6ea6c320-3fde-4b3f-983f-c4ea28652a4e","ios":"levelo://app?vid=6ea6c320-3fde-4b3f-983f-c4ea28652a4e"},"vehicle_type_id":"4","last_reported":1779186596,"current_range_meters":2800,"station_id":"st_d2o4gvlbi1j2169b742g","pricing_plan_id":"cebpf4jnsgd1na2vs0mg"},{"bike_id":"46117692-980b-4971-bcf1-25795253a6b1","system_id":"levelo_inurba_marseille","lat":43.28605,"lon":5.37059,"is_reserved":false,"is_disabled":false,"rental_uris":{"android":"levelo://app?vid=46117692-980b-4971-bcf1-25795253a6b1","ios":"levelo://app?vid=46117692-980b-4971-bcf1-25795253a6b1"},"vehicle_type_id":"4","last_reported":1779186596,"current_range_meters":2800,"station_id":"ce4bht12rcd13ifvqi60","pricing_plan_id":"cebpf4jnsgd1na2vs0mg"},{"bike_id":"97079989-8a0f-458b-9c5a-a1eeaa82c2ae","system_id":"levelo_inurba_marseille","lat":43.2623,"lon":5.37406,"is_reserved":false,"is_disabled":false,"rental_uris":{"android":"levelo://app?vid=97079989-8a0f-458b-9c5a-a1eeaa82c2ae","ios":"levelo://app?vid=97079989-8a0f-458b-9c5a-a1eeaa82c2ae"},"vehicle_type_id":"4","last_reported":1779186596,"current_range_meters":2800,"station_id":"ce4bhgp2rcd13ifvqfc0","pricing_plan_id":"cebpf4jnsgd1na2vs0mg"},{"bike_id":"29fc225a-7816-459a-ade0-d7b6cc97feb0","system_id":"levelo_inurba_marseille","lat":43.25569,"lon":5.38241,"is_reserved":false,"is_disabled":false,"rental_uris":{"android":"levelo://app?vid=29fc225a-7816-459a-ade0-d7b6cc97feb0","ios":"levelo://app?vid=29fc225a-7816-459a-ade0-d7b6cc97feb0"},"vehicle_type_id":"4","last_reported":1779186596,"current_range_meters":2800,"station_id":"ce4bhih2rcd13ifvqfs0","pricing_plan_id":"cebpf4jnsgd1na2vs0mg"},{"bike_id":"5f8cc8f6-1fb4-456c-91d4-f16390d67847","system_id":"levelo_inurba_marseille","lat":43.26224,"lon":5.37895,"is_reserved":false,"is_disabled":false,"rental_uris":{"android":"levelo://app?vid=5f8cc8f6-1fb4-456c-91d4-f16390d67847","ios":"levelo://app?vid=5f8cc8f6-1fb4-456c-91d4-f16390d67847"},"vehicle_type_id":"4","last_reported":1779186596,"current_range_meters":2800,"station_id":"ce4bhjp2rcd13ifvqg90","pricing_plan_id":"cebpf4jnsgd1na2vs0mg"},{"bike_id":"fc221e3f-51d0-45f1-988a-20d004c74526","system_id":"levelo_inurba_marseille","lat":43.31252,"lon":5.4135,"is_reserved":false,"is_disabled":false,"rental_uris":{"android":"levelo://app?vid=fc221e3f-51d0-45f1-988a-20d004c74526","ios":"levelo://app?vid=fc221e3f-51d0-45f1-988a-20d004c74526"},"vehicle_type_id":"4","last_reported":1779186596,"current_range_meters":2800,"station_id":"","pricing_plan_id":"cebpf4jnsgd1na2vs0mg"},{"bike_id":"56611aee-4a97-497f-a541-b301e0a4b4f4","system_id":"levelo_inurba_marseille","lat":43.33197,"lon":5.40623,"is_reserved":false,"is_disabled":false,"rental_uris":{"android":"levelo://app?vid=56611aee-4a97-497f-a541-b301e0a4b4f4","ios":"levelo://app?vid=56611aee-4a97-497f-a541-b301e0a4b4f4"},"vehicle_type_id":"4","last_reported":1779186596,"current_range_meters":2800,"station_id":"","pricing_plan_id":"cebpf4jnsgd1na2vs0mg"},{"bike_id":"f33bf5fa-ab57-49e9-8455-c54a2d38b218","system_id":"levelo_inurba_marseille","lat":43.31377,"lon":5.38498,"is_reserved":false,"is_disabled":false,"rental_uris":{"android":"levelo://app?vid=f33bf5fa-ab57-49e9-8455-c54a2d38b218","ios":"levelo://app?vid=f33bf5fa-ab57-49e9-8455-c54a2d38b218"},"vehicle_type_id":"4","last_reported":1779186596,"current_range_meters":2800,"station_id":"ce4bgt92rcd13ifvqcf0","pricing_plan_id":"cebpf4jnsgd1na2vs0mg"},{"bike_id":"27336fbd-b0a6-4f71-b2c2-e7337278a6ba","system_id":"levelo_inurba_marseille","lat":43.26564,"lon":5.37286,"is_reserved":false,"is_disabled":false,"rental_uris":{"android":"levelo://app?vid=27336fbd-b0a6-4f71-b2c2-e7337278a6ba","ios":"levelo://app?vid=27336fbd-b0a6-4f71-b2c2-e7337278a6ba"},"vehicle_type_id":"4","last_reported":1779186596,"current_range_meters":3200,"station_id":"ce4bhg12rcd13ifvqf70","pricing_plan_id":"cebpf4jnsgd1na2vs0mg"},{"bike_id":"31ff2bc9-defb-4580-a7b6-ec23763942fe","system_id":"levelo_inurba_marseille","lat":43.23788,"lon":5.36622,"is_reserved":false,"is_disabled":false,"rental_uris":{"android":"levelo://app?vid=31ff2bc9-defb-4580-a7b6-ec23763942fe","ios":"levelo://app?vid=31ff2bc9-defb-4580-a7b6-ec23763942fe"},"vehicle_type_id":"4","last_reported":1779186596,"current_range_meters":3200,"station_id":"st_d3nk18o9ro0c73en2l3g","pricing_plan_id":"cebpf4jnsgd1na2vs0mg"},{"bike_id":"8f6fb70f-9962-4c14-afae-9cd42b60f2ca","system_id":"levelo_inurba_marseille","lat":43.26775,"lon":5.39412,"is_reserved":false,"is_disabled":true,"rental_uris":{"android":"levelo://app?vid=8f6fb70f-9962-4c14-afae-9cd42b60f2ca","ios":"levelo://app?vid=8f6fb70f-9962-4c14-afae-9cd42b60f2ca"},"vehicle_type_id":"4","last_reported":1779186596,"current_range_meters":3200,"station_id":"ce4bhh12rcd13ifvqfg0","pricing_plan_id":"cebpf4jnsgd1na2vs0mg"},{"bike_id":"4feeb0f1-9905-4845-86c7-e9af4964b610","system_id":"levelo_inurba_marseille","lat":43.29739,"lon":5.37661,"is_reserved":false,"is_disabled":false,"rental_uris":{"android":"levelo://app?vid=4feeb0f1-9905-4845-86c7-e9af4964b610","ios":"levelo://app?vid=4feeb0f1-9905-4845-86c7-e9af4964b610"},"vehicle_type_id":"4","last_reported":1779186596,"current_range_meters":3200,"station_id":"ce4bgkh2rcd13ifvqbl0","pricing_plan_id":"cebpf4jnsgd1na2vs0mg"},{"bike_id":"4de22d2a-42b5-4340-9a15-d6954e69ec3b","system_id":"levelo_inurba_marseille","lat":43.25489,"lon":5.37655,"is_reserved":false,"is_disabled":false,"rental_uris":{"android":"levelo://app?vid=4de22d2a-42b5-4340-9a15-d6954e69ec3b","ios":"levelo://app?vid=4de22d2a-42b5-4340-9a15-d6954e69ec3b"},"vehicle_type_id":"4","last_reported":1779186596,"current_range_meters":3200,"station_id":"ce4bhh12rcd13ifvqff0","pricing_plan_id":"cebpf4jnsgd1na2vs0mg"},{"bike_id":"9e2fe2f7-d6df-4ab9-966a-e0a262530a00","system_id":"levelo_inurba_marseille","lat":43.24818,"lon":5.37449,"is_reserved":false,"is_disabled":false,"rental_uris":{"android":"levelo://app?vid=9e2fe2f7-d6df-4ab9-966a-e0a262530a00","ios":"levelo://app?vid=9e2fe2f7-d6df-4ab9-966a-e0a262530a00"},"vehicle_type_id":"4","last_reported":1779186596,"current_range_meters":3200,"station_id":"ce4bhgh2rcd13ifvqfb0","pricing_plan_id":"cebpf4jnsgd1na2vs0mg"},{"bike_id":"76a86b49-0475-4d7e-ae62-5d5f2fb8de51","system_id":"levelo_inurba_marseille","lat":43.27914,"lon":5.37993,"is_reserved":false,"is_disabled":false,"rental_uris":{"android":"levelo://app?vid=76a86b49-0475-4d7e-ae62-5d5f2fb8de51","ios":"levelo://app?vid=76a86b49-0475-4d7e-ae62-5d5f2fb8de51"},"vehicle_type_id":"4","last_reported":1779186596,"current_range_meters":3200,"station_id":"ce4bhf92rcd13ifvqf50","pricing_plan_id":"cebpf4jnsgd1na2vs0mg"},{"bike_id":"5321f702-e2b0-42bf-9d68-0a4a7c9f661f","system_id":"levelo_inurba_marseille","lat":43.25581,"lon":5.38222,"is_reserved":false,"is_disabled":false,"rental_uris":{"android":"levelo://app?vid=5321f702-e2b0-42bf-9d68-0a4a7c9f661f","ios":"levelo://app?vid=5321f702-e2b0-42bf-9d68-0a4a7c9f661f"},"vehicle_type_id":"4","last_reported":1779186596,"current_range_meters":3600,"station_id":"ce4bhih2rcd13ifvqfs0","pricing_plan_id":"cebpf4jnsgd1na2vs0mg"},{"bike_id":"cf5544a4-8e85-4838-918f-f563a2f5fb78","system_id":"levelo_inurba_marseille","lat":43.28139,"lon":5.42637,"is_reserved":false,"is_disabled":false,"rental_uris":{"android":"levelo://app?vid=cf5544a4-8e85-4838-918f-f563a2f5fb78","ios":"levelo://app?vid=cf5544a4-8e85-4838-918f-f563a2f5fb78"},"vehicle_type_id":"4","last_reported":1779186596,"current_range_meters":3600,"station_id":"ce4bhnh2rcd13ifvqgug","pricing_plan_id":"cebpf4jnsgd1na2vs0mg"},{"bike_id":"f730d25a-84e3-42c5-a939-51609cebefcd","system_id":"levelo_inurba_marseille","lat":43.28708,"lon":5.46688,"is_reserved":false,"is_disabled":false,"rental_uris":{"android":"levelo://app?vid=f730d25a-84e3-42c5-a939-51609cebefcd","ios":"levelo://app?vid=f730d25a-84e3-42c5-a939-51609cebefcd"},"vehicle_type_id":"4","last_reported":1779186596,"current_range_meters":3600,"station_id":"st_d6tc3vkotcvc738tfjhg","pricing_plan_id":"cebpf4jnsgd1na2vs0mg"},{"bike_id":"f0155b3f-a757-41e6-a885-d929684d0a3c","system_id":"levelo_inurba_marseille","lat":43.30609,"lon":5.36556,"is_reserved":false,"is_disabled":false,"rental_uris":{"android":"levelo://app?vid=f0155b3f-a757-41e6-a885-d929684d0a3c","ios":"levelo://app?vid=f0155b3f-a757-41e6-a885-d929684d0a3c"},"vehicle_type_id":"4","last_reported":1779186596,"current_range_meters":3600,"station_id":"","pricing_plan_id":"cebpf4jnsgd1na2vs0mg"},{"bike_id":"41292adb-e9ef-4093-b950-dd61bc3f8660","system_id":"levelo_inurba_marseille","lat":43.29934,"lon":5.36547,"is_reserved":false,"is_disabled":false,"rental_uris":{"android":"levelo://app?vid=41292adb-e9ef-4093-b950-dd61bc3f8660","ios":"levelo://app?vid=41292adb-e9ef-4093-b950-dd61bc3f8660"},"vehicle_type_id":"4","last_reported":1779186596,"current_range_meters":3600,"station_id":"ce4bgm92rcd13ifvqbr0","pricing_plan_id":"cebpf4jnsgd1na2vs0mg"},{"bike_id":"92d1f52a-2b5f-46f0-a31e-967db06a4663","system_id":"levelo_inurba_marseille","lat":43.2339,"lon":5.41203,"is_reserved":false,"is_disabled":true,"rental_uris":{"android":"levelo://app?vid=92d1f52a-2b5f-46f0-a31e-967db06a4663","ios":"levelo://app?vid=92d1f52a-2b5f-46f0-a31e-967db06a4663"},"vehicle_type_id":"4","last_reported":1779186596,"current_range_meters":3600,"station_id":"st_d75pvndhf9lc73cqq3eg","pricing_plan_id":"cebpf4jnsgd1na2vs0mg"},{"bike_id":"70fdd4ec-8fdb-4369-aee7-ec45c3c54f3c","system_id":"levelo_inurba_marseille","lat":43.27493,"lon":5.4244,"is_reserved":false,"is_disabled":false,"rental_uris":{"android":"levelo://app?vid=70fdd4ec-8fdb-4369-aee7-ec45c3c54f3c","ios":"levelo://app?vid=70fdd4ec-8fdb-4369-aee7-ec45c3c54f3c"},"vehicle_type_id":"4","last_reported":1779186596,"current_range_meters":3600,"station_id":"ce4bhn92rcd13ifvqgrg","pricing_plan_id":"cebpf4jnsgd1na2vs0mg"},{"bike_id":"9eac4a7d-0817-4ec6-82ec-ae47c81ecb72","system_id":"levelo_inurba_marseille","lat":43.23179,"lon":5.39979,"is_reserved":false,"is_disabled":false,"rental_uris":{"android":"levelo://app?vid=9eac4a7d-0817-4ec6-82ec-ae47c81ecb72","ios":"levelo://app?vid=9eac4a7d-0817-4ec6-82ec-ae47c81ecb72"},"vehicle_type_id":"4","last_reported":1779186596,"current_range_meters":3600,"station_id":"ce4bhn12rcd13ifvqgqg","pricing_plan_id":"cebpf4jnsgd1na2vs0mg"},{"bike_id":"5a1c8a28-d79f-4b07-a4d8-bce75ba2c426","system_id":"levelo_inurba_marseille","lat":43.25862,"lon":5.39901,"is_reserved":false,"is_disabled":true,"rental_uris":{"android":"levelo://app?vid=5a1c8a28-d79f-4b07-a4d8-bce75ba2c426","ios":"levelo://app?vid=5a1c8a28-d79f-4b07-a4d8-bce75ba2c426"},"vehicle_type_id":"4","last_reported":1779186596,"current_range_meters":4000,"station_id":"ce4bhl92rcd13ifvqghg","pricing_plan_id":"cebpf4jnsgd1na2vs0mg"},{"bike_id":"118f25d8-0255-44ef-8a35-47bb481bb8b6","system_id":"levelo_inurba_marseille","lat":43.24393,"lon":5.37075,"is_reserved":false,"is_disabled":true,"rental_uris":{"android":"levelo://app?vid=118f25d8-0255-44ef-8a35-47bb481bb8b6","ios":"levelo://app?vid=118f25d8-0255-44ef-8a35-47bb481bb8b6"},"vehicle_type_id":"4","last_reported":1779186596,"current_range_meters":4000,"station_id":"ce4bhhh2rcd13ifvqfk0","pricing_plan_id":"cebpf4jnsgd1na2vs0mg"},{"bike_id":"d76bcd8d-16ce-4142-8da7-b7802e18c3c0","system_id":"levelo_inurba_marseille","lat":43.22553,"lon":5.41614,"is_reserved":false,"is_disabled":true,"rental_uris":{"android":"levelo://app?vid=d76bcd8d-16ce-4142-8da7-b7802e18c3c0","ios":"levelo://app?vid=d76bcd8d-16ce-4142-8da7-b7802e18c3c0"},"vehicle_type_id":"4","last_reported":1779186596,"current_range_meters":4000,"station_id":"st_d2o4gvlbi1j2169b742g","pricing_plan_id":"cebpf4jnsgd1na2vs0mg"},{"bike_id":"973c09dc-763e-4322-8cc3-ca467d1c595c","system_id":"levelo_inurba_marseille","lat":43.270726,"lon":5.388237,"is_reserved":false,"is_disabled":false,"rental_uris":{"android":"levelo://app?vid=973c09dc-763e-4322-8cc3-ca467d1c595c","ios":"levelo://app?vid=973c09dc-763e-4322-8cc3-ca467d1c595c"},"vehicle_type_id":"4","last_reported":1779186596,"current_range_meters":4000,"station_id":"ce4bhh92rcd13ifvqfh0","pricing_plan_id":"cebpf4jnsgd1na2vs0mg"},{"bike_id":"b9ca77f1-80fa-475b-9a37-ec72feacc5df","system_id":"levelo_inurba_marseille","lat":43.29799,"lon":5.44054,"is_reserved":false,"is_disabled":false,"rental_uris":{"android":"levelo://app?vid=b9ca77f1-80fa-475b-9a37-ec72feacc5df","ios":"levelo://app?vid=b9ca77f1-80fa-475b-9a37-ec72feacc5df"},"vehicle_type_id":"4","last_reported":1779186596,"current_range_meters":4000,"station_id":"st_d3jp68qikq2c7381ktn0","pricing_plan_id":"cebpf4jnsgd1na2vs0mg"},{"bike_id":"8f3af7fc-2bf8-4325-97eb-54f330bbc6f4","system_id":"levelo_inurba_marseille","lat":43.24165,"lon":5.36384,"is_reserved":false,"is_disabled":false,"rental_uris":{"android":"levelo://app?vid=8f3af7fc-2bf8-4325-97eb-54f330bbc6f4","ios":"levelo://app?vid=8f3af7fc-2bf8-4325-97eb-54f330bbc6f4"},"vehicle_type_id":"4","last_reported":1779186596,"current_range_meters":4000,"station_id":"cpo36qri1sfpv3e86is0","pricing_plan_id":"cebpf4jnsgd1na2vs0mg"},{"bike_id":"f1b9adfd-fda1-4735-89cb-accd8c801682","system_id":"levelo_inurba_marseille","lat":43.30925,"lon":5.4014,"is_reserved":false,"is_disabled":false,"rental_uris":{"android":"levelo://app?vid=f1b9adfd-fda1-4735-89cb-accd8c801682","ios":"levelo://app?vid=f1b9adfd-fda1-4735-89cb-accd8c801682"},"vehicle_type_id":"4","last_reported":1779186596,"current_range_meters":4000,"station_id":"ce4bgvp2rcd13ifvqct0","pricing_plan_id":"cebpf4jnsgd1na2vs0mg"},{"bike_id":"428a210f-87f7-428f-9ac4-76d179596d35","system_id":"levelo_inurba_marseille","lat":43.28563,"lon":5.39471,"is_reserved":false,"is_disabled":true,"rental_uris":{"android":"levelo://app?vid=428a210f-87f7-428f-9ac4-76d179596d35","ios":"levelo://app?vid=428a210f-87f7-428f-9ac4-76d179596d35"},"vehicle_type_id":"4","last_reported":1779186596,"current_range_meters":4000,"station_id":"ce4bh292rcd13ifvqdg0","pricing_plan_id":"cebpf4jnsgd1na2vs0mg"},{"bike_id":"1a860dfe-20a2-4f6d-81df-5c3bcdfa5dae","system_id":"levelo_inurba_marseille","lat":43.29578,"lon":5.375212,"is_reserved":false,"is_disabled":false,"rental_uris":{"android":"levelo://app?vid=1a860dfe-20a2-4f6d-81df-5c3bcdfa5dae","ios":"levelo://app?vid=1a860dfe-20a2-4f6d-81df-5c3bcdfa5dae"},"vehicle_type_id":"4","last_reported":1779186596,"current_range_meters":4000,"station_id":"ce4bgh92rcd13ifvqb50","pricing_plan_id":"cebpf4jnsgd1na2vs0mg"},{"bike_id":"4b8346da-f3a7-4c87-8c33-bbffccd15c83","system_id":"levelo_inurba_marseille","lat":43.29597,"lon":5.38101,"is_reserved":false,"is_disabled":false,"rental_uris":{"android":"levelo://app?vid=4b8346da-f3a7-4c87-8c33-bbffccd15c83","ios":"levelo://app?vid=4b8346da-f3a7-4c87-8c33-bbffccd15c83"},"vehicle_type_id":"4","last_reported":1779186596,"current_range_meters":4000,"station_id":"ce4bgl12rcd13ifvqbo0","pricing_plan_id":"cebpf4jnsgd1na2vs0mg"},{"bike_id":"fe9b1e06-377d-4a4a-86dd-69d87bbb6487","system_id":"levelo_inurba_marseille","lat":43.27355,"lon":5.39107,"is_reserved":false,"is_disabled":false,"rental_uris":{"android":"levelo://app?vid=fe9b1e06-377d-4a4a-86dd-69d87bbb6487","ios":"levelo://app?vid=fe9b1e06-377d-4a4a-86dd-69d87bbb6487"},"vehicle_type_id":"4","last_reported":1779186596,"current_range_meters":4000,"station_id":"","pricing_plan_id":"cebpf4jnsgd1na2vs0mg"},{"bike_id":"f953e7df-9a8f-4f8e-8e56-6a5db7d34d82","system_id":"levelo_inurba_marseille","lat":43.269189,"lon":5.380411,"is_reserved":false,"is_disabled":false,"rental_uris":{"android":"levelo://app?vid=f953e7df-9a8f-4f8e-8e56-6a5db7d34d82","ios":"levelo://app?vid=f953e7df-9a8f-4f8e-8e56-6a5db7d34d82"},"vehicle_type_id":"4","last_reported":1779186596,"current_range_meters":4400,"station_id":"","pricing_plan_id":"cebpf4jnsgd1na2vs0mg"},{"bike_id":"96b92017-46df-4c03-9abe-af677dab8109","system_id":"levelo_inurba_marseille","lat":43.28711,"lon":5.39965,"is_reserved":false,"is_disabled":false,"rental_uris":{"android":"levelo://app?vid=96b92017-46df-4c03-9abe-af677dab8109","ios":"levelo://app?vid=96b92017-46df-4c03-9abe-af677dab8109"},"vehicle_type_id":"4","last_reported":1779186596,"current_range_meters":4400,"station_id":"ce4bho92rcd13ifvqh3g","pricing_plan_id":"cebpf4jnsgd1na2vs0mg"},{"bike_id":"d330ebaf-89a2-4938-8fb2-a03c97594a54","system_id":"levelo_inurba_marseille","lat":43.29032,"lon":5.37616,"is_reserved":false,"is_disabled":false,"rental_uris":{"android":"levelo://app?vid=d330ebaf-89a2-4938-8fb2-a03c97594a54","ios":"levelo://app?vid=d330ebaf-89a2-4938-8fb2-a03c97594a54"},"vehicle_type_id":"4","last_reported":1779186596,"current_range_meters":4400,"station_id":"ce4bh692rcd13ifvqe90","pricing_plan_id":"cebpf4jnsgd1na2vs0mg"},{"bike_id":"4f11597b-30bd-4e18-aa2e-b269bb06d650","system_id":"levelo_inurba_marseille","lat":43.26199,"lon":5.38769,"is_reserved":false,"is_disabled":false,"rental_uris":{"android":"levelo://app?vid=4f11597b-30bd-4e18-aa2e-b269bb06d650","ios":"levelo://app?vid=4f11597b-30bd-4e18-aa2e-b269bb06d650"},"vehicle_type_id":"4","last_reported":1779186596,"current_range_meters":4400,"station_id":"","pricing_plan_id":"cebpf4jnsgd1na2vs0mg"},{"bike_id":"5d3f7d2c-90e6-4c26-8fc3-cf669cb92d27","system_id":"levelo_inurba_marseille","lat":43.26934,"lon":5.38898,"is_reserved":false,"is_disabled":false,"rental_uris":{"android":"levelo://app?vid=5d3f7d2c-90e6-4c26-8fc3-cf669cb92d27","ios":"levelo://app?vid=5d3f7d2c-90e6-4c26-8fc3-cf669cb92d27"},"vehicle_type_id":"4","last_reported":1779186596,"current_range_meters":4400,"station_id":"ce4bhhh2rcd13ifvqfl0","pricing_plan_id":"cebpf4jnsgd1na2vs0mg"},{"bike_id":"4d309e8d-e99a-4050-9f31-12b309ca2ba3","system_id":"levelo_inurba_marseille","lat":43.29034,"lon":5.37565,"is_reserved":false,"is_disabled":false,"rental_uris":{"android":"levelo://app?vid=4d309e8d-e99a-4050-9f31-12b309ca2ba3","ios":"levelo://app?vid=4d309e8d-e99a-4050-9f31-12b309ca2ba3"},"vehicle_type_id":"4","last_reported":1779186596,"current_range_meters":4400,"station_id":"ce4bh692rcd13ifvqe90","pricing_plan_id":"cebpf4jnsgd1na2vs0mg"},{"bike_id":"b3e47a10-789b-4113-b169-face25d448d0","system_id":"levelo_inurba_marseille","lat":43.28709,"lon":5.46675,"is_reserved":false,"is_disabled":false,"rental_uris":{"android":"levelo://app?vid=b3e47a10-789b-4113-b169-face25d448d0","ios":"levelo://app?vid=b3e47a10-789b-4113-b169-face25d448d0"},"vehicle_type_id":"4","last_reported":1779186596,"current_range_meters":4400,"station_id":"st_d6tc3vkotcvc738tfjhg","pricing_plan_id":"cebpf4jnsgd1na2vs0mg"},{"bike_id":"6a4190a9-60c1-474d-b36b-bd9f7c409216","system_id":"levelo_inurba_marseille","lat":43.30362,"lon":5.42491,"is_reserved":false,"is_disabled":false,"rental_uris":{"android":"levelo://app?vid=6a4190a9-60c1-474d-b36b-bd9f7c409216","ios":"levelo://app?vid=6a4190a9-60c1-474d-b36b-bd9f7c409216"},"vehicle_type_id":"4","last_reported":1779186596,"current_range_meters":4400,"station_id":"ce4bhoh2rcd13ifvqh6g","pricing_plan_id":"cebpf4jnsgd1na2vs0mg"},{"bike_id":"46e2ade6-b352-44d4-9f00-a91493abee21","system_id":"levelo_inurba_marseille","lat":43.29252,"lon":5.38449,"is_reserved":false,"is_disabled":false,"rental_uris":{"android":"levelo://app?vid=46e2ade6-b352-44d4-9f00-a91493abee21","ios":"levelo://app?vid=46e2ade6-b352-44d4-9f00-a91493abee21"},"vehicle_type_id":"4","last_reported":1779186596,"current_range_meters":4400,"station_id":"ce4bh692rcd13ifvqea0","pricing_plan_id":"cebpf4jnsgd1na2vs0mg"},{"bike_id":"5eb11d83-2461-40c2-9484-0a35868d2011","system_id":"levelo_inurba_marseille","lat":43.29749,"lon":5.42731,"is_reserved":false,"is_disabled":true,"rental_uris":{"android":"levelo://app?vid=5eb11d83-2461-40c2-9484-0a35868d2011","ios":"levelo://app?vid=5eb11d83-2461-40c2-9484-0a35868d2011"},"vehicle_type_id":"4","last_reported":1779186596,"current_range_meters":4800,"station_id":"st_d3md5207bmas73dh9klg","pricing_plan_id":"cebpf4jnsgd1na2vs0mg"},{"bike_id":"a7e68de6-21d6-438c-ba61-f8722e32eff0","system_id":"levelo_inurba_marseille","lat":43.28725,"lon":5.37898,"is_reserved":false,"is_disabled":false,"rental_uris":{"android":"levelo://app?vid=a7e68de6-21d6-438c-ba61-f8722e32eff0","ios":"levelo://app?vid=a7e68de6-21d6-438c-ba61-f8722e32eff0"},"vehicle_type_id":"4","last_reported":1779186596,"current_range_meters":4800,"station_id":"ce4bh9p2rcd13ifvqec0","pricing_plan_id":"cebpf4jnsgd1na2vs0mg"},{"bike_id":"d74129a7-7408-448e-b141-cb7fced251c8","system_id":"levelo_inurba_marseille","lat":43.28727,"lon":5.3793,"is_reserved":false,"is_disabled":false,"rental_uris":{"android":"levelo://app?vid=d74129a7-7408-448e-b141-cb7fced251c8","ios":"levelo://app?vid=d74129a7-7408-448e-b141-cb7fced251c8"},"vehicle_type_id":"4","last_reported":1779186596,"current_range_meters":4800,"station_id":"ce4bh9p2rcd13ifvqec0","pricing_plan_id":"cebpf4jnsgd1na2vs0mg"},{"bike_id":"5e98e005-1a77-41d4-b6ae-e74d0c751228","system_id":"levelo_inurba_marseille","lat":43.29262,"lon":5.36853,"is_reserved":false,"is_disabled":false,"rental_uris":{"android":"levelo://app?vid=5e98e005-1a77-41d4-b6ae-e74d0c751228","ios":"levelo://app?vid=5e98e005-1a77-41d4-b6ae-e74d0c751228"},"vehicle_type_id":"4","last_reported":1779186596,"current_range_meters":4800,"station_id":"ce4bhbp2rcd13ifvqesg","pricing_plan_id":"cebpf4jnsgd1na2vs0mg"},{"bike_id":"09ea10e2-43a5-428f-afcc-00b3ec7ae464","system_id":"levelo_inurba_marseille","lat":43.309143,"lon":5.372809,"is_reserved":false,"is_disabled":true,"rental_uris":{"android":"levelo://app?vid=09ea10e2-43a5-428f-afcc-00b3ec7ae464","ios":"levelo://app?vid=09ea10e2-43a5-428f-afcc-00b3ec7ae464"},"vehicle_type_id":"4","last_reported":1779186596,"current_range_meters":4800,"station_id":"ce4bguh2rcd13ifvqckg","pricing_plan_id":"cebpf4jnsgd1na2vs0mg"},{"bike_id":"76822842-6de5-44db-bee3-28d0eed2902b","system_id":"levelo_inurba_marseille","lat":43.22927,"lon":5.35362,"is_reserved":false,"is_disabled":false,"rental_uris":{"android":"levelo://app?vid=76822842-6de5-44db-bee3-28d0eed2902b","ios":"levelo://app?vid=76822842-6de5-44db-bee3-28d0eed2902b"},"vehicle_type_id":"4","last_reported":1779186596,"current_range_meters":4800,"station_id":"cpo3532slgdg3j2ikp40","pricing_plan_id":"cebpf4jnsgd1na2vs0mg"},{"bike_id":"67298b0d-96b3-4d14-87eb-fc9a2dd8b027","system_id":"levelo_inurba_marseille","lat":43.25123,"lon":5.40309,"is_reserved":false,"is_disabled":true,"rental_uris":{"android":"levelo://app?vid=67298b0d-96b3-4d14-87eb-fc9a2dd8b027","ios":"levelo://app?vid=67298b0d-96b3-4d14-87eb-fc9a2dd8b027"},"vehicle_type_id":"4","last_reported":1779186596,"current_range_meters":4800,"station_id":"ce4bhkp2rcd13ifvqgd0","pricing_plan_id":"cebpf4jnsgd1na2vs0mg"},{"bike_id":"e573ccad-7e51-42db-be9c-d11800e07cad","system_id":"levelo_inurba_marseille","lat":43.23148,"lon":5.43709,"is_reserved":false,"is_disabled":true,"rental_uris":{"android":"levelo://app?vid=e573ccad-7e51-42db-be9c-d11800e07cad","ios":"levelo://app?vid=e573ccad-7e51-42db-be9c-d11800e07cad"},"vehicle_type_id":"4","last_reported":1779186596,"current_range_meters":4800,"station_id":"ce4bhmp2rcd13ifvqgog","pricing_plan_id":"cebpf4jnsgd1na2vs0mg"},{"bike_id":"c3f0931a-b98e-4ec6-aa39-67278fb8aaff","system_id":"levelo_inurba_marseille","lat":43.31926,"lon":5.36768,"is_reserved":false,"is_disabled":false,"rental_uris":{"android":"levelo://app?vid=c3f0931a-b98e-4ec6-aa39-67278fb8aaff","ios":"levelo://app?vid=c3f0931a-b98e-4ec6-aa39-67278fb8aaff"},"vehicle_type_id":"4","last_reported":1779186596,"current_range_meters":5600,"station_id":"st_d6o2h0d0559c73evc1b0","pricing_plan_id":"cebpf4jnsgd1na2vs0mg"},{"bike_id":"2d03e62f-ba8b-4d0b-92f6-555161cc53ff","system_id":"levelo_inurba_marseille","lat":43.29722,"lon":5.41352,"is_reserved":false,"is_disabled":false,"rental_uris":{"android":"levelo://app?vid=2d03e62f-ba8b-4d0b-92f6-555161cc53ff","ios":"levelo://app?vid=2d03e62f-ba8b-4d0b-92f6-555161cc53ff"},"vehicle_type_id":"4","last_reported":1779186596,"current_range_meters":5600,"station_id":"","pricing_plan_id":"cebpf4jnsgd1na2vs0mg"},{"bike_id":"1f8259a9-7e55-4812-b53f-6d999496a759","system_id":"levelo_inurba_marseille","lat":43.28694,"lon":5.4674,"is_reserved":false,"is_disabled":false,"rental_uris":{"android":"levelo://app?vid=1f8259a9-7e55-4812-b53f-6d999496a759","ios":"levelo://app?vid=1f8259a9-7e55-4812-b53f-6d999496a759"},"vehicle_type_id":"4","last_reported":1779186596,"current_range_meters":5600,"station_id":"st_d6tc3vkotcvc738tfjhg","pricing_plan_id":"cebpf4jnsgd1na2vs0mg"},{"bike_id":"d728da89-31aa-4999-9cc3-fee463699ae3","system_id":"levelo_inurba_marseille","lat":43.23149,"lon":5.43704,"is_reserved":false,"is_disabled":false,"rental_uris":{"android":"levelo://app?vid=d728da89-31aa-4999-9cc3-fee463699ae3","ios":"levelo://app?vid=d728da89-31aa-4999-9cc3-fee463699ae3"},"vehicle_type_id":"4","last_reported":1779186596,"current_range_meters":5600,"station_id":"ce4bhmp2rcd13ifvqgog","pricing_plan_id":"cebpf4jnsgd1na2vs0mg"},{"bike_id":"c0d467e6-6fef-4d21-8af4-af3c30cfe717","system_id":"levelo_inurba_marseille","lat":43.29775,"lon":5.36495,"is_reserved":false,"is_disabled":false,"rental_uris":{"android":"levelo://app?vid=c0d467e6-6fef-4d21-8af4-af3c30cfe717","ios":"levelo://app?vid=c0d467e6-6fef-4d21-8af4-af3c30cfe717"},"vehicle_type_id":"4","last_reported":1779186596,"current_range_meters":5600,"station_id":"","pricing_plan_id":"cebpf4jnsgd1na2vs0mg"},{"bike_id":"3d91a0c6-2313-4d07-9e3d-0d954422674f","system_id":"levelo_inurba_marseille","lat":43.24673,"lon":5.38141,"is_reserved":false,"is_disabled":true,"rental_uris":{"android":"levelo://app?vid=3d91a0c6-2313-4d07-9e3d-0d954422674f","ios":"levelo://app?vid=3d91a0c6-2313-4d07-9e3d-0d954422674f"},"vehicle_type_id":"4","last_reported":1779186596,"current_range_meters":5600,"station_id":"ce4bhih2rcd13ifvqfr0","pricing_plan_id":"cebpf4jnsgd1na2vs0mg"},{"bike_id":"fb6b8720-7e7e-4810-8200-e0d24fb0dd15","system_id":"levelo_inurba_marseille","lat":43.30158,"lon":5.39812,"is_reserved":false,"is_disabled":false,"rental_uris":{"android":"levelo://app?vid=fb6b8720-7e7e-4810-8200-e0d24fb0dd15","ios":"levelo://app?vid=fb6b8720-7e7e-4810-8200-e0d24fb0dd15"},"vehicle_type_id":"4","last_reported":1779186596,"current_range_meters":5600,"station_id":"","pricing_plan_id":"cebpf4jnsgd1na2vs0mg"},{"bike_id":"a739f6f6-8343-4c4c-be8c-5f6e7deabd5f","system_id":"levelo_inurba_marseille","lat":43.26216,"lon":5.3745,"is_reserved":false,"is_disabled":false,"rental_uris":{"android":"levelo://app?vid=a739f6f6-8343-4c4c-be8c-5f6e7deabd5f","ios":"levelo://app?vid=a739f6f6-8343-4c4c-be8c-5f6e7deabd5f"},"vehicle_type_id":"4","last_reported":1779186596,"current_range_meters":5600,"station_id":"ce4bhgp2rcd13ifvqfc0","pricing_plan_id":"cebpf4jnsgd1na2vs0mg"},{"bike_id":"bb5c0d95-ed72-4ecc-9fef-aa77a18583e4","system_id":"levelo_inurba_marseille","lat":43.30606,"lon":5.37234,"is_reserved":false,"is_disabled":false,"rental_uris":{"android":"levelo://app?vid=bb5c0d95-ed72-4ecc-9fef-aa77a18583e4","ios":"levelo://app?vid=bb5c0d95-ed72-4ecc-9fef-aa77a18583e4"},"vehicle_type_id":"4","last_reported":1779186596,"current_range_meters":5600,"station_id":"ce4bgqh2rcd13ifvqc4g","pricing_plan_id":"cebpf4jnsgd1na2vs0mg"},{"bike_id":"e4b7d2c4-ea52-4d9f-8a4b-f2f114353753","system_id":"levelo_inurba_marseille","lat":43.32445,"lon":5.36714,"is_reserved":false,"is_disabled":false,"rental_uris":{"android":"levelo://app?vid=e4b7d2c4-ea52-4d9f-8a4b-f2f114353753","ios":"levelo://app?vid=e4b7d2c4-ea52-4d9f-8a4b-f2f114353753"},"vehicle_type_id":"4","last_reported":1779186596,"current_range_meters":5600,"station_id":"","pricing_plan_id":"cebpf4jnsgd1na2vs0mg"},{"bike_id":"bd5ba8af-d24b-4039-b0e8-a4c61a37e027","system_id":"levelo_inurba_marseille","lat":43.24651,"lon":5.3889,"is_reserved":false,"is_disabled":false,"rental_uris":{"android":"levelo://app?vid=bd5ba8af-d24b-4039-b0e8-a4c61a37e027","ios":"levelo://app?vid=bd5ba8af-d24b-4039-b0e8-a4c61a37e027"},"vehicle_type_id":"4","last_reported":1779186596,"current_range_meters":5600,"station_id":"ce4bhg12rcd13ifvqf60","pricing_plan_id":"cebpf4jnsgd1na2vs0mg"},{"bike_id":"5bd5dbf8-0b40-4a6a-8943-92d82db0b397","system_id":"levelo_inurba_marseille","lat":43.25012,"lon":5.42654,"is_reserved":false,"is_disabled":false,"rental_uris":{"android":"levelo://app?vid=5bd5dbf8-0b40-4a6a-8943-92d82db0b397","ios":"levelo://app?vid=5bd5dbf8-0b40-4a6a-8943-92d82db0b397"},"vehicle_type_id":"4","last_reported":1779186596,"current_range_meters":5600,"station_id":"","pricing_plan_id":"cebpf4jnsgd1na2vs0mg"},{"bike_id":"6983e692-b2bb-4bb9-8a1a-cc5f7de55ff4","system_id":"levelo_inurba_marseille","lat":43.31195,"lon":5.36828,"is_reserved":false,"is_disabled":false,"rental_uris":{"android":"levelo://app?vid=6983e692-b2bb-4bb9-8a1a-cc5f7de55ff4","ios":"levelo://app?vid=6983e692-b2bb-4bb9-8a1a-cc5f7de55ff4"},"vehicle_type_id":"4","last_reported":1779186596,"current_range_meters":5600,"station_id":"ce4bgl92rcd13ifvqbq0","pricing_plan_id":"cebpf4jnsgd1na2vs0mg"},{"bike_id":"189ec7ff-5ac4-484a-8d47-2b67f747fb1a","system_id":"levelo_inurba_marseille","lat":43.25577,"lon":5.38241,"is_reserved":false,"is_disabled":false,"rental_uris":{"android":"levelo://app?vid=189ec7ff-5ac4-484a-8d47-2b67f747fb1a","ios":"levelo://app?vid=189ec7ff-5ac4-484a-8d47-2b67f747fb1a"},"vehicle_type_id":"4","last_reported":1779186596,"current_range_meters":5600,"station_id":"ce4bhih2rcd13ifvqfs0","pricing_plan_id":"cebpf4jnsgd1na2vs0mg"},{"bike_id":"6eb79765-d71a-4d73-abfa-7b317cdc4c1f","system_id":"levelo_inurba_marseille","lat":43.2938,"lon":5.37833,"is_reserved":false,"is_disabled":false,"rental_uris":{"android":"levelo://app?vid=6eb79765-d71a-4d73-abfa-7b317cdc4c1f","ios":"levelo://app?vid=6eb79765-d71a-4d73-abfa-7b317cdc4c1f"},"vehicle_type_id":"4","last_reported":1779186596,"current_range_meters":6000,"station_id":"ce4bgjh2rcd13ifvqbf0","pricing_plan_id":"cebpf4jnsgd1na2vs0mg"},{"bike_id":"5afa47cd-a468-473a-a4b4-38deb81ff659","system_id":"levelo_inurba_marseille","lat":43.28938,"lon":5.3963,"is_reserved":false,"is_disabled":false,"rental_uris":{"android":"levelo://app?vid=5afa47cd-a468-473a-a4b4-38deb81ff659","ios":"levelo://app?vid=5afa47cd-a468-473a-a4b4-38deb81ff659"},"vehicle_type_id":"4","last_reported":1779186596,"current_range_meters":6000,"station_id":"ce4bh3h2rcd13ifvqdn0","pricing_plan_id":"cebpf4jnsgd1na2vs0mg"},{"bike_id":"8493b6ab-37bd-468f-b48a-a7e5b10273bf","system_id":"levelo_inurba_marseille","lat":43.29565,"lon":5.37498,"is_reserved":false,"is_disabled":false,"rental_uris":{"android":"levelo://app?vid=8493b6ab-37bd-468f-b48a-a7e5b10273bf","ios":"levelo://app?vid=8493b6ab-37bd-468f-b48a-a7e5b10273bf"},"vehicle_type_id":"4","last_reported":1779186596,"current_range_meters":6000,"station_id":"ce4bgh92rcd13ifvqb50","pricing_plan_id":"cebpf4jnsgd1na2vs0mg"},{"bike_id":"7db2c3c4-2a9f-4d3b-98e6-77b566894c92","system_id":"levelo_inurba_marseille","lat":43.3016,"lon":5.38079,"is_reserved":false,"is_disabled":false,"rental_uris":{"android":"levelo://app?vid=7db2c3c4-2a9f-4d3b-98e6-77b566894c92","ios":"levelo://app?vid=7db2c3c4-2a9f-4d3b-98e6-77b566894c92"},"vehicle_type_id":"4","last_reported":1779186596,"current_range_meters":6000,"station_id":"ce4bgjp2rcd13ifvqbh0","pricing_plan_id":"cebpf4jnsgd1na2vs0mg"},{"bike_id":"6c152a2f-f191-4099-97a3-0495976e932f","system_id":"levelo_inurba_marseille","lat":43.26333,"lon":5.41065,"is_reserved":false,"is_disabled":false,"rental_uris":{"android":"levelo://app?vid=6c152a2f-f191-4099-97a3-0495976e932f","ios":"levelo://app?vid=6c152a2f-f191-4099-97a3-0495976e932f"},"vehicle_type_id":"4","last_reported":1779186596,"current_range_meters":6000,"station_id":"st_d4e5ca6na9uc73bfl5fg","pricing_plan_id":"cebpf4jnsgd1na2vs0mg"},{"bike_id":"71dadbbf-2988-4d63-8dfa-fc0cb188b342","system_id":"levelo_inurba_marseille","lat":43.27057,"lon":5.40262,"is_reserved":false,"is_disabled":false,"rental_uris":{"android":"levelo://app?vid=71dadbbf-2988-4d63-8dfa-fc0cb188b342","ios":"levelo://app?vid=71dadbbf-2988-4d63-8dfa-fc0cb188b342"},"vehicle_type_id":"4","last_reported":1779186596,"current_range_meters":6000,"station_id":"ce4bhk92rcd13ifvqgc0","pricing_plan_id":"cebpf4jnsgd1na2vs0mg"},{"bike_id":"46091740-9461-4a96-93a1-6f9e633adb39","system_id":"levelo_inurba_marseille","lat":43.27204,"lon":5.39189,"is_reserved":false,"is_disabled":false,"rental_uris":{"android":"levelo://app?vid=46091740-9461-4a96-93a1-6f9e633adb39","ios":"levelo://app?vid=46091740-9461-4a96-93a1-6f9e633adb39"},"vehicle_type_id":"4","last_reported":1779186596,"current_range_meters":6000,"station_id":"ce4bhhp2rcd13ifvqfm0","pricing_plan_id":"cebpf4jnsgd1na2vs0mg"},{"bike_id":"d2f22647-4a9b-4698-969c-204da29088cd","system_id":"levelo_inurba_marseille","lat":43.28615,"lon":5.35101,"is_reserved":false,"is_disabled":false,"rental_uris":{"android":"levelo://app?vid=d2f22647-4a9b-4698-969c-204da29088cd","ios":"levelo://app?vid=d2f22647-4a9b-4698-969c-204da29088cd"},"vehicle_type_id":"4","last_reported":1779186596,"current_range_meters":6000,"station_id":"ce4bhch2rcd13ifvqeug","pricing_plan_id":"cebpf4jnsgd1na2vs0mg"},{"bike_id":"e40439b8-70d1-4a31-b2ca-aacd85765f54","system_id":"levelo_inurba_marseille","lat":43.32095,"lon":5.36758,"is_reserved":false,"is_disabled":false,"rental_uris":{"android":"levelo://app?vid=e40439b8-70d1-4a31-b2ca-aacd85765f54","ios":"levelo://app?vid=e40439b8-70d1-4a31-b2ca-aacd85765f54"},"vehicle_type_id":"4","last_reported":1779186596,"current_range_meters":6000,"station_id":"ce4bhrh2rcd13ifvqhug","pricing_plan_id":"cebpf4jnsgd1na2vs0mg"},{"bike_id":"756dda76-f7ad-4653-bf3e-ad0c5accc63a","system_id":"levelo_inurba_marseille","lat":43.26952,"lon":5.40249,"is_reserved":false,"is_disabled":false,"rental_uris":{"android":"levelo://app?vid=756dda76-f7ad-4653-bf3e-ad0c5accc63a","ios":"levelo://app?vid=756dda76-f7ad-4653-bf3e-ad0c5accc63a"},"vehicle_type_id":"4","last_reported":1779186596,"current_range_meters":6000,"station_id":"cjm6bp8fraef2m0cb0m0","pricing_plan_id":"cebpf4jnsgd1na2vs0mg"},{"bike_id":"257b66cc-c278-4a54-a645-b89cc6a396fa","system_id":"levelo_inurba_marseille","lat":43.28434,"lon":5.392,"is_reserved":false,"is_disabled":false,"rental_uris":{"android":"levelo://app?vid=257b66cc-c278-4a54-a645-b89cc6a396fa","ios":"levelo://app?vid=257b66cc-c278-4a54-a645-b89cc6a396fa"},"vehicle_type_id":"4","last_reported":1779186596,"current_range_meters":6000,"station_id":"ce4bhoh2rcd13ifvqh5g","pricing_plan_id":"cebpf4jnsgd1na2vs0mg"},{"bike_id":"b9a017df-9cd0-4e4d-92bc-cea19af0be6b","system_id":"levelo_inurba_marseille","lat":43.27429,"lon":5.39417,"is_reserved":false,"is_disabled":false,"rental_uris":{"android":"levelo://app?vid=b9a017df-9cd0-4e4d-92bc-cea19af0be6b","ios":"levelo://app?vid=b9a017df-9cd0-4e4d-92bc-cea19af0be6b"},"vehicle_type_id":"4","last_reported":1779186596,"current_range_meters":6000,"station_id":"ce4bhdp2rcd13ifvqf20","pricing_plan_id":"cebpf4jnsgd1na2vs0mg"},{"bike_id":"46e5ee1b-6e75-4db8-88e1-e8ff6d5292d7","system_id":"levelo_inurba_marseille","lat":43.23098,"lon":5.39478,"is_reserved":false,"is_disabled":false,"rental_uris":{"android":"levelo://app?vid=46e5ee1b-6e75-4db8-88e1-e8ff6d5292d7","ios":"levelo://app?vid=46e5ee1b-6e75-4db8-88e1-e8ff6d5292d7"},"vehicle_type_id":"4","last_reported":1779186596,"current_range_meters":6000,"station_id":"","pricing_plan_id":"cebpf4jnsgd1na2vs0mg"},{"bike_id":"a0edc5ae-c79a-447f-88c3-4dda1cb2e076","system_id":"levelo_inurba_marseille","lat":43.25136,"lon":5.40312,"is_reserved":false,"is_disabled":false,"rental_uris":{"android":"levelo://app?vid=a0edc5ae-c79a-447f-88c3-4dda1cb2e076","ios":"levelo://app?vid=a0edc5ae-c79a-447f-88c3-4dda1cb2e076"},"vehicle_type_id":"4","last_reported":1779186596,"current_range_meters":6000,"station_id":"ce4bhlh2rcd13ifvqgig","pricing_plan_id":"cebpf4jnsgd1na2vs0mg"},{"bike_id":"a025988b-1675-488b-8c1d-24a8155993db","system_id":"levelo_inurba_marseille","lat":43.30947,"lon":5.39057,"is_reserved":false,"is_disabled":false,"rental_uris":{"android":"levelo://app?vid=a025988b-1675-488b-8c1d-24a8155993db","ios":"levelo://app?vid=a025988b-1675-488b-8c1d-24a8155993db"},"vehicle_type_id":"4","last_reported":1779186596,"current_range_meters":6000,"station_id":"ce4bgup2rcd13ifvqco0","pricing_plan_id":"cebpf4jnsgd1na2vs0mg"},{"bike_id":"31a29ee4-0676-49f7-91a6-049d5681b1eb","system_id":"levelo_inurba_marseille","lat":43.2318,"lon":5.39979,"is_reserved":false,"is_disabled":false,"rental_uris":{"android":"levelo://app?vid=31a29ee4-0676-49f7-91a6-049d5681b1eb","ios":"levelo://app?vid=31a29ee4-0676-49f7-91a6-049d5681b1eb"},"vehicle_type_id":"4","last_reported":1779186596,"current_range_meters":6000,"station_id":"ce4bhn12rcd13ifvqgqg","pricing_plan_id":"cebpf4jnsgd1na2vs0mg"},{"bike_id":"ed88db3c-6800-4915-86bd-8572cbc910f7","system_id":"levelo_inurba_marseille","lat":43.241881,"lon":5.39729,"is_reserved":false,"is_disabled":false,"rental_uris":{"android":"levelo://app?vid=ed88db3c-6800-4915-86bd-8572cbc910f7","ios":"levelo://app?vid=ed88db3c-6800-4915-86bd-8572cbc910f7"},"vehicle_type_id":"4","last_reported":1779186596,"current_range_meters":6000,"station_id":"ce4bhn12rcd13ifvqgpg","pricing_plan_id":"cebpf4jnsgd1na2vs0mg"},{"bike_id":"d9b6dea1-ed77-4c73-832b-515826b80e9b","system_id":"levelo_inurba_marseille","lat":43.3016,"lon":5.37396,"is_reserved":false,"is_disabled":false,"rental_uris":{"android":"levelo://app?vid=d9b6dea1-ed77-4c73-832b-515826b80e9b","ios":"levelo://app?vid=d9b6dea1-ed77-4c73-832b-515826b80e9b"},"vehicle_type_id":"4","last_reported":1779186596,"current_range_meters":6400,"station_id":"ce4bgs92rcd13ifvqcc0","pricing_plan_id":"cebpf4jnsgd1na2vs0mg"},{"bike_id":"9d45a253-1d3a-41f8-95ed-2518452886d5","system_id":"levelo_inurba_marseille","lat":43.255156,"lon":5.376527,"is_reserved":false,"is_disabled":true,"rental_uris":{"android":"levelo://app?vid=9d45a253-1d3a-41f8-95ed-2518452886d5","ios":"levelo://app?vid=9d45a253-1d3a-41f8-95ed-2518452886d5"},"vehicle_type_id":"4","last_reported":1779186596,"current_range_meters":6400,"station_id":"ce4bhh12rcd13ifvqff0","pricing_plan_id":"cebpf4jnsgd1na2vs0mg"},{"bike_id":"859ff56d-18cc-492b-8658-56eb50f4e061","system_id":"levelo_inurba_marseille","lat":43.23895,"lon":5.37453,"is_reserved":false,"is_disabled":false,"rental_uris":{"android":"levelo://app?vid=859ff56d-18cc-492b-8658-56eb50f4e061","ios":"levelo://app?vid=859ff56d-18cc-492b-8658-56eb50f4e061"},"vehicle_type_id":"4","last_reported":1779186596,"current_range_meters":6400,"station_id":"st_d6sm7csbq4hs73f8fpjg","pricing_plan_id":"cebpf4jnsgd1na2vs0mg"},{"bike_id":"0e0d5418-4a56-4251-8866-025e6b539885","system_id":"levelo_inurba_marseille","lat":43.28863,"lon":5.42502,"is_reserved":false,"is_disabled":false,"rental_uris":{"android":"levelo://app?vid=0e0d5418-4a56-4251-8866-025e6b539885","ios":"levelo://app?vid=0e0d5418-4a56-4251-8866-025e6b539885"},"vehicle_type_id":"4","last_reported":1779186596,"current_range_meters":6400,"station_id":"st_d3b462108ojc7389ooeg","pricing_plan_id":"cebpf4jnsgd1na2vs0mg"},{"bike_id":"f8cdd9c1-c1c3-498c-a450-f94b4b9b76ad","system_id":"levelo_inurba_marseille","lat":43.290832,"lon":5.371749,"is_reserved":false,"is_disabled":false,"rental_uris":{"android":"levelo://app?vid=f8cdd9c1-c1c3-498c-a450-f94b4b9b76ad","ios":"levelo://app?vid=f8cdd9c1-c1c3-498c-a450-f94b4b9b76ad"},"vehicle_type_id":"4","last_reported":1779186596,"current_range_meters":6400,"station_id":"ce4bh5p2rcd13ifvqe4g","pricing_plan_id":"cebpf4jnsgd1na2vs0mg"},{"bike_id":"50cfa01f-de61-45f0-90a3-3f0cfe3b0f41","system_id":"levelo_inurba_marseille","lat":43.27208,"lon":5.38565,"is_reserved":false,"is_disabled":false,"rental_uris":{"android":"levelo://app?vid=50cfa01f-de61-45f0-90a3-3f0cfe3b0f41","ios":"levelo://app?vid=50cfa01f-de61-45f0-90a3-3f0cfe3b0f41"},"vehicle_type_id":"4","last_reported":1779186596,"current_range_meters":6400,"station_id":"","pricing_plan_id":"cebpf4jnsgd1na2vs0mg"},{"bike_id":"3359f30b-4038-42b7-95b1-7d0dac3ff9df","system_id":"levelo_inurba_marseille","lat":43.29613,"lon":5.37158,"is_reserved":false,"is_disabled":false,"rental_uris":{"android":"levelo://app?vid=3359f30b-4038-42b7-95b1-7d0dac3ff9df","ios":"levelo://app?vid=3359f30b-4038-42b7-95b1-7d0dac3ff9df"},"vehicle_type_id":"4","last_reported":1779186596,"current_range_meters":6400,"station_id":"ce4bgnh2rcd13ifvqc0g","pricing_plan_id":"cebpf4jnsgd1na2vs0mg"},{"bike_id":"5119a487-cec6-4b74-b3e6-727293f5f058","system_id":"levelo_inurba_marseille","lat":43.26672,"lon":5.38287,"is_reserved":false,"is_disabled":false,"rental_uris":{"android":"levelo://app?vid=5119a487-cec6-4b74-b3e6-727293f5f058","ios":"levelo://app?vid=5119a487-cec6-4b74-b3e6-727293f5f058"},"vehicle_type_id":"4","last_reported":1779186596,"current_range_meters":6400,"station_id":"ce4bhg92rcd13ifvqf90","pricing_plan_id":"cebpf4jnsgd1na2vs0mg"},{"bike_id":"5e9c09af-00d3-47e2-813a-4319f2cabb36","system_id":"levelo_inurba_marseille","lat":43.2893,"lon":5.39617,"is_reserved":false,"is_disabled":false,"rental_uris":{"android":"levelo://app?vid=5e9c09af-00d3-47e2-813a-4319f2cabb36","ios":"levelo://app?vid=5e9c09af-00d3-47e2-813a-4319f2cabb36"},"vehicle_type_id":"4","last_reported":1779186596,"current_range_meters":6400,"station_id":"ce4bh3h2rcd13ifvqdn0","pricing_plan_id":"cebpf4jnsgd1na2vs0mg"},{"bike_id":"19ba403b-3e27-43f8-b5f9-9f4840930735","system_id":"levelo_inurba_marseille","lat":43.28422,"lon":5.39202,"is_reserved":false,"is_disabled":false,"rental_uris":{"android":"levelo://app?vid=19ba403b-3e27-43f8-b5f9-9f4840930735","ios":"levelo://app?vid=19ba403b-3e27-43f8-b5f9-9f4840930735"},"vehicle_type_id":"4","last_reported":1779186596,"current_range_meters":6400,"station_id":"ce4bhoh2rcd13ifvqh5g","pricing_plan_id":"cebpf4jnsgd1na2vs0mg"},{"bike_id":"58c98de5-8c45-44bc-b9d2-d73286c3efe5","system_id":"levelo_inurba_marseille","lat":43.28164,"lon":5.42637,"is_reserved":false,"is_disabled":false,"rental_uris":{"android":"levelo://app?vid=58c98de5-8c45-44bc-b9d2-d73286c3efe5","ios":"levelo://app?vid=58c98de5-8c45-44bc-b9d2-d73286c3efe5"},"vehicle_type_id":"4","last_reported":1779186596,"current_range_meters":6800,"station_id":"ce4bhnh2rcd13ifvqgug","pricing_plan_id":"cebpf4jnsgd1na2vs0mg"},{"bike_id":"547402e8-4b98-430e-8a04-6a3e568275ce","system_id":"levelo_inurba_marseille","lat":43.26941,"lon":5.38647,"is_reserved":false,"is_disabled":false,"rental_uris":{"android":"levelo://app?vid=547402e8-4b98-430e-8a04-6a3e568275ce","ios":"levelo://app?vid=547402e8-4b98-430e-8a04-6a3e568275ce"},"vehicle_type_id":"4","last_reported":1779186596,"current_range_meters":6800,"station_id":"ce4bhh92rcd13ifvqfh0","pricing_plan_id":"cebpf4jnsgd1na2vs0mg"},{"bike_id":"ca4f6bf2-59b9-4fb8-9cc3-7ba12b36fa60","system_id":"levelo_inurba_marseille","lat":43.29615,"lon":5.40598,"is_reserved":false,"is_disabled":false,"rental_uris":{"android":"levelo://app?vid=ca4f6bf2-59b9-4fb8-9cc3-7ba12b36fa60","ios":"levelo://app?vid=ca4f6bf2-59b9-4fb8-9cc3-7ba12b36fa60"},"vehicle_type_id":"4","last_reported":1779186596,"current_range_meters":6800,"station_id":"ce4bh0h2rcd13ifvqd60","pricing_plan_id":"cebpf4jnsgd1na2vs0mg"},{"bike_id":"52bc06d9-4804-4b04-b28e-25b9b990712e","system_id":"levelo_inurba_marseille","lat":43.2847,"lon":5.38532,"is_reserved":false,"is_disabled":false,"rental_uris":{"android":"levelo://app?vid=52bc06d9-4804-4b04-b28e-25b9b990712e","ios":"levelo://app?vid=52bc06d9-4804-4b04-b28e-25b9b990712e"},"vehicle_type_id":"4","last_reported":1779186596,"current_range_meters":6800,"station_id":"ce4bh8p2rcd13ifvqeb0","pricing_plan_id":"cebpf4jnsgd1na2vs0mg"},{"bike_id":"5d4dc8e3-e1c8-4f4d-afda-06dc4c7d444e","system_id":"levelo_inurba_marseille","lat":43.26069,"lon":5.39361,"is_reserved":false,"is_disabled":false,"rental_uris":{"android":"levelo://app?vid=5d4dc8e3-e1c8-4f4d-afda-06dc4c7d444e","ios":"levelo://app?vid=5d4dc8e3-e1c8-4f4d-afda-06dc4c7d444e"},"vehicle_type_id":"4","last_reported":1779186596,"current_range_meters":6800,"station_id":"ce4bhh92rcd13ifvqfj0","pricing_plan_id":"cebpf4jnsgd1na2vs0mg"},{"bike_id":"c9513b4e-0f0e-49bc-bbff-f4414a2b16f9","system_id":"levelo_inurba_marseille","lat":43.27515,"lon":5.41584,"is_reserved":false,"is_disabled":false,"rental_uris":{"android":"levelo://app?vid=c9513b4e-0f0e-49bc-bbff-f4414a2b16f9","ios":"levelo://app?vid=c9513b4e-0f0e-49bc-bbff-f4414a2b16f9"},"vehicle_type_id":"4","last_reported":1779186596,"current_range_meters":6800,"station_id":"st_d6im8g6chgec73a5pndg","pricing_plan_id":"cebpf4jnsgd1na2vs0mg"},{"bike_id":"8e0c3a71-88fb-4dca-a732-c4fb201abb3e","system_id":"levelo_inurba_marseille","lat":43.30593,"lon":5.3746,"is_reserved":false,"is_disabled":true,"rental_uris":{"android":"levelo://app?vid=8e0c3a71-88fb-4dca-a732-c4fb201abb3e","ios":"levelo://app?vid=8e0c3a71-88fb-4dca-a732-c4fb201abb3e"},"vehicle_type_id":"4","last_reported":1779186596,"current_range_meters":6800,"station_id":"","pricing_plan_id":"cebpf4jnsgd1na2vs0mg"},{"bike_id":"66aa3998-c506-45a5-83d5-cd9a42760e10","system_id":"levelo_inurba_marseille","lat":43.31094,"lon":5.37754,"is_reserved":false,"is_disabled":false,"rental_uris":{"android":"levelo://app?vid=66aa3998-c506-45a5-83d5-cd9a42760e10","ios":"levelo://app?vid=66aa3998-c506-45a5-83d5-cd9a42760e10"},"vehicle_type_id":"4","last_reported":1779186596,"current_range_meters":6800,"station_id":"ce4bgt92rcd13ifvqcg0","pricing_plan_id":"cebpf4jnsgd1na2vs0mg"},{"bike_id":"8725df66-c4d7-497c-b058-ed0348fcd21a","system_id":"levelo_inurba_marseille","lat":43.28844,"lon":5.39303,"is_reserved":false,"is_disabled":false,"rental_uris":{"android":"levelo://app?vid=8725df66-c4d7-497c-b058-ed0348fcd21a","ios":"levelo://app?vid=8725df66-c4d7-497c-b058-ed0348fcd21a"},"vehicle_type_id":"4","last_reported":1779186596,"current_range_meters":6800,"station_id":"ce4bh2p2rcd13ifvqdi0","pricing_plan_id":"cebpf4jnsgd1na2vs0mg"},{"bike_id":"61ffbdf0-5438-49c9-b254-ad74682aa2a8","system_id":"levelo_inurba_marseille","lat":43.31482,"lon":5.37304,"is_reserved":false,"is_disabled":false,"rental_uris":{"android":"levelo://app?vid=61ffbdf0-5438-49c9-b254-ad74682aa2a8","ios":"levelo://app?vid=61ffbdf0-5438-49c9-b254-ad74682aa2a8"},"vehicle_type_id":"4","last_reported":1779186596,"current_range_meters":6800,"station_id":"ce4bgt12rcd13ifvqcd0","pricing_plan_id":"cebpf4jnsgd1na2vs0mg"},{"bike_id":"91573353-defe-4626-a202-ff35ae1001bb","system_id":"levelo_inurba_marseille","lat":43.27203,"lon":5.39166,"is_reserved":false,"is_disabled":false,"rental_uris":{"android":"levelo://app?vid=91573353-defe-4626-a202-ff35ae1001bb","ios":"levelo://app?vid=91573353-defe-4626-a202-ff35ae1001bb"},"vehicle_type_id":"4","last_reported":1779186596,"current_range_meters":6800,"station_id":"ce4bhhp2rcd13ifvqfm0","pricing_plan_id":"cebpf4jnsgd1na2vs0mg"},{"bike_id":"d304c8a2-d766-4f0b-83fd-5d48dbaa427e","system_id":"levelo_inurba_marseille","lat":43.30305,"lon":5.36892,"is_reserved":false,"is_disabled":false,"rental_uris":{"android":"levelo://app?vid=d304c8a2-d766-4f0b-83fd-5d48dbaa427e","ios":"levelo://app?vid=d304c8a2-d766-4f0b-83fd-5d48dbaa427e"},"vehicle_type_id":"4","last_reported":1779186596,"current_range_meters":6800,"station_id":"ce4bgqh2rcd13ifvqc5g","pricing_plan_id":"cebpf4jnsgd1na2vs0mg"},{"bike_id":"14d08bc5-d981-4780-a302-4e5009054e69","system_id":"levelo_inurba_marseille","lat":43.28378,"lon":5.38638,"is_reserved":false,"is_disabled":false,"rental_uris":{"android":"levelo://app?vid=14d08bc5-d981-4780-a302-4e5009054e69","ios":"levelo://app?vid=14d08bc5-d981-4780-a302-4e5009054e69"},"vehicle_type_id":"4","last_reported":1779186596,"current_range_meters":6800,"station_id":"ce4bh492rcd13ifvqdvg","pricing_plan_id":"cebpf4jnsgd1na2vs0mg"},{"bike_id":"5064e4d1-a4b8-4d4d-9cf4-b90eda56c5de","system_id":"levelo_inurba_marseille","lat":43.33561,"lon":5.37443,"is_reserved":false,"is_disabled":false,"rental_uris":{"android":"levelo://app?vid=5064e4d1-a4b8-4d4d-9cf4-b90eda56c5de","ios":"levelo://app?vid=5064e4d1-a4b8-4d4d-9cf4-b90eda56c5de"},"vehicle_type_id":"4","last_reported":1779186596,"current_range_meters":6800,"station_id":"st_d46tts09ee8s73dlu43g","pricing_plan_id":"cebpf4jnsgd1na2vs0mg"},{"bike_id":"170c8db2-acb8-4c8a-be7d-b83c42f48658","system_id":"levelo_inurba_marseille","lat":43.31248,"lon":5.36812,"is_reserved":false,"is_disabled":false,"rental_uris":{"android":"levelo://app?vid=170c8db2-acb8-4c8a-be7d-b83c42f48658","ios":"levelo://app?vid=170c8db2-acb8-4c8a-be7d-b83c42f48658"},"vehicle_type_id":"4","last_reported":1779186596,"current_range_meters":6800,"station_id":"ce4bgl92rcd13ifvqbq0","pricing_plan_id":"cebpf4jnsgd1na2vs0mg"},{"bike_id":"626f8d4e-2654-41bb-adc8-7cdd5f5a4c8e","system_id":"levelo_inurba_marseille","lat":43.28288,"lon":5.35045,"is_reserved":false,"is_disabled":true,"rental_uris":{"android":"levelo://app?vid=626f8d4e-2654-41bb-adc8-7cdd5f5a4c8e","ios":"levelo://app?vid=626f8d4e-2654-41bb-adc8-7cdd5f5a4c8e"},"vehicle_type_id":"4","last_reported":1779186596,"current_range_meters":7200,"station_id":"ce4bhbp2rcd13ifvqerg","pricing_plan_id":"cebpf4jnsgd1na2vs0mg"},{"bike_id":"b004721b-15a5-455a-9be8-13495ac39a54","system_id":"levelo_inurba_marseille","lat":43.25335,"lon":5.4217,"is_reserved":false,"is_disabled":false,"rental_uris":{"android":"levelo://app?vid=b004721b-15a5-455a-9be8-13495ac39a54","ios":"levelo://app?vid=b004721b-15a5-455a-9be8-13495ac39a54"},"vehicle_type_id":"4","last_reported":1779186596,"current_range_meters":7200,"station_id":"st_d2m65c5bi1j21697t3ng","pricing_plan_id":"cebpf4jnsgd1na2vs0mg"},{"bike_id":"30436dd1-f07f-4b26-8b30-9b3be9a8f2ae","system_id":"levelo_inurba_marseille","lat":43.23168,"lon":5.43684,"is_reserved":false,"is_disabled":false,"rental_uris":{"android":"levelo://app?vid=30436dd1-f07f-4b26-8b30-9b3be9a8f2ae","ios":"levelo://app?vid=30436dd1-f07f-4b26-8b30-9b3be9a8f2ae"},"vehicle_type_id":"4","last_reported":1779186596,"current_range_meters":7200,"station_id":"ce4bhmp2rcd13ifvqgog","pricing_plan_id":"cebpf4jnsgd1na2vs0mg"},{"bike_id":"2dbd4466-77a7-454a-ad9e-4c428d1bc40d","system_id":"levelo_inurba_marseille","lat":43.29282,"lon":5.3683,"is_reserved":false,"is_disabled":false,"rental_uris":{"android":"levelo://app?vid=2dbd4466-77a7-454a-ad9e-4c428d1bc40d","ios":"levelo://app?vid=2dbd4466-77a7-454a-ad9e-4c428d1bc40d"},"vehicle_type_id":"4","last_reported":1779186596,"current_range_meters":7200,"station_id":"ce4bhbp2rcd13ifvqesg","pricing_plan_id":"cebpf4jnsgd1na2vs0mg"},{"bike_id":"19fc25ea-351b-4426-a1ce-87bcda62e902","system_id":"levelo_inurba_marseille","lat":43.30525,"lon":5.36708,"is_reserved":false,"is_disabled":false,"rental_uris":{"android":"levelo://app?vid=19fc25ea-351b-4426-a1ce-87bcda62e902","ios":"levelo://app?vid=19fc25ea-351b-4426-a1ce-87bcda62e902"},"vehicle_type_id":"4","last_reported":1779186596,"current_range_meters":7200,"station_id":"ce4bgrp2rcd13ifvqc9g","pricing_plan_id":"cebpf4jnsgd1na2vs0mg"},{"bike_id":"27adb2b3-429b-47f3-b1ac-776ecdcd02e6","system_id":"levelo_inurba_marseille","lat":43.27333,"lon":5.3909,"is_reserved":false,"is_disabled":false,"rental_uris":{"android":"levelo://app?vid=27adb2b3-429b-47f3-b1ac-776ecdcd02e6","ios":"levelo://app?vid=27adb2b3-429b-47f3-b1ac-776ecdcd02e6"},"vehicle_type_id":"4","last_reported":1779186596,"current_range_meters":7200,"station_id":"ce4bhgp2rcd13ifvqfe0","pricing_plan_id":"cebpf4jnsgd1na2vs0mg"},{"bike_id":"89dcf81e-d685-4eb4-82aa-fe68a85d332a","system_id":"levelo_inurba_marseille","lat":43.32103,"lon":5.36776,"is_reserved":false,"is_disabled":false,"rental_uris":{"android":"levelo://app?vid=89dcf81e-d685-4eb4-82aa-fe68a85d332a","ios":"levelo://app?vid=89dcf81e-d685-4eb4-82aa-fe68a85d332a"},"vehicle_type_id":"4","last_reported":1779186596,"current_range_meters":7200,"station_id":"ce4bhrh2rcd13ifvqhug","pricing_plan_id":"cebpf4jnsgd1na2vs0mg"},{"bike_id":"fa592942-41bc-4de8-816e-0cc8cfc267c2","system_id":"levelo_inurba_marseille","lat":43.23964,"lon":5.36608,"is_reserved":false,"is_disabled":false,"rental_uris":{"android":"levelo://app?vid=fa592942-41bc-4de8-816e-0cc8cfc267c2","ios":"levelo://app?vid=fa592942-41bc-4de8-816e-0cc8cfc267c2"},"vehicle_type_id":"4","last_reported":1779186596,"current_range_meters":7200,"station_id":"ce4bhi12rcd13ifvqfp0","pricing_plan_id":"cebpf4jnsgd1na2vs0mg"},{"bike_id":"cae776b5-af28-48c1-a7dc-bf4bf8e26b7c","system_id":"levelo_inurba_marseille","lat":43.29775,"lon":5.39318,"is_reserved":false,"is_disabled":false,"rental_uris":{"android":"levelo://app?vid=cae776b5-af28-48c1-a7dc-bf4bf8e26b7c","ios":"levelo://app?vid=cae776b5-af28-48c1-a7dc-bf4bf8e26b7c"},"vehicle_type_id":"4","last_reported":1779186596,"current_range_meters":7200,"station_id":"chh1huq6cuj3fo74tm60","pricing_plan_id":"cebpf4jnsgd1na2vs0mg"},{"bike_id":"75eda3fa-5331-4735-8432-adad20e5fec5","system_id":"levelo_inurba_marseille","lat":43.23992,"lon":5.36602,"is_reserved":false,"is_disabled":false,"rental_uris":{"android":"levelo://app?vid=75eda3fa-5331-4735-8432-adad20e5fec5","ios":"levelo://app?vid=75eda3fa-5331-4735-8432-adad20e5fec5"},"vehicle_type_id":"4","last_reported":1779186596,"current_range_meters":7200,"station_id":"ce4bhi12rcd13ifvqfp0","pricing_plan_id":"cebpf4jnsgd1na2vs0mg"},{"bike_id":"92a48778-5aae-45c8-9818-f9e9df801c2b","system_id":"levelo_inurba_marseille","lat":43.33164,"lon":5.37637,"is_reserved":false,"is_disabled":false,"rental_uris":{"android":"levelo://app?vid=92a48778-5aae-45c8-9818-f9e9df801c2b","ios":"levelo://app?vid=92a48778-5aae-45c8-9818-f9e9df801c2b"},"vehicle_type_id":"4","last_reported":1779186596,"current_range_meters":7200,"station_id":"st_d46cu089ee8s73dldbu0","pricing_plan_id":"cebpf4jnsgd1na2vs0mg"},{"bike_id":"7907e15c-befa-49d2-8285-5fac910eb0a0","system_id":"levelo_inurba_marseille","lat":43.31337,"lon":5.39669,"is_reserved":false,"is_disabled":false,"rental_uris":{"android":"levelo://app?vid=7907e15c-befa-49d2-8285-5fac910eb0a0","ios":"levelo://app?vid=7907e15c-befa-49d2-8285-5fac910eb0a0"},"vehicle_type_id":"4","last_reported":1779186596,"current_range_meters":7200,"station_id":"ce4bgvp2rcd13ifvqcu0","pricing_plan_id":"cebpf4jnsgd1na2vs0mg"},{"bike_id":"2a250e40-66ff-414d-97a7-9c9907dbbad6","system_id":"levelo_inurba_marseille","lat":43.30156,"lon":5.37404,"is_reserved":false,"is_disabled":false,"rental_uris":{"android":"levelo://app?vid=2a250e40-66ff-414d-97a7-9c9907dbbad6","ios":"levelo://app?vid=2a250e40-66ff-414d-97a7-9c9907dbbad6"},"vehicle_type_id":"4","last_reported":1779186596,"current_range_meters":7200,"station_id":"ce4bgs92rcd13ifvqcc0","pricing_plan_id":"cebpf4jnsgd1na2vs0mg"},{"bike_id":"e20cca08-0b38-426d-943e-6fce609088d3","system_id":"levelo_inurba_marseille","lat":43.31417,"lon":5.36657,"is_reserved":false,"is_disabled":false,"rental_uris":{"android":"levelo://app?vid=e20cca08-0b38-426d-943e-6fce609088d3","ios":"levelo://app?vid=e20cca08-0b38-426d-943e-6fce609088d3"},"vehicle_type_id":"4","last_reported":1779186596,"current_range_meters":7200,"station_id":"ce4bgr92rcd13ifvqc6g","pricing_plan_id":"cebpf4jnsgd1na2vs0mg"},{"bike_id":"ff3b4694-4c2d-4e0e-882d-168610d86b23","system_id":"levelo_inurba_marseille","lat":43.21736,"lon":5.34627,"is_reserved":false,"is_disabled":false,"rental_uris":{"android":"levelo://app?vid=ff3b4694-4c2d-4e0e-882d-168610d86b23","ios":"levelo://app?vid=ff3b4694-4c2d-4e0e-882d-168610d86b23"},"vehicle_type_id":"4","last_reported":1779186596,"current_range_meters":7200,"station_id":"st_cvj6r9ubvosntc0bgbag","pricing_plan_id":"cebpf4jnsgd1na2vs0mg"},{"bike_id":"ea2b7db2-4ec0-4ed4-95e7-78571752cefd","system_id":"levelo_inurba_marseille","lat":43.24758,"lon":5.37417,"is_reserved":false,"is_disabled":false,"rental_uris":{"android":"levelo://app?vid=ea2b7db2-4ec0-4ed4-95e7-78571752cefd","ios":"levelo://app?vid=ea2b7db2-4ec0-4ed4-95e7-78571752cefd"},"vehicle_type_id":"4","last_reported":1779186596,"current_range_meters":7200,"station_id":"ce4bhgh2rcd13ifvqfb0","pricing_plan_id":"cebpf4jnsgd1na2vs0mg"},{"bike_id":"e8703d1e-38d7-4a37-8b34-74e110535cc7","system_id":"levelo_inurba_marseille","lat":43.25082,"lon":5.39504,"is_reserved":false,"is_disabled":false,"rental_uris":{"android":"levelo://app?vid=e8703d1e-38d7-4a37-8b34-74e110535cc7","ios":"levelo://app?vid=e8703d1e-38d7-4a37-8b34-74e110535cc7"},"vehicle_type_id":"4","last_reported":1779186596,"current_range_meters":8000,"station_id":"ce4bhm12rcd13ifvqgkg","pricing_plan_id":"cebpf4jnsgd1na2vs0mg"},{"bike_id":"c055572e-6d01-4b94-940e-bb6ed196cb18","system_id":"levelo_inurba_marseille","lat":43.30546,"lon":5.38414,"is_reserved":false,"is_disabled":false,"rental_uris":{"android":"levelo://app?vid=c055572e-6d01-4b94-940e-bb6ed196cb18","ios":"levelo://app?vid=c055572e-6d01-4b94-940e-bb6ed196cb18"},"vehicle_type_id":"4","last_reported":1779186596,"current_range_meters":8000,"station_id":"ce4bgg92rcd13ifvqb30","pricing_plan_id":"cebpf4jnsgd1na2vs0mg"},{"bike_id":"604c8d35-0292-4781-b66d-7833a0f007ea","system_id":"levelo_inurba_marseille","lat":43.33478,"lon":5.37597,"is_reserved":false,"is_disabled":false,"rental_uris":{"android":"levelo://app?vid=604c8d35-0292-4781-b66d-7833a0f007ea","ios":"levelo://app?vid=604c8d35-0292-4781-b66d-7833a0f007ea"},"vehicle_type_id":"4","last_reported":1779186596,"current_range_meters":8000,"station_id":"st_d46tts09ee8s73dlu43g","pricing_plan_id":"cebpf4jnsgd1na2vs0mg"},{"bike_id":"6647287c-c177-4c26-a09f-3ede3af19700","system_id":"levelo_inurba_marseille","lat":43.29571,"lon":5.37482,"is_reserved":false,"is_disabled":false,"rental_uris":{"android":"levelo://app?vid=6647287c-c177-4c26-a09f-3ede3af19700","ios":"levelo://app?vid=6647287c-c177-4c26-a09f-3ede3af19700"},"vehicle_type_id":"4","last_reported":1779186596,"current_range_meters":8000,"station_id":"ce4bgh92rcd13ifvqb50","pricing_plan_id":"cebpf4jnsgd1na2vs0mg"},{"bike_id":"4a8fff30-cbc5-491d-8d3e-d22b568d1485","system_id":"levelo_inurba_marseille","lat":43.26453,"lon":5.37403,"is_reserved":false,"is_disabled":false,"rental_uris":{"android":"levelo://app?vid=4a8fff30-cbc5-491d-8d3e-d22b568d1485","ios":"levelo://app?vid=4a8fff30-cbc5-491d-8d3e-d22b568d1485"},"vehicle_type_id":"4","last_reported":1779186596,"current_range_meters":8000,"station_id":"","pricing_plan_id":"cebpf4jnsgd1na2vs0mg"},{"bike_id":"9c94c862-4a13-4d0b-b02e-fbf3a0eff560","system_id":"levelo_inurba_marseille","lat":43.25595,"lon":5.38197,"is_reserved":false,"is_disabled":false,"rental_uris":{"android":"levelo://app?vid=9c94c862-4a13-4d0b-b02e-fbf3a0eff560","ios":"levelo://app?vid=9c94c862-4a13-4d0b-b02e-fbf3a0eff560"},"vehicle_type_id":"4","last_reported":1779186596,"current_range_meters":8000,"station_id":"ce4bhih2rcd13ifvqfs0","pricing_plan_id":"cebpf4jnsgd1na2vs0mg"},{"bike_id":"7c260c7d-d9ed-4ca3-9e2d-27bf132a1d6d","system_id":"levelo_inurba_marseille","lat":43.301559,"lon":5.38132,"is_reserved":false,"is_disabled":false,"rental_uris":{"android":"levelo://app?vid=7c260c7d-d9ed-4ca3-9e2d-27bf132a1d6d","ios":"levelo://app?vid=7c260c7d-d9ed-4ca3-9e2d-27bf132a1d6d"},"vehicle_type_id":"4","last_reported":1779186596,"current_range_meters":8000,"station_id":"ce4bgjp2rcd13ifvqbh0","pricing_plan_id":"cebpf4jnsgd1na2vs0mg"},{"bike_id":"af731511-fe2c-4bad-84ee-94ac31edb0da","system_id":"levelo_inurba_marseille","lat":43.2319,"lon":5.3554,"is_reserved":false,"is_disabled":false,"rental_uris":{"android":"levelo://app?vid=af731511-fe2c-4bad-84ee-94ac31edb0da","ios":"levelo://app?vid=af731511-fe2c-4bad-84ee-94ac31edb0da"},"vehicle_type_id":"4","last_reported":1779186596,"current_range_meters":8000,"station_id":"ce4bhu92rcd13ifvqi70","pricing_plan_id":"cebpf4jnsgd1na2vs0mg"},{"bike_id":"69fb0f2e-8291-4305-b561-741ac11e259e","system_id":"levelo_inurba_marseille","lat":43.276186,"lon":5.361004,"is_reserved":false,"is_disabled":true,"rental_uris":{"android":"levelo://app?vid=69fb0f2e-8291-4305-b561-741ac11e259e","ios":"levelo://app?vid=69fb0f2e-8291-4305-b561-741ac11e259e"},"vehicle_type_id":"4","last_reported":1779186596,"current_range_meters":8000,"station_id":"ce4bgj92rcd13ifvqbe0","pricing_plan_id":"cebpf4jnsgd1na2vs0mg"},{"bike_id":"a57b6d8c-426e-41f2-88fd-ed699a7b5fab","system_id":"levelo_inurba_marseille","lat":43.32097,"lon":5.36763,"is_reserved":false,"is_disabled":false,"rental_uris":{"android":"levelo://app?vid=a57b6d8c-426e-41f2-88fd-ed699a7b5fab","ios":"levelo://app?vid=a57b6d8c-426e-41f2-88fd-ed699a7b5fab"},"vehicle_type_id":"4","last_reported":1779186596,"current_range_meters":8000,"station_id":"ce4bhrh2rcd13ifvqhug","pricing_plan_id":"cebpf4jnsgd1na2vs0mg"},{"bike_id":"c982f197-5ae1-441d-9666-187b23fc3a07","system_id":"levelo_inurba_marseille","lat":43.28096,"lon":5.35036,"is_reserved":false,"is_disabled":false,"rental_uris":{"android":"levelo://app?vid=c982f197-5ae1-441d-9666-187b23fc3a07","ios":"levelo://app?vid=c982f197-5ae1-441d-9666-187b23fc3a07"},"vehicle_type_id":"4","last_reported":1779186596,"current_range_meters":8000,"station_id":"","pricing_plan_id":"cebpf4jnsgd1na2vs0mg"},{"bike_id":"0ab54c51-2cd5-429e-99a7-d9b354415bcb","system_id":"levelo_inurba_marseille","lat":43.31184,"lon":5.37862,"is_reserved":false,"is_disabled":false,"rental_uris":{"android":"levelo://app?vid=0ab54c51-2cd5-429e-99a7-d9b354415bcb","ios":"levelo://app?vid=0ab54c51-2cd5-429e-99a7-d9b354415bcb"},"vehicle_type_id":"4","last_reported":1779186596,"current_range_meters":8000,"station_id":"","pricing_plan_id":"cebpf4jnsgd1na2vs0mg"},{"bike_id":"a3ebbe78-84d3-4184-9a16-07dfbc610f82","system_id":"levelo_inurba_marseille","lat":43.31414,"lon":5.36638,"is_reserved":false,"is_disabled":false,"rental_uris":{"android":"levelo://app?vid=a3ebbe78-84d3-4184-9a16-07dfbc610f82","ios":"levelo://app?vid=a3ebbe78-84d3-4184-9a16-07dfbc610f82"},"vehicle_type_id":"4","last_reported":1779186596,"current_range_meters":8000,"station_id":"","pricing_plan_id":"cebpf4jnsgd1na2vs0mg"},{"bike_id":"8bd36308-f19b-4c81-baf2-f80d63464915","system_id":"levelo_inurba_marseille","lat":43.27175,"lon":5.40988,"is_reserved":false,"is_disabled":false,"rental_uris":{"android":"levelo://app?vid=8bd36308-f19b-4c81-baf2-f80d63464915","ios":"levelo://app?vid=8bd36308-f19b-4c81-baf2-f80d63464915"},"vehicle_type_id":"4","last_reported":1779186596,"current_range_meters":8000,"station_id":"ce4bhl12rcd13ifvqgf0","pricing_plan_id":"cebpf4jnsgd1na2vs0mg"},{"bike_id":"d5507518-cb58-4fc3-a22b-de5ad3c6e51d","system_id":"levelo_inurba_marseille","lat":43.29814,"lon":5.44071,"is_reserved":false,"is_disabled":false,"rental_uris":{"android":"levelo://app?vid=d5507518-cb58-4fc3-a22b-de5ad3c6e51d","ios":"levelo://app?vid=d5507518-cb58-4fc3-a22b-de5ad3c6e51d"},"vehicle_type_id":"4","last_reported":1779186596,"current_range_meters":8000,"station_id":"st_d3jp68qikq2c7381ktn0","pricing_plan_id":"cebpf4jnsgd1na2vs0mg"},{"bike_id":"b830fcf8-16b1-40c0-9362-830ba31d9afd","system_id":"levelo_inurba_marseille","lat":43.30766,"lon":5.38142,"is_reserved":false,"is_disabled":false,"rental_uris":{"android":"levelo://app?vid=b830fcf8-16b1-40c0-9362-830ba31d9afd","ios":"levelo://app?vid=b830fcf8-16b1-40c0-9362-830ba31d9afd"},"vehicle_type_id":"4","last_reported":1779186596,"current_range_meters":8000,"station_id":"ce4bgt12rcd13ifvqce0","pricing_plan_id":"cebpf4jnsgd1na2vs0mg"},{"bike_id":"837d0bda-15b8-41c3-8408-194bd5878f2f","system_id":"levelo_inurba_marseille","lat":43.26381,"lon":5.41028,"is_reserved":false,"is_disabled":false,"rental_uris":{"android":"levelo://app?vid=837d0bda-15b8-41c3-8408-194bd5878f2f","ios":"levelo://app?vid=837d0bda-15b8-41c3-8408-194bd5878f2f"},"vehicle_type_id":"4","last_reported":1779186596,"current_range_meters":8000,"station_id":"","pricing_plan_id":"cebpf4jnsgd1na2vs0mg"},{"bike_id":"7a7a7c91-59f9-4e9c-b9a3-3a49c7f6a2f9","system_id":"levelo_inurba_marseille","lat":43.28418,"lon":5.34986,"is_reserved":false,"is_disabled":true,"rental_uris":{"android":"levelo://app?vid=7a7a7c91-59f9-4e9c-b9a3-3a49c7f6a2f9","ios":"levelo://app?vid=7a7a7c91-59f9-4e9c-b9a3-3a49c7f6a2f9"},"vehicle_type_id":"4","last_reported":1779186596,"current_range_meters":8000,"station_id":"ce4bhbh2rcd13ifvqepg","pricing_plan_id":"cebpf4jnsgd1na2vs0mg"},{"bike_id":"81780702-bd76-4d00-a49a-74cd06b0581c","system_id":"levelo_inurba_marseille","lat":43.29492,"lon":5.43285,"is_reserved":false,"is_disabled":false,"rental_uris":{"android":"levelo://app?vid=81780702-bd76-4d00-a49a-74cd06b0581c","ios":"levelo://app?vid=81780702-bd76-4d00-a49a-74cd06b0581c"},"vehicle_type_id":"4","last_reported":1779186596,"current_range_meters":8000,"station_id":"st_d3j5ugp08ojc73fj9d10","pricing_plan_id":"cebpf4jnsgd1na2vs0mg"},{"bike_id":"8b5fe887-0d07-4a23-9fbd-a7025800ec01","system_id":"levelo_inurba_marseille","lat":43.273725,"lon":5.36265,"is_reserved":false,"is_disabled":false,"rental_uris":{"android":"levelo://app?vid=8b5fe887-0d07-4a23-9fbd-a7025800ec01","ios":"levelo://app?vid=8b5fe887-0d07-4a23-9fbd-a7025800ec01"},"vehicle_type_id":"4","last_reported":1779186596,"current_range_meters":8000,"station_id":"ce4bhbh2rcd13ifvqeo0","pricing_plan_id":"cebpf4jnsgd1na2vs0mg"},{"bike_id":"17a58ec1-95d0-4a5e-947f-5381df52ba95","system_id":"levelo_inurba_marseille","lat":43.31592,"lon":5.40677,"is_reserved":false,"is_disabled":false,"rental_uris":{"android":"levelo://app?vid=17a58ec1-95d0-4a5e-947f-5381df52ba95","ios":"levelo://app?vid=17a58ec1-95d0-4a5e-947f-5381df52ba95"},"vehicle_type_id":"4","last_reported":1779186596,"current_range_meters":8400,"station_id":"","pricing_plan_id":"cebpf4jnsgd1na2vs0mg"},{"bike_id":"e632fd55-d64d-438b-a858-8c2eb7d334b4","system_id":"levelo_inurba_marseille","lat":43.31335,"lon":5.36709,"is_reserved":false,"is_disabled":false,"rental_uris":{"android":"levelo://app?vid=e632fd55-d64d-438b-a858-8c2eb7d334b4","ios":"levelo://app?vid=e632fd55-d64d-438b-a858-8c2eb7d334b4"},"vehicle_type_id":"4","last_reported":1779186596,"current_range_meters":8400,"station_id":"ce4bgr92rcd13ifvqc6g","pricing_plan_id":"cebpf4jnsgd1na2vs0mg"},{"bike_id":"8aa4042b-067b-4783-a174-79e2496089f3","system_id":"levelo_inurba_marseille","lat":43.28603,"lon":5.35103,"is_reserved":false,"is_disabled":false,"rental_uris":{"android":"levelo://app?vid=8aa4042b-067b-4783-a174-79e2496089f3","ios":"levelo://app?vid=8aa4042b-067b-4783-a174-79e2496089f3"},"vehicle_type_id":"4","last_reported":1779186596,"current_range_meters":8400,"station_id":"ce4bhch2rcd13ifvqeug","pricing_plan_id":"cebpf4jnsgd1na2vs0mg"},{"bike_id":"bb303e92-9b67-4e48-ae07-5553b91fa66a","system_id":"levelo_inurba_marseille","lat":43.23963,"lon":5.36613,"is_reserved":false,"is_disabled":false,"rental_uris":{"android":"levelo://app?vid=bb303e92-9b67-4e48-ae07-5553b91fa66a","ios":"levelo://app?vid=bb303e92-9b67-4e48-ae07-5553b91fa66a"},"vehicle_type_id":"4","last_reported":1779186596,"current_range_meters":8400,"station_id":"ce4bhi12rcd13ifvqfp0","pricing_plan_id":"cebpf4jnsgd1na2vs0mg"},{"bike_id":"fb9abe0c-6aac-4ca3-8b92-f1e4b2a3bb32","system_id":"levelo_inurba_marseille","lat":43.30453,"lon":5.38889,"is_reserved":false,"is_disabled":false,"rental_uris":{"android":"levelo://app?vid=fb9abe0c-6aac-4ca3-8b92-f1e4b2a3bb32","ios":"levelo://app?vid=fb9abe0c-6aac-4ca3-8b92-f1e4b2a3bb32"},"vehicle_type_id":"4","last_reported":1779186596,"current_range_meters":8400,"station_id":"ce4bgk12rcd13ifvqbi0","pricing_plan_id":"cebpf4jnsgd1na2vs0mg"},{"bike_id":"8d20fd57-720f-4237-9fbe-f903008401ac","system_id":"levelo_inurba_marseille","lat":43.3055,"lon":5.38422,"is_reserved":false,"is_disabled":false,"rental_uris":{"android":"levelo://app?vid=8d20fd57-720f-4237-9fbe-f903008401ac","ios":"levelo://app?vid=8d20fd57-720f-4237-9fbe-f903008401ac"},"vehicle_type_id":"4","last_reported":1779186596,"current_range_meters":8400,"station_id":"ce4bgg92rcd13ifvqb30","pricing_plan_id":"cebpf4jnsgd1na2vs0mg"},{"bike_id":"acb112b7-fc39-4f32-872b-4e6fc9f26cc9","system_id":"levelo_inurba_marseille","lat":43.28252,"lon":5.39014,"is_reserved":false,"is_disabled":false,"rental_uris":{"android":"levelo://app?vid=acb112b7-fc39-4f32-872b-4e6fc9f26cc9","ios":"levelo://app?vid=acb112b7-fc39-4f32-872b-4e6fc9f26cc9"},"vehicle_type_id":"4","last_reported":1779186596,"current_range_meters":8400,"station_id":"ce4bhn92rcd13ifvqgsg","pricing_plan_id":"cebpf4jnsgd1na2vs0mg"},{"bike_id":"33f1022a-86ed-42b2-a2fa-b6b00d8323f5","system_id":"levelo_inurba_marseille","lat":43.31148,"lon":5.37753,"is_reserved":false,"is_disabled":false,"rental_uris":{"android":"levelo://app?vid=33f1022a-86ed-42b2-a2fa-b6b00d8323f5","ios":"levelo://app?vid=33f1022a-86ed-42b2-a2fa-b6b00d8323f5"},"vehicle_type_id":"4","last_reported":1779186596,"current_range_meters":8400,"station_id":"ce4bgt92rcd13ifvqcg0","pricing_plan_id":"cebpf4jnsgd1na2vs0mg"},{"bike_id":"316d0799-8e5c-4e10-b143-c4bcc824b83d","system_id":"levelo_inurba_marseille","lat":43.31206,"lon":5.38954,"is_reserved":false,"is_disabled":false,"rental_uris":{"android":"levelo://app?vid=316d0799-8e5c-4e10-b143-c4bcc824b83d","ios":"levelo://app?vid=316d0799-8e5c-4e10-b143-c4bcc824b83d"},"vehicle_type_id":"4","last_reported":1779186596,"current_range_meters":8400,"station_id":"","pricing_plan_id":"cebpf4jnsgd1na2vs0mg"},{"bike_id":"955fd45b-9e3f-4524-9dd3-cff4a37c64da","system_id":"levelo_inurba_marseille","lat":43.26663,"lon":5.38277,"is_reserved":false,"is_disabled":false,"rental_uris":{"android":"levelo://app?vid=955fd45b-9e3f-4524-9dd3-cff4a37c64da","ios":"levelo://app?vid=955fd45b-9e3f-4524-9dd3-cff4a37c64da"},"vehicle_type_id":"4","last_reported":1779186596,"current_range_meters":8400,"station_id":"ce4bhg92rcd13ifvqf90","pricing_plan_id":"cebpf4jnsgd1na2vs0mg"},{"bike_id":"e1edea3c-a9ec-4e1d-ae51-331278ede585","system_id":"levelo_inurba_marseille","lat":43.31025,"lon":5.39291,"is_reserved":false,"is_disabled":false,"rental_uris":{"android":"levelo://app?vid=e1edea3c-a9ec-4e1d-ae51-331278ede585","ios":"levelo://app?vid=e1edea3c-a9ec-4e1d-ae51-331278ede585"},"vehicle_type_id":"4","last_reported":1779186596,"current_range_meters":8400,"station_id":"","pricing_plan_id":"cebpf4jnsgd1na2vs0mg"},{"bike_id":"1465f2c4-0c9a-4c55-a0f9-d93f55d3b4b3","system_id":"levelo_inurba_marseille","lat":43.29933,"lon":5.36486,"is_reserved":false,"is_disabled":false,"rental_uris":{"android":"levelo://app?vid=1465f2c4-0c9a-4c55-a0f9-d93f55d3b4b3","ios":"levelo://app?vid=1465f2c4-0c9a-4c55-a0f9-d93f55d3b4b3"},"vehicle_type_id":"4","last_reported":1779186596,"current_range_meters":8400,"station_id":"ce4bgm92rcd13ifvqbr0","pricing_plan_id":"cebpf4jnsgd1na2vs0mg"},{"bike_id":"40cdbae6-714d-4f35-95a9-676040c67aef","system_id":"levelo_inurba_marseille","lat":43.24006,"lon":5.41307,"is_reserved":false,"is_disabled":false,"rental_uris":{"android":"levelo://app?vid=40cdbae6-714d-4f35-95a9-676040c67aef","ios":"levelo://app?vid=40cdbae6-714d-4f35-95a9-676040c67aef"},"vehicle_type_id":"4","last_reported":1779186596,"current_range_meters":8400,"station_id":"","pricing_plan_id":"cebpf4jnsgd1na2vs0mg"},{"bike_id":"261f2914-f86b-4668-a408-95acc694e9f6","system_id":"levelo_inurba_marseille","lat":43.27063,"lon":5.42254,"is_reserved":false,"is_disabled":false,"rental_uris":{"android":"levelo://app?vid=261f2914-f86b-4668-a408-95acc694e9f6","ios":"levelo://app?vid=261f2914-f86b-4668-a408-95acc694e9f6"},"vehicle_type_id":"4","last_reported":1779186596,"current_range_meters":8400,"station_id":"ce4bhk92rcd13ifvqgb0","pricing_plan_id":"cebpf4jnsgd1na2vs0mg"},{"bike_id":"67047f3c-9d23-4d11-a4fc-f1c61f4ef3e6","system_id":"levelo_inurba_marseille","lat":43.31644,"lon":5.36474,"is_reserved":false,"is_disabled":false,"rental_uris":{"android":"levelo://app?vid=67047f3c-9d23-4d11-a4fc-f1c61f4ef3e6","ios":"levelo://app?vid=67047f3c-9d23-4d11-a4fc-f1c61f4ef3e6"},"vehicle_type_id":"4","last_reported":1779186596,"current_range_meters":8400,"station_id":"","pricing_plan_id":"cebpf4jnsgd1na2vs0mg"},{"bike_id":"225a0f82-fdfb-4f97-9365-0a8632569746","system_id":"levelo_inurba_marseille","lat":43.297683,"lon":5.427851,"is_reserved":false,"is_disabled":false,"rental_uris":{"android":"levelo://app?vid=225a0f82-fdfb-4f97-9365-0a8632569746","ios":"levelo://app?vid=225a0f82-fdfb-4f97-9365-0a8632569746"},"vehicle_type_id":"4","last_reported":1779186596,"current_range_meters":8400,"station_id":"st_d3md5207bmas73dh9klg","pricing_plan_id":"cebpf4jnsgd1na2vs0mg"},{"bike_id":"408701cc-3f2d-4c32-b20d-587f50ccde82","system_id":"levelo_inurba_marseille","lat":43.305578,"lon":5.367156,"is_reserved":false,"is_disabled":false,"rental_uris":{"android":"levelo://app?vid=408701cc-3f2d-4c32-b20d-587f50ccde82","ios":"levelo://app?vid=408701cc-3f2d-4c32-b20d-587f50ccde82"},"vehicle_type_id":"4","last_reported":1779186596,"current_range_meters":8400,"station_id":"","pricing_plan_id":"cebpf4jnsgd1na2vs0mg"},{"bike_id":"f4ac26ba-6af2-4a73-af45-c735269cfee8","system_id":"levelo_inurba_marseille","lat":43.23181,"lon":5.39974,"is_reserved":false,"is_disabled":false,"rental_uris":{"android":"levelo://app?vid=f4ac26ba-6af2-4a73-af45-c735269cfee8","ios":"levelo://app?vid=f4ac26ba-6af2-4a73-af45-c735269cfee8"},"vehicle_type_id":"4","last_reported":1779186596,"current_range_meters":8400,"station_id":"ce4bhn12rcd13ifvqgqg","pricing_plan_id":"cebpf4jnsgd1na2vs0mg"},{"bike_id":"ab1329d0-fa90-4b23-8aae-f364fd6e31a9","system_id":"levelo_inurba_marseille","lat":43.28468,"lon":5.38537,"is_reserved":false,"is_disabled":false,"rental_uris":{"android":"levelo://app?vid=ab1329d0-fa90-4b23-8aae-f364fd6e31a9","ios":"levelo://app?vid=ab1329d0-fa90-4b23-8aae-f364fd6e31a9"},"vehicle_type_id":"4","last_reported":1779186596,"current_range_meters":8800,"station_id":"ce4bh8p2rcd13ifvqeb0","pricing_plan_id":"cebpf4jnsgd1na2vs0mg"},{"bike_id":"3b636412-1871-4a01-a46b-19502fa84501","system_id":"levelo_inurba_marseille","lat":43.30535,"lon":5.3653,"is_reserved":false,"is_disabled":false,"rental_uris":{"android":"levelo://app?vid=3b636412-1871-4a01-a46b-19502fa84501","ios":"levelo://app?vid=3b636412-1871-4a01-a46b-19502fa84501"},"vehicle_type_id":"4","last_reported":1779186596,"current_range_meters":8800,"station_id":"ce4bgs12rcd13ifvqcag","pricing_plan_id":"cebpf4jnsgd1na2vs0mg"},{"bike_id":"a91cf1be-0bc1-4f27-883b-93d2c64472e0","system_id":"levelo_inurba_marseille","lat":43.29021,"lon":5.37563,"is_reserved":false,"is_disabled":false,"rental_uris":{"android":"levelo://app?vid=a91cf1be-0bc1-4f27-883b-93d2c64472e0","ios":"levelo://app?vid=a91cf1be-0bc1-4f27-883b-93d2c64472e0"},"vehicle_type_id":"4","last_reported":1779186596,"current_range_meters":8800,"station_id":"ce4bh692rcd13ifvqe90","pricing_plan_id":"cebpf4jnsgd1na2vs0mg"},{"bike_id":"7c7fb249-fc8e-4d79-a1ce-dd5b0f183060","system_id":"levelo_inurba_marseille","lat":43.29817,"lon":5.44055,"is_reserved":false,"is_disabled":false,"rental_uris":{"android":"levelo://app?vid=7c7fb249-fc8e-4d79-a1ce-dd5b0f183060","ios":"levelo://app?vid=7c7fb249-fc8e-4d79-a1ce-dd5b0f183060"},"vehicle_type_id":"4","last_reported":1779186596,"current_range_meters":8800,"station_id":"st_d3jp68qikq2c7381ktn0","pricing_plan_id":"cebpf4jnsgd1na2vs0mg"},{"bike_id":"fe75e68e-565e-4f31-bf46-c65b1576a80f","system_id":"levelo_inurba_marseille","lat":43.28594,"lon":5.35127,"is_reserved":false,"is_disabled":false,"rental_uris":{"android":"levelo://app?vid=fe75e68e-565e-4f31-bf46-c65b1576a80f","ios":"levelo://app?vid=fe75e68e-565e-4f31-bf46-c65b1576a80f"},"vehicle_type_id":"4","last_reported":1779186596,"current_range_meters":8800,"station_id":"ce4bhch2rcd13ifvqeug","pricing_plan_id":"cebpf4jnsgd1na2vs0mg"},{"bike_id":"4f23fa2b-aa1f-48b5-b3e5-cba9ae2bb165","system_id":"levelo_inurba_marseille","lat":43.27987,"lon":5.41655,"is_reserved":false,"is_disabled":false,"rental_uris":{"android":"levelo://app?vid=4f23fa2b-aa1f-48b5-b3e5-cba9ae2bb165","ios":"levelo://app?vid=4f23fa2b-aa1f-48b5-b3e5-cba9ae2bb165"},"vehicle_type_id":"4","last_reported":1779186596,"current_range_meters":8800,"station_id":"ce4bho12rcd13ifvqh1g","pricing_plan_id":"cebpf4jnsgd1na2vs0mg"},{"bike_id":"3f42a6d9-721c-4045-81f8-56e377ee5c6e","system_id":"levelo_inurba_marseille","lat":43.26481,"lon":5.39538,"is_reserved":false,"is_disabled":true,"rental_uris":{"android":"levelo://app?vid=3f42a6d9-721c-4045-81f8-56e377ee5c6e","ios":"levelo://app?vid=3f42a6d9-721c-4045-81f8-56e377ee5c6e"},"vehicle_type_id":"4","last_reported":1779186596,"current_range_meters":8800,"station_id":"ce4bhi12rcd13ifvqfq0","pricing_plan_id":"cebpf4jnsgd1na2vs0mg"},{"bike_id":"30f51f43-53da-4d43-b53e-244f016cf14c","system_id":"levelo_inurba_marseille","lat":43.31368,"lon":5.36745,"is_reserved":false,"is_disabled":false,"rental_uris":{"android":"levelo://app?vid=30f51f43-53da-4d43-b53e-244f016cf14c","ios":"levelo://app?vid=30f51f43-53da-4d43-b53e-244f016cf14c"},"vehicle_type_id":"4","last_reported":1779186596,"current_range_meters":8800,"station_id":"ce4bgr92rcd13ifvqc6g","pricing_plan_id":"cebpf4jnsgd1na2vs0mg"},{"bike_id":"6af173ba-5696-4b0e-98a1-bbf9c441a271","system_id":"levelo_inurba_marseille","lat":43.27499,"lon":5.42452,"is_reserved":false,"is_disabled":false,"rental_uris":{"android":"levelo://app?vid=6af173ba-5696-4b0e-98a1-bbf9c441a271","ios":"levelo://app?vid=6af173ba-5696-4b0e-98a1-bbf9c441a271"},"vehicle_type_id":"4","last_reported":1779186596,"current_range_meters":8800,"station_id":"ce4bhn92rcd13ifvqgrg","pricing_plan_id":"cebpf4jnsgd1na2vs0mg"},{"bike_id":"40e11415-186d-4a53-ac50-ac693db6945a","system_id":"levelo_inurba_marseille","lat":43.33538,"lon":5.37465,"is_reserved":false,"is_disabled":false,"rental_uris":{"android":"levelo://app?vid=40e11415-186d-4a53-ac50-ac693db6945a","ios":"levelo://app?vid=40e11415-186d-4a53-ac50-ac693db6945a"},"vehicle_type_id":"4","last_reported":1779186596,"current_range_meters":8800,"station_id":"st_d46tts09ee8s73dlu43g","pricing_plan_id":"cebpf4jnsgd1na2vs0mg"},{"bike_id":"75f75e9c-d7a2-4994-9350-8f55536b0afd","system_id":"levelo_inurba_marseille","lat":43.3098,"lon":5.4299,"is_reserved":false,"is_disabled":false,"rental_uris":{"android":"levelo://app?vid=75f75e9c-d7a2-4994-9350-8f55536b0afd","ios":"levelo://app?vid=75f75e9c-d7a2-4994-9350-8f55536b0afd"},"vehicle_type_id":"4","last_reported":1779186596,"current_range_meters":8800,"station_id":"","pricing_plan_id":"cebpf4jnsgd1na2vs0mg"},{"bike_id":"14489bec-0cf2-4782-be85-917b48ea592c","system_id":"levelo_inurba_marseille","lat":43.29603,"lon":5.42238,"is_reserved":false,"is_disabled":false,"rental_uris":{"android":"levelo://app?vid=14489bec-0cf2-4782-be85-917b48ea592c","ios":"levelo://app?vid=14489bec-0cf2-4782-be85-917b48ea592c"},"vehicle_type_id":"4","last_reported":1779186596,"current_range_meters":8800,"station_id":"","pricing_plan_id":"cebpf4jnsgd1na2vs0mg"},{"bike_id":"94133b29-971d-48eb-9475-ae0b64fbd116","system_id":"levelo_inurba_marseille","lat":43.28213,"lon":5.38138,"is_reserved":false,"is_disabled":false,"rental_uris":{"android":"levelo://app?vid=94133b29-971d-48eb-9475-ae0b64fbd116","ios":"levelo://app?vid=94133b29-971d-48eb-9475-ae0b64fbd116"},"vehicle_type_id":"4","last_reported":1779186596,"current_range_meters":8800,"station_id":"","pricing_plan_id":"cebpf4jnsgd1na2vs0mg"},{"bike_id":"170a9d48-e2c9-4fef-aeea-c07bf3342cf2","system_id":"levelo_inurba_marseille","lat":43.23962,"lon":5.36606,"is_reserved":false,"is_disabled":false,"rental_uris":{"android":"levelo://app?vid=170a9d48-e2c9-4fef-aeea-c07bf3342cf2","ios":"levelo://app?vid=170a9d48-e2c9-4fef-aeea-c07bf3342cf2"},"vehicle_type_id":"4","last_reported":1779186596,"current_range_meters":8800,"station_id":"ce4bhi12rcd13ifvqfp0","pricing_plan_id":"cebpf4jnsgd1na2vs0mg"},{"bike_id":"0d09ad87-71c9-4b22-830d-29366cee448e","system_id":"levelo_inurba_marseille","lat":43.30324,"lon":5.40415,"is_reserved":false,"is_disabled":false,"rental_uris":{"android":"levelo://app?vid=0d09ad87-71c9-4b22-830d-29366cee448e","ios":"levelo://app?vid=0d09ad87-71c9-4b22-830d-29366cee448e"},"vehicle_type_id":"4","last_reported":1779186596,"current_range_meters":8800,"station_id":"ce4bh012rcd13ifvqd10","pricing_plan_id":"cebpf4jnsgd1na2vs0mg"},{"bike_id":"70fa82b7-6ab6-401e-87ef-e9b8f74ed0f2","system_id":"levelo_inurba_marseille","lat":43.33163,"lon":5.37677,"is_reserved":false,"is_disabled":false,"rental_uris":{"android":"levelo://app?vid=70fa82b7-6ab6-401e-87ef-e9b8f74ed0f2","ios":"levelo://app?vid=70fa82b7-6ab6-401e-87ef-e9b8f74ed0f2"},"vehicle_type_id":"4","last_reported":1779186596,"current_range_meters":8800,"station_id":"st_d46cu089ee8s73dldbu0","pricing_plan_id":"cebpf4jnsgd1na2vs0mg"},{"bike_id":"b0c83c94-f6ed-4b7b-b08c-e46573410511","system_id":"levelo_inurba_marseille","lat":43.314,"lon":5.36683,"is_reserved":false,"is_disabled":false,"rental_uris":{"android":"levelo://app?vid=b0c83c94-f6ed-4b7b-b08c-e46573410511","ios":"levelo://app?vid=b0c83c94-f6ed-4b7b-b08c-e46573410511"},"vehicle_type_id":"4","last_reported":1779186596,"current_range_meters":8800,"station_id":"","pricing_plan_id":"cebpf4jnsgd1na2vs0mg"},{"bike_id":"b5225d9b-2e1e-4060-9ca2-c709e98a1ccf","system_id":"levelo_inurba_marseille","lat":43.31327,"lon":5.42411,"is_reserved":false,"is_disabled":false,"rental_uris":{"android":"levelo://app?vid=b5225d9b-2e1e-4060-9ca2-c709e98a1ccf","ios":"levelo://app?vid=b5225d9b-2e1e-4060-9ca2-c709e98a1ccf"},"vehicle_type_id":"4","last_reported":1779186596,"current_range_meters":8800,"station_id":"","pricing_plan_id":"cebpf4jnsgd1na2vs0mg"},{"bike_id":"bd4d89de-cc54-4b2f-a6c3-a00399faaf0f","system_id":"levelo_inurba_marseille","lat":43.27081,"lon":5.42244,"is_reserved":false,"is_disabled":false,"rental_uris":{"android":"levelo://app?vid=bd4d89de-cc54-4b2f-a6c3-a00399faaf0f","ios":"levelo://app?vid=bd4d89de-cc54-4b2f-a6c3-a00399faaf0f"},"vehicle_type_id":"4","last_reported":1779186596,"current_range_meters":9200,"station_id":"ce4bhk92rcd13ifvqgb0","pricing_plan_id":"cebpf4jnsgd1na2vs0mg"},{"bike_id":"ebca06cf-98a9-457c-8ee9-bd451803af87","system_id":"levelo_inurba_marseille","lat":43.26237,"lon":5.37885,"is_reserved":false,"is_disabled":false,"rental_uris":{"android":"levelo://app?vid=ebca06cf-98a9-457c-8ee9-bd451803af87","ios":"levelo://app?vid=ebca06cf-98a9-457c-8ee9-bd451803af87"},"vehicle_type_id":"4","last_reported":1779186596,"current_range_meters":9200,"station_id":"ce4bhjp2rcd13ifvqg90","pricing_plan_id":"cebpf4jnsgd1na2vs0mg"},{"bike_id":"e284a596-af04-4e1b-bc7f-7a8940695271","system_id":"levelo_inurba_marseille","lat":43.272,"lon":5.39167,"is_reserved":false,"is_disabled":false,"rental_uris":{"android":"levelo://app?vid=e284a596-af04-4e1b-bc7f-7a8940695271","ios":"levelo://app?vid=e284a596-af04-4e1b-bc7f-7a8940695271"},"vehicle_type_id":"4","last_reported":1779186596,"current_range_meters":9200,"station_id":"ce4bhhp2rcd13ifvqfm0","pricing_plan_id":"cebpf4jnsgd1na2vs0mg"},{"bike_id":"1b4d6b40-a210-44c0-a634-f0b8e27385fe","system_id":"levelo_inurba_marseille","lat":43.30028,"lon":5.36407,"is_reserved":false,"is_disabled":false,"rental_uris":{"android":"levelo://app?vid=1b4d6b40-a210-44c0-a634-f0b8e27385fe","ios":"levelo://app?vid=1b4d6b40-a210-44c0-a634-f0b8e27385fe"},"vehicle_type_id":"4","last_reported":1779186596,"current_range_meters":9200,"station_id":"","pricing_plan_id":"cebpf4jnsgd1na2vs0mg"},{"bike_id":"d2abe37c-883e-4b78-abe7-962a451ef821","system_id":"levelo_inurba_marseille","lat":43.28612,"lon":5.35106,"is_reserved":false,"is_disabled":false,"rental_uris":{"android":"levelo://app?vid=d2abe37c-883e-4b78-abe7-962a451ef821","ios":"levelo://app?vid=d2abe37c-883e-4b78-abe7-962a451ef821"},"vehicle_type_id":"4","last_reported":1779186596,"current_range_meters":9200,"station_id":"ce4bhch2rcd13ifvqeug","pricing_plan_id":"cebpf4jnsgd1na2vs0mg"},{"bike_id":"bd1eedc4-b5fc-4649-aa2a-cda02ea5977a","system_id":"levelo_inurba_marseille","lat":43.27202,"lon":5.39181,"is_reserved":false,"is_disabled":false,"rental_uris":{"android":"levelo://app?vid=bd1eedc4-b5fc-4649-aa2a-cda02ea5977a","ios":"levelo://app?vid=bd1eedc4-b5fc-4649-aa2a-cda02ea5977a"},"vehicle_type_id":"4","last_reported":1779186596,"current_range_meters":9200,"station_id":"ce4bhhp2rcd13ifvqfm0","pricing_plan_id":"cebpf4jnsgd1na2vs0mg"},{"bike_id":"e22890ca-9c74-4f11-a936-346ad4997718","system_id":"levelo_inurba_marseille","lat":43.31207,"lon":5.36853,"is_reserved":false,"is_disabled":false,"rental_uris":{"android":"levelo://app?vid=e22890ca-9c74-4f11-a936-346ad4997718","ios":"levelo://app?vid=e22890ca-9c74-4f11-a936-346ad4997718"},"vehicle_type_id":"4","last_reported":1779186596,"current_range_meters":9200,"station_id":"ce4bgl92rcd13ifvqbq0","pricing_plan_id":"cebpf4jnsgd1na2vs0mg"},{"bike_id":"46be8dd3-948b-467e-ad94-fd338307b9c7","system_id":"levelo_inurba_marseille","lat":43.29951,"lon":5.36769,"is_reserved":false,"is_disabled":false,"rental_uris":{"android":"levelo://app?vid=46be8dd3-948b-467e-ad94-fd338307b9c7","ios":"levelo://app?vid=46be8dd3-948b-467e-ad94-fd338307b9c7"},"vehicle_type_id":"4","last_reported":1779186596,"current_range_meters":9200,"station_id":"","pricing_plan_id":"cebpf4jnsgd1na2vs0mg"},{"bike_id":"9dd3a3e0-ebb6-4455-ba40-928c0ffab724","system_id":"levelo_inurba_marseille","lat":43.337444,"lon":5.374475,"is_reserved":false,"is_disabled":false,"rental_uris":{"android":"levelo://app?vid=9dd3a3e0-ebb6-4455-ba40-928c0ffab724","ios":"levelo://app?vid=9dd3a3e0-ebb6-4455-ba40-928c0ffab724"},"vehicle_type_id":"4","last_reported":1779186596,"current_range_meters":9200,"station_id":"","pricing_plan_id":"cebpf4jnsgd1na2vs0mg"},{"bike_id":"9cdf25a3-b061-4a6c-b0d7-a7fc5238edf0","system_id":"levelo_inurba_marseille","lat":43.21213,"lon":5.35034,"is_reserved":false,"is_disabled":false,"rental_uris":{"android":"levelo://app?vid=9cdf25a3-b061-4a6c-b0d7-a7fc5238edf0","ios":"levelo://app?vid=9cdf25a3-b061-4a6c-b0d7-a7fc5238edf0"},"vehicle_type_id":"4","last_reported":1779186596,"current_range_meters":9200,"station_id":"","pricing_plan_id":"cebpf4jnsgd1na2vs0mg"},{"bike_id":"629d6bcb-91f0-4ae2-9282-59e0c256b391","system_id":"levelo_inurba_marseille","lat":43.32354,"lon":5.36764,"is_reserved":false,"is_disabled":false,"rental_uris":{"android":"levelo://app?vid=629d6bcb-91f0-4ae2-9282-59e0c256b391","ios":"levelo://app?vid=629d6bcb-91f0-4ae2-9282-59e0c256b391"},"vehicle_type_id":"4","last_reported":1779186596,"current_range_meters":9200,"station_id":"ce4bhsh2rcd13ifvqi2g","pricing_plan_id":"cebpf4jnsgd1na2vs0mg"},{"bike_id":"e35ca50a-e252-4fec-af7a-48a17bebc951","system_id":"levelo_inurba_marseille","lat":43.295856,"lon":5.375158,"is_reserved":false,"is_disabled":false,"rental_uris":{"android":"levelo://app?vid=e35ca50a-e252-4fec-af7a-48a17bebc951","ios":"levelo://app?vid=e35ca50a-e252-4fec-af7a-48a17bebc951"},"vehicle_type_id":"4","last_reported":1779186596,"current_range_meters":9200,"station_id":"ce4bgh92rcd13ifvqb50","pricing_plan_id":"cebpf4jnsgd1na2vs0mg"},{"bike_id":"467f2577-a157-4294-b37b-036b7dea9362","system_id":"levelo_inurba_marseille","lat":43.29312,"lon":5.37214,"is_reserved":false,"is_disabled":false,"rental_uris":{"android":"levelo://app?vid=467f2577-a157-4294-b37b-036b7dea9362","ios":"levelo://app?vid=467f2577-a157-4294-b37b-036b7dea9362"},"vehicle_type_id":"4","last_reported":1779186596,"current_range_meters":9200,"station_id":"ce4bgh92rcd13ifvqb40","pricing_plan_id":"cebpf4jnsgd1na2vs0mg"},{"bike_id":"b69ac1f5-7b1d-4eab-bdac-c51273c296d3","system_id":"levelo_inurba_marseille","lat":43.2174,"lon":5.34601,"is_reserved":false,"is_disabled":false,"rental_uris":{"android":"levelo://app?vid=b69ac1f5-7b1d-4eab-bdac-c51273c296d3","ios":"levelo://app?vid=b69ac1f5-7b1d-4eab-bdac-c51273c296d3"},"vehicle_type_id":"4","last_reported":1779186596,"current_range_meters":9200,"station_id":"st_cvj6r9ubvosntc0bgbag","pricing_plan_id":"cebpf4jnsgd1na2vs0mg"},{"bike_id":"68056310-59cd-4583-ae2b-d932e3e6e7ff","system_id":"levelo_inurba_marseille","lat":43.2733,"lon":5.39073,"is_reserved":false,"is_disabled":false,"rental_uris":{"android":"levelo://app?vid=68056310-59cd-4583-ae2b-d932e3e6e7ff","ios":"levelo://app?vid=68056310-59cd-4583-ae2b-d932e3e6e7ff"},"vehicle_type_id":"4","last_reported":1779186596,"current_range_meters":9600,"station_id":"ce4bhgp2rcd13ifvqfe0","pricing_plan_id":"cebpf4jnsgd1na2vs0mg"},{"bike_id":"5658a232-00b9-4310-a407-2a5519e85aa0","system_id":"levelo_inurba_marseille","lat":43.31369,"lon":5.38499,"is_reserved":false,"is_disabled":false,"rental_uris":{"android":"levelo://app?vid=5658a232-00b9-4310-a407-2a5519e85aa0","ios":"levelo://app?vid=5658a232-00b9-4310-a407-2a5519e85aa0"},"vehicle_type_id":"4","last_reported":1779186596,"current_range_meters":9600,"station_id":"ce4bgt92rcd13ifvqcf0","pricing_plan_id":"cebpf4jnsgd1na2vs0mg"},{"bike_id":"c9c8477c-0366-474a-bd3e-4479e682cbea","system_id":"levelo_inurba_marseille","lat":43.2605,"lon":5.3938,"is_reserved":false,"is_disabled":false,"rental_uris":{"android":"levelo://app?vid=c9c8477c-0366-474a-bd3e-4479e682cbea","ios":"levelo://app?vid=c9c8477c-0366-474a-bd3e-4479e682cbea"},"vehicle_type_id":"4","last_reported":1779186596,"current_range_meters":9600,"station_id":"ce4bhh92rcd13ifvqfj0","pricing_plan_id":"cebpf4jnsgd1na2vs0mg"},{"bike_id":"c53ae9d2-5de1-4fa9-9df1-d3d4d6f01520","system_id":"levelo_inurba_marseille","lat":43.272072,"lon":5.391795,"is_reserved":false,"is_disabled":false,"rental_uris":{"android":"levelo://app?vid=c53ae9d2-5de1-4fa9-9df1-d3d4d6f01520","ios":"levelo://app?vid=c53ae9d2-5de1-4fa9-9df1-d3d4d6f01520"},"vehicle_type_id":"4","last_reported":1779186596,"current_range_meters":9600,"station_id":"ce4bhhp2rcd13ifvqfm0","pricing_plan_id":"cebpf4jnsgd1na2vs0mg"},{"bike_id":"eddc2000-daaa-4830-9cb2-7762df767b43","system_id":"levelo_inurba_marseille","lat":43.23199,"lon":5.3997,"is_reserved":false,"is_disabled":false,"rental_uris":{"android":"levelo://app?vid=eddc2000-daaa-4830-9cb2-7762df767b43","ios":"levelo://app?vid=eddc2000-daaa-4830-9cb2-7762df767b43"},"vehicle_type_id":"4","last_reported":1779186596,"current_range_meters":9600,"station_id":"ce4bhn12rcd13ifvqgqg","pricing_plan_id":"cebpf4jnsgd1na2vs0mg"},{"bike_id":"d33c1d16-9b36-4ab5-864e-fe3808a2b4ab","system_id":"levelo_inurba_marseille","lat":43.29297,"lon":5.40114,"is_reserved":false,"is_disabled":false,"rental_uris":{"android":"levelo://app?vid=d33c1d16-9b36-4ab5-864e-fe3808a2b4ab","ios":"levelo://app?vid=d33c1d16-9b36-4ab5-864e-fe3808a2b4ab"},"vehicle_type_id":"4","last_reported":1779186596,"current_range_meters":9600,"station_id":"ce4bh312rcd13ifvqdk0","pricing_plan_id":"cebpf4jnsgd1na2vs0mg"},{"bike_id":"3fdb8235-6771-4039-83a2-0b935e39a62d","system_id":"levelo_inurba_marseille","lat":43.31358,"lon":5.36739,"is_reserved":false,"is_disabled":false,"rental_uris":{"android":"levelo://app?vid=3fdb8235-6771-4039-83a2-0b935e39a62d","ios":"levelo://app?vid=3fdb8235-6771-4039-83a2-0b935e39a62d"},"vehicle_type_id":"4","last_reported":1779186596,"current_range_meters":9600,"station_id":"ce4bgr92rcd13ifvqc6g","pricing_plan_id":"cebpf4jnsgd1na2vs0mg"},{"bike_id":"a7b91a98-37a9-4e86-8c32-6387f8155628","system_id":"levelo_inurba_marseille","lat":43.30533,"lon":5.36521,"is_reserved":false,"is_disabled":false,"rental_uris":{"android":"levelo://app?vid=a7b91a98-37a9-4e86-8c32-6387f8155628","ios":"levelo://app?vid=a7b91a98-37a9-4e86-8c32-6387f8155628"},"vehicle_type_id":"4","last_reported":1779186596,"current_range_meters":9600,"station_id":"ce4bgs12rcd13ifvqcag","pricing_plan_id":"cebpf4jnsgd1na2vs0mg"},{"bike_id":"5695e633-9453-418b-ab50-42bb02719f92","system_id":"levelo_inurba_marseille","lat":43.27196,"lon":5.39176,"is_reserved":false,"is_disabled":true,"rental_uris":{"android":"levelo://app?vid=5695e633-9453-418b-ab50-42bb02719f92","ios":"levelo://app?vid=5695e633-9453-418b-ab50-42bb02719f92"},"vehicle_type_id":"4","last_reported":1779186596,"current_range_meters":9600,"station_id":"ce4bhhp2rcd13ifvqfm0","pricing_plan_id":"cebpf4jnsgd1na2vs0mg"},{"bike_id":"04dc2720-a1eb-4520-a533-921b2fb8f821","system_id":"levelo_inurba_marseille","lat":43.24453,"lon":5.42524,"is_reserved":false,"is_disabled":false,"rental_uris":{"android":"levelo://app?vid=04dc2720-a1eb-4520-a533-921b2fb8f821","ios":"levelo://app?vid=04dc2720-a1eb-4520-a533-921b2fb8f821"},"vehicle_type_id":"4","last_reported":1779186596,"current_range_meters":9600,"station_id":"st_d4a3vfp97mjs738cd8kg","pricing_plan_id":"cebpf4jnsgd1na2vs0mg"},{"bike_id":"20db6a4b-4a71-4e1a-8a19-3c1e7987b257","system_id":"levelo_inurba_marseille","lat":43.29053,"lon":5.42424,"is_reserved":false,"is_disabled":false,"rental_uris":{"android":"levelo://app?vid=20db6a4b-4a71-4e1a-8a19-3c1e7987b257","ios":"levelo://app?vid=20db6a4b-4a71-4e1a-8a19-3c1e7987b257"},"vehicle_type_id":"4","last_reported":1779186596,"current_range_meters":9600,"station_id":"","pricing_plan_id":"cebpf4jnsgd1na2vs0mg"},{"bike_id":"25f4d232-e7ae-44b1-996d-15cdcfa11abe","system_id":"levelo_inurba_marseille","lat":43.27081,"lon":5.42266,"is_reserved":false,"is_disabled":false,"rental_uris":{"android":"levelo://app?vid=25f4d232-e7ae-44b1-996d-15cdcfa11abe","ios":"levelo://app?vid=25f4d232-e7ae-44b1-996d-15cdcfa11abe"},"vehicle_type_id":"4","last_reported":1779186596,"current_range_meters":9600,"station_id":"ce4bhk92rcd13ifvqgb0","pricing_plan_id":"cebpf4jnsgd1na2vs0mg"},{"bike_id":"025eb3fa-bbd0-4795-926b-051e5c37322d","system_id":"levelo_inurba_marseille","lat":43.28861,"lon":5.42527,"is_reserved":false,"is_disabled":false,"rental_uris":{"android":"levelo://app?vid=025eb3fa-bbd0-4795-926b-051e5c37322d","ios":"levelo://app?vid=025eb3fa-bbd0-4795-926b-051e5c37322d"},"vehicle_type_id":"4","last_reported":1779186596,"current_range_meters":9600,"station_id":"st_d3b462108ojc7389ooeg","pricing_plan_id":"cebpf4jnsgd1na2vs0mg"},{"bike_id":"b93dd3fa-5dd3-41f3-92e5-7475d23e9642","system_id":"levelo_inurba_marseille","lat":43.31989,"lon":5.41435,"is_reserved":false,"is_disabled":false,"rental_uris":{"android":"levelo://app?vid=b93dd3fa-5dd3-41f3-92e5-7475d23e9642","ios":"levelo://app?vid=b93dd3fa-5dd3-41f3-92e5-7475d23e9642"},"vehicle_type_id":"4","last_reported":1779186596,"current_range_meters":10000,"station_id":"","pricing_plan_id":"cebpf4jnsgd1na2vs0mg"},{"bike_id":"06f88f69-28df-4b72-a658-6ec0f1fc98f0","system_id":"levelo_inurba_marseille","lat":43.30523,"lon":5.36706,"is_reserved":false,"is_disabled":false,"rental_uris":{"android":"levelo://app?vid=06f88f69-28df-4b72-a658-6ec0f1fc98f0","ios":"levelo://app?vid=06f88f69-28df-4b72-a658-6ec0f1fc98f0"},"vehicle_type_id":"4","last_reported":1779186596,"current_range_meters":10000,"station_id":"ce4bgrp2rcd13ifvqc9g","pricing_plan_id":"cebpf4jnsgd1na2vs0mg"},{"bike_id":"426ce6ae-39c1-4047-9d40-7c0b6a368a9a","system_id":"levelo_inurba_marseille","lat":43.23898,"lon":5.37451,"is_reserved":false,"is_disabled":false,"rental_uris":{"android":"levelo://app?vid=426ce6ae-39c1-4047-9d40-7c0b6a368a9a","ios":"levelo://app?vid=426ce6ae-39c1-4047-9d40-7c0b6a368a9a"},"vehicle_type_id":"4","last_reported":1779186596,"current_range_meters":10000,"station_id":"st_d6sm7csbq4hs73f8fpjg","pricing_plan_id":"cebpf4jnsgd1na2vs0mg"},{"bike_id":"06959cf0-3788-4a8f-9d0b-8ccc63857672","system_id":"levelo_inurba_marseille","lat":43.28504,"lon":5.3856,"is_reserved":false,"is_disabled":false,"rental_uris":{"android":"levelo://app?vid=06959cf0-3788-4a8f-9d0b-8ccc63857672","ios":"levelo://app?vid=06959cf0-3788-4a8f-9d0b-8ccc63857672"},"vehicle_type_id":"4","last_reported":1779186596,"current_range_meters":10000,"station_id":"ce4bh8p2rcd13ifvqeb0","pricing_plan_id":"cebpf4jnsgd1na2vs0mg"},{"bike_id":"75fa0501-7457-4f00-94ad-ff5da4435dc1","system_id":"levelo_inurba_marseille","lat":43.30531,"lon":5.36712,"is_reserved":false,"is_disabled":false,"rental_uris":{"android":"levelo://app?vid=75fa0501-7457-4f00-94ad-ff5da4435dc1","ios":"levelo://app?vid=75fa0501-7457-4f00-94ad-ff5da4435dc1"},"vehicle_type_id":"4","last_reported":1779186596,"current_range_meters":10000,"station_id":"ce4bgrp2rcd13ifvqc9g","pricing_plan_id":"cebpf4jnsgd1na2vs0mg"},{"bike_id":"a66ea54b-df4e-4606-b27b-3174464fb2d1","system_id":"levelo_inurba_marseille","lat":43.29249,"lon":5.37612,"is_reserved":false,"is_disabled":false,"rental_uris":{"android":"levelo://app?vid=a66ea54b-df4e-4606-b27b-3174464fb2d1","ios":"levelo://app?vid=a66ea54b-df4e-4606-b27b-3174464fb2d1"},"vehicle_type_id":"4","last_reported":1779186596,"current_range_meters":10000,"station_id":"ce4bgi12rcd13ifvqb80","pricing_plan_id":"cebpf4jnsgd1na2vs0mg"},{"bike_id":"c5310c86-5da0-4501-95d6-2d1c062454a2","system_id":"levelo_inurba_marseille","lat":43.23134,"lon":5.43735,"is_reserved":false,"is_disabled":false,"rental_uris":{"android":"levelo://app?vid=c5310c86-5da0-4501-95d6-2d1c062454a2","ios":"levelo://app?vid=c5310c86-5da0-4501-95d6-2d1c062454a2"},"vehicle_type_id":"4","last_reported":1779186596,"current_range_meters":10000,"station_id":"ce4bhmp2rcd13ifvqgog","pricing_plan_id":"cebpf4jnsgd1na2vs0mg"},{"bike_id":"d2678636-1d3e-4337-8892-f1321008135c","system_id":"levelo_inurba_marseille","lat":43.29878,"lon":5.42081,"is_reserved":false,"is_disabled":false,"rental_uris":{"android":"levelo://app?vid=d2678636-1d3e-4337-8892-f1321008135c","ios":"levelo://app?vid=d2678636-1d3e-4337-8892-f1321008135c"},"vehicle_type_id":"4","last_reported":1779186596,"current_range_meters":10000,"station_id":"st_d6tc004otcvc738tfe70","pricing_plan_id":"cebpf4jnsgd1na2vs0mg"},{"bike_id":"c202bc15-6fd2-4b5b-b9f8-fe2a7981a9a0","system_id":"levelo_inurba_marseille","lat":43.2332,"lon":5.35906,"is_reserved":false,"is_disabled":false,"rental_uris":{"android":"levelo://app?vid=c202bc15-6fd2-4b5b-b9f8-fe2a7981a9a0","ios":"levelo://app?vid=c202bc15-6fd2-4b5b-b9f8-fe2a7981a9a0"},"vehicle_type_id":"4","last_reported":1779186596,"current_range_meters":10000,"station_id":"","pricing_plan_id":"cebpf4jnsgd1na2vs0mg"},{"bike_id":"f01cd878-6d0d-444c-8cf1-6263e8dc7c16","system_id":"levelo_inurba_marseille","lat":43.28562,"lon":5.39507,"is_reserved":false,"is_disabled":false,"rental_uris":{"android":"levelo://app?vid=f01cd878-6d0d-444c-8cf1-6263e8dc7c16","ios":"levelo://app?vid=f01cd878-6d0d-444c-8cf1-6263e8dc7c16"},"vehicle_type_id":"4","last_reported":1779186596,"current_range_meters":10000,"station_id":"ce4bh292rcd13ifvqdg0","pricing_plan_id":"cebpf4jnsgd1na2vs0mg"},{"bike_id":"d32e8211-a502-498a-b893-dac2c80e5e02","system_id":"levelo_inurba_marseille","lat":43.3189,"lon":5.36802,"is_reserved":false,"is_disabled":false,"rental_uris":{"android":"levelo://app?vid=d32e8211-a502-498a-b893-dac2c80e5e02","ios":"levelo://app?vid=d32e8211-a502-498a-b893-dac2c80e5e02"},