{"last_updated":1784231687,"ttl":60,"version":"2.2","data":{"bikes":[{"bike_id":"ba0c28b1-8732-48e2-8079-f25b2b3fbc3c","system_id":"levelo_inurba_marseille","lat":43.337444,"lon":5.374475,"is_reserved":false,"is_disabled":false,"rental_uris":{"android":"levelo://app?vid=ba0c28b1-8732-48e2-8079-f25b2b3fbc3c","ios":"levelo://app?vid=ba0c28b1-8732-48e2-8079-f25b2b3fbc3c"},"vehicle_type_id":"4","last_reported":1784231688,"current_range_meters":0,"station_id":"","pricing_plan_id":"cebpf4jnsgd1na2vs0mg"},{"bike_id":"7e0734e9-3f12-4f45-acaa-b4495153c621","system_id":"levelo_inurba_marseille","lat":43.26402,"lon":5.41076,"is_reserved":false,"is_disabled":false,"rental_uris":{"android":"levelo://app?vid=7e0734e9-3f12-4f45-acaa-b4495153c621","ios":"levelo://app?vid=7e0734e9-3f12-4f45-acaa-b4495153c621"},"vehicle_type_id":"4","last_reported":1784231688,"current_range_meters":39200,"station_id":"st_d4e5ca6na9uc73bfl5fg","pricing_plan_id":"cebpf4jnsgd1na2vs0mg"},{"bike_id":"91e44ead-433c-4788-aa52-7f232544dce5","system_id":"levelo_inurba_marseille","lat":43.23894,"lon":5.37467,"is_reserved":false,"is_disabled":false,"rental_uris":{"android":"levelo://app?vid=91e44ead-433c-4788-aa52-7f232544dce5","ios":"levelo://app?vid=91e44ead-433c-4788-aa52-7f232544dce5"},"vehicle_type_id":"4","last_reported":1784231688,"current_range_meters":25200,"station_id":"st_d6sm7csbq4hs73f8fpjg","pricing_plan_id":"cebpf4jnsgd1na2vs0mg"},{"bike_id":"76b63993-96f7-484a-8343-5ea3ca2d69bf","system_id":"levelo_inurba_marseille","lat":43.27452,"lon":5.36141,"is_reserved":false,"is_disabled":false,"rental_uris":{"android":"levelo://app?vid=76b63993-96f7-484a-8343-5ea3ca2d69bf","ios":"levelo://app?vid=76b63993-96f7-484a-8343-5ea3ca2d69bf"},"vehicle_type_id":"4","last_reported":1784231688,"current_range_meters":30800,"station_id":"","pricing_plan_id":"cebpf4jnsgd1na2vs0mg"},{"bike_id":"52d02df3-2acc-420f-a514-f78bd2291b10","system_id":"levelo_inurba_marseille","lat":43.2985,"lon":5.36289,"is_reserved":false,"is_disabled":false,"rental_uris":{"android":"levelo://app?vid=52d02df3-2acc-420f-a514-f78bd2291b10","ios":"levelo://app?vid=52d02df3-2acc-420f-a514-f78bd2291b10"},"vehicle_type_id":"4","last_reported":1784231688,"current_range_meters":25200,"station_id":"ce4bgpp2rcd13ifvqc3g","pricing_plan_id":"cebpf4jnsgd1na2vs0mg"},{"bike_id":"93f62aaf-97ab-422a-99e3-4c99e240ad11","system_id":"levelo_inurba_marseille","lat":43.2657,"lon":5.39004,"is_reserved":false,"is_disabled":true,"rental_uris":{"android":"levelo://app?vid=93f62aaf-97ab-422a-99e3-4c99e240ad11","ios":"levelo://app?vid=93f62aaf-97ab-422a-99e3-4c99e240ad11"},"vehicle_type_id":"4","last_reported":1784231688,"current_range_meters":38000,"station_id":"ce4bhe12rcd13ifvqf30","pricing_plan_id":"cebpf4jnsgd1na2vs0mg"},{"bike_id":"45d92e42-3e6e-485e-9107-24d40af3f46c","system_id":"levelo_inurba_marseille","lat":43.28436,"lon":5.38423,"is_reserved":false,"is_disabled":false,"rental_uris":{"android":"levelo://app?vid=45d92e42-3e6e-485e-9107-24d40af3f46c","ios":"levelo://app?vid=45d92e42-3e6e-485e-9107-24d40af3f46c"},"vehicle_type_id":"4","last_reported":1784231688,"current_range_meters":32800,"station_id":"ce4bh512rcd13ifvqe3g","pricing_plan_id":"cebpf4jnsgd1na2vs0mg"},{"bike_id":"db8bd5d3-bb99-4688-8de3-0b156a227ffe","system_id":"levelo_inurba_marseille","lat":43.29926,"lon":5.37447,"is_reserved":false,"is_disabled":true,"rental_uris":{"android":"levelo://app?vid=db8bd5d3-bb99-4688-8de3-0b156a227ffe","ios":"levelo://app?vid=db8bd5d3-bb99-4688-8de3-0b156a227ffe"},"vehicle_type_id":"4","last_reported":1784231688,"current_range_meters":12000,"station_id":"ce4bgjh2rcd13ifvqbg0","pricing_plan_id":"cebpf4jnsgd1na2vs0mg"},{"bike_id":"d749523d-f93c-49d0-8009-b305dd6d3874","system_id":"levelo_inurba_marseille","lat":43.25087,"lon":5.39531,"is_reserved":false,"is_disabled":false,"rental_uris":{"android":"levelo://app?vid=d749523d-f93c-49d0-8009-b305dd6d3874","ios":"levelo://app?vid=d749523d-f93c-49d0-8009-b305dd6d3874"},"vehicle_type_id":"4","last_reported":1784231688,"current_range_meters":24400,"station_id":"ce4bhm12rcd13ifvqgkg","pricing_plan_id":"cebpf4jnsgd1na2vs0mg"},{"bike_id":"99e608ad-7458-41a9-a4fb-5c178aba9537","system_id":"levelo_inurba_marseille","lat":43.290171,"lon":5.381229,"is_reserved":false,"is_disabled":false,"rental_uris":{"android":"levelo://app?vid=99e608ad-7458-41a9-a4fb-5c178aba9537","ios":"levelo://app?vid=99e608ad-7458-41a9-a4fb-5c178aba9537"},"vehicle_type_id":"4","last_reported":1784231688,"current_range_meters":38800,"station_id":"ce4bh4p2rcd13ifvqe1g","pricing_plan_id":"cebpf4jnsgd1na2vs0mg"},{"bike_id":"e71494cd-d4a8-436a-a5c6-260a2924500e","system_id":"levelo_inurba_marseille","lat":43.2623,"lon":5.38766,"is_reserved":false,"is_disabled":true,"rental_uris":{"android":"levelo://app?vid=e71494cd-d4a8-436a-a5c6-260a2924500e","ios":"levelo://app?vid=e71494cd-d4a8-436a-a5c6-260a2924500e"},"vehicle_type_id":"4","last_reported":1784231688,"current_range_meters":33600,"station_id":"st_d8gjfg747rts73coq3b0","pricing_plan_id":"cebpf4jnsgd1na2vs0mg"},{"bike_id":"4dd83e35-73dd-44b8-9d3c-9c21e3418d4e","system_id":"levelo_inurba_marseille","lat":43.27482,"lon":5.42539,"is_reserved":false,"is_disabled":false,"rental_uris":{"android":"levelo://app?vid=4dd83e35-73dd-44b8-9d3c-9c21e3418d4e","ios":"levelo://app?vid=4dd83e35-73dd-44b8-9d3c-9c21e3418d4e"},"vehicle_type_id":"4","last_reported":1784231688,"current_range_meters":17200,"station_id":"st_d8t4bh7nbrqs73arha60","pricing_plan_id":"cebpf4jnsgd1na2vs0mg"},{"bike_id":"013ea336-d828-44ac-a5f7-5f3385c8a12f","system_id":"levelo_inurba_marseille","lat":43.29184,"lon":5.3839,"is_reserved":false,"is_disabled":false,"rental_uris":{"android":"levelo://app?vid=013ea336-d828-44ac-a5f7-5f3385c8a12f","ios":"levelo://app?vid=013ea336-d828-44ac-a5f7-5f3385c8a12f"},"vehicle_type_id":"4","last_reported":1784231688,"current_range_meters":12000,"station_id":"","pricing_plan_id":"cebpf4jnsgd1na2vs0mg"},{"bike_id":"d6057eb2-9bb7-4bbb-9d1a-c165943bae0a","system_id":"levelo_inurba_marseille","lat":43.23965,"lon":5.36631,"is_reserved":false,"is_disabled":false,"rental_uris":{"android":"levelo://app?vid=d6057eb2-9bb7-4bbb-9d1a-c165943bae0a","ios":"levelo://app?vid=d6057eb2-9bb7-4bbb-9d1a-c165943bae0a"},"vehicle_type_id":"4","last_reported":1784231688,"current_range_meters":25200,"station_id":"ce4bhi12rcd13ifvqfp0","pricing_plan_id":"cebpf4jnsgd1na2vs0mg"},{"bike_id":"5369b032-dcc5-484a-9b18-671fceb20e9f","system_id":"levelo_inurba_marseille","lat":43.24993,"lon":5.38914,"is_reserved":false,"is_disabled":false,"rental_uris":{"android":"levelo://app?vid=5369b032-dcc5-484a-9b18-671fceb20e9f","ios":"levelo://app?vid=5369b032-dcc5-484a-9b18-671fceb20e9f"},"vehicle_type_id":"4","last_reported":1784231688,"current_range_meters":24400,"station_id":"ce4bhgp2rcd13ifvqfd0","pricing_plan_id":"cebpf4jnsgd1na2vs0mg"},{"bike_id":"1f7acc7c-2ab4-41d2-854c-aaccf040f2f5","system_id":"levelo_inurba_marseille","lat":43.27374,"lon":5.36258,"is_reserved":false,"is_disabled":false,"rental_uris":{"android":"levelo://app?vid=1f7acc7c-2ab4-41d2-854c-aaccf040f2f5","ios":"levelo://app?vid=1f7acc7c-2ab4-41d2-854c-aaccf040f2f5"},"vehicle_type_id":"4","last_reported":1784231688,"current_range_meters":30000,"station_id":"ce4bhbh2rcd13ifvqeo0","pricing_plan_id":"cebpf4jnsgd1na2vs0mg"},{"bike_id":"daf11da9-09e4-45d4-814b-e16971bc59a4","system_id":"levelo_inurba_marseille","lat":43.27966,"lon":5.38791,"is_reserved":false,"is_disabled":true,"rental_uris":{"android":"levelo://app?vid=daf11da9-09e4-45d4-814b-e16971bc59a4","ios":"levelo://app?vid=daf11da9-09e4-45d4-814b-e16971bc59a4"},"vehicle_type_id":"4","last_reported":1784231688,"current_range_meters":28400,"station_id":"ce4bhg12rcd13ifvqf80","pricing_plan_id":"cebpf4jnsgd1na2vs0mg"},{"bike_id":"b18b5cc5-c2c4-4e56-877f-2a2014faddb6","system_id":"levelo_inurba_marseille","lat":43.3026,"lon":5.40084,"is_reserved":false,"is_disabled":false,"rental_uris":{"android":"levelo://app?vid=b18b5cc5-c2c4-4e56-877f-2a2014faddb6","ios":"levelo://app?vid=b18b5cc5-c2c4-4e56-877f-2a2014faddb6"},"vehicle_type_id":"4","last_reported":1784231688,"current_range_meters":9200,"station_id":"ce4bgvh2rcd13ifvqcs0","pricing_plan_id":"cebpf4jnsgd1na2vs0mg"},{"bike_id":"ea3e03c4-4dd6-4479-b8b4-8fd80bfdda8e","system_id":"levelo_inurba_marseille","lat":43.27057,"lon":5.38276,"is_reserved":false,"is_disabled":false,"rental_uris":{"android":"levelo://app?vid=ea3e03c4-4dd6-4479-b8b4-8fd80bfdda8e","ios":"levelo://app?vid=ea3e03c4-4dd6-4479-b8b4-8fd80bfdda8e"},"vehicle_type_id":"4","last_reported":1784231688,"current_range_meters":35200,"station_id":"st_d3n2fo6cfp8s73cte1j0","pricing_plan_id":"cebpf4jnsgd1na2vs0mg"},{"bike_id":"37f15c56-f095-4dde-83d3-449d05f552eb","system_id":"levelo_inurba_marseille","lat":43.28591,"lon":5.38503,"is_reserved":false,"is_disabled":false,"rental_uris":{"android":"levelo://app?vid=37f15c56-f095-4dde-83d3-449d05f552eb","ios":"levelo://app?vid=37f15c56-f095-4dde-83d3-449d05f552eb"},"vehicle_type_id":"4","last_reported":1784231688,"current_range_meters":14000,"station_id":"","pricing_plan_id":"cebpf4jnsgd1na2vs0mg"},{"bike_id":"8c691d7a-4d6a-44b5-9ca9-8ad0c4f58584","system_id":"levelo_inurba_marseille","lat":43.27211,"lon":5.40998,"is_reserved":false,"is_disabled":false,"rental_uris":{"android":"levelo://app?vid=8c691d7a-4d6a-44b5-9ca9-8ad0c4f58584","ios":"levelo://app?vid=8c691d7a-4d6a-44b5-9ca9-8ad0c4f58584"},"vehicle_type_id":"4","last_reported":1784231688,"current_range_meters":19600,"station_id":"ce4bhl12rcd13ifvqgf0","pricing_plan_id":"cebpf4jnsgd1na2vs0mg"},{"bike_id":"ada5ede5-dd70-42a1-a577-f47697f62c7e","system_id":"levelo_inurba_marseille","lat":43.30101,"lon":5.39077,"is_reserved":false,"is_disabled":false,"rental_uris":{"android":"levelo://app?vid=ada5ede5-dd70-42a1-a577-f47697f62c7e","ios":"levelo://app?vid=ada5ede5-dd70-42a1-a577-f47697f62c7e"},"vehicle_type_id":"4","last_reported":1784231688,"current_range_meters":39200,"station_id":"ce4bh192rcd13ifvqdb0","pricing_plan_id":"cebpf4jnsgd1na2vs0mg"},{"bike_id":"508a38b7-cb09-4051-819b-6ddfe0f50522","system_id":"levelo_inurba_marseille","lat":43.30597,"lon":5.37215,"is_reserved":false,"is_disabled":true,"rental_uris":{"android":"levelo://app?vid=508a38b7-cb09-4051-819b-6ddfe0f50522","ios":"levelo://app?vid=508a38b7-cb09-4051-819b-6ddfe0f50522"},"vehicle_type_id":"4","last_reported":1784231688,"current_range_meters":2000,"station_id":"ce4bgqh2rcd13ifvqc4g","pricing_plan_id":"cebpf4jnsgd1na2vs0mg"},{"bike_id":"e4064152-b01a-460a-934b-4b0ab157c51c","system_id":"levelo_inurba_marseille","lat":43.23061,"lon":5.35479,"is_reserved":false,"is_disabled":false,"rental_uris":{"android":"levelo://app?vid=e4064152-b01a-460a-934b-4b0ab157c51c","ios":"levelo://app?vid=e4064152-b01a-460a-934b-4b0ab157c51c"},"vehicle_type_id":"4","last_reported":1784231688,"current_range_meters":10800,"station_id":"cpo3342slgdg3j2ifvpg","pricing_plan_id":"cebpf4jnsgd1na2vs0mg"},{"bike_id":"4d103531-dc76-4632-9ed6-3b8eae789ecc","system_id":"levelo_inurba_marseille","lat":43.3211,"lon":5.36781,"is_reserved":false,"is_disabled":false,"rental_uris":{"android":"levelo://app?vid=4d103531-dc76-4632-9ed6-3b8eae789ecc","ios":"levelo://app?vid=4d103531-dc76-4632-9ed6-3b8eae789ecc"},"vehicle_type_id":"4","last_reported":1784231688,"current_range_meters":17600,"station_id":"ce4bhrh2rcd13ifvqhug","pricing_plan_id":"cebpf4jnsgd1na2vs0mg"},{"bike_id":"ee475902-534d-423b-8bdd-24473b177054","system_id":"levelo_inurba_marseille","lat":43.299382,"lon":5.365599,"is_reserved":false,"is_disabled":false,"rental_uris":{"android":"levelo://app?vid=ee475902-534d-423b-8bdd-24473b177054","ios":"levelo://app?vid=ee475902-534d-423b-8bdd-24473b177054"},"vehicle_type_id":"4","last_reported":1784231688,"current_range_meters":34800,"station_id":"ce4bgm92rcd13ifvqbr0","pricing_plan_id":"cebpf4jnsgd1na2vs0mg"},{"bike_id":"ef6880d0-6944-4f6a-8f40-6662368b8f75","system_id":"levelo_inurba_marseille","lat":43.31464,"lon":5.45382,"is_reserved":false,"is_disabled":false,"rental_uris":{"android":"levelo://app?vid=ef6880d0-6944-4f6a-8f40-6662368b8f75","ios":"levelo://app?vid=ef6880d0-6944-4f6a-8f40-6662368b8f75"},"vehicle_type_id":"4","last_reported":1784231688,"current_range_meters":16800,"station_id":"","pricing_plan_id":"cebpf4jnsgd1na2vs0mg"},{"bike_id":"e2d040f0-15a4-44e2-a2da-2f05e0eba601","system_id":"levelo_inurba_marseille","lat":43.29671,"lon":5.36554,"is_reserved":false,"is_disabled":false,"rental_uris":{"android":"levelo://app?vid=e2d040f0-15a4-44e2-a2da-2f05e0eba601","ios":"levelo://app?vid=e2d040f0-15a4-44e2-a2da-2f05e0eba601"},"vehicle_type_id":"4","last_reported":1784231688,"current_range_meters":40000,"station_id":"ce4bgn12rcd13ifvqbt0","pricing_plan_id":"cebpf4jnsgd1na2vs0mg"},{"bike_id":"a7046d25-98a0-470a-a205-da0b548d272d","system_id":"levelo_inurba_marseille","lat":43.28076,"lon":5.35226,"is_reserved":false,"is_disabled":false,"rental_uris":{"android":"levelo://app?vid=a7046d25-98a0-470a-a205-da0b548d272d","ios":"levelo://app?vid=a7046d25-98a0-470a-a205-da0b548d272d"},"vehicle_type_id":"4","last_reported":1784231688,"current_range_meters":19600,"station_id":"","pricing_plan_id":"cebpf4jnsgd1na2vs0mg"},{"bike_id":"5debb3c5-264e-41ad-a7cd-6b19b7b8a4da","system_id":"levelo_inurba_marseille","lat":43.28621,"lon":5.35113,"is_reserved":false,"is_disabled":false,"rental_uris":{"android":"levelo://app?vid=5debb3c5-264e-41ad-a7cd-6b19b7b8a4da","ios":"levelo://app?vid=5debb3c5-264e-41ad-a7cd-6b19b7b8a4da"},"vehicle_type_id":"4","last_reported":1784231688,"current_range_meters":10000,"station_id":"ce4bhch2rcd13ifvqeug","pricing_plan_id":"cebpf4jnsgd1na2vs0mg"},{"bike_id":"c64653f9-bf4e-46ae-875f-201323d02142","system_id":"levelo_inurba_marseille","lat":43.29852,"lon":5.36261,"is_reserved":false,"is_disabled":false,"rental_uris":{"android":"levelo://app?vid=c64653f9-bf4e-46ae-875f-201323d02142","ios":"levelo://app?vid=c64653f9-bf4e-46ae-875f-201323d02142"},"vehicle_type_id":"4","last_reported":1784231688,"current_range_meters":6800,"station_id":"ce4bgpp2rcd13ifvqc3g","pricing_plan_id":"cebpf4jnsgd1na2vs0mg"},{"bike_id":"d183c213-4177-4bf2-b9e0-24872be8a9c8","system_id":"levelo_inurba_marseille","lat":43.2849,"lon":5.48369,"is_reserved":false,"is_disabled":false,"rental_uris":{"android":"levelo://app?vid=d183c213-4177-4bf2-b9e0-24872be8a9c8","ios":"levelo://app?vid=d183c213-4177-4bf2-b9e0-24872be8a9c8"},"vehicle_type_id":"4","last_reported":1784231688,"current_range_meters":23200,"station_id":"st_d3svhcjqgbts73a3dn0g","pricing_plan_id":"cebpf4jnsgd1na2vs0mg"},{"bike_id":"6e2ade76-e215-404a-aafc-1ccb8acaf1c7","system_id":"levelo_inurba_marseille","lat":43.30293,"lon":5.39206,"is_reserved":false,"is_disabled":false,"rental_uris":{"android":"levelo://app?vid=6e2ade76-e215-404a-aafc-1ccb8acaf1c7","ios":"levelo://app?vid=6e2ade76-e215-404a-aafc-1ccb8acaf1c7"},"vehicle_type_id":"4","last_reported":1784231688,"current_range_meters":3600,"station_id":"ce4bgkh2rcd13ifvqbk0","pricing_plan_id":"cebpf4jnsgd1na2vs0mg"},{"bike_id":"5ed1526c-5431-470f-a682-0052047b9d1d","system_id":"levelo_inurba_marseille","lat":43.29272,"lon":5.37645,"is_reserved":false,"is_disabled":false,"rental_uris":{"android":"levelo://app?vid=5ed1526c-5431-470f-a682-0052047b9d1d","ios":"levelo://app?vid=5ed1526c-5431-470f-a682-0052047b9d1d"},"vehicle_type_id":"4","last_reported":1784231688,"current_range_meters":17200,"station_id":"ce4bgi12rcd13ifvqb80","pricing_plan_id":"cebpf4jnsgd1na2vs0mg"},{"bike_id":"77f0b611-8e54-40ee-804a-9a0ef852a88a","system_id":"levelo_inurba_marseille","lat":43.31233,"lon":5.36877,"is_reserved":false,"is_disabled":true,"rental_uris":{"android":"levelo://app?vid=77f0b611-8e54-40ee-804a-9a0ef852a88a","ios":"levelo://app?vid=77f0b611-8e54-40ee-804a-9a0ef852a88a"},"vehicle_type_id":"4","last_reported":1784231688,"current_range_meters":19600,"station_id":"ce4bgl92rcd13ifvqbq0","pricing_plan_id":"cebpf4jnsgd1na2vs0mg"},{"bike_id":"fe5a8eab-fd7b-4145-8ca6-1ef359d9f66a","system_id":"levelo_inurba_marseille","lat":43.29252,"lon":5.38439,"is_reserved":false,"is_disabled":false,"rental_uris":{"android":"levelo://app?vid=fe5a8eab-fd7b-4145-8ca6-1ef359d9f66a","ios":"levelo://app?vid=fe5a8eab-fd7b-4145-8ca6-1ef359d9f66a"},"vehicle_type_id":"4","last_reported":1784231688,"current_range_meters":24000,"station_id":"ce4bh692rcd13ifvqea0","pricing_plan_id":"cebpf4jnsgd1na2vs0mg"},{"bike_id":"e4e2da61-31a3-435a-b1ec-9bb834559f2e","system_id":"levelo_inurba_marseille","lat":43.25012,"lon":5.38922,"is_reserved":false,"is_disabled":false,"rental_uris":{"android":"levelo://app?vid=e4e2da61-31a3-435a-b1ec-9bb834559f2e","ios":"levelo://app?vid=e4e2da61-31a3-435a-b1ec-9bb834559f2e"},"vehicle_type_id":"4","last_reported":1784231688,"current_range_meters":32800,"station_id":"ce4bhgp2rcd13ifvqfd0","pricing_plan_id":"cebpf4jnsgd1na2vs0mg"},{"bike_id":"42af03cf-ec5f-4e1d-93b9-95e26a79f484","system_id":"levelo_inurba_marseille","lat":43.28831,"lon":5.35844,"is_reserved":false,"is_disabled":false,"rental_uris":{"android":"levelo://app?vid=42af03cf-ec5f-4e1d-93b9-95e26a79f484","ios":"levelo://app?vid=42af03cf-ec5f-4e1d-93b9-95e26a79f484"},"vehicle_type_id":"4","last_reported":1784231688,"current_range_meters":39200,"station_id":"ce4bhb12rcd13ifvqem0","pricing_plan_id":"cebpf4jnsgd1na2vs0mg"},{"bike_id":"d6fdc821-1614-4532-abec-8f44d53c0ae5","system_id":"levelo_inurba_marseille","lat":43.29057,"lon":5.35911,"is_reserved":false,"is_disabled":false,"rental_uris":{"android":"levelo://app?vid=d6fdc821-1614-4532-abec-8f44d53c0ae5","ios":"levelo://app?vid=d6fdc821-1614-4532-abec-8f44d53c0ae5"},"vehicle_type_id":"4","last_reported":1784231688,"current_range_meters":10000,"station_id":"ce4bha92rcd13ifvqeg0","pricing_plan_id":"cebpf4jnsgd1na2vs0mg"},{"bike_id":"e0c7065e-7f74-4b06-ae7b-f933c635df87","system_id":"levelo_inurba_marseille","lat":43.29555,"lon":5.42296,"is_reserved":false,"is_disabled":false,"rental_uris":{"android":"levelo://app?vid=e0c7065e-7f74-4b06-ae7b-f933c635df87","ios":"levelo://app?vid=e0c7065e-7f74-4b06-ae7b-f933c635df87"},"vehicle_type_id":"4","last_reported":1784231688,"current_range_meters":39200,"station_id":"ce4bhph2rcd13ifvqhdg","pricing_plan_id":"cebpf4jnsgd1na2vs0mg"},{"bike_id":"3d9d15ce-5804-4209-b92a-723f598d0341","system_id":"levelo_inurba_marseille","lat":43.21177,"lon":5.35051,"is_reserved":false,"is_disabled":false,"rental_uris":{"android":"levelo://app?vid=3d9d15ce-5804-4209-b92a-723f598d0341","ios":"levelo://app?vid=3d9d15ce-5804-4209-b92a-723f598d0341"},"vehicle_type_id":"4","last_reported":1784231688,"current_range_meters":16800,"station_id":"st_cvj6sg6p6f1abm77japg","pricing_plan_id":"cebpf4jnsgd1na2vs0mg"},{"bike_id":"a0191288-22eb-4274-ac7c-f092406b7213","system_id":"levelo_inurba_marseille","lat":43.28417,"lon":5.37516,"is_reserved":false,"is_disabled":false,"rental_uris":{"android":"levelo://app?vid=a0191288-22eb-4274-ac7c-f092406b7213","ios":"levelo://app?vid=a0191288-22eb-4274-ac7c-f092406b7213"},"vehicle_type_id":"4","last_reported":1784231688,"current_range_meters":36400,"station_id":"ce4bh412rcd13ifvqds0","pricing_plan_id":"cebpf4jnsgd1na2vs0mg"},{"bike_id":"92f9377a-62ba-495b-8de9-1750140cdb94","system_id":"levelo_inurba_marseille","lat":43.2962,"lon":5.37158,"is_reserved":false,"is_disabled":true,"rental_uris":{"android":"levelo://app?vid=92f9377a-62ba-495b-8de9-1750140cdb94","ios":"levelo://app?vid=92f9377a-62ba-495b-8de9-1750140cdb94"},"vehicle_type_id":"4","last_reported":1784231688,"current_range_meters":12000,"station_id":"","pricing_plan_id":"cebpf4jnsgd1na2vs0mg"},{"bike_id":"54a43306-7593-4a50-9c1e-2cceaf860321","system_id":"levelo_inurba_marseille","lat":43.27817,"lon":5.40711,"is_reserved":false,"is_disabled":false,"rental_uris":{"android":"levelo://app?vid=54a43306-7593-4a50-9c1e-2cceaf860321","ios":"levelo://app?vid=54a43306-7593-4a50-9c1e-2cceaf860321"},"vehicle_type_id":"4","last_reported":1784231688,"current_range_meters":12000,"station_id":"ce4bhnh2rcd13ifvqgtg","pricing_plan_id":"cebpf4jnsgd1na2vs0mg"},{"bike_id":"e1bb6861-ee59-438c-aa2a-2a553b2d6f43","system_id":"levelo_inurba_marseille","lat":43.27186,"lon":5.40999,"is_reserved":false,"is_disabled":true,"rental_uris":{"android":"levelo://app?vid=e1bb6861-ee59-438c-aa2a-2a553b2d6f43","ios":"levelo://app?vid=e1bb6861-ee59-438c-aa2a-2a553b2d6f43"},"vehicle_type_id":"4","last_reported":1784231688,"current_range_meters":36400,"station_id":"ce4bhl12rcd13ifvqgf0","pricing_plan_id":"cebpf4jnsgd1na2vs0mg"},{"bike_id":"d61f5f42-3266-4ab9-bc4e-5a83331a7ece","system_id":"levelo_inurba_marseille","lat":43.2559,"lon":5.3824,"is_reserved":false,"is_disabled":true,"rental_uris":{"android":"levelo://app?vid=d61f5f42-3266-4ab9-bc4e-5a83331a7ece","ios":"levelo://app?vid=d61f5f42-3266-4ab9-bc4e-5a83331a7ece"},"vehicle_type_id":"4","last_reported":1784231688,"current_range_meters":36000,"station_id":"ce4bhih2rcd13ifvqfs0","pricing_plan_id":"cebpf4jnsgd1na2vs0mg"},{"bike_id":"06097b1f-6886-48c9-a8e6-84f03d133de4","system_id":"levelo_inurba_marseille","lat":43.31362,"lon":5.43219,"is_reserved":false,"is_disabled":false,"rental_uris":{"android":"levelo://app?vid=06097b1f-6886-48c9-a8e6-84f03d133de4","ios":"levelo://app?vid=06097b1f-6886-48c9-a8e6-84f03d133de4"},"vehicle_type_id":"4","last_reported":1784231688,"current_range_meters":5600,"station_id":"","pricing_plan_id":"cebpf4jnsgd1na2vs0mg"},{"bike_id":"34c5b572-acfb-4138-9633-fe327799f420","system_id":"levelo_inurba_marseille","lat":43.29542,"lon":5.36126,"is_reserved":false,"is_disabled":true,"rental_uris":{"android":"levelo://app?vid=34c5b572-acfb-4138-9633-fe327799f420","ios":"levelo://app?vid=34c5b572-acfb-4138-9633-fe327799f420"},"vehicle_type_id":"4","last_reported":1784231688,"current_range_meters":34000,"station_id":"","pricing_plan_id":"cebpf4jnsgd1na2vs0mg"},{"bike_id":"c70a5a1a-1138-428e-9352-e5f388c6b2fe","system_id":"levelo_inurba_marseille","lat":43.33757,"lon":5.37474,"is_reserved":false,"is_disabled":false,"rental_uris":{"android":"levelo://app?vid=c70a5a1a-1138-428e-9352-e5f388c6b2fe","ios":"levelo://app?vid=c70a5a1a-1138-428e-9352-e5f388c6b2fe"},"vehicle_type_id":"4","last_reported":1784231688,"current_range_meters":30000,"station_id":"","pricing_plan_id":"cebpf4jnsgd1na2vs0mg"},{"bike_id":"448ab149-1e23-45d2-8d41-536c144b6b21","system_id":"levelo_inurba_marseille","lat":43.31751,"lon":5.39025,"is_reserved":false,"is_disabled":false,"rental_uris":{"android":"levelo://app?vid=448ab149-1e23-45d2-8d41-536c144b6b21","ios":"levelo://app?vid=448ab149-1e23-45d2-8d41-536c144b6b21"},"vehicle_type_id":"4","last_reported":1784231688,"current_range_meters":17600,"station_id":"ce4bhqp2rcd13ifvqhng","pricing_plan_id":"cebpf4jnsgd1na2vs0mg"},{"bike_id":"e4069052-09f3-4aad-a4cf-82efe46eca69","system_id":"levelo_inurba_marseille","lat":43.27895,"lon":5.38004,"is_reserved":false,"is_disabled":false,"rental_uris":{"android":"levelo://app?vid=e4069052-09f3-4aad-a4cf-82efe46eca69","ios":"levelo://app?vid=e4069052-09f3-4aad-a4cf-82efe46eca69"},"vehicle_type_id":"4","last_reported":1784231688,"current_range_meters":38800,"station_id":"ce4bhf92rcd13ifvqf50","pricing_plan_id":"cebpf4jnsgd1na2vs0mg"},{"bike_id":"2623e023-e953-40ac-8068-15d2169ca99d","system_id":"levelo_inurba_marseille","lat":43.28695,"lon":5.46694,"is_reserved":false,"is_disabled":false,"rental_uris":{"android":"levelo://app?vid=2623e023-e953-40ac-8068-15d2169ca99d","ios":"levelo://app?vid=2623e023-e953-40ac-8068-15d2169ca99d"},"vehicle_type_id":"4","last_reported":1784231688,"current_range_meters":8800,"station_id":"st_d6tc3vkotcvc738tfjhg","pricing_plan_id":"cebpf4jnsgd1na2vs0mg"},{"bike_id":"1387dfb3-26c5-4c84-928c-e61304b053a0","system_id":"levelo_inurba_marseille","lat":43.29597,"lon":5.3672,"is_reserved":false,"is_disabled":false,"rental_uris":{"android":"levelo://app?vid=1387dfb3-26c5-4c84-928c-e61304b053a0","ios":"levelo://app?vid=1387dfb3-26c5-4c84-928c-e61304b053a0"},"vehicle_type_id":"4","last_reported":1784231688,"current_range_meters":13600,"station_id":"","pricing_plan_id":"cebpf4jnsgd1na2vs0mg"},{"bike_id":"7a5203cf-b3c3-4680-afa1-0e3d4d1fb7e2","system_id":"levelo_inurba_marseille","lat":43.23898,"lon":5.37465,"is_reserved":false,"is_disabled":false,"rental_uris":{"android":"levelo://app?vid=7a5203cf-b3c3-4680-afa1-0e3d4d1fb7e2","ios":"levelo://app?vid=7a5203cf-b3c3-4680-afa1-0e3d4d1fb7e2"},"vehicle_type_id":"4","last_reported":1784231688,"current_range_meters":38800,"station_id":"st_d6sm7csbq4hs73f8fpjg","pricing_plan_id":"cebpf4jnsgd1na2vs0mg"},{"bike_id":"69b6ed8c-1f17-46c2-8d4a-815055a3a3c4","system_id":"levelo_inurba_marseille","lat":43.29011,"lon":5.35603,"is_reserved":false,"is_disabled":true,"rental_uris":{"android":"levelo://app?vid=69b6ed8c-1f17-46c2-8d4a-815055a3a3c4","ios":"levelo://app?vid=69b6ed8c-1f17-46c2-8d4a-815055a3a3c4"},"vehicle_type_id":"4","last_reported":1784231688,"current_range_meters":39200,"station_id":"ce4bhb92rcd13ifvqen0","pricing_plan_id":"cebpf4jnsgd1na2vs0mg"},{"bike_id":"7e3f3c48-d333-4737-85d5-71ab0eb269f6","system_id":"levelo_inurba_marseille","lat":43.34146,"lon":5.40908,"is_reserved":false,"is_disabled":false,"rental_uris":{"android":"levelo://app?vid=7e3f3c48-d333-4737-85d5-71ab0eb269f6","ios":"levelo://app?vid=7e3f3c48-d333-4737-85d5-71ab0eb269f6"},"vehicle_type_id":"4","last_reported":1784231688,"current_range_meters":38000,"station_id":"ce4bhqh2rcd13ifvqhlg","pricing_plan_id":"cebpf4jnsgd1na2vs0mg"},{"bike_id":"5a136a70-6c1f-4b81-88b5-c84e116756c2","system_id":"levelo_inurba_marseille","lat":43.29008,"lon":5.35603,"is_reserved":false,"is_disabled":false,"rental_uris":{"android":"levelo://app?vid=5a136a70-6c1f-4b81-88b5-c84e116756c2","ios":"levelo://app?vid=5a136a70-6c1f-4b81-88b5-c84e116756c2"},"vehicle_type_id":"4","last_reported":1784231688,"current_range_meters":30000,"station_id":"ce4bhb92rcd13ifvqen0","pricing_plan_id":"cebpf4jnsgd1na2vs0mg"},{"bike_id":"26901743-feef-443e-84d5-5ea3007378c1","system_id":"levelo_inurba_marseille","lat":43.25089,"lon":5.39551,"is_reserved":false,"is_disabled":false,"rental_uris":{"android":"levelo://app?vid=26901743-feef-443e-84d5-5ea3007378c1","ios":"levelo://app?vid=26901743-feef-443e-84d5-5ea3007378c1"},"vehicle_type_id":"4","last_reported":1784231688,"current_range_meters":28800,"station_id":"ce4bhm12rcd13ifvqgkg","pricing_plan_id":"cebpf4jnsgd1na2vs0mg"},{"bike_id":"530d5b81-1545-4b49-8624-2c00cc3d9834","system_id":"levelo_inurba_marseille","lat":43.25334,"lon":5.42175,"is_reserved":false,"is_disabled":false,"rental_uris":{"android":"levelo://app?vid=530d5b81-1545-4b49-8624-2c00cc3d9834","ios":"levelo://app?vid=530d5b81-1545-4b49-8624-2c00cc3d9834"},"vehicle_type_id":"4","last_reported":1784231688,"current_range_meters":15200,"station_id":"st_d2m65c5bi1j21697t3ng","pricing_plan_id":"cebpf4jnsgd1na2vs0mg"},{"bike_id":"f44d0928-8ad6-4308-b10f-ade40ce37ee2","system_id":"levelo_inurba_marseille","lat":43.28005,"lon":5.38286,"is_reserved":false,"is_disabled":false,"rental_uris":{"android":"levelo://app?vid=f44d0928-8ad6-4308-b10f-ade40ce37ee2","ios":"levelo://app?vid=f44d0928-8ad6-4308-b10f-ade40ce37ee2"},"vehicle_type_id":"4","last_reported":1784231688,"current_range_meters":28400,"station_id":"","pricing_plan_id":"cebpf4jnsgd1na2vs0mg"},{"bike_id":"0cde3b63-731b-4557-96f5-577da871969d","system_id":"levelo_inurba_marseille","lat":43.25517,"lon":5.37632,"is_reserved":false,"is_disabled":false,"rental_uris":{"android":"levelo://app?vid=0cde3b63-731b-4557-96f5-577da871969d","ios":"levelo://app?vid=0cde3b63-731b-4557-96f5-577da871969d"},"vehicle_type_id":"4","last_reported":1784231688,"current_range_meters":9200,"station_id":"ce4bhh12rcd13ifvqff0","pricing_plan_id":"cebpf4jnsgd1na2vs0mg"},{"bike_id":"762d8845-2d56-4fc4-81c3-e7eeea3cdea5","system_id":"levelo_inurba_marseille","lat":43.29198,"lon":5.35789,"is_reserved":false,"is_disabled":false,"rental_uris":{"android":"levelo://app?vid=762d8845-2d56-4fc4-81c3-e7eeea3cdea5","ios":"levelo://app?vid=762d8845-2d56-4fc4-81c3-e7eeea3cdea5"},"vehicle_type_id":"4","last_reported":1784231688,"current_range_meters":39200,"station_id":"ce4bhb12rcd13ifvqel0","pricing_plan_id":"cebpf4jnsgd1na2vs0mg"},{"bike_id":"10ef5bd0-f130-4452-b7f2-391aef329ae1","system_id":"levelo_inurba_marseille","lat":43.28162,"lon":5.42637,"is_reserved":false,"is_disabled":false,"rental_uris":{"android":"levelo://app?vid=10ef5bd0-f130-4452-b7f2-391aef329ae1","ios":"levelo://app?vid=10ef5bd0-f130-4452-b7f2-391aef329ae1"},"vehicle_type_id":"4","last_reported":1784231688,"current_range_meters":35600,"station_id":"ce4bhnh2rcd13ifvqgug","pricing_plan_id":"cebpf4jnsgd1na2vs0mg"},{"bike_id":"f77110eb-f060-429e-9a0f-6b74aa965739","system_id":"levelo_inurba_marseille","lat":43.29555,"lon":5.38551,"is_reserved":false,"is_disabled":false,"rental_uris":{"android":"levelo://app?vid=f77110eb-f060-429e-9a0f-6b74aa965739","ios":"levelo://app?vid=f77110eb-f060-429e-9a0f-6b74aa965739"},"vehicle_type_id":"4","last_reported":1784231688,"current_range_meters":33600,"station_id":"ce4bgih2rcd13ifvqba0","pricing_plan_id":"cebpf4jnsgd1na2vs0mg"},{"bike_id":"8ba7f2d6-52d3-4c56-b19a-19a142e62779","system_id":"levelo_inurba_marseille","lat":43.24078,"lon":5.3775,"is_reserved":false,"is_disabled":false,"rental_uris":{"android":"levelo://app?vid=8ba7f2d6-52d3-4c56-b19a-19a142e62779","ios":"levelo://app?vid=8ba7f2d6-52d3-4c56-b19a-19a142e62779"},"vehicle_type_id":"4","last_reported":1784231688,"current_range_meters":18800,"station_id":"ce4bhnp2rcd13ifvqgvg","pricing_plan_id":"cebpf4jnsgd1na2vs0mg"},{"bike_id":"3df7b3ee-3083-4a49-a1f1-8ec2f9d7ba3b","system_id":"levelo_inurba_marseille","lat":43.26076,"lon":5.394,"is_reserved":false,"is_disabled":false,"rental_uris":{"android":"levelo://app?vid=3df7b3ee-3083-4a49-a1f1-8ec2f9d7ba3b","ios":"levelo://app?vid=3df7b3ee-3083-4a49-a1f1-8ec2f9d7ba3b"},"vehicle_type_id":"4","last_reported":1784231688,"current_range_meters":30400,"station_id":"ce4bhh92rcd13ifvqfj0","pricing_plan_id":"cebpf4jnsgd1na2vs0mg"},{"bike_id":"692e39d8-285b-41d0-a15a-1de09e6388a5","system_id":"levelo_inurba_marseille","lat":43.24802,"lon":5.3746,"is_reserved":false,"is_disabled":false,"rental_uris":{"android":"levelo://app?vid=692e39d8-285b-41d0-a15a-1de09e6388a5","ios":"levelo://app?vid=692e39d8-285b-41d0-a15a-1de09e6388a5"},"vehicle_type_id":"4","last_reported":1784231688,"current_range_meters":40000,"station_id":"ce4bhgh2rcd13ifvqfb0","pricing_plan_id":"cebpf4jnsgd1na2vs0mg"},{"bike_id":"06673c14-94ed-4eb5-ac49-41767b0b5282","system_id":"levelo_inurba_marseille","lat":43.26527,"lon":5.37304,"is_reserved":false,"is_disabled":false,"rental_uris":{"android":"levelo://app?vid=06673c14-94ed-4eb5-ac49-41767b0b5282","ios":"levelo://app?vid=06673c14-94ed-4eb5-ac49-41767b0b5282"},"vehicle_type_id":"4","last_reported":1784231688,"current_range_meters":36400,"station_id":"","pricing_plan_id":"cebpf4jnsgd1na2vs0mg"},{"bike_id":"1702cc2f-2c66-448b-8b54-58c477324e70","system_id":"levelo_inurba_marseille","lat":43.27339,"lon":5.39097,"is_reserved":false,"is_disabled":false,"rental_uris":{"android":"levelo://app?vid=1702cc2f-2c66-448b-8b54-58c477324e70","ios":"levelo://app?vid=1702cc2f-2c66-448b-8b54-58c477324e70"},"vehicle_type_id":"4","last_reported":1784231688,"current_range_meters":16400,"station_id":"ce4bhgp2rcd13ifvqfe0","pricing_plan_id":"cebpf4jnsgd1na2vs0mg"},{"bike_id":"57091f55-05a7-48f3-b9de-2a363c338c85","system_id":"levelo_inurba_marseille","lat":43.23904,"lon":5.37424,"is_reserved":false,"is_disabled":false,"rental_uris":{"android":"levelo://app?vid=57091f55-05a7-48f3-b9de-2a363c338c85","ios":"levelo://app?vid=57091f55-05a7-48f3-b9de-2a363c338c85"},"vehicle_type_id":"4","last_reported":1784231688,"current_range_meters":39200,"station_id":"st_d6sm7csbq4hs73f8fpjg","pricing_plan_id":"cebpf4jnsgd1na2vs0mg"},{"bike_id":"5ee03f4b-159d-426a-a2ca-0b6a084e3698","system_id":"levelo_inurba_marseille","lat":43.23773,"lon":5.36639,"is_reserved":false,"is_disabled":false,"rental_uris":{"android":"levelo://app?vid=5ee03f4b-159d-426a-a2ca-0b6a084e3698","ios":"levelo://app?vid=5ee03f4b-159d-426a-a2ca-0b6a084e3698"},"vehicle_type_id":"4","last_reported":1784231688,"current_range_meters":31200,"station_id":"st_d3nk18o9ro0c73en2l3g","pricing_plan_id":"cebpf4jnsgd1na2vs0mg"},{"bike_id":"e9700518-bfab-4e19-9c8e-e3cb6414cf72","system_id":"levelo_inurba_marseille","lat":43.29189,"lon":5.35804,"is_reserved":false,"is_disabled":true,"rental_uris":{"android":"levelo://app?vid=e9700518-bfab-4e19-9c8e-e3cb6414cf72","ios":"levelo://app?vid=e9700518-bfab-4e19-9c8e-e3cb6414cf72"},"vehicle_type_id":"4","last_reported":1784231688,"current_range_meters":14400,"station_id":"ce4bhb12rcd13ifvqel0","pricing_plan_id":"cebpf4jnsgd1na2vs0mg"},{"bike_id":"95ce5d31-1444-4ecd-9f97-683dd61e0473","system_id":"levelo_inurba_marseille","lat":43.30036,"lon":5.40172,"is_reserved":false,"is_disabled":false,"rental_uris":{"android":"levelo://app?vid=95ce5d31-1444-4ecd-9f97-683dd61e0473","ios":"levelo://app?vid=95ce5d31-1444-4ecd-9f97-683dd61e0473"},"vehicle_type_id":"4","last_reported":1784231688,"current_range_meters":15200,"station_id":"","pricing_plan_id":"cebpf4jnsgd1na2vs0mg"},{"bike_id":"40133888-0505-4ab7-bf98-89cc8c9f1fbd","system_id":"levelo_inurba_marseille","lat":43.3126,"lon":5.38183,"is_reserved":false,"is_disabled":false,"rental_uris":{"android":"levelo://app?vid=40133888-0505-4ab7-bf98-89cc8c9f1fbd","ios":"levelo://app?vid=40133888-0505-4ab7-bf98-89cc8c9f1fbd"},"vehicle_type_id":"4","last_reported":1784231688,"current_range_meters":19200,"station_id":"","pricing_plan_id":"cebpf4jnsgd1na2vs0mg"},{"bike_id":"698df7db-8471-4380-ae97-c84b77ae3d4e","system_id":"levelo_inurba_marseille","lat":43.29617,"lon":5.37164,"is_reserved":false,"is_disabled":false,"rental_uris":{"android":"levelo://app?vid=698df7db-8471-4380-ae97-c84b77ae3d4e","ios":"levelo://app?vid=698df7db-8471-4380-ae97-c84b77ae3d4e"},"vehicle_type_id":"4","last_reported":1784231688,"current_range_meters":23200,"station_id":"","pricing_plan_id":"cebpf4jnsgd1na2vs0mg"},{"bike_id":"bd1bd0ab-1e2c-4e67-b8de-97d4001fe2b7","system_id":"levelo_inurba_marseille","lat":43.29849,"lon":5.36275,"is_reserved":false,"is_disabled":false,"rental_uris":{"android":"levelo://app?vid=bd1bd0ab-1e2c-4e67-b8de-97d4001fe2b7","ios":"levelo://app?vid=bd1bd0ab-1e2c-4e67-b8de-97d4001fe2b7"},"vehicle_type_id":"4","last_reported":1784231688,"current_range_meters":11600,"station_id":"ce4bgpp2rcd13ifvqc3g","pricing_plan_id":"cebpf4jnsgd1na2vs0mg"},{"bike_id":"4a7eaf6c-ea42-4513-9dcf-f7f08fab0fdb","system_id":"levelo_inurba_marseille","lat":43.31355,"lon":5.38171,"is_reserved":false,"is_disabled":false,"rental_uris":{"android":"levelo://app?vid=4a7eaf6c-ea42-4513-9dcf-f7f08fab0fdb","ios":"levelo://app?vid=4a7eaf6c-ea42-4513-9dcf-f7f08fab0fdb"},"vehicle_type_id":"4","last_reported":1784231688,"current_range_meters":21600,"station_id":"","pricing_plan_id":"cebpf4jnsgd1na2vs0mg"},{"bike_id":"34b4978e-492d-4d36-a2d7-7a18159a1fee","system_id":"levelo_inurba_marseille","lat":43.2464,"lon":5.38148,"is_reserved":false,"is_disabled":false,"rental_uris":{"android":"levelo://app?vid=34b4978e-492d-4d36-a2d7-7a18159a1fee","ios":"levelo://app?vid=34b4978e-492d-4d36-a2d7-7a18159a1fee"},"vehicle_type_id":"4","last_reported":1784231688,"current_range_meters":24000,"station_id":"ce4bhih2rcd13ifvqfr0","pricing_plan_id":"cebpf4jnsgd1na2vs0mg"},{"bike_id":"7225b0eb-b0d3-41be-9ccf-97698cdaf1ff","system_id":"levelo_inurba_marseille","lat":43.29535,"lon":5.38553,"is_reserved":false,"is_disabled":false,"rental_uris":{"android":"levelo://app?vid=7225b0eb-b0d3-41be-9ccf-97698cdaf1ff","ios":"levelo://app?vid=7225b0eb-b0d3-41be-9ccf-97698cdaf1ff"},"vehicle_type_id":"4","last_reported":1784231688,"current_range_meters":39200,"station_id":"ce4bgih2rcd13ifvqba0","pricing_plan_id":"cebpf4jnsgd1na2vs0mg"},{"bike_id":"6e6fa689-8351-46a0-86b3-0f3e05acb8a6","system_id":"levelo_inurba_marseille","lat":43.27377,"lon":5.36263,"is_reserved":false,"is_disabled":false,"rental_uris":{"android":"levelo://app?vid=6e6fa689-8351-46a0-86b3-0f3e05acb8a6","ios":"levelo://app?vid=6e6fa689-8351-46a0-86b3-0f3e05acb8a6"},"vehicle_type_id":"4","last_reported":1784231688,"current_range_meters":14000,"station_id":"ce4bhbh2rcd13ifvqeo0","pricing_plan_id":"cebpf4jnsgd1na2vs0mg"},{"bike_id":"682eb229-45c0-46d5-92d5-de0d27411e9d","system_id":"levelo_inurba_marseille","lat":43.26858,"lon":5.40272,"is_reserved":false,"is_disabled":false,"rental_uris":{"android":"levelo://app?vid=682eb229-45c0-46d5-92d5-de0d27411e9d","ios":"levelo://app?vid=682eb229-45c0-46d5-92d5-de0d27411e9d"},"vehicle_type_id":"4","last_reported":1784231688,"current_range_meters":39200,"station_id":"ce501612rcd8frsf0b60","pricing_plan_id":"cebpf4jnsgd1na2vs0mg"},{"bike_id":"f1c15ce1-725a-4f09-bb6d-15a65d0d9a59","system_id":"levelo_inurba_marseille","lat":43.28613,"lon":5.35093,"is_reserved":false,"is_disabled":false,"rental_uris":{"android":"levelo://app?vid=f1c15ce1-725a-4f09-bb6d-15a65d0d9a59","ios":"levelo://app?vid=f1c15ce1-725a-4f09-bb6d-15a65d0d9a59"},"vehicle_type_id":"4","last_reported":1784231688,"current_range_meters":28000,"station_id":"ce4bhch2rcd13ifvqeug","pricing_plan_id":"cebpf4jnsgd1na2vs0mg"},{"bike_id":"f09e20eb-f647-402e-8b7f-594336d06711","system_id":"levelo_inurba_marseille","lat":43.27678,"lon":5.38867,"is_reserved":false,"is_disabled":false,"rental_uris":{"android":"levelo://app?vid=f09e20eb-f647-402e-8b7f-594336d06711","ios":"levelo://app?vid=f09e20eb-f647-402e-8b7f-594336d06711"},"vehicle_type_id":"4","last_reported":1784231688,"current_range_meters":30800,"station_id":"ce4bhi12rcd13ifvqfo0","pricing_plan_id":"cebpf4jnsgd1na2vs0mg"},{"bike_id":"d0dca651-580c-4704-be18-23cce9e78d40","system_id":"levelo_inurba_marseille","lat":43.23961,"lon":5.36627,"is_reserved":false,"is_disabled":false,"rental_uris":{"android":"levelo://app?vid=d0dca651-580c-4704-be18-23cce9e78d40","ios":"levelo://app?vid=d0dca651-580c-4704-be18-23cce9e78d40"},"vehicle_type_id":"4","last_reported":1784231688,"current_range_meters":12400,"station_id":"ce4bhi12rcd13ifvqfp0","pricing_plan_id":"cebpf4jnsgd1na2vs0mg"},{"bike_id":"81587832-75ed-49cd-91c3-f57f9b8cec45","system_id":"levelo_inurba_marseille","lat":43.29049,"lon":5.35904,"is_reserved":false,"is_disabled":true,"rental_uris":{"android":"levelo://app?vid=81587832-75ed-49cd-91c3-f57f9b8cec45","ios":"levelo://app?vid=81587832-75ed-49cd-91c3-f57f9b8cec45"},"vehicle_type_id":"4","last_reported":1784231688,"current_range_meters":14400,"station_id":"ce4bha92rcd13ifvqeg0","pricing_plan_id":"cebpf4jnsgd1na2vs0mg"},{"bike_id":"fcca60be-8a78-4fc0-a420-1bdb72b34669","system_id":"levelo_inurba_marseille","lat":43.23969,"lon":5.3662,"is_reserved":false,"is_disabled":false,"rental_uris":{"android":"levelo://app?vid=fcca60be-8a78-4fc0-a420-1bdb72b34669","ios":"levelo://app?vid=fcca60be-8a78-4fc0-a420-1bdb72b34669"},"vehicle_type_id":"4","last_reported":1784231688,"current_range_meters":33200,"station_id":"ce4bhi12rcd13ifvqfp0","pricing_plan_id":"cebpf4jnsgd1na2vs0mg"},{"bike_id":"c90d0052-784d-4f47-a41c-ff318491aeda","system_id":"levelo_inurba_marseille","lat":43.23953,"lon":5.36651,"is_reserved":false,"is_disabled":false,"rental_uris":{"android":"levelo://app?vid=c90d0052-784d-4f47-a41c-ff318491aeda","ios":"levelo://app?vid=c90d0052-784d-4f47-a41c-ff318491aeda"},"vehicle_type_id":"4","last_reported":1784231688,"current_range_meters":25200,"station_id":"ce4bhi12rcd13ifvqfp0","pricing_plan_id":"cebpf4jnsgd1na2vs0mg"},{"bike_id":"d77ed2c9-8b56-4a36-a84c-0aaf3349255f","system_id":"levelo_inurba_marseille","lat":43.29296,"lon":5.37462,"is_reserved":false,"is_disabled":false,"rental_uris":{"android":"levelo://app?vid=d77ed2c9-8b56-4a36-a84c-0aaf3349255f","ios":"levelo://app?vid=d77ed2c9-8b56-4a36-a84c-0aaf3349255f"},"vehicle_type_id":"4","last_reported":1784231688,"current_range_meters":26800,"station_id":"ce4bgi12rcd13ifvqb70","pricing_plan_id":"cebpf4jnsgd1na2vs0mg"},{"bike_id":"1fb2594b-e7ab-44d5-82e0-2f25ad1ec43c","system_id":"levelo_inurba_marseille","lat":43.29258,"lon":5.40905,"is_reserved":false,"is_disabled":false,"rental_uris":{"android":"levelo://app?vid=1fb2594b-e7ab-44d5-82e0-2f25ad1ec43c","ios":"levelo://app?vid=1fb2594b-e7ab-44d5-82e0-2f25ad1ec43c"},"vehicle_type_id":"4","last_reported":1784231688,"current_range_meters":14000,"station_id":"ce4bh192rcd13ifvqdc0","pricing_plan_id":"cebpf4jnsgd1na2vs0mg"},{"bike_id":"c6ac626d-aef6-478f-8af0-d0de9fa8be85","system_id":"levelo_inurba_marseille","lat":43.22712,"lon":5.34834,"is_reserved":false,"is_disabled":false,"rental_uris":{"android":"levelo://app?vid=c6ac626d-aef6-478f-8af0-d0de9fa8be85","ios":"levelo://app?vid=c6ac626d-aef6-478f-8af0-d0de9fa8be85"},"vehicle_type_id":"4","last_reported":1784231688,"current_range_meters":8000,"station_id":"","pricing_plan_id":"cebpf4jnsgd1na2vs0mg"},{"bike_id":"6eba3eb4-35d7-4c87-bc2d-581f3c444fac","system_id":"levelo_inurba_marseille","lat":43.26556,"lon":5.40323,"is_reserved":false,"is_disabled":false,"rental_uris":{"android":"levelo://app?vid=6eba3eb4-35d7-4c87-bc2d-581f3c444fac","ios":"levelo://app?vid=6eba3eb4-35d7-4c87-bc2d-581f3c444fac"},"vehicle_type_id":"4","last_reported":1784231688,"current_range_meters":32400,"station_id":"ce4bhmp2rcd13ifvqgng","pricing_plan_id":"cebpf4jnsgd1na2vs0mg"},{"bike_id":"e8976180-d139-402b-b8a5-104a73f8a7c2","system_id":"levelo_inurba_marseille","lat":43.29921,"lon":5.43055,"is_reserved":false,"is_disabled":false,"rental_uris":{"android":"levelo://app?vid=e8976180-d139-402b-b8a5-104a73f8a7c2","ios":"levelo://app?vid=e8976180-d139-402b-b8a5-104a73f8a7c2"},"vehicle_type_id":"4","last_reported":1784231688,"current_range_meters":14800,"station_id":"","pricing_plan_id":"cebpf4jnsgd1na2vs0mg"},{"bike_id":"a15d5031-d3d0-49e7-a12c-2558686c7bd0","system_id":"levelo_inurba_marseille","lat":43.30464,"lon":5.36713,"is_reserved":false,"is_disabled":false,"rental_uris":{"android":"levelo://app?vid=a15d5031-d3d0-49e7-a12c-2558686c7bd0","ios":"levelo://app?vid=a15d5031-d3d0-49e7-a12c-2558686c7bd0"},"vehicle_type_id":"4","last_reported":1784231688,"current_range_meters":3600,"station_id":"","pricing_plan_id":"cebpf4jnsgd1na2vs0mg"},{"bike_id":"080d1798-16d0-4fec-8193-b289c1503b88","system_id":"levelo_inurba_marseille","lat":43.29188,"lon":5.35811,"is_reserved":false,"is_disabled":false,"rental_uris":{"android":"levelo://app?vid=080d1798-16d0-4fec-8193-b289c1503b88","ios":"levelo://app?vid=080d1798-16d0-4fec-8193-b289c1503b88"},"vehicle_type_id":"4","last_reported":1784231688,"current_range_meters":36000,"station_id":"ce4bhb12rcd13ifvqel0","pricing_plan_id":"cebpf4jnsgd1na2vs0mg"},{"bike_id":"0c964dab-40ec-49b5-8e4d-a4ff83f48bf2","system_id":"levelo_inurba_marseille","lat":43.27961,"lon":5.39107,"is_reserved":false,"is_disabled":false,"rental_uris":{"android":"levelo://app?vid=0c964dab-40ec-49b5-8e4d-a4ff83f48bf2","ios":"levelo://app?vid=0c964dab-40ec-49b5-8e4d-a4ff83f48bf2"},"vehicle_type_id":"4","last_reported":1784231688,"current_range_meters":28000,"station_id":"","pricing_plan_id":"cebpf4jnsgd1na2vs0mg"},{"bike_id":"c1690c5a-45f6-4c55-a9de-047ed94825fe","system_id":"levelo_inurba_marseille","lat":43.30058,"lon":5.38588,"is_reserved":false,"is_disabled":false,"rental_uris":{"android":"levelo://app?vid=c1690c5a-45f6-4c55-a9de-047ed94825fe","ios":"levelo://app?vid=c1690c5a-45f6-4c55-a9de-047ed94825fe"},"vehicle_type_id":"4","last_reported":1784231688,"current_range_meters":4000,"station_id":"","pricing_plan_id":"cebpf4jnsgd1na2vs0mg"},{"bike_id":"19341c2d-d3d8-4d62-bcc3-4be2b2012429","system_id":"levelo_inurba_marseille","lat":43.26489,"lon":5.37216,"is_reserved":false,"is_disabled":true,"rental_uris":{"android":"levelo://app?vid=19341c2d-d3d8-4d62-bcc3-4be2b2012429","ios":"levelo://app?vid=19341c2d-d3d8-4d62-bcc3-4be2b2012429"},"vehicle_type_id":"4","last_reported":1784231688,"current_range_meters":0,"station_id":"","pricing_plan_id":"cebpf4jnsgd1na2vs0mg"},{"bike_id":"7ff8118f-6c81-4cdf-8a1d-4753d954065d","system_id":"levelo_inurba_marseille","lat":43.29614,"lon":5.37965,"is_reserved":false,"is_disabled":false,"rental_uris":{"android":"levelo://app?vid=7ff8118f-6c81-4cdf-8a1d-4753d954065d","ios":"levelo://app?vid=7ff8118f-6c81-4cdf-8a1d-4753d954065d"},"vehicle_type_id":"4","last_reported":1784231688,"current_range_meters":12000,"station_id":"","pricing_plan_id":"cebpf4jnsgd1na2vs0mg"},{"bike_id":"3da6bd28-86e6-4bb5-9156-89be9ed06d84","system_id":"levelo_inurba_marseille","lat":43.2839,"lon":5.38892,"is_reserved":false,"is_disabled":false,"rental_uris":{"android":"levelo://app?vid=3da6bd28-86e6-4bb5-9156-89be9ed06d84","ios":"levelo://app?vid=3da6bd28-86e6-4bb5-9156-89be9ed06d84"},"vehicle_type_id":"4","last_reported":1784231688,"current_range_meters":28800,"station_id":"","pricing_plan_id":"cebpf4jnsgd1na2vs0mg"},{"bike_id":"f853e491-d7e8-464d-9464-55b9e28faacc","system_id":"levelo_inurba_marseille","lat":43.26799,"lon":5.38388,"is_reserved":false,"is_disabled":false,"rental_uris":{"android":"levelo://app?vid=f853e491-d7e8-464d-9464-55b9e28faacc","ios":"levelo://app?vid=f853e491-d7e8-464d-9464-55b9e28faacc"},"vehicle_type_id":"4","last_reported":1784231688,"current_range_meters":8000,"station_id":"","pricing_plan_id":"cebpf4jnsgd1na2vs0mg"},{"bike_id":"851f73ad-5e1e-41ff-b74b-1c4b032f1ba9","system_id":"levelo_inurba_marseille","lat":43.26942,"lon":5.40247,"is_reserved":false,"is_disabled":false,"rental_uris":{"android":"levelo://app?vid=851f73ad-5e1e-41ff-b74b-1c4b032f1ba9","ios":"levelo://app?vid=851f73ad-5e1e-41ff-b74b-1c4b032f1ba9"},"vehicle_type_id":"4","last_reported":1784231688,"current_range_meters":13600,"station_id":"cjm6bp8fraef2m0cb0m0","pricing_plan_id":"cebpf4jnsgd1na2vs0mg"},{"bike_id":"463a2e3b-76c2-4feb-bdfe-c83991a79cfe","system_id":"levelo_inurba_marseille","lat":43.26224,"lon":5.37462,"is_reserved":false,"is_disabled":true,"rental_uris":{"android":"levelo://app?vid=463a2e3b-76c2-4feb-bdfe-c83991a79cfe","ios":"levelo://app?vid=463a2e3b-76c2-4feb-bdfe-c83991a79cfe"},"vehicle_type_id":"4","last_reported":1784231688,"current_range_meters":39200,"station_id":"","pricing_plan_id":"cebpf4jnsgd1na2vs0mg"},{"bike_id":"fa00d1c8-0409-431e-9d07-27f516bf6b91","system_id":"levelo_inurba_marseille","lat":43.29971,"lon":5.37173,"is_reserved":false,"is_disabled":false,"rental_uris":{"android":"levelo://app?vid=fa00d1c8-0409-431e-9d07-27f516bf6b91","ios":"levelo://app?vid=fa00d1c8-0409-431e-9d07-27f516bf6b91"},"vehicle_type_id":"4","last_reported":1784231688,"current_range_meters":35600,"station_id":"ce4bgr92rcd13ifvqc7g","pricing_plan_id":"cebpf4jnsgd1na2vs0mg"},{"bike_id":"e4ec1182-9638-464e-8e60-c34432d8b038","system_id":"levelo_inurba_marseille","lat":43.26573,"lon":5.37265,"is_reserved":false,"is_disabled":false,"rental_uris":{"android":"levelo://app?vid=e4ec1182-9638-464e-8e60-c34432d8b038","ios":"levelo://app?vid=e4ec1182-9638-464e-8e60-c34432d8b038"},"vehicle_type_id":"4","last_reported":1784231688,"current_range_meters":26000,"station_id":"ce4bhg12rcd13ifvqf70","pricing_plan_id":"cebpf4jnsgd1na2vs0mg"},{"bike_id":"3bc96e7d-058c-48cf-bcc2-db839609b11c","system_id":"levelo_inurba_marseille","lat":43.31489,"lon":5.37311,"is_reserved":false,"is_disabled":false,"rental_uris":{"android":"levelo://app?vid=3bc96e7d-058c-48cf-bcc2-db839609b11c","ios":"levelo://app?vid=3bc96e7d-058c-48cf-bcc2-db839609b11c"},"vehicle_type_id":"4","last_reported":1784231688,"current_range_meters":39200,"station_id":"ce4bgt12rcd13ifvqcd0","pricing_plan_id":"cebpf4jnsgd1na2vs0mg"},{"bike_id":"6b7bc794-a8b6-4b15-bdfb-b2fb240ae758","system_id":"levelo_inurba_marseille","lat":43.28428,"lon":5.34978,"is_reserved":false,"is_disabled":true,"rental_uris":{"android":"levelo://app?vid=6b7bc794-a8b6-4b15-bdfb-b2fb240ae758","ios":"levelo://app?vid=6b7bc794-a8b6-4b15-bdfb-b2fb240ae758"},"vehicle_type_id":"4","last_reported":1784231688,"current_range_meters":40000,"station_id":"ce4bhbh2rcd13ifvqepg","pricing_plan_id":"cebpf4jnsgd1na2vs0mg"},{"bike_id":"ccb7aa3c-d66b-4147-9c3e-2e8014c4c176","system_id":"levelo_inurba_marseille","lat":43.2886,"lon":5.35879,"is_reserved":false,"is_disabled":false,"rental_uris":{"android":"levelo://app?vid=ccb7aa3c-d66b-4147-9c3e-2e8014c4c176","ios":"levelo://app?vid=ccb7aa3c-d66b-4147-9c3e-2e8014c4c176"},"vehicle_type_id":"4","last_reported":1784231688,"current_range_meters":12400,"station_id":"ce4bhb12rcd13ifvqem0","pricing_plan_id":"cebpf4jnsgd1na2vs0mg"},{"bike_id":"b26d3c6c-2fb5-4334-ac4a-b1c66202902a","system_id":"levelo_inurba_marseille","lat":43.29837,"lon":5.36225,"is_reserved":false,"is_disabled":false,"rental_uris":{"android":"levelo://app?vid=b26d3c6c-2fb5-4334-ac4a-b1c66202902a","ios":"levelo://app?vid=b26d3c6c-2fb5-4334-ac4a-b1c66202902a"},"vehicle_type_id":"4","last_reported":1784231688,"current_range_meters":9200,"station_id":"ce4bgpp2rcd13ifvqc3g","pricing_plan_id":"cebpf4jnsgd1na2vs0mg"},{"bike_id":"b757706d-1d17-4285-9a90-30a7e24d51ef","system_id":"levelo_inurba_marseille","lat":43.284765,"lon":5.384108,"is_reserved":false,"is_disabled":false,"rental_uris":{"android":"levelo://app?vid=b757706d-1d17-4285-9a90-30a7e24d51ef","ios":"levelo://app?vid=b757706d-1d17-4285-9a90-30a7e24d51ef"},"vehicle_type_id":"4","last_reported":1784231688,"current_range_meters":39200,"station_id":"ce4bh512rcd13ifvqe3g","pricing_plan_id":"cebpf4jnsgd1na2vs0mg"},{"bike_id":"d6b0724d-3030-4e7b-8778-a4d582b3070a","system_id":"levelo_inurba_marseille","lat":43.28633,"lon":5.35119,"is_reserved":false,"is_disabled":true,"rental_uris":{"android":"levelo://app?vid=d6b0724d-3030-4e7b-8778-a4d582b3070a","ios":"levelo://app?vid=d6b0724d-3030-4e7b-8778-a4d582b3070a"},"vehicle_type_id":"4","last_reported":1784231688,"current_range_meters":27200,"station_id":"ce4bhch2rcd13ifvqeug","pricing_plan_id":"cebpf4jnsgd1na2vs0mg"},{"bike_id":"6d021730-d531-4dee-aa53-25973b29205e","system_id":"levelo_inurba_marseille","lat":43.25002,"lon":5.38934,"is_reserved":false,"is_disabled":false,"rental_uris":{"android":"levelo://app?vid=6d021730-d531-4dee-aa53-25973b29205e","ios":"levelo://app?vid=6d021730-d531-4dee-aa53-25973b29205e"},"vehicle_type_id":"4","last_reported":1784231688,"current_range_meters":7200,"station_id":"ce4bhgp2rcd13ifvqfd0","pricing_plan_id":"cebpf4jnsgd1na2vs0mg"},{"bike_id":"9cc6c239-725c-40a8-b609-f508ab603d31","system_id":"levelo_inurba_marseille","lat":43.28852,"lon":5.35854,"is_reserved":false,"is_disabled":false,"rental_uris":{"android":"levelo://app?vid=9cc6c239-725c-40a8-b609-f508ab603d31","ios":"levelo://app?vid=9cc6c239-725c-40a8-b609-f508ab603d31"},"vehicle_type_id":"4","last_reported":1784231688,"current_range_meters":40000,"station_id":"ce4bhb12rcd13ifvqem0","pricing_plan_id":"cebpf4jnsgd1na2vs0mg"},{"bike_id":"fb58b4a5-8e17-45a1-95b4-c617e83b05f9","system_id":"levelo_inurba_marseille","lat":43.23179,"lon":5.39991,"is_reserved":false,"is_disabled":false,"rental_uris":{"android":"levelo://app?vid=fb58b4a5-8e17-45a1-95b4-c617e83b05f9","ios":"levelo://app?vid=fb58b4a5-8e17-45a1-95b4-c617e83b05f9"},"vehicle_type_id":"4","last_reported":1784231688,"current_range_meters":4000,"station_id":"ce4bhn12rcd13ifvqgqg","pricing_plan_id":"cebpf4jnsgd1na2vs0mg"},{"bike_id":"ebd36002-a5bb-49e4-a04e-9387f979b105","system_id":"levelo_inurba_marseille","lat":43.29879,"lon":5.39734,"is_reserved":false,"is_disabled":false,"rental_uris":{"android":"levelo://app?vid=ebd36002-a5bb-49e4-a04e-9387f979b105","ios":"levelo://app?vid=ebd36002-a5bb-49e4-a04e-9387f979b105"},"vehicle_type_id":"4","last_reported":1784231688,"current_range_meters":40000,"station_id":"ce4bh0h2rcd13ifvqd50","pricing_plan_id":"cebpf4jnsgd1na2vs0mg"},{"bike_id":"17ef7521-be57-48c8-a115-ded8df7df309","system_id":"levelo_inurba_marseille","lat":43.26191,"lon":5.37454,"is_reserved":false,"is_disabled":true,"rental_uris":{"android":"levelo://app?vid=17ef7521-be57-48c8-a115-ded8df7df309","ios":"levelo://app?vid=17ef7521-be57-48c8-a115-ded8df7df309"},"vehicle_type_id":"4","last_reported":1784231688,"current_range_meters":39200,"station_id":"ce4bhgp2rcd13ifvqfc0","pricing_plan_id":"cebpf4jnsgd1na2vs0mg"},{"bike_id":"077a3304-3b53-43f3-b12c-af239c6d492c","system_id":"levelo_inurba_marseille","lat":43.31497,"lon":5.37296,"is_reserved":false,"is_disabled":false,"rental_uris":{"android":"levelo://app?vid=077a3304-3b53-43f3-b12c-af239c6d492c","ios":"levelo://app?vid=077a3304-3b53-43f3-b12c-af239c6d492c"},"vehicle_type_id":"4","last_reported":1784231688,"current_range_meters":36400,"station_id":"ce4bgt12rcd13ifvqcd0","pricing_plan_id":"cebpf4jnsgd1na2vs0mg"},{"bike_id":"1e628dec-3141-48e0-b510-1c285ab03f4c","system_id":"levelo_inurba_marseille","lat":43.26393,"lon":5.41066,"is_reserved":false,"is_disabled":true,"rental_uris":{"android":"levelo://app?vid=1e628dec-3141-48e0-b510-1c285ab03f4c","ios":"levelo://app?vid=1e628dec-3141-48e0-b510-1c285ab03f4c"},"vehicle_type_id":"4","last_reported":1784231688,"current_range_meters":2800,"station_id":"st_d4e5ca6na9uc73bfl5fg","pricing_plan_id":"cebpf4jnsgd1na2vs0mg"},{"bike_id":"8337f5b4-2806-4bc0-9f71-af183adb5db8","system_id":"levelo_inurba_marseille","lat":43.231359,"lon":5.437577,"is_reserved":false,"is_disabled":false,"rental_uris":{"android":"levelo://app?vid=8337f5b4-2806-4bc0-9f71-af183adb5db8","ios":"levelo://app?vid=8337f5b4-2806-4bc0-9f71-af183adb5db8"},"vehicle_type_id":"4","last_reported":1784231688,"current_range_meters":2800,"station_id":"","pricing_plan_id":"cebpf4jnsgd1na2vs0mg"},{"bike_id":"96b3e93f-0112-4f46-8c8b-63688c35b1f2","system_id":"levelo_inurba_marseille","lat":43.29195,"lon":5.35837,"is_reserved":false,"is_disabled":false,"rental_uris":{"android":"levelo://app?vid=96b3e93f-0112-4f46-8c8b-63688c35b1f2","ios":"levelo://app?vid=96b3e93f-0112-4f46-8c8b-63688c35b1f2"},"vehicle_type_id":"4","last_reported":1784231688,"current_range_meters":25600,"station_id":"ce4bhb12rcd13ifvqel0","pricing_plan_id":"cebpf4jnsgd1na2vs0mg"},{"bike_id":"9816fcfb-fed5-46a5-a828-dec154df7717","system_id":"levelo_inurba_marseille","lat":43.26809,"lon":5.40268,"is_reserved":false,"is_disabled":true,"rental_uris":{"android":"levelo://app?vid=9816fcfb-fed5-46a5-a828-dec154df7717","ios":"levelo://app?vid=9816fcfb-fed5-46a5-a828-dec154df7717"},"vehicle_type_id":"4","last_reported":1784231688,"current_range_meters":29600,"station_id":"ce501612rcd8frsf0b60","pricing_plan_id":"cebpf4jnsgd1na2vs0mg"},{"bike_id":"a8bbd6ea-c325-46d4-b31c-48adac51ab32","system_id":"levelo_inurba_marseille","lat":43.311204,"lon":5.37774,"is_reserved":false,"is_disabled":false,"rental_uris":{"android":"levelo://app?vid=a8bbd6ea-c325-46d4-b31c-48adac51ab32","ios":"levelo://app?vid=a8bbd6ea-c325-46d4-b31c-48adac51ab32"},"vehicle_type_id":"4","last_reported":1784231688,"current_range_meters":5600,"station_id":"ce4bgt92rcd13ifvqcg0","pricing_plan_id":"cebpf4jnsgd1na2vs0mg"},{"bike_id":"9a3d08c5-4dc6-4580-89ff-786fba150be9","system_id":"levelo_inurba_marseille","lat":43.29216,"lon":5.35794,"is_reserved":false,"is_disabled":false,"rental_uris":{"android":"levelo://app?vid=9a3d08c5-4dc6-4580-89ff-786fba150be9","ios":"levelo://app?vid=9a3d08c5-4dc6-4580-89ff-786fba150be9"},"vehicle_type_id":"4","last_reported":1784231688,"current_range_meters":36000,"station_id":"ce4bhb12rcd13ifvqel0","pricing_plan_id":"cebpf4jnsgd1na2vs0mg"},{"bike_id":"1482fdfa-2540-41f7-9a34-6b8e86807598","system_id":"levelo_inurba_marseille","lat":43.27374,"lon":5.36259,"is_reserved":false,"is_disabled":false,"rental_uris":{"android":"levelo://app?vid=1482fdfa-2540-41f7-9a34-6b8e86807598","ios":"levelo://app?vid=1482fdfa-2540-41f7-9a34-6b8e86807598"},"vehicle_type_id":"4","last_reported":1784231688,"current_range_meters":22000,"station_id":"ce4bhbh2rcd13ifvqeo0","pricing_plan_id":"cebpf4jnsgd1na2vs0mg"},{"bike_id":"68db2b70-f50d-43a3-8171-99c4f159ea09","system_id":"levelo_inurba_marseille","lat":43.24803,"lon":5.37457,"is_reserved":false,"is_disabled":false,"rental_uris":{"android":"levelo://app?vid=68db2b70-f50d-43a3-8171-99c4f159ea09","ios":"levelo://app?vid=68db2b70-f50d-43a3-8171-99c4f159ea09"},"vehicle_type_id":"4","last_reported":1784231688,"current_range_meters":9200,"station_id":"ce4bhgh2rcd13ifvqfb0","pricing_plan_id":"cebpf4jnsgd1na2vs0mg"},{"bike_id":"bd529bea-55e2-462e-96f2-84ef02ccf732","system_id":"levelo_inurba_marseille","lat":43.31372,"lon":5.38517,"is_reserved":false,"is_disabled":false,"rental_uris":{"android":"levelo://app?vid=bd529bea-55e2-462e-96f2-84ef02ccf732","ios":"levelo://app?vid=bd529bea-55e2-462e-96f2-84ef02ccf732"},"vehicle_type_id":"4","last_reported":1784231688,"current_range_meters":25200,"station_id":"ce4bgt92rcd13ifvqcf0","pricing_plan_id":"cebpf4jnsgd1na2vs0mg"},{"bike_id":"de836a4f-3506-45ef-b6ab-2a2745f881ed","system_id":"levelo_inurba_marseille","lat":43.29526,"lon":5.38395,"is_reserved":false,"is_disabled":false,"rental_uris":{"android":"levelo://app?vid=de836a4f-3506-45ef-b6ab-2a2745f881ed","ios":"levelo://app?vid=de836a4f-3506-45ef-b6ab-2a2745f881ed"},"vehicle_type_id":"4","last_reported":1784231688,"current_range_meters":18800,"station_id":"","pricing_plan_id":"cebpf4jnsgd1na2vs0mg"},{"bike_id":"54dd7e7b-9437-4b58-bc97-2a8150d73cf8","system_id":"levelo_inurba_marseille","lat":43.28606,"lon":5.35171,"is_reserved":false,"is_disabled":false,"rental_uris":{"android":"levelo://app?vid=54dd7e7b-9437-4b58-bc97-2a8150d73cf8","ios":"levelo://app?vid=54dd7e7b-9437-4b58-bc97-2a8150d73cf8"},"vehicle_type_id":"4","last_reported":1784231688,"current_range_meters":37600,"station_id":"","pricing_plan_id":"cebpf4jnsgd1na2vs0mg"},{"bike_id":"942148f9-90f2-4171-8f05-98ba0ca85bcb","system_id":"levelo_inurba_marseille","lat":43.28461,"lon":5.48409,"is_reserved":false,"is_disabled":false,"rental_uris":{"android":"levelo://app?vid=942148f9-90f2-4171-8f05-98ba0ca85bcb","ios":"levelo://app?vid=942148f9-90f2-4171-8f05-98ba0ca85bcb"},"vehicle_type_id":"4","last_reported":1784231688,"current_range_meters":11600,"station_id":"st_d3svhcjqgbts73a3dn0g","pricing_plan_id":"cebpf4jnsgd1na2vs0mg"},{"bike_id":"48085ef1-b104-41ff-b1a8-de34e84648fa","system_id":"levelo_inurba_marseille","lat":43.25007,"lon":5.3893,"is_reserved":false,"is_disabled":false,"rental_uris":{"android":"levelo://app?vid=48085ef1-b104-41ff-b1a8-de34e84648fa","ios":"levelo://app?vid=48085ef1-b104-41ff-b1a8-de34e84648fa"},"vehicle_type_id":"4","last_reported":1784231688,"current_range_meters":8800,"station_id":"ce4bhgp2rcd13ifvqfd0","pricing_plan_id":"cebpf4jnsgd1na2vs0mg"},{"bike_id":"b2b194ed-86a5-4dc8-b828-5b80e1681197","system_id":"levelo_inurba_marseille","lat":43.28548,"lon":5.44107,"is_reserved":false,"is_disabled":false,"rental_uris":{"android":"levelo://app?vid=b2b194ed-86a5-4dc8-b828-5b80e1681197","ios":"levelo://app?vid=b2b194ed-86a5-4dc8-b828-5b80e1681197"},"vehicle_type_id":"4","last_reported":1784231688,"current_range_meters":40000,"station_id":"st_d3j3df2ikq2c7380ej80","pricing_plan_id":"cebpf4jnsgd1na2vs0mg"},{"bike_id":"2a93def1-9840-4751-b465-b53bb0ce6123","system_id":"levelo_inurba_marseille","lat":43.22563,"lon":5.41628,"is_reserved":false,"is_disabled":false,"rental_uris":{"android":"levelo://app?vid=2a93def1-9840-4751-b465-b53bb0ce6123","ios":"levelo://app?vid=2a93def1-9840-4751-b465-b53bb0ce6123"},"vehicle_type_id":"4","last_reported":1784231688,"current_range_meters":19600,"station_id":"st_d2o4gvlbi1j2169b742g","pricing_plan_id":"cebpf4jnsgd1na2vs0mg"},{"bike_id":"ff8cbcca-37d3-49dd-af4b-126722b555ff","system_id":"levelo_inurba_marseille","lat":43.24062,"lon":5.37751,"is_reserved":false,"is_disabled":false,"rental_uris":{"android":"levelo://app?vid=ff8cbcca-37d3-49dd-af4b-126722b555ff","ios":"levelo://app?vid=ff8cbcca-37d3-49dd-af4b-126722b555ff"},"vehicle_type_id":"4","last_reported":1784231688,"current_range_meters":28400,"station_id":"ce4bhnp2rcd13ifvqgvg","pricing_plan_id":"cebpf4jnsgd1na2vs0mg"},{"bike_id":"10592882-7bed-4bde-a924-b4cdb04c175f","system_id":"levelo_inurba_marseille","lat":43.28156,"lon":5.42649,"is_reserved":false,"is_disabled":false,"rental_uris":{"android":"levelo://app?vid=10592882-7bed-4bde-a924-b4cdb04c175f","ios":"levelo://app?vid=10592882-7bed-4bde-a924-b4cdb04c175f"},"vehicle_type_id":"4","last_reported":1784231688,"current_range_meters":38000,"station_id":"ce4bhnh2rcd13ifvqgug","pricing_plan_id":"cebpf4jnsgd1na2vs0mg"},{"bike_id":"b617c35b-7c51-4687-9948-30e5ef21086e","system_id":"levelo_inurba_marseille","lat":43.28719,"lon":5.46694,"is_reserved":false,"is_disabled":false,"rental_uris":{"android":"levelo://app?vid=b617c35b-7c51-4687-9948-30e5ef21086e","ios":"levelo://app?vid=b617c35b-7c51-4687-9948-30e5ef21086e"},"vehicle_type_id":"4","last_reported":1784231688,"current_range_meters":17200,"station_id":"st_d6tc3vkotcvc738tfjhg","pricing_plan_id":"cebpf4jnsgd1na2vs0mg"},{"bike_id":"1dfe897a-711b-4f2c-ab8f-22ee96ee086c","system_id":"levelo_inurba_marseille","lat":43.29527,"lon":5.38548,"is_reserved":false,"is_disabled":false,"rental_uris":{"android":"levelo://app?vid=1dfe897a-711b-4f2c-ab8f-22ee96ee086c","ios":"levelo://app?vid=1dfe897a-711b-4f2c-ab8f-22ee96ee086c"},"vehicle_type_id":"4","last_reported":1784231688,"current_range_meters":8400,"station_id":"ce4bgih2rcd13ifvqba0","pricing_plan_id":"cebpf4jnsgd1na2vs0mg"},{"bike_id":"59e52e7b-636e-4cc2-9343-220b12163242","system_id":"levelo_inurba_marseille","lat":43.2886,"lon":5.35846,"is_reserved":false,"is_disabled":false,"rental_uris":{"android":"levelo://app?vid=59e52e7b-636e-4cc2-9343-220b12163242","ios":"levelo://app?vid=59e52e7b-636e-4cc2-9343-220b12163242"},"vehicle_type_id":"4","last_reported":1784231688,"current_range_meters":39200,"station_id":"ce4bhb12rcd13ifvqem0","pricing_plan_id":"cebpf4jnsgd1na2vs0mg"},{"bike_id":"abd28b51-9db3-4251-8023-1ab1c1cc68c9","system_id":"levelo_inurba_marseille","lat":43.27997,"lon":5.41666,"is_reserved":false,"is_disabled":true,"rental_uris":{"android":"levelo://app?vid=abd28b51-9db3-4251-8023-1ab1c1cc68c9","ios":"levelo://app?vid=abd28b51-9db3-4251-8023-1ab1c1cc68c9"},"vehicle_type_id":"4","last_reported":1784231688,"current_range_meters":26000,"station_id":"ce4bho12rcd13ifvqh1g","pricing_plan_id":"cebpf4jnsgd1na2vs0mg"},{"bike_id":"bd9c556f-7063-40f7-a6b3-df56fc45987e","system_id":"levelo_inurba_marseille","lat":43.30262,"lon":5.40078,"is_reserved":false,"is_disabled":false,"rental_uris":{"android":"levelo://app?vid=bd9c556f-7063-40f7-a6b3-df56fc45987e","ios":"levelo://app?vid=bd9c556f-7063-40f7-a6b3-df56fc45987e"},"vehicle_type_id":"4","last_reported":1784231688,"current_range_meters":33600,"station_id":"ce4bgvh2rcd13ifvqcs0","pricing_plan_id":"cebpf4jnsgd1na2vs0mg"},{"bike_id":"6d32b765-aa0d-46a8-942b-fd272d4b06e6","system_id":"levelo_inurba_marseille","lat":43.27629,"lon":5.36091,"is_reserved":false,"is_disabled":true,"rental_uris":{"android":"levelo://app?vid=6d32b765-aa0d-46a8-942b-fd272d4b06e6","ios":"levelo://app?vid=6d32b765-aa0d-46a8-942b-fd272d4b06e6"},"vehicle_type_id":"4","last_reported":1784231688,"current_range_meters":10000,"station_id":"ce4bgj92rcd13ifvqbe0","pricing_plan_id":"cebpf4jnsgd1na2vs0mg"},{"bike_id":"e853c286-9cd5-4ce2-934e-cb8344568ef0","system_id":"levelo_inurba_marseille","lat":43.2176,"lon":5.34574,"is_reserved":false,"is_disabled":false,"rental_uris":{"android":"levelo://app?vid=e853c286-9cd5-4ce2-934e-cb8344568ef0","ios":"levelo://app?vid=e853c286-9cd5-4ce2-934e-cb8344568ef0"},"vehicle_type_id":"4","last_reported":1784231688,"current_range_meters":20400,"station_id":"st_cvj6r9ubvosntc0bgbag","pricing_plan_id":"cebpf4jnsgd1na2vs0mg"},{"bike_id":"a4c568e9-c023-45d7-85c9-83cade681eea","system_id":"levelo_inurba_marseille","lat":43.24788,"lon":5.37437,"is_reserved":false,"is_disabled":false,"rental_uris":{"android":"levelo://app?vid=a4c568e9-c023-45d7-85c9-83cade681eea","ios":"levelo://app?vid=a4c568e9-c023-45d7-85c9-83cade681eea"},"vehicle_type_id":"4","last_reported":1784231688,"current_range_meters":39200,"station_id":"ce4bhgh2rcd13ifvqfb0","pricing_plan_id":"cebpf4jnsgd1na2vs0mg"},{"bike_id":"57889d2e-37dd-4f8f-b3ab-1bc0a62b2215","system_id":"levelo_inurba_marseille","lat":43.30457,"lon":5.37899,"is_reserved":false,"is_disabled":true,"rental_uris":{"android":"levelo://app?vid=57889d2e-37dd-4f8f-b3ab-1bc0a62b2215","ios":"levelo://app?vid=57889d2e-37dd-4f8f-b3ab-1bc0a62b2215"},"vehicle_type_id":"4","last_reported":1784231688,"current_range_meters":28000,"station_id":"ce4bgup2rcd13ifvqcn0","pricing_plan_id":"cebpf4jnsgd1na2vs0mg"},{"bike_id":"7135d7f5-2834-488f-baf4-a3b0445e023c","system_id":"levelo_inurba_marseille","lat":43.279732,"lon":5.387456,"is_reserved":false,"is_disabled":true,"rental_uris":{"android":"levelo://app?vid=7135d7f5-2834-488f-baf4-a3b0445e023c","ios":"levelo://app?vid=7135d7f5-2834-488f-baf4-a3b0445e023c"},"vehicle_type_id":"4","last_reported":1784231688,"current_range_meters":36400,"station_id":"ce4bhg12rcd13ifvqf80","pricing_plan_id":"cebpf4jnsgd1na2vs0mg"},{"bike_id":"59304bdd-9eb8-477d-b72f-d8d720f4b2d9","system_id":"levelo_inurba_marseille","lat":43.30434,"lon":5.38898,"is_reserved":false,"is_disabled":false,"rental_uris":{"android":"levelo://app?vid=59304bdd-9eb8-477d-b72f-d8d720f4b2d9","ios":"levelo://app?vid=59304bdd-9eb8-477d-b72f-d8d720f4b2d9"},"vehicle_type_id":"4","last_reported":1784231688,"current_range_meters":24400,"station_id":"ce4bgk12rcd13ifvqbi0","pricing_plan_id":"cebpf4jnsgd1na2vs0mg"},{"bike_id":"8946fedd-2e32-49ed-b51d-8d2209da3742","system_id":"levelo_inurba_marseille","lat":43.29441,"lon":5.38129,"is_reserved":false,"is_disabled":false,"rental_uris":{"android":"levelo://app?vid=8946fedd-2e32-49ed-b51d-8d2209da3742","ios":"levelo://app?vid=8946fedd-2e32-49ed-b51d-8d2209da3742"},"vehicle_type_id":"4","last_reported":1784231688,"current_range_meters":10000,"station_id":"","pricing_plan_id":"cebpf4jnsgd1na2vs0mg"},{"bike_id":"51905566-557d-413c-97fd-b84daf11e827","system_id":"levelo_inurba_marseille","lat":43.27911,"lon":5.39573,"is_reserved":false,"is_disabled":true,"rental_uris":{"android":"levelo://app?vid=51905566-557d-413c-97fd-b84daf11e827","ios":"levelo://app?vid=51905566-557d-413c-97fd-b84daf11e827"},"vehicle_type_id":"4","last_reported":1784231688,"current_range_meters":32000,"station_id":"ce4bhf92rcd13ifvqf40","pricing_plan_id":"cebpf4jnsgd1na2vs0mg"},{"bike_id":"5b007cdb-bdf9-4b55-bc13-b75c34c1dd42","system_id":"levelo_inurba_marseille","lat":43.29694,"lon":5.3731,"is_reserved":false,"is_disabled":false,"rental_uris":{"android":"levelo://app?vid=5b007cdb-bdf9-4b55-bc13-b75c34c1dd42","ios":"levelo://app?vid=5b007cdb-bdf9-4b55-bc13-b75c34c1dd42"},"vehicle_type_id":"4","last_reported":1784231688,"current_range_meters":12800,"station_id":"ce4bgk12rcd13ifvqbj0","pricing_plan_id":"cebpf4jnsgd1na2vs0mg"},{"bike_id":"aea11bbc-2d6f-4be0-b121-dbc2d33dd165","system_id":"levelo_inurba_marseille","lat":43.32016,"lon":5.41542,"is_reserved":false,"is_disabled":false,"rental_uris":{"android":"levelo://app?vid=aea11bbc-2d6f-4be0-b121-dbc2d33dd165","ios":"levelo://app?vid=aea11bbc-2d6f-4be0-b121-dbc2d33dd165"},"vehicle_type_id":"4","last_reported":1784231688,"current_range_meters":39200,"station_id":"ce4bhq92rcd13ifvqhkg","pricing_plan_id":"cebpf4jnsgd1na2vs0mg"},{"bike_id":"b4946daf-69c3-40cd-9846-e8dc3a52f4e3","system_id":"levelo_inurba_marseille","lat":43.26211,"lon":5.37439,"is_reserved":false,"is_disabled":false,"rental_uris":{"android":"levelo://app?vid=b4946daf-69c3-40cd-9846-e8dc3a52f4e3","ios":"levelo://app?vid=b4946daf-69c3-40cd-9846-e8dc3a52f4e3"},"vehicle_type_id":"4","last_reported":1784231688,"current_range_meters":4000,"station_id":"","pricing_plan_id":"cebpf4jnsgd1na2vs0mg"},{"bike_id":"4c6ecbea-a926-4293-8ede-b01e0502d0a0","system_id":"levelo_inurba_marseille","lat":43.28462,"lon":5.35882,"is_reserved":false,"is_disabled":false,"rental_uris":{"android":"levelo://app?vid=4c6ecbea-a926-4293-8ede-b01e0502d0a0","ios":"levelo://app?vid=4c6ecbea-a926-4293-8ede-b01e0502d0a0"},"vehicle_type_id":"4","last_reported":1784231688,"current_range_meters":14400,"station_id":"ce4bhah2rcd13ifvqei0","pricing_plan_id":"cebpf4jnsgd1na2vs0mg"},{"bike_id":"96825e0c-14e6-44a1-9638-22706c4a0540","system_id":"levelo_inurba_marseille","lat":43.27261,"lon":5.39071,"is_reserved":false,"is_disabled":true,"rental_uris":{"android":"levelo://app?vid=96825e0c-14e6-44a1-9638-22706c4a0540","ios":"levelo://app?vid=96825e0c-14e6-44a1-9638-22706c4a0540"},"vehicle_type_id":"4","last_reported":1784231688,"current_range_meters":7200,"station_id":"","pricing_plan_id":"cebpf4jnsgd1na2vs0mg"},{"bike_id":"945ce0ea-ffc1-40d7-9ea3-c6ada1751970","system_id":"levelo_inurba_marseille","lat":43.31152,"lon":5.38758,"is_reserved":false,"is_disabled":false,"rental_uris":{"android":"levelo://app?vid=945ce0ea-ffc1-40d7-9ea3-c6ada1751970","ios":"levelo://app?vid=945ce0ea-ffc1-40d7-9ea3-c6ada1751970"},"vehicle_type_id":"4","last_reported":1784231688,"current_range_meters":16400,"station_id":"","pricing_plan_id":"cebpf4jnsgd1na2vs0mg"},{"bike_id":"13c67d10-4be5-40a6-a763-47bbc79ea4b7","system_id":"levelo_inurba_marseille","lat":43.258259,"lon":5.394385,"is_reserved":false,"is_disabled":false,"rental_uris":{"android":"levelo://app?vid=13c67d10-4be5-40a6-a763-47bbc79ea4b7","ios":"levelo://app?vid=13c67d10-4be5-40a6-a763-47bbc79ea4b7"},"vehicle_type_id":"4","last_reported":1784231688,"current_range_meters":37600,"station_id":"ce4bhip2rcd13ifvqft0","pricing_plan_id":"cebpf4jnsgd1na2vs0mg"},{"bike_id":"6a5e656e-7e2b-41c6-a76d-42c33af7f3ce","system_id":"levelo_inurba_marseille","lat":43.25504,"lon":5.37681,"is_reserved":false,"is_disabled":false,"rental_uris":{"android":"levelo://app?vid=6a5e656e-7e2b-41c6-a76d-42c33af7f3ce","ios":"levelo://app?vid=6a5e656e-7e2b-41c6-a76d-42c33af7f3ce"},"vehicle_type_id":"4","last_reported":1784231688,"current_range_meters":11200,"station_id":"ce4bhh12rcd13ifvqff0","pricing_plan_id":"cebpf4jnsgd1na2vs0mg"},{"bike_id":"3897b37b-5ebf-4f3a-8458-0d1f0b06c771","system_id":"levelo_inurba_marseille","lat":43.30568,"lon":5.36769,"is_reserved":false,"is_disabled":false,"rental_uris":{"android":"levelo://app?vid=3897b37b-5ebf-4f3a-8458-0d1f0b06c771","ios":"levelo://app?vid=3897b37b-5ebf-4f3a-8458-0d1f0b06c771"},"vehicle_type_id":"4","last_reported":1784231688,"current_range_meters":37600,"station_id":"ce4bgrp2rcd13ifvqc9g","pricing_plan_id":"cebpf4jnsgd1na2vs0mg"},{"bike_id":"cbf57bb6-373a-442c-9860-92cf9215a1bb","system_id":"levelo_inurba_marseille","lat":43.30567,"lon":5.36545,"is_reserved":false,"is_disabled":true,"rental_uris":{"android":"levelo://app?vid=cbf57bb6-373a-442c-9860-92cf9215a1bb","ios":"levelo://app?vid=cbf57bb6-373a-442c-9860-92cf9215a1bb"},"vehicle_type_id":"4","last_reported":1784231688,"current_range_meters":30000,"station_id":"ce4bgs12rcd13ifvqcag","pricing_plan_id":"cebpf4jnsgd1na2vs0mg"},{"bike_id":"526ea6dd-4ceb-4695-bdfc-c91e5c936d82","system_id":"levelo_inurba_marseille","lat":43.2925,"lon":5.38432,"is_reserved":false,"is_disabled":false,"rental_uris":{"android":"levelo://app?vid=526ea6dd-4ceb-4695-bdfc-c91e5c936d82","ios":"levelo://app?vid=526ea6dd-4ceb-4695-bdfc-c91e5c936d82"},"vehicle_type_id":"4","last_reported":1784231688,"current_range_meters":18000,"station_id":"ce4bh692rcd13ifvqea0","pricing_plan_id":"cebpf4jnsgd1na2vs0mg"},{"bike_id":"569b3651-7a03-491f-ab1e-676c9f9f6a01","system_id":"levelo_inurba_marseille","lat":43.28165,"lon":5.39195,"is_reserved":false,"is_disabled":true,"rental_uris":{"android":"levelo://app?vid=569b3651-7a03-491f-ab1e-676c9f9f6a01","ios":"levelo://app?vid=569b3651-7a03-491f-ab1e-676c9f9f6a01"},"vehicle_type_id":"4","last_reported":1784231688,"current_range_meters":0,"station_id":"","pricing_plan_id":"cebpf4jnsgd1na2vs0mg"},{"bike_id":"fad4d476-b565-4b81-9166-a20796df0b18","system_id":"levelo_inurba_marseille","lat":43.24798,"lon":5.37448,"is_reserved":false,"is_disabled":false,"rental_uris":{"android":"levelo://app?vid=fad4d476-b565-4b81-9166-a20796df0b18","ios":"levelo://app?vid=fad4d476-b565-4b81-9166-a20796df0b18"},"vehicle_type_id":"4","last_reported":1784231688,"current_range_meters":22800,"station_id":"","pricing_plan_id":"cebpf4jnsgd1na2vs0mg"},{"bike_id":"fbd7f344-e86a-4842-9a3a-3fdad77fffc5","system_id":"levelo_inurba_marseille","lat":43.28102,"lon":5.37836,"is_reserved":false,"is_disabled":false,"rental_uris":{"android":"levelo://app?vid=fbd7f344-e86a-4842-9a3a-3fdad77fffc5","ios":"levelo://app?vid=fbd7f344-e86a-4842-9a3a-3fdad77fffc5"},"vehicle_type_id":"4","last_reported":1784231688,"current_range_meters":39200,"station_id":"ce4bha12rcd13ifvqee0","pricing_plan_id":"cebpf4jnsgd1na2vs0mg"},{"bike_id":"e8b2132e-2e2f-4678-bd27-ce3f9f11f158","system_id":"levelo_inurba_marseille","lat":43.30457,"lon":5.37893,"is_reserved":false,"is_disabled":true,"rental_uris":{"android":"levelo://app?vid=e8b2132e-2e2f-4678-bd27-ce3f9f11f158","ios":"levelo://app?vid=e8b2132e-2e2f-4678-bd27-ce3f9f11f158"},"vehicle_type_id":"4","last_reported":1784231688,"current_range_meters":23200,"station_id":"ce4bgup2rcd13ifvqcn0","pricing_plan_id":"cebpf4jnsgd1na2vs0mg"},{"bike_id":"17f00b12-f8d0-413a-b992-98dadbd11261","system_id":"levelo_inurba_marseille","lat":43.2501,"lon":5.38921,"is_reserved":false,"is_disabled":false,"rental_uris":{"android":"levelo://app?vid=17f00b12-f8d0-413a-b992-98dadbd11261","ios":"levelo://app?vid=17f00b12-f8d0-413a-b992-98dadbd11261"},"vehicle_type_id":"4","last_reported":1784231688,"current_range_meters":38000,"station_id":"ce4bhgp2rcd13ifvqfd0","pricing_plan_id":"cebpf4jnsgd1na2vs0mg"},{"bike_id":"93f173f0-b5e7-453c-b62d-5cea08429256","system_id":"levelo_inurba_marseille","lat":43.29202,"lon":5.35794,"is_reserved":false,"is_disabled":true,"rental_uris":{"android":"levelo://app?vid=93f173f0-b5e7-453c-b62d-5cea08429256","ios":"levelo://app?vid=93f173f0-b5e7-453c-b62d-5cea08429256"},"vehicle_type_id":"4","last_reported":1784231688,"current_range_meters":30800,"station_id":"ce4bhb12rcd13ifvqel0","pricing_plan_id":"cebpf4jnsgd1na2vs0mg"},{"bike_id":"8387de71-93c6-4816-ae34-caaa96dd1a22","system_id":"levelo_inurba_marseille","lat":43.29522,"lon":5.38527,"is_reserved":false,"is_disabled":false,"rental_uris":{"android":"levelo://app?vid=8387de71-93c6-4816-ae34-caaa96dd1a22","ios":"levelo://app?vid=8387de71-93c6-4816-ae34-caaa96dd1a22"},"vehicle_type_id":"4","last_reported":1784231688,"current_range_meters":39200,"station_id":"ce4bgih2rcd13ifvqba0","pricing_plan_id":"cebpf4jnsgd1na2vs0mg"},{"bike_id":"4f54c651-15d1-492f-8d09-70f1f809ad4f","system_id":"levelo_inurba_marseille","lat":43.27509,"lon":5.42551,"is_reserved":false,"is_disabled":false,"rental_uris":{"android":"levelo://app?vid=4f54c651-15d1-492f-8d09-70f1f809ad4f","ios":"levelo://app?vid=4f54c651-15d1-492f-8d09-70f1f809ad4f"},"vehicle_type_id":"4","last_reported":1784231688,"current_range_meters":30400,"station_id":"st_d8t4bh7nbrqs73arha60","pricing_plan_id":"cebpf4jnsgd1na2vs0mg"},{"bike_id":"c0c12634-da58-4425-89c7-83dd3f1069a6","system_id":"levelo_inurba_marseille","lat":43.32113,"lon":5.36769,"is_reserved":false,"is_disabled":false,"rental_uris":{"android":"levelo://app?vid=c0c12634-da58-4425-89c7-83dd3f1069a6","ios":"levelo://app?vid=c0c12634-da58-4425-89c7-83dd3f1069a6"},"vehicle_type_id":"4","last_reported":1784231688,"current_range_meters":39200,"station_id":"ce4bhrh2rcd13ifvqhug","pricing_plan_id":"cebpf4jnsgd1na2vs0mg"},{"bike_id":"f5716e4c-c7a7-48c7-9e4e-d2cf1993e277","system_id":"levelo_inurba_marseille","lat":43.28157,"lon":5.42639,"is_reserved":false,"is_disabled":false,"rental_uris":{"android":"levelo://app?vid=f5716e4c-c7a7-48c7-9e4e-d2cf1993e277","ios":"levelo://app?vid=f5716e4c-c7a7-48c7-9e4e-d2cf1993e277"},"vehicle_type_id":"4","last_reported":1784231688,"current_range_meters":38800,"station_id":"ce4bhnh2rcd13ifvqgug","pricing_plan_id":"cebpf4jnsgd1na2vs0mg"},{"bike_id":"edda4ad5-2b17-4fde-80ab-ad31d77d3d22","system_id":"levelo_inurba_marseille","lat":43.29852,"lon":5.36281,"is_reserved":false,"is_disabled":false,"rental_uris":{"android":"levelo://app?vid=edda4ad5-2b17-4fde-80ab-ad31d77d3d22","ios":"levelo://app?vid=edda4ad5-2b17-4fde-80ab-ad31d77d3d22"},"vehicle_type_id":"4","last_reported":1784231688,"current_range_meters":38000,"station_id":"ce4bgpp2rcd13ifvqc3g","pricing_plan_id":"cebpf4jnsgd1na2vs0mg"},{"bike_id":"f0e8fbee-116b-4575-8cba-462368abdb7b","system_id":"levelo_inurba_marseille","lat":43.29913,"lon":5.37477,"is_reserved":false,"is_disabled":false,"rental_uris":{"android":"levelo://app?vid=f0e8fbee-116b-4575-8cba-462368abdb7b","ios":"levelo://app?vid=f0e8fbee-116b-4575-8cba-462368abdb7b"},"vehicle_type_id":"4","last_reported":1784231688,"current_range_meters":24400,"station_id":"ce4bgjh2rcd13ifvqbg0","pricing_plan_id":"cebpf4jnsgd1na2vs0mg"},{"bike_id":"9485be1f-c90e-4919-888f-8ea173824e12","system_id":"levelo_inurba_marseille","lat":43.2251,"lon":5.34841,"is_reserved":false,"is_disabled":false,"rental_uris":{"android":"levelo://app?vid=9485be1f-c90e-4919-888f-8ea173824e12","ios":"levelo://app?vid=9485be1f-c90e-4919-888f-8ea173824e12"},"vehicle_type_id":"4","last_reported":1784231688,"current_range_meters":26000,"station_id":"st_cvj5dfep6f1abm77gieg","pricing_plan_id":"cebpf4jnsgd1na2vs0mg"},{"bike_id":"0cc9064c-9e67-4dd7-b11e-84260d626c23","system_id":"levelo_inurba_marseille","lat":43.29908,"lon":5.38139,"is_reserved":false,"is_disabled":true,"rental_uris":{"android":"levelo://app?vid=0cc9064c-9e67-4dd7-b11e-84260d626c23","ios":"levelo://app?vid=0cc9064c-9e67-4dd7-b11e-84260d626c23"},"vehicle_type_id":"4","last_reported":1784231688,"current_range_meters":39200,"station_id":"ce4bgj12rcd13ifvqbc0","pricing_plan_id":"cebpf4jnsgd1na2vs0mg"},{"bike_id":"c9a59056-ae0e-4897-9fea-d31bc3d1cee2","system_id":"levelo_inurba_marseille","lat":43.2871,"lon":5.39995,"is_reserved":false,"is_disabled":false,"rental_uris":{"android":"levelo://app?vid=c9a59056-ae0e-4897-9fea-d31bc3d1cee2","ios":"levelo://app?vid=c9a59056-ae0e-4897-9fea-d31bc3d1cee2"},"vehicle_type_id":"4","last_reported":1784231688,"current_range_meters":9200,"station_id":"ce4bho92rcd13ifvqh3g","pricing_plan_id":"cebpf4jnsgd1na2vs0mg"},{"bike_id":"6ab806e5-1482-44b8-97b4-a9e54df097e1","system_id":"levelo_inurba_marseille","lat":43.29843,"lon":5.36285,"is_reserved":false,"is_disabled":false,"rental_uris":{"android":"levelo://app?vid=6ab806e5-1482-44b8-97b4-a9e54df097e1","ios":"levelo://app?vid=6ab806e5-1482-44b8-97b4-a9e54df097e1"},"vehicle_type_id":"4","last_reported":1784231688,"current_range_meters":39200,"station_id":"ce4bgpp2rcd13ifvqc3g","pricing_plan_id":"cebpf4jnsgd1na2vs0mg"},{"bike_id":"c67f4cf5-6a14-4c65-875c-06a1ffac99b6","system_id":"levelo_inurba_marseille","lat":43.26234,"lon":5.37459,"is_reserved":false,"is_disabled":false,"rental_uris":{"android":"levelo://app?vid=c67f4cf5-6a14-4c65-875c-06a1ffac99b6","ios":"levelo://app?vid=c67f4cf5-6a14-4c65-875c-06a1ffac99b6"},"vehicle_type_id":"4","last_reported":1784231688,"current_range_meters":28000,"station_id":"","pricing_plan_id":"cebpf4jnsgd1na2vs0mg"},{"bike_id":"46efd5ea-a6bd-4bdf-aae6-d1bd522d5de3","system_id":"levelo_inurba_marseille","lat":43.30646,"lon":5.40058,"is_reserved":false,"is_disabled":false,"rental_uris":{"android":"levelo://app?vid=46efd5ea-a6bd-4bdf-aae6-d1bd522d5de3","ios":"levelo://app?vid=46efd5ea-a6bd-4bdf-aae6-d1bd522d5de3"},"vehicle_type_id":"4","last_reported":1784231688,"current_range_meters":36800,"station_id":"ce4bh112rcd13ifvqda0","pricing_plan_id":"cebpf4jnsgd1na2vs0mg"},{"bike_id":"1d9f3df3-4693-4dfa-8626-345c609c22e4","system_id":"levelo_inurba_marseille","lat":43.29081,"lon":5.37395,"is_reserved":false,"is_disabled":false,"rental_uris":{"android":"levelo://app?vid=1d9f3df3-4693-4dfa-8626-345c609c22e4","ios":"levelo://app?vid=1d9f3df3-4693-4dfa-8626-345c609c22e4"},"vehicle_type_id":"4","last_reported":1784231688,"current_range_meters":28800,"station_id":"","pricing_plan_id":"cebpf4jnsgd1na2vs0mg"},{"bike_id":"202f9ad0-42a8-41b4-9ba7-c7ec0280e620","system_id":"levelo_inurba_marseille","lat":43.23196,"lon":5.35544,"is_reserved":false,"is_disabled":false,"rental_uris":{"android":"levelo://app?vid=202f9ad0-42a8-41b4-9ba7-c7ec0280e620","ios":"levelo://app?vid=202f9ad0-42a8-41b4-9ba7-c7ec0280e620"},"vehicle_type_id":"4","last_reported":1784231688,"current_range_meters":39200,"station_id":"ce4bhu92rcd13ifvqi70","pricing_plan_id":"cebpf4jnsgd1na2vs0mg"},{"bike_id":"aca0c70d-d342-4f76-b874-34fbb373d3a9","system_id":"levelo_inurba_marseille","lat":43.29842,"lon":5.36281,"is_reserved":false,"is_disabled":false,"rental_uris":{"android":"levelo://app?vid=aca0c70d-d342-4f76-b874-34fbb373d3a9","ios":"levelo://app?vid=aca0c70d-d342-4f76-b874-34fbb373d3a9"},"vehicle_type_id":"4","last_reported":1784231688,"current_range_meters":16400,"station_id":"ce4bgpp2rcd13ifvqc3g","pricing_plan_id":"cebpf4jnsgd1na2vs0mg"},{"bike_id":"125dd574-90cc-4a02-8c2d-4b85611c3225","system_id":"levelo_inurba_marseille","lat":43.29189,"lon":5.36812,"is_reserved":false,"is_disabled":false,"rental_uris":{"android":"levelo://app?vid=125dd574-90cc-4a02-8c2d-4b85611c3225","ios":"levelo://app?vid=125dd574-90cc-4a02-8c2d-4b85611c3225"},"vehicle_type_id":"4","last_reported":1784231688,"current_range_meters":28000,"station_id":"","pricing_plan_id":"cebpf4jnsgd1na2vs0mg"},{"bike_id":"2aeae8d8-4043-4df9-9434-227cc9d25d7d","system_id":"levelo_inurba_marseille","lat":43.282654,"lon":5.350595,"is_reserved":false,"is_disabled":true,"rental_uris":{"android":"levelo://app?vid=2aeae8d8-4043-4df9-9434-227cc9d25d7d","ios":"levelo://app?vid=2aeae8d8-4043-4df9-9434-227cc9d25d7d"},"vehicle_type_id":"4","last_reported":1784231688,"current_range_meters":1600,"station_id":"ce4bhbp2rcd13ifvqerg","pricing_plan_id":"cebpf4jnsgd1na2vs0mg"},{"bike_id":"cfc4902a-c28a-4f07-8c07-a4e5e29a96ee","system_id":"levelo_inurba_marseille","lat":43.28613,"lon":5.35099,"is_reserved":false,"is_disabled":false,"rental_uris":{"android":"levelo://app?vid=cfc4902a-c28a-4f07-8c07-a4e5e29a96ee","ios":"levelo://app?vid=cfc4902a-c28a-4f07-8c07-a4e5e29a96ee"},"vehicle_type_id":"4","last_reported":1784231688,"current_range_meters":18800,"station_id":"ce4bhch2rcd13ifvqeug","pricing_plan_id":"cebpf4jnsgd1na2vs0mg"},{"bike_id":"4c445abe-25ad-466b-a445-744bf62fbea8","system_id":"levelo_inurba_marseille","lat":43.26208,"lon":5.37933,"is_reserved":false,"is_disabled":false,"rental_uris":{"android":"levelo://app?vid=4c445abe-25ad-466b-a445-744bf62fbea8","ios":"levelo://app?vid=4c445abe-25ad-466b-a445-744bf62fbea8"},"vehicle_type_id":"4","last_reported":1784231688,"current_range_meters":39200,"station_id":"ce4bhjp2rcd13ifvqg90","pricing_plan_id":"cebpf4jnsgd1na2vs0mg"},{"bike_id":"632ba4c2-82e5-4027-a7bb-cab224a3baee","system_id":"levelo_inurba_marseille","lat":43.2298,"lon":5.4448,"is_reserved":false,"is_disabled":false,"rental_uris":{"android":"levelo://app?vid=632ba4c2-82e5-4027-a7bb-cab224a3baee","ios":"levelo://app?vid=632ba4c2-82e5-4027-a7bb-cab224a3baee"},"vehicle_type_id":"4","last_reported":1784231688,"current_range_meters":9200,"station_id":"","pricing_plan_id":"cebpf4jnsgd1na2vs0mg"},{"bike_id":"d34d2c0e-6c25-403b-bbb9-1be0950c9c5b","system_id":"levelo_inurba_marseille","lat":43.286151,"lon":5.351053,"is_reserved":false,"is_disabled":false,"rental_uris":{"android":"levelo://app?vid=d34d2c0e-6c25-403b-bbb9-1be0950c9c5b","ios":"levelo://app?vid=d34d2c0e-6c25-403b-bbb9-1be0950c9c5b"},"vehicle_type_id":"4","last_reported":1784231688,"current_range_meters":12400,"station_id":"ce4bhch2rcd13ifvqeug","pricing_plan_id":"cebpf4jnsgd1na2vs0mg"},{"bike_id":"b0753306-236d-48e6-b698-9670b9834754","system_id":"levelo_inurba_marseille","lat":43.30117,"lon":5.39877,"is_reserved":false,"is_disabled":false,"rental_uris":{"android":"levelo://app?vid=b0753306-236d-48e6-b698-9670b9834754","ios":"levelo://app?vid=b0753306-236d-48e6-b698-9670b9834754"},"vehicle_type_id":"4","last_reported":1784231688,"current_range_meters":33600,"station_id":"ce4bh0h2rcd13ifvqd40","pricing_plan_id":"cebpf4jnsgd1na2vs0mg"},{"bike_id":"996a99ad-2f68-4b75-915d-2b75439a7657","system_id":"levelo_inurba_marseille","lat":43.2978,"lon":5.37091,"is_reserved":false,"is_disabled":false,"rental_uris":{"android":"levelo://app?vid=996a99ad-2f68-4b75-915d-2b75439a7657","ios":"levelo://app?vid=996a99ad-2f68-4b75-915d-2b75439a7657"},"vehicle_type_id":"4","last_reported":1784231688,"current_range_meters":21600,"station_id":"ce4bgop2rcd13ifvqc1g","pricing_plan_id":"cebpf4jnsgd1na2vs0mg"},{"bike_id":"0d3e100f-48fe-47e1-bef7-0a1dcfcc4955","system_id":"levelo_inurba_marseille","lat":43.3367,"lon":5.39313,"is_reserved":false,"is_disabled":false,"rental_uris":{"android":"levelo://app?vid=0d3e100f-48fe-47e1-bef7-0a1dcfcc4955","ios":"levelo://app?vid=0d3e100f-48fe-47e1-bef7-0a1dcfcc4955"},"vehicle_type_id":"4","last_reported":1784231688,"current_range_meters":32400,"station_id":"","pricing_plan_id":"cebpf4jnsgd1na2vs0mg"},{"bike_id":"8109b825-2eb6-467e-b313-e806da3e20b4","system_id":"levelo_inurba_marseille","lat":43.28159,"lon":5.4264,"is_reserved":false,"is_disabled":false,"rental_uris":{"android":"levelo://app?vid=8109b825-2eb6-467e-b313-e806da3e20b4","ios":"levelo://app?vid=8109b825-2eb6-467e-b313-e806da3e20b4"},"vehicle_type_id":"4","last_reported":1784231688,"current_range_meters":8800,"station_id":"ce4bhnh2rcd13ifvqgug","pricing_plan_id":"cebpf4jnsgd1na2vs0mg"},{"bike_id":"287adad5-5e66-4962-bf27-f75e78a46f79","system_id":"levelo_inurba_marseille","lat":43.29758,"lon":5.38138,"is_reserved":false,"is_disabled":true,"rental_uris":{"android":"levelo://app?vid=287adad5-5e66-4962-bf27-f75e78a46f79","ios":"levelo://app?vid=287adad5-5e66-4962-bf27-f75e78a46f79"},"vehicle_type_id":"4","last_reported":1784231688,"current_range_meters":16000,"station_id":"","pricing_plan_id":"cebpf4jnsgd1na2vs0mg"},{"bike_id":"ddbfbc6e-9ea5-4164-b0a2-7cc31ec7c025","system_id":"levelo_inurba_marseille","lat":43.32115,"lon":5.36786,"is_reserved":false,"is_disabled":false,"rental_uris":{"android":"levelo://app?vid=ddbfbc6e-9ea5-4164-b0a2-7cc31ec7c025","ios":"levelo://app?vid=ddbfbc6e-9ea5-4164-b0a2-7cc31ec7c025"},"vehicle_type_id":"4","last_reported":1784231688,"current_range_meters":20000,"station_id":"ce4bhrh2rcd13ifvqhug","pricing_plan_id":"cebpf4jnsgd1na2vs0mg"},{"bike_id":"860c00e5-8b7b-4484-93b5-2bc81670042a","system_id":"levelo_inurba_marseille","lat":43.27373,"lon":5.36262,"is_reserved":false,"is_disabled":false,"rental_uris":{"android":"levelo://app?vid=860c00e5-8b7b-4484-93b5-2bc81670042a","ios":"levelo://app?vid=860c00e5-8b7b-4484-93b5-2bc81670042a"},"vehicle_type_id":"4","last_reported":1784231688,"current_range_meters":26800,"station_id":"ce4bhbh2rcd13ifvqeo0","pricing_plan_id":"cebpf4jnsgd1na2vs0mg"},{"bike_id":"4b49e983-5b5c-4c74-a6f0-b43a3ca1cae5","system_id":"levelo_inurba_marseille","lat":43.27618,"lon":5.36108,"is_reserved":false,"is_disabled":false,"rental_uris":{"android":"levelo://app?vid=4b49e983-5b5c-4c74-a6f0-b43a3ca1cae5","ios":"levelo://app?vid=4b49e983-5b5c-4c74-a6f0-b43a3ca1cae5"},"vehicle_type_id":"4","last_reported":1784231688,"current_range_meters":39200,"station_id":"ce4bgj92rcd13ifvqbe0","pricing_plan_id":"cebpf4jnsgd1na2vs0mg"},{"bike_id":"076aaeb0-f523-48d8-8665-d57882d0ad97","system_id":"levelo_inurba_marseille","lat":43.29976,"lon":5.3848,"is_reserved":false,"is_disabled":false,"rental_uris":{"android":"levelo://app?vid=076aaeb0-f523-48d8-8665-d57882d0ad97","ios":"levelo://app?vid=076aaeb0-f523-48d8-8665-d57882d0ad97"},"vehicle_type_id":"4","last_reported":1784231688,"current_range_meters":26800,"station_id":"ce4bgj92rcd13ifvqbd0","pricing_plan_id":"cebpf4jnsgd1na2vs0mg"},{"bike_id":"fe9d1eb8-801f-4c8c-9f75-9cb8e94f370f","system_id":"levelo_inurba_marseille","lat":43.31885,"lon":5.40734,"is_reserved":false,"is_disabled":false,"rental_uris":{"android":"levelo://app?vid=fe9d1eb8-801f-4c8c-9f75-9cb8e94f370f","ios":"levelo://app?vid=fe9d1eb8-801f-4c8c-9f75-9cb8e94f370f"},"vehicle_type_id":"4","last_reported":1784231688,"current_range_meters":9600,"station_id":"ce4bhq12rcd13ifvqhig","pricing_plan_id":"cebpf4jnsgd1na2vs0mg"},{"bike_id":"37231a7b-2c7c-46b2-b5a2-ef30c4ee932f","system_id":"levelo_inurba_marseille","lat":43.26217,"lon":5.37433,"is_reserved":false,"is_disabled":false,"rental_uris":{"android":"levelo://app?vid=37231a7b-2c7c-46b2-b5a2-ef30c4ee932f","ios":"levelo://app?vid=37231a7b-2c7c-46b2-b5a2-ef30c4ee932f"},"vehicle_type_id":"4","last_reported":1784231688,"current_range_meters":4800,"station_id":"ce4bhgp2rcd13ifvqfc0","pricing_plan_id":"cebpf4jnsgd1na2vs0mg"},{"bike_id":"9c8d5f9d-304e-4137-b680-0bb8ec81fce2","system_id":"levelo_inurba_marseille","lat":43.27505,"lon":5.41574,"is_reserved":false,"is_disabled":false,"rental_uris":{"android":"levelo://app?vid=9c8d5f9d-304e-4137-b680-0bb8ec81fce2","ios":"levelo://app?vid=9c8d5f9d-304e-4137-b680-0bb8ec81fce2"},"vehicle_type_id":"4","last_reported":1784231688,"current_range_meters":38400,"station_id":"st_d6im8g6chgec73a5pndg","pricing_plan_id":"cebpf4jnsgd1na2vs0mg"},{"bike_id":"b4b7cf45-857d-499f-903c-2153de8727c5","system_id":"levelo_inurba_marseille","lat":43.32473,"lon":5.36616,"is_reserved":false,"is_disabled":false,"rental_uris":{"android":"levelo://app?vid=b4b7cf45-857d-499f-903c-2153de8727c5","ios":"levelo://app?vid=b4b7cf45-857d-499f-903c-2153de8727c5"},"vehicle_type_id":"4","last_reported":1784231688,"current_range_meters":39200,"station_id":"ce4bhs12rcd13ifvqhvg","pricing_plan_id":"cebpf4jnsgd1na2vs0mg"},{"bike_id":"3b38e1b3-f0b6-425e-89ac-3867e5d3c8d0","system_id":"levelo_inurba_marseille","lat":43.25116,"lon":5.40312,"is_reserved":false,"is_disabled":false,"rental_uris":{"android":"levelo://app?vid=3b38e1b3-f0b6-425e-89ac-3867e5d3c8d0","ios":"levelo://app?vid=3b38e1b3-f0b6-425e-89ac-3867e5d3c8d0"},"vehicle_type_id":"4","last_reported":1784231688,"current_range_meters":6400,"station_id":"ce4bhlh2rcd13ifvqgig","pricing_plan_id":"cebpf4jnsgd1na2vs0mg"},{"bike_id":"e35a471f-4162-47db-b945-02d55802c4cc","system_id":"levelo_inurba_marseille","lat":43.28538,"lon":5.44061,"is_reserved":false,"is_disabled":false,"rental_uris":{"android":"levelo://app?vid=e35a471f-4162-47db-b945-02d55802c4cc","ios":"levelo://app?vid=e35a471f-4162-47db-b945-02d55802c4cc"},"vehicle_type_id":"4","last_reported":1784231688,"current_range_meters":38400,"station_id":"st_d3j3df2ikq2c7380ej80","pricing_plan_id":"cebpf4jnsgd1na2vs0mg"},{"bike_id":"de33586d-1ad6-43fb-abac-eff95af90a64","system_id":"levelo_inurba_marseille","lat":43.25996,"lon":5.37589,"is_reserved":false,"is_disabled":true,"rental_uris":{"android":"levelo://app?vid=de33586d-1ad6-43fb-abac-eff95af90a64","ios":"levelo://app?vid=de33586d-1ad6-43fb-abac-eff95af90a64"},"vehicle_type_id":"4","last_reported":1784231688,"current_range_meters":25200,"station_id":"ce4bhgh2rcd13ifvqfa0","pricing_plan_id":"cebpf4jnsgd1na2vs0mg"},{"bike_id":"28272fa8-60f6-4b58-96e4-cd572510d492","system_id":"levelo_inurba_marseille","lat":43.26214,"lon":5.3744,"is_reserved":false,"is_disabled":false,"rental_uris":{"android":"levelo://app?vid=28272fa8-60f6-4b58-96e4-cd572510d492","ios":"levelo://app?vid=28272fa8-60f6-4b58-96e4-cd572510d492"},"vehicle_type_id":"4","last_reported":1784231688,"current_range_meters":32400,"station_id":"","pricing_plan_id":"cebpf4jnsgd1na2vs0mg"},{"bike_id":"8d35f373-a260-4aa9-9c99-8da954203902","system_id":"levelo_inurba_marseille","lat":43.30964,"lon":5.40131,"is_reserved":false,"is_disabled":false,"rental_uris":{"android":"levelo://app?vid=8d35f373-a260-4aa9-9c99-8da954203902","ios":"levelo://app?vid=8d35f373-a260-4aa9-9c99-8da954203902"},"vehicle_type_id":"4","last_reported":1784231688,"current_range_meters":39200,"station_id":"ce4bgvp2rcd13ifvqct0","pricing_plan_id":"cebpf4jnsgd1na2vs0mg"},{"bike_id":"05c29d56-6c44-4de6-93a8-ddd7db2f99c1","system_id":"levelo_inurba_marseille","lat":43.269268,"lon":5.389179,"is_reserved":false,"is_disabled":false,"rental_uris":{"android":"levelo://app?vid=05c29d56-6c44-4de6-93a8-ddd7db2f99c1","ios":"levelo://app?vid=05c29d56-6c44-4de6-93a8-ddd7db2f99c1"},"vehicle_type_id":"4","last_reported":1784231688,"current_range_meters":32800,"station_id":"ce4bhhh2rcd13ifvqfl0","pricing_plan_id":"cebpf4jnsgd1na2vs0mg"},{"bike_id":"2cfbcf99-439e-43e6-8359-fe0f5a87d4df","system_id":"levelo_inurba_marseille","lat":43.248,"lon":5.37455,"is_reserved":false,"is_disabled":false,"rental_uris":{"android":"levelo://app?vid=2cfbcf99-439e-43e6-8359-fe0f5a87d4df","ios":"levelo://app?vid=2cfbcf99-439e-43e6-8359-fe0f5a87d4df"},"vehicle_type_id":"4","last_reported":1784231688,"current_range_meters":39200,"station_id":"ce4bhgh2rcd13ifvqfb0","pricing_plan_id":"cebpf4jnsgd1na2vs0mg"},{"bike_id":"5934dfff-666b-4536-966e-3a9ad6955bb0","system_id":"levelo_inurba_marseille","lat":43.29246,"lon":5.40002,"is_reserved":false,"is_disabled":false,"rental_uris":{"android":"levelo://app?vid=5934dfff-666b-4536-966e-3a9ad6955bb0","ios":"levelo://app?vid=5934dfff-666b-4536-966e-3a9ad6955bb0"},"vehicle_type_id":"4","last_reported":1784231688,"current_range_meters":9600,"station_id":"","pricing_plan_id":"cebpf4jnsgd1na2vs0mg"},{"bike_id":"eadbf5e7-6bfc-4e3a-b0e9-0f3c75f13d91","system_id":"levelo_inurba_marseille","lat":43.281,"lon":5.3784,"is_reserved":false,"is_disabled":false,"rental_uris":{"android":"levelo://app?vid=eadbf5e7-6bfc-4e3a-b0e9-0f3c75f13d91","ios":"levelo://app?vid=eadbf5e7-6bfc-4e3a-b0e9-0f3c75f13d91"},"vehicle_type_id":"4","last_reported":1784231688,"current_range_meters":36800,"station_id":"ce4bha12rcd13ifvqee0","pricing_plan_id":"cebpf4jnsgd1na2vs0mg"},{"bike_id":"188163cf-083d-4db4-ad88-62be7d50188a","system_id":"levelo_inurba_marseille","lat":43.30308,"lon":5.36892,"is_reserved":false,"is_disabled":false,"rental_uris":{"android":"levelo://app?vid=188163cf-083d-4db4-ad88-62be7d50188a","ios":"levelo://app?vid=188163cf-083d-4db4-ad88-62be7d50188a"},"vehicle_type_id":"4","last_reported":1784231688,"current_range_meters":38800,"station_id":"ce4bgqh2rcd13ifvqc5g","pricing_plan_id":"cebpf4jnsgd1na2vs0mg"},{"bike_id":"012e94e9-03f4-44ab-899f-783dca8d9c97","system_id":"levelo_inurba_marseille","lat":43.29634,"lon":5.37712,"is_reserved":false,"is_disabled":false,"rental_uris":{"android":"levelo://app?vid=012e94e9-03f4-44ab-899f-783dca8d9c97","ios":"levelo://app?vid=012e94e9-03f4-44ab-899f-783dca8d9c97"},"vehicle_type_id":"4","last_reported":1784231688,"current_range_meters":38800,"station_id":"ce4bgi92rcd13ifvqb90","pricing_plan_id":"cebpf4jnsgd1na2vs0mg"},{"bike_id":"7604574c-06cb-407e-9e16-b7858411e1bc","system_id":"levelo_inurba_marseille","lat":43.2781,"lon":5.40726,"is_reserved":false,"is_disabled":true,"rental_uris":{"android":"levelo://app?vid=7604574c-06cb-407e-9e16-b7858411e1bc","ios":"levelo://app?vid=7604574c-06cb-407e-9e16-b7858411e1bc"},"vehicle_type_id":"4","last_reported":1784231688,"current_range_meters":24000,"station_id":"ce4bhnh2rcd13ifvqgtg","pricing_plan_id":"cebpf4jnsgd1na2vs0mg"},{"bike_id":"600d3649-4b6d-473c-a715-d27921e00684","system_id":"levelo_inurba_marseille","lat":43.232,"lon":5.35557,"is_reserved":false,"is_disabled":false,"rental_uris":{"android":"levelo://app?vid=600d3649-4b6d-473c-a715-d27921e00684","ios":"levelo://app?vid=600d3649-4b6d-473c-a715-d27921e00684"},"vehicle_type_id":"4","last_reported":1784231688,"current_range_meters":27600,"station_id":"ce4bhu92rcd13ifvqi70","pricing_plan_id":"cebpf4jnsgd1na2vs0mg"},{"bike_id":"323c0a03-4e5f-46d8-9204-cfbca2382feb","system_id":"levelo_inurba_marseille","lat":43.26032,"lon":5.37541,"is_reserved":false,"is_disabled":false,"rental_uris":{"android":"levelo://app?vid=323c0a03-4e5f-46d8-9204-cfbca2382feb","ios":"levelo://app?vid=323c0a03-4e5f-46d8-9204-cfbca2382feb"},"vehicle_type_id":"4","last_reported":1784231688,"current_range_meters":9200,"station_id":"ce4bhgh2rcd13ifvqfa0","pricing_plan_id":"cebpf4jnsgd1na2vs0mg"},{"bike_id":"03a041ca-3e72-4f40-9ea4-bf3e53a3a956","system_id":"levelo_inurba_marseille","lat":43.25495,"lon":5.37655,"is_reserved":false,"is_disabled":false,"rental_uris":{"android":"levelo://app?vid=03a041ca-3e72-4f40-9ea4-bf3e53a3a956","ios":"levelo://app?vid=03a041ca-3e72-4f40-9ea4-bf3e53a3a956"},"vehicle_type_id":"4","last_reported":1784231688,"current_range_meters":33200,"station_id":"ce4bhh12rcd13ifvqff0","pricing_plan_id":"cebpf4jnsgd1na2vs0mg"},{"bike_id":"231b735f-1ac5-449f-ac8c-36fca234cf93","system_id":"levelo_inurba_marseille","lat":43.29624,"lon":5.37165,"is_reserved":false,"is_disabled":false,"rental_uris":{"android":"levelo://app?vid=231b735f-1ac5-449f-ac8c-36fca234cf93","ios":"levelo://app?vid=231b735f-1ac5-449f-ac8c-36fca234cf93"},"vehicle_type_id":"4","last_reported":1784231688,"current_range_meters":25200,"station_id":"","pricing_plan_id":"cebpf4jnsgd1na2vs0mg"},{"bike_id":"e75467a7-514c-41a7-9417-31220df7ad44","system_id":"levelo_inurba_marseille","lat":43.25581,"lon":5.3823,"is_reserved":false,"is_disabled":false,"rental_uris":{"android":"levelo://app?vid=e75467a7-514c-41a7-9417-31220df7ad44","ios":"levelo://app?vid=e75467a7-514c-41a7-9417-31220df7ad44"},"vehicle_type_id":"4","last_reported":1784231688,"current_range_meters":27200,"station_id":"ce4bhih2rcd13ifvqfs0","pricing_plan_id":"cebpf4jnsgd1na2vs0mg"},{"bike_id":"d1210815-3b6f-46d9-8562-5a9f90c2f696","system_id":"levelo_inurba_marseille","lat":43.29197,"lon":5.35799,"is_reserved":false,"is_disabled":true,"rental_uris":{"android":"levelo://app?vid=d1210815-3b6f-46d9-8562-5a9f90c2f696","ios":"levelo://app?vid=d1210815-3b6f-46d9-8562-5a9f90c2f696"},"vehicle_type_id":"4","last_reported":1784231688,"current_range_meters":12000,"station_id":"ce4bhb12rcd13ifvqel0","pricing_plan_id":"cebpf4jnsgd1na2vs0mg"},{"bike_id":"d93abc91-80ca-4c6f-ba7f-f1450dcee09f","system_id":"levelo_inurba_marseille","lat":43.30887,"lon":5.36859,"is_reserved":false,"is_disabled":false,"rental_uris":{"android":"levelo://app?vid=d93abc91-80ca-4c6f-ba7f-f1450dcee09f","ios":"levelo://app?vid=d93abc91-80ca-4c6f-ba7f-f1450dcee09f"},"vehicle_type_id":"4","last_reported":1784231688,"current_range_meters":22400,"station_id":"ce4bgn92rcd13ifvqbvg","pricing_plan_id":"cebpf4jnsgd1na2vs0mg"},{"bike_id":"bd3c0e56-a259-4b93-8100-5171a29360c5","system_id":"levelo_inurba_marseille","lat":43.29041,"lon":5.35931,"is_reserved":false,"is_disabled":true,"rental_uris":{"android":"levelo://app?vid=bd3c0e56-a259-4b93-8100-5171a29360c5","ios":"levelo://app?vid=bd3c0e56-a259-4b93-8100-5171a29360c5"},"vehicle_type_id":"4","last_reported":1784231688,"current_range_meters":22800,"station_id":"ce4bha92rcd13ifvqeg0","pricing_plan_id":"cebpf4jnsgd1na2vs0mg"},{"bike_id":"8a33259d-e815-4c83-95ca-012edf864787","system_id":"levelo_inurba_marseille","lat":43.29571,"lon":5.37508,"is_reserved":false,"is_disabled":false,"rental_uris":{"android":"levelo://app?vid=8a33259d-e815-4c83-95ca-012edf864787","ios":"levelo://app?vid=8a33259d-e815-4c83-95ca-012edf864787"},"vehicle_type_id":"4","last_reported":1784231688,"current_range_meters":6400,"station_id":"ce4bgh92rcd13ifvqb50","pricing_plan_id":"cebpf4jnsgd1na2vs0mg"},{"bike_id":"9e9ec341-9823-4e9d-91c7-7fc8f4408aaa","system_id":"levelo_inurba_marseille","lat":43.2951,"lon":5.37506,"is_reserved":false,"is_disabled":false,"rental_uris":{"android":"levelo://app?vid=9e9ec341-9823-4e9d-91c7-7fc8f4408aaa","ios":"levelo://app?vid=9e9ec341-9823-4e9d-91c7-7fc8f4408aaa"},"vehicle_type_id":"4","last_reported":1784231688,"current_range_meters":22400,"station_id":"ce4bgkp2rcd13ifvqbmg","pricing_plan_id":"cebpf4jnsgd1na2vs0mg"},{"bike_id":"4f68d89f-2860-4fe4-aeef-ae7316f7c98e","system_id":"levelo_inurba_marseille","lat":43.28935,"lon":5.42778,"is_reserved":false,"is_disabled":false,"rental_uris":{"android":"levelo://app?vid=4f68d89f-2860-4fe4-aeef-ae7316f7c98e","ios":"levelo://app?vid=4f68d89f-2860-4fe4-aeef-ae7316f7c98e"},"vehicle_type_id":"4","last_reported":1784231688,"current_range_meters":28400,"station_id":"","pricing_plan_id":"cebpf4jnsgd1na2vs0mg"},{"bike_id":"3188f6a4-524b-49c9-826c-5fd3f7ab07d0","system_id":"levelo_inurba_marseille","lat":43.29935,"lon":5.37476,"is_reserved":false,"is_disabled":false,"rental_uris":{"android":"levelo://app?vid=3188f6a4-524b-49c9-826c-5fd3f7ab07d0","ios":"levelo://app?vid=3188f6a4-524b-49c9-826c-5fd3f7ab07d0"},