{"last_updated":1730300947,"ttl":60,"version":"2.2","data":{"bikes":[{"bike_id":"e0594c9b-1912-4f09-958a-91f8a4561c29","system_id":"levelo_inurba_marseille","lat":43.2439,"lon":5.37057,"is_reserved":false,"is_disabled":false,"rental_uris":{"android":"levelo://app?vid=e0594c9b-1912-4f09-958a-91f8a4561c29","ios":"levelo://app?vid=e0594c9b-1912-4f09-958a-91f8a4561c29"},"vehicle_type_id":"4","last_reported":1730300947,"current_range_meters":39200,"station_id":"ce4bhhh2rcd13ifvqfk0","pricing_plan_id":"cebpf4jnsgd1na2vs0mg"},{"bike_id":"d713d74c-0963-4acd-a33e-f1ac027bc7af","system_id":"levelo_inurba_marseille","lat":43.28106,"lon":5.37844,"is_reserved":false,"is_disabled":false,"rental_uris":{"android":"levelo://app?vid=d713d74c-0963-4acd-a33e-f1ac027bc7af","ios":"levelo://app?vid=d713d74c-0963-4acd-a33e-f1ac027bc7af"},"vehicle_type_id":"4","last_reported":1730300947,"current_range_meters":34000,"station_id":"ce4bha12rcd13ifvqee0","pricing_plan_id":"cebpf4jnsgd1na2vs0mg"},{"bike_id":"f184650c-e4c9-4a10-b261-9cec6efa862e","system_id":"levelo_inurba_marseille","lat":43.30892,"lon":5.37188,"is_reserved":false,"is_disabled":false,"rental_uris":{"android":"levelo://app?vid=f184650c-e4c9-4a10-b261-9cec6efa862e","ios":"levelo://app?vid=f184650c-e4c9-4a10-b261-9cec6efa862e"},"vehicle_type_id":"4","last_reported":1730300947,"current_range_meters":10000,"station_id":"ce4bguh2rcd13ifvqckg","pricing_plan_id":"cebpf4jnsgd1na2vs0mg"},{"bike_id":"45132b89-1d17-4b79-aa7b-ec09dd97ff8c","system_id":"levelo_inurba_marseille","lat":43.30151,"lon":5.38096,"is_reserved":false,"is_disabled":false,"rental_uris":{"android":"levelo://app?vid=45132b89-1d17-4b79-aa7b-ec09dd97ff8c","ios":"levelo://app?vid=45132b89-1d17-4b79-aa7b-ec09dd97ff8c"},"vehicle_type_id":"4","last_reported":1730300947,"current_range_meters":34000,"station_id":"ce4bgjp2rcd13ifvqbh0","pricing_plan_id":"cebpf4jnsgd1na2vs0mg"},{"bike_id":"a1bb42ca-48af-4ecf-84af-9ae8e4bb73f6","system_id":"levelo_inurba_marseille","lat":43.28421,"lon":5.35002,"is_reserved":false,"is_disabled":false,"rental_uris":{"android":"levelo://app?vid=a1bb42ca-48af-4ecf-84af-9ae8e4bb73f6","ios":"levelo://app?vid=a1bb42ca-48af-4ecf-84af-9ae8e4bb73f6"},"vehicle_type_id":"4","last_reported":1730300947,"current_range_meters":30800,"station_id":"ce4bhbh2rcd13ifvqepg","pricing_plan_id":"cebpf4jnsgd1na2vs0mg"},{"bike_id":"953afcfe-6b06-40c3-8f8a-a06690b5faac","system_id":"levelo_inurba_marseille","lat":43.278048,"lon":5.40698,"is_reserved":false,"is_disabled":false,"rental_uris":{"android":"levelo://app?vid=953afcfe-6b06-40c3-8f8a-a06690b5faac","ios":"levelo://app?vid=953afcfe-6b06-40c3-8f8a-a06690b5faac"},"vehicle_type_id":"4","last_reported":1730300947,"current_range_meters":27600,"station_id":"ce4bhnh2rcd13ifvqgtg","pricing_plan_id":"cebpf4jnsgd1na2vs0mg"},{"bike_id":"51724b8b-2013-4fc2-952f-9a68b601558f","system_id":"levelo_inurba_marseille","lat":43.26785,"lon":5.39417,"is_reserved":false,"is_disabled":false,"rental_uris":{"android":"levelo://app?vid=51724b8b-2013-4fc2-952f-9a68b601558f","ios":"levelo://app?vid=51724b8b-2013-4fc2-952f-9a68b601558f"},"vehicle_type_id":"4","last_reported":1730300947,"current_range_meters":37600,"station_id":"ce4bhh12rcd13ifvqfg0","pricing_plan_id":"cebpf4jnsgd1na2vs0mg"},{"bike_id":"68489d96-38c0-4efa-b62b-4ae026474202","system_id":"levelo_inurba_marseille","lat":43.269385,"lon":5.40245,"is_reserved":false,"is_disabled":false,"rental_uris":{"android":"levelo://app?vid=68489d96-38c0-4efa-b62b-4ae026474202","ios":"levelo://app?vid=68489d96-38c0-4efa-b62b-4ae026474202"},"vehicle_type_id":"4","last_reported":1730300947,"current_range_meters":23200,"station_id":"cjm6bp8fraef2m0cb0m0","pricing_plan_id":"cebpf4jnsgd1na2vs0mg"},{"bike_id":"f7635b23-69f0-492d-ab50-1b3484a8b3d4","system_id":"levelo_inurba_marseille","lat":43.30607,"lon":5.37224,"is_reserved":false,"is_disabled":false,"rental_uris":{"android":"levelo://app?vid=f7635b23-69f0-492d-ab50-1b3484a8b3d4","ios":"levelo://app?vid=f7635b23-69f0-492d-ab50-1b3484a8b3d4"},"vehicle_type_id":"4","last_reported":1730300947,"current_range_meters":38800,"station_id":"ce4bgqh2rcd13ifvqc4g","pricing_plan_id":"cebpf4jnsgd1na2vs0mg"},{"bike_id":"35f83c08-ebc5-4846-95d6-0036239c76d8","system_id":"levelo_inurba_marseille","lat":43.33021,"lon":5.39043,"is_reserved":false,"is_disabled":false,"rental_uris":{"android":"levelo://app?vid=35f83c08-ebc5-4846-95d6-0036239c76d8","ios":"levelo://app?vid=35f83c08-ebc5-4846-95d6-0036239c76d8"},"vehicle_type_id":"4","last_reported":1730300947,"current_range_meters":37600,"station_id":"ce4bhr92rcd13ifvqhrg","pricing_plan_id":"cebpf4jnsgd1na2vs0mg"},{"bike_id":"3a5ccfcb-a053-47bb-84d3-8df14839e516","system_id":"levelo_inurba_marseille","lat":43.26934,"lon":5.40262,"is_reserved":false,"is_disabled":false,"rental_uris":{"android":"levelo://app?vid=3a5ccfcb-a053-47bb-84d3-8df14839e516","ios":"levelo://app?vid=3a5ccfcb-a053-47bb-84d3-8df14839e516"},"vehicle_type_id":"4","last_reported":1730300947,"current_range_meters":37600,"station_id":"cjm6bp8fraef2m0cb0m0","pricing_plan_id":"cebpf4jnsgd1na2vs0mg"},{"bike_id":"b240039e-c50d-4884-bbaf-45c1fe416cf2","system_id":"levelo_inurba_marseille","lat":43.24172,"lon":5.36397,"is_reserved":false,"is_disabled":false,"rental_uris":{"android":"levelo://app?vid=b240039e-c50d-4884-bbaf-45c1fe416cf2","ios":"levelo://app?vid=b240039e-c50d-4884-bbaf-45c1fe416cf2"},"vehicle_type_id":"4","last_reported":1730300947,"current_range_meters":31200,"station_id":"cpo36qri1sfpv3e86is0","pricing_plan_id":"cebpf4jnsgd1na2vs0mg"},{"bike_id":"d1e50aaf-f341-4ca5-97d6-24e2e77da9a9","system_id":"levelo_inurba_marseille","lat":43.28842,"lon":5.35852,"is_reserved":false,"is_disabled":false,"rental_uris":{"android":"levelo://app?vid=d1e50aaf-f341-4ca5-97d6-24e2e77da9a9","ios":"levelo://app?vid=d1e50aaf-f341-4ca5-97d6-24e2e77da9a9"},"vehicle_type_id":"4","last_reported":1730300947,"current_range_meters":24800,"station_id":"ce4bhb12rcd13ifvqem0","pricing_plan_id":"cebpf4jnsgd1na2vs0mg"},{"bike_id":"3720c0ce-d810-450c-95ee-9ed1e09fad87","system_id":"levelo_inurba_marseille","lat":43.24165,"lon":5.36393,"is_reserved":false,"is_disabled":false,"rental_uris":{"android":"levelo://app?vid=3720c0ce-d810-450c-95ee-9ed1e09fad87","ios":"levelo://app?vid=3720c0ce-d810-450c-95ee-9ed1e09fad87"},"vehicle_type_id":"4","last_reported":1730300947,"current_range_meters":28400,"station_id":"cpo36qri1sfpv3e86is0","pricing_plan_id":"cebpf4jnsgd1na2vs0mg"},{"bike_id":"58ce08b5-61d6-4053-a653-c68db61c2fa6","system_id":"levelo_inurba_marseille","lat":43.23189,"lon":5.39997,"is_reserved":false,"is_disabled":false,"rental_uris":{"android":"levelo://app?vid=58ce08b5-61d6-4053-a653-c68db61c2fa6","ios":"levelo://app?vid=58ce08b5-61d6-4053-a653-c68db61c2fa6"},"vehicle_type_id":"4","last_reported":1730300947,"current_range_meters":9200,"station_id":"ce4bhn12rcd13ifvqgqg","pricing_plan_id":"cebpf4jnsgd1na2vs0mg"},{"bike_id":"897b9f0e-fdd3-4e93-9255-82d376a1e549","system_id":"levelo_inurba_marseille","lat":43.32107,"lon":5.36777,"is_reserved":false,"is_disabled":false,"rental_uris":{"android":"levelo://app?vid=897b9f0e-fdd3-4e93-9255-82d376a1e549","ios":"levelo://app?vid=897b9f0e-fdd3-4e93-9255-82d376a1e549"},"vehicle_type_id":"4","last_reported":1730300947,"current_range_meters":32400,"station_id":"ce4bhrh2rcd13ifvqhug","pricing_plan_id":"cebpf4jnsgd1na2vs0mg"},{"bike_id":"04a16d15-00b7-4b51-8afd-8f9bf10e1d6a","system_id":"levelo_inurba_marseille","lat":43.26572,"lon":5.39006,"is_reserved":false,"is_disabled":false,"rental_uris":{"android":"levelo://app?vid=04a16d15-00b7-4b51-8afd-8f9bf10e1d6a","ios":"levelo://app?vid=04a16d15-00b7-4b51-8afd-8f9bf10e1d6a"},"vehicle_type_id":"4","last_reported":1730300947,"current_range_meters":9600,"station_id":"ce4bhe12rcd13ifvqf30","pricing_plan_id":"cebpf4jnsgd1na2vs0mg"},{"bike_id":"88fe0c90-eedb-4e7c-802b-f13a3ca2ae30","system_id":"levelo_inurba_marseille","lat":43.26568,"lon":5.39009,"is_reserved":false,"is_disabled":false,"rental_uris":{"android":"levelo://app?vid=88fe0c90-eedb-4e7c-802b-f13a3ca2ae30","ios":"levelo://app?vid=88fe0c90-eedb-4e7c-802b-f13a3ca2ae30"},"vehicle_type_id":"4","last_reported":1730300947,"current_range_meters":32400,"station_id":"ce4bhe12rcd13ifvqf30","pricing_plan_id":"cebpf4jnsgd1na2vs0mg"},{"bike_id":"8d1620e7-e5ab-4df0-827f-1b7a5189e865","system_id":"levelo_inurba_marseille","lat":43.28002,"lon":5.40007,"is_reserved":false,"is_disabled":false,"rental_uris":{"android":"levelo://app?vid=8d1620e7-e5ab-4df0-827f-1b7a5189e865","ios":"levelo://app?vid=8d1620e7-e5ab-4df0-827f-1b7a5189e865"},"vehicle_type_id":"4","last_reported":1730300947,"current_range_meters":37600,"station_id":"ce4bho92rcd13ifvqh4g","pricing_plan_id":"cebpf4jnsgd1na2vs0mg"},{"bike_id":"82a16fa2-3542-4820-b609-018ed6790cc4","system_id":"levelo_inurba_marseille","lat":43.255749,"lon":5.382324,"is_reserved":false,"is_disabled":false,"rental_uris":{"android":"levelo://app?vid=82a16fa2-3542-4820-b609-018ed6790cc4","ios":"levelo://app?vid=82a16fa2-3542-4820-b609-018ed6790cc4"},"vehicle_type_id":"4","last_reported":1730300947,"current_range_meters":33200,"station_id":"ce4bhih2rcd13ifvqfs0","pricing_plan_id":"cebpf4jnsgd1na2vs0mg"},{"bike_id":"c10f0a4b-0c7f-46e5-9c81-b4743fc3bc9a","system_id":"levelo_inurba_marseille","lat":43.28154,"lon":5.42651,"is_reserved":false,"is_disabled":false,"rental_uris":{"android":"levelo://app?vid=c10f0a4b-0c7f-46e5-9c81-b4743fc3bc9a","ios":"levelo://app?vid=c10f0a4b-0c7f-46e5-9c81-b4743fc3bc9a"},"vehicle_type_id":"4","last_reported":1730300947,"current_range_meters":16000,"station_id":"ce4bhnh2rcd13ifvqgug","pricing_plan_id":"cebpf4jnsgd1na2vs0mg"},{"bike_id":"309d80e8-550a-4d3f-973a-f93f9c87ee8c","system_id":"levelo_inurba_marseille","lat":43.28105,"lon":5.37846,"is_reserved":false,"is_disabled":false,"rental_uris":{"android":"levelo://app?vid=309d80e8-550a-4d3f-973a-f93f9c87ee8c","ios":"levelo://app?vid=309d80e8-550a-4d3f-973a-f93f9c87ee8c"},"vehicle_type_id":"4","last_reported":1730300947,"current_range_meters":24800,"station_id":"ce4bha12rcd13ifvqee0","pricing_plan_id":"cebpf4jnsgd1na2vs0mg"},{"bike_id":"0cc68399-e4c5-4e56-99fe-6218e60aedcd","system_id":"levelo_inurba_marseille","lat":43.26219,"lon":5.3746,"is_reserved":false,"is_disabled":false,"rental_uris":{"android":"levelo://app?vid=0cc68399-e4c5-4e56-99fe-6218e60aedcd","ios":"levelo://app?vid=0cc68399-e4c5-4e56-99fe-6218e60aedcd"},"vehicle_type_id":"4","last_reported":1730300947,"current_range_meters":38800,"station_id":"ce4bhgp2rcd13ifvqfc0","pricing_plan_id":"cebpf4jnsgd1na2vs0mg"},{"bike_id":"42e61598-64ce-4f84-97eb-90c09ebd9abe","system_id":"levelo_inurba_marseille","lat":43.2318,"lon":5.39989,"is_reserved":false,"is_disabled":false,"rental_uris":{"android":"levelo://app?vid=42e61598-64ce-4f84-97eb-90c09ebd9abe","ios":"levelo://app?vid=42e61598-64ce-4f84-97eb-90c09ebd9abe"},"vehicle_type_id":"4","last_reported":1730300947,"current_range_meters":21600,"station_id":"ce4bhn12rcd13ifvqgqg","pricing_plan_id":"cebpf4jnsgd1na2vs0mg"},{"bike_id":"3bd430ea-f3a4-406f-95d7-17646a78b140","system_id":"levelo_inurba_marseille","lat":43.28273,"lon":5.35086,"is_reserved":false,"is_disabled":false,"rental_uris":{"android":"levelo://app?vid=3bd430ea-f3a4-406f-95d7-17646a78b140","ios":"levelo://app?vid=3bd430ea-f3a4-406f-95d7-17646a78b140"},"vehicle_type_id":"4","last_reported":1730300947,"current_range_meters":14000,"station_id":"ce4bhbp2rcd13ifvqerg","pricing_plan_id":"cebpf4jnsgd1na2vs0mg"},{"bike_id":"65ffe760-06cd-42a5-8ce7-136619d00b87","system_id":"levelo_inurba_marseille","lat":43.28418,"lon":5.34991,"is_reserved":false,"is_disabled":false,"rental_uris":{"android":"levelo://app?vid=65ffe760-06cd-42a5-8ce7-136619d00b87","ios":"levelo://app?vid=65ffe760-06cd-42a5-8ce7-136619d00b87"},"vehicle_type_id":"4","last_reported":1730300947,"current_range_meters":19200,"station_id":"ce4bhbh2rcd13ifvqepg","pricing_plan_id":"cebpf4jnsgd1na2vs0mg"},{"bike_id":"34630d18-75dd-4aec-9bb1-0ce7aab0afdf","system_id":"levelo_inurba_marseille","lat":43.24672,"lon":5.38164,"is_reserved":false,"is_disabled":false,"rental_uris":{"android":"levelo://app?vid=34630d18-75dd-4aec-9bb1-0ce7aab0afdf","ios":"levelo://app?vid=34630d18-75dd-4aec-9bb1-0ce7aab0afdf"},"vehicle_type_id":"4","last_reported":1730300947,"current_range_meters":38800,"station_id":"ce4bhih2rcd13ifvqfr0","pricing_plan_id":"cebpf4jnsgd1na2vs0mg"},{"bike_id":"54665929-6683-4dbf-853f-585e25e59d3b","system_id":"levelo_inurba_marseille","lat":43.28368,"lon":5.38646,"is_reserved":false,"is_disabled":false,"rental_uris":{"android":"levelo://app?vid=54665929-6683-4dbf-853f-585e25e59d3b","ios":"levelo://app?vid=54665929-6683-4dbf-853f-585e25e59d3b"},"vehicle_type_id":"4","last_reported":1730300947,"current_range_meters":12000,"station_id":"ce4bh492rcd13ifvqdvg","pricing_plan_id":"cebpf4jnsgd1na2vs0mg"},{"bike_id":"0438cead-b36c-4e60-99ad-5967c73423cf","system_id":"levelo_inurba_marseille","lat":43.28724,"lon":5.36098,"is_reserved":false,"is_disabled":false,"rental_uris":{"android":"levelo://app?vid=0438cead-b36c-4e60-99ad-5967c73423cf","ios":"levelo://app?vid=0438cead-b36c-4e60-99ad-5967c73423cf"},"vehicle_type_id":"4","last_reported":1730300947,"current_range_meters":39200,"station_id":"cki0cbj6b192h4jlfktg","pricing_plan_id":"cebpf4jnsgd1na2vs0mg"},{"bike_id":"c5ab8f86-3c93-447c-b767-f885bdebd2ff","system_id":"levelo_inurba_marseille","lat":43.27065,"lon":5.42267,"is_reserved":false,"is_disabled":false,"rental_uris":{"android":"levelo://app?vid=c5ab8f86-3c93-447c-b767-f885bdebd2ff","ios":"levelo://app?vid=c5ab8f86-3c93-447c-b767-f885bdebd2ff"},"vehicle_type_id":"4","last_reported":1730300947,"current_range_meters":38800,"station_id":"ce4bhk92rcd13ifvqgb0","pricing_plan_id":"cebpf4jnsgd1na2vs0mg"},{"bike_id":"70bb78fe-4bef-4d56-a833-affc0bdfc9f3","system_id":"levelo_inurba_marseille","lat":43.23195,"lon":5.35564,"is_reserved":false,"is_disabled":false,"rental_uris":{"android":"levelo://app?vid=70bb78fe-4bef-4d56-a833-affc0bdfc9f3","ios":"levelo://app?vid=70bb78fe-4bef-4d56-a833-affc0bdfc9f3"},"vehicle_type_id":"4","last_reported":1730300947,"current_range_meters":40000,"station_id":"ce4bhu92rcd13ifvqi70","pricing_plan_id":"cebpf4jnsgd1na2vs0mg"},{"bike_id":"46bc10b7-8de5-4dd0-ae18-e921d5bd8ccc","system_id":"levelo_inurba_marseille","lat":43.29706,"lon":5.36614,"is_reserved":false,"is_disabled":false,"rental_uris":{"android":"levelo://app?vid=46bc10b7-8de5-4dd0-ae18-e921d5bd8ccc","ios":"levelo://app?vid=46bc10b7-8de5-4dd0-ae18-e921d5bd8ccc"},"vehicle_type_id":"4","last_reported":1730300947,"current_range_meters":30800,"station_id":"ce4bgn12rcd13ifvqbt0","pricing_plan_id":"cebpf4jnsgd1na2vs0mg"},{"bike_id":"620b62df-38ed-42be-8085-418b37437f05","system_id":"levelo_inurba_marseille","lat":43.27995,"lon":5.40002,"is_reserved":false,"is_disabled":false,"rental_uris":{"android":"levelo://app?vid=620b62df-38ed-42be-8085-418b37437f05","ios":"levelo://app?vid=620b62df-38ed-42be-8085-418b37437f05"},"vehicle_type_id":"4","last_reported":1730300947,"current_range_meters":20400,"station_id":"ce4bho92rcd13ifvqh4g","pricing_plan_id":"cebpf4jnsgd1na2vs0mg"},{"bike_id":"97018130-3d98-4592-806a-2ac9b726dbea","system_id":"levelo_inurba_marseille","lat":43.28354,"lon":5.38114,"is_reserved":false,"is_disabled":false,"rental_uris":{"android":"levelo://app?vid=97018130-3d98-4592-806a-2ac9b726dbea","ios":"levelo://app?vid=97018130-3d98-4592-806a-2ac9b726dbea"},"vehicle_type_id":"4","last_reported":1730300947,"current_range_meters":14400,"station_id":"ce4bh412rcd13ifvqdr0","pricing_plan_id":"cebpf4jnsgd1na2vs0mg"},{"bike_id":"5c244c3d-8fd7-4c95-b825-2f7fe2f15994","system_id":"levelo_inurba_marseille","lat":43.23197,"lon":5.35556,"is_reserved":false,"is_disabled":false,"rental_uris":{"android":"levelo://app?vid=5c244c3d-8fd7-4c95-b825-2f7fe2f15994","ios":"levelo://app?vid=5c244c3d-8fd7-4c95-b825-2f7fe2f15994"},"vehicle_type_id":"4","last_reported":1730300947,"current_range_meters":39200,"station_id":"ce4bhu92rcd13ifvqi70","pricing_plan_id":"cebpf4jnsgd1na2vs0mg"},{"bike_id":"7d1fe817-f784-45b3-a7f6-2e79abcfa29c","system_id":"levelo_inurba_marseille","lat":43.337444,"lon":5.374475,"is_reserved":false,"is_disabled":false,"rental_uris":{"android":"levelo://app?vid=7d1fe817-f784-45b3-a7f6-2e79abcfa29c","ios":"levelo://app?vid=7d1fe817-f784-45b3-a7f6-2e79abcfa29c"},"vehicle_type_id":"4","last_reported":1730300947,"current_range_meters":38800,"station_id":"","pricing_plan_id":"cebpf4jnsgd1na2vs0mg"},{"bike_id":"5efd5148-f738-4c82-8164-c1739863b28d","system_id":"levelo_inurba_marseille","lat":43.26941,"lon":5.40252,"is_reserved":false,"is_disabled":false,"rental_uris":{"android":"levelo://app?vid=5efd5148-f738-4c82-8164-c1739863b28d","ios":"levelo://app?vid=5efd5148-f738-4c82-8164-c1739863b28d"},"vehicle_type_id":"4","last_reported":1730300947,"current_range_meters":14800,"station_id":"cjm6bp8fraef2m0cb0m0","pricing_plan_id":"cebpf4jnsgd1na2vs0mg"},{"bike_id":"ec7b34fd-a8fd-4619-a562-8fcffaf2a7b4","system_id":"levelo_inurba_marseille","lat":43.2984,"lon":5.36271,"is_reserved":false,"is_disabled":false,"rental_uris":{"android":"levelo://app?vid=ec7b34fd-a8fd-4619-a562-8fcffaf2a7b4","ios":"levelo://app?vid=ec7b34fd-a8fd-4619-a562-8fcffaf2a7b4"},"vehicle_type_id":"4","last_reported":1730300947,"current_range_meters":21600,"station_id":"ce4bgpp2rcd13ifvqc3g","pricing_plan_id":"cebpf4jnsgd1na2vs0mg"},{"bike_id":"257ee6a0-928c-46a1-b7e0-4ce4b9ac7c9b","system_id":"levelo_inurba_marseille","lat":43.23191,"lon":5.35555,"is_reserved":false,"is_disabled":false,"rental_uris":{"android":"levelo://app?vid=257ee6a0-928c-46a1-b7e0-4ce4b9ac7c9b","ios":"levelo://app?vid=257ee6a0-928c-46a1-b7e0-4ce4b9ac7c9b"},"vehicle_type_id":"4","last_reported":1730300947,"current_range_meters":7200,"station_id":"ce4bhu92rcd13ifvqi70","pricing_plan_id":"cebpf4jnsgd1na2vs0mg"},{"bike_id":"1352da78-da71-4367-b774-6e458f486c56","system_id":"levelo_inurba_marseille","lat":43.28416,"lon":5.34997,"is_reserved":false,"is_disabled":false,"rental_uris":{"android":"levelo://app?vid=1352da78-da71-4367-b774-6e458f486c56","ios":"levelo://app?vid=1352da78-da71-4367-b774-6e458f486c56"},"vehicle_type_id":"4","last_reported":1730300947,"current_range_meters":14000,"station_id":"ce4bhbh2rcd13ifvqepg","pricing_plan_id":"cebpf4jnsgd1na2vs0mg"},{"bike_id":"d27b62e4-e99a-49d8-87b8-99826b82ab55","system_id":"levelo_inurba_marseille","lat":43.34141,"lon":5.40915,"is_reserved":false,"is_disabled":false,"rental_uris":{"android":"levelo://app?vid=d27b62e4-e99a-49d8-87b8-99826b82ab55","ios":"levelo://app?vid=d27b62e4-e99a-49d8-87b8-99826b82ab55"},"vehicle_type_id":"4","last_reported":1730300947,"current_range_meters":38800,"station_id":"ce4bhqh2rcd13ifvqhlg","pricing_plan_id":"cebpf4jnsgd1na2vs0mg"},{"bike_id":"1daaacb1-3ccb-47db-bca4-8266f2e8d67f","system_id":"levelo_inurba_marseille","lat":43.23193,"lon":5.39988,"is_reserved":false,"is_disabled":false,"rental_uris":{"android":"levelo://app?vid=1daaacb1-3ccb-47db-bca4-8266f2e8d67f","ios":"levelo://app?vid=1daaacb1-3ccb-47db-bca4-8266f2e8d67f"},"vehicle_type_id":"4","last_reported":1730300947,"current_range_meters":3200,"station_id":"ce4bhn12rcd13ifvqgqg","pricing_plan_id":"cebpf4jnsgd1na2vs0mg"},{"bike_id":"1a5d5284-46cf-4207-8167-7bfc47014091","system_id":"levelo_inurba_marseille","lat":43.25831,"lon":5.39438,"is_reserved":false,"is_disabled":false,"rental_uris":{"android":"levelo://app?vid=1a5d5284-46cf-4207-8167-7bfc47014091","ios":"levelo://app?vid=1a5d5284-46cf-4207-8167-7bfc47014091"},"vehicle_type_id":"4","last_reported":1730300947,"current_range_meters":12000,"station_id":"ce4bhip2rcd13ifvqft0","pricing_plan_id":"cebpf4jnsgd1na2vs0mg"},{"bike_id":"13b66c13-b701-44bb-bbcf-8352baa62524","system_id":"levelo_inurba_marseille","lat":43.33025,"lon":5.39033,"is_reserved":false,"is_disabled":false,"rental_uris":{"android":"levelo://app?vid=13b66c13-b701-44bb-bbcf-8352baa62524","ios":"levelo://app?vid=13b66c13-b701-44bb-bbcf-8352baa62524"},"vehicle_type_id":"4","last_reported":1730300947,"current_range_meters":37600,"station_id":"ce4bhr92rcd13ifvqhrg","pricing_plan_id":"cebpf4jnsgd1na2vs0mg"},{"bike_id":"92adf987-4779-4b78-ad9c-8e29ab9175f3","system_id":"levelo_inurba_marseille","lat":43.23192,"lon":5.35549,"is_reserved":false,"is_disabled":false,"rental_uris":{"android":"levelo://app?vid=92adf987-4779-4b78-ad9c-8e29ab9175f3","ios":"levelo://app?vid=92adf987-4779-4b78-ad9c-8e29ab9175f3"},"vehicle_type_id":"4","last_reported":1730300947,"current_range_meters":12400,"station_id":"ce4bhu92rcd13ifvqi70","pricing_plan_id":"cebpf4jnsgd1na2vs0mg"},{"bike_id":"78a04af6-6f6c-4f98-b27c-04daf2cb0979","system_id":"levelo_inurba_marseille","lat":43.31708,"lon":5.37747,"is_reserved":false,"is_disabled":false,"rental_uris":{"android":"levelo://app?vid=78a04af6-6f6c-4f98-b27c-04daf2cb0979","ios":"levelo://app?vid=78a04af6-6f6c-4f98-b27c-04daf2cb0979"},"vehicle_type_id":"4","last_reported":1730300947,"current_range_meters":37600,"station_id":"ce4bgth2rcd13ifvqch0","pricing_plan_id":"cebpf4jnsgd1na2vs0mg"},{"bike_id":"ce2310f1-0848-4180-8bb1-c79c12d253ca","system_id":"levelo_inurba_marseille","lat":43.33753,"lon":5.37445,"is_reserved":false,"is_disabled":false,"rental_uris":{"android":"levelo://app?vid=ce2310f1-0848-4180-8bb1-c79c12d253ca","ios":"levelo://app?vid=ce2310f1-0848-4180-8bb1-c79c12d253ca"},"vehicle_type_id":"4","last_reported":1730300947,"current_range_meters":36000,"station_id":"","pricing_plan_id":"cebpf4jnsgd1na2vs0mg"},{"bike_id":"0617f253-4301-4f07-bd2c-996ecf646dbf","system_id":"levelo_inurba_marseille","lat":43.29618,"lon":5.37707,"is_reserved":false,"is_disabled":false,"rental_uris":{"android":"levelo://app?vid=0617f253-4301-4f07-bd2c-996ecf646dbf","ios":"levelo://app?vid=0617f253-4301-4f07-bd2c-996ecf646dbf"},"vehicle_type_id":"4","last_reported":1730300947,"current_range_meters":38800,"station_id":"ce4bgi92rcd13ifvqb90","pricing_plan_id":"cebpf4jnsgd1na2vs0mg"},{"bike_id":"5e9899fa-ce49-47ef-998b-2c4e8d758cf9","system_id":"levelo_inurba_marseille","lat":43.290405,"lon":5.359179,"is_reserved":false,"is_disabled":false,"rental_uris":{"android":"levelo://app?vid=5e9899fa-ce49-47ef-998b-2c4e8d758cf9","ios":"levelo://app?vid=5e9899fa-ce49-47ef-998b-2c4e8d758cf9"},"vehicle_type_id":"4","last_reported":1730300947,"current_range_meters":8800,"station_id":"ce4bha92rcd13ifvqeg0","pricing_plan_id":"cebpf4jnsgd1na2vs0mg"},{"bike_id":"2f1c4426-f310-402d-b1c8-cfa2fb98b436","system_id":"levelo_inurba_marseille","lat":43.28107,"lon":5.37843,"is_reserved":false,"is_disabled":false,"rental_uris":{"android":"levelo://app?vid=2f1c4426-f310-402d-b1c8-cfa2fb98b436","ios":"levelo://app?vid=2f1c4426-f310-402d-b1c8-cfa2fb98b436"},"vehicle_type_id":"4","last_reported":1730300947,"current_range_meters":35200,"station_id":"ce4bha12rcd13ifvqee0","pricing_plan_id":"cebpf4jnsgd1na2vs0mg"},{"bike_id":"46fcd567-d6ab-45b8-9ae3-6491b7a1cd79","system_id":"levelo_inurba_marseille","lat":43.29719,"lon":5.37693,"is_reserved":false,"is_disabled":false,"rental_uris":{"android":"levelo://app?vid=46fcd567-d6ab-45b8-9ae3-6491b7a1cd79","ios":"levelo://app?vid=46fcd567-d6ab-45b8-9ae3-6491b7a1cd79"},"vehicle_type_id":"4","last_reported":1730300947,"current_range_meters":16400,"station_id":"ce4bgkh2rcd13ifvqbl0","pricing_plan_id":"cebpf4jnsgd1na2vs0mg"},{"bike_id":"3aabe9b6-2bd3-4cfd-a4e2-4d24c2651351","system_id":"levelo_inurba_marseille","lat":43.28423,"lon":5.34982,"is_reserved":false,"is_disabled":false,"rental_uris":{"android":"levelo://app?vid=3aabe9b6-2bd3-4cfd-a4e2-4d24c2651351","ios":"levelo://app?vid=3aabe9b6-2bd3-4cfd-a4e2-4d24c2651351"},"vehicle_type_id":"4","last_reported":1730300947,"current_range_meters":20000,"station_id":"ce4bhbh2rcd13ifvqepg","pricing_plan_id":"cebpf4jnsgd1na2vs0mg"},{"bike_id":"269a4193-03a6-4fe1-93c0-2b8610ca1e7f","system_id":"levelo_inurba_marseille","lat":43.24393,"lon":5.37054,"is_reserved":false,"is_disabled":false,"rental_uris":{"android":"levelo://app?vid=269a4193-03a6-4fe1-93c0-2b8610ca1e7f","ios":"levelo://app?vid=269a4193-03a6-4fe1-93c0-2b8610ca1e7f"},"vehicle_type_id":"4","last_reported":1730300947,"current_range_meters":17600,"station_id":"ce4bhhh2rcd13ifvqfk0","pricing_plan_id":"cebpf4jnsgd1na2vs0mg"},{"bike_id":"402ccdbe-675b-4fa5-85ab-25efed180ee5","system_id":"levelo_inurba_marseille","lat":43.26209,"lon":5.37931,"is_reserved":false,"is_disabled":false,"rental_uris":{"android":"levelo://app?vid=402ccdbe-675b-4fa5-85ab-25efed180ee5","ios":"levelo://app?vid=402ccdbe-675b-4fa5-85ab-25efed180ee5"},"vehicle_type_id":"4","last_reported":1730300947,"current_range_meters":4000,"station_id":"ce4bhjp2rcd13ifvqg90","pricing_plan_id":"cebpf4jnsgd1na2vs0mg"},{"bike_id":"ec6bf2c6-81ba-4965-828b-92e734ee6e46","system_id":"levelo_inurba_marseille","lat":43.23189,"lon":5.35554,"is_reserved":false,"is_disabled":false,"rental_uris":{"android":"levelo://app?vid=ec6bf2c6-81ba-4965-828b-92e734ee6e46","ios":"levelo://app?vid=ec6bf2c6-81ba-4965-828b-92e734ee6e46"},"vehicle_type_id":"4","last_reported":1730300947,"current_range_meters":28400,"station_id":"ce4bhu92rcd13ifvqi70","pricing_plan_id":"cebpf4jnsgd1na2vs0mg"},{"bike_id":"d7012743-7323-4d36-a6a0-94c8a1e5fc2c","system_id":"levelo_inurba_marseille","lat":43.28423,"lon":5.34994,"is_reserved":false,"is_disabled":false,"rental_uris":{"android":"levelo://app?vid=d7012743-7323-4d36-a6a0-94c8a1e5fc2c","ios":"levelo://app?vid=d7012743-7323-4d36-a6a0-94c8a1e5fc2c"},"vehicle_type_id":"4","last_reported":1730300947,"current_range_meters":39200,"station_id":"ce4bhbh2rcd13ifvqepg","pricing_plan_id":"cebpf4jnsgd1na2vs0mg"},{"bike_id":"fba27f66-cfb0-40ec-b28a-f344d1e04baa","system_id":"levelo_inurba_marseille","lat":43.29724,"lon":5.3661,"is_reserved":false,"is_disabled":false,"rental_uris":{"android":"levelo://app?vid=fba27f66-cfb0-40ec-b28a-f344d1e04baa","ios":"levelo://app?vid=fba27f66-cfb0-40ec-b28a-f344d1e04baa"},"vehicle_type_id":"4","last_reported":1730300947,"current_range_meters":38800,"station_id":"ce4bgn12rcd13ifvqbt0","pricing_plan_id":"cebpf4jnsgd1na2vs0mg"},{"bike_id":"05b647b9-3411-4096-9d6d-92ac42831250","system_id":"levelo_inurba_marseille","lat":43.28971,"lon":5.37827,"is_reserved":false,"is_disabled":false,"rental_uris":{"android":"levelo://app?vid=05b647b9-3411-4096-9d6d-92ac42831250","ios":"levelo://app?vid=05b647b9-3411-4096-9d6d-92ac42831250"},"vehicle_type_id":"4","last_reported":1730300947,"current_range_meters":37600,"station_id":"ce4bh9p2rcd13ifvqed0","pricing_plan_id":"cebpf4jnsgd1na2vs0mg"},{"bike_id":"35cba0a9-8f55-4594-ab1d-5029923d3192","system_id":"levelo_inurba_marseille","lat":43.29528,"lon":5.37504,"is_reserved":false,"is_disabled":false,"rental_uris":{"android":"levelo://app?vid=35cba0a9-8f55-4594-ab1d-5029923d3192","ios":"levelo://app?vid=35cba0a9-8f55-4594-ab1d-5029923d3192"},"vehicle_type_id":"4","last_reported":1730300947,"current_range_meters":24800,"station_id":"ce4bgkp2rcd13ifvqbmg","pricing_plan_id":"cebpf4jnsgd1na2vs0mg"},{"bike_id":"c7fb082d-ee6c-488a-84cb-589d7a8e411b","system_id":"levelo_inurba_marseille","lat":43.23195,"lon":5.35549,"is_reserved":false,"is_disabled":false,"rental_uris":{"android":"levelo://app?vid=c7fb082d-ee6c-488a-84cb-589d7a8e411b","ios":"levelo://app?vid=c7fb082d-ee6c-488a-84cb-589d7a8e411b"},"vehicle_type_id":"4","last_reported":1730300947,"current_range_meters":25200,"station_id":"ce4bhu92rcd13ifvqi70","pricing_plan_id":"cebpf4jnsgd1na2vs0mg"},{"bike_id":"a03487d2-e420-4bd7-94aa-457db4e95b97","system_id":"levelo_inurba_marseille","lat":43.28615,"lon":5.35104,"is_reserved":false,"is_disabled":false,"rental_uris":{"android":"levelo://app?vid=a03487d2-e420-4bd7-94aa-457db4e95b97","ios":"levelo://app?vid=a03487d2-e420-4bd7-94aa-457db4e95b97"},"vehicle_type_id":"4","last_reported":1730300947,"current_range_meters":24400,"station_id":"ce4bhch2rcd13ifvqeug","pricing_plan_id":"cebpf4jnsgd1na2vs0mg"},{"bike_id":"38b8d321-8fd9-4111-be22-688ce65298c2","system_id":"levelo_inurba_marseille","lat":43.2657,"lon":5.39024,"is_reserved":false,"is_disabled":false,"rental_uris":{"android":"levelo://app?vid=38b8d321-8fd9-4111-be22-688ce65298c2","ios":"levelo://app?vid=38b8d321-8fd9-4111-be22-688ce65298c2"},"vehicle_type_id":"4","last_reported":1730300947,"current_range_meters":21600,"station_id":"ce4bhe12rcd13ifvqf30","pricing_plan_id":"cebpf4jnsgd1na2vs0mg"},{"bike_id":"fe5a4f25-ed16-41fe-8b56-64c8fd315a7b","system_id":"levelo_inurba_marseille","lat":43.308,"lon":5.43533,"is_reserved":false,"is_disabled":false,"rental_uris":{"android":"levelo://app?vid=fe5a4f25-ed16-41fe-8b56-64c8fd315a7b","ios":"levelo://app?vid=fe5a4f25-ed16-41fe-8b56-64c8fd315a7b"},"vehicle_type_id":"4","last_reported":1730300947,"current_range_meters":23200,"station_id":"ce4bhph2rcd13ifvqheg","pricing_plan_id":"cebpf4jnsgd1na2vs0mg"},{"bike_id":"77435c07-a404-440f-b5dc-eb1e0980b008","system_id":"levelo_inurba_marseille","lat":43.24393,"lon":5.37067,"is_reserved":false,"is_disabled":false,"rental_uris":{"android":"levelo://app?vid=77435c07-a404-440f-b5dc-eb1e0980b008","ios":"levelo://app?vid=77435c07-a404-440f-b5dc-eb1e0980b008"},"vehicle_type_id":"4","last_reported":1730300947,"current_range_meters":8800,"station_id":"ce4bhhh2rcd13ifvqfk0","pricing_plan_id":"cebpf4jnsgd1na2vs0mg"},{"bike_id":"2370a04e-d358-4a29-b67a-890bf50b34fd","system_id":"levelo_inurba_marseille","lat":43.24171,"lon":5.36403,"is_reserved":false,"is_disabled":false,"rental_uris":{"android":"levelo://app?vid=2370a04e-d358-4a29-b67a-890bf50b34fd","ios":"levelo://app?vid=2370a04e-d358-4a29-b67a-890bf50b34fd"},"vehicle_type_id":"4","last_reported":1730300947,"current_range_meters":6400,"station_id":"cpo36qri1sfpv3e86is0","pricing_plan_id":"cebpf4jnsgd1na2vs0mg"},{"bike_id":"52f231f8-57c5-4ad6-8adf-d7d4408d9e30","system_id":"levelo_inurba_marseille","lat":43.299561,"lon":5.36553,"is_reserved":false,"is_disabled":false,"rental_uris":{"android":"levelo://app?vid=52f231f8-57c5-4ad6-8adf-d7d4408d9e30","ios":"levelo://app?vid=52f231f8-57c5-4ad6-8adf-d7d4408d9e30"},"vehicle_type_id":"4","last_reported":1730300947,"current_range_meters":38800,"station_id":"ce4bgm92rcd13ifvqbr0","pricing_plan_id":"cebpf4jnsgd1na2vs0mg"},{"bike_id":"538c6c97-8738-4e40-afde-1ced2fc6b778","system_id":"levelo_inurba_marseille","lat":43.33717,"lon":5.39181,"is_reserved":false,"is_disabled":false,"rental_uris":{"android":"levelo://app?vid=538c6c97-8738-4e40-afde-1ced2fc6b778","ios":"levelo://app?vid=538c6c97-8738-4e40-afde-1ced2fc6b778"},"vehicle_type_id":"4","last_reported":1730300947,"current_range_meters":36400,"station_id":"ce4bhr92rcd13ifvqhsg","pricing_plan_id":"cebpf4jnsgd1na2vs0mg"},{"bike_id":"0f6b3a97-49df-402f-92fc-9ef040541e07","system_id":"levelo_inurba_marseille","lat":43.23185,"lon":5.35568,"is_reserved":false,"is_disabled":false,"rental_uris":{"android":"levelo://app?vid=0f6b3a97-49df-402f-92fc-9ef040541e07","ios":"levelo://app?vid=0f6b3a97-49df-402f-92fc-9ef040541e07"},"vehicle_type_id":"4","last_reported":1730300947,"current_range_meters":16400,"station_id":"ce4bhu92rcd13ifvqi70","pricing_plan_id":"cebpf4jnsgd1na2vs0mg"},{"bike_id":"a7930b1b-e198-412b-8db2-930b94f809f1","system_id":"levelo_inurba_marseille","lat":43.3136,"lon":5.36716,"is_reserved":false,"is_disabled":false,"rental_uris":{"android":"levelo://app?vid=a7930b1b-e198-412b-8db2-930b94f809f1","ios":"levelo://app?vid=a7930b1b-e198-412b-8db2-930b94f809f1"},"vehicle_type_id":"4","last_reported":1730300947,"current_range_meters":6400,"station_id":"ce4bgr92rcd13ifvqc6g","pricing_plan_id":"cebpf4jnsgd1na2vs0mg"},{"bike_id":"03e26363-1adc-494c-8098-91070571fba5","system_id":"levelo_inurba_marseille","lat":43.23192,"lon":5.35549,"is_reserved":false,"is_disabled":false,"rental_uris":{"android":"levelo://app?vid=03e26363-1adc-494c-8098-91070571fba5","ios":"levelo://app?vid=03e26363-1adc-494c-8098-91070571fba5"},"vehicle_type_id":"4","last_reported":1730300947,"current_range_meters":30000,"station_id":"ce4bhu92rcd13ifvqi70","pricing_plan_id":"cebpf4jnsgd1na2vs0mg"},{"bike_id":"3522b203-dcb3-4615-bc64-f5ed173d2f3f","system_id":"levelo_inurba_marseille","lat":43.25824,"lon":5.39443,"is_reserved":false,"is_disabled":false,"rental_uris":{"android":"levelo://app?vid=3522b203-dcb3-4615-bc64-f5ed173d2f3f","ios":"levelo://app?vid=3522b203-dcb3-4615-bc64-f5ed173d2f3f"},"vehicle_type_id":"4","last_reported":1730300947,"current_range_meters":35200,"station_id":"ce4bhip2rcd13ifvqft0","pricing_plan_id":"cebpf4jnsgd1na2vs0mg"},{"bike_id":"c2e9f91b-9f53-4ce2-b207-774fd93ab0c8","system_id":"levelo_inurba_marseille","lat":43.30084,"lon":5.39072,"is_reserved":false,"is_disabled":false,"rental_uris":{"android":"levelo://app?vid=c2e9f91b-9f53-4ce2-b207-774fd93ab0c8","ios":"levelo://app?vid=c2e9f91b-9f53-4ce2-b207-774fd93ab0c8"},"vehicle_type_id":"4","last_reported":1730300947,"current_range_meters":24400,"station_id":"ce4bh192rcd13ifvqdb0","pricing_plan_id":"cebpf4jnsgd1na2vs0mg"},{"bike_id":"d16e0ef4-af34-4834-a45a-7b39039ff022","system_id":"levelo_inurba_marseille","lat":43.23198,"lon":5.35552,"is_reserved":false,"is_disabled":false,"rental_uris":{"android":"levelo://app?vid=d16e0ef4-af34-4834-a45a-7b39039ff022","ios":"levelo://app?vid=d16e0ef4-af34-4834-a45a-7b39039ff022"},"vehicle_type_id":"4","last_reported":1730300947,"current_range_meters":12000,"station_id":"ce4bhu92rcd13ifvqi70","pricing_plan_id":"cebpf4jnsgd1na2vs0mg"},{"bike_id":"9f314017-c3ea-41ba-802e-dd66070517ac","system_id":"levelo_inurba_marseille","lat":43.28571,"lon":5.39498,"is_reserved":false,"is_disabled":false,"rental_uris":{"android":"levelo://app?vid=9f314017-c3ea-41ba-802e-dd66070517ac","ios":"levelo://app?vid=9f314017-c3ea-41ba-802e-dd66070517ac"},"vehicle_type_id":"4","last_reported":1730300947,"current_range_meters":9600,"station_id":"ce4bh292rcd13ifvqdg0","pricing_plan_id":"cebpf4jnsgd1na2vs0mg"},{"bike_id":"81e191dc-36a3-4dd3-a48a-138cae2d571f","system_id":"levelo_inurba_marseille","lat":43.23159,"lon":5.43717,"is_reserved":false,"is_disabled":false,"rental_uris":{"android":"levelo://app?vid=81e191dc-36a3-4dd3-a48a-138cae2d571f","ios":"levelo://app?vid=81e191dc-36a3-4dd3-a48a-138cae2d571f"},"vehicle_type_id":"4","last_reported":1730300947,"current_range_meters":38800,"station_id":"ce4bhmp2rcd13ifvqgog","pricing_plan_id":"cebpf4jnsgd1na2vs0mg"},{"bike_id":"e9141b44-30ab-459c-94b2-99dbe6b7a845","system_id":"levelo_inurba_marseille","lat":43.2955,"lon":5.42284,"is_reserved":false,"is_disabled":false,"rental_uris":{"android":"levelo://app?vid=e9141b44-30ab-459c-94b2-99dbe6b7a845","ios":"levelo://app?vid=e9141b44-30ab-459c-94b2-99dbe6b7a845"},"vehicle_type_id":"4","last_reported":1730300947,"current_range_meters":36000,"station_id":"ce4bhph2rcd13ifvqhdg","pricing_plan_id":"cebpf4jnsgd1na2vs0mg"},{"bike_id":"e53af0ad-5429-460e-8971-03743d53d87d","system_id":"levelo_inurba_marseille","lat":43.31733,"lon":5.42395,"is_reserved":false,"is_disabled":false,"rental_uris":{"android":"levelo://app?vid=e53af0ad-5429-460e-8971-03743d53d87d","ios":"levelo://app?vid=e53af0ad-5429-460e-8971-03743d53d87d"},"vehicle_type_id":"4","last_reported":1730300947,"current_range_meters":34800,"station_id":"ce4bhp92rcd13ifvqhbg","pricing_plan_id":"cebpf4jnsgd1na2vs0mg"},{"bike_id":"8fc8f69f-228e-4754-8013-e3713d197b92","system_id":"levelo_inurba_marseille","lat":43.24672,"lon":5.38172,"is_reserved":false,"is_disabled":false,"rental_uris":{"android":"levelo://app?vid=8fc8f69f-228e-4754-8013-e3713d197b92","ios":"levelo://app?vid=8fc8f69f-228e-4754-8013-e3713d197b92"},"vehicle_type_id":"4","last_reported":1730300947,"current_range_meters":38800,"station_id":"ce4bhih2rcd13ifvqfr0","pricing_plan_id":"cebpf4jnsgd1na2vs0mg"},{"bike_id":"bb2a7d96-9d28-4524-aeb4-a1488923c01a","system_id":"levelo_inurba_marseille","lat":43.30151,"lon":5.38102,"is_reserved":false,"is_disabled":false,"rental_uris":{"android":"levelo://app?vid=bb2a7d96-9d28-4524-aeb4-a1488923c01a","ios":"levelo://app?vid=bb2a7d96-9d28-4524-aeb4-a1488923c01a"},"vehicle_type_id":"4","last_reported":1730300947,"current_range_meters":38800,"station_id":"ce4bgjp2rcd13ifvqbh0","pricing_plan_id":"cebpf4jnsgd1na2vs0mg"},{"bike_id":"a306c469-7544-4489-af82-e9fb1e9b4215","system_id":"levelo_inurba_marseille","lat":43.2319,"lon":5.39983,"is_reserved":false,"is_disabled":false,"rental_uris":{"android":"levelo://app?vid=a306c469-7544-4489-af82-e9fb1e9b4215","ios":"levelo://app?vid=a306c469-7544-4489-af82-e9fb1e9b4215"},"vehicle_type_id":"4","last_reported":1730300947,"current_range_meters":38800,"station_id":"ce4bhn12rcd13ifvqgqg","pricing_plan_id":"cebpf4jnsgd1na2vs0mg"},{"bike_id":"33048372-214b-42c8-8ae6-c977b3779a22","system_id":"levelo_inurba_marseille","lat":43.30947,"lon":5.39026,"is_reserved":false,"is_disabled":false,"rental_uris":{"android":"levelo://app?vid=33048372-214b-42c8-8ae6-c977b3779a22","ios":"levelo://app?vid=33048372-214b-42c8-8ae6-c977b3779a22"},"vehicle_type_id":"4","last_reported":1730300947,"current_range_meters":14400,"station_id":"ce4bgup2rcd13ifvqco0","pricing_plan_id":"cebpf4jnsgd1na2vs0mg"},{"bike_id":"93ba6c92-76d2-41f4-b00e-eb6938cf032b","system_id":"levelo_inurba_marseille","lat":43.26207,"lon":5.37454,"is_reserved":false,"is_disabled":false,"rental_uris":{"android":"levelo://app?vid=93ba6c92-76d2-41f4-b00e-eb6938cf032b","ios":"levelo://app?vid=93ba6c92-76d2-41f4-b00e-eb6938cf032b"},"vehicle_type_id":"4","last_reported":1730300947,"current_range_meters":20800,"station_id":"ce4bhgp2rcd13ifvqfc0","pricing_plan_id":"cebpf4jnsgd1na2vs0mg"},{"bike_id":"6c5328a1-5a95-4c7e-8e12-c9929f1538fe","system_id":"levelo_inurba_marseille","lat":43.29805,"lon":5.3809,"is_reserved":false,"is_disabled":false,"rental_uris":{"android":"levelo://app?vid=6c5328a1-5a95-4c7e-8e12-c9929f1538fe","ios":"levelo://app?vid=6c5328a1-5a95-4c7e-8e12-c9929f1538fe"},"vehicle_type_id":"4","last_reported":1730300947,"current_range_meters":38800,"station_id":"ce4bgip2rcd13ifvqbb0","pricing_plan_id":"cebpf4jnsgd1na2vs0mg"},{"bike_id":"203cdc68-feff-483d-ac1a-996e1a200a5a","system_id":"levelo_inurba_marseille","lat":43.279189,"lon":5.395742,"is_reserved":false,"is_disabled":false,"rental_uris":{"android":"levelo://app?vid=203cdc68-feff-483d-ac1a-996e1a200a5a","ios":"levelo://app?vid=203cdc68-feff-483d-ac1a-996e1a200a5a"},"vehicle_type_id":"4","last_reported":1730300947,"current_range_meters":35200,"station_id":"ce4bhf92rcd13ifvqf40","pricing_plan_id":"cebpf4jnsgd1na2vs0mg"},{"bike_id":"763a4397-2f66-42fc-8777-028dbafea2f3","system_id":"levelo_inurba_marseille","lat":43.26196,"lon":5.3745,"is_reserved":false,"is_disabled":false,"rental_uris":{"android":"levelo://app?vid=763a4397-2f66-42fc-8777-028dbafea2f3","ios":"levelo://app?vid=763a4397-2f66-42fc-8777-028dbafea2f3"},"vehicle_type_id":"4","last_reported":1730300947,"current_range_meters":38800,"station_id":"ce4bhgp2rcd13ifvqfc0","pricing_plan_id":"cebpf4jnsgd1na2vs0mg"},{"bike_id":"98eb81d9-446f-4332-ae1f-233ed0cba9cf","system_id":"levelo_inurba_marseille","lat":43.30954,"lon":5.39037,"is_reserved":false,"is_disabled":false,"rental_uris":{"android":"levelo://app?vid=98eb81d9-446f-4332-ae1f-233ed0cba9cf","ios":"levelo://app?vid=98eb81d9-446f-4332-ae1f-233ed0cba9cf"},"vehicle_type_id":"4","last_reported":1730300947,"current_range_meters":9200,"station_id":"ce4bgup2rcd13ifvqco0","pricing_plan_id":"cebpf4jnsgd1na2vs0mg"},{"bike_id":"dc542dee-0043-4522-9890-2893c82723a8","system_id":"levelo_inurba_marseille","lat":43.28033,"lon":5.35341,"is_reserved":false,"is_disabled":false,"rental_uris":{"android":"levelo://app?vid=dc542dee-0043-4522-9890-2893c82723a8","ios":"levelo://app?vid=dc542dee-0043-4522-9890-2893c82723a8"},"vehicle_type_id":"4","last_reported":1730300947,"current_range_meters":25600,"station_id":"ce4bhu92rcd13ifvqi70","pricing_plan_id":"cebpf4jnsgd1na2vs0mg"},{"bike_id":"bcb86487-0e40-45f9-840d-fb9a7acb61b6","system_id":"levelo_inurba_marseille","lat":43.27213,"lon":5.39181,"is_reserved":false,"is_disabled":false,"rental_uris":{"android":"levelo://app?vid=bcb86487-0e40-45f9-840d-fb9a7acb61b6","ios":"levelo://app?vid=bcb86487-0e40-45f9-840d-fb9a7acb61b6"},"vehicle_type_id":"4","last_reported":1730300947,"current_range_meters":3600,"station_id":"ce4bhhp2rcd13ifvqfm0","pricing_plan_id":"cebpf4jnsgd1na2vs0mg"},{"bike_id":"b659419b-c576-4cb7-bd73-6f06f8dc9fd1","system_id":"levelo_inurba_marseille","lat":43.31497,"lon":5.37306,"is_reserved":false,"is_disabled":false,"rental_uris":{"android":"levelo://app?vid=b659419b-c576-4cb7-bd73-6f06f8dc9fd1","ios":"levelo://app?vid=b659419b-c576-4cb7-bd73-6f06f8dc9fd1"},"vehicle_type_id":"4","last_reported":1730300947,"current_range_meters":20000,"station_id":"ce4bgt12rcd13ifvqcd0","pricing_plan_id":"cebpf4jnsgd1na2vs0mg"},{"bike_id":"f46fe835-0114-4a40-939c-83122c92bb0c","system_id":"levelo_inurba_marseille","lat":43.33762,"lon":5.37435,"is_reserved":false,"is_disabled":false,"rental_uris":{"android":"levelo://app?vid=f46fe835-0114-4a40-939c-83122c92bb0c","ios":"levelo://app?vid=f46fe835-0114-4a40-939c-83122c92bb0c"},"vehicle_type_id":"4","last_reported":1730300947,"current_range_meters":28800,"station_id":"","pricing_plan_id":"cebpf4jnsgd1na2vs0mg"},{"bike_id":"ba7945cd-b1c9-49ae-a05d-e3eca1105fac","system_id":"levelo_inurba_marseille","lat":43.29003,"lon":5.35616,"is_reserved":false,"is_disabled":false,"rental_uris":{"android":"levelo://app?vid=ba7945cd-b1c9-49ae-a05d-e3eca1105fac","ios":"levelo://app?vid=ba7945cd-b1c9-49ae-a05d-e3eca1105fac"},"vehicle_type_id":"4","last_reported":1730300947,"current_range_meters":25200,"station_id":"ce4bhb92rcd13ifvqen0","pricing_plan_id":"cebpf4jnsgd1na2vs0mg"},{"bike_id":"de2f2be3-423f-4dee-8e92-fa70b185ba6c","system_id":"levelo_inurba_marseille","lat":43.26803,"lon":5.40272,"is_reserved":false,"is_disabled":false,"rental_uris":{"android":"levelo://app?vid=de2f2be3-423f-4dee-8e92-fa70b185ba6c","ios":"levelo://app?vid=de2f2be3-423f-4dee-8e92-fa70b185ba6c"},"vehicle_type_id":"4","last_reported":1730300947,"current_range_meters":8400,"station_id":"ce501612rcd8frsf0b60","pricing_plan_id":"cebpf4jnsgd1na2vs0mg"},{"bike_id":"a64c4bd1-0283-471c-9ad4-96f8bc63ef8b","system_id":"levelo_inurba_marseille","lat":43.32487,"lon":5.36586,"is_reserved":false,"is_disabled":false,"rental_uris":{"android":"levelo://app?vid=a64c4bd1-0283-471c-9ad4-96f8bc63ef8b","ios":"levelo://app?vid=a64c4bd1-0283-471c-9ad4-96f8bc63ef8b"},"vehicle_type_id":"4","last_reported":1730300947,"current_range_meters":24400,"station_id":"ce4bhs12rcd13ifvqhvg","pricing_plan_id":"cebpf4jnsgd1na2vs0mg"},{"bike_id":"e96e213c-c911-40f6-ad71-5e7ad1bbc3aa","system_id":"levelo_inurba_marseille","lat":43.28611,"lon":5.351,"is_reserved":false,"is_disabled":false,"rental_uris":{"android":"levelo://app?vid=e96e213c-c911-40f6-ad71-5e7ad1bbc3aa","ios":"levelo://app?vid=e96e213c-c911-40f6-ad71-5e7ad1bbc3aa"},"vehicle_type_id":"4","last_reported":1730300947,"current_range_meters":3600,"station_id":"ce4bhch2rcd13ifvqeug","pricing_plan_id":"cebpf4jnsgd1na2vs0mg"},{"bike_id":"52b882e4-a87b-4a87-aaee-4f145f27bbd0","system_id":"levelo_inurba_marseille","lat":43.291779,"lon":5.357803,"is_reserved":false,"is_disabled":false,"rental_uris":{"android":"levelo://app?vid=52b882e4-a87b-4a87-aaee-4f145f27bbd0","ios":"levelo://app?vid=52b882e4-a87b-4a87-aaee-4f145f27bbd0"},"vehicle_type_id":"4","last_reported":1730300947,"current_range_meters":27600,"station_id":"ce4bhb12rcd13ifvqel0","pricing_plan_id":"cebpf4jnsgd1na2vs0mg"},{"bike_id":"7ccac698-84dc-449a-a750-ffad1bbd42f3","system_id":"levelo_inurba_marseille","lat":43.29969,"lon":5.38506,"is_reserved":false,"is_disabled":false,"rental_uris":{"android":"levelo://app?vid=7ccac698-84dc-449a-a750-ffad1bbd42f3","ios":"levelo://app?vid=7ccac698-84dc-449a-a750-ffad1bbd42f3"},"vehicle_type_id":"4","last_reported":1730300947,"current_range_meters":38800,"station_id":"ce4bgj92rcd13ifvqbd0","pricing_plan_id":"cebpf4jnsgd1na2vs0mg"},{"bike_id":"9d81a813-21e2-4ffd-a2c0-6a566c44881c","system_id":"levelo_inurba_marseille","lat":43.29923,"lon":5.37472,"is_reserved":false,"is_disabled":false,"rental_uris":{"android":"levelo://app?vid=9d81a813-21e2-4ffd-a2c0-6a566c44881c","ios":"levelo://app?vid=9d81a813-21e2-4ffd-a2c0-6a566c44881c"},"vehicle_type_id":"4","last_reported":1730300947,"current_range_meters":36800,"station_id":"ce4bgjh2rcd13ifvqbg0","pricing_plan_id":"cebpf4jnsgd1na2vs0mg"},{"bike_id":"87deb56d-9fdf-4738-812a-5bd2bd7cc716","system_id":"levelo_inurba_marseille","lat":43.28427,"lon":5.35001,"is_reserved":false,"is_disabled":false,"rental_uris":{"android":"levelo://app?vid=87deb56d-9fdf-4738-812a-5bd2bd7cc716","ios":"levelo://app?vid=87deb56d-9fdf-4738-812a-5bd2bd7cc716"},"vehicle_type_id":"4","last_reported":1730300947,"current_range_meters":38800,"station_id":"ce4bhbh2rcd13ifvqepg","pricing_plan_id":"cebpf4jnsgd1na2vs0mg"},{"bike_id":"cf92157a-d4d3-409a-a6cc-72e8a2a8f689","system_id":"levelo_inurba_marseille","lat":43.27907,"lon":5.38017,"is_reserved":false,"is_disabled":false,"rental_uris":{"android":"levelo://app?vid=cf92157a-d4d3-409a-a6cc-72e8a2a8f689","ios":"levelo://app?vid=cf92157a-d4d3-409a-a6cc-72e8a2a8f689"},"vehicle_type_id":"4","last_reported":1730300947,"current_range_meters":38000,"station_id":"ce4bhf92rcd13ifvqf50","pricing_plan_id":"cebpf4jnsgd1na2vs0mg"},{"bike_id":"b5308136-60cb-4d07-9dfe-1cf5b55c943e","system_id":"levelo_inurba_marseille","lat":43.31759,"lon":5.39029,"is_reserved":false,"is_disabled":false,"rental_uris":{"android":"levelo://app?vid=b5308136-60cb-4d07-9dfe-1cf5b55c943e","ios":"levelo://app?vid=b5308136-60cb-4d07-9dfe-1cf5b55c943e"},"vehicle_type_id":"4","last_reported":1730300947,"current_range_meters":29600,"station_id":"ce4bhqp2rcd13ifvqhng","pricing_plan_id":"cebpf4jnsgd1na2vs0mg"},{"bike_id":"5ff74640-5d39-40f8-808a-e5695df59fd4","system_id":"levelo_inurba_marseille","lat":43.27175,"lon":5.41,"is_reserved":false,"is_disabled":false,"rental_uris":{"android":"levelo://app?vid=5ff74640-5d39-40f8-808a-e5695df59fd4","ios":"levelo://app?vid=5ff74640-5d39-40f8-808a-e5695df59fd4"},"vehicle_type_id":"4","last_reported":1730300947,"current_range_meters":8800,"station_id":"ce4bhl12rcd13ifvqgf0","pricing_plan_id":"cebpf4jnsgd1na2vs0mg"},{"bike_id":"b6ec7309-539b-44bc-858e-c5c78276b1d1","system_id":"levelo_inurba_marseille","lat":43.26065,"lon":5.39397,"is_reserved":false,"is_disabled":false,"rental_uris":{"android":"levelo://app?vid=b6ec7309-539b-44bc-858e-c5c78276b1d1","ios":"levelo://app?vid=b6ec7309-539b-44bc-858e-c5c78276b1d1"},"vehicle_type_id":"4","last_reported":1730300947,"current_range_meters":36800,"station_id":"ce4bhh92rcd13ifvqfj0","pricing_plan_id":"cebpf4jnsgd1na2vs0mg"},{"bike_id":"cf422ef6-fbdd-4081-89d5-ff5bc9d89cac","system_id":"levelo_inurba_marseille","lat":43.29619,"lon":5.37161,"is_reserved":false,"is_disabled":false,"rental_uris":{"android":"levelo://app?vid=cf422ef6-fbdd-4081-89d5-ff5bc9d89cac","ios":"levelo://app?vid=cf422ef6-fbdd-4081-89d5-ff5bc9d89cac"},"vehicle_type_id":"4","last_reported":1730300947,"current_range_meters":36800,"station_id":"ce4bgnh2rcd13ifvqc0g","pricing_plan_id":"cebpf4jnsgd1na2vs0mg"},{"bike_id":"87d23bf7-4e73-43b2-8adf-83be3477f5aa","system_id":"levelo_inurba_marseille","lat":43.23193,"lon":5.35555,"is_reserved":false,"is_disabled":false,"rental_uris":{"android":"levelo://app?vid=87d23bf7-4e73-43b2-8adf-83be3477f5aa","ios":"levelo://app?vid=87d23bf7-4e73-43b2-8adf-83be3477f5aa"},"vehicle_type_id":"4","last_reported":1730300947,"current_range_meters":33200,"station_id":"ce4bhu92rcd13ifvqi70","pricing_plan_id":"cebpf4jnsgd1na2vs0mg"},{"bike_id":"94e163a3-bd7a-4882-9a35-c77f62862fd0","system_id":"levelo_inurba_marseille","lat":43.238281,"lon":5.398244,"is_reserved":false,"is_disabled":false,"rental_uris":{"android":"levelo://app?vid=94e163a3-bd7a-4882-9a35-c77f62862fd0","ios":"levelo://app?vid=94e163a3-bd7a-4882-9a35-c77f62862fd0"},"vehicle_type_id":"4","last_reported":1730300947,"current_range_meters":24400,"station_id":"ce4bhn12rcd13ifvqgqg","pricing_plan_id":"cebpf4jnsgd1na2vs0mg"},{"bike_id":"95456d32-a80a-4825-b22f-78f32bd6bb05","system_id":"levelo_inurba_marseille","lat":43.23967,"lon":5.36634,"is_reserved":false,"is_disabled":false,"rental_uris":{"android":"levelo://app?vid=95456d32-a80a-4825-b22f-78f32bd6bb05","ios":"levelo://app?vid=95456d32-a80a-4825-b22f-78f32bd6bb05"},"vehicle_type_id":"4","last_reported":1730300947,"current_range_meters":26000,"station_id":"ce4bhi12rcd13ifvqfp0","pricing_plan_id":"cebpf4jnsgd1na2vs0mg"},{"bike_id":"a4e8771e-5e7e-4d85-be76-3f71eaae12b6","system_id":"levelo_inurba_marseille","lat":43.2978,"lon":5.37098,"is_reserved":false,"is_disabled":false,"rental_uris":{"android":"levelo://app?vid=a4e8771e-5e7e-4d85-be76-3f71eaae12b6","ios":"levelo://app?vid=a4e8771e-5e7e-4d85-be76-3f71eaae12b6"},"vehicle_type_id":"4","last_reported":1730300947,"current_range_meters":4800,"station_id":"ce4bgop2rcd13ifvqc1g","pricing_plan_id":"cebpf4jnsgd1na2vs0mg"},{"bike_id":"15e517f1-ebec-47c6-9ffd-2a035f728a02","system_id":"levelo_inurba_marseille","lat":43.24807,"lon":5.37459,"is_reserved":false,"is_disabled":false,"rental_uris":{"android":"levelo://app?vid=15e517f1-ebec-47c6-9ffd-2a035f728a02","ios":"levelo://app?vid=15e517f1-ebec-47c6-9ffd-2a035f728a02"},"vehicle_type_id":"4","last_reported":1730300947,"current_range_meters":25600,"station_id":"ce4bhgh2rcd13ifvqfb0","pricing_plan_id":"cebpf4jnsgd1na2vs0mg"},{"bike_id":"fd35e789-e3bb-4e76-ab17-facb61da91ca","system_id":"levelo_inurba_marseille","lat":43.33774,"lon":5.37432,"is_reserved":false,"is_disabled":false,"rental_uris":{"android":"levelo://app?vid=fd35e789-e3bb-4e76-ab17-facb61da91ca","ios":"levelo://app?vid=fd35e789-e3bb-4e76-ab17-facb61da91ca"},"vehicle_type_id":"4","last_reported":1730300947,"current_range_meters":36000,"station_id":"","pricing_plan_id":"cebpf4jnsgd1na2vs0mg"},{"bike_id":"ad8b05f0-56c5-46da-a542-5898c4b044a5","system_id":"levelo_inurba_marseille","lat":43.29885,"lon":5.38896,"is_reserved":false,"is_disabled":false,"rental_uris":{"android":"levelo://app?vid=ad8b05f0-56c5-46da-a542-5898c4b044a5","ios":"levelo://app?vid=ad8b05f0-56c5-46da-a542-5898c4b044a5"},"vehicle_type_id":"4","last_reported":1730300947,"current_range_meters":8400,"station_id":"ce4bh392rcd13ifvqdl0","pricing_plan_id":"cebpf4jnsgd1na2vs0mg"},{"bike_id":"5ed3ba27-7018-4f4e-92b7-5e7ec7488a89","system_id":"levelo_inurba_marseille","lat":43.28416,"lon":5.34981,"is_reserved":false,"is_disabled":false,"rental_uris":{"android":"levelo://app?vid=5ed3ba27-7018-4f4e-92b7-5e7ec7488a89","ios":"levelo://app?vid=5ed3ba27-7018-4f4e-92b7-5e7ec7488a89"},"vehicle_type_id":"4","last_reported":1730300947,"current_range_meters":36400,"station_id":"ce4bhbh2rcd13ifvqepg","pricing_plan_id":"cebpf4jnsgd1na2vs0mg"},{"bike_id":"cac76a9e-5634-41b5-a35d-bfbe62021f04","system_id":"levelo_inurba_marseille","lat":43.27372,"lon":5.36261,"is_reserved":false,"is_disabled":false,"rental_uris":{"android":"levelo://app?vid=cac76a9e-5634-41b5-a35d-bfbe62021f04","ios":"levelo://app?vid=cac76a9e-5634-41b5-a35d-bfbe62021f04"},"vehicle_type_id":"4","last_reported":1730300947,"current_range_meters":11200,"station_id":"ce4bhbh2rcd13ifvqeo0","pricing_plan_id":"cebpf4jnsgd1na2vs0mg"},{"bike_id":"c3ed49f2-3ef1-4915-9fc5-a2b6da474ca2","system_id":"levelo_inurba_marseille","lat":43.30596,"lon":5.37232,"is_reserved":false,"is_disabled":false,"rental_uris":{"android":"levelo://app?vid=c3ed49f2-3ef1-4915-9fc5-a2b6da474ca2","ios":"levelo://app?vid=c3ed49f2-3ef1-4915-9fc5-a2b6da474ca2"},"vehicle_type_id":"4","last_reported":1730300947,"current_range_meters":30800,"station_id":"ce4bgqh2rcd13ifvqc4g","pricing_plan_id":"cebpf4jnsgd1na2vs0mg"},{"bike_id":"0ddf8415-d5c4-47b1-a8cb-ff0dc03d5696","system_id":"levelo_inurba_marseille","lat":43.29846,"lon":5.36283,"is_reserved":false,"is_disabled":false,"rental_uris":{"android":"levelo://app?vid=0ddf8415-d5c4-47b1-a8cb-ff0dc03d5696","ios":"levelo://app?vid=0ddf8415-d5c4-47b1-a8cb-ff0dc03d5696"},"vehicle_type_id":"4","last_reported":1730300947,"current_range_meters":36800,"station_id":"ce4bgpp2rcd13ifvqc3g","pricing_plan_id":"cebpf4jnsgd1na2vs0mg"},{"bike_id":"df65464c-1dee-4a9c-bf89-30c4e4c33ee3","system_id":"levelo_inurba_marseille","lat":43.28977,"lon":5.37833,"is_reserved":false,"is_disabled":false,"rental_uris":{"android":"levelo://app?vid=df65464c-1dee-4a9c-bf89-30c4e4c33ee3","ios":"levelo://app?vid=df65464c-1dee-4a9c-bf89-30c4e4c33ee3"},"vehicle_type_id":"4","last_reported":1730300947,"current_range_meters":31200,"station_id":"ce4bh9p2rcd13ifvqed0","pricing_plan_id":"cebpf4jnsgd1na2vs0mg"},{"bike_id":"84eb4724-80f2-4dff-abed-440a600007d3","system_id":"levelo_inurba_marseille","lat":43.23194,"lon":5.35554,"is_reserved":false,"is_disabled":false,"rental_uris":{"android":"levelo://app?vid=84eb4724-80f2-4dff-abed-440a600007d3","ios":"levelo://app?vid=84eb4724-80f2-4dff-abed-440a600007d3"},"vehicle_type_id":"4","last_reported":1730300947,"current_range_meters":3600,"station_id":"ce4bhu92rcd13ifvqi70","pricing_plan_id":"cebpf4jnsgd1na2vs0mg"},{"bike_id":"c2b3e6d4-374e-4b92-a1d3-e8ea37e06621","system_id":"levelo_inurba_marseille","lat":43.24561,"lon":5.39514,"is_reserved":false,"is_disabled":false,"rental_uris":{"android":"levelo://app?vid=c2b3e6d4-374e-4b92-a1d3-e8ea37e06621","ios":"levelo://app?vid=c2b3e6d4-374e-4b92-a1d3-e8ea37e06621"},"vehicle_type_id":"4","last_reported":1730300947,"current_range_meters":7200,"station_id":"ce4bhlp2rcd13ifvqgjg","pricing_plan_id":"cebpf4jnsgd1na2vs0mg"},{"bike_id":"61fbb907-3c28-4318-a9a5-7afecc725e5c","system_id":"levelo_inurba_marseille","lat":43.291096,"lon":5.355784,"is_reserved":false,"is_disabled":false,"rental_uris":{"android":"levelo://app?vid=61fbb907-3c28-4318-a9a5-7afecc725e5c","ios":"levelo://app?vid=61fbb907-3c28-4318-a9a5-7afecc725e5c"},"vehicle_type_id":"4","last_reported":1730300947,"current_range_meters":29600,"station_id":"ce4bhbh2rcd13ifvqepg","pricing_plan_id":"cebpf4jnsgd1na2vs0mg"},{"bike_id":"3cb9cba9-6f6a-4243-bd13-74a986e4b125","system_id":"levelo_inurba_marseille","lat":43.29218,"lon":5.36057,"is_reserved":false,"is_disabled":false,"rental_uris":{"android":"levelo://app?vid=3cb9cba9-6f6a-4243-bd13-74a986e4b125","ios":"levelo://app?vid=3cb9cba9-6f6a-4243-bd13-74a986e4b125"},"vehicle_type_id":"4","last_reported":1730300947,"current_range_meters":38400,"station_id":"ce4bhbh2rcd13ifvqeqg","pricing_plan_id":"cebpf4jnsgd1na2vs0mg"},{"bike_id":"ad1e9dd2-3260-493f-8747-10d47337216f","system_id":"levelo_inurba_marseille","lat":43.22929,"lon":5.35378,"is_reserved":false,"is_disabled":false,"rental_uris":{"android":"levelo://app?vid=ad1e9dd2-3260-493f-8747-10d47337216f","ios":"levelo://app?vid=ad1e9dd2-3260-493f-8747-10d47337216f"},"vehicle_type_id":"4","last_reported":1730300947,"current_range_meters":22000,"station_id":"cpo3532slgdg3j2ikp40","pricing_plan_id":"cebpf4jnsgd1na2vs0mg"},{"bike_id":"1f3e883a-ec14-41f4-b57e-f8307e461c9d","system_id":"levelo_inurba_marseille","lat":43.2512,"lon":5.40323,"is_reserved":false,"is_disabled":false,"rental_uris":{"android":"levelo://app?vid=1f3e883a-ec14-41f4-b57e-f8307e461c9d","ios":"levelo://app?vid=1f3e883a-ec14-41f4-b57e-f8307e461c9d"},"vehicle_type_id":"4","last_reported":1730300947,"current_range_meters":6800,"station_id":"ce4bhlh2rcd13ifvqgig","pricing_plan_id":"cebpf4jnsgd1na2vs0mg"},{"bike_id":"4ab2bed8-8b0c-434e-955a-1c36751721ee","system_id":"levelo_inurba_marseille","lat":43.29267,"lon":5.38437,"is_reserved":false,"is_disabled":false,"rental_uris":{"android":"levelo://app?vid=4ab2bed8-8b0c-434e-955a-1c36751721ee","ios":"levelo://app?vid=4ab2bed8-8b0c-434e-955a-1c36751721ee"},"vehicle_type_id":"4","last_reported":1730300947,"current_range_meters":5600,"station_id":"ce4bh692rcd13ifvqea0","pricing_plan_id":"cebpf4jnsgd1na2vs0mg"},{"bike_id":"afc8a59e-718c-432c-b226-d6be0903e5fb","system_id":"levelo_inurba_marseille","lat":43.24394,"lon":5.37069,"is_reserved":false,"is_disabled":false,"rental_uris":{"android":"levelo://app?vid=afc8a59e-718c-432c-b226-d6be0903e5fb","ios":"levelo://app?vid=afc8a59e-718c-432c-b226-d6be0903e5fb"},"vehicle_type_id":"4","last_reported":1730300947,"current_range_meters":32400,"station_id":"ce4bhhh2rcd13ifvqfk0","pricing_plan_id":"cebpf4jnsgd1na2vs0mg"},{"bike_id":"1db854a3-4354-4c61-b488-a72b66e72d4f","system_id":"levelo_inurba_marseille","lat":43.29894,"lon":5.39745,"is_reserved":false,"is_disabled":false,"rental_uris":{"android":"levelo://app?vid=1db854a3-4354-4c61-b488-a72b66e72d4f","ios":"levelo://app?vid=1db854a3-4354-4c61-b488-a72b66e72d4f"},"vehicle_type_id":"4","last_reported":1730300947,"current_range_meters":38800,"station_id":"ce4bh0h2rcd13ifvqd50","pricing_plan_id":"cebpf4jnsgd1na2vs0mg"},{"bike_id":"72e37474-1bc8-4568-aec8-ce5464e6b828","system_id":"levelo_inurba_marseille","lat":43.23191,"lon":5.35545,"is_reserved":false,"is_disabled":false,"rental_uris":{"android":"levelo://app?vid=72e37474-1bc8-4568-aec8-ce5464e6b828","ios":"levelo://app?vid=72e37474-1bc8-4568-aec8-ce5464e6b828"},"vehicle_type_id":"4","last_reported":1730300947,"current_range_meters":28400,"station_id":"ce4bhu92rcd13ifvqi70","pricing_plan_id":"cebpf4jnsgd1na2vs0mg"},{"bike_id":"f60c22c9-8859-4064-a562-7bc4d70b8b13","system_id":"levelo_inurba_marseille","lat":43.28419,"lon":5.34994,"is_reserved":false,"is_disabled":false,"rental_uris":{"android":"levelo://app?vid=f60c22c9-8859-4064-a562-7bc4d70b8b13","ios":"levelo://app?vid=f60c22c9-8859-4064-a562-7bc4d70b8b13"},"vehicle_type_id":"4","last_reported":1730300947,"current_range_meters":39200,"station_id":"ce4bhbh2rcd13ifvqepg","pricing_plan_id":"cebpf4jnsgd1na2vs0mg"},{"bike_id":"2f6a4308-c512-44e9-899e-5273e4584a7b","system_id":"levelo_inurba_marseille","lat":43.27994,"lon":5.4166,"is_reserved":false,"is_disabled":false,"rental_uris":{"android":"levelo://app?vid=2f6a4308-c512-44e9-899e-5273e4584a7b","ios":"levelo://app?vid=2f6a4308-c512-44e9-899e-5273e4584a7b"},"vehicle_type_id":"4","last_reported":1730300947,"current_range_meters":10000,"station_id":"ce4bho12rcd13ifvqh1g","pricing_plan_id":"cebpf4jnsgd1na2vs0mg"},{"bike_id":"7dd52916-829b-467b-80ac-fb3888b3530f","system_id":"levelo_inurba_marseille","lat":43.28857,"lon":5.39308,"is_reserved":false,"is_disabled":false,"rental_uris":{"android":"levelo://app?vid=7dd52916-829b-467b-80ac-fb3888b3530f","ios":"levelo://app?vid=7dd52916-829b-467b-80ac-fb3888b3530f"},"vehicle_type_id":"4","last_reported":1730300947,"current_range_meters":22000,"station_id":"ce4bh2p2rcd13ifvqdi0","pricing_plan_id":"cebpf4jnsgd1na2vs0mg"},{"bike_id":"4a9c4c09-3b60-43bd-813e-aed87710c539","system_id":"levelo_inurba_marseille","lat":43.28975,"lon":5.37849,"is_reserved":false,"is_disabled":false,"rental_uris":{"android":"levelo://app?vid=4a9c4c09-3b60-43bd-813e-aed87710c539","ios":"levelo://app?vid=4a9c4c09-3b60-43bd-813e-aed87710c539"},"vehicle_type_id":"4","last_reported":1730300947,"current_range_meters":38000,"station_id":"ce4bh9p2rcd13ifvqed0","pricing_plan_id":"cebpf4jnsgd1na2vs0mg"},{"bike_id":"54d2e7c1-0997-4e85-b497-01eca9eb4f00","system_id":"levelo_inurba_marseille","lat":43.2319,"lon":5.35555,"is_reserved":false,"is_disabled":false,"rental_uris":{"android":"levelo://app?vid=54d2e7c1-0997-4e85-b497-01eca9eb4f00","ios":"levelo://app?vid=54d2e7c1-0997-4e85-b497-01eca9eb4f00"},"vehicle_type_id":"4","last_reported":1730300947,"current_range_meters":15200,"station_id":"ce4bhu92rcd13ifvqi70","pricing_plan_id":"cebpf4jnsgd1na2vs0mg"},{"bike_id":"e675a6fb-cdb1-482c-beca-19b0cf026634","system_id":"levelo_inurba_marseille","lat":43.23064,"lon":5.35488,"is_reserved":false,"is_disabled":false,"rental_uris":{"android":"levelo://app?vid=e675a6fb-cdb1-482c-beca-19b0cf026634","ios":"levelo://app?vid=e675a6fb-cdb1-482c-beca-19b0cf026634"},"vehicle_type_id":"4","last_reported":1730300947,"current_range_meters":25600,"station_id":"cpo3342slgdg3j2ifvpg","pricing_plan_id":"cebpf4jnsgd1na2vs0mg"},{"bike_id":"4fbde65f-b0d6-4c28-9bfb-84ec985f7194","system_id":"levelo_inurba_marseille","lat":43.28416,"lon":5.34986,"is_reserved":false,"is_disabled":false,"rental_uris":{"android":"levelo://app?vid=4fbde65f-b0d6-4c28-9bfb-84ec985f7194","ios":"levelo://app?vid=4fbde65f-b0d6-4c28-9bfb-84ec985f7194"},"vehicle_type_id":"4","last_reported":1730300947,"current_range_meters":24000,"station_id":"ce4bhbh2rcd13ifvqepg","pricing_plan_id":"cebpf4jnsgd1na2vs0mg"},{"bike_id":"996b2914-559a-4931-99fb-f1af0dcb5784","system_id":"levelo_inurba_marseille","lat":43.28851,"lon":5.39329,"is_reserved":false,"is_disabled":false,"rental_uris":{"android":"levelo://app?vid=996b2914-559a-4931-99fb-f1af0dcb5784","ios":"levelo://app?vid=996b2914-559a-4931-99fb-f1af0dcb5784"},"vehicle_type_id":"4","last_reported":1730300947,"current_range_meters":30400,"station_id":"ce4bh2p2rcd13ifvqdi0","pricing_plan_id":"cebpf4jnsgd1na2vs0mg"},{"bike_id":"e1b150c2-966e-4b17-81ab-ef87e14ea824","system_id":"levelo_inurba_marseille","lat":43.2808,"lon":5.3966,"is_reserved":false,"is_disabled":false,"rental_uris":{"android":"levelo://app?vid=e1b150c2-966e-4b17-81ab-ef87e14ea824","ios":"levelo://app?vid=e1b150c2-966e-4b17-81ab-ef87e14ea824"},"vehicle_type_id":"4","last_reported":1730300947,"current_range_meters":28000,"station_id":"ce4bho12rcd13ifvqh2g","pricing_plan_id":"cebpf4jnsgd1na2vs0mg"},{"bike_id":"cf1bf93e-b987-4f03-9549-b984bb838aa3","system_id":"levelo_inurba_marseille","lat":43.26783,"lon":5.39417,"is_reserved":false,"is_disabled":false,"rental_uris":{"android":"levelo://app?vid=cf1bf93e-b987-4f03-9549-b984bb838aa3","ios":"levelo://app?vid=cf1bf93e-b987-4f03-9549-b984bb838aa3"},"vehicle_type_id":"4","last_reported":1730300947,"current_range_meters":37600,"station_id":"ce4bhh12rcd13ifvqfg0","pricing_plan_id":"cebpf4jnsgd1na2vs0mg"},{"bike_id":"e74d5bb5-71e1-4c61-a5ef-f3253bb4afbf","system_id":"levelo_inurba_marseille","lat":43.23066,"lon":5.35493,"is_reserved":false,"is_disabled":false,"rental_uris":{"android":"levelo://app?vid=e74d5bb5-71e1-4c61-a5ef-f3253bb4afbf","ios":"levelo://app?vid=e74d5bb5-71e1-4c61-a5ef-f3253bb4afbf"},"vehicle_type_id":"4","last_reported":1730300947,"current_range_meters":28400,"station_id":"cpo3342slgdg3j2ifvpg","pricing_plan_id":"cebpf4jnsgd1na2vs0mg"},{"bike_id":"ae30f0e4-509e-44a9-a275-eda04247b6f3","system_id":"levelo_inurba_marseille","lat":43.23149,"lon":5.43734,"is_reserved":false,"is_disabled":false,"rental_uris":{"android":"levelo://app?vid=ae30f0e4-509e-44a9-a275-eda04247b6f3","ios":"levelo://app?vid=ae30f0e4-509e-44a9-a275-eda04247b6f3"},"vehicle_type_id":"4","last_reported":1730300947,"current_range_meters":28800,"station_id":"ce4bhmp2rcd13ifvqgog","pricing_plan_id":"cebpf4jnsgd1na2vs0mg"},{"bike_id":"4a49a3e5-2730-4914-9094-8aba01352722","system_id":"levelo_inurba_marseille","lat":43.29886,"lon":5.38914,"is_reserved":false,"is_disabled":false,"rental_uris":{"android":"levelo://app?vid=4a49a3e5-2730-4914-9094-8aba01352722","ios":"levelo://app?vid=4a49a3e5-2730-4914-9094-8aba01352722"},"vehicle_type_id":"4","last_reported":1730300947,"current_range_meters":38800,"station_id":"ce4bh392rcd13ifvqdl0","pricing_plan_id":"cebpf4jnsgd1na2vs0mg"},{"bike_id":"ed4542ec-a766-43c5-bc78-9617bcbbe71c","system_id":"levelo_inurba_marseille","lat":43.25878,"lon":5.39907,"is_reserved":false,"is_disabled":false,"rental_uris":{"android":"levelo://app?vid=ed4542ec-a766-43c5-bc78-9617bcbbe71c","ios":"levelo://app?vid=ed4542ec-a766-43c5-bc78-9617bcbbe71c"},"vehicle_type_id":"4","last_reported":1730300947,"current_range_meters":8800,"station_id":"ce4bhl92rcd13ifvqghg","pricing_plan_id":"cebpf4jnsgd1na2vs0mg"},{"bike_id":"6984b0de-829e-4311-be46-544384bed29d","system_id":"levelo_inurba_marseille","lat":43.28486,"lon":5.38423,"is_reserved":false,"is_disabled":false,"rental_uris":{"android":"levelo://app?vid=6984b0de-829e-4311-be46-544384bed29d","ios":"levelo://app?vid=6984b0de-829e-4311-be46-544384bed29d"},"vehicle_type_id":"4","last_reported":1730300947,"current_range_meters":23200,"station_id":"ce4bh512rcd13ifvqe3g","pricing_plan_id":"cebpf4jnsgd1na2vs0mg"},{"bike_id":"b85c7517-4785-47da-937d-947a0c7303d5","system_id":"levelo_inurba_marseille","lat":43.30538,"lon":5.36714,"is_reserved":false,"is_disabled":false,"rental_uris":{"android":"levelo://app?vid=b85c7517-4785-47da-937d-947a0c7303d5","ios":"levelo://app?vid=b85c7517-4785-47da-937d-947a0c7303d5"},"vehicle_type_id":"4","last_reported":1730300947,"current_range_meters":16000,"station_id":"ce4bgrp2rcd13ifvqc9g","pricing_plan_id":"cebpf4jnsgd1na2vs0mg"},{"bike_id":"899ec427-68d5-425f-b9b2-7678518ace0a","system_id":"levelo_inurba_marseille","lat":43.28706,"lon":5.39988,"is_reserved":false,"is_disabled":false,"rental_uris":{"android":"levelo://app?vid=899ec427-68d5-425f-b9b2-7678518ace0a","ios":"levelo://app?vid=899ec427-68d5-425f-b9b2-7678518ace0a"},"vehicle_type_id":"4","last_reported":1730300947,"current_range_meters":32000,"station_id":"ce4bho92rcd13ifvqh3g","pricing_plan_id":"cebpf4jnsgd1na2vs0mg"},{"bike_id":"c7e0806a-d694-4a23-a01d-dbdbff5e1c91","system_id":"levelo_inurba_marseille","lat":43.28672,"lon":5.36349,"is_reserved":false,"is_disabled":false,"rental_uris":{"android":"levelo://app?vid=c7e0806a-d694-4a23-a01d-dbdbff5e1c91","ios":"levelo://app?vid=c7e0806a-d694-4a23-a01d-dbdbff5e1c91"},"vehicle_type_id":"4","last_reported":1730300947,"current_range_meters":32000,"station_id":"ce4bhah2rcd13ifvqej0","pricing_plan_id":"cebpf4jnsgd1na2vs0mg"},{"bike_id":"d3834406-5180-48ae-986e-7eca8f9a66e3","system_id":"levelo_inurba_marseille","lat":43.27066,"lon":5.42276,"is_reserved":false,"is_disabled":false,"rental_uris":{"android":"levelo://app?vid=d3834406-5180-48ae-986e-7eca8f9a66e3","ios":"levelo://app?vid=d3834406-5180-48ae-986e-7eca8f9a66e3"},"vehicle_type_id":"4","last_reported":1730300947,"current_range_meters":18800,"station_id":"ce4bhk92rcd13ifvqgb0","pricing_plan_id":"cebpf4jnsgd1na2vs0mg"},{"bike_id":"1995d42f-9bb2-423e-a419-1706f5fab24e","system_id":"levelo_inurba_marseille","lat":43.27075,"lon":5.42278,"is_reserved":false,"is_disabled":false,"rental_uris":{"android":"levelo://app?vid=1995d42f-9bb2-423e-a419-1706f5fab24e","ios":"levelo://app?vid=1995d42f-9bb2-423e-a419-1706f5fab24e"},"vehicle_type_id":"4","last_reported":1730300947,"current_range_meters":33200,"station_id":"ce4bhk92rcd13ifvqgb0","pricing_plan_id":"cebpf4jnsgd1na2vs0mg"},{"bike_id":"8162e4a8-23c1-4020-bbef-be4a2e70aefe","system_id":"levelo_inurba_marseille","lat":43.23195,"lon":5.35553,"is_reserved":false,"is_disabled":false,"rental_uris":{"android":"levelo://app?vid=8162e4a8-23c1-4020-bbef-be4a2e70aefe","ios":"levelo://app?vid=8162e4a8-23c1-4020-bbef-be4a2e70aefe"},"vehicle_type_id":"4","last_reported":1730300947,"current_range_meters":8800,"station_id":"ce4bhu92rcd13ifvqi70","pricing_plan_id":"cebpf4jnsgd1na2vs0mg"},{"bike_id":"cf6e46fb-07e4-4259-8796-fece3f1717ca","system_id":"levelo_inurba_marseille","lat":43.2657,"lon":5.39016,"is_reserved":false,"is_disabled":false,"rental_uris":{"android":"levelo://app?vid=cf6e46fb-07e4-4259-8796-fece3f1717ca","ios":"levelo://app?vid=cf6e46fb-07e4-4259-8796-fece3f1717ca"},"vehicle_type_id":"4","last_reported":1730300947,"current_range_meters":36800,"station_id":"ce4bhe12rcd13ifvqf30","pricing_plan_id":"cebpf4jnsgd1na2vs0mg"},{"bike_id":"3f309d8e-1a80-4efe-9725-9833258cf496","system_id":"levelo_inurba_marseille","lat":43.2847,"lon":5.3842,"is_reserved":false,"is_disabled":false,"rental_uris":{"android":"levelo://app?vid=3f309d8e-1a80-4efe-9725-9833258cf496","ios":"levelo://app?vid=3f309d8e-1a80-4efe-9725-9833258cf496"},"vehicle_type_id":"4","last_reported":1730300947,"current_range_meters":26000,"station_id":"ce4bh512rcd13ifvqe3g","pricing_plan_id":"cebpf4jnsgd1na2vs0mg"},{"bike_id":"898bb9b1-f942-4323-a013-02b7edaa2bca","system_id":"levelo_inurba_marseille","lat":43.29919,"lon":5.36519,"is_reserved":false,"is_disabled":false,"rental_uris":{"android":"levelo://app?vid=898bb9b1-f942-4323-a013-02b7edaa2bca","ios":"levelo://app?vid=898bb9b1-f942-4323-a013-02b7edaa2bca"},"vehicle_type_id":"4","last_reported":1730300947,"current_range_meters":0,"station_id":"ce4bgm92rcd13ifvqbr0","pricing_plan_id":"cebpf4jnsgd1na2vs0mg"},{"bike_id":"bc13f27d-bf09-4625-8cec-7a10c45d47bb","system_id":"levelo_inurba_marseille","lat":43.26934,"lon":5.38923,"is_reserved":false,"is_disabled":false,"rental_uris":{"android":"levelo://app?vid=bc13f27d-bf09-4625-8cec-7a10c45d47bb","ios":"levelo://app?vid=bc13f27d-bf09-4625-8cec-7a10c45d47bb"},"vehicle_type_id":"4","last_reported":1730300947,"current_range_meters":24800,"station_id":"ce4bhhh2rcd13ifvqfl0","pricing_plan_id":"cebpf4jnsgd1na2vs0mg"},{"bike_id":"8c853d8a-50e2-4675-9939-5f16dc1eaabe","system_id":"levelo_inurba_marseille","lat":43.26214,"lon":5.37444,"is_reserved":false,"is_disabled":false,"rental_uris":{"android":"levelo://app?vid=8c853d8a-50e2-4675-9939-5f16dc1eaabe","ios":"levelo://app?vid=8c853d8a-50e2-4675-9939-5f16dc1eaabe"},"vehicle_type_id":"4","last_reported":1730300947,"current_range_meters":34800,"station_id":"ce4bhgp2rcd13ifvqfc0","pricing_plan_id":"cebpf4jnsgd1na2vs0mg"},{"bike_id":"5efc45f7-df61-440b-97a0-921e1f536d5c","system_id":"levelo_inurba_marseille","lat":43.29209,"lon":5.36083,"is_reserved":false,"is_disabled":false,"rental_uris":{"android":"levelo://app?vid=5efc45f7-df61-440b-97a0-921e1f536d5c","ios":"levelo://app?vid=5efc45f7-df61-440b-97a0-921e1f536d5c"},"vehicle_type_id":"4","last_reported":1730300947,"current_range_meters":14400,"station_id":"ce4bhbh2rcd13ifvqeqg","pricing_plan_id":"cebpf4jnsgd1na2vs0mg"},{"bike_id":"2241869d-e03d-465c-ab9b-03898b3b0bbc","system_id":"levelo_inurba_marseille","lat":43.29621,"lon":5.37169,"is_reserved":false,"is_disabled":false,"rental_uris":{"android":"levelo://app?vid=2241869d-e03d-465c-ab9b-03898b3b0bbc","ios":"levelo://app?vid=2241869d-e03d-465c-ab9b-03898b3b0bbc"},"vehicle_type_id":"4","last_reported":1730300947,"current_range_meters":8800,"station_id":"ce4bgnh2rcd13ifvqc0g","pricing_plan_id":"cebpf4jnsgd1na2vs0mg"},{"bike_id":"0b04ee7c-5ceb-4b7c-b560-9594ac65a189","system_id":"levelo_inurba_marseille","lat":43.28462,"lon":5.35888,"is_reserved":false,"is_disabled":false,"rental_uris":{"android":"levelo://app?vid=0b04ee7c-5ceb-4b7c-b560-9594ac65a189","ios":"levelo://app?vid=0b04ee7c-5ceb-4b7c-b560-9594ac65a189"},"vehicle_type_id":"4","last_reported":1730300947,"current_range_meters":10800,"station_id":"ce4bhah2rcd13ifvqei0","pricing_plan_id":"cebpf4jnsgd1na2vs0mg"},{"bike_id":"3a70e850-3cc0-459e-884b-3683344851c7","system_id":"levelo_inurba_marseille","lat":43.32478,"lon":5.36561,"is_reserved":false,"is_disabled":false,"rental_uris":{"android":"levelo://app?vid=3a70e850-3cc0-459e-884b-3683344851c7","ios":"levelo://app?vid=3a70e850-3cc0-459e-884b-3683344851c7"},"vehicle_type_id":"4","last_reported":1730300947,"current_range_meters":8400,"station_id":"ce4bhs12rcd13ifvqhvg","pricing_plan_id":"cebpf4jnsgd1na2vs0mg"},{"bike_id":"8ceab52b-6bf2-45d7-ac7d-fb238253c8a6","system_id":"levelo_inurba_marseille","lat":43.289421,"lon":5.396469,"is_reserved":false,"is_disabled":false,"rental_uris":{"android":"levelo://app?vid=8ceab52b-6bf2-45d7-ac7d-fb238253c8a6","ios":"levelo://app?vid=8ceab52b-6bf2-45d7-ac7d-fb238253c8a6"},"vehicle_type_id":"4","last_reported":1730300947,"current_range_meters":12400,"station_id":"ce4bh3h2rcd13ifvqdn0","pricing_plan_id":"cebpf4jnsgd1na2vs0mg"},{"bike_id":"edeb19d0-0147-4119-b700-6c9848c2817f","system_id":"levelo_inurba_marseille","lat":43.305415,"lon":5.384237,"is_reserved":false,"is_disabled":false,"rental_uris":{"android":"levelo://app?vid=edeb19d0-0147-4119-b700-6c9848c2817f","ios":"levelo://app?vid=edeb19d0-0147-4119-b700-6c9848c2817f"},"vehicle_type_id":"4","last_reported":1730300947,"current_range_meters":0,"station_id":"ce4bgg92rcd13ifvqb30","pricing_plan_id":"cebpf4jnsgd1na2vs0mg"},{"bike_id":"3a58aead-6e7f-468c-9d9d-4429d714b1be","system_id":"levelo_inurba_marseille","lat":43.27426,"lon":5.39412,"is_reserved":false,"is_disabled":false,"rental_uris":{"android":"levelo://app?vid=3a58aead-6e7f-468c-9d9d-4429d714b1be","ios":"levelo://app?vid=3a58aead-6e7f-468c-9d9d-4429d714b1be"},"vehicle_type_id":"4","last_reported":1730300947,"current_range_meters":38800,"station_id":"ce4bhdp2rcd13ifvqf20","pricing_plan_id":"cebpf4jnsgd1na2vs0mg"},{"bike_id":"a6e8400f-f9a3-4be0-9b4c-1346de52b542","system_id":"levelo_inurba_marseille","lat":43.30535,"lon":5.36545,"is_reserved":false,"is_disabled":false,"rental_uris":{"android":"levelo://app?vid=a6e8400f-f9a3-4be0-9b4c-1346de52b542","ios":"levelo://app?vid=a6e8400f-f9a3-4be0-9b4c-1346de52b542"},"vehicle_type_id":"4","last_reported":1730300947,"current_range_meters":27200,"station_id":"ce4bgs12rcd13ifvqcag","pricing_plan_id":"cebpf4jnsgd1na2vs0mg"},{"bike_id":"42943cf9-18d6-41ba-ba06-c06b58c21c72","system_id":"levelo_inurba_marseille","lat":43.27922,"lon":5.39598,"is_reserved":false,"is_disabled":false,"rental_uris":{"android":"levelo://app?vid=42943cf9-18d6-41ba-ba06-c06b58c21c72","ios":"levelo://app?vid=42943cf9-18d6-41ba-ba06-c06b58c21c72"},"vehicle_type_id":"4","last_reported":1730300947,"current_range_meters":30400,"station_id":"ce4bhf92rcd13ifvqf40","pricing_plan_id":"cebpf4jnsgd1na2vs0mg"},{"bike_id":"c30c20a3-a003-4e47-981b-d4a01d18b8ed","system_id":"levelo_inurba_marseille","lat":43.24172,"lon":5.364,"is_reserved":false,"is_disabled":false,"rental_uris":{"android":"levelo://app?vid=c30c20a3-a003-4e47-981b-d4a01d18b8ed","ios":"levelo://app?vid=c30c20a3-a003-4e47-981b-d4a01d18b8ed"},"vehicle_type_id":"4","last_reported":1730300947,"current_range_meters":9600,"station_id":"cpo36qri1sfpv3e86is0","pricing_plan_id":"cebpf4jnsgd1na2vs0mg"},{"bike_id":"ca5947f3-f8c7-4501-8fcf-25546b008bb3","system_id":"levelo_inurba_marseille","lat":43.23148,"lon":5.43716,"is_reserved":false,"is_disabled":false,"rental_uris":{"android":"levelo://app?vid=ca5947f3-f8c7-4501-8fcf-25546b008bb3","ios":"levelo://app?vid=ca5947f3-f8c7-4501-8fcf-25546b008bb3"},"vehicle_type_id":"4","last_reported":1730300947,"current_range_meters":12800,"station_id":"ce4bhmp2rcd13ifvqgog","pricing_plan_id":"cebpf4jnsgd1na2vs0mg"},{"bike_id":"56f8e194-0261-4daf-b71b-6942eb899eaa","system_id":"levelo_inurba_marseille","lat":43.25501,"lon":5.3765,"is_reserved":false,"is_disabled":false,"rental_uris":{"android":"levelo://app?vid=56f8e194-0261-4daf-b71b-6942eb899eaa","ios":"levelo://app?vid=56f8e194-0261-4daf-b71b-6942eb899eaa"},"vehicle_type_id":"4","last_reported":1730300947,"current_range_meters":7200,"station_id":"ce4bhh12rcd13ifvqff0","pricing_plan_id":"cebpf4jnsgd1na2vs0mg"},{"bike_id":"c321424c-ba22-4d83-9783-f6949a540f18","system_id":"levelo_inurba_marseille","lat":43.31323,"lon":5.39689,"is_reserved":false,"is_disabled":false,"rental_uris":{"android":"levelo://app?vid=c321424c-ba22-4d83-9783-f6949a540f18","ios":"levelo://app?vid=c321424c-ba22-4d83-9783-f6949a540f18"},"vehicle_type_id":"4","last_reported":1730300947,"current_range_meters":35200,"station_id":"ce4bgvp2rcd13ifvqcu0","pricing_plan_id":"cebpf4jnsgd1na2vs0mg"},{"bike_id":"8f6aacee-c30e-4822-84c0-0fe4966c4790","system_id":"levelo_inurba_marseille","lat":43.30096,"lon":5.39079,"is_reserved":false,"is_disabled":false,"rental_uris":{"android":"levelo://app?vid=8f6aacee-c30e-4822-84c0-0fe4966c4790","ios":"levelo://app?vid=8f6aacee-c30e-4822-84c0-0fe4966c4790"},"vehicle_type_id":"4","last_reported":1730300947,"current_range_meters":38400,"station_id":"ce4bh192rcd13ifvqdb0","pricing_plan_id":"cebpf4jnsgd1na2vs0mg"},{"bike_id":"5999f642-1a77-4126-9967-84ec0e239989","system_id":"levelo_inurba_marseille","lat":43.29006,"lon":5.35617,"is_reserved":false,"is_disabled":false,"rental_uris":{"android":"levelo://app?vid=5999f642-1a77-4126-9967-84ec0e239989","ios":"levelo://app?vid=5999f642-1a77-4126-9967-84ec0e239989"},"vehicle_type_id":"4","last_reported":1730300947,"current_range_meters":20000,"station_id":"ce4bhb92rcd13ifvqen0","pricing_plan_id":"cebpf4jnsgd1na2vs0mg"},{"bike_id":"98aea029-77ef-4487-b15a-09758b68bae2","system_id":"levelo_inurba_marseille","lat":43.22934,"lon":5.35381,"is_reserved":false,"is_disabled":false,"rental_uris":{"android":"levelo://app?vid=98aea029-77ef-4487-b15a-09758b68bae2","ios":"levelo://app?vid=98aea029-77ef-4487-b15a-09758b68bae2"},"vehicle_type_id":"4","last_reported":1730300947,"current_range_meters":2000,"station_id":"cpo3532slgdg3j2ikp40","pricing_plan_id":"cebpf4jnsgd1na2vs0mg"},{"bike_id":"fea23d88-9bbb-4ffa-af08-7b03ca37348f","system_id":"levelo_inurba_marseille","lat":43.23191,"lon":5.39995,"is_reserved":false,"is_disabled":false,"rental_uris":{"android":"levelo://app?vid=fea23d88-9bbb-4ffa-af08-7b03ca37348f","ios":"levelo://app?vid=fea23d88-9bbb-4ffa-af08-7b03ca37348f"},"vehicle_type_id":"4","last_reported":1730300947,"current_range_meters":30000,"station_id":"ce4bhn12rcd13ifvqgqg","pricing_plan_id":"cebpf4jnsgd1na2vs0mg"},{"bike_id":"b456d8c6-093d-4f61-9098-3d25f9d2c605","system_id":"levelo_inurba_marseille","lat":43.26209,"lon":5.37446,"is_reserved":false,"is_disabled":false,"rental_uris":{"android":"levelo://app?vid=b456d8c6-093d-4f61-9098-3d25f9d2c605","ios":"levelo://app?vid=b456d8c6-093d-4f61-9098-3d25f9d2c605"},"vehicle_type_id":"4","last_reported":1730300947,"current_range_meters":13600,"station_id":"ce4bhgp2rcd13ifvqfc0","pricing_plan_id":"cebpf4jnsgd1na2vs0mg"},{"bike_id":"160c3125-d109-49e3-a687-ede78b99dea2","system_id":"levelo_inurba_marseille","lat":43.23195,"lon":5.35543,"is_reserved":false,"is_disabled":false,"rental_uris":{"android":"levelo://app?vid=160c3125-d109-49e3-a687-ede78b99dea2","ios":"levelo://app?vid=160c3125-d109-49e3-a687-ede78b99dea2"},"vehicle_type_id":"4","last_reported":1730300947,"current_range_meters":38800,"station_id":"ce4bhu92rcd13ifvqi70","pricing_plan_id":"cebpf4jnsgd1na2vs0mg"},{"bike_id":"5a36b9f4-7c5b-4a1f-bbd9-b5904b92b096","system_id":"levelo_inurba_marseille","lat":43.23156,"lon":5.43705,"is_reserved":false,"is_disabled":false,"rental_uris":{"android":"levelo://app?vid=5a36b9f4-7c5b-4a1f-bbd9-b5904b92b096","ios":"levelo://app?vid=5a36b9f4-7c5b-4a1f-bbd9-b5904b92b096"},"vehicle_type_id":"4","last_reported":1730300947,"current_range_meters":4400,"station_id":"ce4bhmp2rcd13ifvqgog","pricing_plan_id":"cebpf4jnsgd1na2vs0mg"},{"bike_id":"c1bf4a91-a646-4162-907b-90b1796a78e8","system_id":"levelo_inurba_marseille","lat":43.299,"lon":5.43667,"is_reserved":false,"is_disabled":false,"rental_uris":{"android":"levelo://app?vid=c1bf4a91-a646-4162-907b-90b1796a78e8","ios":"levelo://app?vid=c1bf4a91-a646-4162-907b-90b1796a78e8"},"vehicle_type_id":"4","last_reported":1730300947,"current_range_meters":39200,"station_id":"ce4bhpp2rcd13ifvqhfg","pricing_plan_id":"cebpf4jnsgd1na2vs0mg"},{"bike_id":"d15e5a3a-5812-42ae-8a22-b064b9e316b7","system_id":"levelo_inurba_marseille","lat":43.27994,"lon":5.40014,"is_reserved":false,"is_disabled":false,"rental_uris":{"android":"levelo://app?vid=d15e5a3a-5812-42ae-8a22-b064b9e316b7","ios":"levelo://app?vid=d15e5a3a-5812-42ae-8a22-b064b9e316b7"},"vehicle_type_id":"4","last_reported":1730300947,"current_range_meters":35600,"station_id":"ce4bho92rcd13ifvqh4g","pricing_plan_id":"cebpf4jnsgd1na2vs0mg"},{"bike_id":"c4bd9bed-68df-4816-b486-ad53de12489c","system_id":"levelo_inurba_marseille","lat":43.30474,"lon":5.37914,"is_reserved":false,"is_disabled":false,"rental_uris":{"android":"levelo://app?vid=c4bd9bed-68df-4816-b486-ad53de12489c","ios":"levelo://app?vid=c4bd9bed-68df-4816-b486-ad53de12489c"},"vehicle_type_id":"4","last_reported":1730300947,"current_range_meters":24800,"station_id":"ce4bgup2rcd13ifvqcn0","pricing_plan_id":"cebpf4jnsgd1na2vs0mg"},{"bike_id":"9e9b8ef8-65ff-4916-93b6-599afb2a56cd","system_id":"levelo_inurba_marseille","lat":43.34141,"lon":5.40906,"is_reserved":false,"is_disabled":false,"rental_uris":{"android":"levelo://app?vid=9e9b8ef8-65ff-4916-93b6-599afb2a56cd","ios":"levelo://app?vid=9e9b8ef8-65ff-4916-93b6-599afb2a56cd"},"vehicle_type_id":"4","last_reported":1730300947,"current_range_meters":38000,"station_id":"ce4bhqh2rcd13ifvqhlg","pricing_plan_id":"cebpf4jnsgd1na2vs0mg"},{"bike_id":"d2be7d21-432d-4659-8f0b-7afc307fbe02","system_id":"levelo_inurba_marseille","lat":43.314822,"lon":5.373158,"is_reserved":false,"is_disabled":false,"rental_uris":{"android":"levelo://app?vid=d2be7d21-432d-4659-8f0b-7afc307fbe02","ios":"levelo://app?vid=d2be7d21-432d-4659-8f0b-7afc307fbe02"},"vehicle_type_id":"4","last_reported":1730300947,"current_range_meters":22400,"station_id":"ce4bgt12rcd13ifvqcd0","pricing_plan_id":"cebpf4jnsgd1na2vs0mg"},{"bike_id":"76ae65e7-1304-4c14-b23b-fa35af4a2ade","system_id":"levelo_inurba_marseille","lat":43.28428,"lon":5.34999,"is_reserved":false,"is_disabled":false,"rental_uris":{"android":"levelo://app?vid=76ae65e7-1304-4c14-b23b-fa35af4a2ade","ios":"levelo://app?vid=76ae65e7-1304-4c14-b23b-fa35af4a2ade"},"vehicle_type_id":"4","last_reported":1730300947,"current_range_meters":39200,"station_id":"ce4bhbh2rcd13ifvqepg","pricing_plan_id":"cebpf4jnsgd1na2vs0mg"},{"bike_id":"c4ad5b74-ba35-430e-b9b7-4d78c1d26b00","system_id":"levelo_inurba_marseille","lat":43.29903,"lon":5.38139,"is_reserved":false,"is_disabled":false,"rental_uris":{"android":"levelo://app?vid=c4ad5b74-ba35-430e-b9b7-4d78c1d26b00","ios":"levelo://app?vid=c4ad5b74-ba35-430e-b9b7-4d78c1d26b00"},"vehicle_type_id":"4","last_reported":1730300947,"current_range_meters":32000,"station_id":"ce4bgj12rcd13ifvqbc0","pricing_plan_id":"cebpf4jnsgd1na2vs0mg"},{"bike_id":"a6da74a7-5175-43c8-875b-f45411aaaf85","system_id":"levelo_inurba_marseille","lat":43.29002,"lon":5.35616,"is_reserved":false,"is_disabled":false,"rental_uris":{"android":"levelo://app?vid=a6da74a7-5175-43c8-875b-f45411aaaf85","ios":"levelo://app?vid=a6da74a7-5175-43c8-875b-f45411aaaf85"},"vehicle_type_id":"4","last_reported":1730300947,"current_range_meters":19600,"station_id":"ce4bhb92rcd13ifvqen0","pricing_plan_id":"cebpf4jnsgd1na2vs0mg"},{"bike_id":"2987005b-52e6-4b87-a380-46389b412b1b","system_id":"levelo_inurba_marseille","lat":43.28157,"lon":5.42656,"is_reserved":false,"is_disabled":false,"rental_uris":{"android":"levelo://app?vid=2987005b-52e6-4b87-a380-46389b412b1b","ios":"levelo://app?vid=2987005b-52e6-4b87-a380-46389b412b1b"},"vehicle_type_id":"4","last_reported":1730300947,"current_range_meters":38800,"station_id":"ce4bhnh2rcd13ifvqgug","pricing_plan_id":"cebpf4jnsgd1na2vs0mg"},{"bike_id":"dc6b02f2-a2bd-4e81-a971-ae790e0ec7de","system_id":"levelo_inurba_marseille","lat":43.26063,"lon":5.39397,"is_reserved":false,"is_disabled":false,"rental_uris":{"android":"levelo://app?vid=dc6b02f2-a2bd-4e81-a971-ae790e0ec7de","ios":"levelo://app?vid=dc6b02f2-a2bd-4e81-a971-ae790e0ec7de"},"vehicle_type_id":"4","last_reported":1730300947,"current_range_meters":31200,"station_id":"ce4bhh92rcd13ifvqfj0","pricing_plan_id":"cebpf4jnsgd1na2vs0mg"},{"bike_id":"33198bf4-439a-48ea-8b7e-d41bf8fb1fc9","system_id":"levelo_inurba_marseille","lat":43.3266,"lon":5.40995,"is_reserved":false,"is_disabled":false,"rental_uris":{"android":"levelo://app?vid=33198bf4-439a-48ea-8b7e-d41bf8fb1fc9","ios":"levelo://app?vid=33198bf4-439a-48ea-8b7e-d41bf8fb1fc9"},"vehicle_type_id":"4","last_reported":1730300947,"current_range_meters":36800,"station_id":"ce4bhpp2rcd13ifvqhgg","pricing_plan_id":"cebpf4jnsgd1na2vs0mg"},{"bike_id":"83346ad2-1f5f-479d-843e-899ab63acbfd","system_id":"levelo_inurba_marseille","lat":43.2722,"lon":5.3909,"is_reserved":false,"is_disabled":false,"rental_uris":{"android":"levelo://app?vid=83346ad2-1f5f-479d-843e-899ab63acbfd","ios":"levelo://app?vid=83346ad2-1f5f-479d-843e-899ab63acbfd"},"vehicle_type_id":"4","last_reported":1730300947,"current_range_meters":11600,"station_id":"","pricing_plan_id":"cebpf4jnsgd1na2vs0mg"},{"bike_id":"712dbc53-5904-4b2b-b4b5-79a8fe69f07c","system_id":"levelo_inurba_marseille","lat":43.289773,"lon":5.37847,"is_reserved":false,"is_disabled":false,"rental_uris":{"android":"levelo://app?vid=712dbc53-5904-4b2b-b4b5-79a8fe69f07c","ios":"levelo://app?vid=712dbc53-5904-4b2b-b4b5-79a8fe69f07c"},"vehicle_type_id":"4","last_reported":1730300947,"current_range_meters":28000,"station_id":"ce4bh9p2rcd13ifvqed0","pricing_plan_id":"cebpf4jnsgd1na2vs0mg"},{"bike_id":"f4f0c396-6a67-4f18-9402-88b4f8a3a765","system_id":"levelo_inurba_marseille","lat":43.2897,"lon":5.37849,"is_reserved":false,"is_disabled":false,"rental_uris":{"android":"levelo://app?vid=f4f0c396-6a67-4f18-9402-88b4f8a3a765","ios":"levelo://app?vid=f4f0c396-6a67-4f18-9402-88b4f8a3a765"},"vehicle_type_id":"4","last_reported":1730300947,"current_range_meters":38800,"station_id":"ce4bh9p2rcd13ifvqed0","pricing_plan_id":"cebpf4jnsgd1na2vs0mg"},{"bike_id":"f7ae27ca-c542-48a2-b24c-776077b93b6a","system_id":"levelo_inurba_marseille","lat":43.27174,"lon":5.40992,"is_reserved":false,"is_disabled":false,"rental_uris":{"android":"levelo://app?vid=f7ae27ca-c542-48a2-b24c-776077b93b6a","ios":"levelo://app?vid=f7ae27ca-c542-48a2-b24c-776077b93b6a"},"vehicle_type_id":"4","last_reported":1730300947,"current_range_meters":4400,"station_id":"ce4bhl12rcd13ifvqgf0","pricing_plan_id":"cebpf4jnsgd1na2vs0mg"},{"bike_id":"2db32ea0-a5b9-4890-8f35-186062f31cb4","system_id":"levelo_inurba_marseille","lat":43.30536,"lon":5.36709,"is_reserved":false,"is_disabled":false,"rental_uris":{"android":"levelo://app?vid=2db32ea0-a5b9-4890-8f35-186062f31cb4","ios":"levelo://app?vid=2db32ea0-a5b9-4890-8f35-186062f31cb4"},"vehicle_type_id":"4","last_reported":1730300947,"current_range_meters":35600,"station_id":"ce4bgrp2rcd13ifvqc9g","pricing_plan_id":"cebpf4jnsgd1na2vs0mg"},{"bike_id":"bfb1a2f2-5dd7-404a-90bb-be56759f829f","system_id":"levelo_inurba_marseille","lat":43.28008,"lon":5.41673,"is_reserved":false,"is_disabled":false,"rental_uris":{"android":"levelo://app?vid=bfb1a2f2-5dd7-404a-90bb-be56759f829f","ios":"levelo://app?vid=bfb1a2f2-5dd7-404a-90bb-be56759f829f"},"vehicle_type_id":"4","last_reported":1730300947,"current_range_meters":36400,"station_id":"ce4bho12rcd13ifvqh1g","pricing_plan_id":"cebpf4jnsgd1na2vs0mg"},{"bike_id":"f4dcfc73-83cf-4c70-8fed-cacf69925473","system_id":"levelo_inurba_marseille","lat":43.25826,"lon":5.39441,"is_reserved":false,"is_disabled":false,"rental_uris":{"android":"levelo://app?vid=f4dcfc73-83cf-4c70-8fed-cacf69925473","ios":"levelo://app?vid=f4dcfc73-83cf-4c70-8fed-cacf69925473"},"vehicle_type_id":"4","last_reported":1730300947,"current_range_meters":35600,"station_id":"ce4bhip2rcd13ifvqft0","pricing_plan_id":"cebpf4jnsgd1na2vs0mg"},{"bike_id":"9248cf01-eb15-4e68-bcac-901a03c5bf70","system_id":"levelo_inurba_marseille","lat":43.31231,"lon":5.36878,"is_reserved":false,"is_disabled":false,"rental_uris":{"android":"levelo://app?vid=9248cf01-eb15-4e68-bcac-901a03c5bf70","ios":"levelo://app?vid=9248cf01-eb15-4e68-bcac-901a03c5bf70"},"vehicle_type_id":"4","last_reported":1730300947,"current_range_meters":39200,"station_id":"ce4bgl92rcd13ifvqbq0","pricing_plan_id":"cebpf4jnsgd1na2vs0mg"},{"bike_id":"a0bf4f69-f26e-467e-94c7-dd1bb6e073f2","system_id":"levelo_inurba_marseille","lat":43.29597,"lon":5.38102,"is_reserved":false,"is_disabled":false,"rental_uris":{"android":"levelo://app?vid=a0bf4f69-f26e-467e-94c7-dd1bb6e073f2","ios":"levelo://app?vid=a0bf4f69-f26e-467e-94c7-dd1bb6e073f2"},"vehicle_type_id":"4","last_reported":1730300947,"current_range_meters":30000,"station_id":"ce4bgl12rcd13ifvqbo0","pricing_plan_id":"cebpf4jnsgd1na2vs0mg"},{"bike_id":"f645c90b-4ed6-4548-8c44-d6aa748cbf89","system_id":"levelo_inurba_marseille","lat":43.28108,"lon":5.37838,"is_reserved":false,"is_disabled":false,"rental_uris":{"android":"levelo://app?vid=f645c90b-4ed6-4548-8c44-d6aa748cbf89","ios":"levelo://app?vid=f645c90b-4ed6-4548-8c44-d6aa748cbf89"},"vehicle_type_id":"4","last_reported":1730300947,"current_range_meters":16000,"station_id":"ce4bha12rcd13ifvqee0","pricing_plan_id":"cebpf4jnsgd1na2vs0mg"},{"bike_id":"1d645a69-e739-4114-b7b1-54925d746d91","system_id":"levelo_inurba_marseille","lat":43.28002,"lon":5.4002,"is_reserved":false,"is_disabled":false,"rental_uris":{"android":"levelo://app?vid=1d645a69-e739-4114-b7b1-54925d746d91","ios":"levelo://app?vid=1d645a69-e739-4114-b7b1-54925d746d91"},"vehicle_type_id":"4","last_reported":1730300947,"current_range_meters":27600,"station_id":"ce4bho92rcd13ifvqh4g","pricing_plan_id":"cebpf4jnsgd1na2vs0mg"},{"bike_id":"ab1ede32-ae31-43de-bb36-9f5f3c0f8f88","system_id":"levelo_inurba_marseille","lat":43.26574,"lon":5.39015,"is_reserved":false,"is_disabled":false,"rental_uris":{"android":"levelo://app?vid=ab1ede32-ae31-43de-bb36-9f5f3c0f8f88","ios":"levelo://app?vid=ab1ede32-ae31-43de-bb36-9f5f3c0f8f88"},"vehicle_type_id":"4","last_reported":1730300947,"current_range_meters":33200,"station_id":"ce4bhe12rcd13ifvqf30","pricing_plan_id":"cebpf4jnsgd1na2vs0mg"},{"bike_id":"9a79c046-ffbd-430c-9b08-0a56da8292f5","system_id":"levelo_inurba_marseille","lat":43.23191,"lon":5.39988,"is_reserved":false,"is_disabled":false,"rental_uris":{"android":"levelo://app?vid=9a79c046-ffbd-430c-9b08-0a56da8292f5","ios":"levelo://app?vid=9a79c046-ffbd-430c-9b08-0a56da8292f5"},"vehicle_type_id":"4","last_reported":1730300947,"current_range_meters":39200,"station_id":"ce4bhn12rcd13ifvqgqg","pricing_plan_id":"cebpf4jnsgd1na2vs0mg"},{"bike_id":"00570a9a-70dc-4fd9-a21d-b33665529146","system_id":"levelo_inurba_marseille","lat":43.23968,"lon":5.36634,"is_reserved":false,"is_disabled":false,"rental_uris":{"android":"levelo://app?vid=00570a9a-70dc-4fd9-a21d-b33665529146","ios":"levelo://app?vid=00570a9a-70dc-4fd9-a21d-b33665529146"},"vehicle_type_id":"4","last_reported":1730300947,"current_range_meters":39200,"station_id":"ce4bhi12rcd13ifvqfp0","pricing_plan_id":"cebpf4jnsgd1na2vs0mg"},{"bike_id":"c3fe6e70-22ee-429b-ad66-4e8742da06ba","system_id":"levelo_inurba_marseille","lat":43.29264,"lon":5.38435,"is_reserved":false,"is_disabled":false,"rental_uris":{"android":"levelo://app?vid=c3fe6e70-22ee-429b-ad66-4e8742da06ba","ios":"levelo://app?vid=c3fe6e70-22ee-429b-ad66-4e8742da06ba"},"vehicle_type_id":"4","last_reported":1730300947,"current_range_meters":13600,"station_id":"ce4bh692rcd13ifvqea0","pricing_plan_id":"cebpf4jnsgd1na2vs0mg"},{"bike_id":"9592eb1a-4a46-4535-b3fe-0af141dace43","system_id":"levelo_inurba_marseille","lat":43.239679,"lon":5.36625,"is_reserved":false,"is_disabled":false,"rental_uris":{"android":"levelo://app?vid=9592eb1a-4a46-4535-b3fe-0af141dace43","ios":"levelo://app?vid=9592eb1a-4a46-4535-b3fe-0af141dace43"},"vehicle_type_id":"4","last_reported":1730300947,"current_range_meters":31200,"station_id":"ce4bhi12rcd13ifvqfp0","pricing_plan_id":"cebpf4jnsgd1na2vs0mg"},{"bike_id":"b417d7d7-0627-4410-8749-b96ae8e8649c","system_id":"levelo_inurba_marseille","lat":43.28159,"lon":5.4264,"is_reserved":false,"is_disabled":false,"rental_uris":{"android":"levelo://app?vid=b417d7d7-0627-4410-8749-b96ae8e8649c","ios":"levelo://app?vid=b417d7d7-0627-4410-8749-b96ae8e8649c"},"vehicle_type_id":"4","last_reported":1730300947,"current_range_meters":13600,"station_id":"ce4bhnh2rcd13ifvqgug","pricing_plan_id":"cebpf4jnsgd1na2vs0mg"},{"bike_id":"f2062b53-1614-4131-af31-215714215c83","system_id":"levelo_inurba_marseille","lat":43.29778,"lon":5.37095,"is_reserved":false,"is_disabled":false,"rental_uris":{"android":"levelo://app?vid=f2062b53-1614-4131-af31-215714215c83","ios":"levelo://app?vid=f2062b53-1614-4131-af31-215714215c83"},"vehicle_type_id":"4","last_reported":1730300947,"current_range_meters":38800,"station_id":"ce4bgop2rcd13ifvqc1g","pricing_plan_id":"cebpf4jnsgd1na2vs0mg"},{"bike_id":"f2231ba9-ac52-4692-9b58-e2be2308b784","system_id":"levelo_inurba_marseille","lat":43.290427,"lon":5.399562,"is_reserved":false,"is_disabled":false,"rental_uris":{"android":"levelo://app?vid=f2231ba9-ac52-4692-9b58-e2be2308b784","ios":"levelo://app?vid=f2231ba9-ac52-4692-9b58-e2be2308b784"},"vehicle_type_id":"4","last_reported":1730300947,"current_range_meters":32800,"station_id":"ce4bh392rcd13ifvqdm0","pricing_plan_id":"cebpf4jnsgd1na2vs0mg"},{"bike_id":"5b3308d1-11b3-40cf-802c-22e8d37b959a","system_id":"levelo_inurba_marseille","lat":43.2293,"lon":5.35382,"is_reserved":false,"is_disabled":false,"rental_uris":{"android":"levelo://app?vid=5b3308d1-11b3-40cf-802c-22e8d37b959a","ios":"levelo://app?vid=5b3308d1-11b3-40cf-802c-22e8d37b959a"},"vehicle_type_id":"4","last_reported":1730300947,"current_range_meters":24800,"station_id":"cpo3532slgdg3j2ikp40","pricing_plan_id":"cebpf4jnsgd1na2vs0mg"},{"bike_id":"adba48b8-a465-47ad-8e0b-be86dea8ec09","system_id":"levelo_inurba_marseille","lat":43.28848,"lon":5.35852,"is_reserved":false,"is_disabled":false,"rental_uris":{"android":"levelo://app?vid=adba48b8-a465-47ad-8e0b-be86dea8ec09","ios":"levelo://app?vid=adba48b8-a465-47ad-8e0b-be86dea8ec09"},"vehicle_type_id":"4","last_reported":1730300947,"current_range_meters":12800,"station_id":"ce4bhb12rcd13ifvqem0","pricing_plan_id":"cebpf4jnsgd1na2vs0mg"},{"bike_id":"00230415-7e52-4c44-be9f-c7b241250dcc","system_id":"levelo_inurba_marseille","lat":43.26562,"lon":5.39013,"is_reserved":false,"is_disabled":false,"rental_uris":{"android":"levelo://app?vid=00230415-7e52-4c44-be9f-c7b241250dcc","ios":"levelo://app?vid=00230415-7e52-4c44-be9f-c7b241250dcc"},"vehicle_type_id":"4","last_reported":1730300947,"current_range_meters":38000,"station_id":"ce4bhe12rcd13ifvqf30","pricing_plan_id":"cebpf4jnsgd1na2vs0mg"},{"bike_id":"f0462bbc-e960-41e2-9b23-3bdcb530617d","system_id":"levelo_inurba_marseille","lat":43.32287,"lon":5.38276,"is_reserved":false,"is_disabled":false,"rental_uris":{"android":"levelo://app?vid=f0462bbc-e960-41e2-9b23-3bdcb530617d","ios":"levelo://app?vid=f0462bbc-e960-41e2-9b23-3bdcb530617d"},"vehicle_type_id":"4","last_reported":1730300947,"current_range_meters":22400,"station_id":"ce4bhr12rcd13ifvqhqg","pricing_plan_id":"cebpf4jnsgd1na2vs0mg"},{"bike_id":"90bd5c16-84c8-4658-849d-f27924ac3dca","system_id":"levelo_inurba_marseille","lat":43.29039,"lon":5.39965,"is_reserved":false,"is_disabled":false,"rental_uris":{"android":"levelo://app?vid=90bd5c16-84c8-4658-849d-f27924ac3dca","ios":"levelo://app?vid=90bd5c16-84c8-4658-849d-f27924ac3dca"},"vehicle_type_id":"4","last_reported":1730300947,"current_range_meters":30000,"station_id":"ce4bh392rcd13ifvqdm0","pricing_plan_id":"cebpf4jnsgd1na2vs0mg"},{"bike_id":"1f1bc2ae-4bff-4f1e-b758-b3683988c9b7","system_id":"levelo_inurba_marseille","lat":43.27423,"lon":5.39414,"is_reserved":false,"is_disabled":false,"rental_uris":{"android":"levelo://app?vid=1f1bc2ae-4bff-4f1e-b758-b3683988c9b7","ios":"levelo://app?vid=1f1bc2ae-4bff-4f1e-b758-b3683988c9b7"},"vehicle_type_id":"4","last_reported":1730300947,"current_range_meters":30400,"station_id":"ce4bhdp2rcd13ifvqf20","pricing_plan_id":"cebpf4jnsgd1na2vs0mg"},{"bike_id":"520a9551-b03c-4322-a45b-0362c62d111e","system_id":"levelo_inurba_marseille","lat":43.27377,"lon":5.36255,"is_reserved":false,"is_disabled":false,"rental_uris":{"android":"levelo://app?vid=520a9551-b03c-4322-a45b-0362c62d111e","ios":"levelo://app?vid=520a9551-b03c-4322-a45b-0362c62d111e"},"vehicle_type_id":"4","last_reported":1730300947,"current_range_meters":2800,"station_id":"ce4bhbh2rcd13ifvqeo0","pricing_plan_id":"cebpf4jnsgd1na2vs0mg"},{"bike_id":"8cdf364b-bace-48cf-9f26-c4aba9ec8c52","system_id":"levelo_inurba_marseille","lat":43.2827,"lon":5.35077,"is_reserved":false,"is_disabled":false,"rental_uris":{"android":"levelo://app?vid=8cdf364b-bace-48cf-9f26-c4aba9ec8c52","ios":"levelo://app?vid=8cdf364b-bace-48cf-9f26-c4aba9ec8c52"},"vehicle_type_id":"4","last_reported":1730300947,"current_range_meters":39200,"station_id":"ce4bhbp2rcd13ifvqerg","pricing_plan_id":"cebpf4jnsgd1na2vs0mg"},{"bike_id":"17032fa9-50e3-4800-8952-97b50921f884","system_id":"levelo_inurba_marseille","lat":43.26941,"lon":5.40247,"is_reserved":false,"is_disabled":false,"rental_uris":{"android":"levelo://app?vid=17032fa9-50e3-4800-8952-97b50921f884","ios":"levelo://app?vid=17032fa9-50e3-4800-8952-97b50921f884"},"vehicle_type_id":"4","last_reported":1730300947,"current_range_meters":8000,"station_id":"ce4bhm12rcd13ifvqgkg","pricing_plan_id":"cebpf4jnsgd1na2vs0mg"},{"bike_id":"728bb8dd-d0e9-45fb-ad3d-c2a47be66219","system_id":"levelo_inurba_marseille","lat":43.26945,"lon":5.40248,"is_reserved":false,"is_disabled":false,"rental_uris":{"android":"levelo://app?vid=728bb8dd-d0e9-45fb-ad3d-c2a47be66219","ios":"levelo://app?vid=728bb8dd-d0e9-45fb-ad3d-c2a47be66219"},"vehicle_type_id":"4","last_reported":1730300947,"current_range_meters":30400,"station_id":"cjm6bp8fraef2m0cb0m0","pricing_plan_id":"cebpf4jnsgd1na2vs0mg"},{"bike_id":"01a6eef5-4dff-4852-b424-762f44193be5","system_id":"levelo_inurba_marseille","lat":43.31709,"lon":5.37755,"is_reserved":false,"is_disabled":false,"rental_uris":{"android":"levelo://app?vid=01a6eef5-4dff-4852-b424-762f44193be5","ios":"levelo://app?vid=01a6eef5-4dff-4852-b424-762f44193be5"},"vehicle_type_id":"4","last_reported":1730300947,"current_range_meters":36000,"station_id":"ce4bgth2rcd13ifvqch0","pricing_plan_id":"cebpf4jnsgd1na2vs0mg"},{"bike_id":"664c518e-0067-4368-bdb0-10815d33dcff","system_id":"levelo_inurba_marseille","lat":43.28676,"lon":5.38669,"is_reserved":false,"is_disabled":false,"rental_uris":{"android":"levelo://app?vid=664c518e-0067-4368-bdb0-10815d33dcff","ios":"levelo://app?vid=664c518e-0067-4368-bdb0-10815d33dcff"},"vehicle_type_id":"4","last_reported":1730300947,"current_range_meters":6000,"station_id":"ce4bh492rcd13ifvqdug","pricing_plan_id":"cebpf4jnsgd1na2vs0mg"},{"bike_id":"1cedb0a0-058a-4db0-8c0c-51773c9d8a04","system_id":"levelo_inurba_marseille","lat":43.290086,"lon":5.356232,"is_reserved":false,"is_disabled":false,"rental_uris":{"android":"levelo://app?vid=1cedb0a0-058a-4db0-8c0c-51773c9d8a04","ios":"levelo://app?vid=1cedb0a0-058a-4db0-8c0c-51773c9d8a04"},"vehicle_type_id":"4","last_reported":1730300947,"current_range_meters":36800,"station_id":"ce4bhb92rcd13ifvqen0","pricing_plan_id":"cebpf4jnsgd1na2vs0mg"},{"bike_id":"ddf9a1a3-78ff-4757-922b-299e425f3597","system_id":"levelo_inurba_marseille","lat":43.28848,"lon":5.35857,"is_reserved":false,"is_disabled":false,"rental_uris":{"android":"levelo://app?vid=ddf9a1a3-78ff-4757-922b-299e425f3597","ios":"levelo://app?vid=ddf9a1a3-78ff-4757-922b-299e425f3597"},"vehicle_type_id":"4","last_reported":1730300947,"current_range_meters":35200,"station_id":"ce4bhb12rcd13ifvqem0","pricing_plan_id":"cebpf4jnsgd1na2vs0mg"},{"bike_id":"db17bdd0-a753-421c-a97f-e8aa8469b079","system_id":"levelo_inurba_marseille","lat":43.28737,"lon":5.361,"is_reserved":false,"is_disabled":false,"rental_uris":{"android":"levelo://app?vid=db17bdd0-a753-421c-a97f-e8aa8469b079","ios":"levelo://app?vid=db17bdd0-a753-421c-a97f-e8aa8469b079"},"vehicle_type_id":"4","last_reported":1730300947,"current_range_meters":39200,"station_id":"cki0cbj6b192h4jlfktg","pricing_plan_id":"cebpf4jnsgd1na2vs0mg"},{"bike_id":"4ad1a6a0-d939-49b5-b869-57801235a14f","system_id":"levelo_inurba_marseille","lat":43.23193,"lon":5.35556,"is_reserved":false,"is_disabled":false,"rental_uris":{"android":"levelo://app?vid=4ad1a6a0-d939-49b5-b869-57801235a14f","ios":"levelo://app?vid=4ad1a6a0-d939-49b5-b869-57801235a14f"},"vehicle_type_id":"4","last_reported":1730300947,"current_range_meters":38000,"station_id":"ce4bhu92rcd13ifvqi70","pricing_plan_id":"cebpf4jnsgd1na2vs0mg"},{"bike_id":"b55c79c6-cb86-4a49-b99f-dae8963d0dc6","system_id":"levelo_inurba_marseille","lat":43.28003,"lon":5.41677,"is_reserved":false,"is_disabled":false,"rental_uris":{"android":"levelo://app?vid=b55c79c6-cb86-4a49-b99f-dae8963d0dc6","ios":"levelo://app?vid=b55c79c6-cb86-4a49-b99f-dae8963d0dc6"},"vehicle_type_id":"4","last_reported":1730300947,"current_range_meters":36800,"station_id":"ce4bho12rcd13ifvqh1g","pricing_plan_id":"cebpf4jnsgd1na2vs0mg"},{"bike_id":"4d0fc6c7-49c2-4a91-9b86-8d55c78979b0","system_id":"levelo_inurba_marseille","lat":43.24178,"lon":5.3973,"is_reserved":false,"is_disabled":false,"rental_uris":{"android":"levelo://app?vid=4d0fc6c7-49c2-4a91-9b86-8d55c78979b0","ios":"levelo://app?vid=4d0fc6c7-49c2-4a91-9b86-8d55c78979b0"},"vehicle_type_id":"4","last_reported":1730300947,"current_range_meters":21600,"station_id":"ce4bhn12rcd13ifvqgpg","pricing_plan_id":"cebpf4jnsgd1na2vs0mg"},