{"last_updated":1742123309,"ttl":60,"version":"2.2","data":{"bikes":[{"bike_id":"f5d879b5-4e8a-4e91-bc2b-907eff703e2f","system_id":"levelo_inurba_marseille","lat":43.24645,"lon":5.38101,"is_reserved":false,"is_disabled":false,"rental_uris":{"android":"levelo://app?vid=f5d879b5-4e8a-4e91-bc2b-907eff703e2f","ios":"levelo://app?vid=f5d879b5-4e8a-4e91-bc2b-907eff703e2f"},"vehicle_type_id":"4","last_reported":1742123309,"current_range_meters":2800,"station_id":"","pricing_plan_id":"cebpf4jnsgd1na2vs0mg"},{"bike_id":"6b43488e-49e7-4159-b7e7-54e154d8769f","system_id":"levelo_inurba_marseille","lat":43.230574,"lon":5.354961,"is_reserved":false,"is_disabled":false,"rental_uris":{"android":"levelo://app?vid=6b43488e-49e7-4159-b7e7-54e154d8769f","ios":"levelo://app?vid=6b43488e-49e7-4159-b7e7-54e154d8769f"},"vehicle_type_id":"4","last_reported":1742123309,"current_range_meters":2800,"station_id":"cpo3342slgdg3j2ifvpg","pricing_plan_id":"cebpf4jnsgd1na2vs0mg"},{"bike_id":"22da9f00-0d4e-4ee8-8d96-9da5d87172d4","system_id":"levelo_inurba_marseille","lat":43.31325,"lon":5.39689,"is_reserved":false,"is_disabled":false,"rental_uris":{"android":"levelo://app?vid=22da9f00-0d4e-4ee8-8d96-9da5d87172d4","ios":"levelo://app?vid=22da9f00-0d4e-4ee8-8d96-9da5d87172d4"},"vehicle_type_id":"4","last_reported":1742123309,"current_range_meters":2800,"station_id":"ce4bgvp2rcd13ifvqcu0","pricing_plan_id":"cebpf4jnsgd1na2vs0mg"},{"bike_id":"6c001d2e-b208-4ff5-a256-643169f0701b","system_id":"levelo_inurba_marseille","lat":43.23067,"lon":5.35492,"is_reserved":false,"is_disabled":false,"rental_uris":{"android":"levelo://app?vid=6c001d2e-b208-4ff5-a256-643169f0701b","ios":"levelo://app?vid=6c001d2e-b208-4ff5-a256-643169f0701b"},"vehicle_type_id":"4","last_reported":1742123309,"current_range_meters":2800,"station_id":"cpo3342slgdg3j2ifvpg","pricing_plan_id":"cebpf4jnsgd1na2vs0mg"},{"bike_id":"9be93feb-f273-4408-bca3-1270c31affc0","system_id":"levelo_inurba_marseille","lat":43.29255,"lon":5.40898,"is_reserved":false,"is_disabled":false,"rental_uris":{"android":"levelo://app?vid=9be93feb-f273-4408-bca3-1270c31affc0","ios":"levelo://app?vid=9be93feb-f273-4408-bca3-1270c31affc0"},"vehicle_type_id":"4","last_reported":1742123309,"current_range_meters":2800,"station_id":"ce4bh192rcd13ifvqdc0","pricing_plan_id":"cebpf4jnsgd1na2vs0mg"},{"bike_id":"8e9fcaae-31b6-4c25-b85c-1e565f840aab","system_id":"levelo_inurba_marseille","lat":43.2481,"lon":5.3744,"is_reserved":false,"is_disabled":false,"rental_uris":{"android":"levelo://app?vid=8e9fcaae-31b6-4c25-b85c-1e565f840aab","ios":"levelo://app?vid=8e9fcaae-31b6-4c25-b85c-1e565f840aab"},"vehicle_type_id":"4","last_reported":1742123309,"current_range_meters":3200,"station_id":"ce4bhgh2rcd13ifvqfb0","pricing_plan_id":"cebpf4jnsgd1na2vs0mg"},{"bike_id":"3dc76728-2f76-4ee0-a18b-c4283417373a","system_id":"levelo_inurba_marseille","lat":43.29511,"lon":5.39406,"is_reserved":false,"is_disabled":false,"rental_uris":{"android":"levelo://app?vid=3dc76728-2f76-4ee0-a18b-c4283417373a","ios":"levelo://app?vid=3dc76728-2f76-4ee0-a18b-c4283417373a"},"vehicle_type_id":"4","last_reported":1742123309,"current_range_meters":4000,"station_id":"ce4bh292rcd13ifvqdf0","pricing_plan_id":"cebpf4jnsgd1na2vs0mg"},{"bike_id":"9be9f41c-3d3f-40be-8083-849eb43da452","system_id":"levelo_inurba_marseille","lat":43.295791,"lon":5.37525,"is_reserved":false,"is_disabled":false,"rental_uris":{"android":"levelo://app?vid=9be9f41c-3d3f-40be-8083-849eb43da452","ios":"levelo://app?vid=9be9f41c-3d3f-40be-8083-849eb43da452"},"vehicle_type_id":"4","last_reported":1742123309,"current_range_meters":2800,"station_id":"ce4bgpp2rcd13ifvqc3g","pricing_plan_id":"cebpf4jnsgd1na2vs0mg"},{"bike_id":"6a73dd39-cdec-4ba8-b6eb-fe4bb793d20d","system_id":"levelo_inurba_marseille","lat":43.23189,"lon":5.3555,"is_reserved":false,"is_disabled":false,"rental_uris":{"android":"levelo://app?vid=6a73dd39-cdec-4ba8-b6eb-fe4bb793d20d","ios":"levelo://app?vid=6a73dd39-cdec-4ba8-b6eb-fe4bb793d20d"},"vehicle_type_id":"4","last_reported":1742123309,"current_range_meters":3600,"station_id":"ce4bhu92rcd13ifvqi70","pricing_plan_id":"cebpf4jnsgd1na2vs0mg"},{"bike_id":"c2e5486b-f5f5-45af-973c-42198c00164d","system_id":"levelo_inurba_marseille","lat":43.32478,"lon":5.36575,"is_reserved":false,"is_disabled":false,"rental_uris":{"android":"levelo://app?vid=c2e5486b-f5f5-45af-973c-42198c00164d","ios":"levelo://app?vid=c2e5486b-f5f5-45af-973c-42198c00164d"},"vehicle_type_id":"4","last_reported":1742123309,"current_range_meters":3600,"station_id":"ce4bhs12rcd13ifvqhvg","pricing_plan_id":"cebpf4jnsgd1na2vs0mg"},{"bike_id":"9d32fea8-8104-41c0-9b0a-a23ea4c0455d","system_id":"levelo_inurba_marseille","lat":43.25011,"lon":5.38932,"is_reserved":false,"is_disabled":false,"rental_uris":{"android":"levelo://app?vid=9d32fea8-8104-41c0-9b0a-a23ea4c0455d","ios":"levelo://app?vid=9d32fea8-8104-41c0-9b0a-a23ea4c0455d"},"vehicle_type_id":"4","last_reported":1742123309,"current_range_meters":3600,"station_id":"ce4bhgp2rcd13ifvqfd0","pricing_plan_id":"cebpf4jnsgd1na2vs0mg"},{"bike_id":"db3f9926-7bf9-4a8d-8599-b8c6d651fd2b","system_id":"levelo_inurba_marseille","lat":43.2796,"lon":5.38745,"is_reserved":false,"is_disabled":false,"rental_uris":{"android":"levelo://app?vid=db3f9926-7bf9-4a8d-8599-b8c6d651fd2b","ios":"levelo://app?vid=db3f9926-7bf9-4a8d-8599-b8c6d651fd2b"},"vehicle_type_id":"4","last_reported":1742123309,"current_range_meters":3600,"station_id":"ce4bhg12rcd13ifvqf80","pricing_plan_id":"cebpf4jnsgd1na2vs0mg"},{"bike_id":"355fb77e-22da-4ed4-bab8-f395a5c5d15a","system_id":"levelo_inurba_marseille","lat":43.24643,"lon":5.3817,"is_reserved":false,"is_disabled":false,"rental_uris":{"android":"levelo://app?vid=355fb77e-22da-4ed4-bab8-f395a5c5d15a","ios":"levelo://app?vid=355fb77e-22da-4ed4-bab8-f395a5c5d15a"},"vehicle_type_id":"4","last_reported":1742123309,"current_range_meters":3600,"station_id":"ce4bhih2rcd13ifvqfr0","pricing_plan_id":"cebpf4jnsgd1na2vs0mg"},{"bike_id":"bd7fb638-a561-41df-90ca-f32685780427","system_id":"levelo_inurba_marseille","lat":43.22924,"lon":5.35375,"is_reserved":false,"is_disabled":false,"rental_uris":{"android":"levelo://app?vid=bd7fb638-a561-41df-90ca-f32685780427","ios":"levelo://app?vid=bd7fb638-a561-41df-90ca-f32685780427"},"vehicle_type_id":"4","last_reported":1742123309,"current_range_meters":3600,"station_id":"cpo3532slgdg3j2ikp40","pricing_plan_id":"cebpf4jnsgd1na2vs0mg"},{"bike_id":"7931fd06-9e0b-4937-959b-01e56f842227","system_id":"levelo_inurba_marseille","lat":43.24408,"lon":5.37045,"is_reserved":false,"is_disabled":false,"rental_uris":{"android":"levelo://app?vid=7931fd06-9e0b-4937-959b-01e56f842227","ios":"levelo://app?vid=7931fd06-9e0b-4937-959b-01e56f842227"},"vehicle_type_id":"4","last_reported":1742123309,"current_range_meters":4000,"station_id":"ce4bhhh2rcd13ifvqfk0","pricing_plan_id":"cebpf4jnsgd1na2vs0mg"},{"bike_id":"48f968e9-2670-450c-9a50-b12a7ac1907f","system_id":"levelo_inurba_marseille","lat":43.257178,"lon":5.411126,"is_reserved":false,"is_disabled":false,"rental_uris":{"android":"levelo://app?vid=48f968e9-2670-450c-9a50-b12a7ac1907f","ios":"levelo://app?vid=48f968e9-2670-450c-9a50-b12a7ac1907f"},"vehicle_type_id":"4","last_reported":1742123309,"current_range_meters":4000,"station_id":"ce4bhkp2rcd13ifvqgd0","pricing_plan_id":"cebpf4jnsgd1na2vs0mg"},{"bike_id":"ba8c3b95-0372-4e22-9f2e-0ee86110451c","system_id":"levelo_inurba_marseille","lat":43.31331,"lon":5.39709,"is_reserved":false,"is_disabled":false,"rental_uris":{"android":"levelo://app?vid=ba8c3b95-0372-4e22-9f2e-0ee86110451c","ios":"levelo://app?vid=ba8c3b95-0372-4e22-9f2e-0ee86110451c"},"vehicle_type_id":"4","last_reported":1742123309,"current_range_meters":4000,"station_id":"ce4bgvp2rcd13ifvqcu0","pricing_plan_id":"cebpf4jnsgd1na2vs0mg"},{"bike_id":"b93ad256-b8f0-4843-8279-10762a5669a1","system_id":"levelo_inurba_marseille","lat":43.27971,"lon":5.38745,"is_reserved":false,"is_disabled":false,"rental_uris":{"android":"levelo://app?vid=b93ad256-b8f0-4843-8279-10762a5669a1","ios":"levelo://app?vid=b93ad256-b8f0-4843-8279-10762a5669a1"},"vehicle_type_id":"4","last_reported":1742123309,"current_range_meters":4000,"station_id":"ce4bhg12rcd13ifvqf80","pricing_plan_id":"cebpf4jnsgd1na2vs0mg"},{"bike_id":"f84fcd28-2698-4fb8-9a62-000ca11225a5","system_id":"levelo_inurba_marseille","lat":43.23059,"lon":5.35493,"is_reserved":false,"is_disabled":false,"rental_uris":{"android":"levelo://app?vid=f84fcd28-2698-4fb8-9a62-000ca11225a5","ios":"levelo://app?vid=f84fcd28-2698-4fb8-9a62-000ca11225a5"},"vehicle_type_id":"4","last_reported":1742123309,"current_range_meters":4000,"station_id":"cpo3342slgdg3j2ifvpg","pricing_plan_id":"cebpf4jnsgd1na2vs0mg"},{"bike_id":"ee04f0d7-be84-4b6b-b77c-e161e113ebb7","system_id":"levelo_inurba_marseille","lat":43.23198,"lon":5.39957,"is_reserved":false,"is_disabled":false,"rental_uris":{"android":"levelo://app?vid=ee04f0d7-be84-4b6b-b77c-e161e113ebb7","ios":"levelo://app?vid=ee04f0d7-be84-4b6b-b77c-e161e113ebb7"},"vehicle_type_id":"4","last_reported":1742123309,"current_range_meters":4400,"station_id":"ce4bhn12rcd13ifvqgqg","pricing_plan_id":"cebpf4jnsgd1na2vs0mg"},{"bike_id":"88c2ec9c-c2ee-474d-a6aa-dbb7a53fc0ca","system_id":"levelo_inurba_marseille","lat":43.241705,"lon":5.397444,"is_reserved":false,"is_disabled":true,"rental_uris":{"android":"levelo://app?vid=88c2ec9c-c2ee-474d-a6aa-dbb7a53fc0ca","ios":"levelo://app?vid=88c2ec9c-c2ee-474d-a6aa-dbb7a53fc0ca"},"vehicle_type_id":"4","last_reported":1742123309,"current_range_meters":4400,"station_id":"ce4bhn12rcd13ifvqgpg","pricing_plan_id":"cebpf4jnsgd1na2vs0mg"},{"bike_id":"4989c2fc-f32d-4934-937e-64fbb39a0299","system_id":"levelo_inurba_marseille","lat":43.24992,"lon":5.38914,"is_reserved":false,"is_disabled":false,"rental_uris":{"android":"levelo://app?vid=4989c2fc-f32d-4934-937e-64fbb39a0299","ios":"levelo://app?vid=4989c2fc-f32d-4934-937e-64fbb39a0299"},"vehicle_type_id":"4","last_reported":1742123309,"current_range_meters":4400,"station_id":"ce4bhgp2rcd13ifvqfd0","pricing_plan_id":"cebpf4jnsgd1na2vs0mg"},{"bike_id":"fafb6100-ea27-4690-9362-2cef939bd8ce","system_id":"levelo_inurba_marseille","lat":43.265929,"lon":5.389926,"is_reserved":false,"is_disabled":false,"rental_uris":{"android":"levelo://app?vid=fafb6100-ea27-4690-9362-2cef939bd8ce","ios":"levelo://app?vid=fafb6100-ea27-4690-9362-2cef939bd8ce"},"vehicle_type_id":"4","last_reported":1742123309,"current_range_meters":4400,"station_id":"ce4bhi12rcd13ifvqfp0","pricing_plan_id":"cebpf4jnsgd1na2vs0mg"},{"bike_id":"ef0420cd-62d9-46e6-bc23-a8b7c01978bb","system_id":"levelo_inurba_marseille","lat":43.297723,"lon":5.381374,"is_reserved":false,"is_disabled":true,"rental_uris":{"android":"levelo://app?vid=ef0420cd-62d9-46e6-bc23-a8b7c01978bb","ios":"levelo://app?vid=ef0420cd-62d9-46e6-bc23-a8b7c01978bb"},"vehicle_type_id":"4","last_reported":1742123309,"current_range_meters":4400,"station_id":"ce4bgip2rcd13ifvqbb0","pricing_plan_id":"cebpf4jnsgd1na2vs0mg"},{"bike_id":"68627db9-5d18-4313-8e8b-95167e6ca267","system_id":"levelo_inurba_marseille","lat":43.28723,"lon":5.35814,"is_reserved":false,"is_disabled":false,"rental_uris":{"android":"levelo://app?vid=68627db9-5d18-4313-8e8b-95167e6ca267","ios":"levelo://app?vid=68627db9-5d18-4313-8e8b-95167e6ca267"},"vehicle_type_id":"4","last_reported":1742123309,"current_range_meters":4800,"station_id":"ce4bhah2rcd13ifvqei0","pricing_plan_id":"cebpf4jnsgd1na2vs0mg"},{"bike_id":"efe319e0-c7a2-4e8d-bd81-e69f436ac9b1","system_id":"levelo_inurba_marseille","lat":43.29201,"lon":5.35814,"is_reserved":false,"is_disabled":false,"rental_uris":{"android":"levelo://app?vid=efe319e0-c7a2-4e8d-bd81-e69f436ac9b1","ios":"levelo://app?vid=efe319e0-c7a2-4e8d-bd81-e69f436ac9b1"},"vehicle_type_id":"4","last_reported":1742123309,"current_range_meters":4800,"station_id":"ce4bhb12rcd13ifvqel0","pricing_plan_id":"cebpf4jnsgd1na2vs0mg"},{"bike_id":"47d4a37a-03f5-4a8f-b364-54787b5f5319","system_id":"levelo_inurba_marseille","lat":43.24661,"lon":5.38158,"is_reserved":false,"is_disabled":false,"rental_uris":{"android":"levelo://app?vid=47d4a37a-03f5-4a8f-b364-54787b5f5319","ios":"levelo://app?vid=47d4a37a-03f5-4a8f-b364-54787b5f5319"},"vehicle_type_id":"4","last_reported":1742123309,"current_range_meters":4800,"station_id":"ce4bhih2rcd13ifvqfr0","pricing_plan_id":"cebpf4jnsgd1na2vs0mg"},{"bike_id":"0effbbb8-a931-404a-a47c-69bda0c677cc","system_id":"levelo_inurba_marseille","lat":43.22945,"lon":5.35397,"is_reserved":false,"is_disabled":false,"rental_uris":{"android":"levelo://app?vid=0effbbb8-a931-404a-a47c-69bda0c677cc","ios":"levelo://app?vid=0effbbb8-a931-404a-a47c-69bda0c677cc"},"vehicle_type_id":"4","last_reported":1742123309,"current_range_meters":4800,"station_id":"cpo3532slgdg3j2ikp40","pricing_plan_id":"cebpf4jnsgd1na2vs0mg"},{"bike_id":"8429ba0b-9289-435e-821f-4514a9575c70","system_id":"levelo_inurba_marseille","lat":43.30539,"lon":5.36536,"is_reserved":false,"is_disabled":false,"rental_uris":{"android":"levelo://app?vid=8429ba0b-9289-435e-821f-4514a9575c70","ios":"levelo://app?vid=8429ba0b-9289-435e-821f-4514a9575c70"},"vehicle_type_id":"4","last_reported":1742123309,"current_range_meters":4800,"station_id":"ce4bgs12rcd13ifvqcag","pricing_plan_id":"cebpf4jnsgd1na2vs0mg"},{"bike_id":"44f0a7d4-25c6-4b4b-ba40-0072dc60a712","system_id":"levelo_inurba_marseille","lat":43.28491,"lon":5.38399,"is_reserved":false,"is_disabled":false,"rental_uris":{"android":"levelo://app?vid=44f0a7d4-25c6-4b4b-ba40-0072dc60a712","ios":"levelo://app?vid=44f0a7d4-25c6-4b4b-ba40-0072dc60a712"},"vehicle_type_id":"4","last_reported":1742123309,"current_range_meters":1200,"station_id":"ce4bh512rcd13ifvqe3g","pricing_plan_id":"cebpf4jnsgd1na2vs0mg"},{"bike_id":"ef5aaa02-7ba2-40c7-9eeb-20990d40a4ab","system_id":"levelo_inurba_marseille","lat":43.24389,"lon":5.37054,"is_reserved":false,"is_disabled":false,"rental_uris":{"android":"levelo://app?vid=ef5aaa02-7ba2-40c7-9eeb-20990d40a4ab","ios":"levelo://app?vid=ef5aaa02-7ba2-40c7-9eeb-20990d40a4ab"},"vehicle_type_id":"4","last_reported":1742123309,"current_range_meters":5600,"station_id":"ce4bhhh2rcd13ifvqfk0","pricing_plan_id":"cebpf4jnsgd1na2vs0mg"},{"bike_id":"44b961f5-0abd-42a2-8a84-c383b60b2449","system_id":"levelo_inurba_marseille","lat":43.25112,"lon":5.40327,"is_reserved":false,"is_disabled":false,"rental_uris":{"android":"levelo://app?vid=44b961f5-0abd-42a2-8a84-c383b60b2449","ios":"levelo://app?vid=44b961f5-0abd-42a2-8a84-c383b60b2449"},"vehicle_type_id":"4","last_reported":1742123309,"current_range_meters":5600,"station_id":"ce4bhlh2rcd13ifvqgig","pricing_plan_id":"cebpf4jnsgd1na2vs0mg"},{"bike_id":"76b415aa-d90d-4b4c-9954-2e46fdae4260","system_id":"levelo_inurba_marseille","lat":43.29008,"lon":5.35615,"is_reserved":false,"is_disabled":true,"rental_uris":{"android":"levelo://app?vid=76b415aa-d90d-4b4c-9954-2e46fdae4260","ios":"levelo://app?vid=76b415aa-d90d-4b4c-9954-2e46fdae4260"},"vehicle_type_id":"4","last_reported":1742123309,"current_range_meters":6000,"station_id":"ce4bhb92rcd13ifvqen0","pricing_plan_id":"cebpf4jnsgd1na2vs0mg"},{"bike_id":"a25563b1-bb8c-42c7-af2a-ea02564ed879","system_id":"levelo_inurba_marseille","lat":43.28347,"lon":5.38625,"is_reserved":false,"is_disabled":false,"rental_uris":{"android":"levelo://app?vid=a25563b1-bb8c-42c7-af2a-ea02564ed879","ios":"levelo://app?vid=a25563b1-bb8c-42c7-af2a-ea02564ed879"},"vehicle_type_id":"4","last_reported":1742123309,"current_range_meters":6000,"station_id":"ce4bh492rcd13ifvqdvg","pricing_plan_id":"cebpf4jnsgd1na2vs0mg"},{"bike_id":"ae101444-9461-4e76-a90e-2e5eacdcafbc","system_id":"levelo_inurba_marseille","lat":43.27957,"lon":5.38722,"is_reserved":false,"is_disabled":true,"rental_uris":{"android":"levelo://app?vid=ae101444-9461-4e76-a90e-2e5eacdcafbc","ios":"levelo://app?vid=ae101444-9461-4e76-a90e-2e5eacdcafbc"},"vehicle_type_id":"4","last_reported":1742123309,"current_range_meters":6000,"station_id":"ce4bhg12rcd13ifvqf80","pricing_plan_id":"cebpf4jnsgd1na2vs0mg"},{"bike_id":"81e08eee-9562-4095-94b3-d6c4aba4e0b9","system_id":"levelo_inurba_marseille","lat":43.25866,"lon":5.39895,"is_reserved":false,"is_disabled":false,"rental_uris":{"android":"levelo://app?vid=81e08eee-9562-4095-94b3-d6c4aba4e0b9","ios":"levelo://app?vid=81e08eee-9562-4095-94b3-d6c4aba4e0b9"},"vehicle_type_id":"4","last_reported":1742123309,"current_range_meters":6000,"station_id":"ce4bhl92rcd13ifvqghg","pricing_plan_id":"cebpf4jnsgd1na2vs0mg"},{"bike_id":"9130c1e0-b61f-4347-bc58-fc495208eff8","system_id":"levelo_inurba_marseille","lat":43.27067,"lon":5.40251,"is_reserved":false,"is_disabled":false,"rental_uris":{"android":"levelo://app?vid=9130c1e0-b61f-4347-bc58-fc495208eff8","ios":"levelo://app?vid=9130c1e0-b61f-4347-bc58-fc495208eff8"},"vehicle_type_id":"4","last_reported":1742123309,"current_range_meters":6000,"station_id":"ce4bhk92rcd13ifvqgc0","pricing_plan_id":"cebpf4jnsgd1na2vs0mg"},{"bike_id":"832d4ee6-23fb-4c75-9bc5-6a2d919c8c55","system_id":"levelo_inurba_marseille","lat":43.259,"lon":5.40855,"is_reserved":false,"is_disabled":false,"rental_uris":{"android":"levelo://app?vid=832d4ee6-23fb-4c75-9bc5-6a2d919c8c55","ios":"levelo://app?vid=832d4ee6-23fb-4c75-9bc5-6a2d919c8c55"},"vehicle_type_id":"4","last_reported":1742123309,"current_range_meters":6000,"station_id":"ce4bhm92rcd13ifvqglg","pricing_plan_id":"cebpf4jnsgd1na2vs0mg"},{"bike_id":"6f143c5b-933e-4a51-97d8-72a3705988b8","system_id":"levelo_inurba_marseille","lat":43.32234,"lon":5.37956,"is_reserved":false,"is_disabled":false,"rental_uris":{"android":"levelo://app?vid=6f143c5b-933e-4a51-97d8-72a3705988b8","ios":"levelo://app?vid=6f143c5b-933e-4a51-97d8-72a3705988b8"},"vehicle_type_id":"4","last_reported":1742123309,"current_range_meters":6000,"station_id":"","pricing_plan_id":"cebpf4jnsgd1na2vs0mg"},{"bike_id":"aa795381-5174-4265-abe3-ddbff84516c8","system_id":"levelo_inurba_marseille","lat":43.30129,"lon":5.37403,"is_reserved":false,"is_disabled":true,"rental_uris":{"android":"levelo://app?vid=aa795381-5174-4265-abe3-ddbff84516c8","ios":"levelo://app?vid=aa795381-5174-4265-abe3-ddbff84516c8"},"vehicle_type_id":"4","last_reported":1742123309,"current_range_meters":6400,"station_id":"ce4bgs92rcd13ifvqcc0","pricing_plan_id":"cebpf4jnsgd1na2vs0mg"},{"bike_id":"9e78ae48-ce5f-4bcd-a3d1-b30c74124d90","system_id":"levelo_inurba_marseille","lat":43.28727,"lon":5.37927,"is_reserved":false,"is_disabled":false,"rental_uris":{"android":"levelo://app?vid=9e78ae48-ce5f-4bcd-a3d1-b30c74124d90","ios":"levelo://app?vid=9e78ae48-ce5f-4bcd-a3d1-b30c74124d90"},"vehicle_type_id":"4","last_reported":1742123309,"current_range_meters":5600,"station_id":"ce4bh9p2rcd13ifvqec0","pricing_plan_id":"cebpf4jnsgd1na2vs0mg"},{"bike_id":"487eb662-ab16-4f55-b9e9-820ea2f08bb2","system_id":"levelo_inurba_marseille","lat":43.29225,"lon":5.36062,"is_reserved":false,"is_disabled":false,"rental_uris":{"android":"levelo://app?vid=487eb662-ab16-4f55-b9e9-820ea2f08bb2","ios":"levelo://app?vid=487eb662-ab16-4f55-b9e9-820ea2f08bb2"},"vehicle_type_id":"4","last_reported":1742123309,"current_range_meters":6400,"station_id":"ce4bhbh2rcd13ifvqeqg","pricing_plan_id":"cebpf4jnsgd1na2vs0mg"},{"bike_id":"74c004a6-8c1c-43a2-8c59-5fe697516eaa","system_id":"levelo_inurba_marseille","lat":43.24802,"lon":5.37459,"is_reserved":false,"is_disabled":false,"rental_uris":{"android":"levelo://app?vid=74c004a6-8c1c-43a2-8c59-5fe697516eaa","ios":"levelo://app?vid=74c004a6-8c1c-43a2-8c59-5fe697516eaa"},"vehicle_type_id":"4","last_reported":1742123309,"current_range_meters":6400,"station_id":"ce4bhgh2rcd13ifvqfb0","pricing_plan_id":"cebpf4jnsgd1na2vs0mg"},{"bike_id":"11877a08-1209-410f-8a57-ef814c57a390","system_id":"levelo_inurba_marseille","lat":43.24165,"lon":5.36402,"is_reserved":false,"is_disabled":false,"rental_uris":{"android":"levelo://app?vid=11877a08-1209-410f-8a57-ef814c57a390","ios":"levelo://app?vid=11877a08-1209-410f-8a57-ef814c57a390"},"vehicle_type_id":"4","last_reported":1742123309,"current_range_meters":6400,"station_id":"cpo36qri1sfpv3e86is0","pricing_plan_id":"cebpf4jnsgd1na2vs0mg"},{"bike_id":"bdb4bfb1-14a4-46ff-b216-5b3cb0ddf95f","system_id":"levelo_inurba_marseille","lat":43.29552,"lon":5.39959,"is_reserved":false,"is_disabled":true,"rental_uris":{"android":"levelo://app?vid=bdb4bfb1-14a4-46ff-b216-5b3cb0ddf95f","ios":"levelo://app?vid=bdb4bfb1-14a4-46ff-b216-5b3cb0ddf95f"},"vehicle_type_id":"4","last_reported":1742123309,"current_range_meters":6400,"station_id":"ce4bh312rcd13ifvqdj0","pricing_plan_id":"cebpf4jnsgd1na2vs0mg"},{"bike_id":"385ae15c-2c3c-4490-a507-5eb20fb883a5","system_id":"levelo_inurba_marseille","lat":43.25948,"lon":5.40917,"is_reserved":false,"is_disabled":false,"rental_uris":{"android":"levelo://app?vid=385ae15c-2c3c-4490-a507-5eb20fb883a5","ios":"levelo://app?vid=385ae15c-2c3c-4490-a507-5eb20fb883a5"},"vehicle_type_id":"4","last_reported":1742123309,"current_range_meters":6400,"station_id":"ce4bhm92rcd13ifvqglg","pricing_plan_id":"cebpf4jnsgd1na2vs0mg"},{"bike_id":"ff146ae4-5d0f-428e-9996-d9a1c910bbe1","system_id":"levelo_inurba_marseille","lat":43.28431,"lon":5.34992,"is_reserved":false,"is_disabled":false,"rental_uris":{"android":"levelo://app?vid=ff146ae4-5d0f-428e-9996-d9a1c910bbe1","ios":"levelo://app?vid=ff146ae4-5d0f-428e-9996-d9a1c910bbe1"},"vehicle_type_id":"4","last_reported":1742123309,"current_range_meters":6400,"station_id":"ce4bhbh2rcd13ifvqepg","pricing_plan_id":"cebpf4jnsgd1na2vs0mg"},{"bike_id":"0ab69b64-2bc6-40ff-a351-b107bc084411","system_id":"levelo_inurba_marseille","lat":43.32468,"lon":5.36551,"is_reserved":false,"is_disabled":false,"rental_uris":{"android":"levelo://app?vid=0ab69b64-2bc6-40ff-a351-b107bc084411","ios":"levelo://app?vid=0ab69b64-2bc6-40ff-a351-b107bc084411"},"vehicle_type_id":"4","last_reported":1742123309,"current_range_meters":6800,"station_id":"ce4bhs12rcd13ifvqhvg","pricing_plan_id":"cebpf4jnsgd1na2vs0mg"},{"bike_id":"a51e83ee-53b4-4965-b5bb-694ae883e860","system_id":"levelo_inurba_marseille","lat":43.262129,"lon":5.374441,"is_reserved":false,"is_disabled":true,"rental_uris":{"android":"levelo://app?vid=a51e83ee-53b4-4965-b5bb-694ae883e860","ios":"levelo://app?vid=a51e83ee-53b4-4965-b5bb-694ae883e860"},"vehicle_type_id":"4","last_reported":1742123309,"current_range_meters":6800,"station_id":"ce4bhgp2rcd13ifvqfc0","pricing_plan_id":"cebpf4jnsgd1na2vs0mg"},{"bike_id":"e2657277-397c-4e7d-b73d-cff767185c77","system_id":"levelo_inurba_marseille","lat":43.24645,"lon":5.38898,"is_reserved":false,"is_disabled":false,"rental_uris":{"android":"levelo://app?vid=e2657277-397c-4e7d-b73d-cff767185c77","ios":"levelo://app?vid=e2657277-397c-4e7d-b73d-cff767185c77"},"vehicle_type_id":"4","last_reported":1742123309,"current_range_meters":6800,"station_id":"ce4bhg12rcd13ifvqf60","pricing_plan_id":"cebpf4jnsgd1na2vs0mg"},{"bike_id":"ff9fc8c7-efee-4c3f-a8c6-b9dfb6075c63","system_id":"levelo_inurba_marseille","lat":43.29208,"lon":5.35898,"is_reserved":false,"is_disabled":false,"rental_uris":{"android":"levelo://app?vid=ff9fc8c7-efee-4c3f-a8c6-b9dfb6075c63","ios":"levelo://app?vid=ff9fc8c7-efee-4c3f-a8c6-b9dfb6075c63"},"vehicle_type_id":"4","last_reported":1742123309,"current_range_meters":6400,"station_id":"ce4bhb92rcd13ifvqen0","pricing_plan_id":"cebpf4jnsgd1na2vs0mg"},{"bike_id":"1999cecf-f38c-4961-9580-ef6a50d3e0be","system_id":"levelo_inurba_marseille","lat":43.2418,"lon":5.36414,"is_reserved":false,"is_disabled":false,"rental_uris":{"android":"levelo://app?vid=1999cecf-f38c-4961-9580-ef6a50d3e0be","ios":"levelo://app?vid=1999cecf-f38c-4961-9580-ef6a50d3e0be"},"vehicle_type_id":"4","last_reported":1742123309,"current_range_meters":6800,"station_id":"cpo36qri1sfpv3e86is0","pricing_plan_id":"cebpf4jnsgd1na2vs0mg"},{"bike_id":"aba9da38-9143-4174-8a8b-6a4119e46777","system_id":"levelo_inurba_marseille","lat":43.2655,"lon":5.38985,"is_reserved":false,"is_disabled":false,"rental_uris":{"android":"levelo://app?vid=aba9da38-9143-4174-8a8b-6a4119e46777","ios":"levelo://app?vid=aba9da38-9143-4174-8a8b-6a4119e46777"},"vehicle_type_id":"4","last_reported":1742123309,"current_range_meters":6800,"station_id":"ce4bhe12rcd13ifvqf30","pricing_plan_id":"cebpf4jnsgd1na2vs0mg"},{"bike_id":"e0834956-e6d7-4bc3-862d-e76e3f887cbb","system_id":"levelo_inurba_marseille","lat":43.23077,"lon":5.35437,"is_reserved":false,"is_disabled":false,"rental_uris":{"android":"levelo://app?vid=e0834956-e6d7-4bc3-862d-e76e3f887cbb","ios":"levelo://app?vid=e0834956-e6d7-4bc3-862d-e76e3f887cbb"},"vehicle_type_id":"4","last_reported":1742123309,"current_range_meters":6800,"station_id":"","pricing_plan_id":"cebpf4jnsgd1na2vs0mg"},{"bike_id":"9fdfc49a-56cd-4c13-bd0e-fa5e770f32e4","system_id":"levelo_inurba_marseille","lat":43.2842,"lon":5.35015,"is_reserved":false,"is_disabled":false,"rental_uris":{"android":"levelo://app?vid=9fdfc49a-56cd-4c13-bd0e-fa5e770f32e4","ios":"levelo://app?vid=9fdfc49a-56cd-4c13-bd0e-fa5e770f32e4"},"vehicle_type_id":"4","last_reported":1742123309,"current_range_meters":6800,"station_id":"ce4bhbh2rcd13ifvqepg","pricing_plan_id":"cebpf4jnsgd1na2vs0mg"},{"bike_id":"2d7448ad-d15a-4c5e-8dbc-5383e88d7973","system_id":"levelo_inurba_marseille","lat":43.28738,"lon":5.399979,"is_reserved":false,"is_disabled":false,"rental_uris":{"android":"levelo://app?vid=2d7448ad-d15a-4c5e-8dbc-5383e88d7973","ios":"levelo://app?vid=2d7448ad-d15a-4c5e-8dbc-5383e88d7973"},"vehicle_type_id":"4","last_reported":1742123309,"current_range_meters":7200,"station_id":"ce4bho92rcd13ifvqh3g","pricing_plan_id":"cebpf4jnsgd1na2vs0mg"},{"bike_id":"1ac0ebad-6828-4242-99b2-14a9f8209f79","system_id":"levelo_inurba_marseille","lat":43.23208,"lon":5.35556,"is_reserved":false,"is_disabled":false,"rental_uris":{"android":"levelo://app?vid=1ac0ebad-6828-4242-99b2-14a9f8209f79","ios":"levelo://app?vid=1ac0ebad-6828-4242-99b2-14a9f8209f79"},"vehicle_type_id":"4","last_reported":1742123309,"current_range_meters":7200,"station_id":"ce4bhu92rcd13ifvqi70","pricing_plan_id":"cebpf4jnsgd1na2vs0mg"},{"bike_id":"676e66c6-8e50-404c-b512-5f94c7d6a8fc","system_id":"levelo_inurba_marseille","lat":43.24193,"lon":5.36383,"is_reserved":false,"is_disabled":false,"rental_uris":{"android":"levelo://app?vid=676e66c6-8e50-404c-b512-5f94c7d6a8fc","ios":"levelo://app?vid=676e66c6-8e50-404c-b512-5f94c7d6a8fc"},"vehicle_type_id":"4","last_reported":1742123309,"current_range_meters":7200,"station_id":"cpo36qri1sfpv3e86is0","pricing_plan_id":"cebpf4jnsgd1na2vs0mg"},{"bike_id":"a368ec29-4619-427b-b3cd-dd9e3edf5231","system_id":"levelo_inurba_marseille","lat":43.341452,"lon":5.409094,"is_reserved":false,"is_disabled":false,"rental_uris":{"android":"levelo://app?vid=a368ec29-4619-427b-b3cd-dd9e3edf5231","ios":"levelo://app?vid=a368ec29-4619-427b-b3cd-dd9e3edf5231"},"vehicle_type_id":"4","last_reported":1742123309,"current_range_meters":7200,"station_id":"ce4bhqh2rcd13ifvqhlg","pricing_plan_id":"cebpf4jnsgd1na2vs0mg"},{"bike_id":"12d698f7-f420-413d-9f6a-b251fbe646b0","system_id":"levelo_inurba_marseille","lat":43.31322,"lon":5.3967,"is_reserved":false,"is_disabled":false,"rental_uris":{"android":"levelo://app?vid=12d698f7-f420-413d-9f6a-b251fbe646b0","ios":"levelo://app?vid=12d698f7-f420-413d-9f6a-b251fbe646b0"},"vehicle_type_id":"4","last_reported":1742123309,"current_range_meters":7200,"station_id":"ce4bgvp2rcd13ifvqcu0","pricing_plan_id":"cebpf4jnsgd1na2vs0mg"},{"bike_id":"b614f100-11d7-4ef9-8f84-7c5dea0b786b","system_id":"levelo_inurba_marseille","lat":43.26943,"lon":5.40277,"is_reserved":false,"is_disabled":false,"rental_uris":{"android":"levelo://app?vid=b614f100-11d7-4ef9-8f84-7c5dea0b786b","ios":"levelo://app?vid=b614f100-11d7-4ef9-8f84-7c5dea0b786b"},"vehicle_type_id":"4","last_reported":1742123309,"current_range_meters":7200,"station_id":"cjm6bp8fraef2m0cb0m0","pricing_plan_id":"cebpf4jnsgd1na2vs0mg"},{"bike_id":"a93aa3cb-a6f6-4d21-80a0-6a2c32e8311e","system_id":"levelo_inurba_marseille","lat":43.28937,"lon":5.39626,"is_reserved":false,"is_disabled":false,"rental_uris":{"android":"levelo://app?vid=a93aa3cb-a6f6-4d21-80a0-6a2c32e8311e","ios":"levelo://app?vid=a93aa3cb-a6f6-4d21-80a0-6a2c32e8311e"},"vehicle_type_id":"4","last_reported":1742123309,"current_range_meters":7200,"station_id":"ce4bh3h2rcd13ifvqdn0","pricing_plan_id":"cebpf4jnsgd1na2vs0mg"},{"bike_id":"efb53dda-871b-483c-8dec-e716116f9234","system_id":"levelo_inurba_marseille","lat":43.31087,"lon":5.36741,"is_reserved":false,"is_disabled":false,"rental_uris":{"android":"levelo://app?vid=efb53dda-871b-483c-8dec-e716116f9234","ios":"levelo://app?vid=efb53dda-871b-483c-8dec-e716116f9234"},"vehicle_type_id":"4","last_reported":1742123309,"current_range_meters":7200,"station_id":"","pricing_plan_id":"cebpf4jnsgd1na2vs0mg"},{"bike_id":"92bd2e8f-197b-47ad-8530-ee4394b2ecce","system_id":"levelo_inurba_marseille","lat":43.24154,"lon":5.36389,"is_reserved":false,"is_disabled":false,"rental_uris":{"android":"levelo://app?vid=92bd2e8f-197b-47ad-8530-ee4394b2ecce","ios":"levelo://app?vid=92bd2e8f-197b-47ad-8530-ee4394b2ecce"},"vehicle_type_id":"4","last_reported":1742123309,"current_range_meters":7200,"station_id":"cpo36qri1sfpv3e86is0","pricing_plan_id":"cebpf4jnsgd1na2vs0mg"},{"bike_id":"eefe4114-201f-4897-b136-02e7b1e76e54","system_id":"levelo_inurba_marseille","lat":43.27833,"lon":5.39215,"is_reserved":false,"is_disabled":false,"rental_uris":{"android":"levelo://app?vid=eefe4114-201f-4897-b136-02e7b1e76e54","ios":"levelo://app?vid=eefe4114-201f-4897-b136-02e7b1e76e54"},"vehicle_type_id":"4","last_reported":1742123309,"current_range_meters":8000,"station_id":"ce4bhjp2rcd13ifvqga0","pricing_plan_id":"cebpf4jnsgd1na2vs0mg"},{"bike_id":"0b7bfdb8-fd03-4687-9225-8085184f929c","system_id":"levelo_inurba_marseille","lat":43.32343,"lon":5.36656,"is_reserved":false,"is_disabled":false,"rental_uris":{"android":"levelo://app?vid=0b7bfdb8-fd03-4687-9225-8085184f929c","ios":"levelo://app?vid=0b7bfdb8-fd03-4687-9225-8085184f929c"},"vehicle_type_id":"4","last_reported":1742123309,"current_range_meters":8000,"station_id":"","pricing_plan_id":"cebpf4jnsgd1na2vs0mg"},{"bike_id":"ad5ca5a2-00b3-4df0-a88b-2fc5f7cf2046","system_id":"levelo_inurba_marseille","lat":43.2731,"lon":5.39114,"is_reserved":false,"is_disabled":false,"rental_uris":{"android":"levelo://app?vid=ad5ca5a2-00b3-4df0-a88b-2fc5f7cf2046","ios":"levelo://app?vid=ad5ca5a2-00b3-4df0-a88b-2fc5f7cf2046"},"vehicle_type_id":"4","last_reported":1742123309,"current_range_meters":8000,"station_id":"ce4bhgp2rcd13ifvqfe0","pricing_plan_id":"cebpf4jnsgd1na2vs0mg"},{"bike_id":"63cfaea5-f172-409c-93d3-875ff9136d61","system_id":"levelo_inurba_marseille","lat":43.24662,"lon":5.38157,"is_reserved":false,"is_disabled":false,"rental_uris":{"android":"levelo://app?vid=63cfaea5-f172-409c-93d3-875ff9136d61","ios":"levelo://app?vid=63cfaea5-f172-409c-93d3-875ff9136d61"},"vehicle_type_id":"4","last_reported":1742123309,"current_range_meters":8000,"station_id":"ce4bhih2rcd13ifvqfr0","pricing_plan_id":"cebpf4jnsgd1na2vs0mg"},{"bike_id":"a65f889b-4be7-480c-8e19-e0554878545d","system_id":"levelo_inurba_marseille","lat":43.29557,"lon":5.42287,"is_reserved":false,"is_disabled":false,"rental_uris":{"android":"levelo://app?vid=a65f889b-4be7-480c-8e19-e0554878545d","ios":"levelo://app?vid=a65f889b-4be7-480c-8e19-e0554878545d"},"vehicle_type_id":"4","last_reported":1742123309,"current_range_meters":8000,"station_id":"ce4bhph2rcd13ifvqhdg","pricing_plan_id":"cebpf4jnsgd1na2vs0mg"},{"bike_id":"aeb33a8c-3eb5-49ca-a679-9b37e4bd34e9","system_id":"levelo_inurba_marseille","lat":43.28613,"lon":5.35095,"is_reserved":false,"is_disabled":false,"rental_uris":{"android":"levelo://app?vid=aeb33a8c-3eb5-49ca-a679-9b37e4bd34e9","ios":"levelo://app?vid=aeb33a8c-3eb5-49ca-a679-9b37e4bd34e9"},"vehicle_type_id":"4","last_reported":1742123309,"current_range_meters":8000,"station_id":"ce4bhch2rcd13ifvqeug","pricing_plan_id":"cebpf4jnsgd1na2vs0mg"},{"bike_id":"e52b41b5-52df-4c67-a85c-3cebb3bf7504","system_id":"levelo_inurba_marseille","lat":43.32363,"lon":5.36764,"is_reserved":false,"is_disabled":false,"rental_uris":{"android":"levelo://app?vid=e52b41b5-52df-4c67-a85c-3cebb3bf7504","ios":"levelo://app?vid=e52b41b5-52df-4c67-a85c-3cebb3bf7504"},"vehicle_type_id":"4","last_reported":1742123309,"current_range_meters":8000,"station_id":"ce4bhsh2rcd13ifvqi2g","pricing_plan_id":"cebpf4jnsgd1na2vs0mg"},{"bike_id":"09b66478-04cf-48d8-b314-6c9366086808","system_id":"levelo_inurba_marseille","lat":43.27989,"lon":5.40005,"is_reserved":false,"is_disabled":false,"rental_uris":{"android":"levelo://app?vid=09b66478-04cf-48d8-b314-6c9366086808","ios":"levelo://app?vid=09b66478-04cf-48d8-b314-6c9366086808"},"vehicle_type_id":"4","last_reported":1742123309,"current_range_meters":8000,"station_id":"ce4bho92rcd13ifvqh4g","pricing_plan_id":"cebpf4jnsgd1na2vs0mg"},{"bike_id":"cd599479-cb87-429c-83a1-742e20b1c9d7","system_id":"levelo_inurba_marseille","lat":43.231806,"lon":5.399905,"is_reserved":false,"is_disabled":false,"rental_uris":{"android":"levelo://app?vid=cd599479-cb87-429c-83a1-742e20b1c9d7","ios":"levelo://app?vid=cd599479-cb87-429c-83a1-742e20b1c9d7"},"vehicle_type_id":"4","last_reported":1742123309,"current_range_meters":8000,"station_id":"ce4bhn12rcd13ifvqgqg","pricing_plan_id":"cebpf4jnsgd1na2vs0mg"},{"bike_id":"2a88b3f4-6e73-4d6b-b5bd-52ac784f5bd6","system_id":"levelo_inurba_marseille","lat":43.2857,"lon":5.39491,"is_reserved":false,"is_disabled":false,"rental_uris":{"android":"levelo://app?vid=2a88b3f4-6e73-4d6b-b5bd-52ac784f5bd6","ios":"levelo://app?vid=2a88b3f4-6e73-4d6b-b5bd-52ac784f5bd6"},"vehicle_type_id":"4","last_reported":1742123309,"current_range_meters":8000,"station_id":"ce4bh292rcd13ifvqdg0","pricing_plan_id":"cebpf4jnsgd1na2vs0mg"},{"bike_id":"9625f194-a853-4767-bda8-0eedb08b2cb3","system_id":"levelo_inurba_marseille","lat":43.28711,"lon":5.399918,"is_reserved":false,"is_disabled":true,"rental_uris":{"android":"levelo://app?vid=9625f194-a853-4767-bda8-0eedb08b2cb3","ios":"levelo://app?vid=9625f194-a853-4767-bda8-0eedb08b2cb3"},"vehicle_type_id":"4","last_reported":1742123309,"current_range_meters":8000,"station_id":"ce4bho92rcd13ifvqh3g","pricing_plan_id":"cebpf4jnsgd1na2vs0mg"},{"bike_id":"71d6b220-48b3-44b0-9feb-d7bbfca6b232","system_id":"levelo_inurba_marseille","lat":43.25502,"lon":5.37675,"is_reserved":false,"is_disabled":true,"rental_uris":{"android":"levelo://app?vid=71d6b220-48b3-44b0-9feb-d7bbfca6b232","ios":"levelo://app?vid=71d6b220-48b3-44b0-9feb-d7bbfca6b232"},"vehicle_type_id":"4","last_reported":1742123309,"current_range_meters":8000,"station_id":"ce4bhh12rcd13ifvqff0","pricing_plan_id":"cebpf4jnsgd1na2vs0mg"},{"bike_id":"f6067bea-378e-4186-92f1-53e08dba9f50","system_id":"levelo_inurba_marseille","lat":43.30945,"lon":5.40133,"is_reserved":false,"is_disabled":false,"rental_uris":{"android":"levelo://app?vid=f6067bea-378e-4186-92f1-53e08dba9f50","ios":"levelo://app?vid=f6067bea-378e-4186-92f1-53e08dba9f50"},"vehicle_type_id":"4","last_reported":1742123309,"current_range_meters":8000,"station_id":"ce4bgvp2rcd13ifvqct0","pricing_plan_id":"cebpf4jnsgd1na2vs0mg"},{"bike_id":"c5568599-3e47-424a-81f3-25ef6e9bec9f","system_id":"levelo_inurba_marseille","lat":43.29031,"lon":5.38644,"is_reserved":false,"is_disabled":false,"rental_uris":{"android":"levelo://app?vid=c5568599-3e47-424a-81f3-25ef6e9bec9f","ios":"levelo://app?vid=c5568599-3e47-424a-81f3-25ef6e9bec9f"},"vehicle_type_id":"4","last_reported":1742123309,"current_range_meters":8400,"station_id":"ce4bh4p2rcd13ifvqe0g","pricing_plan_id":"cebpf4jnsgd1na2vs0mg"},{"bike_id":"5f7f03a2-add7-44f0-9ebb-8428c5f0e58a","system_id":"levelo_inurba_marseille","lat":43.25949,"lon":5.40868,"is_reserved":false,"is_disabled":false,"rental_uris":{"android":"levelo://app?vid=5f7f03a2-add7-44f0-9ebb-8428c5f0e58a","ios":"levelo://app?vid=5f7f03a2-add7-44f0-9ebb-8428c5f0e58a"},"vehicle_type_id":"4","last_reported":1742123309,"current_range_meters":8400,"station_id":"ce4bhm92rcd13ifvqglg","pricing_plan_id":"cebpf4jnsgd1na2vs0mg"},{"bike_id":"3f51f1f5-7a39-4364-adc9-c4c0ef6e90b0","system_id":"levelo_inurba_marseille","lat":43.28622,"lon":5.35096,"is_reserved":false,"is_disabled":false,"rental_uris":{"android":"levelo://app?vid=3f51f1f5-7a39-4364-adc9-c4c0ef6e90b0","ios":"levelo://app?vid=3f51f1f5-7a39-4364-adc9-c4c0ef6e90b0"},"vehicle_type_id":"4","last_reported":1742123309,"current_range_meters":8400,"station_id":"ce4bhch2rcd13ifvqeug","pricing_plan_id":"cebpf4jnsgd1na2vs0mg"},{"bike_id":"91312d8c-f656-4f28-a786-a74428f0b1b4","system_id":"levelo_inurba_marseille","lat":43.25011,"lon":5.38934,"is_reserved":false,"is_disabled":false,"rental_uris":{"android":"levelo://app?vid=91312d8c-f656-4f28-a786-a74428f0b1b4","ios":"levelo://app?vid=91312d8c-f656-4f28-a786-a74428f0b1b4"},"vehicle_type_id":"4","last_reported":1742123309,"current_range_meters":8400,"station_id":"ce4bhgp2rcd13ifvqfd0","pricing_plan_id":"cebpf4jnsgd1na2vs0mg"},{"bike_id":"a341e3a1-2bed-41cf-b5f5-0de069045a18","system_id":"levelo_inurba_marseille","lat":43.297363,"lon":5.394709,"is_reserved":false,"is_disabled":false,"rental_uris":{"android":"levelo://app?vid=a341e3a1-2bed-41cf-b5f5-0de069045a18","ios":"levelo://app?vid=a341e3a1-2bed-41cf-b5f5-0de069045a18"},"vehicle_type_id":"4","last_reported":1742123309,"current_range_meters":7200,"station_id":"chh1huq6cuj3fo74tm60","pricing_plan_id":"cebpf4jnsgd1na2vs0mg"},{"bike_id":"f2b7b04e-8089-4d6c-9db8-5e21bca75c26","system_id":"levelo_inurba_marseille","lat":43.27834,"lon":5.39204,"is_reserved":false,"is_disabled":true,"rental_uris":{"android":"levelo://app?vid=f2b7b04e-8089-4d6c-9db8-5e21bca75c26","ios":"levelo://app?vid=f2b7b04e-8089-4d6c-9db8-5e21bca75c26"},"vehicle_type_id":"4","last_reported":1742123309,"current_range_meters":8400,"station_id":"ce4bhjp2rcd13ifvqga0","pricing_plan_id":"cebpf4jnsgd1na2vs0mg"},{"bike_id":"c5f3baa5-071e-49c9-a279-6962d03083ac","system_id":"levelo_inurba_marseille","lat":43.30414,"lon":5.36768,"is_reserved":false,"is_disabled":false,"rental_uris":{"android":"levelo://app?vid=c5f3baa5-071e-49c9-a279-6962d03083ac","ios":"levelo://app?vid=c5f3baa5-071e-49c9-a279-6962d03083ac"},"vehicle_type_id":"4","last_reported":1742123309,"current_range_meters":8800,"station_id":"","pricing_plan_id":"cebpf4jnsgd1na2vs0mg"},{"bike_id":"10044722-9baa-416e-a6f1-7ac67f5372b1","system_id":"levelo_inurba_marseille","lat":43.29621,"lon":5.37715,"is_reserved":false,"is_disabled":true,"rental_uris":{"android":"levelo://app?vid=10044722-9baa-416e-a6f1-7ac67f5372b1","ios":"levelo://app?vid=10044722-9baa-416e-a6f1-7ac67f5372b1"},"vehicle_type_id":"4","last_reported":1742123309,"current_range_meters":8800,"station_id":"ce4bgi92rcd13ifvqb90","pricing_plan_id":"cebpf4jnsgd1na2vs0mg"},{"bike_id":"cf2dddd4-7d4d-49f9-8a6b-f39f56ed4d68","system_id":"levelo_inurba_marseille","lat":43.30924,"lon":5.40125,"is_reserved":false,"is_disabled":false,"rental_uris":{"android":"levelo://app?vid=cf2dddd4-7d4d-49f9-8a6b-f39f56ed4d68","ios":"levelo://app?vid=cf2dddd4-7d4d-49f9-8a6b-f39f56ed4d68"},"vehicle_type_id":"4","last_reported":1742123309,"current_range_meters":8800,"station_id":"ce4bgvp2rcd13ifvqct0","pricing_plan_id":"cebpf4jnsgd1na2vs0mg"},{"bike_id":"2127c283-3bf3-4081-9791-ba201cf5a542","system_id":"levelo_inurba_marseille","lat":43.30483,"lon":5.37341,"is_reserved":false,"is_disabled":true,"rental_uris":{"android":"levelo://app?vid=2127c283-3bf3-4081-9791-ba201cf5a542","ios":"levelo://app?vid=2127c283-3bf3-4081-9791-ba201cf5a542"},"vehicle_type_id":"4","last_reported":1742123309,"current_range_meters":8800,"station_id":"","pricing_plan_id":"cebpf4jnsgd1na2vs0mg"},{"bike_id":"2888920d-5337-4dad-b80c-b748fa94c0d3","system_id":"levelo_inurba_marseille","lat":43.24648,"lon":5.38897,"is_reserved":false,"is_disabled":false,"rental_uris":{"android":"levelo://app?vid=2888920d-5337-4dad-b80c-b748fa94c0d3","ios":"levelo://app?vid=2888920d-5337-4dad-b80c-b748fa94c0d3"},"vehicle_type_id":"4","last_reported":1742123309,"current_range_meters":8800,"station_id":"ce4bhg12rcd13ifvqf60","pricing_plan_id":"cebpf4jnsgd1na2vs0mg"},{"bike_id":"dce4e035-bed2-408e-b97a-d6936e40fbc2","system_id":"levelo_inurba_marseille","lat":43.28738,"lon":5.37951,"is_reserved":false,"is_disabled":false,"rental_uris":{"android":"levelo://app?vid=dce4e035-bed2-408e-b97a-d6936e40fbc2","ios":"levelo://app?vid=dce4e035-bed2-408e-b97a-d6936e40fbc2"},"vehicle_type_id":"4","last_reported":1742123309,"current_range_meters":8800,"station_id":"ce4bh9p2rcd13ifvqec0","pricing_plan_id":"cebpf4jnsgd1na2vs0mg"},{"bike_id":"743c9fbf-42df-4986-bc8c-9b4a2bc386be","system_id":"levelo_inurba_marseille","lat":43.24087,"lon":5.37763,"is_reserved":false,"is_disabled":false,"rental_uris":{"android":"levelo://app?vid=743c9fbf-42df-4986-bc8c-9b4a2bc386be","ios":"levelo://app?vid=743c9fbf-42df-4986-bc8c-9b4a2bc386be"},"vehicle_type_id":"4","last_reported":1742123309,"current_range_meters":8800,"station_id":"ce4bhnp2rcd13ifvqgvg","pricing_plan_id":"cebpf4jnsgd1na2vs0mg"},{"bike_id":"1333c740-f33c-46ca-97eb-8a4943e3534d","system_id":"levelo_inurba_marseille","lat":43.29156,"lon":5.38439,"is_reserved":false,"is_disabled":false,"rental_uris":{"android":"levelo://app?vid=1333c740-f33c-46ca-97eb-8a4943e3534d","ios":"levelo://app?vid=1333c740-f33c-46ca-97eb-8a4943e3534d"},"vehicle_type_id":"4","last_reported":1742123309,"current_range_meters":8800,"station_id":"","pricing_plan_id":"cebpf4jnsgd1na2vs0mg"},{"bike_id":"c1ccf9ca-98f0-4eaf-9c83-bb7b5133d125","system_id":"levelo_inurba_marseille","lat":43.321079,"lon":5.36779,"is_reserved":false,"is_disabled":false,"rental_uris":{"android":"levelo://app?vid=c1ccf9ca-98f0-4eaf-9c83-bb7b5133d125","ios":"levelo://app?vid=c1ccf9ca-98f0-4eaf-9c83-bb7b5133d125"},"vehicle_type_id":"4","last_reported":1742123309,"current_range_meters":8800,"station_id":"ce4bhrh2rcd13ifvqhug","pricing_plan_id":"cebpf4jnsgd1na2vs0mg"},{"bike_id":"051f8d0f-3233-4330-b3cc-3f3cb6e82ba6","system_id":"levelo_inurba_marseille","lat":43.28616,"lon":5.35104,"is_reserved":false,"is_disabled":false,"rental_uris":{"android":"levelo://app?vid=051f8d0f-3233-4330-b3cc-3f3cb6e82ba6","ios":"levelo://app?vid=051f8d0f-3233-4330-b3cc-3f3cb6e82ba6"},"vehicle_type_id":"4","last_reported":1742123309,"current_range_meters":8800,"station_id":"ce4bhch2rcd13ifvqeug","pricing_plan_id":"cebpf4jnsgd1na2vs0mg"},{"bike_id":"2ea8de52-16e7-467f-a5b0-ffa7811f8be8","system_id":"levelo_inurba_marseille","lat":43.30898,"lon":5.39632,"is_reserved":false,"is_disabled":false,"rental_uris":{"android":"levelo://app?vid=2ea8de52-16e7-467f-a5b0-ffa7811f8be8","ios":"levelo://app?vid=2ea8de52-16e7-467f-a5b0-ffa7811f8be8"},"vehicle_type_id":"4","last_reported":1742123309,"current_range_meters":8800,"station_id":"ce4bh012rcd13ifvqcv0","pricing_plan_id":"cebpf4jnsgd1na2vs0mg"},{"bike_id":"31710fca-ccfa-43a5-ac6f-5ec923018ebf","system_id":"levelo_inurba_marseille","lat":43.27413,"lon":5.42059,"is_reserved":false,"is_disabled":false,"rental_uris":{"android":"levelo://app?vid=31710fca-ccfa-43a5-ac6f-5ec923018ebf","ios":"levelo://app?vid=31710fca-ccfa-43a5-ac6f-5ec923018ebf"},"vehicle_type_id":"4","last_reported":1742123309,"current_range_meters":8800,"station_id":"","pricing_plan_id":"cebpf4jnsgd1na2vs0mg"},{"bike_id":"0102a975-ca16-4d1e-8694-d919e87a2584","system_id":"levelo_inurba_marseille","lat":43.29552,"lon":5.42282,"is_reserved":false,"is_disabled":false,"rental_uris":{"android":"levelo://app?vid=0102a975-ca16-4d1e-8694-d919e87a2584","ios":"levelo://app?vid=0102a975-ca16-4d1e-8694-d919e87a2584"},"vehicle_type_id":"4","last_reported":1742123309,"current_range_meters":9200,"station_id":"ce4bhph2rcd13ifvqhdg","pricing_plan_id":"cebpf4jnsgd1na2vs0mg"},{"bike_id":"57568633-246b-4db2-856e-8fa3749f4273","system_id":"levelo_inurba_marseille","lat":43.23957,"lon":5.36626,"is_reserved":false,"is_disabled":false,"rental_uris":{"android":"levelo://app?vid=57568633-246b-4db2-856e-8fa3749f4273","ios":"levelo://app?vid=57568633-246b-4db2-856e-8fa3749f4273"},"vehicle_type_id":"4","last_reported":1742123309,"current_range_meters":9200,"station_id":"ce4bhi12rcd13ifvqfp0","pricing_plan_id":"cebpf4jnsgd1na2vs0mg"},{"bike_id":"07f7076b-fafc-419a-97da-e290a4217b0e","system_id":"levelo_inurba_marseille","lat":43.26056,"lon":5.39389,"is_reserved":false,"is_disabled":false,"rental_uris":{"android":"levelo://app?vid=07f7076b-fafc-419a-97da-e290a4217b0e","ios":"levelo://app?vid=07f7076b-fafc-419a-97da-e290a4217b0e"},"vehicle_type_id":"4","last_reported":1742123309,"current_range_meters":9200,"station_id":"ce4bhh92rcd13ifvqfj0","pricing_plan_id":"cebpf4jnsgd1na2vs0mg"},{"bike_id":"6582e7c2-5aa5-4e6a-abc5-fa241e74aeb6","system_id":"levelo_inurba_marseille","lat":43.29894,"lon":5.43649,"is_reserved":false,"is_disabled":false,"rental_uris":{"android":"levelo://app?vid=6582e7c2-5aa5-4e6a-abc5-fa241e74aeb6","ios":"levelo://app?vid=6582e7c2-5aa5-4e6a-abc5-fa241e74aeb6"},"vehicle_type_id":"4","last_reported":1742123309,"current_range_meters":9200,"station_id":"ce4bhpp2rcd13ifvqhfg","pricing_plan_id":"cebpf4jnsgd1na2vs0mg"},{"bike_id":"90c707aa-0edc-4e94-a911-252e6bd4d4c2","system_id":"levelo_inurba_marseille","lat":43.28615,"lon":5.35101,"is_reserved":false,"is_disabled":false,"rental_uris":{"android":"levelo://app?vid=90c707aa-0edc-4e94-a911-252e6bd4d4c2","ios":"levelo://app?vid=90c707aa-0edc-4e94-a911-252e6bd4d4c2"},"vehicle_type_id":"4","last_reported":1742123309,"current_range_meters":9200,"station_id":"ce4bhch2rcd13ifvqeug","pricing_plan_id":"cebpf4jnsgd1na2vs0mg"},{"bike_id":"c06b6f4c-bcac-4450-bc38-6840c98c54fc","system_id":"levelo_inurba_marseille","lat":43.23152,"lon":5.43686,"is_reserved":false,"is_disabled":false,"rental_uris":{"android":"levelo://app?vid=c06b6f4c-bcac-4450-bc38-6840c98c54fc","ios":"levelo://app?vid=c06b6f4c-bcac-4450-bc38-6840c98c54fc"},"vehicle_type_id":"4","last_reported":1742123309,"current_range_meters":9200,"station_id":"ce4bhmp2rcd13ifvqgog","pricing_plan_id":"cebpf4jnsgd1na2vs0mg"},{"bike_id":"6b79f7bf-d213-46f5-a111-4638f83cc6af","system_id":"levelo_inurba_marseille","lat":43.24806,"lon":5.37454,"is_reserved":false,"is_disabled":false,"rental_uris":{"android":"levelo://app?vid=6b79f7bf-d213-46f5-a111-4638f83cc6af","ios":"levelo://app?vid=6b79f7bf-d213-46f5-a111-4638f83cc6af"},"vehicle_type_id":"4","last_reported":1742123309,"current_range_meters":9200,"station_id":"ce4bhgh2rcd13ifvqfb0","pricing_plan_id":"cebpf4jnsgd1na2vs0mg"},{"bike_id":"9c153339-ffc3-4e73-9dd4-5e83c5bb119e","system_id":"levelo_inurba_marseille","lat":43.2319,"lon":5.39994,"is_reserved":false,"is_disabled":false,"rental_uris":{"android":"levelo://app?vid=9c153339-ffc3-4e73-9dd4-5e83c5bb119e","ios":"levelo://app?vid=9c153339-ffc3-4e73-9dd4-5e83c5bb119e"},"vehicle_type_id":"4","last_reported":1742123309,"current_range_meters":9200,"station_id":"ce4bhn12rcd13ifvqgqg","pricing_plan_id":"cebpf4jnsgd1na2vs0mg"},{"bike_id":"0162ff87-7148-49d2-82e1-db37eca7d49d","system_id":"levelo_inurba_marseille","lat":43.28623,"lon":5.35098,"is_reserved":false,"is_disabled":false,"rental_uris":{"android":"levelo://app?vid=0162ff87-7148-49d2-82e1-db37eca7d49d","ios":"levelo://app?vid=0162ff87-7148-49d2-82e1-db37eca7d49d"},"vehicle_type_id":"4","last_reported":1742123309,"current_range_meters":9200,"station_id":"ce4bhch2rcd13ifvqeug","pricing_plan_id":"cebpf4jnsgd1na2vs0mg"},{"bike_id":"a17866dc-3074-49fc-9a89-48869866e9d8","system_id":"levelo_inurba_marseille","lat":43.27212,"lon":5.39257,"is_reserved":false,"is_disabled":true,"rental_uris":{"android":"levelo://app?vid=a17866dc-3074-49fc-9a89-48869866e9d8","ios":"levelo://app?vid=a17866dc-3074-49fc-9a89-48869866e9d8"},"vehicle_type_id":"4","last_reported":1742123309,"current_range_meters":9200,"station_id":"ce4bhhp2rcd13ifvqfm0","pricing_plan_id":"cebpf4jnsgd1na2vs0mg"},{"bike_id":"0d751fe3-4aed-4fa6-80ca-bc2d51140685","system_id":"levelo_inurba_marseille","lat":43.28105,"lon":5.37824,"is_reserved":false,"is_disabled":false,"rental_uris":{"android":"levelo://app?vid=0d751fe3-4aed-4fa6-80ca-bc2d51140685","ios":"levelo://app?vid=0d751fe3-4aed-4fa6-80ca-bc2d51140685"},"vehicle_type_id":"4","last_reported":1742123309,"current_range_meters":9200,"station_id":"ce4bha12rcd13ifvqee0","pricing_plan_id":"cebpf4jnsgd1na2vs0mg"},{"bike_id":"b723aca3-8e78-42dc-aea3-2292da138d59","system_id":"levelo_inurba_marseille","lat":43.23065,"lon":5.35491,"is_reserved":false,"is_disabled":false,"rental_uris":{"android":"levelo://app?vid=b723aca3-8e78-42dc-aea3-2292da138d59","ios":"levelo://app?vid=b723aca3-8e78-42dc-aea3-2292da138d59"},"vehicle_type_id":"4","last_reported":1742123309,"current_range_meters":9200,"station_id":"cpo3342slgdg3j2ifvpg","pricing_plan_id":"cebpf4jnsgd1na2vs0mg"},{"bike_id":"3a766561-d5df-4bb1-accb-85c347f27a70","system_id":"levelo_inurba_marseille","lat":43.33738,"lon":5.39178,"is_reserved":false,"is_disabled":false,"rental_uris":{"android":"levelo://app?vid=3a766561-d5df-4bb1-accb-85c347f27a70","ios":"levelo://app?vid=3a766561-d5df-4bb1-accb-85c347f27a70"},"vehicle_type_id":"4","last_reported":1742123309,"current_range_meters":9200,"station_id":"ce4bhr92rcd13ifvqhsg","pricing_plan_id":"cebpf4jnsgd1na2vs0mg"},{"bike_id":"486239e7-dd67-42d3-9c83-43abe67b8550","system_id":"levelo_inurba_marseille","lat":43.31336,"lon":5.39683,"is_reserved":false,"is_disabled":false,"rental_uris":{"android":"levelo://app?vid=486239e7-dd67-42d3-9c83-43abe67b8550","ios":"levelo://app?vid=486239e7-dd67-42d3-9c83-43abe67b8550"},"vehicle_type_id":"4","last_reported":1742123309,"current_range_meters":9200,"station_id":"ce4bgvp2rcd13ifvqcu0","pricing_plan_id":"cebpf4jnsgd1na2vs0mg"},{"bike_id":"3a1764a3-78ec-47d1-a55f-59e5e689c171","system_id":"levelo_inurba_marseille","lat":43.29872,"lon":5.39732,"is_reserved":false,"is_disabled":false,"rental_uris":{"android":"levelo://app?vid=3a1764a3-78ec-47d1-a55f-59e5e689c171","ios":"levelo://app?vid=3a1764a3-78ec-47d1-a55f-59e5e689c171"},"vehicle_type_id":"4","last_reported":1742123309,"current_range_meters":4800,"station_id":"ce4bh0h2rcd13ifvqd50","pricing_plan_id":"cebpf4jnsgd1na2vs0mg"},{"bike_id":"dd3cd798-787d-4c31-b0e6-37631fe69a4a","system_id":"levelo_inurba_marseille","lat":43.278196,"lon":5.407216,"is_reserved":false,"is_disabled":false,"rental_uris":{"android":"levelo://app?vid=dd3cd798-787d-4c31-b0e6-37631fe69a4a","ios":"levelo://app?vid=dd3cd798-787d-4c31-b0e6-37631fe69a4a"},"vehicle_type_id":"4","last_reported":1742123309,"current_range_meters":9600,"station_id":"ce4bhnh2rcd13ifvqgtg","pricing_plan_id":"cebpf4jnsgd1na2vs0mg"},{"bike_id":"71b342b8-694b-40d5-99e8-310baf77a970","system_id":"levelo_inurba_marseille","lat":43.23084,"lon":5.35482,"is_reserved":false,"is_disabled":false,"rental_uris":{"android":"levelo://app?vid=71b342b8-694b-40d5-99e8-310baf77a970","ios":"levelo://app?vid=71b342b8-694b-40d5-99e8-310baf77a970"},"vehicle_type_id":"4","last_reported":1742123309,"current_range_meters":9600,"station_id":"cpo3342slgdg3j2ifvpg","pricing_plan_id":"cebpf4jnsgd1na2vs0mg"},{"bike_id":"fc071de1-2cc0-488a-a43e-f8037a5a9a49","system_id":"levelo_inurba_marseille","lat":43.23066,"lon":5.3549,"is_reserved":false,"is_disabled":false,"rental_uris":{"android":"levelo://app?vid=fc071de1-2cc0-488a-a43e-f8037a5a9a49","ios":"levelo://app?vid=fc071de1-2cc0-488a-a43e-f8037a5a9a49"},"vehicle_type_id":"4","last_reported":1742123309,"current_range_meters":9600,"station_id":"cpo3342slgdg3j2ifvpg","pricing_plan_id":"cebpf4jnsgd1na2vs0mg"},{"bike_id":"b56f2e9f-8d55-4aeb-bfc5-e3b5ee5ae338","system_id":"levelo_inurba_marseille","lat":43.30314,"lon":5.40425,"is_reserved":false,"is_disabled":false,"rental_uris":{"android":"levelo://app?vid=b56f2e9f-8d55-4aeb-bfc5-e3b5ee5ae338","ios":"levelo://app?vid=b56f2e9f-8d55-4aeb-bfc5-e3b5ee5ae338"},"vehicle_type_id":"4","last_reported":1742123309,"current_range_meters":9600,"station_id":"ce4bh012rcd13ifvqd10","pricing_plan_id":"cebpf4jnsgd1na2vs0mg"},{"bike_id":"174c9c66-b172-484e-b7f9-5752aa18aabf","system_id":"levelo_inurba_marseille","lat":43.2307,"lon":5.35491,"is_reserved":false,"is_disabled":false,"rental_uris":{"android":"levelo://app?vid=174c9c66-b172-484e-b7f9-5752aa18aabf","ios":"levelo://app?vid=174c9c66-b172-484e-b7f9-5752aa18aabf"},"vehicle_type_id":"4","last_reported":1742123309,"current_range_meters":9600,"station_id":"cpo3342slgdg3j2ifvpg","pricing_plan_id":"cebpf4jnsgd1na2vs0mg"},{"bike_id":"cfc9a92b-653b-4b11-b590-051e91e8a574","system_id":"levelo_inurba_marseille","lat":43.2926,"lon":5.37611,"is_reserved":false,"is_disabled":false,"rental_uris":{"android":"levelo://app?vid=cfc9a92b-653b-4b11-b590-051e91e8a574","ios":"levelo://app?vid=cfc9a92b-653b-4b11-b590-051e91e8a574"},"vehicle_type_id":"4","last_reported":1742123309,"current_range_meters":10000,"station_id":"ce4bgi12rcd13ifvqb80","pricing_plan_id":"cebpf4jnsgd1na2vs0mg"},{"bike_id":"e45b0fd7-4e87-4303-b524-8302e30de230","system_id":"levelo_inurba_marseille","lat":43.24648,"lon":5.38171,"is_reserved":false,"is_disabled":false,"rental_uris":{"android":"levelo://app?vid=e45b0fd7-4e87-4303-b524-8302e30de230","ios":"levelo://app?vid=e45b0fd7-4e87-4303-b524-8302e30de230"},"vehicle_type_id":"4","last_reported":1742123309,"current_range_meters":10000,"station_id":"ce4bhih2rcd13ifvqfr0","pricing_plan_id":"cebpf4jnsgd1na2vs0mg"},{"bike_id":"138e620c-f578-4ef6-a1cc-4efaf81ff921","system_id":"levelo_inurba_marseille","lat":43.24667,"lon":5.38157,"is_reserved":false,"is_disabled":false,"rental_uris":{"android":"levelo://app?vid=138e620c-f578-4ef6-a1cc-4efaf81ff921","ios":"levelo://app?vid=138e620c-f578-4ef6-a1cc-4efaf81ff921"},"vehicle_type_id":"4","last_reported":1742123309,"current_range_meters":10000,"station_id":"ce4bhih2rcd13ifvqfr0","pricing_plan_id":"cebpf4jnsgd1na2vs0mg"},{"bike_id":"d29954b9-94a9-4d4b-8f2a-4f834cdcd24e","system_id":"levelo_inurba_marseille","lat":43.30591,"lon":5.40093,"is_reserved":false,"is_disabled":false,"rental_uris":{"android":"levelo://app?vid=d29954b9-94a9-4d4b-8f2a-4f834cdcd24e","ios":"levelo://app?vid=d29954b9-94a9-4d4b-8f2a-4f834cdcd24e"},"vehicle_type_id":"4","last_reported":1742123309,"current_range_meters":10000,"station_id":"","pricing_plan_id":"cebpf4jnsgd1na2vs0mg"},{"bike_id":"f7390567-485c-4fba-9e9d-d4846905af59","system_id":"levelo_inurba_marseille","lat":43.25075,"lon":5.39519,"is_reserved":false,"is_disabled":false,"rental_uris":{"android":"levelo://app?vid=f7390567-485c-4fba-9e9d-d4846905af59","ios":"levelo://app?vid=f7390567-485c-4fba-9e9d-d4846905af59"},"vehicle_type_id":"4","last_reported":1742123309,"current_range_meters":10000,"station_id":"ce4bhm12rcd13ifvqgkg","pricing_plan_id":"cebpf4jnsgd1na2vs0mg"},{"bike_id":"d833f426-b66d-48bf-ae51-72b9b0c84c90","system_id":"levelo_inurba_marseille","lat":43.32364,"lon":5.38905,"is_reserved":false,"is_disabled":false,"rental_uris":{"android":"levelo://app?vid=d833f426-b66d-48bf-ae51-72b9b0c84c90","ios":"levelo://app?vid=d833f426-b66d-48bf-ae51-72b9b0c84c90"},"vehicle_type_id":"4","last_reported":1742123309,"current_range_meters":10000,"station_id":"ce4bhqp2rcd13ifvqhog","pricing_plan_id":"cebpf4jnsgd1na2vs0mg"},{"bike_id":"ec4c8fc9-399f-4f5a-b345-e19e03d811c3","system_id":"levelo_inurba_marseille","lat":43.27207,"lon":5.40996,"is_reserved":false,"is_disabled":true,"rental_uris":{"android":"levelo://app?vid=ec4c8fc9-399f-4f5a-b345-e19e03d811c3","ios":"levelo://app?vid=ec4c8fc9-399f-4f5a-b345-e19e03d811c3"},"vehicle_type_id":"4","last_reported":1742123309,"current_range_meters":10000,"station_id":"ce4bhl12rcd13ifvqgf0","pricing_plan_id":"cebpf4jnsgd1na2vs0mg"},{"bike_id":"c79bb127-8198-4096-96ea-1444569e00c1","system_id":"levelo_inurba_marseille","lat":43.23961,"lon":5.36631,"is_reserved":false,"is_disabled":true,"rental_uris":{"android":"levelo://app?vid=c79bb127-8198-4096-96ea-1444569e00c1","ios":"levelo://app?vid=c79bb127-8198-4096-96ea-1444569e00c1"},"vehicle_type_id":"4","last_reported":1742123309,"current_range_meters":10000,"station_id":"ce4bhi12rcd13ifvqfp0","pricing_plan_id":"cebpf4jnsgd1na2vs0mg"},{"bike_id":"fcdfecc0-d519-4864-984c-ddffbbfe2bd7","system_id":"levelo_inurba_marseille","lat":43.2717,"lon":5.40977,"is_reserved":false,"is_disabled":false,"rental_uris":{"android":"levelo://app?vid=fcdfecc0-d519-4864-984c-ddffbbfe2bd7","ios":"levelo://app?vid=fcdfecc0-d519-4864-984c-ddffbbfe2bd7"},"vehicle_type_id":"4","last_reported":1742123309,"current_range_meters":10000,"station_id":"ce4bhl12rcd13ifvqgf0","pricing_plan_id":"cebpf4jnsgd1na2vs0mg"},{"bike_id":"e8e1131d-a2a0-46d6-b372-ab52c07492c6","system_id":"levelo_inurba_marseille","lat":43.2759,"lon":5.42441,"is_reserved":false,"is_disabled":false,"rental_uris":{"android":"levelo://app?vid=e8e1131d-a2a0-46d6-b372-ab52c07492c6","ios":"levelo://app?vid=e8e1131d-a2a0-46d6-b372-ab52c07492c6"},"vehicle_type_id":"4","last_reported":1742123309,"current_range_meters":10000,"station_id":"","pricing_plan_id":"cebpf4jnsgd1na2vs0mg"},{"bike_id":"66d6e7ef-3ad0-49a5-bdf1-094ad3c64950","system_id":"levelo_inurba_marseille","lat":43.24682,"lon":5.38138,"is_reserved":false,"is_disabled":false,"rental_uris":{"android":"levelo://app?vid=66d6e7ef-3ad0-49a5-bdf1-094ad3c64950","ios":"levelo://app?vid=66d6e7ef-3ad0-49a5-bdf1-094ad3c64950"},"vehicle_type_id":"4","last_reported":1742123309,"current_range_meters":10000,"station_id":"ce4bhih2rcd13ifvqfr0","pricing_plan_id":"cebpf4jnsgd1na2vs0mg"},{"bike_id":"3f3e844d-8056-4826-a519-e24eec72528f","system_id":"levelo_inurba_marseille","lat":43.30661,"lon":5.36562,"is_reserved":false,"is_disabled":false,"rental_uris":{"android":"levelo://app?vid=3f3e844d-8056-4826-a519-e24eec72528f","ios":"levelo://app?vid=3f3e844d-8056-4826-a519-e24eec72528f"},"vehicle_type_id":"4","last_reported":1742123309,"current_range_meters":10000,"station_id":"","pricing_plan_id":"cebpf4jnsgd1na2vs0mg"},{"bike_id":"154cf3c7-af45-4b20-b0de-03c546212d0c","system_id":"levelo_inurba_marseille","lat":43.27689,"lon":5.38889,"is_reserved":false,"is_disabled":true,"rental_uris":{"android":"levelo://app?vid=154cf3c7-af45-4b20-b0de-03c546212d0c","ios":"levelo://app?vid=154cf3c7-af45-4b20-b0de-03c546212d0c"},"vehicle_type_id":"4","last_reported":1742123309,"current_range_meters":10000,"station_id":"ce4bhi12rcd13ifvqfo0","pricing_plan_id":"cebpf4jnsgd1na2vs0mg"},{"bike_id":"1d67028e-7f0c-4e86-8e3b-6143125fa3b7","system_id":"levelo_inurba_marseille","lat":43.30926,"lon":5.40141,"is_reserved":false,"is_disabled":false,"rental_uris":{"android":"levelo://app?vid=1d67028e-7f0c-4e86-8e3b-6143125fa3b7","ios":"levelo://app?vid=1d67028e-7f0c-4e86-8e3b-6143125fa3b7"},"vehicle_type_id":"4","last_reported":1742123309,"current_range_meters":10000,"station_id":"ce4bgvp2rcd13ifvqct0","pricing_plan_id":"cebpf4jnsgd1na2vs0mg"},{"bike_id":"60e31e2b-2ab2-4ccb-8ace-5173b6293679","system_id":"levelo_inurba_marseille","lat":43.2738,"lon":5.36263,"is_reserved":false,"is_disabled":false,"rental_uris":{"android":"levelo://app?vid=60e31e2b-2ab2-4ccb-8ace-5173b6293679","ios":"levelo://app?vid=60e31e2b-2ab2-4ccb-8ace-5173b6293679"},"vehicle_type_id":"4","last_reported":1742123309,"current_range_meters":10000,"station_id":"ce4bhbh2rcd13ifvqeo0","pricing_plan_id":"cebpf4jnsgd1na2vs0mg"},{"bike_id":"6b89b69c-0cec-4ab0-a099-7d614bb692e2","system_id":"levelo_inurba_marseille","lat":43.2655,"lon":5.37271,"is_reserved":false,"is_disabled":false,"rental_uris":{"android":"levelo://app?vid=6b89b69c-0cec-4ab0-a099-7d614bb692e2","ios":"levelo://app?vid=6b89b69c-0cec-4ab0-a099-7d614bb692e2"},"vehicle_type_id":"4","last_reported":1742123309,"current_range_meters":10000,"station_id":"ce4bhg12rcd13ifvqf70","pricing_plan_id":"cebpf4jnsgd1na2vs0mg"},{"bike_id":"4e00326a-6b7b-4b6e-a20f-485de16ba98b","system_id":"levelo_inurba_marseille","lat":43.29089,"lon":5.38145,"is_reserved":false,"is_disabled":true,"rental_uris":{"android":"levelo://app?vid=4e00326a-6b7b-4b6e-a20f-485de16ba98b","ios":"levelo://app?vid=4e00326a-6b7b-4b6e-a20f-485de16ba98b"},"vehicle_type_id":"4","last_reported":1742123309,"current_range_meters":10800,"station_id":"ce4bh512rcd13ifvqe2g","pricing_plan_id":"cebpf4jnsgd1na2vs0mg"},{"bike_id":"f876773a-fec2-4503-8f9a-c65b00603ae5","system_id":"levelo_inurba_marseille","lat":43.24084,"lon":5.37752,"is_reserved":false,"is_disabled":false,"rental_uris":{"android":"levelo://app?vid=f876773a-fec2-4503-8f9a-c65b00603ae5","ios":"levelo://app?vid=f876773a-fec2-4503-8f9a-c65b00603ae5"},"vehicle_type_id":"4","last_reported":1742123309,"current_range_meters":10800,"station_id":"ce4bhnp2rcd13ifvqgvg","pricing_plan_id":"cebpf4jnsgd1na2vs0mg"},{"bike_id":"30a3f5aa-8adb-417a-a2c9-dedb0fb285b3","system_id":"levelo_inurba_marseille","lat":43.28998,"lon":5.37833,"is_reserved":false,"is_disabled":true,"rental_uris":{"android":"levelo://app?vid=30a3f5aa-8adb-417a-a2c9-dedb0fb285b3","ios":"levelo://app?vid=30a3f5aa-8adb-417a-a2c9-dedb0fb285b3"},"vehicle_type_id":"4","last_reported":1742123309,"current_range_meters":10800,"station_id":"ce4bh9p2rcd13ifvqed0","pricing_plan_id":"cebpf4jnsgd1na2vs0mg"},{"bike_id":"30e9b25b-aec7-4e6e-b1ac-ba1edff362f1","system_id":"levelo_inurba_marseille","lat":43.23055,"lon":5.35492,"is_reserved":false,"is_disabled":false,"rental_uris":{"android":"levelo://app?vid=30e9b25b-aec7-4e6e-b1ac-ba1edff362f1","ios":"levelo://app?vid=30e9b25b-aec7-4e6e-b1ac-ba1edff362f1"},"vehicle_type_id":"4","last_reported":1742123309,"current_range_meters":10800,"station_id":"cpo3342slgdg3j2ifvpg","pricing_plan_id":"cebpf4jnsgd1na2vs0mg"},{"bike_id":"9d8efe52-4253-46af-b40f-bf8652412f63","system_id":"levelo_inurba_marseille","lat":43.29514,"lon":5.39392,"is_reserved":false,"is_disabled":true,"rental_uris":{"android":"levelo://app?vid=9d8efe52-4253-46af-b40f-bf8652412f63","ios":"levelo://app?vid=9d8efe52-4253-46af-b40f-bf8652412f63"},"vehicle_type_id":"4","last_reported":1742123309,"current_range_meters":10800,"station_id":"ce4bh292rcd13ifvqdf0","pricing_plan_id":"cebpf4jnsgd1na2vs0mg"},{"bike_id":"e047eb05-c84e-4eb9-a430-24d024850b6f","system_id":"levelo_inurba_marseille","lat":43.22945,"lon":5.35374,"is_reserved":false,"is_disabled":false,"rental_uris":{"android":"levelo://app?vid=e047eb05-c84e-4eb9-a430-24d024850b6f","ios":"levelo://app?vid=e047eb05-c84e-4eb9-a430-24d024850b6f"},"vehicle_type_id":"4","last_reported":1742123309,"current_range_meters":10800,"station_id":"cpo3532slgdg3j2ikp40","pricing_plan_id":"cebpf4jnsgd1na2vs0mg"},{"bike_id":"38de9398-607b-4e38-b181-28a0e85a0172","system_id":"levelo_inurba_marseille","lat":43.2903,"lon":5.38645,"is_reserved":false,"is_disabled":true,"rental_uris":{"android":"levelo://app?vid=38de9398-607b-4e38-b181-28a0e85a0172","ios":"levelo://app?vid=38de9398-607b-4e38-b181-28a0e85a0172"},"vehicle_type_id":"4","last_reported":1742123309,"current_range_meters":10800,"station_id":"ce4bh4p2rcd13ifvqe0g","pricing_plan_id":"cebpf4jnsgd1na2vs0mg"},{"bike_id":"7099c38a-2986-4dc9-9398-307b562f7d30","system_id":"levelo_inurba_marseille","lat":43.25933,"lon":5.4087,"is_reserved":false,"is_disabled":false,"rental_uris":{"android":"levelo://app?vid=7099c38a-2986-4dc9-9398-307b562f7d30","ios":"levelo://app?vid=7099c38a-2986-4dc9-9398-307b562f7d30"},"vehicle_type_id":"4","last_reported":1742123309,"current_range_meters":10800,"station_id":"ce4bhm92rcd13ifvqglg","pricing_plan_id":"cebpf4jnsgd1na2vs0mg"},{"bike_id":"40ac78b7-73af-437f-9369-cc2660832141","system_id":"levelo_inurba_marseille","lat":43.2971,"lon":5.36608,"is_reserved":false,"is_disabled":false,"rental_uris":{"android":"levelo://app?vid=40ac78b7-73af-437f-9369-cc2660832141","ios":"levelo://app?vid=40ac78b7-73af-437f-9369-cc2660832141"},"vehicle_type_id":"4","last_reported":1742123309,"current_range_meters":10800,"station_id":"ce4bgn12rcd13ifvqbt0","pricing_plan_id":"cebpf4jnsgd1na2vs0mg"},{"bike_id":"3c528f7f-712c-435c-b5d4-a5694a485d73","system_id":"levelo_inurba_marseille","lat":43.29899,"lon":5.43665,"is_reserved":false,"is_disabled":false,"rental_uris":{"android":"levelo://app?vid=3c528f7f-712c-435c-b5d4-a5694a485d73","ios":"levelo://app?vid=3c528f7f-712c-435c-b5d4-a5694a485d73"},"vehicle_type_id":"4","last_reported":1742123309,"current_range_meters":10800,"station_id":"ce4bhpp2rcd13ifvqhfg","pricing_plan_id":"cebpf4jnsgd1na2vs0mg"},{"bike_id":"c27dba79-96e1-41c9-ad98-8ff76a1c1b98","system_id":"levelo_inurba_marseille","lat":43.23153,"lon":5.43705,"is_reserved":false,"is_disabled":false,"rental_uris":{"android":"levelo://app?vid=c27dba79-96e1-41c9-ad98-8ff76a1c1b98","ios":"levelo://app?vid=c27dba79-96e1-41c9-ad98-8ff76a1c1b98"},"vehicle_type_id":"4","last_reported":1742123309,"current_range_meters":10800,"station_id":"ce4bhmp2rcd13ifvqgog","pricing_plan_id":"cebpf4jnsgd1na2vs0mg"},{"bike_id":"798e4424-938e-4a81-9e7c-4246567321c5","system_id":"levelo_inurba_marseille","lat":43.24774,"lon":5.41148,"is_reserved":false,"is_disabled":false,"rental_uris":{"android":"levelo://app?vid=798e4424-938e-4a81-9e7c-4246567321c5","ios":"levelo://app?vid=798e4424-938e-4a81-9e7c-4246567321c5"},"vehicle_type_id":"4","last_reported":1742123309,"current_range_meters":10800,"station_id":"","pricing_plan_id":"cebpf4jnsgd1na2vs0mg"},{"bike_id":"ddfd441a-5908-4924-b0a5-22211bf4262c","system_id":"levelo_inurba_marseille","lat":43.30639,"lon":5.36558,"is_reserved":false,"is_disabled":false,"rental_uris":{"android":"levelo://app?vid=ddfd441a-5908-4924-b0a5-22211bf4262c","ios":"levelo://app?vid=ddfd441a-5908-4924-b0a5-22211bf4262c"},"vehicle_type_id":"4","last_reported":1742123309,"current_range_meters":10800,"station_id":"ce4bhb92rcd13ifvqen0","pricing_plan_id":"cebpf4jnsgd1na2vs0mg"},{"bike_id":"084e9cd0-ba7b-4410-911b-bd29122b16f6","system_id":"levelo_inurba_marseille","lat":43.24161,"lon":5.3638,"is_reserved":false,"is_disabled":false,"rental_uris":{"android":"levelo://app?vid=084e9cd0-ba7b-4410-911b-bd29122b16f6","ios":"levelo://app?vid=084e9cd0-ba7b-4410-911b-bd29122b16f6"},"vehicle_type_id":"4","last_reported":1742123309,"current_range_meters":10800,"station_id":"cpo36qri1sfpv3e86is0","pricing_plan_id":"cebpf4jnsgd1na2vs0mg"},{"bike_id":"4549606e-1a9d-4451-8345-0f7715d3d138","system_id":"levelo_inurba_marseille","lat":43.30934,"lon":5.40147,"is_reserved":false,"is_disabled":false,"rental_uris":{"android":"levelo://app?vid=4549606e-1a9d-4451-8345-0f7715d3d138","ios":"levelo://app?vid=4549606e-1a9d-4451-8345-0f7715d3d138"},"vehicle_type_id":"4","last_reported":1742123309,"current_range_meters":10800,"station_id":"ce4bgvp2rcd13ifvqct0","pricing_plan_id":"cebpf4jnsgd1na2vs0mg"},{"bike_id":"1e9f3f53-e48b-47c9-8a7a-3842fe9d86ab","system_id":"levelo_inurba_marseille","lat":43.28729,"lon":5.39996,"is_reserved":false,"is_disabled":true,"rental_uris":{"android":"levelo://app?vid=1e9f3f53-e48b-47c9-8a7a-3842fe9d86ab","ios":"levelo://app?vid=1e9f3f53-e48b-47c9-8a7a-3842fe9d86ab"},"vehicle_type_id":"4","last_reported":1742123309,"current_range_meters":10800,"station_id":"ce4bho92rcd13ifvqh3g","pricing_plan_id":"cebpf4jnsgd1na2vs0mg"},{"bike_id":"ea8341a4-8b40-4094-899f-a54e1556d3ac","system_id":"levelo_inurba_marseille","lat":43.31169,"lon":5.38716,"is_reserved":false,"is_disabled":false,"rental_uris":{"android":"levelo://app?vid=ea8341a4-8b40-4094-899f-a54e1556d3ac","ios":"levelo://app?vid=ea8341a4-8b40-4094-899f-a54e1556d3ac"},"vehicle_type_id":"4","last_reported":1742123309,"current_range_meters":10800,"station_id":"ce4bgv12rcd13ifvqcp0","pricing_plan_id":"cebpf4jnsgd1na2vs0mg"},{"bike_id":"91f6fd4e-85ff-4e4a-a643-24c8d6f69d93","system_id":"levelo_inurba_marseille","lat":43.25112,"lon":5.40318,"is_reserved":false,"is_disabled":false,"rental_uris":{"android":"levelo://app?vid=91f6fd4e-85ff-4e4a-a643-24c8d6f69d93","ios":"levelo://app?vid=91f6fd4e-85ff-4e4a-a643-24c8d6f69d93"},"vehicle_type_id":"4","last_reported":1742123309,"current_range_meters":11200,"station_id":"ce4bhlh2rcd13ifvqgig","pricing_plan_id":"cebpf4jnsgd1na2vs0mg"},{"bike_id":"d02fd904-f59b-44a3-9dd4-a47543f14708","system_id":"levelo_inurba_marseille","lat":43.26199,"lon":5.37922,"is_reserved":false,"is_disabled":false,"rental_uris":{"android":"levelo://app?vid=d02fd904-f59b-44a3-9dd4-a47543f14708","ios":"levelo://app?vid=d02fd904-f59b-44a3-9dd4-a47543f14708"},"vehicle_type_id":"4","last_reported":1742123309,"current_range_meters":11200,"station_id":"ce4bhjp2rcd13ifvqg90","pricing_plan_id":"cebpf4jnsgd1na2vs0mg"},{"bike_id":"d0ab3f6c-34ec-451c-af14-ef7ecc490d6b","system_id":"levelo_inurba_marseille","lat":43.23147,"lon":5.43706,"is_reserved":false,"is_disabled":false,"rental_uris":{"android":"levelo://app?vid=d0ab3f6c-34ec-451c-af14-ef7ecc490d6b","ios":"levelo://app?vid=d0ab3f6c-34ec-451c-af14-ef7ecc490d6b"},"vehicle_type_id":"4","last_reported":1742123309,"current_range_meters":11200,"station_id":"ce4bhmp2rcd13ifvqgog","pricing_plan_id":"cebpf4jnsgd1na2vs0mg"},{"bike_id":"10a5dfbf-3aa3-4cf3-ac17-cd4d12fd6782","system_id":"levelo_inurba_marseille","lat":43.32359,"lon":5.36745,"is_reserved":false,"is_disabled":false,"rental_uris":{"android":"levelo://app?vid=10a5dfbf-3aa3-4cf3-ac17-cd4d12fd6782","ios":"levelo://app?vid=10a5dfbf-3aa3-4cf3-ac17-cd4d12fd6782"},"vehicle_type_id":"4","last_reported":1742123309,"current_range_meters":11200,"station_id":"ce4bhsh2rcd13ifvqi2g","pricing_plan_id":"cebpf4jnsgd1na2vs0mg"},{"bike_id":"305af8d8-2578-4881-b2c9-fd24a18addf3","system_id":"levelo_inurba_marseille","lat":43.30151,"lon":5.38082,"is_reserved":false,"is_disabled":false,"rental_uris":{"android":"levelo://app?vid=305af8d8-2578-4881-b2c9-fd24a18addf3","ios":"levelo://app?vid=305af8d8-2578-4881-b2c9-fd24a18addf3"},"vehicle_type_id":"4","last_reported":1742123309,"current_range_meters":9600,"station_id":"ce4bgjp2rcd13ifvqbh0","pricing_plan_id":"cebpf4jnsgd1na2vs0mg"},{"bike_id":"3268e7a9-85dc-4e76-b2d6-ce004b62be95","system_id":"levelo_inurba_marseille","lat":43.26028,"lon":5.39373,"is_reserved":false,"is_disabled":false,"rental_uris":{"android":"levelo://app?vid=3268e7a9-85dc-4e76-b2d6-ce004b62be95","ios":"levelo://app?vid=3268e7a9-85dc-4e76-b2d6-ce004b62be95"},"vehicle_type_id":"4","last_reported":1742123309,"current_range_meters":11200,"station_id":"ce4bhh92rcd13ifvqfj0","pricing_plan_id":"cebpf4jnsgd1na2vs0mg"},{"bike_id":"1559ed1f-4039-425c-b3d7-1da981a02f75","system_id":"levelo_inurba_marseille","lat":43.23064,"lon":5.35467,"is_reserved":false,"is_disabled":false,"rental_uris":{"android":"levelo://app?vid=1559ed1f-4039-425c-b3d7-1da981a02f75","ios":"levelo://app?vid=1559ed1f-4039-425c-b3d7-1da981a02f75"},"vehicle_type_id":"4","last_reported":1742123309,"current_range_meters":11200,"station_id":"cpo3342slgdg3j2ifvpg","pricing_plan_id":"cebpf4jnsgd1na2vs0mg"},{"bike_id":"a2df54e8-18e4-4021-8fec-e9c5b477e7ad","system_id":"levelo_inurba_marseille","lat":43.2465,"lon":5.3889,"is_reserved":false,"is_disabled":false,"rental_uris":{"android":"levelo://app?vid=a2df54e8-18e4-4021-8fec-e9c5b477e7ad","ios":"levelo://app?vid=a2df54e8-18e4-4021-8fec-e9c5b477e7ad"},"vehicle_type_id":"4","last_reported":1742123309,"current_range_meters":11200,"station_id":"ce4bhg12rcd13ifvqf60","pricing_plan_id":"cebpf4jnsgd1na2vs0mg"},{"bike_id":"7ce91338-9f41-428e-ba9d-3166c279dfc0","system_id":"levelo_inurba_marseille","lat":43.27429,"lon":5.39433,"is_reserved":false,"is_disabled":false,"rental_uris":{"android":"levelo://app?vid=7ce91338-9f41-428e-ba9d-3166c279dfc0","ios":"levelo://app?vid=7ce91338-9f41-428e-ba9d-3166c279dfc0"},"vehicle_type_id":"4","last_reported":1742123309,"current_range_meters":11600,"station_id":"ce4bhdp2rcd13ifvqf20","pricing_plan_id":"cebpf4jnsgd1na2vs0mg"},{"bike_id":"b881a216-a8e0-47ad-9c6d-ce879391627c","system_id":"levelo_inurba_marseille","lat":43.29959,"lon":5.36513,"is_reserved":false,"is_disabled":true,"rental_uris":{"android":"levelo://app?vid=b881a216-a8e0-47ad-9c6d-ce879391627c","ios":"levelo://app?vid=b881a216-a8e0-47ad-9c6d-ce879391627c"},"vehicle_type_id":"4","last_reported":1742123309,"current_range_meters":11600,"station_id":"","pricing_plan_id":"cebpf4jnsgd1na2vs0mg"},{"bike_id":"e82b4d4f-3141-4c8c-8364-1f500b27533f","system_id":"levelo_inurba_marseille","lat":43.28669,"lon":5.36344,"is_reserved":false,"is_disabled":false,"rental_uris":{"android":"levelo://app?vid=e82b4d4f-3141-4c8c-8364-1f500b27533f","ios":"levelo://app?vid=e82b4d4f-3141-4c8c-8364-1f500b27533f"},"vehicle_type_id":"4","last_reported":1742123309,"current_range_meters":11600,"station_id":"ce4bhah2rcd13ifvqej0","pricing_plan_id":"cebpf4jnsgd1na2vs0mg"},{"bike_id":"1c8bc525-a68a-49c4-bae1-738b1835cf46","system_id":"levelo_inurba_marseille","lat":43.27492,"lon":5.42448,"is_reserved":false,"is_disabled":false,"rental_uris":{"android":"levelo://app?vid=1c8bc525-a68a-49c4-bae1-738b1835cf46","ios":"levelo://app?vid=1c8bc525-a68a-49c4-bae1-738b1835cf46"},"vehicle_type_id":"4","last_reported":1742123309,"current_range_meters":11600,"station_id":"ce4bhn92rcd13ifvqgrg","pricing_plan_id":"cebpf4jnsgd1na2vs0mg"},{"bike_id":"00e7db59-0c40-496b-9dd3-52777264748b","system_id":"levelo_inurba_marseille","lat":43.28467,"lon":5.35877,"is_reserved":false,"is_disabled":false,"rental_uris":{"android":"levelo://app?vid=00e7db59-0c40-496b-9dd3-52777264748b","ios":"levelo://app?vid=00e7db59-0c40-496b-9dd3-52777264748b"},"vehicle_type_id":"4","last_reported":1742123309,"current_range_meters":11600,"station_id":"ce4bhah2rcd13ifvqei0","pricing_plan_id":"cebpf4jnsgd1na2vs0mg"},{"bike_id":"f07d3688-725c-41a9-996a-4490c49d77e9","system_id":"levelo_inurba_marseille","lat":43.29558,"lon":5.42289,"is_reserved":false,"is_disabled":false,"rental_uris":{"android":"levelo://app?vid=f07d3688-725c-41a9-996a-4490c49d77e9","ios":"levelo://app?vid=f07d3688-725c-41a9-996a-4490c49d77e9"},"vehicle_type_id":"4","last_reported":1742123309,"current_range_meters":11600,"station_id":"ce4bhph2rcd13ifvqhdg","pricing_plan_id":"cebpf4jnsgd1na2vs0mg"},{"bike_id":"9fb29984-4002-448d-833e-af2a3ce13467","system_id":"levelo_inurba_marseille","lat":43.29741,"lon":5.37656,"is_reserved":false,"is_disabled":true,"rental_uris":{"android":"levelo://app?vid=9fb29984-4002-448d-833e-af2a3ce13467","ios":"levelo://app?vid=9fb29984-4002-448d-833e-af2a3ce13467"},"vehicle_type_id":"4","last_reported":1742123309,"current_range_meters":11600,"station_id":"ce4bgkh2rcd13ifvqbl0","pricing_plan_id":"cebpf4jnsgd1na2vs0mg"},{"bike_id":"b087fba8-269e-4109-9c0a-77de2f9cf2f2","system_id":"levelo_inurba_marseille","lat":43.32338,"lon":5.36734,"is_reserved":false,"is_disabled":false,"rental_uris":{"android":"levelo://app?vid=b087fba8-269e-4109-9c0a-77de2f9cf2f2","ios":"levelo://app?vid=b087fba8-269e-4109-9c0a-77de2f9cf2f2"},"vehicle_type_id":"4","last_reported":1742123309,"current_range_meters":12000,"station_id":"ce4bhsh2rcd13ifvqi2g","pricing_plan_id":"cebpf4jnsgd1na2vs0mg"},{"bike_id":"fe0e3b04-6b30-4df2-8a29-efcb01c99aa5","system_id":"levelo_inurba_marseille","lat":43.25498,"lon":5.3765,"is_reserved":false,"is_disabled":false,"rental_uris":{"android":"levelo://app?vid=fe0e3b04-6b30-4df2-8a29-efcb01c99aa5","ios":"levelo://app?vid=fe0e3b04-6b30-4df2-8a29-efcb01c99aa5"},"vehicle_type_id":"4","last_reported":1742123309,"current_range_meters":12000,"station_id":"ce4bhh12rcd13ifvqff0","pricing_plan_id":"cebpf4jnsgd1na2vs0mg"},{"bike_id":"1f9a9668-f20a-4b32-9dce-dfb024996834","system_id":"levelo_inurba_marseille","lat":43.29024,"lon":5.38636,"is_reserved":false,"is_disabled":true,"rental_uris":{"android":"levelo://app?vid=1f9a9668-f20a-4b32-9dce-dfb024996834","ios":"levelo://app?vid=1f9a9668-f20a-4b32-9dce-dfb024996834"},"vehicle_type_id":"4","last_reported":1742123309,"current_range_meters":12000,"station_id":"ce4bh4p2rcd13ifvqe0g","pricing_plan_id":"cebpf4jnsgd1na2vs0mg"},{"bike_id":"49fea2c2-9361-4fb5-954f-b44bbf354e43","system_id":"levelo_inurba_marseille","lat":43.32374,"lon":5.3679,"is_reserved":false,"is_disabled":false,"rental_uris":{"android":"levelo://app?vid=49fea2c2-9361-4fb5-954f-b44bbf354e43","ios":"levelo://app?vid=49fea2c2-9361-4fb5-954f-b44bbf354e43"},"vehicle_type_id":"4","last_reported":1742123309,"current_range_meters":12000,"station_id":"ce4bhsh2rcd13ifvqi2g","pricing_plan_id":"cebpf4jnsgd1na2vs0mg"},{"bike_id":"33582f36-4ee7-497c-847e-7cec62c00709","system_id":"levelo_inurba_marseille","lat":43.319032,"lon":5.390332,"is_reserved":false,"is_disabled":false,"rental_uris":{"android":"levelo://app?vid=33582f36-4ee7-497c-847e-7cec62c00709","ios":"levelo://app?vid=33582f36-4ee7-497c-847e-7cec62c00709"},"vehicle_type_id":"4","last_reported":1742123309,"current_range_meters":12400,"station_id":"ce4bgt92rcd13ifvqcg0","pricing_plan_id":"cebpf4jnsgd1na2vs0mg"},{"bike_id":"d6cd0df4-ca0d-407c-ac60-8420479f0dd1","system_id":"levelo_inurba_marseille","lat":43.23041,"lon":5.35451,"is_reserved":false,"is_disabled":false,"rental_uris":{"android":"levelo://app?vid=d6cd0df4-ca0d-407c-ac60-8420479f0dd1","ios":"levelo://app?vid=d6cd0df4-ca0d-407c-ac60-8420479f0dd1"},"vehicle_type_id":"4","last_reported":1742123309,"current_range_meters":12400,"station_id":"cpo3342slgdg3j2ifvpg","pricing_plan_id":"cebpf4jnsgd1na2vs0mg"},{"bike_id":"c9833875-24b0-4291-9cd3-12e118edc88b","system_id":"levelo_inurba_marseille","lat":43.22935,"lon":5.35373,"is_reserved":false,"is_disabled":false,"rental_uris":{"android":"levelo://app?vid=c9833875-24b0-4291-9cd3-12e118edc88b","ios":"levelo://app?vid=c9833875-24b0-4291-9cd3-12e118edc88b"},"vehicle_type_id":"4","last_reported":1742123309,"current_range_meters":12400,"station_id":"cpo3532slgdg3j2ikp40","pricing_plan_id":"cebpf4jnsgd1na2vs0mg"},{"bike_id":"5a61a616-683f-484d-83ae-d7f61143d634","system_id":"levelo_inurba_marseille","lat":43.29517,"lon":5.42478,"is_reserved":false,"is_disabled":false,"rental_uris":{"android":"levelo://app?vid=5a61a616-683f-484d-83ae-d7f61143d634","ios":"levelo://app?vid=5a61a616-683f-484d-83ae-d7f61143d634"},"vehicle_type_id":"4","last_reported":1742123309,"current_range_meters":12400,"station_id":"","pricing_plan_id":"cebpf4jnsgd1na2vs0mg"},{"bike_id":"659cfc6c-f2ba-4758-b6de-6943e7c2dc48","system_id":"levelo_inurba_marseille","lat":43.28705,"lon":5.37386,"is_reserved":false,"is_disabled":true,"rental_uris":{"android":"levelo://app?vid=659cfc6c-f2ba-4758-b6de-6943e7c2dc48","ios":"levelo://app?vid=659cfc6c-f2ba-4758-b6de-6943e7c2dc48"},"vehicle_type_id":"4","last_reported":1742123309,"current_range_meters":12400,"station_id":"ce4bh3p2rcd13ifvqdq0","pricing_plan_id":"cebpf4jnsgd1na2vs0mg"},{"bike_id":"8a7afd3a-f457-4f41-aec7-7267469e5c57","system_id":"levelo_inurba_marseille","lat":43.25015,"lon":5.3891,"is_reserved":false,"is_disabled":false,"rental_uris":{"android":"levelo://app?vid=8a7afd3a-f457-4f41-aec7-7267469e5c57","ios":"levelo://app?vid=8a7afd3a-f457-4f41-aec7-7267469e5c57"},"vehicle_type_id":"4","last_reported":1742123309,"current_range_meters":12400,"station_id":"ce4bhgp2rcd13ifvqfd0","pricing_plan_id":"cebpf4jnsgd1na2vs0mg"},{"bike_id":"6f2aadaa-d8be-4737-b312-41d1575596f5","system_id":"levelo_inurba_marseille","lat":43.24176,"lon":5.36403,"is_reserved":false,"is_disabled":false,"rental_uris":{"android":"levelo://app?vid=6f2aadaa-d8be-4737-b312-41d1575596f5","ios":"levelo://app?vid=6f2aadaa-d8be-4737-b312-41d1575596f5"},"vehicle_type_id":"4","last_reported":1742123309,"current_range_meters":12400,"station_id":"cpo36qri1sfpv3e86is0","pricing_plan_id":"cebpf4jnsgd1na2vs0mg"},{"bike_id":"db22b846-a7bf-4bdb-a930-fc6a97e9e150","system_id":"levelo_inurba_marseille","lat":43.3237,"lon":5.38884,"is_reserved":false,"is_disabled":false,"rental_uris":{"android":"levelo://app?vid=db22b846-a7bf-4bdb-a930-fc6a97e9e150","ios":"levelo://app?vid=db22b846-a7bf-4bdb-a930-fc6a97e9e150"},"vehicle_type_id":"4","last_reported":1742123309,"current_range_meters":12400,"station_id":"ce4bhqp2rcd13ifvqhog","pricing_plan_id":"cebpf4jnsgd1na2vs0mg"},{"bike_id":"f53d0f82-046c-406b-baa6-7084892c355d","system_id":"levelo_inurba_marseille","lat":43.27912,"lon":5.39578,"is_reserved":false,"is_disabled":false,"rental_uris":{"android":"levelo://app?vid=f53d0f82-046c-406b-baa6-7084892c355d","ios":"levelo://app?vid=f53d0f82-046c-406b-baa6-7084892c355d"},"vehicle_type_id":"4","last_reported":1742123309,"current_range_meters":12800,"station_id":"ce4bhf92rcd13ifvqf40","pricing_plan_id":"cebpf4jnsgd1na2vs0mg"},{"bike_id":"16396f8a-6f3f-459c-9334-ba10d1aa3656","system_id":"levelo_inurba_marseille","lat":43.25008,"lon":5.38938,"is_reserved":false,"is_disabled":false,"rental_uris":{"android":"levelo://app?vid=16396f8a-6f3f-459c-9334-ba10d1aa3656","ios":"levelo://app?vid=16396f8a-6f3f-459c-9334-ba10d1aa3656"},"vehicle_type_id":"4","last_reported":1742123309,"current_range_meters":12800,"station_id":"ce4bhgp2rcd13ifvqfd0","pricing_plan_id":"cebpf4jnsgd1na2vs0mg"},{"bike_id":"ce157c99-2b38-44c1-b6a5-db708ae225d5","system_id":"levelo_inurba_marseille","lat":43.24069,"lon":5.37737,"is_reserved":false,"is_disabled":false,"rental_uris":{"android":"levelo://app?vid=ce157c99-2b38-44c1-b6a5-db708ae225d5","ios":"levelo://app?vid=ce157c99-2b38-44c1-b6a5-db708ae225d5"},"vehicle_type_id":"4","last_reported":1742123309,"current_range_meters":12800,"station_id":"ce4bhnp2rcd13ifvqgvg","pricing_plan_id":"cebpf4jnsgd1na2vs0mg"},{"bike_id":"760b38d2-79b4-4c3c-b4bb-02586e46e837","system_id":"levelo_inurba_marseille","lat":43.30795,"lon":5.38149,"is_reserved":false,"is_disabled":true,"rental_uris":{"android":"levelo://app?vid=760b38d2-79b4-4c3c-b4bb-02586e46e837","ios":"levelo://app?vid=760b38d2-79b4-4c3c-b4bb-02586e46e837"},"vehicle_type_id":"4","last_reported":1742123309,"current_range_meters":12800,"station_id":"ce4bgt12rcd13ifvqce0","pricing_plan_id":"cebpf4jnsgd1na2vs0mg"},{"bike_id":"e020ed0c-3cf1-4b5a-831b-90e4c437697d","system_id":"levelo_inurba_marseille","lat":43.24801,"lon":5.37453,"is_reserved":false,"is_disabled":false,"rental_uris":{"android":"levelo://app?vid=e020ed0c-3cf1-4b5a-831b-90e4c437697d","ios":"levelo://app?vid=e020ed0c-3cf1-4b5a-831b-90e4c437697d"},"vehicle_type_id":"4","last_reported":1742123309,"current_range_meters":12800,"station_id":"ce4bhgh2rcd13ifvqfb0","pricing_plan_id":"cebpf4jnsgd1na2vs0mg"},{"bike_id":"1833b2d8-a9b2-4c69-9fb9-42b1977a2e31","system_id":"levelo_inurba_marseille","lat":43.29939,"lon":5.36547,"is_reserved":false,"is_disabled":false,"rental_uris":{"android":"levelo://app?vid=1833b2d8-a9b2-4c69-9fb9-42b1977a2e31","ios":"levelo://app?vid=1833b2d8-a9b2-4c69-9fb9-42b1977a2e31"},"vehicle_type_id":"4","last_reported":1742123309,"current_range_meters":13600,"station_id":"ce4bgm92rcd13ifvqbr0","pricing_plan_id":"cebpf4jnsgd1na2vs0mg"},{"bike_id":"59327a6d-8a2d-440e-8c46-aeb42f7e30ee","system_id":"levelo_inurba_marseille","lat":43.2862,"lon":5.35105,"is_reserved":false,"is_disabled":false,"rental_uris":{"android":"levelo://app?vid=59327a6d-8a2d-440e-8c46-aeb42f7e30ee","ios":"levelo://app?vid=59327a6d-8a2d-440e-8c46-aeb42f7e30ee"},"vehicle_type_id":"4","last_reported":1742123309,"current_range_meters":13600,"station_id":"ce4bhch2rcd13ifvqeug","pricing_plan_id":"cebpf4jnsgd1na2vs0mg"},{"bike_id":"502a3b3e-8957-45c1-a4dd-1cb7cf5ee2e2","system_id":"levelo_inurba_marseille","lat":43.32119,"lon":5.36756,"is_reserved":false,"is_disabled":false,"rental_uris":{"android":"levelo://app?vid=502a3b3e-8957-45c1-a4dd-1cb7cf5ee2e2","ios":"levelo://app?vid=502a3b3e-8957-45c1-a4dd-1cb7cf5ee2e2"},"vehicle_type_id":"4","last_reported":1742123309,"current_range_meters":13600,"station_id":"ce4bhrh2rcd13ifvqhug","pricing_plan_id":"cebpf4jnsgd1na2vs0mg"},{"bike_id":"3520f3bb-4528-4ad1-809d-2a8fd5bfa089","system_id":"levelo_inurba_marseille","lat":43.26694,"lon":5.38277,"is_reserved":false,"is_disabled":false,"rental_uris":{"android":"levelo://app?vid=3520f3bb-4528-4ad1-809d-2a8fd5bfa089","ios":"levelo://app?vid=3520f3bb-4528-4ad1-809d-2a8fd5bfa089"},"vehicle_type_id":"4","last_reported":1742123309,"current_range_meters":13600,"station_id":"ce4bhg92rcd13ifvqf90","pricing_plan_id":"cebpf4jnsgd1na2vs0mg"},{"bike_id":"f15bf85b-f437-4600-ab7c-3425f46f902d","system_id":"levelo_inurba_marseille","lat":43.284142,"lon":5.349685,"is_reserved":false,"is_disabled":false,"rental_uris":{"android":"levelo://app?vid=f15bf85b-f437-4600-ab7c-3425f46f902d","ios":"levelo://app?vid=f15bf85b-f437-4600-ab7c-3425f46f902d"},"vehicle_type_id":"4","last_reported":1742123309,"current_range_meters":13600,"station_id":"ce4bgkh2rcd13ifvqbl0","pricing_plan_id":"cebpf4jnsgd1na2vs0mg"},{"bike_id":"ea3faa2e-2727-4cd3-a354-57574da4893b","system_id":"levelo_inurba_marseille","lat":43.2417,"lon":5.36397,"is_reserved":false,"is_disabled":false,"rental_uris":{"android":"levelo://app?vid=ea3faa2e-2727-4cd3-a354-57574da4893b","ios":"levelo://app?vid=ea3faa2e-2727-4cd3-a354-57574da4893b"},"vehicle_type_id":"4","last_reported":1742123309,"current_range_meters":13600,"station_id":"cpo36qri1sfpv3e86is0","pricing_plan_id":"cebpf4jnsgd1na2vs0mg"},{"bike_id":"e39aff96-0142-46d0-807b-703830dfcf78","system_id":"levelo_inurba_marseille","lat":43.286136,"lon":5.35108,"is_reserved":false,"is_disabled":true,"rental_uris":{"android":"levelo://app?vid=e39aff96-0142-46d0-807b-703830dfcf78","ios":"levelo://app?vid=e39aff96-0142-46d0-807b-703830dfcf78"},"vehicle_type_id":"4","last_reported":1742123309,"current_range_meters":13600,"station_id":"","pricing_plan_id":"cebpf4jnsgd1na2vs0mg"},{"bike_id":"41d856e8-014d-42b4-85e9-2a0a980f469f","system_id":"levelo_inurba_marseille","lat":43.23196,"lon":5.35559,"is_reserved":false,"is_disabled":false,"rental_uris":{"android":"levelo://app?vid=41d856e8-014d-42b4-85e9-2a0a980f469f","ios":"levelo://app?vid=41d856e8-014d-42b4-85e9-2a0a980f469f"},"vehicle_type_id":"4","last_reported":1742123309,"current_range_meters":14000,"station_id":"ce4bhu92rcd13ifvqi70","pricing_plan_id":"cebpf4jnsgd1na2vs0mg"},{"bike_id":"71a4bad0-d6c5-4cc0-b265-df113d90fb10","system_id":"levelo_inurba_marseille","lat":43.31707,"lon":5.43707,"is_reserved":false,"is_disabled":false,"rental_uris":{"android":"levelo://app?vid=71a4bad0-d6c5-4cc0-b265-df113d90fb10","ios":"levelo://app?vid=71a4bad0-d6c5-4cc0-b265-df113d90fb10"},"vehicle_type_id":"4","last_reported":1742123309,"current_range_meters":14000,"station_id":"ce4bhp92rcd13ifvqhcg","pricing_plan_id":"cebpf4jnsgd1na2vs0mg"},{"bike_id":"6f72be03-cc79-473e-ac41-456579e85cb7","system_id":"levelo_inurba_marseille","lat":43.27378,"lon":5.36262,"is_reserved":false,"is_disabled":true,"rental_uris":{"android":"levelo://app?vid=6f72be03-cc79-473e-ac41-456579e85cb7","ios":"levelo://app?vid=6f72be03-cc79-473e-ac41-456579e85cb7"},"vehicle_type_id":"4","last_reported":1742123309,"current_range_meters":14000,"station_id":"ce4bhbh2rcd13ifvqeo0","pricing_plan_id":"cebpf4jnsgd1na2vs0mg"},{"bike_id":"c5c8ebd8-35de-43b8-aadf-5e7822692f81","system_id":"levelo_inurba_marseille","lat":43.28426,"lon":5.34998,"is_reserved":false,"is_disabled":false,"rental_uris":{"android":"levelo://app?vid=c5c8ebd8-35de-43b8-aadf-5e7822692f81","ios":"levelo://app?vid=c5c8ebd8-35de-43b8-aadf-5e7822692f81"},"vehicle_type_id":"4","last_reported":1742123309,"current_range_meters":14000,"station_id":"ce4bhbh2rcd13ifvqepg","pricing_plan_id":"cebpf4jnsgd1na2vs0mg"},{"bike_id":"557bac85-8d64-458b-9a44-6fde55b3f074","system_id":"levelo_inurba_marseille","lat":43.2572,"lon":5.41104,"is_reserved":false,"is_disabled":false,"rental_uris":{"android":"levelo://app?vid=557bac85-8d64-458b-9a44-6fde55b3f074","ios":"levelo://app?vid=557bac85-8d64-458b-9a44-6fde55b3f074"},"vehicle_type_id":"4","last_reported":1742123309,"current_range_meters":14000,"station_id":"ce4bhkp2rcd13ifvqgd0","pricing_plan_id":"cebpf4jnsgd1na2vs0mg"},{"bike_id":"c0d14a55-0953-4c59-b0cd-c76953277ffe","system_id":"levelo_inurba_marseille","lat":43.29741,"lon":5.44713,"is_reserved":false,"is_disabled":false,"rental_uris":{"android":"levelo://app?vid=c0d14a55-0953-4c59-b0cd-c76953277ffe","ios":"levelo://app?vid=c0d14a55-0953-4c59-b0cd-c76953277ffe"},"vehicle_type_id":"4","last_reported":1742123309,"current_range_meters":14000,"station_id":"","pricing_plan_id":"cebpf4jnsgd1na2vs0mg"},{"bike_id":"15114da5-30fb-4fb1-9632-866a9f4be863","system_id":"levelo_inurba_marseille","lat":43.29652,"lon":5.36535,"is_reserved":false,"is_disabled":false,"rental_uris":{"android":"levelo://app?vid=15114da5-30fb-4fb1-9632-866a9f4be863","ios":"levelo://app?vid=15114da5-30fb-4fb1-9632-866a9f4be863"},"vehicle_type_id":"4","last_reported":1742123309,"current_range_meters":14000,"station_id":"","pricing_plan_id":"cebpf4jnsgd1na2vs0mg"},{"bike_id":"6d7c8e24-3a81-4b42-b44a-b110aa3a0970","system_id":"levelo_inurba_marseille","lat":43.2931,"lon":5.36995,"is_reserved":false,"is_disabled":false,"rental_uris":{"android":"levelo://app?vid=6d7c8e24-3a81-4b42-b44a-b110aa3a0970","ios":"levelo://app?vid=6d7c8e24-3a81-4b42-b44a-b110aa3a0970"},"vehicle_type_id":"4","last_reported":1742123309,"current_range_meters":14000,"station_id":"","pricing_plan_id":"cebpf4jnsgd1na2vs0mg"},{"bike_id":"d145bbc7-20a1-43ad-b475-e100ea45a132","system_id":"levelo_inurba_marseille","lat":43.28151,"lon":5.4264,"is_reserved":false,"is_disabled":false,"rental_uris":{"android":"levelo://app?vid=d145bbc7-20a1-43ad-b475-e100ea45a132","ios":"levelo://app?vid=d145bbc7-20a1-43ad-b475-e100ea45a132"},"vehicle_type_id":"4","last_reported":1742123309,"current_range_meters":14400,"station_id":"ce4bhnh2rcd13ifvqgug","pricing_plan_id":"cebpf4jnsgd1na2vs0mg"},{"bike_id":"7fdaba83-9e71-4d79-962d-8e9bcb4ba61b","system_id":"levelo_inurba_marseille","lat":43.23197,"lon":5.35567,"is_reserved":false,"is_disabled":false,"rental_uris":{"android":"levelo://app?vid=7fdaba83-9e71-4d79-962d-8e9bcb4ba61b","ios":"levelo://app?vid=7fdaba83-9e71-4d79-962d-8e9bcb4ba61b"},"vehicle_type_id":"4","last_reported":1742123309,"current_range_meters":14400,"station_id":"ce4bhu92rcd13ifvqi70","pricing_plan_id":"cebpf4jnsgd1na2vs0mg"},{"bike_id":"32fe5bdf-4f2f-45a1-b3c9-eb3103a63632","system_id":"levelo_inurba_marseille","lat":43.2678,"lon":5.39414,"is_reserved":false,"is_disabled":false,"rental_uris":{"android":"levelo://app?vid=32fe5bdf-4f2f-45a1-b3c9-eb3103a63632","ios":"levelo://app?vid=32fe5bdf-4f2f-45a1-b3c9-eb3103a63632"},"vehicle_type_id":"4","last_reported":1742123309,"current_range_meters":14400,"station_id":"ce4bhh12rcd13ifvqfg0","pricing_plan_id":"cebpf4jnsgd1na2vs0mg"},{"bike_id":"13e278b3-c9cb-4550-ad8b-8b4c511558ae","system_id":"levelo_inurba_marseille","lat":43.27455,"lon":5.40892,"is_reserved":false,"is_disabled":false,"rental_uris":{"android":"levelo://app?vid=13e278b3-c9cb-4550-ad8b-8b4c511558ae","ios":"levelo://app?vid=13e278b3-c9cb-4550-ad8b-8b4c511558ae"},"vehicle_type_id":"4","last_reported":1742123309,"current_range_meters":14400,"station_id":"","pricing_plan_id":"cebpf4jnsgd1na2vs0mg"},{"bike_id":"4b396960-0c7c-4973-8ecb-3520a7356a60","system_id":"levelo_inurba_marseille","lat":43.26798,"lon":5.40265,"is_reserved":false,"is_disabled":false,"rental_uris":{"android":"levelo://app?vid=4b396960-0c7c-4973-8ecb-3520a7356a60","ios":"levelo://app?vid=4b396960-0c7c-4973-8ecb-3520a7356a60"},"vehicle_type_id":"4","last_reported":1742123309,"current_range_meters":14400,"station_id":"ce501612rcd8frsf0b60","pricing_plan_id":"cebpf4jnsgd1na2vs0mg"},{"bike_id":"a03e208e-94c1-4a5f-9d61-9150c74ebe8c","system_id":"levelo_inurba_marseille","lat":43.32348,"lon":5.3673,"is_reserved":false,"is_disabled":false,"rental_uris":{"android":"levelo://app?vid=a03e208e-94c1-4a5f-9d61-9150c74ebe8c","ios":"levelo://app?vid=a03e208e-94c1-4a5f-9d61-9150c74ebe8c"},"vehicle_type_id":"4","last_reported":1742123309,"current_range_meters":14400,"station_id":"ce4bhsh2rcd13ifvqi2g","pricing_plan_id":"cebpf4jnsgd1na2vs0mg"},{"bike_id":"db819791-27c1-48de-91ad-79208088cf91","system_id":"levelo_inurba_marseille","lat":43.23192,"lon":5.39976,"is_reserved":false,"is_disabled":false,"rental_uris":{"android":"levelo://app?vid=db819791-27c1-48de-91ad-79208088cf91","ios":"levelo://app?vid=db819791-27c1-48de-91ad-79208088cf91"},"vehicle_type_id":"4","last_reported":1742123309,"current_range_meters":14400,"station_id":"ce4bhn12rcd13ifvqgqg","pricing_plan_id":"cebpf4jnsgd1na2vs0mg"},{"bike_id":"97af83c3-ddee-4269-abac-dfe69820a791","system_id":"levelo_inurba_marseille","lat":43.30928,"lon":5.40099,"is_reserved":false,"is_disabled":false,"rental_uris":{"android":"levelo://app?vid=97af83c3-ddee-4269-abac-dfe69820a791","ios":"levelo://app?vid=97af83c3-ddee-4269-abac-dfe69820a791"},"vehicle_type_id":"4","last_reported":1742123309,"current_range_meters":14400,"station_id":"ce4bgvp2rcd13ifvqct0","pricing_plan_id":"cebpf4jnsgd1na2vs0mg"},{"bike_id":"82817631-790d-487a-8627-112ced24924c","system_id":"levelo_inurba_marseille","lat":43.28632,"lon":5.35085,"is_reserved":false,"is_disabled":false,"rental_uris":{"android":"levelo://app?vid=82817631-790d-487a-8627-112ced24924c","ios":"levelo://app?vid=82817631-790d-487a-8627-112ced24924c"},"vehicle_type_id":"4","last_reported":1742123309,"current_range_meters":14800,"station_id":"ce4bhch2rcd13ifvqeug","pricing_plan_id":"cebpf4jnsgd1na2vs0mg"},{"bike_id":"596e3595-feb7-471a-af88-2b3eed303bf4","system_id":"levelo_inurba_marseille","lat":43.30552,"lon":5.3653,"is_reserved":false,"is_disabled":false,"rental_uris":{"android":"levelo://app?vid=596e3595-feb7-471a-af88-2b3eed303bf4","ios":"levelo://app?vid=596e3595-feb7-471a-af88-2b3eed303bf4"},"vehicle_type_id":"4","last_reported":1742123309,"current_range_meters":14800,"station_id":"ce4bgs12rcd13ifvqcag","pricing_plan_id":"cebpf4jnsgd1na2vs0mg"},{"bike_id":"1ee6c8da-3342-4b7d-8e62-5f4ff0414c03","system_id":"levelo_inurba_marseille","lat":43.2417,"lon":5.36405,"is_reserved":false,"is_disabled":false,"rental_uris":{"android":"levelo://app?vid=1ee6c8da-3342-4b7d-8e62-5f4ff0414c03","ios":"levelo://app?vid=1ee6c8da-3342-4b7d-8e62-5f4ff0414c03"},"vehicle_type_id":"4","last_reported":1742123309,"current_range_meters":14800,"station_id":"cpo36qri1sfpv3e86is0","pricing_plan_id":"cebpf4jnsgd1na2vs0mg"},{"bike_id":"c18be1e5-732f-4269-bc0b-7fd842a819db","system_id":"levelo_inurba_marseille","lat":43.25501,"lon":5.37647,"is_reserved":false,"is_disabled":false,"rental_uris":{"android":"levelo://app?vid=c18be1e5-732f-4269-bc0b-7fd842a819db","ios":"levelo://app?vid=c18be1e5-732f-4269-bc0b-7fd842a819db"},"vehicle_type_id":"4","last_reported":1742123309,"current_range_meters":14800,"station_id":"ce4bhh12rcd13ifvqff0","pricing_plan_id":"cebpf4jnsgd1na2vs0mg"},{"bike_id":"5189287a-880a-46a1-bc5e-d4c1d9f06a31","system_id":"levelo_inurba_marseille","lat":43.2406,"lon":5.37721,"is_reserved":false,"is_disabled":false,"rental_uris":{"android":"levelo://app?vid=5189287a-880a-46a1-bc5e-d4c1d9f06a31","ios":"levelo://app?vid=5189287a-880a-46a1-bc5e-d4c1d9f06a31"},"vehicle_type_id":"4","last_reported":1742123309,"current_range_meters":14800,"station_id":"ce4bhnp2rcd13ifvqgvg","pricing_plan_id":"cebpf4jnsgd1na2vs0mg"},{"bike_id":"ef73c0a8-9f79-486c-afc3-8c0a9b5935ab","system_id":"levelo_inurba_marseille","lat":43.29568,"lon":5.42278,"is_reserved":false,"is_disabled":false,"rental_uris":{"android":"levelo://app?vid=ef73c0a8-9f79-486c-afc3-8c0a9b5935ab","ios":"levelo://app?vid=ef73c0a8-9f79-486c-afc3-8c0a9b5935ab"},"vehicle_type_id":"4","last_reported":1742123309,"current_range_meters":14800,"station_id":"ce4bhph2rcd13ifvqhdg","pricing_plan_id":"cebpf4jnsgd1na2vs0mg"},{"bike_id":"427e312a-6281-4f31-8232-1d7d94c6b83f","system_id":"levelo_inurba_marseille","lat":43.25585,"lon":5.38229,"is_reserved":false,"is_disabled":false,"rental_uris":{"android":"levelo://app?vid=427e312a-6281-4f31-8232-1d7d94c6b83f","ios":"levelo://app?vid=427e312a-6281-4f31-8232-1d7d94c6b83f"},"vehicle_type_id":"4","last_reported":1742123309,"current_range_meters":15200,"station_id":"ce4bhih2rcd13ifvqfs0","pricing_plan_id":"cebpf4jnsgd1na2vs0mg"},{"bike_id":"148966dd-bd16-49b1-89ad-ee45859972d4","system_id":"levelo_inurba_marseille","lat":43.27799,"lon":5.40732,"is_reserved":false,"is_disabled":false,"rental_uris":{"android":"levelo://app?vid=148966dd-bd16-49b1-89ad-ee45859972d4","ios":"levelo://app?vid=148966dd-bd16-49b1-89ad-ee45859972d4"},"vehicle_type_id":"4","last_reported":1742123309,"current_range_meters":15200,"station_id":"ce4bhnh2rcd13ifvqgtg","pricing_plan_id":"cebpf4jnsgd1na2vs0mg"},{"bike_id":"35d51d90-8572-4c19-abff-f7f4cce5627b","system_id":"levelo_inurba_marseille","lat":43.25081,"lon":5.39514,"is_reserved":false,"is_disabled":false,"rental_uris":{"android":"levelo://app?vid=35d51d90-8572-4c19-abff-f7f4cce5627b","ios":"levelo://app?vid=35d51d90-8572-4c19-abff-f7f4cce5627b"},"vehicle_type_id":"4","last_reported":1742123309,"current_range_meters":15200,"station_id":"ce4bhm12rcd13ifvqgkg","pricing_plan_id":"cebpf4jnsgd1na2vs0mg"},{"bike_id":"5a4a7d35-0ef8-41e9-9195-6b8c171d9e40","system_id":"levelo_inurba_marseille","lat":43.25906,"lon":5.4086,"is_reserved":false,"is_disabled":false,"rental_uris":{"android":"levelo://app?vid=5a4a7d35-0ef8-41e9-9195-6b8c171d9e40","ios":"levelo://app?vid=5a4a7d35-0ef8-41e9-9195-6b8c171d9e40"},"vehicle_type_id":"4","last_reported":1742123309,"current_range_meters":15200,"station_id":"ce4bhm92rcd13ifvqglg","pricing_plan_id":"cebpf4jnsgd1na2vs0mg"},{"bike_id":"acae015a-47e9-488b-96c7-da5370995513","system_id":"levelo_inurba_marseille","lat":43.23196,"lon":5.35553,"is_reserved":false,"is_disabled":false,"rental_uris":{"android":"levelo://app?vid=acae015a-47e9-488b-96c7-da5370995513","ios":"levelo://app?vid=acae015a-47e9-488b-96c7-da5370995513"},"vehicle_type_id":"4","last_reported":1742123309,"current_range_meters":15200,"station_id":"ce4bhu92rcd13ifvqi70","pricing_plan_id":"cebpf4jnsgd1na2vs0mg"},{"bike_id":"5cdbb9a2-6976-4915-aa16-1044bd6baac3","system_id":"levelo_inurba_marseille","lat":43.28261,"lon":5.35065,"is_reserved":false,"is_disabled":false,"rental_uris":{"android":"levelo://app?vid=5cdbb9a2-6976-4915-aa16-1044bd6baac3","ios":"levelo://app?vid=5cdbb9a2-6976-4915-aa16-1044bd6baac3"},"vehicle_type_id":"4","last_reported":1742123309,"current_range_meters":15200,"station_id":"ce4bhbp2rcd13ifvqerg","pricing_plan_id":"cebpf4jnsgd1na2vs0mg"},{"bike_id":"ce461d73-d5ef-47e5-bd96-066feda10ed7","system_id":"levelo_inurba_marseille","lat":43.23199,"lon":5.35543,"is_reserved":false,"is_disabled":false,"rental_uris":{"android":"levelo://app?vid=ce461d73-d5ef-47e5-bd96-066feda10ed7","ios":"levelo://app?vid=ce461d73-d5ef-47e5-bd96-066feda10ed7"},"vehicle_type_id":"4","last_reported":1742123309,"current_range_meters":14400,"station_id":"ce4bhu92rcd13ifvqi70","pricing_plan_id":"cebpf4jnsgd1na2vs0mg"},{"bike_id":"859f60fc-e905-43d1-b79d-c375474a6202","system_id":"levelo_inurba_marseille","lat":43.295461,"lon":5.422861,"is_reserved":false,"is_disabled":false,"rental_uris":{"android":"levelo://app?vid=859f60fc-e905-43d1-b79d-c375474a6202","ios":"levelo://app?vid=859f60fc-e905-43d1-b79d-c375474a6202"},"vehicle_type_id":"4","last_reported":1742123309,"current_range_meters":15200,"station_id":"ce4bhph2rcd13ifvqhdg","pricing_plan_id":"cebpf4jnsgd1na2vs0mg"},{"bike_id":"77cf483d-f56a-4f53-a0cc-ccd013179afd","system_id":"levelo_inurba_marseille","lat":43.32106,"lon":5.36775,"is_reserved":false,"is_disabled":false,"rental_uris":{"android":"levelo://app?vid=77cf483d-f56a-4f53-a0cc-ccd013179afd","ios":"levelo://app?vid=77cf483d-f56a-4f53-a0cc-ccd013179afd"},"vehicle_type_id":"4","last_reported":1742123309,"current_range_meters":15200,"station_id":"ce4bhrh2rcd13ifvqhug","pricing_plan_id":"cebpf4jnsgd1na2vs0mg"},{"bike_id":"b307b50e-8616-4424-be04-d35ac55e5c1f","system_id":"levelo_inurba_marseille","lat":43.29028,"lon":5.38616,"is_reserved":false,"is_disabled":false,"rental_uris":{"android":"levelo://app?vid=b307b50e-8616-4424-be04-d35ac55e5c1f","ios":"levelo://app?vid=b307b50e-8616-4424-be04-d35ac55e5c1f"},"vehicle_type_id":"4","last_reported":1742123309,"current_range_meters":15200,"station_id":"ce4bh4p2rcd13ifvqe0g","pricing_plan_id":"cebpf4jnsgd1na2vs0mg"},{"bike_id":"a6b0a040-07e7-4faa-a4d4-f0ae30938573","system_id":"levelo_inurba_marseille","lat":43.24384,"lon":5.37035,"is_reserved":false,"is_disabled":false,"rental_uris":{"android":"levelo://app?vid=a6b0a040-07e7-4faa-a4d4-f0ae30938573","ios":"levelo://app?vid=a6b0a040-07e7-4faa-a4d4-f0ae30938573"},