{"last_updated":1749582493,"ttl":60,"version":"2.2","data":{"bikes":[{"bike_id":"e4acb201-b848-4be2-a804-149c13361c25","system_id":"levelo_inurba_marseille","lat":43.23954,"lon":5.36635,"is_reserved":false,"is_disabled":false,"rental_uris":{"android":"levelo://app?vid=e4acb201-b848-4be2-a804-149c13361c25","ios":"levelo://app?vid=e4acb201-b848-4be2-a804-149c13361c25"},"vehicle_type_id":"4","last_reported":1749582493,"current_range_meters":2800,"station_id":"ce4bhi12rcd13ifvqfp0","pricing_plan_id":"cebpf4jnsgd1na2vs0mg"},{"bike_id":"c9119c91-fa96-4b7c-ba0f-fb2d40350de5","system_id":"levelo_inurba_marseille","lat":43.29532,"lon":5.38549,"is_reserved":false,"is_disabled":false,"rental_uris":{"android":"levelo://app?vid=c9119c91-fa96-4b7c-ba0f-fb2d40350de5","ios":"levelo://app?vid=c9119c91-fa96-4b7c-ba0f-fb2d40350de5"},"vehicle_type_id":"4","last_reported":1749582493,"current_range_meters":2800,"station_id":"ce4bgih2rcd13ifvqba0","pricing_plan_id":"cebpf4jnsgd1na2vs0mg"},{"bike_id":"246c2284-8be3-468c-be57-d2130c72de99","system_id":"levelo_inurba_marseille","lat":43.28939,"lon":5.38401,"is_reserved":false,"is_disabled":false,"rental_uris":{"android":"levelo://app?vid=246c2284-8be3-468c-be57-d2130c72de99","ios":"levelo://app?vid=246c2284-8be3-468c-be57-d2130c72de99"},"vehicle_type_id":"4","last_reported":1749582493,"current_range_meters":2000,"station_id":"ce4bh612rcd13ifvqe6g","pricing_plan_id":"cebpf4jnsgd1na2vs0mg"},{"bike_id":"0b627a3f-af91-4441-9390-36b6b6b76dc1","system_id":"levelo_inurba_marseille","lat":43.25586,"lon":5.38228,"is_reserved":false,"is_disabled":false,"rental_uris":{"android":"levelo://app?vid=0b627a3f-af91-4441-9390-36b6b6b76dc1","ios":"levelo://app?vid=0b627a3f-af91-4441-9390-36b6b6b76dc1"},"vehicle_type_id":"4","last_reported":1749582493,"current_range_meters":2800,"station_id":"ce4bhih2rcd13ifvqfs0","pricing_plan_id":"cebpf4jnsgd1na2vs0mg"},{"bike_id":"287ea59b-29de-497f-8f26-dfc33448a059","system_id":"levelo_inurba_marseille","lat":43.30934,"lon":5.4013,"is_reserved":false,"is_disabled":true,"rental_uris":{"android":"levelo://app?vid=287ea59b-29de-497f-8f26-dfc33448a059","ios":"levelo://app?vid=287ea59b-29de-497f-8f26-dfc33448a059"},"vehicle_type_id":"4","last_reported":1749582493,"current_range_meters":2800,"station_id":"ce4bgvp2rcd13ifvqct0","pricing_plan_id":"cebpf4jnsgd1na2vs0mg"},{"bike_id":"ca1da709-9c85-4d34-967d-b9cbae8e147a","system_id":"levelo_inurba_marseille","lat":43.32358,"lon":5.40613,"is_reserved":false,"is_disabled":false,"rental_uris":{"android":"levelo://app?vid=ca1da709-9c85-4d34-967d-b9cbae8e147a","ios":"levelo://app?vid=ca1da709-9c85-4d34-967d-b9cbae8e147a"},"vehicle_type_id":"4","last_reported":1749582493,"current_range_meters":3200,"station_id":"ce4bhq92rcd13ifvqhjg","pricing_plan_id":"cebpf4jnsgd1na2vs0mg"},{"bike_id":"34ea4f5e-255b-4ccd-9720-ee462ee71870","system_id":"levelo_inurba_marseille","lat":43.24692,"lon":5.3774,"is_reserved":false,"is_disabled":false,"rental_uris":{"android":"levelo://app?vid=34ea4f5e-255b-4ccd-9720-ee462ee71870","ios":"levelo://app?vid=34ea4f5e-255b-4ccd-9720-ee462ee71870"},"vehicle_type_id":"4","last_reported":1749582493,"current_range_meters":3200,"station_id":"","pricing_plan_id":"cebpf4jnsgd1na2vs0mg"},{"bike_id":"ea272583-f3fe-40d1-8c35-81d1016bff06","system_id":"levelo_inurba_marseille","lat":43.29536,"lon":5.37501,"is_reserved":false,"is_disabled":false,"rental_uris":{"android":"levelo://app?vid=ea272583-f3fe-40d1-8c35-81d1016bff06","ios":"levelo://app?vid=ea272583-f3fe-40d1-8c35-81d1016bff06"},"vehicle_type_id":"4","last_reported":1749582493,"current_range_meters":3200,"station_id":"ce4bgkp2rcd13ifvqbmg","pricing_plan_id":"cebpf4jnsgd1na2vs0mg"},{"bike_id":"c32a3de6-76bc-4932-aa6d-2e8728108eaf","system_id":"levelo_inurba_marseille","lat":43.30279,"lon":5.37714,"is_reserved":false,"is_disabled":false,"rental_uris":{"android":"levelo://app?vid=c32a3de6-76bc-4932-aa6d-2e8728108eaf","ios":"levelo://app?vid=c32a3de6-76bc-4932-aa6d-2e8728108eaf"},"vehicle_type_id":"4","last_reported":1749582493,"current_range_meters":3600,"station_id":"ce4bguh2rcd13ifvqcj0","pricing_plan_id":"cebpf4jnsgd1na2vs0mg"},{"bike_id":"d35e699b-f53a-4696-9b49-0c25aadb636f","system_id":"levelo_inurba_marseille","lat":43.28731,"lon":5.37925,"is_reserved":false,"is_disabled":false,"rental_uris":{"android":"levelo://app?vid=d35e699b-f53a-4696-9b49-0c25aadb636f","ios":"levelo://app?vid=d35e699b-f53a-4696-9b49-0c25aadb636f"},"vehicle_type_id":"4","last_reported":1749582493,"current_range_meters":3600,"station_id":"ce4bh9p2rcd13ifvqec0","pricing_plan_id":"cebpf4jnsgd1na2vs0mg"},{"bike_id":"a59d617e-38f1-4190-b1d6-bc6dc72678c9","system_id":"levelo_inurba_marseille","lat":43.295213,"lon":5.390423,"is_reserved":false,"is_disabled":false,"rental_uris":{"android":"levelo://app?vid=a59d617e-38f1-4190-b1d6-bc6dc72678c9","ios":"levelo://app?vid=a59d617e-38f1-4190-b1d6-bc6dc72678c9"},"vehicle_type_id":"4","last_reported":1749582493,"current_range_meters":3600,"station_id":"ce4bh3p2rcd13ifvqdp0","pricing_plan_id":"cebpf4jnsgd1na2vs0mg"},{"bike_id":"9cee3212-067f-4444-a22f-011a375d6d7c","system_id":"levelo_inurba_marseille","lat":43.31998,"lon":5.38162,"is_reserved":false,"is_disabled":false,"rental_uris":{"android":"levelo://app?vid=9cee3212-067f-4444-a22f-011a375d6d7c","ios":"levelo://app?vid=9cee3212-067f-4444-a22f-011a375d6d7c"},"vehicle_type_id":"4","last_reported":1749582493,"current_range_meters":3600,"station_id":"ce4bhr12rcd13ifvqhpg","pricing_plan_id":"cebpf4jnsgd1na2vs0mg"},{"bike_id":"4ea2196d-4ed0-48b3-94d9-db402dbba8c6","system_id":"levelo_inurba_marseille","lat":43.31481,"lon":5.37315,"is_reserved":false,"is_disabled":false,"rental_uris":{"android":"levelo://app?vid=4ea2196d-4ed0-48b3-94d9-db402dbba8c6","ios":"levelo://app?vid=4ea2196d-4ed0-48b3-94d9-db402dbba8c6"},"vehicle_type_id":"4","last_reported":1749582493,"current_range_meters":3600,"station_id":"ce4bgt12rcd13ifvqcd0","pricing_plan_id":"cebpf4jnsgd1na2vs0mg"},{"bike_id":"a79b42f1-84b2-4fd1-a45c-5434397f88d3","system_id":"levelo_inurba_marseille","lat":43.30087,"lon":5.39092,"is_reserved":false,"is_disabled":false,"rental_uris":{"android":"levelo://app?vid=a79b42f1-84b2-4fd1-a45c-5434397f88d3","ios":"levelo://app?vid=a79b42f1-84b2-4fd1-a45c-5434397f88d3"},"vehicle_type_id":"4","last_reported":1749582493,"current_range_meters":4000,"station_id":"ce4bh192rcd13ifvqdb0","pricing_plan_id":"cebpf4jnsgd1na2vs0mg"},{"bike_id":"74111bcb-249c-4743-ae00-26cd4525fd43","system_id":"levelo_inurba_marseille","lat":43.31083,"lon":5.42431,"is_reserved":false,"is_disabled":false,"rental_uris":{"android":"levelo://app?vid=74111bcb-249c-4743-ae00-26cd4525fd43","ios":"levelo://app?vid=74111bcb-249c-4743-ae00-26cd4525fd43"},"vehicle_type_id":"4","last_reported":1749582493,"current_range_meters":4000,"station_id":"ce4bhp92rcd13ifvqhag","pricing_plan_id":"cebpf4jnsgd1na2vs0mg"},{"bike_id":"7d8e9852-cabf-4146-8a81-5ba87af8e6ef","system_id":"levelo_inurba_marseille","lat":43.279493,"lon":5.410343,"is_reserved":false,"is_disabled":false,"rental_uris":{"android":"levelo://app?vid=7d8e9852-cabf-4146-8a81-5ba87af8e6ef","ios":"levelo://app?vid=7d8e9852-cabf-4146-8a81-5ba87af8e6ef"},"vehicle_type_id":"4","last_reported":1749582493,"current_range_meters":4400,"station_id":"ce4bhnp2rcd13ifvqh0g","pricing_plan_id":"cebpf4jnsgd1na2vs0mg"},{"bike_id":"f8db9b74-466a-44cb-969f-e6ac0999e2f4","system_id":"levelo_inurba_marseille","lat":43.27057,"lon":5.40256,"is_reserved":false,"is_disabled":false,"rental_uris":{"android":"levelo://app?vid=f8db9b74-466a-44cb-969f-e6ac0999e2f4","ios":"levelo://app?vid=f8db9b74-466a-44cb-969f-e6ac0999e2f4"},"vehicle_type_id":"4","last_reported":1749582493,"current_range_meters":4400,"station_id":"ce4bhk92rcd13ifvqgc0","pricing_plan_id":"cebpf4jnsgd1na2vs0mg"},{"bike_id":"2ff01167-c273-471d-8b56-a6e1ab9b7d21","system_id":"levelo_inurba_marseille","lat":43.28486,"lon":5.38415,"is_reserved":false,"is_disabled":false,"rental_uris":{"android":"levelo://app?vid=2ff01167-c273-471d-8b56-a6e1ab9b7d21","ios":"levelo://app?vid=2ff01167-c273-471d-8b56-a6e1ab9b7d21"},"vehicle_type_id":"4","last_reported":1749582493,"current_range_meters":4400,"station_id":"ce4bh512rcd13ifvqe3g","pricing_plan_id":"cebpf4jnsgd1na2vs0mg"},{"bike_id":"91f72aa2-9410-4d88-875c-7c48e3fde0a3","system_id":"levelo_inurba_marseille","lat":43.29033,"lon":5.37566,"is_reserved":false,"is_disabled":false,"rental_uris":{"android":"levelo://app?vid=91f72aa2-9410-4d88-875c-7c48e3fde0a3","ios":"levelo://app?vid=91f72aa2-9410-4d88-875c-7c48e3fde0a3"},"vehicle_type_id":"4","last_reported":1749582493,"current_range_meters":4000,"station_id":"ce4bh692rcd13ifvqe90","pricing_plan_id":"cebpf4jnsgd1na2vs0mg"},{"bike_id":"ac78e607-78b5-4bbf-8e83-4a67d8fbca8d","system_id":"levelo_inurba_marseille","lat":43.28486,"lon":5.38426,"is_reserved":false,"is_disabled":false,"rental_uris":{"android":"levelo://app?vid=ac78e607-78b5-4bbf-8e83-4a67d8fbca8d","ios":"levelo://app?vid=ac78e607-78b5-4bbf-8e83-4a67d8fbca8d"},"vehicle_type_id":"4","last_reported":1749582493,"current_range_meters":4800,"station_id":"ce4bh512rcd13ifvqe3g","pricing_plan_id":"cebpf4jnsgd1na2vs0mg"},{"bike_id":"dd67f108-95bf-4a1e-b619-4bb77e009c5b","system_id":"levelo_inurba_marseille","lat":43.29065,"lon":5.42771,"is_reserved":false,"is_disabled":false,"rental_uris":{"android":"levelo://app?vid=dd67f108-95bf-4a1e-b619-4bb77e009c5b","ios":"levelo://app?vid=dd67f108-95bf-4a1e-b619-4bb77e009c5b"},"vehicle_type_id":"4","last_reported":1749582493,"current_range_meters":4800,"station_id":"","pricing_plan_id":"cebpf4jnsgd1na2vs0mg"},{"bike_id":"ea16e692-6634-45fa-bcb0-84993535c1d8","system_id":"levelo_inurba_marseille","lat":43.28405,"lon":5.37509,"is_reserved":false,"is_disabled":false,"rental_uris":{"android":"levelo://app?vid=ea16e692-6634-45fa-bcb0-84993535c1d8","ios":"levelo://app?vid=ea16e692-6634-45fa-bcb0-84993535c1d8"},"vehicle_type_id":"4","last_reported":1749582493,"current_range_meters":4800,"station_id":"ce4bh412rcd13ifvqds0","pricing_plan_id":"cebpf4jnsgd1na2vs0mg"},{"bike_id":"11cf0488-0f75-4276-b51f-11c91116aea1","system_id":"levelo_inurba_marseille","lat":43.28948,"lon":5.36637,"is_reserved":false,"is_disabled":false,"rental_uris":{"android":"levelo://app?vid=11cf0488-0f75-4276-b51f-11c91116aea1","ios":"levelo://app?vid=11cf0488-0f75-4276-b51f-11c91116aea1"},"vehicle_type_id":"4","last_reported":1749582493,"current_range_meters":2000,"station_id":"ce4bhap2rcd13ifvqek0","pricing_plan_id":"cebpf4jnsgd1na2vs0mg"},{"bike_id":"c8324cdd-5686-4578-ad34-0f16439ea220","system_id":"levelo_inurba_marseille","lat":43.30609,"lon":5.37217,"is_reserved":false,"is_disabled":false,"rental_uris":{"android":"levelo://app?vid=c8324cdd-5686-4578-ad34-0f16439ea220","ios":"levelo://app?vid=c8324cdd-5686-4578-ad34-0f16439ea220"},"vehicle_type_id":"4","last_reported":1749582493,"current_range_meters":4800,"station_id":"ce4bgqh2rcd13ifvqc4g","pricing_plan_id":"cebpf4jnsgd1na2vs0mg"},{"bike_id":"84690189-aac2-4995-a759-49db2dd7b2fa","system_id":"levelo_inurba_marseille","lat":43.27913,"lon":5.38007,"is_reserved":false,"is_disabled":false,"rental_uris":{"android":"levelo://app?vid=84690189-aac2-4995-a759-49db2dd7b2fa","ios":"levelo://app?vid=84690189-aac2-4995-a759-49db2dd7b2fa"},"vehicle_type_id":"4","last_reported":1749582493,"current_range_meters":4800,"station_id":"ce4bhf92rcd13ifvqf50","pricing_plan_id":"cebpf4jnsgd1na2vs0mg"},{"bike_id":"97ac5a49-df91-42ee-956c-05ee8749ec9a","system_id":"levelo_inurba_marseille","lat":43.30606,"lon":5.39383,"is_reserved":false,"is_disabled":false,"rental_uris":{"android":"levelo://app?vid=97ac5a49-df91-42ee-956c-05ee8749ec9a","ios":"levelo://app?vid=97ac5a49-df91-42ee-956c-05ee8749ec9a"},"vehicle_type_id":"4","last_reported":1749582493,"current_range_meters":5600,"station_id":"ce4bh0p2rcd13ifvqd80","pricing_plan_id":"cebpf4jnsgd1na2vs0mg"},{"bike_id":"b323ce18-6ea8-4a24-8888-4341d364e764","system_id":"levelo_inurba_marseille","lat":43.28751,"lon":5.36168,"is_reserved":false,"is_disabled":false,"rental_uris":{"android":"levelo://app?vid=b323ce18-6ea8-4a24-8888-4341d364e764","ios":"levelo://app?vid=b323ce18-6ea8-4a24-8888-4341d364e764"},"vehicle_type_id":"4","last_reported":1749582493,"current_range_meters":5600,"station_id":"","pricing_plan_id":"cebpf4jnsgd1na2vs0mg"},{"bike_id":"afd81a45-5f7c-4b20-b5d9-6a534bda2078","system_id":"levelo_inurba_marseille","lat":43.31882,"lon":5.40735,"is_reserved":false,"is_disabled":false,"rental_uris":{"android":"levelo://app?vid=afd81a45-5f7c-4b20-b5d9-6a534bda2078","ios":"levelo://app?vid=afd81a45-5f7c-4b20-b5d9-6a534bda2078"},"vehicle_type_id":"4","last_reported":1749582493,"current_range_meters":5600,"station_id":"ce4bhq12rcd13ifvqhig","pricing_plan_id":"cebpf4jnsgd1na2vs0mg"},{"bike_id":"4bbf18c4-952a-4eb4-8649-6803f058eaa5","system_id":"levelo_inurba_marseille","lat":43.33329,"lon":5.43007,"is_reserved":false,"is_disabled":false,"rental_uris":{"android":"levelo://app?vid=4bbf18c4-952a-4eb4-8649-6803f058eaa5","ios":"levelo://app?vid=4bbf18c4-952a-4eb4-8649-6803f058eaa5"},"vehicle_type_id":"4","last_reported":1749582493,"current_range_meters":5600,"station_id":"","pricing_plan_id":"cebpf4jnsgd1na2vs0mg"},{"bike_id":"c0e1910c-5c56-4afd-a530-a814e44afb9a","system_id":"levelo_inurba_marseille","lat":43.30538,"lon":5.36553,"is_reserved":false,"is_disabled":false,"rental_uris":{"android":"levelo://app?vid=c0e1910c-5c56-4afd-a530-a814e44afb9a","ios":"levelo://app?vid=c0e1910c-5c56-4afd-a530-a814e44afb9a"},"vehicle_type_id":"4","last_reported":1749582493,"current_range_meters":5600,"station_id":"ce4bgs12rcd13ifvqcag","pricing_plan_id":"cebpf4jnsgd1na2vs0mg"},{"bike_id":"36910c31-4344-4f4e-8417-0658d4b38d1f","system_id":"levelo_inurba_marseille","lat":43.28939,"lon":5.39618,"is_reserved":false,"is_disabled":false,"rental_uris":{"android":"levelo://app?vid=36910c31-4344-4f4e-8417-0658d4b38d1f","ios":"levelo://app?vid=36910c31-4344-4f4e-8417-0658d4b38d1f"},"vehicle_type_id":"4","last_reported":1749582493,"current_range_meters":6000,"station_id":"ce4bh3h2rcd13ifvqdn0","pricing_plan_id":"cebpf4jnsgd1na2vs0mg"},{"bike_id":"fd91ac7c-33f9-4b7d-a855-2ed7f3cb74d4","system_id":"levelo_inurba_marseille","lat":43.26958,"lon":5.38629,"is_reserved":false,"is_disabled":false,"rental_uris":{"android":"levelo://app?vid=fd91ac7c-33f9-4b7d-a855-2ed7f3cb74d4","ios":"levelo://app?vid=fd91ac7c-33f9-4b7d-a855-2ed7f3cb74d4"},"vehicle_type_id":"4","last_reported":1749582493,"current_range_meters":6000,"station_id":"ce4bhh92rcd13ifvqfh0","pricing_plan_id":"cebpf4jnsgd1na2vs0mg"},{"bike_id":"b8a18c38-2fce-4546-88fa-4688d15b1932","system_id":"levelo_inurba_marseille","lat":43.31709,"lon":5.37743,"is_reserved":false,"is_disabled":false,"rental_uris":{"android":"levelo://app?vid=b8a18c38-2fce-4546-88fa-4688d15b1932","ios":"levelo://app?vid=b8a18c38-2fce-4546-88fa-4688d15b1932"},"vehicle_type_id":"4","last_reported":1749582493,"current_range_meters":5600,"station_id":"ce4bgth2rcd13ifvqch0","pricing_plan_id":"cebpf4jnsgd1na2vs0mg"},{"bike_id":"fe52c15f-5aec-4b7e-998e-284a85843b2f","system_id":"levelo_inurba_marseille","lat":43.3212,"lon":5.36753,"is_reserved":false,"is_disabled":false,"rental_uris":{"android":"levelo://app?vid=fe52c15f-5aec-4b7e-998e-284a85843b2f","ios":"levelo://app?vid=fe52c15f-5aec-4b7e-998e-284a85843b2f"},"vehicle_type_id":"4","last_reported":1749582493,"current_range_meters":6000,"station_id":"ce4bhrh2rcd13ifvqhug","pricing_plan_id":"cebpf4jnsgd1na2vs0mg"},{"bike_id":"8eaaaf9e-3f5c-4533-813b-ffcc943b4196","system_id":"levelo_inurba_marseille","lat":43.29541,"lon":5.37509,"is_reserved":false,"is_disabled":false,"rental_uris":{"android":"levelo://app?vid=8eaaaf9e-3f5c-4533-813b-ffcc943b4196","ios":"levelo://app?vid=8eaaaf9e-3f5c-4533-813b-ffcc943b4196"},"vehicle_type_id":"4","last_reported":1749582493,"current_range_meters":4800,"station_id":"ce4bgkp2rcd13ifvqbmg","pricing_plan_id":"cebpf4jnsgd1na2vs0mg"},{"bike_id":"86d0abfd-a86b-4bbc-839e-b6473ca82cf3","system_id":"levelo_inurba_marseille","lat":43.296032,"lon":5.381036,"is_reserved":false,"is_disabled":false,"rental_uris":{"android":"levelo://app?vid=86d0abfd-a86b-4bbc-839e-b6473ca82cf3","ios":"levelo://app?vid=86d0abfd-a86b-4bbc-839e-b6473ca82cf3"},"vehicle_type_id":"4","last_reported":1749582493,"current_range_meters":6400,"station_id":"ce4bhbp2rcd13ifvqesg","pricing_plan_id":"cebpf4jnsgd1na2vs0mg"},{"bike_id":"7bc5a72e-c151-487a-8d45-0a5609412293","system_id":"levelo_inurba_marseille","lat":43.29074,"lon":5.37159,"is_reserved":false,"is_disabled":false,"rental_uris":{"android":"levelo://app?vid=7bc5a72e-c151-487a-8d45-0a5609412293","ios":"levelo://app?vid=7bc5a72e-c151-487a-8d45-0a5609412293"},"vehicle_type_id":"4","last_reported":1749582493,"current_range_meters":6400,"station_id":"ce4bh5p2rcd13ifvqe4g","pricing_plan_id":"cebpf4jnsgd1na2vs0mg"},{"bike_id":"4e0ea69f-a144-4c12-96d4-46218591c6d8","system_id":"levelo_inurba_marseille","lat":43.30641,"lon":5.40098,"is_reserved":false,"is_disabled":false,"rental_uris":{"android":"levelo://app?vid=4e0ea69f-a144-4c12-96d4-46218591c6d8","ios":"levelo://app?vid=4e0ea69f-a144-4c12-96d4-46218591c6d8"},"vehicle_type_id":"4","last_reported":1749582493,"current_range_meters":4800,"station_id":"ce4bh112rcd13ifvqda0","pricing_plan_id":"cebpf4jnsgd1na2vs0mg"},{"bike_id":"0c6a757b-36b4-44df-bd79-0e6b01c0c812","system_id":"levelo_inurba_marseille","lat":43.290032,"lon":5.356216,"is_reserved":false,"is_disabled":false,"rental_uris":{"android":"levelo://app?vid=0c6a757b-36b4-44df-bd79-0e6b01c0c812","ios":"levelo://app?vid=0c6a757b-36b4-44df-bd79-0e6b01c0c812"},"vehicle_type_id":"4","last_reported":1749582493,"current_range_meters":6400,"station_id":"ce4bhb92rcd13ifvqen0","pricing_plan_id":"cebpf4jnsgd1na2vs0mg"},{"bike_id":"96079170-6951-4fdb-8f06-e32f85d09aa7","system_id":"levelo_inurba_marseille","lat":43.28851,"lon":5.35843,"is_reserved":false,"is_disabled":false,"rental_uris":{"android":"levelo://app?vid=96079170-6951-4fdb-8f06-e32f85d09aa7","ios":"levelo://app?vid=96079170-6951-4fdb-8f06-e32f85d09aa7"},"vehicle_type_id":"4","last_reported":1749582493,"current_range_meters":6400,"station_id":"ce4bhb12rcd13ifvqem0","pricing_plan_id":"cebpf4jnsgd1na2vs0mg"},{"bike_id":"291ab0bc-bb52-4ad0-a840-58f1558e3677","system_id":"levelo_inurba_marseille","lat":43.217493,"lon":5.346112,"is_reserved":false,"is_disabled":false,"rental_uris":{"android":"levelo://app?vid=291ab0bc-bb52-4ad0-a840-58f1558e3677","ios":"levelo://app?vid=291ab0bc-bb52-4ad0-a840-58f1558e3677"},"vehicle_type_id":"4","last_reported":1749582493,"current_range_meters":6400,"station_id":"st_cvj6r9ubvosntc0bgbag","pricing_plan_id":"cebpf4jnsgd1na2vs0mg"},{"bike_id":"ea613711-4f50-4fe1-945e-2f27a58fb0a4","system_id":"levelo_inurba_marseille","lat":43.31489,"lon":5.37309,"is_reserved":false,"is_disabled":false,"rental_uris":{"android":"levelo://app?vid=ea613711-4f50-4fe1-945e-2f27a58fb0a4","ios":"levelo://app?vid=ea613711-4f50-4fe1-945e-2f27a58fb0a4"},"vehicle_type_id":"4","last_reported":1749582493,"current_range_meters":6400,"station_id":"ce4bgt12rcd13ifvqcd0","pricing_plan_id":"cebpf4jnsgd1na2vs0mg"},{"bike_id":"f0782932-4f65-40fc-9cee-a635f880f137","system_id":"levelo_inurba_marseille","lat":43.32389,"lon":5.36787,"is_reserved":false,"is_disabled":false,"rental_uris":{"android":"levelo://app?vid=f0782932-4f65-40fc-9cee-a635f880f137","ios":"levelo://app?vid=f0782932-4f65-40fc-9cee-a635f880f137"},"vehicle_type_id":"4","last_reported":1749582493,"current_range_meters":6800,"station_id":"ce4bhsh2rcd13ifvqi2g","pricing_plan_id":"cebpf4jnsgd1na2vs0mg"},{"bike_id":"69832bca-062f-49b9-8c88-fef4698fc114","system_id":"levelo_inurba_marseille","lat":43.29518,"lon":5.39026,"is_reserved":false,"is_disabled":false,"rental_uris":{"android":"levelo://app?vid=69832bca-062f-49b9-8c88-fef4698fc114","ios":"levelo://app?vid=69832bca-062f-49b9-8c88-fef4698fc114"},"vehicle_type_id":"4","last_reported":1749582493,"current_range_meters":6800,"station_id":"ce4bh3p2rcd13ifvqdp0","pricing_plan_id":"cebpf4jnsgd1na2vs0mg"},{"bike_id":"28073708-df89-457b-a0ef-7b782b34d403","system_id":"levelo_inurba_marseille","lat":43.28624,"lon":5.35093,"is_reserved":false,"is_disabled":false,"rental_uris":{"android":"levelo://app?vid=28073708-df89-457b-a0ef-7b782b34d403","ios":"levelo://app?vid=28073708-df89-457b-a0ef-7b782b34d403"},"vehicle_type_id":"4","last_reported":1749582493,"current_range_meters":6800,"station_id":"ce4bhch2rcd13ifvqeug","pricing_plan_id":"cebpf4jnsgd1na2vs0mg"},{"bike_id":"3f74ef80-b8c0-4683-9931-e66e51fd96af","system_id":"levelo_inurba_marseille","lat":43.30414,"lon":5.41298,"is_reserved":false,"is_disabled":false,"rental_uris":{"android":"levelo://app?vid=3f74ef80-b8c0-4683-9931-e66e51fd96af","ios":"levelo://app?vid=3f74ef80-b8c0-4683-9931-e66e51fd96af"},"vehicle_type_id":"4","last_reported":1749582493,"current_range_meters":6800,"station_id":"ce4bhop2rcd13ifvqh8g","pricing_plan_id":"cebpf4jnsgd1na2vs0mg"},{"bike_id":"d6aa7034-cda0-4eb8-a840-f2fea31ba7f8","system_id":"levelo_inurba_marseille","lat":43.27173,"lon":5.40988,"is_reserved":false,"is_disabled":false,"rental_uris":{"android":"levelo://app?vid=d6aa7034-cda0-4eb8-a840-f2fea31ba7f8","ios":"levelo://app?vid=d6aa7034-cda0-4eb8-a840-f2fea31ba7f8"},"vehicle_type_id":"4","last_reported":1749582493,"current_range_meters":6800,"station_id":"ce4bhl12rcd13ifvqgf0","pricing_plan_id":"cebpf4jnsgd1na2vs0mg"},{"bike_id":"8d318a51-e4d6-4529-b40e-74a3f7d3adcb","system_id":"levelo_inurba_marseille","lat":43.28433,"lon":5.37509,"is_reserved":false,"is_disabled":false,"rental_uris":{"android":"levelo://app?vid=8d318a51-e4d6-4529-b40e-74a3f7d3adcb","ios":"levelo://app?vid=8d318a51-e4d6-4529-b40e-74a3f7d3adcb"},"vehicle_type_id":"4","last_reported":1749582493,"current_range_meters":7200,"station_id":"ce4bh412rcd13ifvqds0","pricing_plan_id":"cebpf4jnsgd1na2vs0mg"},{"bike_id":"aa64f4df-e0ad-49a8-a7a2-5eace3a6bf09","system_id":"levelo_inurba_marseille","lat":43.29098,"lon":5.38122,"is_reserved":false,"is_disabled":false,"rental_uris":{"android":"levelo://app?vid=aa64f4df-e0ad-49a8-a7a2-5eace3a6bf09","ios":"levelo://app?vid=aa64f4df-e0ad-49a8-a7a2-5eace3a6bf09"},"vehicle_type_id":"4","last_reported":1749582493,"current_range_meters":7200,"station_id":"ce4bh512rcd13ifvqe2g","pricing_plan_id":"cebpf4jnsgd1na2vs0mg"},{"bike_id":"88113087-f0bb-4133-ab2a-bbfce1f3d99a","system_id":"levelo_inurba_marseille","lat":43.31702,"lon":5.40463,"is_reserved":false,"is_disabled":true,"rental_uris":{"android":"levelo://app?vid=88113087-f0bb-4133-ab2a-bbfce1f3d99a","ios":"levelo://app?vid=88113087-f0bb-4133-ab2a-bbfce1f3d99a"},"vehicle_type_id":"4","last_reported":1749582493,"current_range_meters":7200,"station_id":"ce4bh012rcd13ifvqd00","pricing_plan_id":"cebpf4jnsgd1na2vs0mg"},{"bike_id":"777e638d-b631-4639-bfff-0fa63a5b67ff","system_id":"levelo_inurba_marseille","lat":43.2849,"lon":5.38421,"is_reserved":false,"is_disabled":false,"rental_uris":{"android":"levelo://app?vid=777e638d-b631-4639-bfff-0fa63a5b67ff","ios":"levelo://app?vid=777e638d-b631-4639-bfff-0fa63a5b67ff"},"vehicle_type_id":"4","last_reported":1749582493,"current_range_meters":7200,"station_id":"ce4bh512rcd13ifvqe3g","pricing_plan_id":"cebpf4jnsgd1na2vs0mg"},{"bike_id":"e0071fcc-7e6f-4f60-bb9e-92b53224a3ff","system_id":"levelo_inurba_marseille","lat":43.28393,"lon":5.37541,"is_reserved":false,"is_disabled":false,"rental_uris":{"android":"levelo://app?vid=e0071fcc-7e6f-4f60-bb9e-92b53224a3ff","ios":"levelo://app?vid=e0071fcc-7e6f-4f60-bb9e-92b53224a3ff"},"vehicle_type_id":"4","last_reported":1749582493,"current_range_meters":7200,"station_id":"ce4bh412rcd13ifvqds0","pricing_plan_id":"cebpf4jnsgd1na2vs0mg"},{"bike_id":"19aaaf9e-3847-4ae9-97ef-ab94bba36a96","system_id":"levelo_inurba_marseille","lat":43.30939,"lon":5.4014,"is_reserved":false,"is_disabled":false,"rental_uris":{"android":"levelo://app?vid=19aaaf9e-3847-4ae9-97ef-ab94bba36a96","ios":"levelo://app?vid=19aaaf9e-3847-4ae9-97ef-ab94bba36a96"},"vehicle_type_id":"4","last_reported":1749582493,"current_range_meters":7200,"station_id":"ce4bgvp2rcd13ifvqct0","pricing_plan_id":"cebpf4jnsgd1na2vs0mg"},{"bike_id":"cccbf000-5478-4bba-84e6-727d3f6274cd","system_id":"levelo_inurba_marseille","lat":43.25105,"lon":5.40321,"is_reserved":false,"is_disabled":false,"rental_uris":{"android":"levelo://app?vid=cccbf000-5478-4bba-84e6-727d3f6274cd","ios":"levelo://app?vid=cccbf000-5478-4bba-84e6-727d3f6274cd"},"vehicle_type_id":"4","last_reported":1749582493,"current_range_meters":8000,"station_id":"ce4bhlh2rcd13ifvqgig","pricing_plan_id":"cebpf4jnsgd1na2vs0mg"},{"bike_id":"ca8fae90-ee16-4fc5-b879-f09d7752783c","system_id":"levelo_inurba_marseille","lat":43.29066,"lon":5.3717,"is_reserved":false,"is_disabled":false,"rental_uris":{"android":"levelo://app?vid=ca8fae90-ee16-4fc5-b879-f09d7752783c","ios":"levelo://app?vid=ca8fae90-ee16-4fc5-b879-f09d7752783c"},"vehicle_type_id":"4","last_reported":1749582493,"current_range_meters":8000,"station_id":"ce4bh5p2rcd13ifvqe4g","pricing_plan_id":"cebpf4jnsgd1na2vs0mg"},{"bike_id":"c4838e15-6578-44fb-a8e5-e67e3c5faac2","system_id":"levelo_inurba_marseille","lat":43.28856,"lon":5.35848,"is_reserved":false,"is_disabled":false,"rental_uris":{"android":"levelo://app?vid=c4838e15-6578-44fb-a8e5-e67e3c5faac2","ios":"levelo://app?vid=c4838e15-6578-44fb-a8e5-e67e3c5faac2"},"vehicle_type_id":"4","last_reported":1749582493,"current_range_meters":8000,"station_id":"ce4bhb12rcd13ifvqem0","pricing_plan_id":"cebpf4jnsgd1na2vs0mg"},{"bike_id":"5a8e198b-9ff4-4b93-ac26-c5fc9fdf7b14","system_id":"levelo_inurba_marseille","lat":43.29042,"lon":5.38634,"is_reserved":false,"is_disabled":false,"rental_uris":{"android":"levelo://app?vid=5a8e198b-9ff4-4b93-ac26-c5fc9fdf7b14","ios":"levelo://app?vid=5a8e198b-9ff4-4b93-ac26-c5fc9fdf7b14"},"vehicle_type_id":"4","last_reported":1749582493,"current_range_meters":9200,"station_id":"ce4bh4p2rcd13ifvqe0g","pricing_plan_id":"cebpf4jnsgd1na2vs0mg"},{"bike_id":"1864731d-6073-4f5f-ae4e-bc2c2eadc447","system_id":"levelo_inurba_marseille","lat":43.29448,"lon":5.39749,"is_reserved":false,"is_disabled":false,"rental_uris":{"android":"levelo://app?vid=1864731d-6073-4f5f-ae4e-bc2c2eadc447","ios":"levelo://app?vid=1864731d-6073-4f5f-ae4e-bc2c2eadc447"},"vehicle_type_id":"4","last_reported":1749582493,"current_range_meters":8400,"station_id":"ce4bh3h2rcd13ifvqdo0","pricing_plan_id":"cebpf4jnsgd1na2vs0mg"},{"bike_id":"f81976f1-e2bb-4a52-a5ae-fe0bbf57d88b","system_id":"levelo_inurba_marseille","lat":43.29523,"lon":5.39036,"is_reserved":false,"is_disabled":false,"rental_uris":{"android":"levelo://app?vid=f81976f1-e2bb-4a52-a5ae-fe0bbf57d88b","ios":"levelo://app?vid=f81976f1-e2bb-4a52-a5ae-fe0bbf57d88b"},"vehicle_type_id":"4","last_reported":1749582493,"current_range_meters":8400,"station_id":"ce4bh3p2rcd13ifvqdp0","pricing_plan_id":"cebpf4jnsgd1na2vs0mg"},{"bike_id":"73b18cd3-59d4-4328-a044-9e85f78dfebb","system_id":"levelo_inurba_marseille","lat":43.23208,"lon":5.35533,"is_reserved":false,"is_disabled":false,"rental_uris":{"android":"levelo://app?vid=73b18cd3-59d4-4328-a044-9e85f78dfebb","ios":"levelo://app?vid=73b18cd3-59d4-4328-a044-9e85f78dfebb"},"vehicle_type_id":"4","last_reported":1749582493,"current_range_meters":8400,"station_id":"ce4bhu92rcd13ifvqi70","pricing_plan_id":"cebpf4jnsgd1na2vs0mg"},{"bike_id":"ba509714-11ea-4d63-9ff5-405d995db14c","system_id":"levelo_inurba_marseille","lat":43.21747,"lon":5.3461,"is_reserved":false,"is_disabled":false,"rental_uris":{"android":"levelo://app?vid=ba509714-11ea-4d63-9ff5-405d995db14c","ios":"levelo://app?vid=ba509714-11ea-4d63-9ff5-405d995db14c"},"vehicle_type_id":"4","last_reported":1749582493,"current_range_meters":8400,"station_id":"st_cvj6r9ubvosntc0bgbag","pricing_plan_id":"cebpf4jnsgd1na2vs0mg"},{"bike_id":"49917676-8f98-444e-a341-5e35575ebdc8","system_id":"levelo_inurba_marseille","lat":43.28421,"lon":5.34982,"is_reserved":false,"is_disabled":false,"rental_uris":{"android":"levelo://app?vid=49917676-8f98-444e-a341-5e35575ebdc8","ios":"levelo://app?vid=49917676-8f98-444e-a341-5e35575ebdc8"},"vehicle_type_id":"4","last_reported":1749582493,"current_range_meters":8400,"station_id":"ce4bhbh2rcd13ifvqepg","pricing_plan_id":"cebpf4jnsgd1na2vs0mg"},{"bike_id":"fb33ed28-dadb-43b8-bd76-d34dc98c1b33","system_id":"levelo_inurba_marseille","lat":43.2926,"lon":5.3845,"is_reserved":false,"is_disabled":false,"rental_uris":{"android":"levelo://app?vid=fb33ed28-dadb-43b8-bd76-d34dc98c1b33","ios":"levelo://app?vid=fb33ed28-dadb-43b8-bd76-d34dc98c1b33"},"vehicle_type_id":"4","last_reported":1749582493,"current_range_meters":8400,"station_id":"ce4bh692rcd13ifvqea0","pricing_plan_id":"cebpf4jnsgd1na2vs0mg"},{"bike_id":"521fd14c-ac95-4cd1-8d2e-c638f889f732","system_id":"levelo_inurba_marseille","lat":43.30601,"lon":5.37234,"is_reserved":false,"is_disabled":false,"rental_uris":{"android":"levelo://app?vid=521fd14c-ac95-4cd1-8d2e-c638f889f732","ios":"levelo://app?vid=521fd14c-ac95-4cd1-8d2e-c638f889f732"},"vehicle_type_id":"4","last_reported":1749582493,"current_range_meters":8800,"station_id":"ce4bgqh2rcd13ifvqc4g","pricing_plan_id":"cebpf4jnsgd1na2vs0mg"},{"bike_id":"eb76c2ab-84b4-48e5-844d-699440ea468e","system_id":"levelo_inurba_marseille","lat":43.28939,"lon":5.38407,"is_reserved":false,"is_disabled":false,"rental_uris":{"android":"levelo://app?vid=eb76c2ab-84b4-48e5-844d-699440ea468e","ios":"levelo://app?vid=eb76c2ab-84b4-48e5-844d-699440ea468e"},"vehicle_type_id":"4","last_reported":1749582493,"current_range_meters":8800,"station_id":"ce4bh612rcd13ifvqe6g","pricing_plan_id":"cebpf4jnsgd1na2vs0mg"},{"bike_id":"57d3872b-b13e-44dc-9a49-44461e95e6e4","system_id":"levelo_inurba_marseille","lat":43.32644,"lon":5.41005,"is_reserved":false,"is_disabled":false,"rental_uris":{"android":"levelo://app?vid=57d3872b-b13e-44dc-9a49-44461e95e6e4","ios":"levelo://app?vid=57d3872b-b13e-44dc-9a49-44461e95e6e4"},"vehicle_type_id":"4","last_reported":1749582493,"current_range_meters":8800,"station_id":"ce4bhpp2rcd13ifvqhgg","pricing_plan_id":"cebpf4jnsgd1na2vs0mg"},{"bike_id":"38625c5c-a510-4046-9af0-1df34bf13328","system_id":"levelo_inurba_marseille","lat":43.31713,"lon":5.43706,"is_reserved":false,"is_disabled":false,"rental_uris":{"android":"levelo://app?vid=38625c5c-a510-4046-9af0-1df34bf13328","ios":"levelo://app?vid=38625c5c-a510-4046-9af0-1df34bf13328"},"vehicle_type_id":"4","last_reported":1749582493,"current_range_meters":14000,"station_id":"ce4bhp92rcd13ifvqhcg","pricing_plan_id":"cebpf4jnsgd1na2vs0mg"},{"bike_id":"b6285f6b-e9e7-470d-9b6d-1afe99ab71bf","system_id":"levelo_inurba_marseille","lat":43.26183,"lon":5.42073,"is_reserved":false,"is_disabled":false,"rental_uris":{"android":"levelo://app?vid=b6285f6b-e9e7-470d-9b6d-1afe99ab71bf","ios":"levelo://app?vid=b6285f6b-e9e7-470d-9b6d-1afe99ab71bf"},"vehicle_type_id":"4","last_reported":1749582493,"current_range_meters":9200,"station_id":"","pricing_plan_id":"cebpf4jnsgd1na2vs0mg"},{"bike_id":"51b87950-932b-4258-967c-ba0c59643dfd","system_id":"levelo_inurba_marseille","lat":43.30433,"lon":5.38891,"is_reserved":false,"is_disabled":false,"rental_uris":{"android":"levelo://app?vid=51b87950-932b-4258-967c-ba0c59643dfd","ios":"levelo://app?vid=51b87950-932b-4258-967c-ba0c59643dfd"},"vehicle_type_id":"4","last_reported":1749582493,"current_range_meters":9200,"station_id":"ce4bgk12rcd13ifvqbi0","pricing_plan_id":"cebpf4jnsgd1na2vs0mg"},{"bike_id":"3d59d2ec-b59a-43e8-abae-40ac02fdcdb8","system_id":"levelo_inurba_marseille","lat":43.29554,"lon":5.42277,"is_reserved":false,"is_disabled":false,"rental_uris":{"android":"levelo://app?vid=3d59d2ec-b59a-43e8-abae-40ac02fdcdb8","ios":"levelo://app?vid=3d59d2ec-b59a-43e8-abae-40ac02fdcdb8"},"vehicle_type_id":"4","last_reported":1749582493,"current_range_meters":9200,"station_id":"ce4bhph2rcd13ifvqhdg","pricing_plan_id":"cebpf4jnsgd1na2vs0mg"},{"bike_id":"c136b089-d994-4b9b-a4c5-2a3f0ad0598e","system_id":"levelo_inurba_marseille","lat":43.32287,"lon":5.38269,"is_reserved":false,"is_disabled":false,"rental_uris":{"android":"levelo://app?vid=c136b089-d994-4b9b-a4c5-2a3f0ad0598e","ios":"levelo://app?vid=c136b089-d994-4b9b-a4c5-2a3f0ad0598e"},"vehicle_type_id":"4","last_reported":1749582493,"current_range_meters":9600,"station_id":"ce4bhr12rcd13ifvqhqg","pricing_plan_id":"cebpf4jnsgd1na2vs0mg"},{"bike_id":"66fac9ba-4e53-469d-8c0e-b15cb784136c","system_id":"levelo_inurba_marseille","lat":43.29066,"lon":5.37145,"is_reserved":false,"is_disabled":true,"rental_uris":{"android":"levelo://app?vid=66fac9ba-4e53-469d-8c0e-b15cb784136c","ios":"levelo://app?vid=66fac9ba-4e53-469d-8c0e-b15cb784136c"},"vehicle_type_id":"4","last_reported":1749582493,"current_range_meters":9600,"station_id":"ce4bh5p2rcd13ifvqe4g","pricing_plan_id":"cebpf4jnsgd1na2vs0mg"},{"bike_id":"2b53fa74-e55f-4f42-af70-3a3571a05991","system_id":"levelo_inurba_marseille","lat":43.29525,"lon":5.39398,"is_reserved":false,"is_disabled":false,"rental_uris":{"android":"levelo://app?vid=2b53fa74-e55f-4f42-af70-3a3571a05991","ios":"levelo://app?vid=2b53fa74-e55f-4f42-af70-3a3571a05991"},"vehicle_type_id":"4","last_reported":1749582493,"current_range_meters":9600,"station_id":"ce4bh292rcd13ifvqdf0","pricing_plan_id":"cebpf4jnsgd1na2vs0mg"},{"bike_id":"a978208a-2d52-48d3-8fe9-16fcea9e714e","system_id":"levelo_inurba_marseille","lat":43.30424,"lon":5.41272,"is_reserved":false,"is_disabled":false,"rental_uris":{"android":"levelo://app?vid=a978208a-2d52-48d3-8fe9-16fcea9e714e","ios":"levelo://app?vid=a978208a-2d52-48d3-8fe9-16fcea9e714e"},"vehicle_type_id":"4","last_reported":1749582493,"current_range_meters":9600,"station_id":"ce4bhop2rcd13ifvqh8g","pricing_plan_id":"cebpf4jnsgd1na2vs0mg"},{"bike_id":"00189458-4eab-4392-a48a-31749b21b72f","system_id":"levelo_inurba_marseille","lat":43.32367,"lon":5.38881,"is_reserved":false,"is_disabled":false,"rental_uris":{"android":"levelo://app?vid=00189458-4eab-4392-a48a-31749b21b72f","ios":"levelo://app?vid=00189458-4eab-4392-a48a-31749b21b72f"},"vehicle_type_id":"4","last_reported":1749582493,"current_range_meters":9600,"station_id":"ce4bhqp2rcd13ifvqhog","pricing_plan_id":"cebpf4jnsgd1na2vs0mg"},{"bike_id":"4e195f4e-99f6-4019-bffa-c0e894c48333","system_id":"levelo_inurba_marseille","lat":43.2808,"lon":5.39668,"is_reserved":false,"is_disabled":false,"rental_uris":{"android":"levelo://app?vid=4e195f4e-99f6-4019-bffa-c0e894c48333","ios":"levelo://app?vid=4e195f4e-99f6-4019-bffa-c0e894c48333"},"vehicle_type_id":"4","last_reported":1749582493,"current_range_meters":9600,"station_id":"ce4bho12rcd13ifvqh2g","pricing_plan_id":"cebpf4jnsgd1na2vs0mg"},{"bike_id":"70002c0c-8371-4abe-ae54-5318487b22b1","system_id":"levelo_inurba_marseille","lat":43.29517,"lon":5.39042,"is_reserved":false,"is_disabled":false,"rental_uris":{"android":"levelo://app?vid=70002c0c-8371-4abe-ae54-5318487b22b1","ios":"levelo://app?vid=70002c0c-8371-4abe-ae54-5318487b22b1"},"vehicle_type_id":"4","last_reported":1749582493,"current_range_meters":9600,"station_id":"ce4bh3p2rcd13ifvqdp0","pricing_plan_id":"cebpf4jnsgd1na2vs0mg"},{"bike_id":"39d32260-51d5-455a-ba53-6471389bd255","system_id":"levelo_inurba_marseille","lat":43.31984,"lon":5.376062,"is_reserved":false,"is_disabled":false,"rental_uris":{"android":"levelo://app?vid=39d32260-51d5-455a-ba53-6471389bd255","ios":"levelo://app?vid=39d32260-51d5-455a-ba53-6471389bd255"},"vehicle_type_id":"4","last_reported":1749582493,"current_range_meters":9600,"station_id":"","pricing_plan_id":"cebpf4jnsgd1na2vs0mg"},{"bike_id":"da14da1f-7442-42b5-98f6-365f4fbd4c56","system_id":"levelo_inurba_marseille","lat":43.32649,"lon":5.39843,"is_reserved":false,"is_disabled":false,"rental_uris":{"android":"levelo://app?vid=da14da1f-7442-42b5-98f6-365f4fbd4c56","ios":"levelo://app?vid=da14da1f-7442-42b5-98f6-365f4fbd4c56"},"vehicle_type_id":"4","last_reported":1749582493,"current_range_meters":9600,"station_id":"","pricing_plan_id":"cebpf4jnsgd1na2vs0mg"},{"bike_id":"4e643616-64a8-4cb4-a699-5c99f31870eb","system_id":"levelo_inurba_marseille","lat":43.2175,"lon":5.34602,"is_reserved":false,"is_disabled":false,"rental_uris":{"android":"levelo://app?vid=4e643616-64a8-4cb4-a699-5c99f31870eb","ios":"levelo://app?vid=4e643616-64a8-4cb4-a699-5c99f31870eb"},"vehicle_type_id":"4","last_reported":1749582493,"current_range_meters":9600,"station_id":"st_cvj6r9ubvosntc0bgbag","pricing_plan_id":"cebpf4jnsgd1na2vs0mg"},{"bike_id":"7a1bd4e3-7a22-4936-9eca-1b3f6c1bd38d","system_id":"levelo_inurba_marseille","lat":43.33609,"lon":5.41037,"is_reserved":false,"is_disabled":false,"rental_uris":{"android":"levelo://app?vid=7a1bd4e3-7a22-4936-9eca-1b3f6c1bd38d","ios":"levelo://app?vid=7a1bd4e3-7a22-4936-9eca-1b3f6c1bd38d"},"vehicle_type_id":"4","last_reported":1749582493,"current_range_meters":9600,"station_id":"ce4bhqh2rcd13ifvqhmg","pricing_plan_id":"cebpf4jnsgd1na2vs0mg"},{"bike_id":"bcaf5df7-55c8-41c1-82a5-76762ca2b8b1","system_id":"levelo_inurba_marseille","lat":43.29066,"lon":5.37166,"is_reserved":false,"is_disabled":false,"rental_uris":{"android":"levelo://app?vid=bcaf5df7-55c8-41c1-82a5-76762ca2b8b1","ios":"levelo://app?vid=bcaf5df7-55c8-41c1-82a5-76762ca2b8b1"},"vehicle_type_id":"4","last_reported":1749582493,"current_range_meters":10000,"station_id":"ce4bh5p2rcd13ifvqe4g","pricing_plan_id":"cebpf4jnsgd1na2vs0mg"},{"bike_id":"f21590a7-bb79-473d-87f0-3dda054257cd","system_id":"levelo_inurba_marseille","lat":43.29434,"lon":5.38606,"is_reserved":false,"is_disabled":false,"rental_uris":{"android":"levelo://app?vid=f21590a7-bb79-473d-87f0-3dda054257cd","ios":"levelo://app?vid=f21590a7-bb79-473d-87f0-3dda054257cd"},"vehicle_type_id":"4","last_reported":1749582493,"current_range_meters":10000,"station_id":"ce4bh2h2rcd13ifvqdh0","pricing_plan_id":"cebpf4jnsgd1na2vs0mg"},{"bike_id":"6890b9e2-87e1-40b6-9e0f-8af99f456400","system_id":"levelo_inurba_marseille","lat":43.2963,"lon":5.38086,"is_reserved":false,"is_disabled":true,"rental_uris":{"android":"levelo://app?vid=6890b9e2-87e1-40b6-9e0f-8af99f456400","ios":"levelo://app?vid=6890b9e2-87e1-40b6-9e0f-8af99f456400"},"vehicle_type_id":"4","last_reported":1749582493,"current_range_meters":10000,"station_id":"ce4bgl12rcd13ifvqbo0","pricing_plan_id":"cebpf4jnsgd1na2vs0mg"},{"bike_id":"c3ab62d0-7ca5-42af-bbd5-61ee874bff62","system_id":"levelo_inurba_marseille","lat":43.2842,"lon":5.34986,"is_reserved":false,"is_disabled":false,"rental_uris":{"android":"levelo://app?vid=c3ab62d0-7ca5-42af-bbd5-61ee874bff62","ios":"levelo://app?vid=c3ab62d0-7ca5-42af-bbd5-61ee874bff62"},"vehicle_type_id":"4","last_reported":1749582493,"current_range_meters":10000,"station_id":"ce4bhbh2rcd13ifvqepg","pricing_plan_id":"cebpf4jnsgd1na2vs0mg"},{"bike_id":"955c930c-c336-417f-bb8a-3d2b0a0f3d0c","system_id":"levelo_inurba_marseille","lat":43.278398,"lon":5.391968,"is_reserved":false,"is_disabled":true,"rental_uris":{"android":"levelo://app?vid=955c930c-c336-417f-bb8a-3d2b0a0f3d0c","ios":"levelo://app?vid=955c930c-c336-417f-bb8a-3d2b0a0f3d0c"},"vehicle_type_id":"4","last_reported":1749582493,"current_range_meters":10000,"station_id":"ce4bhjp2rcd13ifvqga0","pricing_plan_id":"cebpf4jnsgd1na2vs0mg"},{"bike_id":"5e6b1e47-16fd-488b-b7eb-507767b76ee6","system_id":"levelo_inurba_marseille","lat":43.26809,"lon":5.39065,"is_reserved":false,"is_disabled":false,"rental_uris":{"android":"levelo://app?vid=5e6b1e47-16fd-488b-b7eb-507767b76ee6","ios":"levelo://app?vid=5e6b1e47-16fd-488b-b7eb-507767b76ee6"},"vehicle_type_id":"4","last_reported":1749582493,"current_range_meters":10000,"station_id":"","pricing_plan_id":"cebpf4jnsgd1na2vs0mg"},{"bike_id":"69adf9f2-3ed7-46dd-9acc-dc2d5a3814c5","system_id":"levelo_inurba_marseille","lat":43.26227,"lon":5.40451,"is_reserved":false,"is_disabled":false,"rental_uris":{"android":"levelo://app?vid=69adf9f2-3ed7-46dd-9acc-dc2d5a3814c5","ios":"levelo://app?vid=69adf9f2-3ed7-46dd-9acc-dc2d5a3814c5"},"vehicle_type_id":"4","last_reported":1749582493,"current_range_meters":10000,"station_id":"ce4bhmh2rcd13ifvqgmg","pricing_plan_id":"cebpf4jnsgd1na2vs0mg"},{"bike_id":"1ab048e4-d16d-4228-b804-d09de6f24b1e","system_id":"levelo_inurba_marseille","lat":43.2759,"lon":5.391285,"is_reserved":false,"is_disabled":true,"rental_uris":{"android":"levelo://app?vid=1ab048e4-d16d-4228-b804-d09de6f24b1e","ios":"levelo://app?vid=1ab048e4-d16d-4228-b804-d09de6f24b1e"},"vehicle_type_id":"4","last_reported":1749582493,"current_range_meters":10000,"station_id":"ce4bh3p2rcd13ifvqdq0","pricing_plan_id":"cebpf4jnsgd1na2vs0mg"},{"bike_id":"e77ba4e6-7b4b-42ef-9623-02f775916c32","system_id":"levelo_inurba_marseille","lat":43.29259,"lon":5.37632,"is_reserved":false,"is_disabled":false,"rental_uris":{"android":"levelo://app?vid=e77ba4e6-7b4b-42ef-9623-02f775916c32","ios":"levelo://app?vid=e77ba4e6-7b4b-42ef-9623-02f775916c32"},"vehicle_type_id":"4","last_reported":1749582493,"current_range_meters":10000,"station_id":"ce4bgi12rcd13ifvqb80","pricing_plan_id":"cebpf4jnsgd1na2vs0mg"},{"bike_id":"bc0081ae-0d65-40cb-8ae4-e920ba18e787","system_id":"levelo_inurba_marseille","lat":43.31176,"lon":5.38727,"is_reserved":false,"is_disabled":false,"rental_uris":{"android":"levelo://app?vid=bc0081ae-0d65-40cb-8ae4-e920ba18e787","ios":"levelo://app?vid=bc0081ae-0d65-40cb-8ae4-e920ba18e787"},"vehicle_type_id":"4","last_reported":1749582493,"current_range_meters":10800,"station_id":"ce4bgv12rcd13ifvqcp0","pricing_plan_id":"cebpf4jnsgd1na2vs0mg"},{"bike_id":"5077581b-cebb-46fc-ba69-4fa8272d4810","system_id":"levelo_inurba_marseille","lat":43.21371,"lon":5.35519,"is_reserved":false,"is_disabled":false,"rental_uris":{"android":"levelo://app?vid=5077581b-cebb-46fc-ba69-4fa8272d4810","ios":"levelo://app?vid=5077581b-cebb-46fc-ba69-4fa8272d4810"},"vehicle_type_id":"4","last_reported":1749582493,"current_range_meters":10800,"station_id":"","pricing_plan_id":"cebpf4jnsgd1na2vs0mg"},{"bike_id":"ef555bdb-3115-4b1f-9398-9c76776e1204","system_id":"levelo_inurba_marseille","lat":43.26022,"lon":5.37429,"is_reserved":false,"is_disabled":false,"rental_uris":{"android":"levelo://app?vid=ef555bdb-3115-4b1f-9398-9c76776e1204","ios":"levelo://app?vid=ef555bdb-3115-4b1f-9398-9c76776e1204"},"vehicle_type_id":"4","last_reported":1749582493,"current_range_meters":10800,"station_id":"","pricing_plan_id":"cebpf4jnsgd1na2vs0mg"},{"bike_id":"29c9232a-7f2a-46e2-bbd3-2b1aaaadf8e8","system_id":"levelo_inurba_marseille","lat":43.29795,"lon":5.37101,"is_reserved":false,"is_disabled":false,"rental_uris":{"android":"levelo://app?vid=29c9232a-7f2a-46e2-bbd3-2b1aaaadf8e8","ios":"levelo://app?vid=29c9232a-7f2a-46e2-bbd3-2b1aaaadf8e8"},"vehicle_type_id":"4","last_reported":1749582493,"current_range_meters":10800,"station_id":"ce4bgop2rcd13ifvqc1g","pricing_plan_id":"cebpf4jnsgd1na2vs0mg"},{"bike_id":"02b17f18-7a88-440d-9012-58a28560d8c1","system_id":"levelo_inurba_marseille","lat":43.29256,"lon":5.38437,"is_reserved":false,"is_disabled":false,"rental_uris":{"android":"levelo://app?vid=02b17f18-7a88-440d-9012-58a28560d8c1","ios":"levelo://app?vid=02b17f18-7a88-440d-9012-58a28560d8c1"},"vehicle_type_id":"4","last_reported":1749582493,"current_range_meters":10800,"station_id":"ce4bh692rcd13ifvqea0","pricing_plan_id":"cebpf4jnsgd1na2vs0mg"},{"bike_id":"cbff53c4-bf5a-429a-a495-62f2c2026c2c","system_id":"levelo_inurba_marseille","lat":43.31337,"lon":5.39702,"is_reserved":false,"is_disabled":false,"rental_uris":{"android":"levelo://app?vid=cbff53c4-bf5a-429a-a495-62f2c2026c2c","ios":"levelo://app?vid=cbff53c4-bf5a-429a-a495-62f2c2026c2c"},"vehicle_type_id":"4","last_reported":1749582493,"current_range_meters":11600,"station_id":"ce4bgvp2rcd13ifvqcu0","pricing_plan_id":"cebpf4jnsgd1na2vs0mg"},{"bike_id":"49bd46a5-0094-4054-9b8e-f8d840617578","system_id":"levelo_inurba_marseille","lat":43.29278,"lon":5.40116,"is_reserved":false,"is_disabled":false,"rental_uris":{"android":"levelo://app?vid=49bd46a5-0094-4054-9b8e-f8d840617578","ios":"levelo://app?vid=49bd46a5-0094-4054-9b8e-f8d840617578"},"vehicle_type_id":"4","last_reported":1749582493,"current_range_meters":10800,"station_id":"ce4bh312rcd13ifvqdk0","pricing_plan_id":"cebpf4jnsgd1na2vs0mg"},{"bike_id":"2fb82a4e-0ee1-4839-87e1-0819fb18ed3d","system_id":"levelo_inurba_marseille","lat":43.27084,"lon":5.42296,"is_reserved":false,"is_disabled":true,"rental_uris":{"android":"levelo://app?vid=2fb82a4e-0ee1-4839-87e1-0819fb18ed3d","ios":"levelo://app?vid=2fb82a4e-0ee1-4839-87e1-0819fb18ed3d"},"vehicle_type_id":"4","last_reported":1749582493,"current_range_meters":10800,"station_id":"ce4bhk92rcd13ifvqgb0","pricing_plan_id":"cebpf4jnsgd1na2vs0mg"},{"bike_id":"6928e466-519a-43b8-8ee0-554ccb89f881","system_id":"levelo_inurba_marseille","lat":43.28432,"lon":5.3498,"is_reserved":false,"is_disabled":false,"rental_uris":{"android":"levelo://app?vid=6928e466-519a-43b8-8ee0-554ccb89f881","ios":"levelo://app?vid=6928e466-519a-43b8-8ee0-554ccb89f881"},"vehicle_type_id":"4","last_reported":1749582493,"current_range_meters":11200,"station_id":"ce4bhbh2rcd13ifvqepg","pricing_plan_id":"cebpf4jnsgd1na2vs0mg"},{"bike_id":"dafbda55-d708-471f-8895-4c57e744ef34","system_id":"levelo_inurba_marseille","lat":43.29522,"lon":5.394,"is_reserved":false,"is_disabled":false,"rental_uris":{"android":"levelo://app?vid=dafbda55-d708-471f-8895-4c57e744ef34","ios":"levelo://app?vid=dafbda55-d708-471f-8895-4c57e744ef34"},"vehicle_type_id":"4","last_reported":1749582493,"current_range_meters":11200,"station_id":"ce4bh292rcd13ifvqdf0","pricing_plan_id":"cebpf4jnsgd1na2vs0mg"},{"bike_id":"76c0e30f-e1e4-4c2c-8ebe-ff412da7d93c","system_id":"levelo_inurba_marseille","lat":43.2794,"lon":5.41045,"is_reserved":false,"is_disabled":false,"rental_uris":{"android":"levelo://app?vid=76c0e30f-e1e4-4c2c-8ebe-ff412da7d93c","ios":"levelo://app?vid=76c0e30f-e1e4-4c2c-8ebe-ff412da7d93c"},"vehicle_type_id":"4","last_reported":1749582493,"current_range_meters":11200,"station_id":"ce4bhnp2rcd13ifvqh0g","pricing_plan_id":"cebpf4jnsgd1na2vs0mg"},{"bike_id":"05be3764-c854-4dfc-881f-15e28637dd1a","system_id":"levelo_inurba_marseille","lat":43.28941,"lon":5.36392,"is_reserved":false,"is_disabled":false,"rental_uris":{"android":"levelo://app?vid=05be3764-c854-4dfc-881f-15e28637dd1a","ios":"levelo://app?vid=05be3764-c854-4dfc-881f-15e28637dd1a"},"vehicle_type_id":"4","last_reported":1749582493,"current_range_meters":11200,"station_id":"ce4bhc92rcd13ifvqetg","pricing_plan_id":"cebpf4jnsgd1na2vs0mg"},{"bike_id":"29453fc9-b720-4b8b-b038-78f17aac8faf","system_id":"levelo_inurba_marseille","lat":43.27063,"lon":5.40259,"is_reserved":false,"is_disabled":true,"rental_uris":{"android":"levelo://app?vid=29453fc9-b720-4b8b-b038-78f17aac8faf","ios":"levelo://app?vid=29453fc9-b720-4b8b-b038-78f17aac8faf"},"vehicle_type_id":"4","last_reported":1749582493,"current_range_meters":11200,"station_id":"ce4bhk92rcd13ifvqgc0","pricing_plan_id":"cebpf4jnsgd1na2vs0mg"},{"bike_id":"b2ab00b6-6e4a-4ff6-a406-f4ec76a16db7","system_id":"levelo_inurba_marseille","lat":43.289338,"lon":5.366445,"is_reserved":false,"is_disabled":false,"rental_uris":{"android":"levelo://app?vid=b2ab00b6-6e4a-4ff6-a406-f4ec76a16db7","ios":"levelo://app?vid=b2ab00b6-6e4a-4ff6-a406-f4ec76a16db7"},"vehicle_type_id":"4","last_reported":1749582493,"current_range_meters":11200,"station_id":"ce4bhap2rcd13ifvqek0","pricing_plan_id":"cebpf4jnsgd1na2vs0mg"},{"bike_id":"8b07ce71-3626-4558-aaf9-ca368dbf131d","system_id":"levelo_inurba_marseille","lat":43.30135,"lon":5.38786,"is_reserved":false,"is_disabled":false,"rental_uris":{"android":"levelo://app?vid=8b07ce71-3626-4558-aaf9-ca368dbf131d","ios":"levelo://app?vid=8b07ce71-3626-4558-aaf9-ca368dbf131d"},"vehicle_type_id":"4","last_reported":1749582493,"current_range_meters":11200,"station_id":"ce4bghh2rcd13ifvqb60","pricing_plan_id":"cebpf4jnsgd1na2vs0mg"},{"bike_id":"faf9af88-7520-45f6-a888-f640157e4d59","system_id":"levelo_inurba_marseille","lat":43.31771,"lon":5.39005,"is_reserved":false,"is_disabled":false,"rental_uris":{"android":"levelo://app?vid=faf9af88-7520-45f6-a888-f640157e4d59","ios":"levelo://app?vid=faf9af88-7520-45f6-a888-f640157e4d59"},"vehicle_type_id":"4","last_reported":1749582493,"current_range_meters":11200,"station_id":"ce4bhqp2rcd13ifvqhng","pricing_plan_id":"cebpf4jnsgd1na2vs0mg"},{"bike_id":"59312715-509a-4757-aadb-afe9d3682d92","system_id":"levelo_inurba_marseille","lat":43.29273,"lon":5.38434,"is_reserved":false,"is_disabled":false,"rental_uris":{"android":"levelo://app?vid=59312715-509a-4757-aadb-afe9d3682d92","ios":"levelo://app?vid=59312715-509a-4757-aadb-afe9d3682d92"},"vehicle_type_id":"4","last_reported":1749582493,"current_range_meters":11200,"station_id":"ce4bh692rcd13ifvqea0","pricing_plan_id":"cebpf4jnsgd1na2vs0mg"},{"bike_id":"226a6b05-5a54-468b-b3c8-f74158ed4d42","system_id":"levelo_inurba_marseille","lat":43.31166,"lon":5.3872,"is_reserved":false,"is_disabled":false,"rental_uris":{"android":"levelo://app?vid=226a6b05-5a54-468b-b3c8-f74158ed4d42","ios":"levelo://app?vid=226a6b05-5a54-468b-b3c8-f74158ed4d42"},"vehicle_type_id":"4","last_reported":1749582493,"current_range_meters":11600,"station_id":"ce4bgv12rcd13ifvqcp0","pricing_plan_id":"cebpf4jnsgd1na2vs0mg"},{"bike_id":"c613ca2e-1ab4-49e5-8f06-328a28d500ec","system_id":"levelo_inurba_marseille","lat":43.30599,"lon":5.37227,"is_reserved":false,"is_disabled":false,"rental_uris":{"android":"levelo://app?vid=c613ca2e-1ab4-49e5-8f06-328a28d500ec","ios":"levelo://app?vid=c613ca2e-1ab4-49e5-8f06-328a28d500ec"},"vehicle_type_id":"4","last_reported":1749582493,"current_range_meters":11600,"station_id":"ce4bgqh2rcd13ifvqc4g","pricing_plan_id":"cebpf4jnsgd1na2vs0mg"},{"bike_id":"ca27e12a-1f2d-4cf2-be29-12a2b9ff1547","system_id":"levelo_inurba_marseille","lat":43.31713,"lon":5.42417,"is_reserved":false,"is_disabled":false,"rental_uris":{"android":"levelo://app?vid=ca27e12a-1f2d-4cf2-be29-12a2b9ff1547","ios":"levelo://app?vid=ca27e12a-1f2d-4cf2-be29-12a2b9ff1547"},"vehicle_type_id":"4","last_reported":1749582493,"current_range_meters":11600,"station_id":"ce4bhp92rcd13ifvqhbg","pricing_plan_id":"cebpf4jnsgd1na2vs0mg"},{"bike_id":"0448a943-619f-45ce-92d2-e4a6803a24a3","system_id":"levelo_inurba_marseille","lat":43.30416,"lon":5.41287,"is_reserved":false,"is_disabled":false,"rental_uris":{"android":"levelo://app?vid=0448a943-619f-45ce-92d2-e4a6803a24a3","ios":"levelo://app?vid=0448a943-619f-45ce-92d2-e4a6803a24a3"},"vehicle_type_id":"4","last_reported":1749582493,"current_range_meters":8800,"station_id":"ce4bhop2rcd13ifvqh8g","pricing_plan_id":"cebpf4jnsgd1na2vs0mg"},{"bike_id":"992ebe01-5b2b-4e64-9239-8803555d6b49","system_id":"levelo_inurba_marseille","lat":43.30898,"lon":5.37189,"is_reserved":false,"is_disabled":false,"rental_uris":{"android":"levelo://app?vid=992ebe01-5b2b-4e64-9239-8803555d6b49","ios":"levelo://app?vid=992ebe01-5b2b-4e64-9239-8803555d6b49"},"vehicle_type_id":"4","last_reported":1749582493,"current_range_meters":12000,"station_id":"ce4bguh2rcd13ifvqckg","pricing_plan_id":"cebpf4jnsgd1na2vs0mg"},{"bike_id":"0d734763-30d4-4dd6-bf60-7ea25efa254f","system_id":"levelo_inurba_marseille","lat":43.28699,"lon":5.37387,"is_reserved":false,"is_disabled":false,"rental_uris":{"android":"levelo://app?vid=0d734763-30d4-4dd6-bf60-7ea25efa254f","ios":"levelo://app?vid=0d734763-30d4-4dd6-bf60-7ea25efa254f"},"vehicle_type_id":"4","last_reported":1749582493,"current_range_meters":12000,"station_id":"ce4bh3p2rcd13ifvqdq0","pricing_plan_id":"cebpf4jnsgd1na2vs0mg"},{"bike_id":"ba7f4192-5feb-4525-9aa1-d44f12bd4582","system_id":"levelo_inurba_marseille","lat":43.30084,"lon":5.39073,"is_reserved":false,"is_disabled":false,"rental_uris":{"android":"levelo://app?vid=ba7f4192-5feb-4525-9aa1-d44f12bd4582","ios":"levelo://app?vid=ba7f4192-5feb-4525-9aa1-d44f12bd4582"},"vehicle_type_id":"4","last_reported":1749582493,"current_range_meters":12000,"station_id":"ce4bh192rcd13ifvqdb0","pricing_plan_id":"cebpf4jnsgd1na2vs0mg"},{"bike_id":"e80356dd-491f-4e02-9cbe-de8931d030e7","system_id":"levelo_inurba_marseille","lat":43.28855,"lon":5.35838,"is_reserved":false,"is_disabled":false,"rental_uris":{"android":"levelo://app?vid=e80356dd-491f-4e02-9cbe-de8931d030e7","ios":"levelo://app?vid=e80356dd-491f-4e02-9cbe-de8931d030e7"},"vehicle_type_id":"4","last_reported":1749582493,"current_range_meters":12000,"station_id":"ce4bhb12rcd13ifvqem0","pricing_plan_id":"cebpf4jnsgd1na2vs0mg"},{"bike_id":"1beaea39-39e5-41c5-b8cd-d02d2354349e","system_id":"levelo_inurba_marseille","lat":43.29072,"lon":5.3716,"is_reserved":false,"is_disabled":false,"rental_uris":{"android":"levelo://app?vid=1beaea39-39e5-41c5-b8cd-d02d2354349e","ios":"levelo://app?vid=1beaea39-39e5-41c5-b8cd-d02d2354349e"},"vehicle_type_id":"4","last_reported":1749582493,"current_range_meters":12000,"station_id":"ce4bh5p2rcd13ifvqe4g","pricing_plan_id":"cebpf4jnsgd1na2vs0mg"},{"bike_id":"f5e7b4d1-016d-4e5c-bdea-6b4bae0120ac","system_id":"levelo_inurba_marseille","lat":43.25674,"lon":5.41088,"is_reserved":false,"is_disabled":false,"rental_uris":{"android":"levelo://app?vid=f5e7b4d1-016d-4e5c-bdea-6b4bae0120ac","ios":"levelo://app?vid=f5e7b4d1-016d-4e5c-bdea-6b4bae0120ac"},"vehicle_type_id":"4","last_reported":1749582493,"current_range_meters":12400,"station_id":"ce4bhkp2rcd13ifvqgd0","pricing_plan_id":"cebpf4jnsgd1na2vs0mg"},{"bike_id":"0e90946c-2cdd-47cf-8128-502f76b0b80e","system_id":"levelo_inurba_marseille","lat":43.31065,"lon":5.38356,"is_reserved":false,"is_disabled":false,"rental_uris":{"android":"levelo://app?vid=0e90946c-2cdd-47cf-8128-502f76b0b80e","ios":"levelo://app?vid=0e90946c-2cdd-47cf-8128-502f76b0b80e"},"vehicle_type_id":"4","last_reported":1749582493,"current_range_meters":12000,"station_id":"ce4bgv92rcd13ifvqcr0","pricing_plan_id":"cebpf4jnsgd1na2vs0mg"},{"bike_id":"1e11feb0-0a6e-4b0e-aa98-d035d3992658","system_id":"levelo_inurba_marseille","lat":43.324827,"lon":5.4243,"is_reserved":false,"is_disabled":false,"rental_uris":{"android":"levelo://app?vid=1e11feb0-0a6e-4b0e-aa98-d035d3992658","ios":"levelo://app?vid=1e11feb0-0a6e-4b0e-aa98-d035d3992658"},"vehicle_type_id":"4","last_reported":1749582493,"current_range_meters":12000,"station_id":"","pricing_plan_id":"cebpf4jnsgd1na2vs0mg"},{"bike_id":"80dd443b-2034-4c7d-b47a-f706d55947cd","system_id":"levelo_inurba_marseille","lat":43.28419,"lon":5.37507,"is_reserved":false,"is_disabled":false,"rental_uris":{"android":"levelo://app?vid=80dd443b-2034-4c7d-b47a-f706d55947cd","ios":"levelo://app?vid=80dd443b-2034-4c7d-b47a-f706d55947cd"},"vehicle_type_id":"4","last_reported":1749582493,"current_range_meters":12400,"station_id":"ce4bh412rcd13ifvqds0","pricing_plan_id":"cebpf4jnsgd1na2vs0mg"},{"bike_id":"17ce4098-23dd-46b9-ae48-2bbe0f9e9785","system_id":"levelo_inurba_marseille","lat":43.27978,"lon":5.38738,"is_reserved":false,"is_disabled":false,"rental_uris":{"android":"levelo://app?vid=17ce4098-23dd-46b9-ae48-2bbe0f9e9785","ios":"levelo://app?vid=17ce4098-23dd-46b9-ae48-2bbe0f9e9785"},"vehicle_type_id":"4","last_reported":1749582493,"current_range_meters":12400,"station_id":"ce4bhg12rcd13ifvqf80","pricing_plan_id":"cebpf4jnsgd1na2vs0mg"},{"bike_id":"63355ec4-670a-4613-a965-423a68eb1a8e","system_id":"levelo_inurba_marseille","lat":43.30207,"lon":5.39478,"is_reserved":false,"is_disabled":false,"rental_uris":{"android":"levelo://app?vid=63355ec4-670a-4613-a965-423a68eb1a8e","ios":"levelo://app?vid=63355ec4-670a-4613-a965-423a68eb1a8e"},"vehicle_type_id":"4","last_reported":1749582493,"current_range_meters":12400,"station_id":"ce4bh0p2rcd13ifvqd70","pricing_plan_id":"cebpf4jnsgd1na2vs0mg"},{"bike_id":"187b0a7b-e256-4c19-9794-bb250a6c5653","system_id":"levelo_inurba_marseille","lat":43.31853,"lon":5.37977,"is_reserved":false,"is_disabled":false,"rental_uris":{"android":"levelo://app?vid=187b0a7b-e256-4c19-9794-bb250a6c5653","ios":"levelo://app?vid=187b0a7b-e256-4c19-9794-bb250a6c5653"},"vehicle_type_id":"4","last_reported":1749582493,"current_range_meters":12400,"station_id":"","pricing_plan_id":"cebpf4jnsgd1na2vs0mg"},{"bike_id":"ab5d796b-6f87-4b6e-a5bd-6ac051fcacd1","system_id":"levelo_inurba_marseille","lat":43.32501,"lon":5.36561,"is_reserved":false,"is_disabled":false,"rental_uris":{"android":"levelo://app?vid=ab5d796b-6f87-4b6e-a5bd-6ac051fcacd1","ios":"levelo://app?vid=ab5d796b-6f87-4b6e-a5bd-6ac051fcacd1"},"vehicle_type_id":"4","last_reported":1749582493,"current_range_meters":12800,"station_id":"ce4bhs12rcd13ifvqhvg","pricing_plan_id":"cebpf4jnsgd1na2vs0mg"},{"bike_id":"f6cc5675-3614-462d-9bdf-bdc4c5807b27","system_id":"levelo_inurba_marseille","lat":43.29261,"lon":5.38438,"is_reserved":false,"is_disabled":false,"rental_uris":{"android":"levelo://app?vid=f6cc5675-3614-462d-9bdf-bdc4c5807b27","ios":"levelo://app?vid=f6cc5675-3614-462d-9bdf-bdc4c5807b27"},"vehicle_type_id":"4","last_reported":1749582493,"current_range_meters":12800,"station_id":"ce4bh692rcd13ifvqea0","pricing_plan_id":"cebpf4jnsgd1na2vs0mg"},{"bike_id":"15138ce4-9850-4a09-9eb2-0da12393d0d8","system_id":"levelo_inurba_marseille","lat":43.31713,"lon":5.43691,"is_reserved":false,"is_disabled":false,"rental_uris":{"android":"levelo://app?vid=15138ce4-9850-4a09-9eb2-0da12393d0d8","ios":"levelo://app?vid=15138ce4-9850-4a09-9eb2-0da12393d0d8"},"vehicle_type_id":"4","last_reported":1749582493,"current_range_meters":12800,"station_id":"ce4bhp92rcd13ifvqhcg","pricing_plan_id":"cebpf4jnsgd1na2vs0mg"},{"bike_id":"6181a8f6-1227-49a1-9beb-bb1c37c1ae5c","system_id":"levelo_inurba_marseille","lat":43.28002,"lon":5.41658,"is_reserved":false,"is_disabled":true,"rental_uris":{"android":"levelo://app?vid=6181a8f6-1227-49a1-9beb-bb1c37c1ae5c","ios":"levelo://app?vid=6181a8f6-1227-49a1-9beb-bb1c37c1ae5c"},"vehicle_type_id":"4","last_reported":1749582493,"current_range_meters":13600,"station_id":"ce4bho12rcd13ifvqh1g","pricing_plan_id":"cebpf4jnsgd1na2vs0mg"},{"bike_id":"09fc93df-1b5b-4565-bebf-a33c16f5f13b","system_id":"levelo_inurba_marseille","lat":43.33165,"lon":5.38164,"is_reserved":false,"is_disabled":false,"rental_uris":{"android":"levelo://app?vid=09fc93df-1b5b-4565-bebf-a33c16f5f13b","ios":"levelo://app?vid=09fc93df-1b5b-4565-bebf-a33c16f5f13b"},"vehicle_type_id":"4","last_reported":1749582493,"current_range_meters":13600,"station_id":"","pricing_plan_id":"cebpf4jnsgd1na2vs0mg"},{"bike_id":"c30dbedc-c866-492b-a092-32c1ee0c1f22","system_id":"levelo_inurba_marseille","lat":43.29534,"lon":5.38548,"is_reserved":false,"is_disabled":true,"rental_uris":{"android":"levelo://app?vid=c30dbedc-c866-492b-a092-32c1ee0c1f22","ios":"levelo://app?vid=c30dbedc-c866-492b-a092-32c1ee0c1f22"},"vehicle_type_id":"4","last_reported":1749582493,"current_range_meters":13600,"station_id":"ce4bgih2rcd13ifvqba0","pricing_plan_id":"cebpf4jnsgd1na2vs0mg"},{"bike_id":"8728183e-bf98-4b19-9132-5122f747c6bb","system_id":"levelo_inurba_marseille","lat":43.29538,"lon":5.38558,"is_reserved":false,"is_disabled":false,"rental_uris":{"android":"levelo://app?vid=8728183e-bf98-4b19-9132-5122f747c6bb","ios":"levelo://app?vid=8728183e-bf98-4b19-9132-5122f747c6bb"},"vehicle_type_id":"4","last_reported":1749582493,"current_range_meters":13600,"station_id":"ce4bgih2rcd13ifvqba0","pricing_plan_id":"cebpf4jnsgd1na2vs0mg"},{"bike_id":"03987622-f916-4e09-b1fb-b388037295a5","system_id":"levelo_inurba_marseille","lat":43.23959,"lon":5.36626,"is_reserved":false,"is_disabled":false,"rental_uris":{"android":"levelo://app?vid=03987622-f916-4e09-b1fb-b388037295a5","ios":"levelo://app?vid=03987622-f916-4e09-b1fb-b388037295a5"},"vehicle_type_id":"4","last_reported":1749582493,"current_range_meters":13600,"station_id":"ce4bhi12rcd13ifvqfp0","pricing_plan_id":"cebpf4jnsgd1na2vs0mg"},{"bike_id":"d308fd5f-114d-4c8d-acf2-a21c562bff36","system_id":"levelo_inurba_marseille","lat":43.28612,"lon":5.3706,"is_reserved":false,"is_disabled":false,"rental_uris":{"android":"levelo://app?vid=d308fd5f-114d-4c8d-acf2-a21c562bff36","ios":"levelo://app?vid=d308fd5f-114d-4c8d-acf2-a21c562bff36"},"vehicle_type_id":"4","last_reported":1749582493,"current_range_meters":13600,"station_id":"ce4bht12rcd13ifvqi60","pricing_plan_id":"cebpf4jnsgd1na2vs0mg"},{"bike_id":"1e20f032-0f6a-40b2-ad29-e4d2225496fa","system_id":"levelo_inurba_marseille","lat":43.30306,"lon":5.3707,"is_reserved":false,"is_disabled":false,"rental_uris":{"android":"levelo://app?vid=1e20f032-0f6a-40b2-ad29-e4d2225496fa","ios":"levelo://app?vid=1e20f032-0f6a-40b2-ad29-e4d2225496fa"},"vehicle_type_id":"4","last_reported":1749582493,"current_range_meters":13600,"station_id":"","pricing_plan_id":"cebpf4jnsgd1na2vs0mg"},{"bike_id":"99bbe3d8-7cac-473e-aad1-8397bab72544","system_id":"levelo_inurba_marseille","lat":43.29016,"lon":5.38143,"is_reserved":false,"is_disabled":false,"rental_uris":{"android":"levelo://app?vid=99bbe3d8-7cac-473e-aad1-8397bab72544","ios":"levelo://app?vid=99bbe3d8-7cac-473e-aad1-8397bab72544"},"vehicle_type_id":"4","last_reported":1749582493,"current_range_meters":13600,"station_id":"ce4bh4p2rcd13ifvqe1g","pricing_plan_id":"cebpf4jnsgd1na2vs0mg"},{"bike_id":"c50ba8e4-13a9-423b-8677-05d631ab5fc2","system_id":"levelo_inurba_marseille","lat":43.26202,"lon":5.37436,"is_reserved":false,"is_disabled":false,"rental_uris":{"android":"levelo://app?vid=c50ba8e4-13a9-423b-8677-05d631ab5fc2","ios":"levelo://app?vid=c50ba8e4-13a9-423b-8677-05d631ab5fc2"},"vehicle_type_id":"4","last_reported":1749582493,"current_range_meters":14000,"station_id":"ce4bhgp2rcd13ifvqfc0","pricing_plan_id":"cebpf4jnsgd1na2vs0mg"},{"bike_id":"0af583a0-a91d-4b3b-b006-ae165836b41e","system_id":"levelo_inurba_marseille","lat":43.29302,"lon":5.37481,"is_reserved":false,"is_disabled":false,"rental_uris":{"android":"levelo://app?vid=0af583a0-a91d-4b3b-b006-ae165836b41e","ios":"levelo://app?vid=0af583a0-a91d-4b3b-b006-ae165836b41e"},"vehicle_type_id":"4","last_reported":1749582493,"current_range_meters":14000,"station_id":"ce4bgi12rcd13ifvqb70","pricing_plan_id":"cebpf4jnsgd1na2vs0mg"},{"bike_id":"d69fe909-4970-457d-a94f-75cfadd2b849","system_id":"levelo_inurba_marseille","lat":43.3176,"lon":5.39013,"is_reserved":false,"is_disabled":false,"rental_uris":{"android":"levelo://app?vid=d69fe909-4970-457d-a94f-75cfadd2b849","ios":"levelo://app?vid=d69fe909-4970-457d-a94f-75cfadd2b849"},"vehicle_type_id":"4","last_reported":1749582493,"current_range_meters":14000,"station_id":"ce4bhqp2rcd13ifvqhng","pricing_plan_id":"cebpf4jnsgd1na2vs0mg"},{"bike_id":"07e368c6-7346-4abc-a8e7-dc60547d9d55","system_id":"levelo_inurba_marseille","lat":43.290068,"lon":5.356111,"is_reserved":false,"is_disabled":false,"rental_uris":{"android":"levelo://app?vid=07e368c6-7346-4abc-a8e7-dc60547d9d55","ios":"levelo://app?vid=07e368c6-7346-4abc-a8e7-dc60547d9d55"},"vehicle_type_id":"4","last_reported":1749582493,"current_range_meters":14000,"station_id":"ce4bhb92rcd13ifvqen0","pricing_plan_id":"cebpf4jnsgd1na2vs0mg"},{"bike_id":"3ddad39c-bd95-49a1-abde-b94ef37a9eee","system_id":"levelo_inurba_marseille","lat":43.30316,"lon":5.36893,"is_reserved":false,"is_disabled":false,"rental_uris":{"android":"levelo://app?vid=3ddad39c-bd95-49a1-abde-b94ef37a9eee","ios":"levelo://app?vid=3ddad39c-bd95-49a1-abde-b94ef37a9eee"},"vehicle_type_id":"4","last_reported":1749582493,"current_range_meters":14000,"station_id":"ce4bgqh2rcd13ifvqc5g","pricing_plan_id":"cebpf4jnsgd1na2vs0mg"},{"bike_id":"47cf863e-5a3e-4dbb-b4f5-80f883903ace","system_id":"levelo_inurba_marseille","lat":43.28364,"lon":5.38104,"is_reserved":false,"is_disabled":false,"rental_uris":{"android":"levelo://app?vid=47cf863e-5a3e-4dbb-b4f5-80f883903ace","ios":"levelo://app?vid=47cf863e-5a3e-4dbb-b4f5-80f883903ace"},"vehicle_type_id":"4","last_reported":1749582493,"current_range_meters":14000,"station_id":"ce4bh412rcd13ifvqdr0","pricing_plan_id":"cebpf4jnsgd1na2vs0mg"},{"bike_id":"f0e6557f-7fe1-444b-b1ec-d4b4bef9a76c","system_id":"levelo_inurba_marseille","lat":43.25118,"lon":5.40315,"is_reserved":false,"is_disabled":false,"rental_uris":{"android":"levelo://app?vid=f0e6557f-7fe1-444b-b1ec-d4b4bef9a76c","ios":"levelo://app?vid=f0e6557f-7fe1-444b-b1ec-d4b4bef9a76c"},"vehicle_type_id":"4","last_reported":1749582493,"current_range_meters":14400,"station_id":"ce4bhlh2rcd13ifvqgig","pricing_plan_id":"cebpf4jnsgd1na2vs0mg"},{"bike_id":"e61a5abb-c900-4d6e-8217-a46fab06e9f4","system_id":"levelo_inurba_marseille","lat":43.33025,"lon":5.39238,"is_reserved":false,"is_disabled":false,"rental_uris":{"android":"levelo://app?vid=e61a5abb-c900-4d6e-8217-a46fab06e9f4","ios":"levelo://app?vid=e61a5abb-c900-4d6e-8217-a46fab06e9f4"},"vehicle_type_id":"4","last_reported":1749582493,"current_range_meters":14400,"station_id":"","pricing_plan_id":"cebpf4jnsgd1na2vs0mg"},{"bike_id":"c56c5ea6-c8f0-4ef7-b078-998e9cf13c13","system_id":"levelo_inurba_marseille","lat":43.30146,"lon":5.38773,"is_reserved":false,"is_disabled":false,"rental_uris":{"android":"levelo://app?vid=c56c5ea6-c8f0-4ef7-b078-998e9cf13c13","ios":"levelo://app?vid=c56c5ea6-c8f0-4ef7-b078-998e9cf13c13"},"vehicle_type_id":"4","last_reported":1749582493,"current_range_meters":14400,"station_id":"ce4bghh2rcd13ifvqb60","pricing_plan_id":"cebpf4jnsgd1na2vs0mg"},{"bike_id":"bac4da99-3f8a-4ab7-ba39-cfe59470c524","system_id":"levelo_inurba_marseille","lat":43.24805,"lon":5.37453,"is_reserved":false,"is_disabled":false,"rental_uris":{"android":"levelo://app?vid=bac4da99-3f8a-4ab7-ba39-cfe59470c524","ios":"levelo://app?vid=bac4da99-3f8a-4ab7-ba39-cfe59470c524"},"vehicle_type_id":"4","last_reported":1749582493,"current_range_meters":14400,"station_id":"ce4bhgh2rcd13ifvqfb0","pricing_plan_id":"cebpf4jnsgd1na2vs0mg"},{"bike_id":"262903a9-22b9-4b2d-96c2-2e5dbd155090","system_id":"levelo_inurba_marseille","lat":43.32464,"lon":5.36548,"is_reserved":false,"is_disabled":false,"rental_uris":{"android":"levelo://app?vid=262903a9-22b9-4b2d-96c2-2e5dbd155090","ios":"levelo://app?vid=262903a9-22b9-4b2d-96c2-2e5dbd155090"},"vehicle_type_id":"4","last_reported":1749582493,"current_range_meters":14800,"station_id":"ce4bhs12rcd13ifvqhvg","pricing_plan_id":"cebpf4jnsgd1na2vs0mg"},{"bike_id":"099b325a-30ef-4475-909d-ca18d2254b4c","system_id":"levelo_inurba_marseille","lat":43.27394,"lon":5.36237,"is_reserved":false,"is_disabled":false,"rental_uris":{"android":"levelo://app?vid=099b325a-30ef-4475-909d-ca18d2254b4c","ios":"levelo://app?vid=099b325a-30ef-4475-909d-ca18d2254b4c"},"vehicle_type_id":"4","last_reported":1749582493,"current_range_meters":14800,"station_id":"ce4bhbh2rcd13ifvqeo0","pricing_plan_id":"cebpf4jnsgd1na2vs0mg"},{"bike_id":"6a0edc38-4fe2-4f6e-8bb0-1b8c01ef784e","system_id":"levelo_inurba_marseille","lat":43.286116,"lon":5.350986,"is_reserved":false,"is_disabled":false,"rental_uris":{"android":"levelo://app?vid=6a0edc38-4fe2-4f6e-8bb0-1b8c01ef784e","ios":"levelo://app?vid=6a0edc38-4fe2-4f6e-8bb0-1b8c01ef784e"},"vehicle_type_id":"4","last_reported":1749582493,"current_range_meters":14800,"station_id":"ce4bhch2rcd13ifvqeug","pricing_plan_id":"cebpf4jnsgd1na2vs0mg"},{"bike_id":"d6c82700-6ef8-4988-b92b-4e7d70084d02","system_id":"levelo_inurba_marseille","lat":43.29178,"lon":5.35801,"is_reserved":false,"is_disabled":false,"rental_uris":{"android":"levelo://app?vid=d6c82700-6ef8-4988-b92b-4e7d70084d02","ios":"levelo://app?vid=d6c82700-6ef8-4988-b92b-4e7d70084d02"},"vehicle_type_id":"4","last_reported":1749582493,"current_range_meters":14800,"station_id":"ce4bhb12rcd13ifvqel0","pricing_plan_id":"cebpf4jnsgd1na2vs0mg"},{"bike_id":"843b8a69-8f52-41c8-80ed-7550d05696bf","system_id":"levelo_inurba_marseille","lat":43.32482,"lon":5.3656,"is_reserved":false,"is_disabled":false,"rental_uris":{"android":"levelo://app?vid=843b8a69-8f52-41c8-80ed-7550d05696bf","ios":"levelo://app?vid=843b8a69-8f52-41c8-80ed-7550d05696bf"},"vehicle_type_id":"4","last_reported":1749582493,"current_range_meters":14800,"station_id":"ce4bhs12rcd13ifvqhvg","pricing_plan_id":"cebpf4jnsgd1na2vs0mg"},{"bike_id":"72a94b25-2fe0-4919-8521-e8b66695aa46","system_id":"levelo_inurba_marseille","lat":43.286987,"lon":5.399945,"is_reserved":false,"is_disabled":false,"rental_uris":{"android":"levelo://app?vid=72a94b25-2fe0-4919-8521-e8b66695aa46","ios":"levelo://app?vid=72a94b25-2fe0-4919-8521-e8b66695aa46"},"vehicle_type_id":"4","last_reported":1749582493,"current_range_meters":14800,"station_id":"","pricing_plan_id":"cebpf4jnsgd1na2vs0mg"},{"bike_id":"2a22d440-c0d5-4db1-9d70-0729cd897b9e","system_id":"levelo_inurba_marseille","lat":43.29537,"lon":5.38532,"is_reserved":false,"is_disabled":false,"rental_uris":{"android":"levelo://app?vid=2a22d440-c0d5-4db1-9d70-0729cd897b9e","ios":"levelo://app?vid=2a22d440-c0d5-4db1-9d70-0729cd897b9e"},"vehicle_type_id":"4","last_reported":1749582493,"current_range_meters":14800,"station_id":"ce4bgih2rcd13ifvqba0","pricing_plan_id":"cebpf4jnsgd1na2vs0mg"},{"bike_id":"73c12a2a-7087-41a9-bf94-95a936b27fb9","system_id":"levelo_inurba_marseille","lat":43.29567,"lon":5.37502,"is_reserved":false,"is_disabled":false,"rental_uris":{"android":"levelo://app?vid=73c12a2a-7087-41a9-bf94-95a936b27fb9","ios":"levelo://app?vid=73c12a2a-7087-41a9-bf94-95a936b27fb9"},"vehicle_type_id":"4","last_reported":1749582493,"current_range_meters":14800,"station_id":"ce4bgh92rcd13ifvqb50","pricing_plan_id":"cebpf4jnsgd1na2vs0mg"},{"bike_id":"d59db2ac-bac5-4944-90e1-cdfef7914127","system_id":"levelo_inurba_marseille","lat":43.29544,"lon":5.39416,"is_reserved":false,"is_disabled":false,"rental_uris":{"android":"levelo://app?vid=d59db2ac-bac5-4944-90e1-cdfef7914127","ios":"levelo://app?vid=d59db2ac-bac5-4944-90e1-cdfef7914127"},"vehicle_type_id":"4","last_reported":1749582493,"current_range_meters":14800,"station_id":"ce4bh292rcd13ifvqdf0","pricing_plan_id":"cebpf4jnsgd1na2vs0mg"},{"bike_id":"2fb77abd-3112-4fce-99a6-71b8052ec74f","system_id":"levelo_inurba_marseille","lat":43.27942,"lon":5.41045,"is_reserved":false,"is_disabled":false,"rental_uris":{"android":"levelo://app?vid=2fb77abd-3112-4fce-99a6-71b8052ec74f","ios":"levelo://app?vid=2fb77abd-3112-4fce-99a6-71b8052ec74f"},"vehicle_type_id":"4","last_reported":1749582493,"current_range_meters":14800,"station_id":"ce4bhnp2rcd13ifvqh0g","pricing_plan_id":"cebpf4jnsgd1na2vs0mg"},{"bike_id":"d32ef587-5652-4325-816c-1dbad6f1fd8f","system_id":"levelo_inurba_marseille","lat":43.2958,"lon":5.36738,"is_reserved":false,"is_disabled":false,"rental_uris":{"android":"levelo://app?vid=d32ef587-5652-4325-816c-1dbad6f1fd8f","ios":"levelo://app?vid=d32ef587-5652-4325-816c-1dbad6f1fd8f"},"vehicle_type_id":"4","last_reported":1749582493,"current_range_meters":14800,"station_id":"ce4bgph2rcd13ifvqc2g","pricing_plan_id":"cebpf4jnsgd1na2vs0mg"},{"bike_id":"84f5a926-1dd6-4535-b647-2764ce0ca103","system_id":"levelo_inurba_marseille","lat":43.32205,"lon":5.36748,"is_reserved":false,"is_disabled":false,"rental_uris":{"android":"levelo://app?vid=84f5a926-1dd6-4535-b647-2764ce0ca103","ios":"levelo://app?vid=84f5a926-1dd6-4535-b647-2764ce0ca103"},"vehicle_type_id":"4","last_reported":1749582493,"current_range_meters":14800,"station_id":"ce4bhrh2rcd13ifvqhug","pricing_plan_id":"cebpf4jnsgd1na2vs0mg"},{"bike_id":"1e5fef25-37e9-4fb9-9303-2a15c31b61a6","system_id":"levelo_inurba_marseille","lat":43.2417,"lon":5.36397,"is_reserved":false,"is_disabled":false,"rental_uris":{"android":"levelo://app?vid=1e5fef25-37e9-4fb9-9303-2a15c31b61a6","ios":"levelo://app?vid=1e5fef25-37e9-4fb9-9303-2a15c31b61a6"},"vehicle_type_id":"4","last_reported":1749582493,"current_range_meters":14800,"station_id":"cpo36qri1sfpv3e86is0","pricing_plan_id":"cebpf4jnsgd1na2vs0mg"},{"bike_id":"f069439b-750c-424a-b619-732b0da17305","system_id":"levelo_inurba_marseille","lat":43.29595,"lon":5.381,"is_reserved":false,"is_disabled":false,"rental_uris":{"android":"levelo://app?vid=f069439b-750c-424a-b619-732b0da17305","ios":"levelo://app?vid=f069439b-750c-424a-b619-732b0da17305"},"vehicle_type_id":"4","last_reported":1749582493,"current_range_meters":14800,"station_id":"ce4bgl12rcd13ifvqbo0","pricing_plan_id":"cebpf4jnsgd1na2vs0mg"},{"bike_id":"23998689-a70c-4d05-946e-658481c51014","system_id":"levelo_inurba_marseille","lat":43.293865,"lon":5.386027,"is_reserved":false,"is_disabled":false,"rental_uris":{"android":"levelo://app?vid=23998689-a70c-4d05-946e-658481c51014","ios":"levelo://app?vid=23998689-a70c-4d05-946e-658481c51014"},"vehicle_type_id":"4","last_reported":1749582493,"current_range_meters":15200,"station_id":"ce4bh2h2rcd13ifvqdh0","pricing_plan_id":"cebpf4jnsgd1na2vs0mg"},{"bike_id":"3b18251b-7e62-4d08-8bbd-09c97267ada0","system_id":"levelo_inurba_marseille","lat":43.28483,"lon":5.38533,"is_reserved":false,"is_disabled":false,"rental_uris":{"android":"levelo://app?vid=3b18251b-7e62-4d08-8bbd-09c97267ada0","ios":"levelo://app?vid=3b18251b-7e62-4d08-8bbd-09c97267ada0"},"vehicle_type_id":"4","last_reported":1749582493,"current_range_meters":15200,"station_id":"ce4bh8p2rcd13ifvqeb0","pricing_plan_id":"cebpf4jnsgd1na2vs0mg"},{"bike_id":"040f65b7-acd8-474f-90c1-a73e0f19c43f","system_id":"levelo_inurba_marseille","lat":43.30233,"lon":5.40049,"is_reserved":false,"is_disabled":false,"rental_uris":{"android":"levelo://app?vid=040f65b7-acd8-474f-90c1-a73e0f19c43f","ios":"levelo://app?vid=040f65b7-acd8-474f-90c1-a73e0f19c43f"},"vehicle_type_id":"4","last_reported":1749582493,"current_range_meters":15200,"station_id":"ce4bgvh2rcd13ifvqcs0","pricing_plan_id":"cebpf4jnsgd1na2vs0mg"},{"bike_id":"99d73da4-2f13-4fcd-828c-e9d7da0f7465","system_id":"levelo_inurba_marseille","lat":43.27903,"lon":5.38011,"is_reserved":false,"is_disabled":false,"rental_uris":{"android":"levelo://app?vid=99d73da4-2f13-4fcd-828c-e9d7da0f7465","ios":"levelo://app?vid=99d73da4-2f13-4fcd-828c-e9d7da0f7465"},"vehicle_type_id":"4","last_reported":1749582493,"current_range_meters":15200,"station_id":"ce4bhf92rcd13ifvqf50","pricing_plan_id":"cebpf4jnsgd1na2vs0mg"},{"bike_id":"002ad4e8-6140-4bdd-b14b-f38ee707447e","system_id":"levelo_inurba_marseille","lat":43.30987,"lon":5.38578,"is_reserved":false,"is_disabled":false,"rental_uris":{"android":"levelo://app?vid=002ad4e8-6140-4bdd-b14b-f38ee707447e","ios":"levelo://app?vid=002ad4e8-6140-4bdd-b14b-f38ee707447e"},"vehicle_type_id":"4","last_reported":1749582493,"current_range_meters":15200,"station_id":"","pricing_plan_id":"cebpf4jnsgd1na2vs0mg"},{"bike_id":"459ca737-6f77-471f-8093-5a88355f5584","system_id":"levelo_inurba_marseille","lat":43.275,"lon":5.42448,"is_reserved":false,"is_disabled":false,"rental_uris":{"android":"levelo://app?vid=459ca737-6f77-471f-8093-5a88355f5584","ios":"levelo://app?vid=459ca737-6f77-471f-8093-5a88355f5584"},"vehicle_type_id":"4","last_reported":1749582493,"current_range_meters":15200,"station_id":"ce4bhn92rcd13ifvqgrg","pricing_plan_id":"cebpf4jnsgd1na2vs0mg"},{"bike_id":"fd1d14a0-1a3e-4eb9-b19e-044738f5d1c3","system_id":"levelo_inurba_marseille","lat":43.29001,"lon":5.35607,"is_reserved":false,"is_disabled":true,"rental_uris":{"android":"levelo://app?vid=fd1d14a0-1a3e-4eb9-b19e-044738f5d1c3","ios":"levelo://app?vid=fd1d14a0-1a3e-4eb9-b19e-044738f5d1c3"},"vehicle_type_id":"4","last_reported":1749582493,"current_range_meters":15200,"station_id":"ce4bhb92rcd13ifvqen0","pricing_plan_id":"cebpf4jnsgd1na2vs0mg"},{"bike_id":"a1398c8d-901e-440a-b762-8c889f8f1582","system_id":"levelo_inurba_marseille","lat":43.32372,"lon":5.38881,"is_reserved":false,"is_disabled":false,"rental_uris":{"android":"levelo://app?vid=a1398c8d-901e-440a-b762-8c889f8f1582","ios":"levelo://app?vid=a1398c8d-901e-440a-b762-8c889f8f1582"},"vehicle_type_id":"4","last_reported":1749582493,"current_range_meters":15200,"station_id":"ce4bhqp2rcd13ifvqhog","pricing_plan_id":"cebpf4jnsgd1na2vs0mg"},{"bike_id":"4727b314-3bd1-43f9-b43d-76c9166f290d","system_id":"levelo_inurba_marseille","lat":43.32342,"lon":5.40626,"is_reserved":false,"is_disabled":false,"rental_uris":{"android":"levelo://app?vid=4727b314-3bd1-43f9-b43d-76c9166f290d","ios":"levelo://app?vid=4727b314-3bd1-43f9-b43d-76c9166f290d"},"vehicle_type_id":"4","last_reported":1749582493,"current_range_meters":16000,"station_id":"ce4bhq92rcd13ifvqhjg","pricing_plan_id":"cebpf4jnsgd1na2vs0mg"},{"bike_id":"03b5290d-c596-4067-adda-74fb07463890","system_id":"levelo_inurba_marseille","lat":43.2863,"lon":5.35106,"is_reserved":false,"is_disabled":false,"rental_uris":{"android":"levelo://app?vid=03b5290d-c596-4067-adda-74fb07463890","ios":"levelo://app?vid=03b5290d-c596-4067-adda-74fb07463890"},"vehicle_type_id":"4","last_reported":1749582493,"current_range_meters":16000,"station_id":"ce4bhch2rcd13ifvqeug","pricing_plan_id":"cebpf4jnsgd1na2vs0mg"},{"bike_id":"550f8228-d554-4819-a428-97c5e8f98831","system_id":"levelo_inurba_marseille","lat":43.32532,"lon":5.42492,"is_reserved":false,"is_disabled":false,"rental_uris":{"android":"levelo://app?vid=550f8228-d554-4819-a428-97c5e8f98831","ios":"levelo://app?vid=550f8228-d554-4819-a428-97c5e8f98831"},"vehicle_type_id":"4","last_reported":1749582493,"current_range_meters":16000,"station_id":"","pricing_plan_id":"cebpf4jnsgd1na2vs0mg"},{"bike_id":"e857b26f-e98d-4e5b-a472-9489934cc3bc","system_id":"levelo_inurba_marseille","lat":43.30934,"lon":5.40156,"is_reserved":false,"is_disabled":true,"rental_uris":{"android":"levelo://app?vid=e857b26f-e98d-4e5b-a472-9489934cc3bc","ios":"levelo://app?vid=e857b26f-e98d-4e5b-a472-9489934cc3bc"},"vehicle_type_id":"4","last_reported":1749582493,"current_range_meters":16000,"station_id":"ce4bgvp2rcd13ifvqct0","pricing_plan_id":"cebpf4jnsgd1na2vs0mg"},{"bike_id":"8ed6181d-6262-4a29-8a69-82d410fcfcc2","system_id":"levelo_inurba_marseille","lat":43.3169,"lon":5.4048,"is_reserved":false,"is_disabled":false,"rental_uris":{"android":"levelo://app?vid=8ed6181d-6262-4a29-8a69-82d410fcfcc2","ios":"levelo://app?vid=8ed6181d-6262-4a29-8a69-82d410fcfcc2"},"vehicle_type_id":"4","last_reported":1749582493,"current_range_meters":16000,"station_id":"ce4bh012rcd13ifvqd00","pricing_plan_id":"cebpf4jnsgd1na2vs0mg"},{"bike_id":"21c32cf0-9fff-4197-8409-5b26012f94c3","system_id":"levelo_inurba_marseille","lat":43.27848,"lon":5.40705,"is_reserved":false,"is_disabled":false,"rental_uris":{"android":"levelo://app?vid=21c32cf0-9fff-4197-8409-5b26012f94c3","ios":"levelo://app?vid=21c32cf0-9fff-4197-8409-5b26012f94c3"},"vehicle_type_id":"4","last_reported":1749582493,"current_range_meters":16000,"station_id":"ce4bhnh2rcd13ifvqgtg","pricing_plan_id":"cebpf4jnsgd1na2vs0mg"},{"bike_id":"53ad8fa1-d150-4303-9608-ed288946d58c","system_id":"levelo_inurba_marseille","lat":43.313193,"lon":5.396949,"is_reserved":false,"is_disabled":false,"rental_uris":{"android":"levelo://app?vid=53ad8fa1-d150-4303-9608-ed288946d58c","ios":"levelo://app?vid=53ad8fa1-d150-4303-9608-ed288946d58c"},"vehicle_type_id":"4","last_reported":1749582493,"current_range_meters":16000,"station_id":"ce4bgvp2rcd13ifvqcu0","pricing_plan_id":"cebpf4jnsgd1na2vs0mg"},{"bike_id":"c329c16e-48e0-4133-a71b-37d13fc4681c","system_id":"levelo_inurba_marseille","lat":43.27381,"lon":5.36258,"is_reserved":false,"is_disabled":false,"rental_uris":{"android":"levelo://app?vid=c329c16e-48e0-4133-a71b-37d13fc4681c","ios":"levelo://app?vid=c329c16e-48e0-4133-a71b-37d13fc4681c"},"vehicle_type_id":"4","last_reported":1749582493,"current_range_meters":16400,"station_id":"ce4bhbh2rcd13ifvqeo0","pricing_plan_id":"cebpf4jnsgd1na2vs0mg"},{"bike_id":"b4e42ff6-b9f5-4787-9d5f-0eae335c8218","system_id":"levelo_inurba_marseille","lat":43.30135,"lon":5.39862,"is_reserved":false,"is_disabled":false,"rental_uris":{"android":"levelo://app?vid=b4e42ff6-b9f5-4787-9d5f-0eae335c8218","ios":"levelo://app?vid=b4e42ff6-b9f5-4787-9d5f-0eae335c8218"},"vehicle_type_id":"4","last_reported":1749582493,"current_range_meters":14000,"station_id":"ce4bh0h2rcd13ifvqd40","pricing_plan_id":"cebpf4jnsgd1na2vs0mg"},{"bike_id":"e8b55560-4238-43d7-aa0f-89ccdf791289","system_id":"levelo_inurba_marseille","lat":43.30798,"lon":5.43526,"is_reserved":false,"is_disabled":false,"rental_uris":{"android":"levelo://app?vid=e8b55560-4238-43d7-aa0f-89ccdf791289","ios":"levelo://app?vid=e8b55560-4238-43d7-aa0f-89ccdf791289"},"vehicle_type_id":"4","last_reported":1749582493,"current_range_meters":16400,"station_id":"ce4bhph2rcd13ifvqheg","pricing_plan_id":"cebpf4jnsgd1na2vs0mg"},{"bike_id":"b350c8e9-ed32-4415-aae6-ec1b9bd87516","system_id":"levelo_inurba_marseille","lat":43.2865,"lon":5.36344,"is_reserved":false,"is_disabled":false,"rental_uris":{"android":"levelo://app?vid=b350c8e9-ed32-4415-aae6-ec1b9bd87516","ios":"levelo://app?vid=b350c8e9-ed32-4415-aae6-ec1b9bd87516"},"vehicle_type_id":"4","last_reported":1749582493,"current_range_meters":16400,"station_id":"ce4bhah2rcd13ifvqej0","pricing_plan_id":"cebpf4jnsgd1na2vs0mg"},{"bike_id":"3b1a103f-3782-4e6f-a220-fe3c249d1b53","system_id":"levelo_inurba_marseille","lat":43.232,"lon":5.35547,"is_reserved":false,"is_disabled":false,"rental_uris":{"android":"levelo://app?vid=3b1a103f-3782-4e6f-a220-fe3c249d1b53","ios":"levelo://app?vid=3b1a103f-3782-4e6f-a220-fe3c249d1b53"},"vehicle_type_id":"4","last_reported":1749582493,"current_range_meters":16400,"station_id":"ce4bhu92rcd13ifvqi70","pricing_plan_id":"cebpf4jnsgd1na2vs0mg"},{"bike_id":"eb187228-0e8a-420b-846b-4f6df9aaa629","system_id":"levelo_inurba_marseille","lat":43.23964,"lon":5.3663,"is_reserved":false,"is_disabled":false,"rental_uris":{"android":"levelo://app?vid=eb187228-0e8a-420b-846b-4f6df9aaa629","ios":"levelo://app?vid=eb187228-0e8a-420b-846b-4f6df9aaa629"},"vehicle_type_id":"4","last_reported":1749582493,"current_range_meters":16400,"station_id":"ce4bhi12rcd13ifvqfp0","pricing_plan_id":"cebpf4jnsgd1na2vs0mg"},{"bike_id":"9bd6db66-5c57-43a0-819b-98c196e1424c","system_id":"levelo_inurba_marseille","lat":43.29528,"lon":5.39047,"is_reserved":false,"is_disabled":false,"rental_uris":{"android":"levelo://app?vid=9bd6db66-5c57-43a0-819b-98c196e1424c","ios":"levelo://app?vid=9bd6db66-5c57-43a0-819b-98c196e1424c"},"vehicle_type_id":"4","last_reported":1749582493,"current_range_meters":16400,"station_id":"ce4bh3p2rcd13ifvqdp0","pricing_plan_id":"cebpf4jnsgd1na2vs0mg"},{"bike_id":"63d36127-297a-4b85-8b92-31d454391a71","system_id":"levelo_inurba_marseille","lat":43.28188,"lon":5.42627,"is_reserved":false,"is_disabled":false,"rental_uris":{"android":"levelo://app?vid=63d36127-297a-4b85-8b92-31d454391a71","ios":"levelo://app?vid=63d36127-297a-4b85-8b92-31d454391a71"},"vehicle_type_id":"4","last_reported":1749582493,"current_range_meters":16400,"station_id":"ce4bhnh2rcd13ifvqgug","pricing_plan_id":"cebpf4jnsgd1na2vs0mg"},{"bike_id":"b9dce34d-aeb2-409b-9fbd-9266ac903aaa","system_id":"levelo_inurba_marseille","lat":43.28991,"lon":5.3784,"is_reserved":false,"is_disabled":true,"rental_uris":{"android":"levelo://app?vid=b9dce34d-aeb2-409b-9fbd-9266ac903aaa","ios":"levelo://app?vid=b9dce34d-aeb2-409b-9fbd-9266ac903aaa"},"vehicle_type_id":"4","last_reported":1749582493,"current_range_meters":16400,"station_id":"ce4bh9p2rcd13ifvqed0","pricing_plan_id":"cebpf4jnsgd1na2vs0mg"},{"bike_id":"1acfb620-cad7-48c0-8901-d7a5b74a5b65","system_id":"levelo_inurba_marseille","lat":43.33751,"lon":5.37456,"is_reserved":false,"is_disabled":false,"rental_uris":{"android":"levelo://app?vid=1acfb620-cad7-48c0-8901-d7a5b74a5b65","ios":"levelo://app?vid=1acfb620-cad7-48c0-8901-d7a5b74a5b65"},"vehicle_type_id":"4","last_reported":1749582493,"current_range_meters":16400,"station_id":"","pricing_plan_id":"cebpf4jnsgd1na2vs0mg"},{"bike_id":"33bc8731-edaf-4629-9bbd-51fefc951e28","system_id":"levelo_inurba_marseille","lat":43.25907,"lon":5.40875,"is_reserved":false,"is_disabled":false,"rental_uris":{"android":"levelo://app?vid=33bc8731-edaf-4629-9bbd-51fefc951e28","ios":"levelo://app?vid=33bc8731-edaf-4629-9bbd-51fefc951e28"},"vehicle_type_id":"4","last_reported":1749582493,"current_range_meters":16800,"station_id":"ce4bhm92rcd13ifvqglg","pricing_plan_id":"cebpf4jnsgd1na2vs0mg"},{"bike_id":"aa64a1a6-dba4-4042-8762-d5150e758d35","system_id":"levelo_inurba_marseille","lat":43.28972,"lon":5.37834,"is_reserved":false,"is_disabled":false,"rental_uris":{"android":"levelo://app?vid=aa64a1a6-dba4-4042-8762-d5150e758d35","ios":"levelo://app?vid=aa64a1a6-dba4-4042-8762-d5150e758d35"},"vehicle_type_id":"4","last_reported":1749582493,"current_range_meters":16800,"station_id":"ce4bh9p2rcd13ifvqed0","pricing_plan_id":"cebpf4jnsgd1na2vs0mg"},{"bike_id":"c25d961b-7952-48d3-8115-b3a897d04bff","system_id":"levelo_inurba_marseille","lat":43.28153,"lon":5.4262,"is_reserved":false,"is_disabled":false,"rental_uris":{"android":"levelo://app?vid=c25d961b-7952-48d3-8115-b3a897d04bff","ios":"levelo://app?vid=c25d961b-7952-48d3-8115-b3a897d04bff"},"vehicle_type_id":"4","last_reported":1749582493,"current_range_meters":16800,"station_id":"ce4bhnh2rcd13ifvqgug","pricing_plan_id":"cebpf4jnsgd1na2vs0mg"},{"bike_id":"1f642583-87fb-44d7-b24f-8a8030e6eec4","system_id":"levelo_inurba_marseille","lat":43.24808,"lon":5.3745,"is_reserved":false,"is_disabled":false,"rental_uris":{"android":"levelo://app?vid=1f642583-87fb-44d7-b24f-8a8030e6eec4","ios":"levelo://app?vid=1f642583-87fb-44d7-b24f-8a8030e6eec4"},"vehicle_type_id":"4","last_reported":1749582493,"current_range_meters":16800,"station_id":"ce4bhgh2rcd13ifvqfb0","pricing_plan_id":"cebpf4jnsgd1na2vs0mg"},{"bike_id":"997854c7-15e3-447d-839d-4eca6b3ab90c","system_id":"levelo_inurba_marseille","lat":43.29263,"lon":5.38452,"is_reserved":false,"is_disabled":false,"rental_uris":{"android":"levelo://app?vid=997854c7-15e3-447d-839d-4eca6b3ab90c","ios":"levelo://app?vid=997854c7-15e3-447d-839d-4eca6b3ab90c"},"vehicle_type_id":"4","last_reported":1749582493,"current_range_meters":16800,"station_id":"ce4bh692rcd13ifvqea0","pricing_plan_id":"cebpf4jnsgd1na2vs0mg"},{"bike_id":"03ec363c-ff26-4500-9009-b8a7df360a8f","system_id":"levelo_inurba_marseille","lat":43.30927,"lon":5.40145,"is_reserved":false,"is_disabled":false,"rental_uris":{"android":"levelo://app?vid=03ec363c-ff26-4500-9009-b8a7df360a8f","ios":"levelo://app?vid=03ec363c-ff26-4500-9009-b8a7df360a8f"},"vehicle_type_id":"4","last_reported":1749582493,"current_range_meters":16800,"station_id":"ce4bgvp2rcd13ifvqct0","pricing_plan_id":"cebpf4jnsgd1na2vs0mg"},{"bike_id":"cd9f2e85-1ea0-44a2-8603-4a9d8de6027b","system_id":"levelo_inurba_marseille","lat":43.26202,"lon":5.37452,"is_reserved":false,"is_disabled":false,"rental_uris":{"android":"levelo://app?vid=cd9f2e85-1ea0-44a2-8603-4a9d8de6027b","ios":"levelo://app?vid=cd9f2e85-1ea0-44a2-8603-4a9d8de6027b"},"vehicle_type_id":"4","last_reported":1749582493,"current_range_meters":16800,"station_id":"ce4bhgp2rcd13ifvqfc0","pricing_plan_id":"cebpf4jnsgd1na2vs0mg"},{"bike_id":"1f65fe5e-a9fa-4e29-815f-d51b565edc50","system_id":"levelo_inurba_marseille","lat":43.27377,"lon":5.36258,"is_reserved":false,"is_disabled":false,"rental_uris":{"android":"levelo://app?vid=1f65fe5e-a9fa-4e29-815f-d51b565edc50","ios":"levelo://app?vid=1f65fe5e-a9fa-4e29-815f-d51b565edc50"},"vehicle_type_id":"4","last_reported":1749582493,"current_range_meters":16800,"station_id":"ce4bhbh2rcd13ifvqeo0","pricing_plan_id":"cebpf4jnsgd1na2vs0mg"},{"bike_id":"03410da2-8f4b-4fec-a3c8-f8354645fdb2","system_id":"levelo_inurba_marseille","lat":43.28609,"lon":5.37057,"is_reserved":false,"is_disabled":false,"rental_uris":{"android":"levelo://app?vid=03410da2-8f4b-4fec-a3c8-f8354645fdb2","ios":"levelo://app?vid=03410da2-8f4b-4fec-a3c8-f8354645fdb2"},"vehicle_type_id":"4","last_reported":1749582493,"current_range_meters":16400,"station_id":"ce4bht12rcd13ifvqi60","pricing_plan_id":"cebpf4jnsgd1na2vs0mg"},{"bike_id":"719b0521-b6af-40b3-acc5-e0f09379543b","system_id":"levelo_inurba_marseille","lat":43.2942,"lon":5.38629,"is_reserved":false,"is_disabled":false,"rental_uris":{"android":"levelo://app?vid=719b0521-b6af-40b3-acc5-e0f09379543b","ios":"levelo://app?vid=719b0521-b6af-40b3-acc5-e0f09379543b"},"vehicle_type_id":"4","last_reported":1749582493,"current_range_meters":16800,"station_id":"ce4bh2h2rcd13ifvqdh0","pricing_plan_id":"cebpf4jnsgd1na2vs0mg"},{"bike_id":"be7b970f-61d2-4f52-9c00-e82085958720","system_id":"levelo_inurba_marseille","lat":43.28885,"lon":5.35826,"is_reserved":false,"is_disabled":false,"rental_uris":{"android":"levelo://app?vid=be7b970f-61d2-4f52-9c00-e82085958720","ios":"levelo://app?vid=be7b970f-61d2-4f52-9c00-e82085958720"},"vehicle_type_id":"4","last_reported":1749582493,"current_range_meters":16800,"station_id":"ce4bhb12rcd13ifvqem0","pricing_plan_id":"cebpf4jnsgd1na2vs0mg"},{"bike_id":"92b07a76-ad58-474e-a823-2069ef343740","system_id":"levelo_inurba_marseille","lat":43.27973,"lon":5.38727,"is_reserved":false,"is_disabled":false,"rental_uris":{"android":"levelo://app?vid=92b07a76-ad58-474e-a823-2069ef343740","ios":"levelo://app?vid=92b07a76-ad58-474e-a823-2069ef343740"},"vehicle_type_id":"4","last_reported":1749582493,"current_range_meters":17200,"station_id":"ce4bhg12rcd13ifvqf80","pricing_plan_id":"cebpf4jnsgd1na2vs0mg"},{"bike_id":"96e43918-8ec3-441c-a94d-b4834cca4e49","system_id":"levelo_inurba_marseille","lat":43.29265,"lon":5.38444,"is_reserved":false,"is_disabled":false,"rental_uris":{"android":"levelo://app?vid=96e43918-8ec3-441c-a94d-b4834cca4e49","ios":"levelo://app?vid=96e43918-8ec3-441c-a94d-b4834cca4e49"},"vehicle_type_id":"4","last_reported":1749582493,"current_range_meters":17200,"station_id":"ce4bh692rcd13ifvqea0","pricing_plan_id":"cebpf4jnsgd1na2vs0mg"},{"bike_id":"82a565ea-47df-495c-87a5-879177ae5675","system_id":"levelo_inurba_marseille","lat":43.29274,"lon":5.37634,"is_reserved":false,"is_disabled":false,"rental_uris":{"android":"levelo://app?vid=82a565ea-47df-495c-87a5-879177ae5675","ios":"levelo://app?vid=82a565ea-47df-495c-87a5-879177ae5675"},"vehicle_type_id":"4","last_reported":1749582493,"current_range_meters":17200,"station_id":"ce4bgi12rcd13ifvqb80","pricing_plan_id":"cebpf4jnsgd1na2vs0mg"},{"bike_id":"7819eaaa-3f58-4c23-a5d9-18bda87e0b16","system_id":"levelo_inurba_marseille","lat":43.31358,"lon":5.38252,"is_reserved":false,"is_disabled":false,"rental_uris":{"android":"levelo://app?vid=7819eaaa-3f58-4c23-a5d9-18bda87e0b16","ios":"levelo://app?vid=7819eaaa-3f58-4c23-a5d9-18bda87e0b16"},"vehicle_type_id":"4","last_reported":1749582493,"current_range_meters":17200,"station_id":"","pricing_plan_id":"cebpf4jnsgd1na2vs0mg"},{"bike_id":"7311422e-b2d3-4869-980f-0497eb6c2e03","system_id":"levelo_inurba_marseille","lat":43.23953,"lon":5.36634,"is_reserved":false,"is_disabled":false,"rental_uris":{"android":"levelo://app?vid=7311422e-b2d3-4869-980f-0497eb6c2e03","ios":"levelo://app?vid=7311422e-b2d3-4869-980f-0497eb6c2e03"},"vehicle_type_id":"4","last_reported":1749582493,"current_range_meters":17200,"station_id":"ce4bhi12rcd13ifvqfp0","pricing_plan_id":"cebpf4jnsgd1na2vs0mg"},{"bike_id":"3e6b0fae-ad2c-4a7a-9485-acaac5f35614","system_id":"levelo_inurba_marseille","lat":43.252801,"lon":5.394336,"is_reserved":false,"is_disabled":false,"rental_uris":{"android":"levelo://app?vid=3e6b0fae-ad2c-4a7a-9485-acaac5f35614","ios":"levelo://app?vid=3e6b0fae-ad2c-4a7a-9485-acaac5f35614"},"vehicle_type_id":"4","last_reported":1749582493,"current_range_meters":17200,"station_id":"","pricing_plan_id":"cebpf4jnsgd1na2vs0mg"},{"bike_id":"db4dddf3-74e8-4bed-8bc0-61c5228782d8","system_id":"levelo_inurba_marseille","lat":43.30421,"lon":5.41277,"is_reserved":false,"is_disabled":false,"rental_uris":{"android":"levelo://app?vid=db4dddf3-74e8-4bed-8bc0-61c5228782d8","ios":"levelo://app?vid=db4dddf3-74e8-4bed-8bc0-61c5228782d8"},"vehicle_type_id":"4","last_reported":1749582493,"current_range_meters":17200,"station_id":"ce4bhop2rcd13ifvqh8g","pricing_plan_id":"cebpf4jnsgd1na2vs0mg"},{"bike_id":"add27fa9-6426-45f1-b5a7-ba4ad51a8263","system_id":"levelo_inurba_marseille","lat":43.28157,"lon":5.42605,"is_reserved":false,"is_disabled":false,"rental_uris":{"android":"levelo://app?vid=add27fa9-6426-45f1-b5a7-ba4ad51a8263","ios":"levelo://app?vid=add27fa9-6426-45f1-b5a7-ba4ad51a8263"},"vehicle_type_id":"4","last_reported":1749582493,"current_range_meters":17200,"station_id":"ce4bhnh2rcd13ifvqgug","pricing_plan_id":"cebpf4jnsgd1na2vs0mg"},{"bike_id":"9231f021-d06e-4dc9-b555-e59bf1d45ecd","system_id":"levelo_inurba_marseille","lat":43.32155,"lon":5.36722,"is_reserved":false,"is_disabled":false,"rental_uris":{"android":"levelo://app?vid=9231f021-d06e-4dc9-b555-e59bf1d45ecd","ios":"levelo://app?vid=9231f021-d06e-4dc9-b555-e59bf1d45ecd"},"vehicle_type_id":"4","last_reported":1749582493,"current_range_meters":17200,"station_id":"","pricing_plan_id":"cebpf4jnsgd1na2vs0mg"},{"bike_id":"3f916e27-29aa-4b6c-897b-a1bdd7b1b3f9","system_id":"levelo_inurba_marseille","lat":43.2942,"lon":5.38623,"is_reserved":false,"is_disabled":false,"rental_uris":{"android":"levelo://app?vid=3f916e27-29aa-4b6c-897b-a1bdd7b1b3f9","ios":"levelo://app?vid=3f916e27-29aa-4b6c-897b-a1bdd7b1b3f9"},"vehicle_type_id":"4","last_reported":1749582493,"current_range_meters":17200,"station_id":"","pricing_plan_id":"cebpf4jnsgd1na2vs0mg"},{"bike_id":"1f42e774-0b65-4738-b3e3-0aae7ec0e65c","system_id":"levelo_inurba_marseille","lat":43.29572,"lon":5.37544,"is_reserved":false,"is_disabled":true,"rental_uris":{"android":"levelo://app?vid=1f42e774-0b65-4738-b3e3-0aae7ec0e65c","ios":"levelo://app?vid=1f42e774-0b65-4738-b3e3-0aae7ec0e65c"},"vehicle_type_id":"4","last_reported":1749582493,"current_range_meters":17200,"station_id":"ce4bgh92rcd13ifvqb50","pricing_plan_id":"cebpf4jnsgd1na2vs0mg"},{"bike_id":"720096be-b7bf-4b22-aa52-5e2f6af37b39","system_id":"levelo_inurba_marseille","lat":43.26549,"lon":5.37285,"is_reserved":false,"is_disabled":false,"rental_uris":{"android":"levelo://app?vid=720096be-b7bf-4b22-aa52-5e2f6af37b39","ios":"levelo://app?vid=720096be-b7bf-4b22-aa52-5e2f6af37b39"},"vehicle_type_id":"4","last_reported":1749582493,"current_range_meters":17200,"station_id":"ce4bhg12rcd13ifvqf70","pricing_plan_id":"cebpf4jnsgd1na2vs0mg"},{"bike_id":"f12e16f1-9c7d-4035-9171-90a3c7ac16db","system_id":"levelo_inurba_marseille","lat":43.26573,"lon":5.39009,"is_reserved":false,"is_disabled":false,"rental_uris":{"android":"levelo://app?vid=f12e16f1-9c7d-4035-9171-90a3c7ac16db","ios":"levelo://app?vid=f12e16f1-9c7d-4035-9171-90a3c7ac16db"},"vehicle_type_id":"4","last_reported":1749582493,"current_range_meters":17200,"station_id":"ce4bhe12rcd13ifvqf30","pricing_plan_id":"cebpf4jnsgd1na2vs0mg"},{"bike_id":"d49963c9-4a74-4b7c-ae71-2e7f71f19deb","system_id":"levelo_inurba_marseille","lat":43.29592,"lon":5.36748,"is_reserved":false,"is_disabled":true,"rental_uris":{"android":"levelo://app?vid=d49963c9-4a74-4b7c-ae71-2e7f71f19deb","ios":"levelo://app?vid=d49963c9-4a74-4b7c-ae71-2e7f71f19deb"},"vehicle_type_id":"4","last_reported":1749582493,"current_range_meters":17600,"station_id":"ce4bgph2rcd13ifvqc2g","pricing_plan_id":"cebpf4jnsgd1na2vs0mg"},{"bike_id":"950522e5-9842-420b-a023-ada25ce94634","system_id":"levelo_inurba_marseille","lat":43.31176,"lon":5.38705,"is_reserved":false,"is_disabled":false,"rental_uris":{"android":"levelo://app?vid=950522e5-9842-420b-a023-ada25ce94634","ios":"levelo://app?vid=950522e5-9842-420b-a023-ada25ce94634"},"vehicle_type_id":"4","last_reported":1749582493,"current_range_meters":17600,"station_id":"ce4bgv12rcd13ifvqcp0","pricing_plan_id":"cebpf4jnsgd1na2vs0mg"},{"bike_id":"2ae1a76f-a424-468e-8b58-3381278a300b","system_id":"levelo_inurba_marseille","lat":43.23963,"lon":5.36631,"is_reserved":false,"is_disabled":false,"rental_uris":{"android":"levelo://app?vid=2ae1a76f-a424-468e-8b58-3381278a300b","ios":"levelo://app?vid=2ae1a76f-a424-468e-8b58-3381278a300b"},"vehicle_type_id":"4","last_reported":1749582493,"current_range_meters":17600,"station_id":"ce4bhi12rcd13ifvqfp0","pricing_plan_id":"cebpf4jnsgd1na2vs0mg"},{"bike_id":"63e40138-141f-4768-876a-d09ed0ddb6e8","system_id":"levelo_inurba_marseille","lat":43.28617,"lon":5.35107,"is_reserved":false,"is_disabled":false,"rental_uris":{"android":"levelo://app?vid=63e40138-141f-4768-876a-d09ed0ddb6e8","ios":"levelo://app?vid=63e40138-141f-4768-876a-d09ed0ddb6e8"},"vehicle_type_id":"4","last_reported":1749582493,"current_range_meters":17600,"station_id":"ce4bhch2rcd13ifvqeug","pricing_plan_id":"cebpf4jnsgd1na2vs0mg"},{"bike_id":"c6f36ab7-f90b-438b-9ea2-6a68bee44027","system_id":"levelo_inurba_marseille","lat":43.301424,"lon":5.387788,"is_reserved":false,"is_disabled":false,"rental_uris":{"android":"levelo://app?vid=c6f36ab7-f90b-438b-9ea2-6a68bee44027","ios":"levelo://app?vid=c6f36ab7-f90b-438b-9ea2-6a68bee44027"},"vehicle_type_id":"4","last_reported":1749582493,"current_range_meters":17600,"station_id":"ce4bhbh2rcd13ifvqepg","pricing_plan_id":"cebpf4jnsgd1na2vs0mg"},{"bike_id":"3acedd48-25d6-4062-9251-8db636aeb197","system_id":"levelo_inurba_marseille","lat":43.24386,"lon":5.37057,"is_reserved":false,"is_disabled":false,"rental_uris":{"android":"levelo://app?vid=3acedd48-25d6-4062-9251-8db636aeb197","ios":"levelo://app?vid=3acedd48-25d6-4062-9251-8db636aeb197"},"vehicle_type_id":"4","last_reported":1749582493,"current_range_meters":17600,"station_id":"ce4bhhh2rcd13ifvqfk0","pricing_plan_id":"cebpf4jnsgd1na2vs0mg"},{"bike_id":"b1408955-36ac-4b53-b99e-1b3b3dc93e07","system_id":"levelo_inurba_marseille","lat":43.28864,"lon":5.35847,"is_reserved":false,"is_disabled":false,"rental_uris":{"android":"levelo://app?vid=b1408955-36ac-4b53-b99e-1b3b3dc93e07","ios":"levelo://app?vid=b1408955-36ac-4b53-b99e-1b3b3dc93e07"},"vehicle_type_id":"4","last_reported":1749582493,"current_range_meters":18000,"station_id":"ce4bhb12rcd13ifvqem0","pricing_plan_id":"cebpf4jnsgd1na2vs0mg"},{"bike_id":"4b0dc9df-d28c-45bb-b65b-df3dea548dbe","system_id":"levelo_inurba_marseille","lat":43.28099,"lon":5.37836,"is_reserved":false,"is_disabled":false,"rental_uris":{"android":"levelo://app?vid=4b0dc9df-d28c-45bb-b65b-df3dea548dbe","ios":"levelo://app?vid=4b0dc9df-d28c-45bb-b65b-df3dea548dbe"},"vehicle_type_id":"4","last_reported":1749582493,"current_range_meters":17200,"station_id":"ce4bha12rcd13ifvqee0","pricing_plan_id":"cebpf4jnsgd1na2vs0mg"},{"bike_id":"01ab63f9-7451-4fef-9eef-545af7e40e86","system_id":"levelo_inurba_marseille","lat":43.29104,"lon":5.38134,"is_reserved":false,"is_disabled":false,"rental_uris":{"android":"levelo://app?vid=01ab63f9-7451-4fef-9eef-545af7e40e86","ios":"levelo://app?vid=01ab63f9-7451-4fef-9eef-545af7e40e86"},"vehicle_type_id":"4","last_reported":1749582493,"current_range_meters":16800,"station_id":"ce4bh512rcd13ifvqe2g","pricing_plan_id":"cebpf4jnsgd1na2vs0mg"},{"bike_id":"ce3b5eb1-7d33-4a95-9808-9e5389b361be","system_id":"levelo_inurba_marseille","lat":43.29026,"lon":5.39964,"is_reserved":false,"is_disabled":false,"rental_uris":{"android":"levelo://app?vid=ce3b5eb1-7d33-4a95-9808-9e5389b361be","ios":"levelo://app?vid=ce3b5eb1-7d33-4a95-9808-9e5389b361be"},"vehicle_type_id":"4","last_reported":1749582493,"current_range_meters":17600,"station_id":"ce4bh392rcd13ifvqdm0","pricing_plan_id":"cebpf4jnsgd1na2vs0mg"},{"bike_id":"3848ad06-7de7-4d7c-8cc5-805659ff310a","system_id":"levelo_inurba_marseille","lat":43.29543,"lon":5.38536,"is_reserved":false,"is_disabled":false,"rental_uris":{"android":"levelo://app?vid=3848ad06-7de7-4d7c-8cc5-805659ff310a","ios":"levelo://app?vid=3848ad06-7de7-4d7c-8cc5-805659ff310a"},"vehicle_type_id":"4","last_reported":1749582493,"current_range_meters":17200,"station_id":"ce4bgih2rcd13ifvqba0","pricing_plan_id":"cebpf4jnsgd1na2vs0mg"},{"bike_id":"96886d52-57a0-448e-a03a-6ff6a83d3a60","system_id":"levelo_inurba_marseille","lat":43.30249,"lon":5.40073,"is_reserved":false,"is_disabled":false,"rental_uris":{"android":"levelo://app?vid=96886d52-57a0-448e-a03a-6ff6a83d3a60","ios":"levelo://app?vid=96886d52-57a0-448e-a03a-6ff6a83d3a60"},"vehicle_type_id":"4","last_reported":1749582493,"current_range_meters":17600,"station_id":"ce4bgvh2rcd13ifvqcs0","pricing_plan_id":"cebpf4jnsgd1na2vs0mg"},{"bike_id":"850141c2-200b-4197-8a3d-b28754c49300","system_id":"levelo_inurba_marseille","lat":43.308,"lon":5.38153,"is_reserved":false,"is_disabled":false,"rental_uris":{"android":"levelo://app?vid=850141c2-200b-4197-8a3d-b28754c49300","ios":"levelo://app?vid=850141c2-200b-4197-8a3d-b28754c49300"},