{"last_updated":1713463755,"ttl":30,"version":"2.2","data":{"bikes":[{"bike_id":"0b8da7aa-82c3-4b79-ab93-e05baf23b804","system_id":"levelo_inurba_marseille","lat":43.31247,"lon":5.36743,"is_reserved":false,"is_disabled":false,"rental_uris":{"android":"levelo://app?vid=0b8da7aa-82c3-4b79-ab93-e05baf23b804","ios":"levelo://app?vid=0b8da7aa-82c3-4b79-ab93-e05baf23b804"},"vehicle_type_id":"4","last_reported":1713463755,"current_range_meters":0,"station_id":"","pricing_plan_id":"cebpf4jnsgd1na2vs0mg"},{"bike_id":"99f49150-7190-4465-ab29-8f158af751d8","system_id":"levelo_inurba_marseille","lat":43.312239,"lon":5.368562,"is_reserved":false,"is_disabled":false,"rental_uris":{"android":"levelo://app?vid=99f49150-7190-4465-ab29-8f158af751d8","ios":"levelo://app?vid=99f49150-7190-4465-ab29-8f158af751d8"},"vehicle_type_id":"4","last_reported":1713463755,"current_range_meters":6000,"station_id":"ce4bgl92rcd13ifvqbq0","pricing_plan_id":"cebpf4jnsgd1na2vs0mg"},{"bike_id":"12e663a2-0315-47ae-a39f-3445935d37e0","system_id":"levelo_inurba_marseille","lat":43.312239,"lon":5.368562,"is_reserved":false,"is_disabled":false,"rental_uris":{"android":"levelo://app?vid=12e663a2-0315-47ae-a39f-3445935d37e0","ios":"levelo://app?vid=12e663a2-0315-47ae-a39f-3445935d37e0"},"vehicle_type_id":"4","last_reported":1713463755,"current_range_meters":26800,"station_id":"ce4bgl92rcd13ifvqbq0","pricing_plan_id":"cebpf4jnsgd1na2vs0mg"},{"bike_id":"01da6e91-4dd6-481a-8808-633730db7f42","system_id":"levelo_inurba_marseille","lat":43.312239,"lon":5.368562,"is_reserved":false,"is_disabled":false,"rental_uris":{"android":"levelo://app?vid=01da6e91-4dd6-481a-8808-633730db7f42","ios":"levelo://app?vid=01da6e91-4dd6-481a-8808-633730db7f42"},"vehicle_type_id":"4","last_reported":1713463755,"current_range_meters":800,"station_id":"ce4bgl92rcd13ifvqbq0","pricing_plan_id":"cebpf4jnsgd1na2vs0mg"},{"bike_id":"7a76ac97-9ab4-48ee-a466-9be8d7b9f7b6","system_id":"levelo_inurba_marseille","lat":43.3132,"lon":5.372465,"is_reserved":false,"is_disabled":false,"rental_uris":{"android":"levelo://app?vid=7a76ac97-9ab4-48ee-a466-9be8d7b9f7b6","ios":"levelo://app?vid=7a76ac97-9ab4-48ee-a466-9be8d7b9f7b6"},"vehicle_type_id":"4","last_reported":1713463755,"current_range_meters":9600,"station_id":"","pricing_plan_id":"cebpf4jnsgd1na2vs0mg"},{"bike_id":"2d286a25-9cce-4bf7-8afd-79bbbb43be21","system_id":"levelo_inurba_marseille","lat":43.314811,"lon":5.373103,"is_reserved":false,"is_disabled":false,"rental_uris":{"android":"levelo://app?vid=2d286a25-9cce-4bf7-8afd-79bbbb43be21","ios":"levelo://app?vid=2d286a25-9cce-4bf7-8afd-79bbbb43be21"},"vehicle_type_id":"4","last_reported":1713463755,"current_range_meters":20400,"station_id":"ce4bgt12rcd13ifvqcd0","pricing_plan_id":"cebpf4jnsgd1na2vs0mg"},{"bike_id":"e7acc061-60e5-491a-b292-6f6565aeedf4","system_id":"levelo_inurba_marseille","lat":43.314811,"lon":5.373104,"is_reserved":false,"is_disabled":false,"rental_uris":{"android":"levelo://app?vid=e7acc061-60e5-491a-b292-6f6565aeedf4","ios":"levelo://app?vid=e7acc061-60e5-491a-b292-6f6565aeedf4"},"vehicle_type_id":"4","last_reported":1713463755,"current_range_meters":4000,"station_id":"ce4bgt12rcd13ifvqcd0","pricing_plan_id":"cebpf4jnsgd1na2vs0mg"},{"bike_id":"336eeca6-6560-427a-8964-3f2856c14aec","system_id":"levelo_inurba_marseille","lat":43.314811,"lon":5.373103,"is_reserved":false,"is_disabled":false,"rental_uris":{"android":"levelo://app?vid=336eeca6-6560-427a-8964-3f2856c14aec","ios":"levelo://app?vid=336eeca6-6560-427a-8964-3f2856c14aec"},"vehicle_type_id":"4","last_reported":1713463755,"current_range_meters":11200,"station_id":"ce4bgt12rcd13ifvqcd0","pricing_plan_id":"cebpf4jnsgd1na2vs0mg"},{"bike_id":"0eaab3da-d377-46d0-8f09-1fd2a5b1b14d","system_id":"levelo_inurba_marseille","lat":43.31492,"lon":5.37309,"is_reserved":false,"is_disabled":false,"rental_uris":{"android":"levelo://app?vid=0eaab3da-d377-46d0-8f09-1fd2a5b1b14d","ios":"levelo://app?vid=0eaab3da-d377-46d0-8f09-1fd2a5b1b14d"},"vehicle_type_id":"4","last_reported":1713463755,"current_range_meters":3600,"station_id":"ce4bgt12rcd13ifvqcd0","pricing_plan_id":"cebpf4jnsgd1na2vs0mg"},{"bike_id":"52f22b5a-486d-4c62-a4ac-137bfb2f235e","system_id":"levelo_inurba_marseille","lat":43.30554,"lon":5.36534,"is_reserved":false,"is_disabled":false,"rental_uris":{"android":"levelo://app?vid=52f22b5a-486d-4c62-a4ac-137bfb2f235e","ios":"levelo://app?vid=52f22b5a-486d-4c62-a4ac-137bfb2f235e"},"vehicle_type_id":"4","last_reported":1713463755,"current_range_meters":28800,"station_id":"","pricing_plan_id":"cebpf4jnsgd1na2vs0mg"},{"bike_id":"1e98b804-f2e3-414c-a66c-62e9627f32ae","system_id":"levelo_inurba_marseille","lat":43.31124,"lon":5.37765,"is_reserved":false,"is_disabled":false,"rental_uris":{"android":"levelo://app?vid=1e98b804-f2e3-414c-a66c-62e9627f32ae","ios":"levelo://app?vid=1e98b804-f2e3-414c-a66c-62e9627f32ae"},"vehicle_type_id":"4","last_reported":1713463755,"current_range_meters":15600,"station_id":"ce4bgt92rcd13ifvqcg0","pricing_plan_id":"cebpf4jnsgd1na2vs0mg"},{"bike_id":"399f50ac-eb72-474d-ba6e-07ea6bae282f","system_id":"levelo_inurba_marseille","lat":43.307945,"lon":5.376487,"is_reserved":false,"is_disabled":false,"rental_uris":{"android":"levelo://app?vid=399f50ac-eb72-474d-ba6e-07ea6bae282f","ios":"levelo://app?vid=399f50ac-eb72-474d-ba6e-07ea6bae282f"},"vehicle_type_id":"4","last_reported":1713463755,"current_range_meters":8000,"station_id":"ce4bgv92rcd13ifvqcq0","pricing_plan_id":"cebpf4jnsgd1na2vs0mg"},{"bike_id":"c202e425-f3e9-461f-9844-a8a755f221b9","system_id":"levelo_inurba_marseille","lat":43.30793,"lon":5.3765,"is_reserved":false,"is_disabled":false,"rental_uris":{"android":"levelo://app?vid=c202e425-f3e9-461f-9844-a8a755f221b9","ios":"levelo://app?vid=c202e425-f3e9-461f-9844-a8a755f221b9"},"vehicle_type_id":"4","last_reported":1713463755,"current_range_meters":23600,"station_id":"ce4bgv92rcd13ifvqcq0","pricing_plan_id":"cebpf4jnsgd1na2vs0mg"},{"bike_id":"f2d0ad17-b2ec-48b8-bfff-ec1f08ce4473","system_id":"levelo_inurba_marseille","lat":43.30785,"lon":5.37643,"is_reserved":false,"is_disabled":false,"rental_uris":{"android":"levelo://app?vid=f2d0ad17-b2ec-48b8-bfff-ec1f08ce4473","ios":"levelo://app?vid=f2d0ad17-b2ec-48b8-bfff-ec1f08ce4473"},"vehicle_type_id":"4","last_reported":1713463755,"current_range_meters":18000,"station_id":"ce4bgv92rcd13ifvqcq0","pricing_plan_id":"cebpf4jnsgd1na2vs0mg"},{"bike_id":"34ecc14e-9ec6-4d8a-a7cb-203733287578","system_id":"levelo_inurba_marseille","lat":43.307867,"lon":5.376467,"is_reserved":false,"is_disabled":false,"rental_uris":{"android":"levelo://app?vid=34ecc14e-9ec6-4d8a-a7cb-203733287578","ios":"levelo://app?vid=34ecc14e-9ec6-4d8a-a7cb-203733287578"},"vehicle_type_id":"4","last_reported":1713463755,"current_range_meters":800,"station_id":"ce4bgv92rcd13ifvqcq0","pricing_plan_id":"cebpf4jnsgd1na2vs0mg"},{"bike_id":"a920a259-171b-49e4-9022-00afafd1bf83","system_id":"levelo_inurba_marseille","lat":43.307945,"lon":5.376487,"is_reserved":false,"is_disabled":false,"rental_uris":{"android":"levelo://app?vid=a920a259-171b-49e4-9022-00afafd1bf83","ios":"levelo://app?vid=a920a259-171b-49e4-9022-00afafd1bf83"},"vehicle_type_id":"4","last_reported":1713463755,"current_range_meters":19200,"station_id":"ce4bgv92rcd13ifvqcq0","pricing_plan_id":"cebpf4jnsgd1na2vs0mg"},{"bike_id":"390ab613-fe94-4672-b09b-d6baad56818d","system_id":"levelo_inurba_marseille","lat":43.30786,"lon":5.37652,"is_reserved":false,"is_disabled":false,"rental_uris":{"android":"levelo://app?vid=390ab613-fe94-4672-b09b-d6baad56818d","ios":"levelo://app?vid=390ab613-fe94-4672-b09b-d6baad56818d"},"vehicle_type_id":"4","last_reported":1713463755,"current_range_meters":14000,"station_id":"ce4bgv92rcd13ifvqcq0","pricing_plan_id":"cebpf4jnsgd1na2vs0mg"},{"bike_id":"f84f7f9d-bf51-4daf-b6d3-a12567a9bc5f","system_id":"levelo_inurba_marseille","lat":43.30787,"lon":5.37655,"is_reserved":false,"is_disabled":false,"rental_uris":{"android":"levelo://app?vid=f84f7f9d-bf51-4daf-b6d3-a12567a9bc5f","ios":"levelo://app?vid=f84f7f9d-bf51-4daf-b6d3-a12567a9bc5f"},"vehicle_type_id":"4","last_reported":1713463755,"current_range_meters":27600,"station_id":"ce4bgv92rcd13ifvqcq0","pricing_plan_id":"cebpf4jnsgd1na2vs0mg"},{"bike_id":"d4ee87a1-318c-48ae-bb8d-93e194f338a1","system_id":"levelo_inurba_marseille","lat":43.307827,"lon":5.376587,"is_reserved":false,"is_disabled":false,"rental_uris":{"android":"levelo://app?vid=d4ee87a1-318c-48ae-bb8d-93e194f338a1","ios":"levelo://app?vid=d4ee87a1-318c-48ae-bb8d-93e194f338a1"},"vehicle_type_id":"4","last_reported":1713463755,"current_range_meters":16800,"station_id":"ce4bgv92rcd13ifvqcq0","pricing_plan_id":"cebpf4jnsgd1na2vs0mg"},{"bike_id":"5c749597-446a-4734-bd01-5902e2dc9fc4","system_id":"levelo_inurba_marseille","lat":43.307757,"lon":5.376567,"is_reserved":false,"is_disabled":false,"rental_uris":{"android":"levelo://app?vid=5c749597-446a-4734-bd01-5902e2dc9fc4","ios":"levelo://app?vid=5c749597-446a-4734-bd01-5902e2dc9fc4"},"vehicle_type_id":"4","last_reported":1713463755,"current_range_meters":18000,"station_id":"ce4bgv92rcd13ifvqcq0","pricing_plan_id":"cebpf4jnsgd1na2vs0mg"},{"bike_id":"f6c70ce9-774a-4424-a50c-6a3e6bc84e54","system_id":"levelo_inurba_marseille","lat":43.317075,"lon":5.377367,"is_reserved":false,"is_disabled":false,"rental_uris":{"android":"levelo://app?vid=f6c70ce9-774a-4424-a50c-6a3e6bc84e54","ios":"levelo://app?vid=f6c70ce9-774a-4424-a50c-6a3e6bc84e54"},"vehicle_type_id":"4","last_reported":1713463755,"current_range_meters":18800,"station_id":"ce4bgth2rcd13ifvqch0","pricing_plan_id":"cebpf4jnsgd1na2vs0mg"},{"bike_id":"615dc05e-3c2d-4538-ad4e-e32bf398cc39","system_id":"levelo_inurba_marseille","lat":43.317075,"lon":5.377367,"is_reserved":false,"is_disabled":false,"rental_uris":{"android":"levelo://app?vid=615dc05e-3c2d-4538-ad4e-e32bf398cc39","ios":"levelo://app?vid=615dc05e-3c2d-4538-ad4e-e32bf398cc39"},"vehicle_type_id":"4","last_reported":1713463755,"current_range_meters":8000,"station_id":"ce4bgth2rcd13ifvqch0","pricing_plan_id":"cebpf4jnsgd1na2vs0mg"},{"bike_id":"a7a821df-9106-4876-bcbb-9fdb00920793","system_id":"levelo_inurba_marseille","lat":43.317075,"lon":5.377367,"is_reserved":false,"is_disabled":false,"rental_uris":{"android":"levelo://app?vid=a7a821df-9106-4876-bcbb-9fdb00920793","ios":"levelo://app?vid=a7a821df-9106-4876-bcbb-9fdb00920793"},"vehicle_type_id":"4","last_reported":1713463755,"current_range_meters":8000,"station_id":"ce4bgth2rcd13ifvqch0","pricing_plan_id":"cebpf4jnsgd1na2vs0mg"},{"bike_id":"b28ada6b-cf7d-448f-a5cc-beffe83c65f8","system_id":"levelo_inurba_marseille","lat":43.307945,"lon":5.376487,"is_reserved":false,"is_disabled":false,"rental_uris":{"android":"levelo://app?vid=b28ada6b-cf7d-448f-a5cc-beffe83c65f8","ios":"levelo://app?vid=b28ada6b-cf7d-448f-a5cc-beffe83c65f8"},"vehicle_type_id":"4","last_reported":1713463755,"current_range_meters":18400,"station_id":"ce4bgv92rcd13ifvqcq0","pricing_plan_id":"cebpf4jnsgd1na2vs0mg"},{"bike_id":"8a3ec22e-ceda-4053-b0fb-f0e5c93f24db","system_id":"levelo_inurba_marseille","lat":43.317075,"lon":5.377367,"is_reserved":false,"is_disabled":false,"rental_uris":{"android":"levelo://app?vid=8a3ec22e-ceda-4053-b0fb-f0e5c93f24db","ios":"levelo://app?vid=8a3ec22e-ceda-4053-b0fb-f0e5c93f24db"},"vehicle_type_id":"4","last_reported":1713463755,"current_range_meters":6400,"station_id":"ce4bgth2rcd13ifvqch0","pricing_plan_id":"cebpf4jnsgd1na2vs0mg"},{"bike_id":"8102a832-3fc6-465d-8030-965a70cfc3ce","system_id":"levelo_inurba_marseille","lat":43.303046,"lon":5.368981,"is_reserved":false,"is_disabled":false,"rental_uris":{"android":"levelo://app?vid=8102a832-3fc6-465d-8030-965a70cfc3ce","ios":"levelo://app?vid=8102a832-3fc6-465d-8030-965a70cfc3ce"},"vehicle_type_id":"4","last_reported":1713463755,"current_range_meters":12000,"station_id":"ce4bgqh2rcd13ifvqc5g","pricing_plan_id":"cebpf4jnsgd1na2vs0mg"},{"bike_id":"470e1c98-ce7d-4b6d-9c96-c45079f5d6f4","system_id":"levelo_inurba_marseille","lat":43.315289,"lon":5.380349,"is_reserved":false,"is_disabled":false,"rental_uris":{"android":"levelo://app?vid=470e1c98-ce7d-4b6d-9c96-c45079f5d6f4","ios":"levelo://app?vid=470e1c98-ce7d-4b6d-9c96-c45079f5d6f4"},"vehicle_type_id":"4","last_reported":1713463755,"current_range_meters":26000,"station_id":"ce4bhsp2rcd13ifvqi50","pricing_plan_id":"cebpf4jnsgd1na2vs0mg"},{"bike_id":"fc7e2fac-e92b-45e2-a130-38c45b70de51","system_id":"levelo_inurba_marseille","lat":43.308012,"lon":5.381511,"is_reserved":false,"is_disabled":false,"rental_uris":{"android":"levelo://app?vid=fc7e2fac-e92b-45e2-a130-38c45b70de51","ios":"levelo://app?vid=fc7e2fac-e92b-45e2-a130-38c45b70de51"},"vehicle_type_id":"4","last_reported":1713463755,"current_range_meters":0,"station_id":"ce4bgt12rcd13ifvqce0","pricing_plan_id":"cebpf4jnsgd1na2vs0mg"},{"bike_id":"96d9cc9c-45d4-41b6-87a5-4e64c52af9a3","system_id":"levelo_inurba_marseille","lat":43.308012,"lon":5.381511,"is_reserved":false,"is_disabled":false,"rental_uris":{"android":"levelo://app?vid=96d9cc9c-45d4-41b6-87a5-4e64c52af9a3","ios":"levelo://app?vid=96d9cc9c-45d4-41b6-87a5-4e64c52af9a3"},"vehicle_type_id":"4","last_reported":1713463755,"current_range_meters":14400,"station_id":"ce4bgt12rcd13ifvqce0","pricing_plan_id":"cebpf4jnsgd1na2vs0mg"},{"bike_id":"317cfddd-64dc-45bb-b8a5-a01d11ccb762","system_id":"levelo_inurba_marseille","lat":43.304706,"lon":5.379223,"is_reserved":false,"is_disabled":false,"rental_uris":{"android":"levelo://app?vid=317cfddd-64dc-45bb-b8a5-a01d11ccb762","ios":"levelo://app?vid=317cfddd-64dc-45bb-b8a5-a01d11ccb762"},"vehicle_type_id":"4","last_reported":1713463755,"current_range_meters":6400,"station_id":"","pricing_plan_id":"cebpf4jnsgd1na2vs0mg"},{"bike_id":"234ee3a8-0bfb-441c-9669-0016805180f4","system_id":"levelo_inurba_marseille","lat":43.324771,"lon":5.36557,"is_reserved":false,"is_disabled":false,"rental_uris":{"android":"levelo://app?vid=234ee3a8-0bfb-441c-9669-0016805180f4","ios":"levelo://app?vid=234ee3a8-0bfb-441c-9669-0016805180f4"},"vehicle_type_id":"4","last_reported":1713463755,"current_range_meters":30400,"station_id":"ce4bhs12rcd13ifvqhvg","pricing_plan_id":"cebpf4jnsgd1na2vs0mg"},{"bike_id":"4042be98-d823-4315-a140-7fce380accfb","system_id":"levelo_inurba_marseille","lat":43.310804,"lon":5.38359,"is_reserved":false,"is_disabled":false,"rental_uris":{"android":"levelo://app?vid=4042be98-d823-4315-a140-7fce380accfb","ios":"levelo://app?vid=4042be98-d823-4315-a140-7fce380accfb"},"vehicle_type_id":"4","last_reported":1713463755,"current_range_meters":16400,"station_id":"ce4bgv92rcd13ifvqcr0","pricing_plan_id":"cebpf4jnsgd1na2vs0mg"},{"bike_id":"1c73cea6-5a66-4911-9129-7c3d37dbd7ad","system_id":"levelo_inurba_marseille","lat":43.310804,"lon":5.38359,"is_reserved":false,"is_disabled":false,"rental_uris":{"android":"levelo://app?vid=1c73cea6-5a66-4911-9129-7c3d37dbd7ad","ios":"levelo://app?vid=1c73cea6-5a66-4911-9129-7c3d37dbd7ad"},"vehicle_type_id":"4","last_reported":1713463755,"current_range_meters":0,"station_id":"ce4bgv92rcd13ifvqcr0","pricing_plan_id":"cebpf4jnsgd1na2vs0mg"},{"bike_id":"55025c88-7430-4100-b656-17b5466ee865","system_id":"levelo_inurba_marseille","lat":43.31072,"lon":5.38355,"is_reserved":false,"is_disabled":false,"rental_uris":{"android":"levelo://app?vid=55025c88-7430-4100-b656-17b5466ee865","ios":"levelo://app?vid=55025c88-7430-4100-b656-17b5466ee865"},"vehicle_type_id":"4","last_reported":1713463755,"current_range_meters":0,"station_id":"ce4bgv92rcd13ifvqcr0","pricing_plan_id":"cebpf4jnsgd1na2vs0mg"},{"bike_id":"978b6494-5e04-441a-b830-9eb28b11492c","system_id":"levelo_inurba_marseille","lat":43.301429,"lon":5.37413,"is_reserved":false,"is_disabled":false,"rental_uris":{"android":"levelo://app?vid=978b6494-5e04-441a-b830-9eb28b11492c","ios":"levelo://app?vid=978b6494-5e04-441a-b830-9eb28b11492c"},"vehicle_type_id":"4","last_reported":1713463755,"current_range_meters":8000,"station_id":"ce4bgs92rcd13ifvqcc0","pricing_plan_id":"cebpf4jnsgd1na2vs0mg"},{"bike_id":"fd1cb2e8-0827-4fc3-958a-45e957cfa8f0","system_id":"levelo_inurba_marseille","lat":43.30143,"lon":5.37413,"is_reserved":false,"is_disabled":false,"rental_uris":{"android":"levelo://app?vid=fd1cb2e8-0827-4fc3-958a-45e957cfa8f0","ios":"levelo://app?vid=fd1cb2e8-0827-4fc3-958a-45e957cfa8f0"},"vehicle_type_id":"4","last_reported":1713463755,"current_range_meters":2800,"station_id":"ce4bgs92rcd13ifvqcc0","pricing_plan_id":"cebpf4jnsgd1na2vs0mg"},{"bike_id":"5e0422c4-4db2-4cd5-8ec6-f1a5f73617e2","system_id":"levelo_inurba_marseille","lat":43.305517,"lon":5.381035,"is_reserved":false,"is_disabled":false,"rental_uris":{"android":"levelo://app?vid=5e0422c4-4db2-4cd5-8ec6-f1a5f73617e2","ios":"levelo://app?vid=5e0422c4-4db2-4cd5-8ec6-f1a5f73617e2"},"vehicle_type_id":"4","last_reported":1713463755,"current_range_meters":13600,"station_id":"","pricing_plan_id":"cebpf4jnsgd1na2vs0mg"},{"bike_id":"d212c281-3522-420a-b06f-b80966290c73","system_id":"levelo_inurba_marseille","lat":43.319935,"lon":5.381699,"is_reserved":false,"is_disabled":false,"rental_uris":{"android":"levelo://app?vid=d212c281-3522-420a-b06f-b80966290c73","ios":"levelo://app?vid=d212c281-3522-420a-b06f-b80966290c73"},"vehicle_type_id":"4","last_reported":1713463755,"current_range_meters":19200,"station_id":"ce4bhr12rcd13ifvqhpg","pricing_plan_id":"cebpf4jnsgd1na2vs0mg"},{"bike_id":"d58f425e-124d-42e9-9ab0-28b4f3bfb62b","system_id":"levelo_inurba_marseille","lat":43.314811,"lon":5.373104,"is_reserved":false,"is_disabled":false,"rental_uris":{"android":"levelo://app?vid=d58f425e-124d-42e9-9ab0-28b4f3bfb62b","ios":"levelo://app?vid=d58f425e-124d-42e9-9ab0-28b4f3bfb62b"},"vehicle_type_id":"4","last_reported":1713463755,"current_range_meters":22800,"station_id":"ce4bgt12rcd13ifvqcd0","pricing_plan_id":"cebpf4jnsgd1na2vs0mg"},{"bike_id":"3d2d6d9b-bac4-4cbc-b1a0-ff655824f638","system_id":"levelo_inurba_marseille","lat":43.319935,"lon":5.381699,"is_reserved":false,"is_disabled":false,"rental_uris":{"android":"levelo://app?vid=3d2d6d9b-bac4-4cbc-b1a0-ff655824f638","ios":"levelo://app?vid=3d2d6d9b-bac4-4cbc-b1a0-ff655824f638"},"vehicle_type_id":"4","last_reported":1713463755,"current_range_meters":0,"station_id":"ce4bhr12rcd13ifvqhpg","pricing_plan_id":"cebpf4jnsgd1na2vs0mg"},{"bike_id":"eafb423f-aa36-420b-b508-3557486cd4f0","system_id":"levelo_inurba_marseille","lat":43.313571,"lon":5.384829,"is_reserved":false,"is_disabled":false,"rental_uris":{"android":"levelo://app?vid=eafb423f-aa36-420b-b508-3557486cd4f0","ios":"levelo://app?vid=eafb423f-aa36-420b-b508-3557486cd4f0"},"vehicle_type_id":"4","last_reported":1713463755,"current_range_meters":6800,"station_id":"ce4bgt92rcd13ifvqcf0","pricing_plan_id":"cebpf4jnsgd1na2vs0mg"},{"bike_id":"b81b1e3e-2172-4dfd-8720-aafb0057bf12","system_id":"levelo_inurba_marseille","lat":43.319935,"lon":5.381699,"is_reserved":false,"is_disabled":false,"rental_uris":{"android":"levelo://app?vid=b81b1e3e-2172-4dfd-8720-aafb0057bf12","ios":"levelo://app?vid=b81b1e3e-2172-4dfd-8720-aafb0057bf12"},"vehicle_type_id":"4","last_reported":1713463755,"current_range_meters":26800,"station_id":"ce4bhr12rcd13ifvqhpg","pricing_plan_id":"cebpf4jnsgd1na2vs0mg"},{"bike_id":"334e3407-4f9b-4b57-a5ef-39033f25d948","system_id":"levelo_inurba_marseille","lat":43.319935,"lon":5.381699,"is_reserved":false,"is_disabled":false,"rental_uris":{"android":"levelo://app?vid=334e3407-4f9b-4b57-a5ef-39033f25d948","ios":"levelo://app?vid=334e3407-4f9b-4b57-a5ef-39033f25d948"},"vehicle_type_id":"4","last_reported":1713463755,"current_range_meters":16000,"station_id":"ce4bhr12rcd13ifvqhpg","pricing_plan_id":"cebpf4jnsgd1na2vs0mg"},{"bike_id":"ce7fa476-bb4f-43d3-8318-023d7f9567ab","system_id":"levelo_inurba_marseille","lat":43.319935,"lon":5.381699,"is_reserved":false,"is_disabled":false,"rental_uris":{"android":"levelo://app?vid=ce7fa476-bb4f-43d3-8318-023d7f9567ab","ios":"levelo://app?vid=ce7fa476-bb4f-43d3-8318-023d7f9567ab"},"vehicle_type_id":"4","last_reported":1713463755,"current_range_meters":15200,"station_id":"ce4bhr12rcd13ifvqhpg","pricing_plan_id":"cebpf4jnsgd1na2vs0mg"},{"bike_id":"de921362-b395-4619-ba3b-315c464bd095","system_id":"levelo_inurba_marseille","lat":43.319935,"lon":5.381699,"is_reserved":false,"is_disabled":false,"rental_uris":{"android":"levelo://app?vid=de921362-b395-4619-ba3b-315c464bd095","ios":"levelo://app?vid=de921362-b395-4619-ba3b-315c464bd095"},"vehicle_type_id":"4","last_reported":1713463755,"current_range_meters":0,"station_id":"ce4bhr12rcd13ifvqhpg","pricing_plan_id":"cebpf4jnsgd1na2vs0mg"},{"bike_id":"1bea0808-44c0-444a-b9a2-26501d31dd0c","system_id":"levelo_inurba_marseille","lat":43.299222,"lon":5.365554,"is_reserved":false,"is_disabled":false,"rental_uris":{"android":"levelo://app?vid=1bea0808-44c0-444a-b9a2-26501d31dd0c","ios":"levelo://app?vid=1bea0808-44c0-444a-b9a2-26501d31dd0c"},"vehicle_type_id":"4","last_reported":1713463755,"current_range_meters":28400,"station_id":"ce4bgm92rcd13ifvqbr0","pricing_plan_id":"cebpf4jnsgd1na2vs0mg"},{"bike_id":"bbe4c8b9-7c33-4fc2-b472-3e3778183456","system_id":"levelo_inurba_marseille","lat":43.299222,"lon":5.365554,"is_reserved":false,"is_disabled":false,"rental_uris":{"android":"levelo://app?vid=bbe4c8b9-7c33-4fc2-b472-3e3778183456","ios":"levelo://app?vid=bbe4c8b9-7c33-4fc2-b472-3e3778183456"},"vehicle_type_id":"4","last_reported":1713463755,"current_range_meters":8800,"station_id":"ce4bgm92rcd13ifvqbr0","pricing_plan_id":"cebpf4jnsgd1na2vs0mg"},{"bike_id":"80d7ec8d-db8d-415e-a154-01f64a59dbd4","system_id":"levelo_inurba_marseille","lat":43.299724,"lon":5.371829,"is_reserved":false,"is_disabled":false,"rental_uris":{"android":"levelo://app?vid=80d7ec8d-db8d-415e-a154-01f64a59dbd4","ios":"levelo://app?vid=80d7ec8d-db8d-415e-a154-01f64a59dbd4"},"vehicle_type_id":"4","last_reported":1713463755,"current_range_meters":1600,"station_id":"ce4bgr92rcd13ifvqc7g","pricing_plan_id":"cebpf4jnsgd1na2vs0mg"},{"bike_id":"00f4029a-460f-4fc8-837e-f46c05529346","system_id":"levelo_inurba_marseille","lat":43.299724,"lon":5.371829,"is_reserved":false,"is_disabled":false,"rental_uris":{"android":"levelo://app?vid=00f4029a-460f-4fc8-837e-f46c05529346","ios":"levelo://app?vid=00f4029a-460f-4fc8-837e-f46c05529346"},"vehicle_type_id":"4","last_reported":1713463755,"current_range_meters":18400,"station_id":"ce4bgr92rcd13ifvqc7g","pricing_plan_id":"cebpf4jnsgd1na2vs0mg"},{"bike_id":"10667a6a-ab2b-4d56-964d-f1fa06cb81d6","system_id":"levelo_inurba_marseille","lat":43.298433,"lon":5.362774,"is_reserved":false,"is_disabled":false,"rental_uris":{"android":"levelo://app?vid=10667a6a-ab2b-4d56-964d-f1fa06cb81d6","ios":"levelo://app?vid=10667a6a-ab2b-4d56-964d-f1fa06cb81d6"},"vehicle_type_id":"4","last_reported":1713463755,"current_range_meters":15200,"station_id":"ce4bgpp2rcd13ifvqc3g","pricing_plan_id":"cebpf4jnsgd1na2vs0mg"},{"bike_id":"79b1484c-7ca2-4a8d-b15b-2987062d3cb2","system_id":"levelo_inurba_marseille","lat":43.30015,"lon":5.376596,"is_reserved":false,"is_disabled":false,"rental_uris":{"android":"levelo://app?vid=79b1484c-7ca2-4a8d-b15b-2987062d3cb2","ios":"levelo://app?vid=79b1484c-7ca2-4a8d-b15b-2987062d3cb2"},"vehicle_type_id":"4","last_reported":1713463755,"current_range_meters":20000,"station_id":"","pricing_plan_id":"cebpf4jnsgd1na2vs0mg"},{"bike_id":"08feb7f4-3122-45d8-b3c1-3bdd8548c718","system_id":"levelo_inurba_marseille","lat":43.298433,"lon":5.362774,"is_reserved":false,"is_disabled":false,"rental_uris":{"android":"levelo://app?vid=08feb7f4-3122-45d8-b3c1-3bdd8548c718","ios":"levelo://app?vid=08feb7f4-3122-45d8-b3c1-3bdd8548c718"},"vehicle_type_id":"4","last_reported":1713463755,"current_range_meters":30400,"station_id":"ce4bgpp2rcd13ifvqc3g","pricing_plan_id":"cebpf4jnsgd1na2vs0mg"},{"bike_id":"07ca4f98-d887-4f53-8e77-a1130fede290","system_id":"levelo_inurba_marseille","lat":43.298433,"lon":5.362774,"is_reserved":false,"is_disabled":false,"rental_uris":{"android":"levelo://app?vid=07ca4f98-d887-4f53-8e77-a1130fede290","ios":"levelo://app?vid=07ca4f98-d887-4f53-8e77-a1130fede290"},"vehicle_type_id":"4","last_reported":1713463755,"current_range_meters":31600,"station_id":"ce4bgpp2rcd13ifvqc3g","pricing_plan_id":"cebpf4jnsgd1na2vs0mg"},{"bike_id":"f07a1b5e-1167-4a4f-9d64-987142b04aec","system_id":"levelo_inurba_marseille","lat":43.298433,"lon":5.362774,"is_reserved":false,"is_disabled":false,"rental_uris":{"android":"levelo://app?vid=f07a1b5e-1167-4a4f-9d64-987142b04aec","ios":"levelo://app?vid=f07a1b5e-1167-4a4f-9d64-987142b04aec"},"vehicle_type_id":"4","last_reported":1713463755,"current_range_meters":27600,"station_id":"ce4bgpp2rcd13ifvqc3g","pricing_plan_id":"cebpf4jnsgd1na2vs0mg"},{"bike_id":"151eb08b-59a4-4b71-8964-77e02cc9b851","system_id":"levelo_inurba_marseille","lat":43.298433,"lon":5.362774,"is_reserved":false,"is_disabled":false,"rental_uris":{"android":"levelo://app?vid=151eb08b-59a4-4b71-8964-77e02cc9b851","ios":"levelo://app?vid=151eb08b-59a4-4b71-8964-77e02cc9b851"},"vehicle_type_id":"4","last_reported":1713463755,"current_range_meters":18000,"station_id":"ce4bgpp2rcd13ifvqc3g","pricing_plan_id":"cebpf4jnsgd1na2vs0mg"},{"bike_id":"ba69a1ca-016c-4a17-85fc-ef971e7dd9a4","system_id":"levelo_inurba_marseille","lat":43.298433,"lon":5.362774,"is_reserved":false,"is_disabled":false,"rental_uris":{"android":"levelo://app?vid=ba69a1ca-016c-4a17-85fc-ef971e7dd9a4","ios":"levelo://app?vid=ba69a1ca-016c-4a17-85fc-ef971e7dd9a4"},"vehicle_type_id":"4","last_reported":1713463755,"current_range_meters":31600,"station_id":"ce4bgpp2rcd13ifvqc3g","pricing_plan_id":"cebpf4jnsgd1na2vs0mg"},{"bike_id":"89f5b1fd-7d40-4d1d-9489-01d65ea4f582","system_id":"levelo_inurba_marseille","lat":43.298433,"lon":5.362774,"is_reserved":false,"is_disabled":false,"rental_uris":{"android":"levelo://app?vid=89f5b1fd-7d40-4d1d-9489-01d65ea4f582","ios":"levelo://app?vid=89f5b1fd-7d40-4d1d-9489-01d65ea4f582"},"vehicle_type_id":"4","last_reported":1713463755,"current_range_meters":28400,"station_id":"ce4bgpp2rcd13ifvqc3g","pricing_plan_id":"cebpf4jnsgd1na2vs0mg"},{"bike_id":"a1698dd0-2ffe-4a56-ae06-cabc27a87446","system_id":"levelo_inurba_marseille","lat":43.305364,"lon":5.384119,"is_reserved":false,"is_disabled":false,"rental_uris":{"android":"levelo://app?vid=a1698dd0-2ffe-4a56-ae06-cabc27a87446","ios":"levelo://app?vid=a1698dd0-2ffe-4a56-ae06-cabc27a87446"},"vehicle_type_id":"4","last_reported":1713463755,"current_range_meters":2000,"station_id":"ce4bgg92rcd13ifvqb30","pricing_plan_id":"cebpf4jnsgd1na2vs0mg"},{"bike_id":"adf95ea1-edb6-41d0-b18f-d861e28b9853","system_id":"levelo_inurba_marseille","lat":43.298433,"lon":5.362774,"is_reserved":false,"is_disabled":false,"rental_uris":{"android":"levelo://app?vid=adf95ea1-edb6-41d0-b18f-d861e28b9853","ios":"levelo://app?vid=adf95ea1-edb6-41d0-b18f-d861e28b9853"},"vehicle_type_id":"4","last_reported":1713463755,"current_range_meters":8800,"station_id":"ce4bgpp2rcd13ifvqc3g","pricing_plan_id":"cebpf4jnsgd1na2vs0mg"},{"bike_id":"03c79b3f-fc4b-4513-878b-810fb2ad1592","system_id":"levelo_inurba_marseille","lat":43.29842,"lon":5.36259,"is_reserved":false,"is_disabled":false,"rental_uris":{"android":"levelo://app?vid=03c79b3f-fc4b-4513-878b-810fb2ad1592","ios":"levelo://app?vid=03c79b3f-fc4b-4513-878b-810fb2ad1592"},"vehicle_type_id":"4","last_reported":1713463755,"current_range_meters":30800,"station_id":"ce4bgpp2rcd13ifvqc3g","pricing_plan_id":"cebpf4jnsgd1na2vs0mg"},{"bike_id":"6f7a157b-be30-4c90-82cd-2e2767acb879","system_id":"levelo_inurba_marseille","lat":43.311843,"lon":5.387077,"is_reserved":false,"is_disabled":false,"rental_uris":{"android":"levelo://app?vid=6f7a157b-be30-4c90-82cd-2e2767acb879","ios":"levelo://app?vid=6f7a157b-be30-4c90-82cd-2e2767acb879"},"vehicle_type_id":"4","last_reported":1713463755,"current_range_meters":0,"station_id":"ce4bgv12rcd13ifvqcp0","pricing_plan_id":"cebpf4jnsgd1na2vs0mg"},{"bike_id":"b65359ed-afff-4127-ab8f-a5ce11a4e08c","system_id":"levelo_inurba_marseille","lat":43.299243,"lon":5.374807,"is_reserved":false,"is_disabled":false,"rental_uris":{"android":"levelo://app?vid=b65359ed-afff-4127-ab8f-a5ce11a4e08c","ios":"levelo://app?vid=b65359ed-afff-4127-ab8f-a5ce11a4e08c"},"vehicle_type_id":"4","last_reported":1713463755,"current_range_meters":2400,"station_id":"ce4bgjh2rcd13ifvqbg0","pricing_plan_id":"cebpf4jnsgd1na2vs0mg"},{"bike_id":"05660d6f-3237-4142-81f2-4afec5265f81","system_id":"levelo_inurba_marseille","lat":43.311722,"lon":5.387247,"is_reserved":false,"is_disabled":false,"rental_uris":{"android":"levelo://app?vid=05660d6f-3237-4142-81f2-4afec5265f81","ios":"levelo://app?vid=05660d6f-3237-4142-81f2-4afec5265f81"},"vehicle_type_id":"4","last_reported":1713463755,"current_range_meters":5600,"station_id":"ce4bgv12rcd13ifvqcp0","pricing_plan_id":"cebpf4jnsgd1na2vs0mg"},{"bike_id":"1cd0c7ab-baaa-44b2-bf40-b1d2cef28022","system_id":"levelo_inurba_marseille","lat":43.311722,"lon":5.387247,"is_reserved":false,"is_disabled":false,"rental_uris":{"android":"levelo://app?vid=1cd0c7ab-baaa-44b2-bf40-b1d2cef28022","ios":"levelo://app?vid=1cd0c7ab-baaa-44b2-bf40-b1d2cef28022"},"vehicle_type_id":"4","last_reported":1713463755,"current_range_meters":17200,"station_id":"ce4bgv12rcd13ifvqcp0","pricing_plan_id":"cebpf4jnsgd1na2vs0mg"},{"bike_id":"b9bffcda-a769-4681-8a01-62ab3e44f293","system_id":"levelo_inurba_marseille","lat":43.297774,"lon":5.370875,"is_reserved":false,"is_disabled":false,"rental_uris":{"android":"levelo://app?vid=b9bffcda-a769-4681-8a01-62ab3e44f293","ios":"levelo://app?vid=b9bffcda-a769-4681-8a01-62ab3e44f293"},"vehicle_type_id":"4","last_reported":1713463755,"current_range_meters":12800,"station_id":"ce4bgop2rcd13ifvqc1g","pricing_plan_id":"cebpf4jnsgd1na2vs0mg"},{"bike_id":"aa38acc2-91cb-407c-ac8c-05b08cc96e3e","system_id":"levelo_inurba_marseille","lat":43.322872,"lon":5.382756,"is_reserved":false,"is_disabled":false,"rental_uris":{"android":"levelo://app?vid=aa38acc2-91cb-407c-ac8c-05b08cc96e3e","ios":"levelo://app?vid=aa38acc2-91cb-407c-ac8c-05b08cc96e3e"},"vehicle_type_id":"4","last_reported":1713463755,"current_range_meters":26800,"station_id":"ce4bhr12rcd13ifvqhqg","pricing_plan_id":"cebpf4jnsgd1na2vs0mg"},{"bike_id":"3a777aae-0d2a-4638-8c09-6f1de81534e0","system_id":"levelo_inurba_marseille","lat":43.322872,"lon":5.382756,"is_reserved":false,"is_disabled":false,"rental_uris":{"android":"levelo://app?vid=3a777aae-0d2a-4638-8c09-6f1de81534e0","ios":"levelo://app?vid=3a777aae-0d2a-4638-8c09-6f1de81534e0"},"vehicle_type_id":"4","last_reported":1713463755,"current_range_meters":28400,"station_id":"ce4bhr12rcd13ifvqhqg","pricing_plan_id":"cebpf4jnsgd1na2vs0mg"},{"bike_id":"408cba4b-9d9b-47f4-bdc8-06d23ac10b76","system_id":"levelo_inurba_marseille","lat":43.297163,"lon":5.365866,"is_reserved":false,"is_disabled":false,"rental_uris":{"android":"levelo://app?vid=408cba4b-9d9b-47f4-bdc8-06d23ac10b76","ios":"levelo://app?vid=408cba4b-9d9b-47f4-bdc8-06d23ac10b76"},"vehicle_type_id":"4","last_reported":1713463755,"current_range_meters":14400,"station_id":"ce4bgn12rcd13ifvqbt0","pricing_plan_id":"cebpf4jnsgd1na2vs0mg"},{"bike_id":"14aec135-900d-4cad-9334-cc5b4e025021","system_id":"levelo_inurba_marseille","lat":43.305364,"lon":5.384119,"is_reserved":false,"is_disabled":false,"rental_uris":{"android":"levelo://app?vid=14aec135-900d-4cad-9334-cc5b4e025021","ios":"levelo://app?vid=14aec135-900d-4cad-9334-cc5b4e025021"},"vehicle_type_id":"4","last_reported":1713463755,"current_range_meters":4000,"station_id":"ce4bgg92rcd13ifvqb30","pricing_plan_id":"cebpf4jnsgd1na2vs0mg"},{"bike_id":"ca4e4d70-dad6-4bb8-9c9c-5c67995ca009","system_id":"levelo_inurba_marseille","lat":43.296131,"lon":5.370791,"is_reserved":false,"is_disabled":false,"rental_uris":{"android":"levelo://app?vid=ca4e4d70-dad6-4bb8-9c9c-5c67995ca009","ios":"levelo://app?vid=ca4e4d70-dad6-4bb8-9c9c-5c67995ca009"},"vehicle_type_id":"4","last_reported":1713463755,"current_range_meters":30400,"station_id":"ce4bgnh2rcd13ifvqc0g","pricing_plan_id":"cebpf4jnsgd1na2vs0mg"},{"bike_id":"fd25850a-0dc8-4d33-9c2d-97366a09e72f","system_id":"levelo_inurba_marseille","lat":43.296131,"lon":5.370791,"is_reserved":false,"is_disabled":false,"rental_uris":{"android":"levelo://app?vid=fd25850a-0dc8-4d33-9c2d-97366a09e72f","ios":"levelo://app?vid=fd25850a-0dc8-4d33-9c2d-97366a09e72f"},"vehicle_type_id":"4","last_reported":1713463755,"current_range_meters":0,"station_id":"ce4bgnh2rcd13ifvqc0g","pricing_plan_id":"cebpf4jnsgd1na2vs0mg"},{"bike_id":"fe35f42d-ff27-400a-95a4-aed4cade2dd0","system_id":"levelo_inurba_marseille","lat":43.29573,"lon":5.367355,"is_reserved":false,"is_disabled":false,"rental_uris":{"android":"levelo://app?vid=fe35f42d-ff27-400a-95a4-aed4cade2dd0","ios":"levelo://app?vid=fe35f42d-ff27-400a-95a4-aed4cade2dd0"},"vehicle_type_id":"4","last_reported":1713463755,"current_range_meters":24800,"station_id":"ce4bgph2rcd13ifvqc2g","pricing_plan_id":"cebpf4jnsgd1na2vs0mg"},{"bike_id":"3160d9ee-06f8-4d89-bd80-c5e8bf3f781b","system_id":"levelo_inurba_marseille","lat":43.29573,"lon":5.367355,"is_reserved":false,"is_disabled":false,"rental_uris":{"android":"levelo://app?vid=3160d9ee-06f8-4d89-bd80-c5e8bf3f781b","ios":"levelo://app?vid=3160d9ee-06f8-4d89-bd80-c5e8bf3f781b"},"vehicle_type_id":"4","last_reported":1713463755,"current_range_meters":16000,"station_id":"ce4bgph2rcd13ifvqc2g","pricing_plan_id":"cebpf4jnsgd1na2vs0mg"},{"bike_id":"80d03f46-6a48-4ca4-a9d0-4b70ca500fc7","system_id":"levelo_inurba_marseille","lat":43.29573,"lon":5.367355,"is_reserved":false,"is_disabled":false,"rental_uris":{"android":"levelo://app?vid=80d03f46-6a48-4ca4-a9d0-4b70ca500fc7","ios":"levelo://app?vid=80d03f46-6a48-4ca4-a9d0-4b70ca500fc7"},"vehicle_type_id":"4","last_reported":1713463755,"current_range_meters":800,"station_id":"ce4bgph2rcd13ifvqc2g","pricing_plan_id":"cebpf4jnsgd1na2vs0mg"},{"bike_id":"91568633-af0f-4e9b-a29e-b6b3dfd6f1c5","system_id":"levelo_inurba_marseille","lat":43.29573,"lon":5.367355,"is_reserved":false,"is_disabled":false,"rental_uris":{"android":"levelo://app?vid=91568633-af0f-4e9b-a29e-b6b3dfd6f1c5","ios":"levelo://app?vid=91568633-af0f-4e9b-a29e-b6b3dfd6f1c5"},"vehicle_type_id":"4","last_reported":1713463755,"current_range_meters":30000,"station_id":"ce4bgph2rcd13ifvqc2g","pricing_plan_id":"cebpf4jnsgd1na2vs0mg"},{"bike_id":"3e3aec1a-211d-4e2e-810a-8bc4e18ae285","system_id":"levelo_inurba_marseille","lat":43.292642,"lon":5.384254,"is_reserved":false,"is_disabled":false,"rental_uris":{"android":"levelo://app?vid=3e3aec1a-211d-4e2e-810a-8bc4e18ae285","ios":"levelo://app?vid=3e3aec1a-211d-4e2e-810a-8bc4e18ae285"},"vehicle_type_id":"4","last_reported":1713463755,"current_range_meters":4000,"station_id":"ce4bh692rcd13ifvqea0","pricing_plan_id":"cebpf4jnsgd1na2vs0mg"},{"bike_id":"8d18eb5c-2959-46a3-9a8f-a296a46b62da","system_id":"levelo_inurba_marseille","lat":43.296296,"lon":5.374146,"is_reserved":false,"is_disabled":false,"rental_uris":{"android":"levelo://app?vid=8d18eb5c-2959-46a3-9a8f-a296a46b62da","ios":"levelo://app?vid=8d18eb5c-2959-46a3-9a8f-a296a46b62da"},"vehicle_type_id":"4","last_reported":1713463755,"current_range_meters":1600,"station_id":"","pricing_plan_id":"cebpf4jnsgd1na2vs0mg"},{"bike_id":"2209539c-fac3-4a1f-8d29-f4dbe868ca65","system_id":"levelo_inurba_marseille","lat":43.296921,"lon":5.376579,"is_reserved":false,"is_disabled":false,"rental_uris":{"android":"levelo://app?vid=2209539c-fac3-4a1f-8d29-f4dbe868ca65","ios":"levelo://app?vid=2209539c-fac3-4a1f-8d29-f4dbe868ca65"},"vehicle_type_id":"4","last_reported":1713463755,"current_range_meters":4800,"station_id":"ce4bgkh2rcd13ifvqbl0","pricing_plan_id":"cebpf4jnsgd1na2vs0mg"},{"bike_id":"de7353cf-ef18-4032-99ab-d101f5c16730","system_id":"levelo_inurba_marseille","lat":43.317593,"lon":5.38998,"is_reserved":false,"is_disabled":false,"rental_uris":{"android":"levelo://app?vid=de7353cf-ef18-4032-99ab-d101f5c16730","ios":"levelo://app?vid=de7353cf-ef18-4032-99ab-d101f5c16730"},"vehicle_type_id":"4","last_reported":1713463755,"current_range_meters":25200,"station_id":"ce4bhqp2rcd13ifvqhng","pricing_plan_id":"cebpf4jnsgd1na2vs0mg"},{"bike_id":"2e0b5580-d80b-493c-ac08-60192211a055","system_id":"levelo_inurba_marseille","lat":43.317557,"lon":5.390173,"is_reserved":false,"is_disabled":false,"rental_uris":{"android":"levelo://app?vid=2e0b5580-d80b-493c-ac08-60192211a055","ios":"levelo://app?vid=2e0b5580-d80b-493c-ac08-60192211a055"},"vehicle_type_id":"4","last_reported":1713463755,"current_range_meters":26000,"station_id":"ce4bhqp2rcd13ifvqhng","pricing_plan_id":"cebpf4jnsgd1na2vs0mg"},{"bike_id":"5af6b9aa-6111-42ae-b475-42075397e0aa","system_id":"levelo_inurba_marseille","lat":43.31757,"lon":5.39014,"is_reserved":false,"is_disabled":false,"rental_uris":{"android":"levelo://app?vid=5af6b9aa-6111-42ae-b475-42075397e0aa","ios":"levelo://app?vid=5af6b9aa-6111-42ae-b475-42075397e0aa"},"vehicle_type_id":"4","last_reported":1713463755,"current_range_meters":2400,"station_id":"ce4bhqp2rcd13ifvqhng","pricing_plan_id":"cebpf4jnsgd1na2vs0mg"},{"bike_id":"ffb2ec80-b00c-4aa8-9175-31f4df436023","system_id":"levelo_inurba_marseille","lat":43.317557,"lon":5.390173,"is_reserved":false,"is_disabled":false,"rental_uris":{"android":"levelo://app?vid=ffb2ec80-b00c-4aa8-9175-31f4df436023","ios":"levelo://app?vid=ffb2ec80-b00c-4aa8-9175-31f4df436023"},"vehicle_type_id":"4","last_reported":1713463755,"current_range_meters":32000,"station_id":"ce4bhqp2rcd13ifvqhng","pricing_plan_id":"cebpf4jnsgd1na2vs0mg"},{"bike_id":"1f2e51d8-c58c-4937-9cd8-f3cb5a8f76fa","system_id":"levelo_inurba_marseille","lat":43.317557,"lon":5.390173,"is_reserved":false,"is_disabled":false,"rental_uris":{"android":"levelo://app?vid=1f2e51d8-c58c-4937-9cd8-f3cb5a8f76fa","ios":"levelo://app?vid=1f2e51d8-c58c-4937-9cd8-f3cb5a8f76fa"},"vehicle_type_id":"4","last_reported":1713463755,"current_range_meters":4800,"station_id":"ce4bhqp2rcd13ifvqhng","pricing_plan_id":"cebpf4jnsgd1na2vs0mg"},{"bike_id":"d17570c4-bae8-46bf-9acd-c767f80bc9d2","system_id":"levelo_inurba_marseille","lat":43.317557,"lon":5.390173,"is_reserved":false,"is_disabled":false,"rental_uris":{"android":"levelo://app?vid=d17570c4-bae8-46bf-9acd-c767f80bc9d2","ios":"levelo://app?vid=d17570c4-bae8-46bf-9acd-c767f80bc9d2"},"vehicle_type_id":"4","last_reported":1713463755,"current_range_meters":4800,"station_id":"ce4bhqp2rcd13ifvqhng","pricing_plan_id":"cebpf4jnsgd1na2vs0mg"},{"bike_id":"623f7566-be66-45d6-a382-010b5df13439","system_id":"levelo_inurba_marseille","lat":43.311722,"lon":5.387247,"is_reserved":false,"is_disabled":false,"rental_uris":{"android":"levelo://app?vid=623f7566-be66-45d6-a382-010b5df13439","ios":"levelo://app?vid=623f7566-be66-45d6-a382-010b5df13439"},"vehicle_type_id":"4","last_reported":1713463755,"current_range_meters":6800,"station_id":"ce4bgv12rcd13ifvqcp0","pricing_plan_id":"cebpf4jnsgd1na2vs0mg"},{"bike_id":"35ce9b13-f6e1-42ac-98ec-0f716edfdea8","system_id":"levelo_inurba_marseille","lat":43.298037,"lon":5.381066,"is_reserved":false,"is_disabled":false,"rental_uris":{"android":"levelo://app?vid=35ce9b13-f6e1-42ac-98ec-0f716edfdea8","ios":"levelo://app?vid=35ce9b13-f6e1-42ac-98ec-0f716edfdea8"},"vehicle_type_id":"4","last_reported":1713463755,"current_range_meters":1600,"station_id":"ce4bgip2rcd13ifvqbb0","pricing_plan_id":"cebpf4jnsgd1na2vs0mg"},{"bike_id":"1180539d-9a42-4b5d-9a38-eed8a0ea7eac","system_id":"levelo_inurba_marseille","lat":43.292644,"lon":5.384257,"is_reserved":false,"is_disabled":false,"rental_uris":{"android":"levelo://app?vid=1180539d-9a42-4b5d-9a38-eed8a0ea7eac","ios":"levelo://app?vid=1180539d-9a42-4b5d-9a38-eed8a0ea7eac"},"vehicle_type_id":"4","last_reported":1713463755,"current_range_meters":4800,"station_id":"ce4bh692rcd13ifvqea0","pricing_plan_id":"cebpf4jnsgd1na2vs0mg"},{"bike_id":"4697b406-7368-49f1-83dc-c38efe5b35cc","system_id":"levelo_inurba_marseille","lat":43.297921,"lon":5.380997,"is_reserved":false,"is_disabled":false,"rental_uris":{"android":"levelo://app?vid=4697b406-7368-49f1-83dc-c38efe5b35cc","ios":"levelo://app?vid=4697b406-7368-49f1-83dc-c38efe5b35cc"},"vehicle_type_id":"4","last_reported":1713463755,"current_range_meters":3200,"station_id":"ce4bgip2rcd13ifvqbb0","pricing_plan_id":"cebpf4jnsgd1na2vs0mg"},{"bike_id":"1ce1147a-96b6-4a97-af75-2e60150cfcc1","system_id":"levelo_inurba_marseille","lat":43.29778,"lon":5.381079,"is_reserved":false,"is_disabled":false,"rental_uris":{"android":"levelo://app?vid=1ce1147a-96b6-4a97-af75-2e60150cfcc1","ios":"levelo://app?vid=1ce1147a-96b6-4a97-af75-2e60150cfcc1"},"vehicle_type_id":"4","last_reported":1713463755,"current_range_meters":0,"station_id":"ce4bgip2rcd13ifvqbb0","pricing_plan_id":"cebpf4jnsgd1na2vs0mg"},{"bike_id":"4398b85a-77aa-45de-bb37-93a326a07997","system_id":"levelo_inurba_marseille","lat":43.305364,"lon":5.384119,"is_reserved":false,"is_disabled":false,"rental_uris":{"android":"levelo://app?vid=4398b85a-77aa-45de-bb37-93a326a07997","ios":"levelo://app?vid=4398b85a-77aa-45de-bb37-93a326a07997"},"vehicle_type_id":"4","last_reported":1713463755,"current_range_meters":1200,"station_id":"ce4bgg92rcd13ifvqb30","pricing_plan_id":"cebpf4jnsgd1na2vs0mg"},{"bike_id":"144fef58-d10f-45bb-aa6f-e051c1c7686f","system_id":"levelo_inurba_marseille","lat":43.32361,"lon":5.388725,"is_reserved":false,"is_disabled":false,"rental_uris":{"android":"levelo://app?vid=144fef58-d10f-45bb-aa6f-e051c1c7686f","ios":"levelo://app?vid=144fef58-d10f-45bb-aa6f-e051c1c7686f"},"vehicle_type_id":"4","last_reported":1713463755,"current_range_meters":20800,"station_id":"ce4bhqp2rcd13ifvqhog","pricing_plan_id":"cebpf4jnsgd1na2vs0mg"},{"bike_id":"0a1db4f6-8f65-4e89-abc0-7e2a1d6bc918","system_id":"levelo_inurba_marseille","lat":43.32368,"lon":5.38876,"is_reserved":false,"is_disabled":false,"rental_uris":{"android":"levelo://app?vid=0a1db4f6-8f65-4e89-abc0-7e2a1d6bc918","ios":"levelo://app?vid=0a1db4f6-8f65-4e89-abc0-7e2a1d6bc918"},"vehicle_type_id":"4","last_reported":1713463755,"current_range_meters":18000,"station_id":"ce4bhqp2rcd13ifvqhog","pricing_plan_id":"cebpf4jnsgd1na2vs0mg"},{"bike_id":"62664093-5621-4a64-8035-912e8aa6d650","system_id":"levelo_inurba_marseille","lat":43.32366,"lon":5.38878,"is_reserved":false,"is_disabled":false,"rental_uris":{"android":"levelo://app?vid=62664093-5621-4a64-8035-912e8aa6d650","ios":"levelo://app?vid=62664093-5621-4a64-8035-912e8aa6d650"},"vehicle_type_id":"4","last_reported":1713463755,"current_range_meters":16000,"station_id":"ce4bhqp2rcd13ifvqhog","pricing_plan_id":"cebpf4jnsgd1na2vs0mg"},{"bike_id":"d5e2c2be-0e81-4de5-a72b-de510e6c7980","system_id":"levelo_inurba_marseille","lat":43.32367,"lon":5.388836,"is_reserved":false,"is_disabled":false,"rental_uris":{"android":"levelo://app?vid=d5e2c2be-0e81-4de5-a72b-de510e6c7980","ios":"levelo://app?vid=d5e2c2be-0e81-4de5-a72b-de510e6c7980"},"vehicle_type_id":"4","last_reported":1713463755,"current_range_meters":14400,"station_id":"ce4bhqp2rcd13ifvqhog","pricing_plan_id":"cebpf4jnsgd1na2vs0mg"},{"bike_id":"ababb836-a1ff-4815-bf17-4cd8d3a35d8b","system_id":"levelo_inurba_marseille","lat":43.32364,"lon":5.38883,"is_reserved":false,"is_disabled":false,"rental_uris":{"android":"levelo://app?vid=ababb836-a1ff-4815-bf17-4cd8d3a35d8b","ios":"levelo://app?vid=ababb836-a1ff-4815-bf17-4cd8d3a35d8b"},"vehicle_type_id":"4","last_reported":1713463755,"current_range_meters":2800,"station_id":"ce4bhqp2rcd13ifvqhog","pricing_plan_id":"cebpf4jnsgd1na2vs0mg"},{"bike_id":"6bfaab4d-6e3a-4340-8b03-7fd6dfe3ed56","system_id":"levelo_inurba_marseille","lat":43.32367,"lon":5.388836,"is_reserved":false,"is_disabled":false,"rental_uris":{"android":"levelo://app?vid=6bfaab4d-6e3a-4340-8b03-7fd6dfe3ed56","ios":"levelo://app?vid=6bfaab4d-6e3a-4340-8b03-7fd6dfe3ed56"},"vehicle_type_id":"4","last_reported":1713463755,"current_range_meters":31200,"station_id":"ce4bhqp2rcd13ifvqhog","pricing_plan_id":"cebpf4jnsgd1na2vs0mg"},{"bike_id":"d97efb0a-8b7a-4a13-8d65-3a82f11b15bd","system_id":"levelo_inurba_marseille","lat":43.32367,"lon":5.388836,"is_reserved":false,"is_disabled":false,"rental_uris":{"android":"levelo://app?vid=d97efb0a-8b7a-4a13-8d65-3a82f11b15bd","ios":"levelo://app?vid=d97efb0a-8b7a-4a13-8d65-3a82f11b15bd"},"vehicle_type_id":"4","last_reported":1713463755,"current_range_meters":0,"station_id":"ce4bhqp2rcd13ifvqhog","pricing_plan_id":"cebpf4jnsgd1na2vs0mg"},{"bike_id":"ec3b84dd-a863-4f78-aeb0-dee9498f4259","system_id":"levelo_inurba_marseille","lat":43.32367,"lon":5.388836,"is_reserved":false,"is_disabled":false,"rental_uris":{"android":"levelo://app?vid=ec3b84dd-a863-4f78-aeb0-dee9498f4259","ios":"levelo://app?vid=ec3b84dd-a863-4f78-aeb0-dee9498f4259"},"vehicle_type_id":"4","last_reported":1713463755,"current_range_meters":21200,"station_id":"ce4bhqp2rcd13ifvqhog","pricing_plan_id":"cebpf4jnsgd1na2vs0mg"},{"bike_id":"e12e816d-876d-4b5c-8978-1c8160de6ac5","system_id":"levelo_inurba_marseille","lat":43.32367,"lon":5.38886,"is_reserved":false,"is_disabled":false,"rental_uris":{"android":"levelo://app?vid=e12e816d-876d-4b5c-8978-1c8160de6ac5","ios":"levelo://app?vid=e12e816d-876d-4b5c-8978-1c8160de6ac5"},"vehicle_type_id":"4","last_reported":1713463755,"current_range_meters":26000,"station_id":"ce4bhqp2rcd13ifvqhog","pricing_plan_id":"cebpf4jnsgd1na2vs0mg"},{"bike_id":"2955d361-97c2-437c-b944-77bd6392813f","system_id":"levelo_inurba_marseille","lat":43.323687,"lon":5.388857,"is_reserved":false,"is_disabled":false,"rental_uris":{"android":"levelo://app?vid=2955d361-97c2-437c-b944-77bd6392813f","ios":"levelo://app?vid=2955d361-97c2-437c-b944-77bd6392813f"},"vehicle_type_id":"4","last_reported":1713463755,"current_range_meters":20400,"station_id":"ce4bhqp2rcd13ifvqhog","pricing_plan_id":"cebpf4jnsgd1na2vs0mg"},{"bike_id":"18932b7c-40de-4059-87ad-d2ba24c06a76","system_id":"levelo_inurba_marseille","lat":43.32366,"lon":5.38889,"is_reserved":false,"is_disabled":false,"rental_uris":{"android":"levelo://app?vid=18932b7c-40de-4059-87ad-d2ba24c06a76","ios":"levelo://app?vid=18932b7c-40de-4059-87ad-d2ba24c06a76"},"vehicle_type_id":"4","last_reported":1713463755,"current_range_meters":12400,"station_id":"ce4bhqp2rcd13ifvqhog","pricing_plan_id":"cebpf4jnsgd1na2vs0mg"},{"bike_id":"7a2e36de-3596-49d4-b0a4-6b666e8b78b2","system_id":"levelo_inurba_marseille","lat":43.29602,"lon":5.381084,"is_reserved":false,"is_disabled":false,"rental_uris":{"android":"levelo://app?vid=7a2e36de-3596-49d4-b0a4-6b666e8b78b2","ios":"levelo://app?vid=7a2e36de-3596-49d4-b0a4-6b666e8b78b2"},"vehicle_type_id":"4","last_reported":1713463755,"current_range_meters":0,"station_id":"ce4bgl12rcd13ifvqbo0","pricing_plan_id":"cebpf4jnsgd1na2vs0mg"},{"bike_id":"9e682dcd-9073-4ad9-b9c9-6406e7f00e51","system_id":"levelo_inurba_marseille","lat":43.32367,"lon":5.388836,"is_reserved":false,"is_disabled":false,"rental_uris":{"android":"levelo://app?vid=9e682dcd-9073-4ad9-b9c9-6406e7f00e51","ios":"levelo://app?vid=9e682dcd-9073-4ad9-b9c9-6406e7f00e51"},"vehicle_type_id":"4","last_reported":1713463755,"current_range_meters":18400,"station_id":"ce4bhqp2rcd13ifvqhog","pricing_plan_id":"cebpf4jnsgd1na2vs0mg"},{"bike_id":"5fd525ac-0a6b-4d67-a429-47dd020a4ef8","system_id":"levelo_inurba_marseille","lat":43.29602,"lon":5.381084,"is_reserved":false,"is_disabled":false,"rental_uris":{"android":"levelo://app?vid=5fd525ac-0a6b-4d67-a429-47dd020a4ef8","ios":"levelo://app?vid=5fd525ac-0a6b-4d67-a429-47dd020a4ef8"},"vehicle_type_id":"4","last_reported":1713463755,"current_range_meters":18000,"station_id":"ce4bgl12rcd13ifvqbo0","pricing_plan_id":"cebpf4jnsgd1na2vs0mg"},{"bike_id":"0453ada7-02b3-4083-b15b-b757527ff5f8","system_id":"levelo_inurba_marseille","lat":43.32385,"lon":5.38924,"is_reserved":false,"is_disabled":false,"rental_uris":{"android":"levelo://app?vid=0453ada7-02b3-4083-b15b-b757527ff5f8","ios":"levelo://app?vid=0453ada7-02b3-4083-b15b-b757527ff5f8"},"vehicle_type_id":"4","last_reported":1713463755,"current_range_meters":14800,"station_id":"ce4bhqp2rcd13ifvqhog","pricing_plan_id":"cebpf4jnsgd1na2vs0mg"},{"bike_id":"79343935-b039-4b8f-949d-07766ac26bc8","system_id":"levelo_inurba_marseille","lat":43.323559,"lon":5.389716,"is_reserved":false,"is_disabled":false,"rental_uris":{"android":"levelo://app?vid=79343935-b039-4b8f-949d-07766ac26bc8","ios":"levelo://app?vid=79343935-b039-4b8f-949d-07766ac26bc8"},"vehicle_type_id":"4","last_reported":1713463755,"current_range_meters":13200,"station_id":"","pricing_plan_id":"cebpf4jnsgd1na2vs0mg"},{"bike_id":"7e65c7cd-94be-42dd-90d0-03331677f88e","system_id":"levelo_inurba_marseille","lat":43.293249,"lon":5.371578,"is_reserved":false,"is_disabled":false,"rental_uris":{"android":"levelo://app?vid=7e65c7cd-94be-42dd-90d0-03331677f88e","ios":"levelo://app?vid=7e65c7cd-94be-42dd-90d0-03331677f88e"},"vehicle_type_id":"4","last_reported":1713463755,"current_range_meters":23600,"station_id":"ce4bgh92rcd13ifvqb40","pricing_plan_id":"cebpf4jnsgd1na2vs0mg"},{"bike_id":"3b9ddfd9-9299-4296-9c76-2244291a6dba","system_id":"levelo_inurba_marseille","lat":43.293249,"lon":5.371578,"is_reserved":false,"is_disabled":false,"rental_uris":{"android":"levelo://app?vid=3b9ddfd9-9299-4296-9c76-2244291a6dba","ios":"levelo://app?vid=3b9ddfd9-9299-4296-9c76-2244291a6dba"},"vehicle_type_id":"4","last_reported":1713463755,"current_range_meters":0,"station_id":"ce4bgh92rcd13ifvqb40","pricing_plan_id":"cebpf4jnsgd1na2vs0mg"},{"bike_id":"418bd5f0-8118-4bbf-a2ed-7d7d78b64cbb","system_id":"levelo_inurba_marseille","lat":43.293249,"lon":5.371578,"is_reserved":false,"is_disabled":false,"rental_uris":{"android":"levelo://app?vid=418bd5f0-8118-4bbf-a2ed-7d7d78b64cbb","ios":"levelo://app?vid=418bd5f0-8118-4bbf-a2ed-7d7d78b64cbb"},"vehicle_type_id":"4","last_reported":1713463755,"current_range_meters":16800,"station_id":"ce4bgh92rcd13ifvqb40","pricing_plan_id":"cebpf4jnsgd1na2vs0mg"},{"bike_id":"5dbd977e-6530-4240-b506-49d3093584f0","system_id":"levelo_inurba_marseille","lat":43.293249,"lon":5.371578,"is_reserved":false,"is_disabled":false,"rental_uris":{"android":"levelo://app?vid=5dbd977e-6530-4240-b506-49d3093584f0","ios":"levelo://app?vid=5dbd977e-6530-4240-b506-49d3093584f0"},"vehicle_type_id":"4","last_reported":1713463755,"current_range_meters":1600,"station_id":"ce4bgh92rcd13ifvqb40","pricing_plan_id":"cebpf4jnsgd1na2vs0mg"},{"bike_id":"90f0b9f0-4f01-48d5-8417-4377ece690a3","system_id":"levelo_inurba_marseille","lat":43.292749,"lon":5.368398,"is_reserved":false,"is_disabled":false,"rental_uris":{"android":"levelo://app?vid=90f0b9f0-4f01-48d5-8417-4377ece690a3","ios":"levelo://app?vid=90f0b9f0-4f01-48d5-8417-4377ece690a3"},"vehicle_type_id":"4","last_reported":1713463755,"current_range_meters":26000,"station_id":"ce4bhbp2rcd13ifvqesg","pricing_plan_id":"cebpf4jnsgd1na2vs0mg"},{"bike_id":"6f628f9d-42ac-4995-862a-78e8ff31d3c1","system_id":"levelo_inurba_marseille","lat":43.293249,"lon":5.371578,"is_reserved":false,"is_disabled":false,"rental_uris":{"android":"levelo://app?vid=6f628f9d-42ac-4995-862a-78e8ff31d3c1","ios":"levelo://app?vid=6f628f9d-42ac-4995-862a-78e8ff31d3c1"},"vehicle_type_id":"4","last_reported":1713463755,"current_range_meters":14400,"station_id":"ce4bgh92rcd13ifvqb40","pricing_plan_id":"cebpf4jnsgd1na2vs0mg"},{"bike_id":"6d710c80-dd3e-4ad4-a3c8-de7a379d9665","system_id":"levelo_inurba_marseille","lat":43.293009,"lon":5.374584,"is_reserved":false,"is_disabled":false,"rental_uris":{"android":"levelo://app?vid=6d710c80-dd3e-4ad4-a3c8-de7a379d9665","ios":"levelo://app?vid=6d710c80-dd3e-4ad4-a3c8-de7a379d9665"},"vehicle_type_id":"4","last_reported":1713463755,"current_range_meters":0,"station_id":"ce4bgi12rcd13ifvqb70","pricing_plan_id":"cebpf4jnsgd1na2vs0mg"},{"bike_id":"71995a6b-d705-4243-854b-2c2439156463","system_id":"levelo_inurba_marseille","lat":43.305994,"lon":5.393687,"is_reserved":false,"is_disabled":false,"rental_uris":{"android":"levelo://app?vid=71995a6b-d705-4243-854b-2c2439156463","ios":"levelo://app?vid=71995a6b-d705-4243-854b-2c2439156463"},"vehicle_type_id":"4","last_reported":1713463755,"current_range_meters":15600,"station_id":"ce4bh0p2rcd13ifvqd80","pricing_plan_id":"cebpf4jnsgd1na2vs0mg"},{"bike_id":"48849194-6212-4b82-b813-52dfad271374","system_id":"levelo_inurba_marseille","lat":43.305994,"lon":5.393687,"is_reserved":false,"is_disabled":false,"rental_uris":{"android":"levelo://app?vid=48849194-6212-4b82-b813-52dfad271374","ios":"levelo://app?vid=48849194-6212-4b82-b813-52dfad271374"},"vehicle_type_id":"4","last_reported":1713463755,"current_range_meters":1600,"station_id":"ce4bh0p2rcd13ifvqd80","pricing_plan_id":"cebpf4jnsgd1na2vs0mg"},{"bike_id":"83660d05-24b6-4837-8c9c-63ca250c703a","system_id":"levelo_inurba_marseille","lat":43.293009,"lon":5.374584,"is_reserved":false,"is_disabled":false,"rental_uris":{"android":"levelo://app?vid=83660d05-24b6-4837-8c9c-63ca250c703a","ios":"levelo://app?vid=83660d05-24b6-4837-8c9c-63ca250c703a"},"vehicle_type_id":"4","last_reported":1713463755,"current_range_meters":4400,"station_id":"ce4bgi12rcd13ifvqb70","pricing_plan_id":"cebpf4jnsgd1na2vs0mg"},{"bike_id":"1cc3dc63-a37c-4f73-9ffd-dc21120ffc79","system_id":"levelo_inurba_marseille","lat":43.302992,"lon":5.392136,"is_reserved":false,"is_disabled":false,"rental_uris":{"android":"levelo://app?vid=1cc3dc63-a37c-4f73-9ffd-dc21120ffc79","ios":"levelo://app?vid=1cc3dc63-a37c-4f73-9ffd-dc21120ffc79"},"vehicle_type_id":"4","last_reported":1713463755,"current_range_meters":1200,"station_id":"ce4bgkh2rcd13ifvqbk0","pricing_plan_id":"cebpf4jnsgd1na2vs0mg"},{"bike_id":"917dd01c-98e7-4c0c-9342-92b4b191b90d","system_id":"levelo_inurba_marseille","lat":43.2936,"lon":5.37835,"is_reserved":false,"is_disabled":false,"rental_uris":{"android":"levelo://app?vid=917dd01c-98e7-4c0c-9342-92b4b191b90d","ios":"levelo://app?vid=917dd01c-98e7-4c0c-9342-92b4b191b90d"},"vehicle_type_id":"4","last_reported":1713463755,"current_range_meters":15600,"station_id":"ce4bgjh2rcd13ifvqbf0","pricing_plan_id":"cebpf4jnsgd1na2vs0mg"},{"bike_id":"0083fcb1-dcc1-428e-973b-28dc8a8495ef","system_id":"levelo_inurba_marseille","lat":43.301429,"lon":5.37413,"is_reserved":false,"is_disabled":false,"rental_uris":{"android":"levelo://app?vid=0083fcb1-dcc1-428e-973b-28dc8a8495ef","ios":"levelo://app?vid=0083fcb1-dcc1-428e-973b-28dc8a8495ef"},"vehicle_type_id":"4","last_reported":1713463755,"current_range_meters":13600,"station_id":"ce4bgs92rcd13ifvqcc0","pricing_plan_id":"cebpf4jnsgd1na2vs0mg"},{"bike_id":"1b164b41-794c-44f4-8dab-de838dd56801","system_id":"levelo_inurba_marseille","lat":43.2936,"lon":5.37835,"is_reserved":false,"is_disabled":false,"rental_uris":{"android":"levelo://app?vid=1b164b41-794c-44f4-8dab-de838dd56801","ios":"levelo://app?vid=1b164b41-794c-44f4-8dab-de838dd56801"},"vehicle_type_id":"4","last_reported":1713463755,"current_range_meters":9600,"station_id":"ce4bgjh2rcd13ifvqbf0","pricing_plan_id":"cebpf4jnsgd1na2vs0mg"},{"bike_id":"ee85350e-b765-417b-adcd-40222e671abc","system_id":"levelo_inurba_marseille","lat":43.2936,"lon":5.37835,"is_reserved":false,"is_disabled":false,"rental_uris":{"android":"levelo://app?vid=ee85350e-b765-417b-adcd-40222e671abc","ios":"levelo://app?vid=ee85350e-b765-417b-adcd-40222e671abc"},"vehicle_type_id":"4","last_reported":1713463755,"current_range_meters":0,"station_id":"ce4bgjh2rcd13ifvqbf0","pricing_plan_id":"cebpf4jnsgd1na2vs0mg"},{"bike_id":"0db468a4-73e0-4901-89a5-e9cd37a44ffa","system_id":"levelo_inurba_marseille","lat":43.28727,"lon":5.36078,"is_reserved":false,"is_disabled":false,"rental_uris":{"android":"levelo://app?vid=0db468a4-73e0-4901-89a5-e9cd37a44ffa","ios":"levelo://app?vid=0db468a4-73e0-4901-89a5-e9cd37a44ffa"},"vehicle_type_id":"4","last_reported":1713463755,"current_range_meters":19200,"station_id":"cki0cbj6b192h4jlfktg","pricing_plan_id":"cebpf4jnsgd1na2vs0mg"},{"bike_id":"f92d2a92-a53b-44c1-b64a-4607d51dda62","system_id":"levelo_inurba_marseille","lat":43.284793,"lon":5.384113,"is_reserved":false,"is_disabled":false,"rental_uris":{"android":"levelo://app?vid=f92d2a92-a53b-44c1-b64a-4607d51dda62","ios":"levelo://app?vid=f92d2a92-a53b-44c1-b64a-4607d51dda62"},"vehicle_type_id":"4","last_reported":1713463755,"current_range_meters":19200,"station_id":"ce4bh512rcd13ifvqe3g","pricing_plan_id":"cebpf4jnsgd1na2vs0mg"},{"bike_id":"e4baa3f4-b373-4551-8eab-d5c02f692175","system_id":"levelo_inurba_marseille","lat":43.292672,"lon":5.376228,"is_reserved":false,"is_disabled":false,"rental_uris":{"android":"levelo://app?vid=e4baa3f4-b373-4551-8eab-d5c02f692175","ios":"levelo://app?vid=e4baa3f4-b373-4551-8eab-d5c02f692175"},"vehicle_type_id":"4","last_reported":1713463755,"current_range_meters":17600,"station_id":"ce4bgi12rcd13ifvqb70","pricing_plan_id":"cebpf4jnsgd1na2vs0mg"},{"bike_id":"b38e6469-dad3-482b-8196-dee5fb168f26","system_id":"levelo_inurba_marseille","lat":43.298764,"lon":5.388973,"is_reserved":false,"is_disabled":false,"rental_uris":{"android":"levelo://app?vid=b38e6469-dad3-482b-8196-dee5fb168f26","ios":"levelo://app?vid=b38e6469-dad3-482b-8196-dee5fb168f26"},"vehicle_type_id":"4","last_reported":1713463755,"current_range_meters":4400,"station_id":"ce4bh392rcd13ifvqdl0","pricing_plan_id":"cebpf4jnsgd1na2vs0mg"},{"bike_id":"5c1f3ee9-8a98-4032-9c91-d247258c8597","system_id":"levelo_inurba_marseille","lat":43.298764,"lon":5.388973,"is_reserved":false,"is_disabled":false,"rental_uris":{"android":"levelo://app?vid=5c1f3ee9-8a98-4032-9c91-d247258c8597","ios":"levelo://app?vid=5c1f3ee9-8a98-4032-9c91-d247258c8597"},"vehicle_type_id":"4","last_reported":1713463755,"current_range_meters":0,"station_id":"ce4bh392rcd13ifvqdl0","pricing_plan_id":"cebpf4jnsgd1na2vs0mg"},{"bike_id":"9a0c335c-6d79-4ad6-af6f-3279092f1626","system_id":"levelo_inurba_marseille","lat":43.273125,"lon":5.390731,"is_reserved":false,"is_disabled":false,"rental_uris":{"android":"levelo://app?vid=9a0c335c-6d79-4ad6-af6f-3279092f1626","ios":"levelo://app?vid=9a0c335c-6d79-4ad6-af6f-3279092f1626"},"vehicle_type_id":"4","last_reported":1713463755,"current_range_meters":14400,"station_id":"ce4bhgp2rcd13ifvqfe0","pricing_plan_id":"cebpf4jnsgd1na2vs0mg"},{"bike_id":"444b43f7-9f5d-45b0-a21f-6003860818b5","system_id":"levelo_inurba_marseille","lat":43.291671,"lon":5.371575,"is_reserved":false,"is_disabled":false,"rental_uris":{"android":"levelo://app?vid=444b43f7-9f5d-45b0-a21f-6003860818b5","ios":"levelo://app?vid=444b43f7-9f5d-45b0-a21f-6003860818b5"},"vehicle_type_id":"4","last_reported":1713463755,"current_range_meters":400,"station_id":"ce4bha92rcd13ifvqeh0","pricing_plan_id":"cebpf4jnsgd1na2vs0mg"},{"bike_id":"8d61b0c7-b802-4242-add7-5daebf547de8","system_id":"levelo_inurba_marseille","lat":43.298764,"lon":5.388973,"is_reserved":false,"is_disabled":false,"rental_uris":{"android":"levelo://app?vid=8d61b0c7-b802-4242-add7-5daebf547de8","ios":"levelo://app?vid=8d61b0c7-b802-4242-add7-5daebf547de8"},"vehicle_type_id":"4","last_reported":1713463755,"current_range_meters":18800,"station_id":"ce4bh392rcd13ifvqdl0","pricing_plan_id":"cebpf4jnsgd1na2vs0mg"},{"bike_id":"cae4de37-e6b6-47f3-931f-fa66c29b69d5","system_id":"levelo_inurba_marseille","lat":43.291675,"lon":5.371583,"is_reserved":false,"is_disabled":false,"rental_uris":{"android":"levelo://app?vid=cae4de37-e6b6-47f3-931f-fa66c29b69d5","ios":"levelo://app?vid=cae4de37-e6b6-47f3-931f-fa66c29b69d5"},"vehicle_type_id":"4","last_reported":1713463755,"current_range_meters":0,"station_id":"ce4bha92rcd13ifvqeh0","pricing_plan_id":"cebpf4jnsgd1na2vs0mg"},{"bike_id":"aae11d69-d93f-42c3-bb1a-5897c87effda","system_id":"levelo_inurba_marseille","lat":43.290779,"lon":5.371482,"is_reserved":false,"is_disabled":false,"rental_uris":{"android":"levelo://app?vid=aae11d69-d93f-42c3-bb1a-5897c87effda","ios":"levelo://app?vid=aae11d69-d93f-42c3-bb1a-5897c87effda"},"vehicle_type_id":"4","last_reported":1713463755,"current_range_meters":14400,"station_id":"ce4bh5p2rcd13ifvqe4g","pricing_plan_id":"cebpf4jnsgd1na2vs0mg"},{"bike_id":"02d5ede8-e224-4846-8faf-fb26748cf005","system_id":"levelo_inurba_marseille","lat":43.30967,"lon":5.3965,"is_reserved":false,"is_disabled":false,"rental_uris":{"android":"levelo://app?vid=02d5ede8-e224-4846-8faf-fb26748cf005","ios":"levelo://app?vid=02d5ede8-e224-4846-8faf-fb26748cf005"},"vehicle_type_id":"4","last_reported":1713463755,"current_range_meters":4400,"station_id":"","pricing_plan_id":"cebpf4jnsgd1na2vs0mg"},{"bike_id":"109ee69c-7e97-4a94-bed6-8de67572c62a","system_id":"levelo_inurba_marseille","lat":43.291987,"lon":5.358037,"is_reserved":false,"is_disabled":false,"rental_uris":{"android":"levelo://app?vid=109ee69c-7e97-4a94-bed6-8de67572c62a","ios":"levelo://app?vid=109ee69c-7e97-4a94-bed6-8de67572c62a"},"vehicle_type_id":"4","last_reported":1713463755,"current_range_meters":20000,"station_id":"ce4bhb12rcd13ifvqel0","pricing_plan_id":"cebpf4jnsgd1na2vs0mg"},{"bike_id":"ab4ee201-b1d5-4bb5-a2e1-8c13653a7395","system_id":"levelo_inurba_marseille","lat":43.29182,"lon":5.375148,"is_reserved":false,"is_disabled":false,"rental_uris":{"android":"levelo://app?vid=ab4ee201-b1d5-4bb5-a2e1-8c13653a7395","ios":"levelo://app?vid=ab4ee201-b1d5-4bb5-a2e1-8c13653a7395"},"vehicle_type_id":"4","last_reported":1713463755,"current_range_meters":0,"station_id":"","pricing_plan_id":"cebpf4jnsgd1na2vs0mg"},{"bike_id":"1b71beca-6ee8-4f9e-9601-d32e11cef432","system_id":"levelo_inurba_marseille","lat":43.291994,"lon":5.357886,"is_reserved":false,"is_disabled":false,"rental_uris":{"android":"levelo://app?vid=1b71beca-6ee8-4f9e-9601-d32e11cef432","ios":"levelo://app?vid=1b71beca-6ee8-4f9e-9601-d32e11cef432"},"vehicle_type_id":"4","last_reported":1713463755,"current_range_meters":22000,"station_id":"ce4bhb12rcd13ifvqel0","pricing_plan_id":"cebpf4jnsgd1na2vs0mg"},{"bike_id":"59c87b99-0a81-4503-a6f5-7462d6aa85b5","system_id":"levelo_inurba_marseille","lat":43.282744,"lon":5.350533,"is_reserved":false,"is_disabled":false,"rental_uris":{"android":"levelo://app?vid=59c87b99-0a81-4503-a6f5-7462d6aa85b5","ios":"levelo://app?vid=59c87b99-0a81-4503-a6f5-7462d6aa85b5"},"vehicle_type_id":"4","last_reported":1713463755,"current_range_meters":19600,"station_id":"ce4bhbp2rcd13ifvqerg","pricing_plan_id":"cebpf4jnsgd1na2vs0mg"},{"bike_id":"1a1bedd3-245e-47b5-8299-6bf6c217c244","system_id":"levelo_inurba_marseille","lat":43.313278,"lon":5.396905,"is_reserved":false,"is_disabled":false,"rental_uris":{"android":"levelo://app?vid=1a1bedd3-245e-47b5-8299-6bf6c217c244","ios":"levelo://app?vid=1a1bedd3-245e-47b5-8299-6bf6c217c244"},"vehicle_type_id":"4","last_reported":1713463755,"current_range_meters":0,"station_id":"ce4bgvp2rcd13ifvqcu0","pricing_plan_id":"cebpf4jnsgd1na2vs0mg"},{"bike_id":"7525af45-f9f4-4900-893b-b7f1a4a4f300","system_id":"levelo_inurba_marseille","lat":43.309038,"lon":5.396546,"is_reserved":false,"is_disabled":false,"rental_uris":{"android":"levelo://app?vid=7525af45-f9f4-4900-893b-b7f1a4a4f300","ios":"levelo://app?vid=7525af45-f9f4-4900-893b-b7f1a4a4f300"},"vehicle_type_id":"4","last_reported":1713463755,"current_range_meters":2400,"station_id":"ce4bh012rcd13ifvqcv0","pricing_plan_id":"cebpf4jnsgd1na2vs0mg"},{"bike_id":"ae8bdbc1-9772-448d-bad5-5bb87de0da5c","system_id":"levelo_inurba_marseille","lat":43.31329,"lon":5.39692,"is_reserved":false,"is_disabled":false,"rental_uris":{"android":"levelo://app?vid=ae8bdbc1-9772-448d-bad5-5bb87de0da5c","ios":"levelo://app?vid=ae8bdbc1-9772-448d-bad5-5bb87de0da5c"},"vehicle_type_id":"4","last_reported":1713463755,"current_range_meters":31200,"station_id":"ce4bgvp2rcd13ifvqcu0","pricing_plan_id":"cebpf4jnsgd1na2vs0mg"},{"bike_id":"80d2a9b5-b46f-4aef-bec8-c9fbd07b4b52","system_id":"levelo_inurba_marseille","lat":43.31333,"lon":5.39692,"is_reserved":false,"is_disabled":false,"rental_uris":{"android":"levelo://app?vid=80d2a9b5-b46f-4aef-bec8-c9fbd07b4b52","ios":"levelo://app?vid=80d2a9b5-b46f-4aef-bec8-c9fbd07b4b52"},"vehicle_type_id":"4","last_reported":1713463755,"current_range_meters":26800,"station_id":"ce4bgvp2rcd13ifvqcu0","pricing_plan_id":"cebpf4jnsgd1na2vs0mg"},{"bike_id":"41b5f176-9934-4452-b2dd-08a09e97c08f","system_id":"levelo_inurba_marseille","lat":43.295397,"lon":5.385354,"is_reserved":false,"is_disabled":false,"rental_uris":{"android":"levelo://app?vid=41b5f176-9934-4452-b2dd-08a09e97c08f","ios":"levelo://app?vid=41b5f176-9934-4452-b2dd-08a09e97c08f"},"vehicle_type_id":"4","last_reported":1713463755,"current_range_meters":4400,"station_id":"ce4bgih2rcd13ifvqba0","pricing_plan_id":"cebpf4jnsgd1na2vs0mg"},{"bike_id":"b0066bef-038b-451f-a5c4-e473f301894d","system_id":"levelo_inurba_marseille","lat":43.29529,"lon":5.385581,"is_reserved":false,"is_disabled":false,"rental_uris":{"android":"levelo://app?vid=b0066bef-038b-451f-a5c4-e473f301894d","ios":"levelo://app?vid=b0066bef-038b-451f-a5c4-e473f301894d"},"vehicle_type_id":"4","last_reported":1713463755,"current_range_meters":10000,"station_id":"ce4bgih2rcd13ifvqba0","pricing_plan_id":"cebpf4jnsgd1na2vs0mg"},{"bike_id":"64d24972-091b-463e-abe7-9ca7877c4d9f","system_id":"levelo_inurba_marseille","lat":43.309038,"lon":5.396546,"is_reserved":false,"is_disabled":false,"rental_uris":{"android":"levelo://app?vid=64d24972-091b-463e-abe7-9ca7877c4d9f","ios":"levelo://app?vid=64d24972-091b-463e-abe7-9ca7877c4d9f"},"vehicle_type_id":"4","last_reported":1713463755,"current_range_meters":20800,"station_id":"ce4bh012rcd13ifvqcv0","pricing_plan_id":"cebpf4jnsgd1na2vs0mg"},{"bike_id":"d6868381-179e-4361-870b-9d104b321275","system_id":"levelo_inurba_marseille","lat":43.29529,"lon":5.385581,"is_reserved":false,"is_disabled":false,"rental_uris":{"android":"levelo://app?vid=d6868381-179e-4361-870b-9d104b321275","ios":"levelo://app?vid=d6868381-179e-4361-870b-9d104b321275"},"vehicle_type_id":"4","last_reported":1713463755,"current_range_meters":20400,"station_id":"ce4bgih2rcd13ifvqba0","pricing_plan_id":"cebpf4jnsgd1na2vs0mg"},{"bike_id":"0dc8ceb2-0f2f-4d27-a990-9d68e73dd349","system_id":"levelo_inurba_marseille","lat":43.29529,"lon":5.385581,"is_reserved":false,"is_disabled":false,"rental_uris":{"android":"levelo://app?vid=0dc8ceb2-0f2f-4d27-a990-9d68e73dd349","ios":"levelo://app?vid=0dc8ceb2-0f2f-4d27-a990-9d68e73dd349"},"vehicle_type_id":"4","last_reported":1713463755,"current_range_meters":16400,"station_id":"ce4bgih2rcd13ifvqba0","pricing_plan_id":"cebpf4jnsgd1na2vs0mg"},{"bike_id":"6dae444a-e301-409d-a958-920cfcbb3011","system_id":"levelo_inurba_marseille","lat":43.29529,"lon":5.385581,"is_reserved":false,"is_disabled":false,"rental_uris":{"android":"levelo://app?vid=6dae444a-e301-409d-a958-920cfcbb3011","ios":"levelo://app?vid=6dae444a-e301-409d-a958-920cfcbb3011"},"vehicle_type_id":"4","last_reported":1713463755,"current_range_meters":0,"station_id":"ce4bgih2rcd13ifvqba0","pricing_plan_id":"cebpf4jnsgd1na2vs0mg"},{"bike_id":"106d9b28-41f9-41f5-b812-98bba918ebcf","system_id":"levelo_inurba_marseille","lat":43.29529,"lon":5.385581,"is_reserved":false,"is_disabled":false,"rental_uris":{"android":"levelo://app?vid=106d9b28-41f9-41f5-b812-98bba918ebcf","ios":"levelo://app?vid=106d9b28-41f9-41f5-b812-98bba918ebcf"},"vehicle_type_id":"4","last_reported":1713463755,"current_range_meters":0,"station_id":"ce4bgih2rcd13ifvqba0","pricing_plan_id":"cebpf4jnsgd1na2vs0mg"},{"bike_id":"442cb71c-42d8-48f1-8441-c5ab270d2e15","system_id":"levelo_inurba_marseille","lat":43.29529,"lon":5.385581,"is_reserved":false,"is_disabled":false,"rental_uris":{"android":"levelo://app?vid=442cb71c-42d8-48f1-8441-c5ab270d2e15","ios":"levelo://app?vid=442cb71c-42d8-48f1-8441-c5ab270d2e15"},"vehicle_type_id":"4","last_reported":1713463755,"current_range_meters":18000,"station_id":"ce4bgih2rcd13ifvqba0","pricing_plan_id":"cebpf4jnsgd1na2vs0mg"},{"bike_id":"0bb8e179-d1cf-42c8-8f88-8631539caf68","system_id":"levelo_inurba_marseille","lat":43.29529,"lon":5.385581,"is_reserved":false,"is_disabled":false,"rental_uris":{"android":"levelo://app?vid=0bb8e179-d1cf-42c8-8f88-8631539caf68","ios":"levelo://app?vid=0bb8e179-d1cf-42c8-8f88-8631539caf68"},"vehicle_type_id":"4","last_reported":1713463755,"current_range_meters":24800,"station_id":"ce4bgih2rcd13ifvqba0","pricing_plan_id":"cebpf4jnsgd1na2vs0mg"},{"bike_id":"45e8c9c3-936a-4c33-9144-249ab1365145","system_id":"levelo_inurba_marseille","lat":43.299724,"lon":5.371829,"is_reserved":false,"is_disabled":false,"rental_uris":{"android":"levelo://app?vid=45e8c9c3-936a-4c33-9144-249ab1365145","ios":"levelo://app?vid=45e8c9c3-936a-4c33-9144-249ab1365145"},"vehicle_type_id":"4","last_reported":1713463755,"current_range_meters":2800,"station_id":"ce4bgr92rcd13ifvqc7g","pricing_plan_id":"cebpf4jnsgd1na2vs0mg"},{"bike_id":"6cb2793f-1aea-4bed-9871-199b75c35b20","system_id":"levelo_inurba_marseille","lat":43.290104,"lon":5.356111,"is_reserved":false,"is_disabled":false,"rental_uris":{"android":"levelo://app?vid=6cb2793f-1aea-4bed-9871-199b75c35b20","ios":"levelo://app?vid=6cb2793f-1aea-4bed-9871-199b75c35b20"},"vehicle_type_id":"4","last_reported":1713463755,"current_range_meters":12400,"station_id":"ce4bhb92rcd13ifvqen0","pricing_plan_id":"cebpf4jnsgd1na2vs0mg"},{"bike_id":"8fd1ccf6-236a-4741-8232-2894153d1321","system_id":"levelo_inurba_marseille","lat":43.290779,"lon":5.371482,"is_reserved":false,"is_disabled":false,"rental_uris":{"android":"levelo://app?vid=8fd1ccf6-236a-4741-8232-2894153d1321","ios":"levelo://app?vid=8fd1ccf6-236a-4741-8232-2894153d1321"},"vehicle_type_id":"4","last_reported":1713463755,"current_range_meters":12000,"station_id":"ce4bh5p2rcd13ifvqe4g","pricing_plan_id":"cebpf4jnsgd1na2vs0mg"},{"bike_id":"63708507-84c4-4d3f-8189-c7db60e61625","system_id":"levelo_inurba_marseille","lat":43.290779,"lon":5.371482,"is_reserved":false,"is_disabled":false,"rental_uris":{"android":"levelo://app?vid=63708507-84c4-4d3f-8189-c7db60e61625","ios":"levelo://app?vid=63708507-84c4-4d3f-8189-c7db60e61625"},"vehicle_type_id":"4","last_reported":1713463755,"current_range_meters":8800,"station_id":"ce4bh5p2rcd13ifvqe4g","pricing_plan_id":"cebpf4jnsgd1na2vs0mg"},{"bike_id":"0f27748d-b43b-4ff5-b981-c1440a6e2ecf","system_id":"levelo_inurba_marseille","lat":43.29529,"lon":5.385581,"is_reserved":false,"is_disabled":false,"rental_uris":{"android":"levelo://app?vid=0f27748d-b43b-4ff5-b981-c1440a6e2ecf","ios":"levelo://app?vid=0f27748d-b43b-4ff5-b981-c1440a6e2ecf"},"vehicle_type_id":"4","last_reported":1713463755,"current_range_meters":13600,"station_id":"ce4bgih2rcd13ifvqba0","pricing_plan_id":"cebpf4jnsgd1na2vs0mg"},{"bike_id":"93cb47a2-88b9-47de-aeb3-286ff8faa683","system_id":"levelo_inurba_marseille","lat":43.302008,"lon":5.394694,"is_reserved":false,"is_disabled":false,"rental_uris":{"android":"levelo://app?vid=93cb47a2-88b9-47de-aeb3-286ff8faa683","ios":"levelo://app?vid=93cb47a2-88b9-47de-aeb3-286ff8faa683"},"vehicle_type_id":"4","last_reported":1713463755,"current_range_meters":3200,"station_id":"ce4bh0p2rcd13ifvqd70","pricing_plan_id":"cebpf4jnsgd1na2vs0mg"},{"bike_id":"287c2891-c701-4c17-86f7-3da699e01abb","system_id":"levelo_inurba_marseille","lat":43.296921,"lon":5.376579,"is_reserved":false,"is_disabled":false,"rental_uris":{"android":"levelo://app?vid=287c2891-c701-4c17-86f7-3da699e01abb","ios":"levelo://app?vid=287c2891-c701-4c17-86f7-3da699e01abb"},"vehicle_type_id":"4","last_reported":1713463755,"current_range_meters":26000,"station_id":"ce4bgkh2rcd13ifvqbl0","pricing_plan_id":"cebpf4jnsgd1na2vs0mg"},{"bike_id":"c5017abc-87fc-4f7d-b57c-c1f233cd6620","system_id":"levelo_inurba_marseille","lat":43.294153,"lon":5.386305,"is_reserved":false,"is_disabled":false,"rental_uris":{"android":"levelo://app?vid=c5017abc-87fc-4f7d-b57c-c1f233cd6620","ios":"levelo://app?vid=c5017abc-87fc-4f7d-b57c-c1f233cd6620"},"vehicle_type_id":"4","last_reported":1713463755,"current_range_meters":22800,"station_id":"ce4bh2h2rcd13ifvqdh0","pricing_plan_id":"cebpf4jnsgd1na2vs0mg"},{"bike_id":"d0a49e24-79d2-4f90-9102-f343fff7cc4d","system_id":"levelo_inurba_marseille","lat":43.294153,"lon":5.386305,"is_reserved":false,"is_disabled":false,"rental_uris":{"android":"levelo://app?vid=d0a49e24-79d2-4f90-9102-f343fff7cc4d","ios":"levelo://app?vid=d0a49e24-79d2-4f90-9102-f343fff7cc4d"},"vehicle_type_id":"4","last_reported":1713463755,"current_range_meters":17600,"station_id":"ce4bh2h2rcd13ifvqdh0","pricing_plan_id":"cebpf4jnsgd1na2vs0mg"},{"bike_id":"7c6cc785-acd6-457d-8b26-f3ff00e49993","system_id":"levelo_inurba_marseille","lat":43.294162,"lon":5.386292,"is_reserved":false,"is_disabled":false,"rental_uris":{"android":"levelo://app?vid=7c6cc785-acd6-457d-8b26-f3ff00e49993","ios":"levelo://app?vid=7c6cc785-acd6-457d-8b26-f3ff00e49993"},"vehicle_type_id":"4","last_reported":1713463755,"current_range_meters":0,"station_id":"ce4bh2h2rcd13ifvqdh0","pricing_plan_id":"cebpf4jnsgd1na2vs0mg"},{"bike_id":"f9254333-a828-4255-bf40-be03280a4f30","system_id":"levelo_inurba_marseille","lat":43.289483,"lon":5.366399,"is_reserved":false,"is_disabled":false,"rental_uris":{"android":"levelo://app?vid=f9254333-a828-4255-bf40-be03280a4f30","ios":"levelo://app?vid=f9254333-a828-4255-bf40-be03280a4f30"},"vehicle_type_id":"4","last_reported":1713463755,"current_range_meters":0,"station_id":"ce4bhap2rcd13ifvqek0","pricing_plan_id":"cebpf4jnsgd1na2vs0mg"},{"bike_id":"8716df49-e09d-4ecd-a9df-824f9b7c8018","system_id":"levelo_inurba_marseille","lat":43.294162,"lon":5.386292,"is_reserved":false,"is_disabled":false,"rental_uris":{"android":"levelo://app?vid=8716df49-e09d-4ecd-a9df-824f9b7c8018","ios":"levelo://app?vid=8716df49-e09d-4ecd-a9df-824f9b7c8018"},"vehicle_type_id":"4","last_reported":1713463755,"current_range_meters":0,"station_id":"ce4bh2h2rcd13ifvqdh0","pricing_plan_id":"cebpf4jnsgd1na2vs0mg"},{"bike_id":"e8637739-789a-41eb-80c4-78bbeb8642e3","system_id":"levelo_inurba_marseille","lat":43.294153,"lon":5.386305,"is_reserved":false,"is_disabled":false,"rental_uris":{"android":"levelo://app?vid=e8637739-789a-41eb-80c4-78bbeb8642e3","ios":"levelo://app?vid=e8637739-789a-41eb-80c4-78bbeb8642e3"},"vehicle_type_id":"4","last_reported":1713463755,"current_range_meters":20800,"station_id":"ce4bh2h2rcd13ifvqdh0","pricing_plan_id":"cebpf4jnsgd1na2vs0mg"},{"bike_id":"f67f1c99-f4d8-4cc6-a336-054577687b08","system_id":"levelo_inurba_marseille","lat":43.294162,"lon":5.386292,"is_reserved":false,"is_disabled":false,"rental_uris":{"android":"levelo://app?vid=f67f1c99-f4d8-4cc6-a336-054577687b08","ios":"levelo://app?vid=f67f1c99-f4d8-4cc6-a336-054577687b08"},"vehicle_type_id":"4","last_reported":1713463755,"current_range_meters":12800,"station_id":"ce4bh2h2rcd13ifvqdh0","pricing_plan_id":"cebpf4jnsgd1na2vs0mg"},{"bike_id":"ec3eff07-dc89-4c36-b255-17830164f968","system_id":"levelo_inurba_marseille","lat":43.29419,"lon":5.38625,"is_reserved":false,"is_disabled":false,"rental_uris":{"android":"levelo://app?vid=ec3eff07-dc89-4c36-b255-17830164f968","ios":"levelo://app?vid=ec3eff07-dc89-4c36-b255-17830164f968"},"vehicle_type_id":"4","last_reported":1713463755,"current_range_meters":1200,"station_id":"ce4bh2h2rcd13ifvqdh0","pricing_plan_id":"cebpf4jnsgd1na2vs0mg"},{"bike_id":"c87c32ab-ebb7-439b-a51b-5f54ac1098b6","system_id":"levelo_inurba_marseille","lat":43.294162,"lon":5.386292,"is_reserved":false,"is_disabled":false,"rental_uris":{"android":"levelo://app?vid=c87c32ab-ebb7-439b-a51b-5f54ac1098b6","ios":"levelo://app?vid=c87c32ab-ebb7-439b-a51b-5f54ac1098b6"},"vehicle_type_id":"4","last_reported":1713463755,"current_range_meters":0,"station_id":"ce4bh2h2rcd13ifvqdh0","pricing_plan_id":"cebpf4jnsgd1na2vs0mg"},{"bike_id":"0c409cdf-11ed-48a5-b6ac-79df7d032e87","system_id":"levelo_inurba_marseille","lat":43.289184,"lon":5.366408,"is_reserved":false,"is_disabled":false,"rental_uris":{"android":"levelo://app?vid=0c409cdf-11ed-48a5-b6ac-79df7d032e87","ios":"levelo://app?vid=0c409cdf-11ed-48a5-b6ac-79df7d032e87"},"vehicle_type_id":"4","last_reported":1713463755,"current_range_meters":8400,"station_id":"ce4bhap2rcd13ifvqek0","pricing_plan_id":"cebpf4jnsgd1na2vs0mg"},{"bike_id":"21c5da8b-541e-42ec-8e1b-ea80ff01dfd3","system_id":"levelo_inurba_marseille","lat":43.294162,"lon":5.386292,"is_reserved":false,"is_disabled":false,"rental_uris":{"android":"levelo://app?vid=21c5da8b-541e-42ec-8e1b-ea80ff01dfd3","ios":"levelo://app?vid=21c5da8b-541e-42ec-8e1b-ea80ff01dfd3"},"vehicle_type_id":"4","last_reported":1713463755,"current_range_meters":6800,"station_id":"ce4bh2h2rcd13ifvqdh0","pricing_plan_id":"cebpf4jnsgd1na2vs0mg"},{"bike_id":"e496ef8b-eb69-4c32-8d07-f57e22a3d37f","system_id":"levelo_inurba_marseille","lat":43.286039,"lon":5.370679,"is_reserved":false,"is_disabled":false,"rental_uris":{"android":"levelo://app?vid=e496ef8b-eb69-4c32-8d07-f57e22a3d37f","ios":"levelo://app?vid=e496ef8b-eb69-4c32-8d07-f57e22a3d37f"},"vehicle_type_id":"4","last_reported":1713463755,"current_range_meters":15200,"station_id":"ce4bht12rcd13ifvqi60","pricing_plan_id":"cebpf4jnsgd1na2vs0mg"},{"bike_id":"57be7b0b-096b-4e49-91e8-2d4aaf88dc93","system_id":"levelo_inurba_marseille","lat":43.294162,"lon":5.386292,"is_reserved":false,"is_disabled":false,"rental_uris":{"android":"levelo://app?vid=57be7b0b-096b-4e49-91e8-2d4aaf88dc93","ios":"levelo://app?vid=57be7b0b-096b-4e49-91e8-2d4aaf88dc93"},"vehicle_type_id":"4","last_reported":1713463755,"current_range_meters":13600,"station_id":"ce4bh2h2rcd13ifvqdh0","pricing_plan_id":"cebpf4jnsgd1na2vs0mg"},{"bike_id":"ee3345c8-0df2-4f1f-b5b6-0f7311c81a6c","system_id":"levelo_inurba_marseille","lat":43.294162,"lon":5.386292,"is_reserved":false,"is_disabled":false,"rental_uris":{"android":"levelo://app?vid=ee3345c8-0df2-4f1f-b5b6-0f7311c81a6c","ios":"levelo://app?vid=ee3345c8-0df2-4f1f-b5b6-0f7311c81a6c"},"vehicle_type_id":"4","last_reported":1713463755,"current_range_meters":6400,"station_id":"ce4bh2h2rcd13ifvqdh0","pricing_plan_id":"cebpf4jnsgd1na2vs0mg"},{"bike_id":"ff10c61c-90b0-4c3f-8a29-ff2d3cb355ca","system_id":"levelo_inurba_marseille","lat":43.294162,"lon":5.386292,"is_reserved":false,"is_disabled":false,"rental_uris":{"android":"levelo://app?vid=ff10c61c-90b0-4c3f-8a29-ff2d3cb355ca","ios":"levelo://app?vid=ff10c61c-90b0-4c3f-8a29-ff2d3cb355ca"},"vehicle_type_id":"4","last_reported":1713463755,"current_range_meters":14400,"station_id":"ce4bh2h2rcd13ifvqdh0","pricing_plan_id":"cebpf4jnsgd1na2vs0mg"},{"bike_id":"411344b6-3b4b-4daa-9a20-2b41d202708d","system_id":"levelo_inurba_marseille","lat":43.289184,"lon":5.366408,"is_reserved":false,"is_disabled":false,"rental_uris":{"android":"levelo://app?vid=411344b6-3b4b-4daa-9a20-2b41d202708d","ios":"levelo://app?vid=411344b6-3b4b-4daa-9a20-2b41d202708d"},"vehicle_type_id":"4","last_reported":1713463755,"current_range_meters":20400,"station_id":"ce4bhap2rcd13ifvqek0","pricing_plan_id":"cebpf4jnsgd1na2vs0mg"},{"bike_id":"3bdecb47-efcd-4b73-b6bc-b35620bc8950","system_id":"levelo_inurba_marseille","lat":43.289184,"lon":5.366408,"is_reserved":false,"is_disabled":false,"rental_uris":{"android":"levelo://app?vid=3bdecb47-efcd-4b73-b6bc-b35620bc8950","ios":"levelo://app?vid=3bdecb47-efcd-4b73-b6bc-b35620bc8950"},"vehicle_type_id":"4","last_reported":1713463755,"current_range_meters":19200,"station_id":"ce4bhap2rcd13ifvqek0","pricing_plan_id":"cebpf4jnsgd1na2vs0mg"},{"bike_id":"0f8edc1f-1abf-43f2-9c4e-bf5bc8f7b789","system_id":"levelo_inurba_marseille","lat":43.294162,"lon":5.386292,"is_reserved":false,"is_disabled":false,"rental_uris":{"android":"levelo://app?vid=0f8edc1f-1abf-43f2-9c4e-bf5bc8f7b789","ios":"levelo://app?vid=0f8edc1f-1abf-43f2-9c4e-bf5bc8f7b789"},"vehicle_type_id":"4","last_reported":1713463755,"current_range_meters":21200,"station_id":"ce4bh2h2rcd13ifvqdh0","pricing_plan_id":"cebpf4jnsgd1na2vs0mg"},{"bike_id":"9e222a1c-673c-40dd-95ff-b710452f9ea7","system_id":"levelo_inurba_marseille","lat":43.294162,"lon":5.386292,"is_reserved":false,"is_disabled":false,"rental_uris":{"android":"levelo://app?vid=9e222a1c-673c-40dd-95ff-b710452f9ea7","ios":"levelo://app?vid=9e222a1c-673c-40dd-95ff-b710452f9ea7"},"vehicle_type_id":"4","last_reported":1713463755,"current_range_meters":2400,"station_id":"ce4bh2h2rcd13ifvqdh0","pricing_plan_id":"cebpf4jnsgd1na2vs0mg"},{"bike_id":"0e7b405a-1020-417e-a447-7a630b5f172f","system_id":"levelo_inurba_marseille","lat":43.294528,"lon":5.386983,"is_reserved":false,"is_disabled":false,"rental_uris":{"android":"levelo://app?vid=0e7b405a-1020-417e-a447-7a630b5f172f","ios":"levelo://app?vid=0e7b405a-1020-417e-a447-7a630b5f172f"},"vehicle_type_id":"4","last_reported":1713463755,"current_range_meters":1200,"station_id":"ce4bh2h2rcd13ifvqdh0","pricing_plan_id":"cebpf4jnsgd1na2vs0mg"},{"bike_id":"9afd4b76-9127-4d8e-93bc-28543ea72633","system_id":"levelo_inurba_marseille","lat":43.294162,"lon":5.386292,"is_reserved":false,"is_disabled":false,"rental_uris":{"android":"levelo://app?vid=9afd4b76-9127-4d8e-93bc-28543ea72633","ios":"levelo://app?vid=9afd4b76-9127-4d8e-93bc-28543ea72633"},"vehicle_type_id":"4","last_reported":1713463755,"current_range_meters":7600,"station_id":"ce4bh2h2rcd13ifvqdh0","pricing_plan_id":"cebpf4jnsgd1na2vs0mg"},{"bike_id":"51dbc464-27e7-414e-bdd2-82c9ffa0f95c","system_id":"levelo_inurba_marseille","lat":43.294153,"lon":5.386305,"is_reserved":false,"is_disabled":false,"rental_uris":{"android":"levelo://app?vid=51dbc464-27e7-414e-bdd2-82c9ffa0f95c","ios":"levelo://app?vid=51dbc464-27e7-414e-bdd2-82c9ffa0f95c"},"vehicle_type_id":"4","last_reported":1713463755,"current_range_meters":17200,"station_id":"ce4bh2h2rcd13ifvqdh0","pricing_plan_id":"cebpf4jnsgd1na2vs0mg"},{"bike_id":"be9aaae7-3e9e-4c86-bbba-d0e8edc86421","system_id":"levelo_inurba_marseille","lat":43.29411,"lon":5.38627,"is_reserved":false,"is_disabled":false,"rental_uris":{"android":"levelo://app?vid=be9aaae7-3e9e-4c86-bbba-d0e8edc86421","ios":"levelo://app?vid=be9aaae7-3e9e-4c86-bbba-d0e8edc86421"},"vehicle_type_id":"4","last_reported":1713463755,"current_range_meters":0,"station_id":"ce4bh2h2rcd13ifvqdh0","pricing_plan_id":"cebpf4jnsgd1na2vs0mg"},{"bike_id":"3834cd24-39a1-46a7-904f-f173f53050eb","system_id":"levelo_inurba_marseille","lat":43.294162,"lon":5.386292,"is_reserved":false,"is_disabled":false,"rental_uris":{"android":"levelo://app?vid=3834cd24-39a1-46a7-904f-f173f53050eb","ios":"levelo://app?vid=3834cd24-39a1-46a7-904f-f173f53050eb"},"vehicle_type_id":"4","last_reported":1713463755,"current_range_meters":20400,"station_id":"ce4bh2h2rcd13ifvqdh0","pricing_plan_id":"cebpf4jnsgd1na2vs0mg"},{"bike_id":"56798afc-50c8-4e82-9e62-42871ef1f247","system_id":"levelo_inurba_marseille","lat":43.292644,"lon":5.384257,"is_reserved":false,"is_disabled":false,"rental_uris":{"android":"levelo://app?vid=56798afc-50c8-4e82-9e62-42871ef1f247","ios":"levelo://app?vid=56798afc-50c8-4e82-9e62-42871ef1f247"},"vehicle_type_id":"4","last_reported":1713463755,"current_range_meters":6400,"station_id":"ce4bh692rcd13ifvqea0","pricing_plan_id":"cebpf4jnsgd1na2vs0mg"},{"bike_id":"0e518363-bade-4d9c-8d5f-0651429e4f1f","system_id":"levelo_inurba_marseille","lat":43.292644,"lon":5.384257,"is_reserved":false,"is_disabled":false,"rental_uris":{"android":"levelo://app?vid=0e518363-bade-4d9c-8d5f-0651429e4f1f","ios":"levelo://app?vid=0e518363-bade-4d9c-8d5f-0651429e4f1f"},"vehicle_type_id":"4","last_reported":1713463755,"current_range_meters":18800,"station_id":"ce4bh692rcd13ifvqea0","pricing_plan_id":"cebpf4jnsgd1na2vs0mg"},{"bike_id":"f060e2c4-5d77-468c-8cb9-1ecbe1d87b84","system_id":"levelo_inurba_marseille","lat":43.292642,"lon":5.384254,"is_reserved":false,"is_disabled":false,"rental_uris":{"android":"levelo://app?vid=f060e2c4-5d77-468c-8cb9-1ecbe1d87b84","ios":"levelo://app?vid=f060e2c4-5d77-468c-8cb9-1ecbe1d87b84"},"vehicle_type_id":"4","last_reported":1713463755,"current_range_meters":13600,"station_id":"ce4bh692rcd13ifvqea0","pricing_plan_id":"cebpf4jnsgd1na2vs0mg"},{"bike_id":"fc0f8029-dce6-4e91-b099-29b377d1c7bf","system_id":"levelo_inurba_marseille","lat":43.292793,"lon":5.384537,"is_reserved":false,"is_disabled":false,"rental_uris":{"android":"levelo://app?vid=fc0f8029-dce6-4e91-b099-29b377d1c7bf","ios":"levelo://app?vid=fc0f8029-dce6-4e91-b099-29b377d1c7bf"},"vehicle_type_id":"4","last_reported":1713463755,"current_range_meters":5200,"station_id":"ce4bh692rcd13ifvqea0","pricing_plan_id":"cebpf4jnsgd1na2vs0mg"},{"bike_id":"10f8d251-d608-47fd-999e-3efa8a34695c","system_id":"levelo_inurba_marseille","lat":43.292644,"lon":5.384257,"is_reserved":false,"is_disabled":false,"rental_uris":{"android":"levelo://app?vid=10f8d251-d608-47fd-999e-3efa8a34695c","ios":"levelo://app?vid=10f8d251-d608-47fd-999e-3efa8a34695c"},"vehicle_type_id":"4","last_reported":1713463755,"current_range_meters":24800,"station_id":"ce4bh692rcd13ifvqea0","pricing_plan_id":"cebpf4jnsgd1na2vs0mg"},{"bike_id":"d870458b-83a1-44c4-a4f4-287aba203d01","system_id":"levelo_inurba_marseille","lat":43.292644,"lon":5.384257,"is_reserved":false,"is_disabled":false,"rental_uris":{"android":"levelo://app?vid=d870458b-83a1-44c4-a4f4-287aba203d01","ios":"levelo://app?vid=d870458b-83a1-44c4-a4f4-287aba203d01"},"vehicle_type_id":"4","last_reported":1713463755,"current_range_meters":21600,"station_id":"ce4bh692rcd13ifvqea0","pricing_plan_id":"cebpf4jnsgd1na2vs0mg"},{"bike_id":"d305de67-2b9a-4fb8-898f-5c3721915aa9","system_id":"levelo_inurba_marseille","lat":43.292644,"lon":5.384257,"is_reserved":false,"is_disabled":false,"rental_uris":{"android":"levelo://app?vid=d305de67-2b9a-4fb8-898f-5c3721915aa9","ios":"levelo://app?vid=d305de67-2b9a-4fb8-898f-5c3721915aa9"},"vehicle_type_id":"4","last_reported":1713463755,"current_range_meters":3600,"station_id":"ce4bh692rcd13ifvqea0","pricing_plan_id":"cebpf4jnsgd1na2vs0mg"},{"bike_id":"13da95a8-0e24-4710-9d24-0fa10fffd71f","system_id":"levelo_inurba_marseille","lat":43.292736,"lon":5.384481,"is_reserved":false,"is_disabled":false,"rental_uris":{"android":"levelo://app?vid=13da95a8-0e24-4710-9d24-0fa10fffd71f","ios":"levelo://app?vid=13da95a8-0e24-4710-9d24-0fa10fffd71f"},"vehicle_type_id":"4","last_reported":1713463755,"current_range_meters":7200,"station_id":"ce4bh692rcd13ifvqea0","pricing_plan_id":"cebpf4jnsgd1na2vs0mg"},{"bike_id":"506c3fd4-8d90-4142-a78a-88471e60e400","system_id":"levelo_inurba_marseille","lat":43.292642,"lon":5.384254,"is_reserved":false,"is_disabled":false,"rental_uris":{"android":"levelo://app?vid=506c3fd4-8d90-4142-a78a-88471e60e400","ios":"levelo://app?vid=506c3fd4-8d90-4142-a78a-88471e60e400"},"vehicle_type_id":"4","last_reported":1713463755,"current_range_meters":800,"station_id":"ce4bh692rcd13ifvqea0","pricing_plan_id":"cebpf4jnsgd1na2vs0mg"},{"bike_id":"99660148-ced3-490b-9084-caa92bbdff6c","system_id":"levelo_inurba_marseille","lat":43.292644,"lon":5.384257,"is_reserved":false,"is_disabled":false,"rental_uris":{"android":"levelo://app?vid=99660148-ced3-490b-9084-caa92bbdff6c","ios":"levelo://app?vid=99660148-ced3-490b-9084-caa92bbdff6c"},"vehicle_type_id":"4","last_reported":1713463755,"current_range_meters":10000,"station_id":"ce4bh692rcd13ifvqea0","pricing_plan_id":"cebpf4jnsgd1na2vs0mg"},{"bike_id":"d9bda510-db00-42fe-8c2d-8a9519cc463c","system_id":"levelo_inurba_marseille","lat":43.292644,"lon":5.384257,"is_reserved":false,"is_disabled":false,"rental_uris":{"android":"levelo://app?vid=d9bda510-db00-42fe-8c2d-8a9519cc463c","ios":"levelo://app?vid=d9bda510-db00-42fe-8c2d-8a9519cc463c"},"vehicle_type_id":"4","last_reported":1713463755,"current_range_meters":7600,"station_id":"ce4bh692rcd13ifvqea0","pricing_plan_id":"cebpf4jnsgd1na2vs0mg"},{"bike_id":"359efa4e-5103-4b39-a741-ffc25a107db5","system_id":"levelo_inurba_marseille","lat":43.292644,"lon":5.384257,"is_reserved":false,"is_disabled":false,"rental_uris":{"android":"levelo://app?vid=359efa4e-5103-4b39-a741-ffc25a107db5","ios":"levelo://app?vid=359efa4e-5103-4b39-a741-ffc25a107db5"},"vehicle_type_id":"4","last_reported":1713463755,"current_range_meters":26400,"station_id":"ce4bh692rcd13ifvqea0","pricing_plan_id":"cebpf4jnsgd1na2vs0mg"},{"bike_id":"b86b7fbf-f253-433f-bc57-714e4b1df1d0","system_id":"levelo_inurba_marseille","lat":43.292644,"lon":5.384257,"is_reserved":false,"is_disabled":false,"rental_uris":{"android":"levelo://app?vid=b86b7fbf-f253-433f-bc57-714e4b1df1d0","ios":"levelo://app?vid=b86b7fbf-f253-433f-bc57-714e4b1df1d0"},"vehicle_type_id":"4","last_reported":1713463755,"current_range_meters":22400,"station_id":"ce4bh692rcd13ifvqea0","pricing_plan_id":"cebpf4jnsgd1na2vs0mg"},{"bike_id":"da92012e-5822-4ac1-b1de-82cca2fe69b0","system_id":"levelo_inurba_marseille","lat":43.292616,"lon":5.384305,"is_reserved":false,"is_disabled":false,"rental_uris":{"android":"levelo://app?vid=da92012e-5822-4ac1-b1de-82cca2fe69b0","ios":"levelo://app?vid=da92012e-5822-4ac1-b1de-82cca2fe69b0"},"vehicle_type_id":"4","last_reported":1713463755,"current_range_meters":1600,"station_id":"ce4bh692rcd13ifvqea0","pricing_plan_id":"cebpf4jnsgd1na2vs0mg"},{"bike_id":"942d63ab-2088-407c-97fb-ee847274f7f3","system_id":"levelo_inurba_marseille","lat":43.29263,"lon":5.38434,"is_reserved":false,"is_disabled":false,"rental_uris":{"android":"levelo://app?vid=942d63ab-2088-407c-97fb-ee847274f7f3","ios":"levelo://app?vid=942d63ab-2088-407c-97fb-ee847274f7f3"},"vehicle_type_id":"4","last_reported":1713463755,"current_range_meters":0,"station_id":"ce4bh692rcd13ifvqea0","pricing_plan_id":"cebpf4jnsgd1na2vs0mg"},{"bike_id":"b7a5d361-4f66-49d2-9cd8-d063ab58879e","system_id":"levelo_inurba_marseille","lat":43.292644,"lon":5.384257,"is_reserved":false,"is_disabled":false,"rental_uris":{"android":"levelo://app?vid=b7a5d361-4f66-49d2-9cd8-d063ab58879e","ios":"levelo://app?vid=b7a5d361-4f66-49d2-9cd8-d063ab58879e"},"vehicle_type_id":"4","last_reported":1713463755,"current_range_meters":24800,"station_id":"ce4bh692rcd13ifvqea0","pricing_plan_id":"cebpf4jnsgd1na2vs0mg"},{"bike_id":"bf1707cd-96d8-4e22-ab04-ed18771212d1","system_id":"levelo_inurba_marseille","lat":43.292607,"lon":5.384312,"is_reserved":false,"is_disabled":false,"rental_uris":{"android":"levelo://app?vid=bf1707cd-96d8-4e22-ab04-ed18771212d1","ios":"levelo://app?vid=bf1707cd-96d8-4e22-ab04-ed18771212d1"},"vehicle_type_id":"4","last_reported":1713463755,"current_range_meters":5600,"station_id":"ce4bgt92rcd13ifvqcg0","pricing_plan_id":"cebpf4jnsgd1na2vs0mg"},{"bike_id":"e65df9b0-ec95-4766-a4ac-4b28fceeda63","system_id":"levelo_inurba_marseille","lat":43.292644,"lon":5.384257,"is_reserved":false,"is_disabled":false,"rental_uris":{"android":"levelo://app?vid=e65df9b0-ec95-4766-a4ac-4b28fceeda63","ios":"levelo://app?vid=e65df9b0-ec95-4766-a4ac-4b28fceeda63"},"vehicle_type_id":"4","last_reported":1713463755,"current_range_meters":19600,"station_id":"ce4bh692rcd13ifvqea0","pricing_plan_id":"cebpf4jnsgd1na2vs0mg"},{"bike_id":"cd7b7971-9ee5-4351-bd78-d1764b0af7c2","system_id":"levelo_inurba_marseille","lat":43.29264,"lon":5.38443,"is_reserved":false,"is_disabled":false,"rental_uris":{"android":"levelo://app?vid=cd7b7971-9ee5-4351-bd78-d1764b0af7c2","ios":"levelo://app?vid=cd7b7971-9ee5-4351-bd78-d1764b0af7c2"},"vehicle_type_id":"4","last_reported":1713463755,"current_range_meters":9200,"station_id":"ce4bh692rcd13ifvqea0","pricing_plan_id":"cebpf4jnsgd1na2vs0mg"},{"bike_id":"edc83230-8c12-4ef7-af70-1807fa46ade7","system_id":"levelo_inurba_marseille","lat":43.292644,"lon":5.384257,"is_reserved":false,"is_disabled":false,"rental_uris":{"android":"levelo://app?vid=edc83230-8c12-4ef7-af70-1807fa46ade7","ios":"levelo://app?vid=edc83230-8c12-4ef7-af70-1807fa46ade7"},"vehicle_type_id":"4","last_reported":1713463755,"current_range_meters":0,"station_id":"ce4bh692rcd13ifvqea0","pricing_plan_id":"cebpf4jnsgd1na2vs0mg"},{"bike_id":"ecc9a0b2-3d72-42ff-aaf3-2c0291137fd8","system_id":"levelo_inurba_marseille","lat":43.29262,"lon":5.38441,"is_reserved":false,"is_disabled":false,"rental_uris":{"android":"levelo://app?vid=ecc9a0b2-3d72-42ff-aaf3-2c0291137fd8","ios":"levelo://app?vid=ecc9a0b2-3d72-42ff-aaf3-2c0291137fd8"},"vehicle_type_id":"4","last_reported":1713463755,"current_range_meters":16800,"station_id":"ce4bh692rcd13ifvqea0","pricing_plan_id":"cebpf4jnsgd1na2vs0mg"},{"bike_id":"2e772bec-12a9-4d10-822d-bb73b34cb9ff","system_id":"levelo_inurba_marseille","lat":43.292644,"lon":5.384257,"is_reserved":false,"is_disabled":false,"rental_uris":{"android":"levelo://app?vid=2e772bec-12a9-4d10-822d-bb73b34cb9ff","ios":"levelo://app?vid=2e772bec-12a9-4d10-822d-bb73b34cb9ff"},"vehicle_type_id":"4","last_reported":1713463755,"current_range_meters":400,"station_id":"ce4bh692rcd13ifvqea0","pricing_plan_id":"cebpf4jnsgd1na2vs0mg"},{"bike_id":"7ae33d2f-961d-427c-8dc6-e3029226ff45","system_id":"levelo_inurba_marseille","lat":43.29265,"lon":5.38449,"is_reserved":false,"is_disabled":false,"rental_uris":{"android":"levelo://app?vid=7ae33d2f-961d-427c-8dc6-e3029226ff45","ios":"levelo://app?vid=7ae33d2f-961d-427c-8dc6-e3029226ff45"},"vehicle_type_id":"4","last_reported":1713463755,"current_range_meters":5200,"station_id":"ce4bh692rcd13ifvqea0","pricing_plan_id":"cebpf4jnsgd1na2vs0mg"},{"bike_id":"a70e4bfc-6618-4b4f-8596-f58d413101a0","system_id":"levelo_inurba_marseille","lat":43.292642,"lon":5.384254,"is_reserved":false,"is_disabled":false,"rental_uris":{"android":"levelo://app?vid=a70e4bfc-6618-4b4f-8596-f58d413101a0","ios":"levelo://app?vid=a70e4bfc-6618-4b4f-8596-f58d413101a0"},"vehicle_type_id":"4","last_reported":1713463755,"current_range_meters":11600,"station_id":"ce4bh692rcd13ifvqea0","pricing_plan_id":"cebpf4jnsgd1na2vs0mg"},{"bike_id":"5b0fdedb-a965-4d64-a48b-3b665575448c","system_id":"levelo_inurba_marseille","lat":43.290103,"lon":5.356114,"is_reserved":false,"is_disabled":false,"rental_uris":{"android":"levelo://app?vid=5b0fdedb-a965-4d64-a48b-3b665575448c","ios":"levelo://app?vid=5b0fdedb-a965-4d64-a48b-3b665575448c"},"vehicle_type_id":"4","last_reported":1713463755,"current_range_meters":12000,"station_id":"ce4bhb92rcd13ifvqen0","pricing_plan_id":"cebpf4jnsgd1na2vs0mg"},{"bike_id":"317780c7-bf9f-4735-a482-27cf5ed3f9ec","system_id":"levelo_inurba_marseille","lat":43.290995,"lon":5.381361,"is_reserved":false,"is_disabled":false,"rental_uris":{"android":"levelo://app?vid=317780c7-bf9f-4735-a482-27cf5ed3f9ec","ios":"levelo://app?vid=317780c7-bf9f-4735-a482-27cf5ed3f9ec"},"vehicle_type_id":"4","last_reported":1713463755,"current_range_meters":1600,"station_id":"ce4bh512rcd13ifvqe2g","pricing_plan_id":"cebpf4jnsgd1na2vs0mg"},{"bike_id":"657d04b8-6e48-4ae4-a6d8-f4258ae22949","system_id":"levelo_inurba_marseille","lat":43.290995,"lon":5.381361,"is_reserved":false,"is_disabled":false,"rental_uris":{"android":"levelo://app?vid=657d04b8-6e48-4ae4-a6d8-f4258ae22949","ios":"levelo://app?vid=657d04b8-6e48-4ae4-a6d8-f4258ae22949"},"vehicle_type_id":"4","last_reported":1713463755,"current_range_meters":10800,"station_id":"ce4bh512rcd13ifvqe2g","pricing_plan_id":"cebpf4jnsgd1na2vs0mg"},{"bike_id":"3845c615-226b-4e8f-bc0b-8de9c5afe6fa","system_id":"levelo_inurba_marseille","lat":43.2936,"lon":5.37835,"is_reserved":false,"is_disabled":false,"rental_uris":{"android":"levelo://app?vid=3845c615-226b-4e8f-bc0b-8de9c5afe6fa","ios":"levelo://app?vid=3845c615-226b-4e8f-bc0b-8de9c5afe6fa"},"vehicle_type_id":"4","last_reported":1713463755,"current_range_meters":0,"station_id":"ce4bgjh2rcd13ifvqbf0","pricing_plan_id":"cebpf4jnsgd1na2vs0mg"},{"bike_id":"feb583da-5b84-4a9d-a762-976ac43e7e7f","system_id":"levelo_inurba_marseille","lat":43.29793,"lon":5.39345,"is_reserved":false,"is_disabled":false,"rental_uris":{"android":"levelo://app?vid=feb583da-5b84-4a9d-a762-976ac43e7e7f","ios":"levelo://app?vid=feb583da-5b84-4a9d-a762-976ac43e7e7f"},"vehicle_type_id":"4","last_reported":1713463755,"current_range_meters":11600,"station_id":"chh1huq6cuj3fo74tm60","pricing_plan_id":"cebpf4jnsgd1na2vs0mg"},{"bike_id":"fabbb0c1-fde8-44c8-9fcd-fd0d6143372b","system_id":"levelo_inurba_marseille","lat":43.29533,"lon":5.39036,"is_reserved":false,"is_disabled":false,"rental_uris":{"android":"levelo://app?vid=fabbb0c1-fde8-44c8-9fcd-fd0d6143372b","ios":"levelo://app?vid=fabbb0c1-fde8-44c8-9fcd-fd0d6143372b"},"vehicle_type_id":"4","last_reported":1713463755,"current_range_meters":13200,"station_id":"ce4bh3p2rcd13ifvqdp0","pricing_plan_id":"cebpf4jnsgd1na2vs0mg"},{"bike_id":"2941b4dd-b9ca-406f-9826-ddc4f8d2b2a8","system_id":"levelo_inurba_marseille","lat":43.295169,"lon":5.390426,"is_reserved":false,"is_disabled":false,"rental_uris":{"android":"levelo://app?vid=2941b4dd-b9ca-406f-9826-ddc4f8d2b2a8","ios":"levelo://app?vid=2941b4dd-b9ca-406f-9826-ddc4f8d2b2a8"},"vehicle_type_id":"4","last_reported":1713463755,"current_range_meters":29200,"station_id":"ce4bh3p2rcd13ifvqdp0","pricing_plan_id":"cebpf4jnsgd1na2vs0mg"},{"bike_id":"02d00c09-bb57-41eb-86e4-0662739a7b10","system_id":"levelo_inurba_marseille","lat":43.29523,"lon":5.39032,"is_reserved":false,"is_disabled":false,"rental_uris":{"android":"levelo://app?vid=02d00c09-bb57-41eb-86e4-0662739a7b10","ios":"levelo://app?vid=02d00c09-bb57-41eb-86e4-0662739a7b10"},"vehicle_type_id":"4","last_reported":1713463755,"current_range_meters":11600,"station_id":"ce4bh3p2rcd13ifvqdp0","pricing_plan_id":"cebpf4jnsgd1na2vs0mg"},{"bike_id":"3192b14a-5fd0-41fd-9562-6a0bc506be94","system_id":"levelo_inurba_marseille","lat":43.297815,"lon":5.393548,"is_reserved":false,"is_disabled":false,"rental_uris":{"android":"levelo://app?vid=3192b14a-5fd0-41fd-9562-6a0bc506be94","ios":"levelo://app?vid=3192b14a-5fd0-41fd-9562-6a0bc506be94"},"vehicle_type_id":"4","last_reported":1713463755,"current_range_meters":13200,"station_id":"chh1huq6cuj3fo74tm60","pricing_plan_id":"cebpf4jnsgd1na2vs0mg"},{"bike_id":"89d25bf7-67f0-445c-a61d-054bd8ca82e3","system_id":"levelo_inurba_marseille","lat":43.330442,"lon":5.389148,"is_reserved":false,"is_disabled":false,"rental_uris":{"android":"levelo://app?vid=89d25bf7-67f0-445c-a61d-054bd8ca82e3","ios":"levelo://app?vid=89d25bf7-67f0-445c-a61d-054bd8ca82e3"},"vehicle_type_id":"4","last_reported":1713463755,"current_range_meters":9600,"station_id":"ce4bhr92rcd13ifvqhrg","pricing_plan_id":"cebpf4jnsgd1na2vs0mg"},{"bike_id":"71d8cc11-ea66-4f16-93e6-b57e2604f92e","system_id":"levelo_inurba_marseille","lat":43.330442,"lon":5.389148,"is_reserved":false,"is_disabled":false,"rental_uris":{"android":"levelo://app?vid=71d8cc11-ea66-4f16-93e6-b57e2604f92e","ios":"levelo://app?vid=71d8cc11-ea66-4f16-93e6-b57e2604f92e"},"vehicle_type_id":"4","last_reported":1713463755,"current_range_meters":15200,"station_id":"ce4bhr92rcd13ifvqhrg","pricing_plan_id":"cebpf4jnsgd1na2vs0mg"},{"bike_id":"3ae8afc7-9658-48ff-8dbd-aa30eab523c1","system_id":"levelo_inurba_marseille","lat":43.330442,"lon":5.389148,"is_reserved":false,"is_disabled":false,"rental_uris":{"android":"levelo://app?vid=3ae8afc7-9658-48ff-8dbd-aa30eab523c1","ios":"levelo://app?vid=3ae8afc7-9658-48ff-8dbd-aa30eab523c1"},"vehicle_type_id":"4","last_reported":1713463755,"current_range_meters":9200,"station_id":"ce4bhr92rcd13ifvqhrg","pricing_plan_id":"cebpf4jnsgd1na2vs0mg"},{"bike_id":"c39433e6-8666-4f28-b393-c92b0eefb8da","system_id":"levelo_inurba_marseille","lat":43.295169,"lon":5.390426,"is_reserved":false,"is_disabled":false,"rental_uris":{"android":"levelo://app?vid=c39433e6-8666-4f28-b393-c92b0eefb8da","ios":"levelo://app?vid=c39433e6-8666-4f28-b393-c92b0eefb8da"},"vehicle_type_id":"4","last_reported":1713463755,"current_range_meters":30800,"station_id":"ce4bh3p2rcd13ifvqdp0","pricing_plan_id":"cebpf4jnsgd1na2vs0mg"},{"bike_id":"3837f721-c26f-4594-bde2-b765f6200fa3","system_id":"levelo_inurba_marseille","lat":43.29523,"lon":5.39043,"is_reserved":false,"is_disabled":false,"rental_uris":{"android":"levelo://app?vid=3837f721-c26f-4594-bde2-b765f6200fa3","ios":"levelo://app?vid=3837f721-c26f-4594-bde2-b765f6200fa3"},"vehicle_type_id":"4","last_reported":1713463755,"current_range_meters":26400,"station_id":"ce4bh3p2rcd13ifvqdp0","pricing_plan_id":"cebpf4jnsgd1na2vs0mg"},{"bike_id":"70047f17-ff0b-4023-a453-9b4e9eb8bc5d","system_id":"levelo_inurba_marseille","lat":43.330442,"lon":5.389148,"is_reserved":false,"is_disabled":false,"rental_uris":{"android":"levelo://app?vid=70047f17-ff0b-4023-a453-9b4e9eb8bc5d","ios":"levelo://app?vid=70047f17-ff0b-4023-a453-9b4e9eb8bc5d"},