{"last_updated":1701612331,"ttl":30,"version":"2.2","data":{"bikes":[{"bike_id":"7fb94bfd-fdc2-4bd5-afce-1480b0f892a3","system_id":"levelo_inurba_marseille","lat":43.312237,"lon":5.36854,"is_reserved":false,"is_disabled":false,"rental_uris":{"android":"levelo://app?vid=7fb94bfd-fdc2-4bd5-afce-1480b0f892a3","ios":"levelo://app?vid=7fb94bfd-fdc2-4bd5-afce-1480b0f892a3"},"vehicle_type_id":"4","last_reported":1701612331,"current_range_meters":15600,"station_id":"ce4bgl92rcd13ifvqbq0","pricing_plan_id":"free"},{"bike_id":"94d4ad0a-6926-4a49-b08a-e83fa6963dcb","system_id":"levelo_inurba_marseille","lat":43.312239,"lon":5.368562,"is_reserved":false,"is_disabled":false,"rental_uris":{"android":"levelo://app?vid=94d4ad0a-6926-4a49-b08a-e83fa6963dcb","ios":"levelo://app?vid=94d4ad0a-6926-4a49-b08a-e83fa6963dcb"},"vehicle_type_id":"4","last_reported":1701612331,"current_range_meters":7200,"station_id":"ce4bgl92rcd13ifvqbq0","pricing_plan_id":"free"},{"bike_id":"19337c19-12ca-4f3b-a568-40a561779510","system_id":"levelo_inurba_marseille","lat":43.31096,"lon":5.36768,"is_reserved":false,"is_disabled":false,"rental_uris":{"android":"levelo://app?vid=19337c19-12ca-4f3b-a568-40a561779510","ios":"levelo://app?vid=19337c19-12ca-4f3b-a568-40a561779510"},"vehicle_type_id":"4","last_reported":1701612331,"current_range_meters":24400,"station_id":"","pricing_plan_id":"free"},{"bike_id":"f0ac7ccb-ba2b-4e70-a6b7-6b3066e58e5f","system_id":"levelo_inurba_marseille","lat":43.309076,"lon":5.368465,"is_reserved":false,"is_disabled":false,"rental_uris":{"android":"levelo://app?vid=f0ac7ccb-ba2b-4e70-a6b7-6b3066e58e5f","ios":"levelo://app?vid=f0ac7ccb-ba2b-4e70-a6b7-6b3066e58e5f"},"vehicle_type_id":"4","last_reported":1701612331,"current_range_meters":12000,"station_id":"ce4bgn92rcd13ifvqbvg","pricing_plan_id":"free"},{"bike_id":"8be4052e-1574-42ce-a79d-61e6ce8045be","system_id":"levelo_inurba_marseille","lat":43.30545,"lon":5.36714,"is_reserved":false,"is_disabled":false,"rental_uris":{"android":"levelo://app?vid=8be4052e-1574-42ce-a79d-61e6ce8045be","ios":"levelo://app?vid=8be4052e-1574-42ce-a79d-61e6ce8045be"},"vehicle_type_id":"4","last_reported":1701612331,"current_range_meters":19200,"station_id":"ce4bgrp2rcd13ifvqc9g","pricing_plan_id":"free"},{"bike_id":"43deaa6f-24c1-4c32-9a3a-07aa26d2bc05","system_id":"levelo_inurba_marseille","lat":43.305714,"lon":5.365633,"is_reserved":false,"is_disabled":false,"rental_uris":{"android":"levelo://app?vid=43deaa6f-24c1-4c32-9a3a-07aa26d2bc05","ios":"levelo://app?vid=43deaa6f-24c1-4c32-9a3a-07aa26d2bc05"},"vehicle_type_id":"4","last_reported":1701612331,"current_range_meters":20800,"station_id":"ce4bgs12rcd13ifvqcag","pricing_plan_id":"free"},{"bike_id":"20e26ba8-a457-4dcb-91e9-58058d7bb8c0","system_id":"levelo_inurba_marseille","lat":43.305714,"lon":5.365633,"is_reserved":false,"is_disabled":false,"rental_uris":{"android":"levelo://app?vid=20e26ba8-a457-4dcb-91e9-58058d7bb8c0","ios":"levelo://app?vid=20e26ba8-a457-4dcb-91e9-58058d7bb8c0"},"vehicle_type_id":"4","last_reported":1701612331,"current_range_meters":24000,"station_id":"ce4bgs12rcd13ifvqcag","pricing_plan_id":"free"},{"bike_id":"09b2a4ae-96eb-4ae6-8752-aacc1fffe667","system_id":"levelo_inurba_marseille","lat":43.305368,"lon":5.367343,"is_reserved":false,"is_disabled":false,"rental_uris":{"android":"levelo://app?vid=09b2a4ae-96eb-4ae6-8752-aacc1fffe667","ios":"levelo://app?vid=09b2a4ae-96eb-4ae6-8752-aacc1fffe667"},"vehicle_type_id":"4","last_reported":1701612331,"current_range_meters":6400,"station_id":"ce4bgrp2rcd13ifvqc9g","pricing_plan_id":"free"},{"bike_id":"ff3256bb-5257-430f-9df5-ef262d073020","system_id":"levelo_inurba_marseille","lat":43.305706,"lon":5.365654,"is_reserved":false,"is_disabled":false,"rental_uris":{"android":"levelo://app?vid=ff3256bb-5257-430f-9df5-ef262d073020","ios":"levelo://app?vid=ff3256bb-5257-430f-9df5-ef262d073020"},"vehicle_type_id":"4","last_reported":1701612331,"current_range_meters":17600,"station_id":"ce4bgs12rcd13ifvqcag","pricing_plan_id":"free"},{"bike_id":"208acfc4-cc49-488e-b69b-3330c4237584","system_id":"levelo_inurba_marseille","lat":43.30532,"lon":5.36718,"is_reserved":false,"is_disabled":false,"rental_uris":{"android":"levelo://app?vid=208acfc4-cc49-488e-b69b-3330c4237584","ios":"levelo://app?vid=208acfc4-cc49-488e-b69b-3330c4237584"},"vehicle_type_id":"4","last_reported":1701612331,"current_range_meters":0,"station_id":"ce4bgrp2rcd13ifvqc9g","pricing_plan_id":"free"},{"bike_id":"7b4f861a-086e-4d0a-bf0a-36ef1815cb48","system_id":"levelo_inurba_marseille","lat":43.305706,"lon":5.365654,"is_reserved":false,"is_disabled":false,"rental_uris":{"android":"levelo://app?vid=7b4f861a-086e-4d0a-bf0a-36ef1815cb48","ios":"levelo://app?vid=7b4f861a-086e-4d0a-bf0a-36ef1815cb48"},"vehicle_type_id":"4","last_reported":1701612331,"current_range_meters":8400,"station_id":"ce4bgs12rcd13ifvqcag","pricing_plan_id":"free"},{"bike_id":"394f3868-a871-4a83-baba-959bc20f1775","system_id":"levelo_inurba_marseille","lat":43.305706,"lon":5.365654,"is_reserved":false,"is_disabled":false,"rental_uris":{"android":"levelo://app?vid=394f3868-a871-4a83-baba-959bc20f1775","ios":"levelo://app?vid=394f3868-a871-4a83-baba-959bc20f1775"},"vehicle_type_id":"4","last_reported":1701612331,"current_range_meters":25200,"station_id":"ce4bgs12rcd13ifvqcag","pricing_plan_id":"free"},{"bike_id":"e2487b91-3951-4c7c-ac75-04acb9a15a05","system_id":"levelo_inurba_marseille","lat":43.305706,"lon":5.365654,"is_reserved":false,"is_disabled":false,"rental_uris":{"android":"levelo://app?vid=e2487b91-3951-4c7c-ac75-04acb9a15a05","ios":"levelo://app?vid=e2487b91-3951-4c7c-ac75-04acb9a15a05"},"vehicle_type_id":"4","last_reported":1701612331,"current_range_meters":21200,"station_id":"ce4bgs12rcd13ifvqcag","pricing_plan_id":"free"},{"bike_id":"f63d3dd4-17e7-4b12-b7db-eef4d61ede62","system_id":"levelo_inurba_marseille","lat":43.305706,"lon":5.365654,"is_reserved":false,"is_disabled":false,"rental_uris":{"android":"levelo://app?vid=f63d3dd4-17e7-4b12-b7db-eef4d61ede62","ios":"levelo://app?vid=f63d3dd4-17e7-4b12-b7db-eef4d61ede62"},"vehicle_type_id":"4","last_reported":1701612331,"current_range_meters":11200,"station_id":"ce4bgs12rcd13ifvqcag","pricing_plan_id":"free"},{"bike_id":"cf08e6a1-b53a-494c-b916-992ef44650f0","system_id":"levelo_inurba_marseille","lat":43.305706,"lon":5.365654,"is_reserved":false,"is_disabled":false,"rental_uris":{"android":"levelo://app?vid=cf08e6a1-b53a-494c-b916-992ef44650f0","ios":"levelo://app?vid=cf08e6a1-b53a-494c-b916-992ef44650f0"},"vehicle_type_id":"4","last_reported":1701612331,"current_range_meters":24800,"station_id":"ce4bgs12rcd13ifvqcag","pricing_plan_id":"free"},{"bike_id":"613732df-fc2c-43ce-81e5-088c4fb65833","system_id":"levelo_inurba_marseille","lat":43.305989,"lon":5.37225,"is_reserved":false,"is_disabled":false,"rental_uris":{"android":"levelo://app?vid=613732df-fc2c-43ce-81e5-088c4fb65833","ios":"levelo://app?vid=613732df-fc2c-43ce-81e5-088c4fb65833"},"vehicle_type_id":"4","last_reported":1701612331,"current_range_meters":16800,"station_id":"ce4bgqh2rcd13ifvqc4g","pricing_plan_id":"free"},{"bike_id":"48b83b15-ba31-4d02-bb0e-0e980b680bd9","system_id":"levelo_inurba_marseille","lat":43.31114,"lon":5.37769,"is_reserved":false,"is_disabled":false,"rental_uris":{"android":"levelo://app?vid=48b83b15-ba31-4d02-bb0e-0e980b680bd9","ios":"levelo://app?vid=48b83b15-ba31-4d02-bb0e-0e980b680bd9"},"vehicle_type_id":"4","last_reported":1701612331,"current_range_meters":10400,"station_id":"ce4bgt92rcd13ifvqcg0","pricing_plan_id":"free"},{"bike_id":"f427a2c3-6e4a-446b-ae2f-9be8aa7f4122","system_id":"levelo_inurba_marseille","lat":43.31719,"lon":5.376813,"is_reserved":false,"is_disabled":false,"rental_uris":{"android":"levelo://app?vid=f427a2c3-6e4a-446b-ae2f-9be8aa7f4122","ios":"levelo://app?vid=f427a2c3-6e4a-446b-ae2f-9be8aa7f4122"},"vehicle_type_id":"4","last_reported":1701612331,"current_range_meters":0,"station_id":"","pricing_plan_id":"free"},{"bike_id":"e913f328-1e31-4c22-bd87-f809ea246de4","system_id":"levelo_inurba_marseille","lat":43.317168,"lon":5.376883,"is_reserved":false,"is_disabled":false,"rental_uris":{"android":"levelo://app?vid=e913f328-1e31-4c22-bd87-f809ea246de4","ios":"levelo://app?vid=e913f328-1e31-4c22-bd87-f809ea246de4"},"vehicle_type_id":"4","last_reported":1701612331,"current_range_meters":0,"station_id":"","pricing_plan_id":"free"},{"bike_id":"c5544279-e839-4684-ac0d-90d2a6a534d7","system_id":"levelo_inurba_marseille","lat":43.307945,"lon":5.376487,"is_reserved":false,"is_disabled":false,"rental_uris":{"android":"levelo://app?vid=c5544279-e839-4684-ac0d-90d2a6a534d7","ios":"levelo://app?vid=c5544279-e839-4684-ac0d-90d2a6a534d7"},"vehicle_type_id":"4","last_reported":1701612331,"current_range_meters":11600,"station_id":"ce4bgv92rcd13ifvqcq0","pricing_plan_id":"free"},{"bike_id":"fb6fd937-527b-4585-9058-0dfdc6436ac8","system_id":"levelo_inurba_marseille","lat":43.31351,"lon":5.37909,"is_reserved":false,"is_disabled":false,"rental_uris":{"android":"levelo://app?vid=fb6fd937-527b-4585-9058-0dfdc6436ac8","ios":"levelo://app?vid=fb6fd937-527b-4585-9058-0dfdc6436ac8"},"vehicle_type_id":"4","last_reported":1701612331,"current_range_meters":17600,"station_id":"","pricing_plan_id":"free"},{"bike_id":"1c5be127-a170-451f-a718-647108f14db1","system_id":"levelo_inurba_marseille","lat":43.317054,"lon":5.377645,"is_reserved":false,"is_disabled":false,"rental_uris":{"android":"levelo://app?vid=1c5be127-a170-451f-a718-647108f14db1","ios":"levelo://app?vid=1c5be127-a170-451f-a718-647108f14db1"},"vehicle_type_id":"4","last_reported":1701612331,"current_range_meters":28000,"station_id":"ce4bgth2rcd13ifvqch0","pricing_plan_id":"free"},{"bike_id":"1f18ad96-480b-40a9-8466-ab3ef7e1de10","system_id":"levelo_inurba_marseille","lat":43.308012,"lon":5.381511,"is_reserved":false,"is_disabled":false,"rental_uris":{"android":"levelo://app?vid=1f18ad96-480b-40a9-8466-ab3ef7e1de10","ios":"levelo://app?vid=1f18ad96-480b-40a9-8466-ab3ef7e1de10"},"vehicle_type_id":"4","last_reported":1701612331,"current_range_meters":18400,"station_id":"ce4bgt12rcd13ifvqce0","pricing_plan_id":"free"},{"bike_id":"8c6725c5-5ff6-4a6a-9768-66e32939cf43","system_id":"levelo_inurba_marseille","lat":43.324771,"lon":5.36557,"is_reserved":false,"is_disabled":false,"rental_uris":{"android":"levelo://app?vid=8c6725c5-5ff6-4a6a-9768-66e32939cf43","ios":"levelo://app?vid=8c6725c5-5ff6-4a6a-9768-66e32939cf43"},"vehicle_type_id":"4","last_reported":1701612331,"current_range_meters":21600,"station_id":"ce4bhs12rcd13ifvqhvg","pricing_plan_id":"free"},{"bike_id":"bc8eac31-4b5b-48b3-aa99-5c3fdd18d82e","system_id":"levelo_inurba_marseille","lat":43.324807,"lon":5.365701,"is_reserved":false,"is_disabled":false,"rental_uris":{"android":"levelo://app?vid=bc8eac31-4b5b-48b3-aa99-5c3fdd18d82e","ios":"levelo://app?vid=bc8eac31-4b5b-48b3-aa99-5c3fdd18d82e"},"vehicle_type_id":"4","last_reported":1701612331,"current_range_meters":12800,"station_id":"ce4bhs12rcd13ifvqhvg","pricing_plan_id":"free"},{"bike_id":"3e23d073-c6ae-47ef-b224-45e6b030f825","system_id":"levelo_inurba_marseille","lat":43.31999,"lon":5.38155,"is_reserved":false,"is_disabled":false,"rental_uris":{"android":"levelo://app?vid=3e23d073-c6ae-47ef-b224-45e6b030f825","ios":"levelo://app?vid=3e23d073-c6ae-47ef-b224-45e6b030f825"},"vehicle_type_id":"4","last_reported":1701612331,"current_range_meters":22800,"station_id":"ce4bhr12rcd13ifvqhpg","pricing_plan_id":"free"},{"bike_id":"2275aca5-3158-4c2c-8022-ca5d2714bc86","system_id":"levelo_inurba_marseille","lat":43.319997,"lon":5.381594,"is_reserved":false,"is_disabled":false,"rental_uris":{"android":"levelo://app?vid=2275aca5-3158-4c2c-8022-ca5d2714bc86","ios":"levelo://app?vid=2275aca5-3158-4c2c-8022-ca5d2714bc86"},"vehicle_type_id":"4","last_reported":1701612331,"current_range_meters":11200,"station_id":"ce4bhr12rcd13ifvqhpg","pricing_plan_id":"free"},{"bike_id":"9fdb7f97-586d-42d2-befd-15216ba2e422","system_id":"levelo_inurba_marseille","lat":43.31183,"lon":5.38523,"is_reserved":false,"is_disabled":false,"rental_uris":{"android":"levelo://app?vid=9fdb7f97-586d-42d2-befd-15216ba2e422","ios":"levelo://app?vid=9fdb7f97-586d-42d2-befd-15216ba2e422"},"vehicle_type_id":"4","last_reported":1701612331,"current_range_meters":0,"station_id":"","pricing_plan_id":"free"},{"bike_id":"b5132e24-404b-4488-9c74-7943522540ac","system_id":"levelo_inurba_marseille","lat":43.299724,"lon":5.371829,"is_reserved":false,"is_disabled":false,"rental_uris":{"android":"levelo://app?vid=b5132e24-404b-4488-9c74-7943522540ac","ios":"levelo://app?vid=b5132e24-404b-4488-9c74-7943522540ac"},"vehicle_type_id":"4","last_reported":1701612331,"current_range_meters":23600,"station_id":"ce4bgr92rcd13ifvqc7g","pricing_plan_id":"free"},{"bike_id":"748d12ab-8e09-4ecd-b2d2-cbe0ea9624f6","system_id":"levelo_inurba_marseille","lat":43.298929,"lon":5.367385,"is_reserved":false,"is_disabled":false,"rental_uris":{"android":"levelo://app?vid=748d12ab-8e09-4ecd-b2d2-cbe0ea9624f6","ios":"levelo://app?vid=748d12ab-8e09-4ecd-b2d2-cbe0ea9624f6"},"vehicle_type_id":"4","last_reported":1701612331,"current_range_meters":1600,"station_id":"","pricing_plan_id":"free"},{"bike_id":"14aa6f0e-730b-45b2-aaa7-f935cdbea959","system_id":"levelo_inurba_marseille","lat":43.298433,"lon":5.362774,"is_reserved":false,"is_disabled":false,"rental_uris":{"android":"levelo://app?vid=14aa6f0e-730b-45b2-aaa7-f935cdbea959","ios":"levelo://app?vid=14aa6f0e-730b-45b2-aaa7-f935cdbea959"},"vehicle_type_id":"4","last_reported":1701612331,"current_range_meters":27600,"station_id":"ce4bgpp2rcd13ifvqc3g","pricing_plan_id":"free"},{"bike_id":"17478851-68d3-46aa-a8ae-de35493afc4f","system_id":"levelo_inurba_marseille","lat":43.297794,"lon":5.370888,"is_reserved":false,"is_disabled":false,"rental_uris":{"android":"levelo://app?vid=17478851-68d3-46aa-a8ae-de35493afc4f","ios":"levelo://app?vid=17478851-68d3-46aa-a8ae-de35493afc4f"},"vehicle_type_id":"4","last_reported":1701612331,"current_range_meters":13200,"station_id":"ce4bgop2rcd13ifvqc1g","pricing_plan_id":"free"},{"bike_id":"5c26bdfb-7b7c-43fb-8a01-250128a1a6f8","system_id":"levelo_inurba_marseille","lat":43.32825,"lon":5.36676,"is_reserved":false,"is_disabled":false,"rental_uris":{"android":"levelo://app?vid=5c26bdfb-7b7c-43fb-8a01-250128a1a6f8","ios":"levelo://app?vid=5c26bdfb-7b7c-43fb-8a01-250128a1a6f8"},"vehicle_type_id":"4","last_reported":1701612331,"current_range_meters":19200,"station_id":"ce4bhs92rcd13ifvqi0g","pricing_plan_id":"free"},{"bike_id":"08a721db-bf5d-46b3-9ba3-2a9c6c13bcf6","system_id":"levelo_inurba_marseille","lat":43.328256,"lon":5.366905,"is_reserved":false,"is_disabled":false,"rental_uris":{"android":"levelo://app?vid=08a721db-bf5d-46b3-9ba3-2a9c6c13bcf6","ios":"levelo://app?vid=08a721db-bf5d-46b3-9ba3-2a9c6c13bcf6"},"vehicle_type_id":"4","last_reported":1701612331,"current_range_meters":24800,"station_id":"","pricing_plan_id":"free"},{"bike_id":"50451858-4fd4-406d-badc-776a2e8a63c3","system_id":"levelo_inurba_marseille","lat":43.32827,"lon":5.3669,"is_reserved":false,"is_disabled":false,"rental_uris":{"android":"levelo://app?vid=50451858-4fd4-406d-badc-776a2e8a63c3","ios":"levelo://app?vid=50451858-4fd4-406d-badc-776a2e8a63c3"},"vehicle_type_id":"4","last_reported":1701612331,"current_range_meters":17200,"station_id":"ce4bhs92rcd13ifvqi0g","pricing_plan_id":"free"},{"bike_id":"56c27ac6-d3be-4b1b-a869-2d0f1759ad4a","system_id":"levelo_inurba_marseille","lat":43.29815,"lon":5.37652,"is_reserved":false,"is_disabled":false,"rental_uris":{"android":"levelo://app?vid=56c27ac6-d3be-4b1b-a869-2d0f1759ad4a","ios":"levelo://app?vid=56c27ac6-d3be-4b1b-a869-2d0f1759ad4a"},"vehicle_type_id":"4","last_reported":1701612331,"current_range_meters":400,"station_id":"","pricing_plan_id":"free"},{"bike_id":"cca0e6c7-6eab-4f92-8737-557ca85c3467","system_id":"levelo_inurba_marseille","lat":43.2968,"lon":5.37291,"is_reserved":false,"is_disabled":false,"rental_uris":{"android":"levelo://app?vid=cca0e6c7-6eab-4f92-8737-557ca85c3467","ios":"levelo://app?vid=cca0e6c7-6eab-4f92-8737-557ca85c3467"},"vehicle_type_id":"4","last_reported":1701612331,"current_range_meters":19600,"station_id":"ce4bgk12rcd13ifvqbj0","pricing_plan_id":"free"},{"bike_id":"0b7a51e0-870a-476e-a0e2-bd6e5a3a45ab","system_id":"levelo_inurba_marseille","lat":43.2968,"lon":5.37291,"is_reserved":false,"is_disabled":false,"rental_uris":{"android":"levelo://app?vid=0b7a51e0-870a-476e-a0e2-bd6e5a3a45ab","ios":"levelo://app?vid=0b7a51e0-870a-476e-a0e2-bd6e5a3a45ab"},"vehicle_type_id":"4","last_reported":1701612331,"current_range_meters":6400,"station_id":"ce4bgk12rcd13ifvqbj0","pricing_plan_id":"free"},{"bike_id":"5e6f8f59-687e-4c00-96df-6ebb4cb82446","system_id":"levelo_inurba_marseille","lat":43.309589,"lon":5.390258,"is_reserved":false,"is_disabled":false,"rental_uris":{"android":"levelo://app?vid=5e6f8f59-687e-4c00-96df-6ebb4cb82446","ios":"levelo://app?vid=5e6f8f59-687e-4c00-96df-6ebb4cb82446"},"vehicle_type_id":"4","last_reported":1701612331,"current_range_meters":8000,"station_id":"ce4bgup2rcd13ifvqco0","pricing_plan_id":"free"},{"bike_id":"eaa0e7e7-2390-47fa-909b-7b240952cbef","system_id":"levelo_inurba_marseille","lat":43.316511,"lon":5.3896,"is_reserved":false,"is_disabled":false,"rental_uris":{"android":"levelo://app?vid=eaa0e7e7-2390-47fa-909b-7b240952cbef","ios":"levelo://app?vid=eaa0e7e7-2390-47fa-909b-7b240952cbef"},"vehicle_type_id":"4","last_reported":1701612331,"current_range_meters":18800,"station_id":"","pricing_plan_id":"free"},{"bike_id":"750a47ff-a0ba-4aaf-af9d-9b1f2976d043","system_id":"levelo_inurba_marseille","lat":43.29573,"lon":5.367355,"is_reserved":false,"is_disabled":false,"rental_uris":{"android":"levelo://app?vid=750a47ff-a0ba-4aaf-af9d-9b1f2976d043","ios":"levelo://app?vid=750a47ff-a0ba-4aaf-af9d-9b1f2976d043"},"vehicle_type_id":"4","last_reported":1701612331,"current_range_meters":29200,"station_id":"ce4bgph2rcd13ifvqc2g","pricing_plan_id":"free"},{"bike_id":"f5efc6ce-4d46-4ce7-84a0-d66a8491fd8f","system_id":"levelo_inurba_marseille","lat":43.296921,"lon":5.376579,"is_reserved":false,"is_disabled":false,"rental_uris":{"android":"levelo://app?vid=f5efc6ce-4d46-4ce7-84a0-d66a8491fd8f","ios":"levelo://app?vid=f5efc6ce-4d46-4ce7-84a0-d66a8491fd8f"},"vehicle_type_id":"4","last_reported":1701612331,"current_range_meters":9600,"station_id":"ce4bgkh2rcd13ifvqbl0","pricing_plan_id":"free"},{"bike_id":"0c9baaef-facc-4596-9a2e-8922f6d50d31","system_id":"levelo_inurba_marseille","lat":43.295748,"lon":5.37522,"is_reserved":false,"is_disabled":false,"rental_uris":{"android":"levelo://app?vid=0c9baaef-facc-4596-9a2e-8922f6d50d31","ios":"levelo://app?vid=0c9baaef-facc-4596-9a2e-8922f6d50d31"},"vehicle_type_id":"4","last_reported":1701612331,"current_range_meters":4400,"station_id":"ce4bgh92rcd13ifvqb50","pricing_plan_id":"free"},{"bike_id":"bd718631-60c5-409d-9a02-3da4fcf60154","system_id":"levelo_inurba_marseille","lat":43.304274,"lon":5.388873,"is_reserved":false,"is_disabled":false,"rental_uris":{"android":"levelo://app?vid=bd718631-60c5-409d-9a02-3da4fcf60154","ios":"levelo://app?vid=bd718631-60c5-409d-9a02-3da4fcf60154"},"vehicle_type_id":"4","last_reported":1701612331,"current_range_meters":29200,"station_id":"ce4bgk12rcd13ifvqbi0","pricing_plan_id":"free"},{"bike_id":"9dde0a8d-db51-4804-b85b-6b9f1c34e678","system_id":"levelo_inurba_marseille","lat":43.296263,"lon":5.377094,"is_reserved":false,"is_disabled":false,"rental_uris":{"android":"levelo://app?vid=9dde0a8d-db51-4804-b85b-6b9f1c34e678","ios":"levelo://app?vid=9dde0a8d-db51-4804-b85b-6b9f1c34e678"},"vehicle_type_id":"4","last_reported":1701612331,"current_range_meters":5200,"station_id":"ce4bgi92rcd13ifvqb90","pricing_plan_id":"free"},{"bike_id":"b0e1ff2a-eea5-4deb-9dea-299cf51a55e3","system_id":"levelo_inurba_marseille","lat":43.296263,"lon":5.377094,"is_reserved":false,"is_disabled":false,"rental_uris":{"android":"levelo://app?vid=b0e1ff2a-eea5-4deb-9dea-299cf51a55e3","ios":"levelo://app?vid=b0e1ff2a-eea5-4deb-9dea-299cf51a55e3"},"vehicle_type_id":"4","last_reported":1701612331,"current_range_meters":22800,"station_id":"ce4bgi92rcd13ifvqb90","pricing_plan_id":"free"},{"bike_id":"fe329fa3-dd22-499d-b034-0c82c6124d49","system_id":"levelo_inurba_marseille","lat":43.295748,"lon":5.37522,"is_reserved":false,"is_disabled":false,"rental_uris":{"android":"levelo://app?vid=fe329fa3-dd22-499d-b034-0c82c6124d49","ios":"levelo://app?vid=fe329fa3-dd22-499d-b034-0c82c6124d49"},"vehicle_type_id":"4","last_reported":1701612331,"current_range_meters":0,"station_id":"ce4bgh92rcd13ifvqb50","pricing_plan_id":"free"},{"bike_id":"c4fa215e-e2f6-4d27-8f99-1204cfe0adf3","system_id":"levelo_inurba_marseille","lat":43.296263,"lon":5.377094,"is_reserved":false,"is_disabled":false,"rental_uris":{"android":"levelo://app?vid=c4fa215e-e2f6-4d27-8f99-1204cfe0adf3","ios":"levelo://app?vid=c4fa215e-e2f6-4d27-8f99-1204cfe0adf3"},"vehicle_type_id":"4","last_reported":1701612331,"current_range_meters":17600,"station_id":"ce4bgi92rcd13ifvqb90","pricing_plan_id":"free"},{"bike_id":"1854d30b-a6ec-4a8c-b0c5-00d4a11be652","system_id":"levelo_inurba_marseille","lat":43.298037,"lon":5.381066,"is_reserved":false,"is_disabled":false,"rental_uris":{"android":"levelo://app?vid=1854d30b-a6ec-4a8c-b0c5-00d4a11be652","ios":"levelo://app?vid=1854d30b-a6ec-4a8c-b0c5-00d4a11be652"},"vehicle_type_id":"4","last_reported":1701612331,"current_range_meters":14000,"station_id":"ce4bgip2rcd13ifvqbb0","pricing_plan_id":"free"},{"bike_id":"596e950b-4a96-45c8-8bc2-548dbaa9a3c6","system_id":"levelo_inurba_marseille","lat":43.2987,"lon":5.3831,"is_reserved":false,"is_disabled":false,"rental_uris":{"android":"levelo://app?vid=596e950b-4a96-45c8-8bc2-548dbaa9a3c6","ios":"levelo://app?vid=596e950b-4a96-45c8-8bc2-548dbaa9a3c6"},"vehicle_type_id":"4","last_reported":1701612331,"current_range_meters":14000,"station_id":"","pricing_plan_id":"free"},{"bike_id":"960b991e-3495-4626-87cd-3fccd73bacc9","system_id":"levelo_inurba_marseille","lat":43.295279,"lon":5.375048,"is_reserved":false,"is_disabled":false,"rental_uris":{"android":"levelo://app?vid=960b991e-3495-4626-87cd-3fccd73bacc9","ios":"levelo://app?vid=960b991e-3495-4626-87cd-3fccd73bacc9"},"vehicle_type_id":"4","last_reported":1701612331,"current_range_meters":1600,"station_id":"ce4bgkp2rcd13ifvqbmg","pricing_plan_id":"free"},{"bike_id":"73e264e4-a253-4c66-95f1-83a35439f578","system_id":"levelo_inurba_marseille","lat":43.292725,"lon":5.368371,"is_reserved":false,"is_disabled":false,"rental_uris":{"android":"levelo://app?vid=73e264e4-a253-4c66-95f1-83a35439f578","ios":"levelo://app?vid=73e264e4-a253-4c66-95f1-83a35439f578"},"vehicle_type_id":"4","last_reported":1701612331,"current_range_meters":15200,"station_id":"ce4bhbp2rcd13ifvqesg","pricing_plan_id":"free"},{"bike_id":"4e542e11-2a40-481a-a606-0ab88bb0ade0","system_id":"levelo_inurba_marseille","lat":43.293009,"lon":5.374584,"is_reserved":false,"is_disabled":false,"rental_uris":{"android":"levelo://app?vid=4e542e11-2a40-481a-a606-0ab88bb0ade0","ios":"levelo://app?vid=4e542e11-2a40-481a-a606-0ab88bb0ade0"},"vehicle_type_id":"4","last_reported":1701612331,"current_range_meters":19600,"station_id":"ce4bgi12rcd13ifvqb70","pricing_plan_id":"free"},{"bike_id":"e9e54473-c228-4a17-8063-555fdf99cdbc","system_id":"levelo_inurba_marseille","lat":43.300852,"lon":5.390859,"is_reserved":false,"is_disabled":false,"rental_uris":{"android":"levelo://app?vid=e9e54473-c228-4a17-8063-555fdf99cdbc","ios":"levelo://app?vid=e9e54473-c228-4a17-8063-555fdf99cdbc"},"vehicle_type_id":"4","last_reported":1701612331,"current_range_meters":5200,"station_id":"ce4bh192rcd13ifvqdb0","pricing_plan_id":"free"},{"bike_id":"fd3c52e9-f063-4c78-b21f-0e92966c6278","system_id":"levelo_inurba_marseille","lat":43.30085,"lon":5.390856,"is_reserved":false,"is_disabled":false,"rental_uris":{"android":"levelo://app?vid=fd3c52e9-f063-4c78-b21f-0e92966c6278","ios":"levelo://app?vid=fd3c52e9-f063-4c78-b21f-0e92966c6278"},"vehicle_type_id":"4","last_reported":1701612331,"current_range_meters":30000,"station_id":"ce4bh192rcd13ifvqdb0","pricing_plan_id":"free"},{"bike_id":"ea543659-b713-4ebf-911b-98234c16c7b3","system_id":"levelo_inurba_marseille","lat":43.292663,"lon":5.376394,"is_reserved":false,"is_disabled":false,"rental_uris":{"android":"levelo://app?vid=ea543659-b713-4ebf-911b-98234c16c7b3","ios":"levelo://app?vid=ea543659-b713-4ebf-911b-98234c16c7b3"},"vehicle_type_id":"4","last_reported":1701612331,"current_range_meters":23600,"station_id":"ce4bgi12rcd13ifvqb80","pricing_plan_id":"free"},{"bike_id":"48515b03-c41d-4923-a48d-ecbac8315d0a","system_id":"levelo_inurba_marseille","lat":43.291036,"lon":5.380361,"is_reserved":false,"is_disabled":false,"rental_uris":{"android":"levelo://app?vid=48515b03-c41d-4923-a48d-ecbac8315d0a","ios":"levelo://app?vid=48515b03-c41d-4923-a48d-ecbac8315d0a"},"vehicle_type_id":"4","last_reported":1701612331,"current_range_meters":16400,"station_id":"","pricing_plan_id":"free"},{"bike_id":"e13d7e5d-8189-4a0b-816d-65bc50d40f89","system_id":"levelo_inurba_marseille","lat":43.330442,"lon":5.389148,"is_reserved":false,"is_disabled":false,"rental_uris":{"android":"levelo://app?vid=e13d7e5d-8189-4a0b-816d-65bc50d40f89","ios":"levelo://app?vid=e13d7e5d-8189-4a0b-816d-65bc50d40f89"},"vehicle_type_id":"4","last_reported":1701612331,"current_range_meters":28800,"station_id":"ce4bhr92rcd13ifvqhrg","pricing_plan_id":"free"},{"bike_id":"cf8243f5-a5bc-42da-affc-b79c146d4063","system_id":"levelo_inurba_marseille","lat":43.330442,"lon":5.389148,"is_reserved":false,"is_disabled":false,"rental_uris":{"android":"levelo://app?vid=cf8243f5-a5bc-42da-affc-b79c146d4063","ios":"levelo://app?vid=cf8243f5-a5bc-42da-affc-b79c146d4063"},"vehicle_type_id":"4","last_reported":1701612331,"current_range_meters":22800,"station_id":"ce4bhr92rcd13ifvqhrg","pricing_plan_id":"free"},{"bike_id":"8aaa101f-52da-45e9-a5cd-ba019ffab90c","system_id":"levelo_inurba_marseille","lat":43.295169,"lon":5.390426,"is_reserved":false,"is_disabled":false,"rental_uris":{"android":"levelo://app?vid=8aaa101f-52da-45e9-a5cd-ba019ffab90c","ios":"levelo://app?vid=8aaa101f-52da-45e9-a5cd-ba019ffab90c"},"vehicle_type_id":"4","last_reported":1701612331,"current_range_meters":18400,"station_id":"ce4bh3p2rcd13ifvqdp0","pricing_plan_id":"free"},{"bike_id":"04c28741-dba4-491a-b1a3-7fb6336496f9","system_id":"levelo_inurba_marseille","lat":43.340804,"lon":5.410219,"is_reserved":false,"is_disabled":false,"rental_uris":{"android":"levelo://app?vid=04c28741-dba4-491a-b1a3-7fb6336496f9","ios":"levelo://app?vid=04c28741-dba4-491a-b1a3-7fb6336496f9"},"vehicle_type_id":"4","last_reported":1701612331,"current_range_meters":16000,"station_id":"ce4bhqh2rcd13ifvqhlg","pricing_plan_id":"free"},{"bike_id":"e56eb93b-2994-4e83-9444-d2a0c08573fa","system_id":"levelo_inurba_marseille","lat":43.33756,"lon":5.37457,"is_reserved":false,"is_disabled":false,"rental_uris":{"android":"levelo://app?vid=e56eb93b-2994-4e83-9444-d2a0c08573fa","ios":"levelo://app?vid=e56eb93b-2994-4e83-9444-d2a0c08573fa"},"vehicle_type_id":"4","last_reported":1701612331,"current_range_meters":30800,"station_id":"","pricing_plan_id":"free"},{"bike_id":"1aede91d-9627-48ad-829b-467ffab8ee75","system_id":"levelo_inurba_marseille","lat":43.30245,"lon":5.40055,"is_reserved":false,"is_disabled":false,"rental_uris":{"android":"levelo://app?vid=1aede91d-9627-48ad-829b-467ffab8ee75","ios":"levelo://app?vid=1aede91d-9627-48ad-829b-467ffab8ee75"},"vehicle_type_id":"4","last_reported":1701612331,"current_range_meters":0,"station_id":"ce4bgvh2rcd13ifvqcs0","pricing_plan_id":"free"},{"bike_id":"2be91397-ef40-47ef-ab1b-6e8978fd5e28","system_id":"levelo_inurba_marseille","lat":43.286039,"lon":5.370681,"is_reserved":false,"is_disabled":false,"rental_uris":{"android":"levelo://app?vid=2be91397-ef40-47ef-ab1b-6e8978fd5e28","ios":"levelo://app?vid=2be91397-ef40-47ef-ab1b-6e8978fd5e28"},"vehicle_type_id":"4","last_reported":1701612331,"current_range_meters":20000,"station_id":"ce4bht12rcd13ifvqi60","pricing_plan_id":"free"},{"bike_id":"75ee5a35-25e5-4210-a426-2d92cbb1b782","system_id":"levelo_inurba_marseille","lat":43.33179,"lon":5.39809,"is_reserved":false,"is_disabled":false,"rental_uris":{"android":"levelo://app?vid=75ee5a35-25e5-4210-a426-2d92cbb1b782","ios":"levelo://app?vid=75ee5a35-25e5-4210-a426-2d92cbb1b782"},"vehicle_type_id":"4","last_reported":1701612331,"current_range_meters":0,"station_id":"","pricing_plan_id":"free"},{"bike_id":"23a6e18e-5ad6-40cf-b6fb-7a4b1a6034c9","system_id":"levelo_inurba_marseille","lat":43.33745,"lon":5.39116,"is_reserved":false,"is_disabled":false,"rental_uris":{"android":"levelo://app?vid=23a6e18e-5ad6-40cf-b6fb-7a4b1a6034c9","ios":"levelo://app?vid=23a6e18e-5ad6-40cf-b6fb-7a4b1a6034c9"},"vehicle_type_id":"4","last_reported":1701612331,"current_range_meters":28000,"station_id":"","pricing_plan_id":"free"},{"bike_id":"02bbc20f-0487-4ca9-8f70-9ac1faeee2fb","system_id":"levelo_inurba_marseille","lat":43.33717,"lon":5.391857,"is_reserved":false,"is_disabled":false,"rental_uris":{"android":"levelo://app?vid=02bbc20f-0487-4ca9-8f70-9ac1faeee2fb","ios":"levelo://app?vid=02bbc20f-0487-4ca9-8f70-9ac1faeee2fb"},"vehicle_type_id":"4","last_reported":1701612331,"current_range_meters":28800,"station_id":"ce4bhr92rcd13ifvqhsg","pricing_plan_id":"free"},{"bike_id":"2f47d072-49c9-450e-bdbf-644bd2fc46c4","system_id":"levelo_inurba_marseille","lat":43.284787,"lon":5.384116,"is_reserved":false,"is_disabled":false,"rental_uris":{"android":"levelo://app?vid=2f47d072-49c9-450e-bdbf-644bd2fc46c4","ios":"levelo://app?vid=2f47d072-49c9-450e-bdbf-644bd2fc46c4"},"vehicle_type_id":"4","last_reported":1701612331,"current_range_meters":10400,"station_id":"ce4bh512rcd13ifvqe3g","pricing_plan_id":"free"},{"bike_id":"0df7463f-583f-442f-87c7-e76e2c1857e8","system_id":"levelo_inurba_marseille","lat":43.284793,"lon":5.384119,"is_reserved":false,"is_disabled":false,"rental_uris":{"android":"levelo://app?vid=0df7463f-583f-442f-87c7-e76e2c1857e8","ios":"levelo://app?vid=0df7463f-583f-442f-87c7-e76e2c1857e8"},"vehicle_type_id":"4","last_reported":1701612331,"current_range_meters":16800,"station_id":"ce4bh512rcd13ifvqe3g","pricing_plan_id":"free"},{"bike_id":"a13c4298-81b3-47d8-8250-aa80cfaa6dad","system_id":"levelo_inurba_marseille","lat":43.283494,"lon":5.380945,"is_reserved":false,"is_disabled":false,"rental_uris":{"android":"levelo://app?vid=a13c4298-81b3-47d8-8250-aa80cfaa6dad","ios":"levelo://app?vid=a13c4298-81b3-47d8-8250-aa80cfaa6dad"},"vehicle_type_id":"4","last_reported":1701612331,"current_range_meters":0,"station_id":"ce4bh412rcd13ifvqdr0","pricing_plan_id":"free"},{"bike_id":"a1c5c32c-c549-45e6-a4c5-7d0a3eee41fc","system_id":"levelo_inurba_marseille","lat":43.282744,"lon":5.350533,"is_reserved":false,"is_disabled":false,"rental_uris":{"android":"levelo://app?vid=a1c5c32c-c549-45e6-a4c5-7d0a3eee41fc","ios":"levelo://app?vid=a1c5c32c-c549-45e6-a4c5-7d0a3eee41fc"},"vehicle_type_id":"4","last_reported":1701612331,"current_range_meters":21600,"station_id":"ce4bhbp2rcd13ifvqerg","pricing_plan_id":"free"},{"bike_id":"2cf7d221-5647-40a5-aea3-6649f1143805","system_id":"levelo_inurba_marseille","lat":43.29041,"lon":5.399634,"is_reserved":false,"is_disabled":false,"rental_uris":{"android":"levelo://app?vid=2cf7d221-5647-40a5-aea3-6649f1143805","ios":"levelo://app?vid=2cf7d221-5647-40a5-aea3-6649f1143805"},"vehicle_type_id":"4","last_reported":1701612331,"current_range_meters":4800,"station_id":"ce4bh392rcd13ifvqdm0","pricing_plan_id":"free"},{"bike_id":"82393103-939b-47ce-92c8-68c41c32d704","system_id":"levelo_inurba_marseille","lat":43.284462,"lon":5.392121,"is_reserved":false,"is_disabled":false,"rental_uris":{"android":"levelo://app?vid=82393103-939b-47ce-92c8-68c41c32d704","ios":"levelo://app?vid=82393103-939b-47ce-92c8-68c41c32d704"},"vehicle_type_id":"4","last_reported":1701612331,"current_range_meters":26800,"station_id":"ce4bhoh2rcd13ifvqh5g","pricing_plan_id":"free"},{"bike_id":"451e5711-912b-4e6f-ba92-14f20d0093e3","system_id":"levelo_inurba_marseille","lat":43.332051,"lon":5.406559,"is_reserved":false,"is_disabled":false,"rental_uris":{"android":"levelo://app?vid=451e5711-912b-4e6f-ba92-14f20d0093e3","ios":"levelo://app?vid=451e5711-912b-4e6f-ba92-14f20d0093e3"},"vehicle_type_id":"4","last_reported":1701612331,"current_range_meters":15200,"station_id":"","pricing_plan_id":"free"},{"bike_id":"b21af117-871c-4901-957f-0ecb4fff2209","system_id":"levelo_inurba_marseille","lat":43.279087,"lon":5.380114,"is_reserved":false,"is_disabled":false,"rental_uris":{"android":"levelo://app?vid=b21af117-871c-4901-957f-0ecb4fff2209","ios":"levelo://app?vid=b21af117-871c-4901-957f-0ecb4fff2209"},"vehicle_type_id":"4","last_reported":1701612331,"current_range_meters":31200,"station_id":"ce4bhf92rcd13ifvqf50","pricing_plan_id":"free"},{"bike_id":"ae3b7381-16bb-42f0-9639-1e094078b76c","system_id":"levelo_inurba_marseille","lat":43.299577,"lon":5.413277,"is_reserved":false,"is_disabled":false,"rental_uris":{"android":"levelo://app?vid=ae3b7381-16bb-42f0-9639-1e094078b76c","ios":"levelo://app?vid=ae3b7381-16bb-42f0-9639-1e094078b76c"},"vehicle_type_id":"4","last_reported":1701612331,"current_range_meters":0,"station_id":"ce4bhp12rcd13ifvqh9g","pricing_plan_id":"free"},{"bike_id":"497d2f54-0fe8-4299-9af9-ef290548acb4","system_id":"levelo_inurba_marseille","lat":43.292647,"lon":5.409162,"is_reserved":false,"is_disabled":false,"rental_uris":{"android":"levelo://app?vid=497d2f54-0fe8-4299-9af9-ef290548acb4","ios":"levelo://app?vid=497d2f54-0fe8-4299-9af9-ef290548acb4"},"vehicle_type_id":"4","last_reported":1701612331,"current_range_meters":16000,"station_id":"","pricing_plan_id":"free"},{"bike_id":"5a85bcc3-8b9f-4f1c-95e2-0a6c1fa9f880","system_id":"levelo_inurba_marseille","lat":43.292569,"lon":5.409107,"is_reserved":false,"is_disabled":false,"rental_uris":{"android":"levelo://app?vid=5a85bcc3-8b9f-4f1c-95e2-0a6c1fa9f880","ios":"levelo://app?vid=5a85bcc3-8b9f-4f1c-95e2-0a6c1fa9f880"},"vehicle_type_id":"4","last_reported":1701612331,"current_range_meters":21600,"station_id":"ce4bh192rcd13ifvqdc0","pricing_plan_id":"free"},{"bike_id":"2ed76bd7-5d2e-4837-811d-65417a6f33c7","system_id":"levelo_inurba_marseille","lat":43.280784,"lon":5.396622,"is_reserved":false,"is_disabled":false,"rental_uris":{"android":"levelo://app?vid=2ed76bd7-5d2e-4837-811d-65417a6f33c7","ios":"levelo://app?vid=2ed76bd7-5d2e-4837-811d-65417a6f33c7"},"vehicle_type_id":"4","last_reported":1701612331,"current_range_meters":18400,"station_id":"ce4bho12rcd13ifvqh2g","pricing_plan_id":"free"},{"bike_id":"a8e1215b-8ed0-40e0-84d3-f2951619d8e8","system_id":"levelo_inurba_marseille","lat":43.278401,"lon":5.392152,"is_reserved":false,"is_disabled":false,"rental_uris":{"android":"levelo://app?vid=a8e1215b-8ed0-40e0-84d3-f2951619d8e8","ios":"levelo://app?vid=a8e1215b-8ed0-40e0-84d3-f2951619d8e8"},"vehicle_type_id":"4","last_reported":1701612331,"current_range_meters":23200,"station_id":"ce4bhjp2rcd13ifvqga0","pricing_plan_id":"free"},{"bike_id":"d74a5ee3-8b7b-486d-82ee-4f6bebc3ff66","system_id":"levelo_inurba_marseille","lat":43.273613,"lon":5.362705,"is_reserved":false,"is_disabled":false,"rental_uris":{"android":"levelo://app?vid=d74a5ee3-8b7b-486d-82ee-4f6bebc3ff66","ios":"levelo://app?vid=d74a5ee3-8b7b-486d-82ee-4f6bebc3ff66"},"vehicle_type_id":"4","last_reported":1701612331,"current_range_meters":6800,"station_id":"ce4bhbh2rcd13ifvqeo0","pricing_plan_id":"free"},{"bike_id":"6aaaaa22-b6b5-4c44-b41e-fcacaeedb6b4","system_id":"levelo_inurba_marseille","lat":43.273613,"lon":5.362705,"is_reserved":false,"is_disabled":false,"rental_uris":{"android":"levelo://app?vid=6aaaaa22-b6b5-4c44-b41e-fcacaeedb6b4","ios":"levelo://app?vid=6aaaaa22-b6b5-4c44-b41e-fcacaeedb6b4"},"vehicle_type_id":"4","last_reported":1701612331,"current_range_meters":22400,"station_id":"ce4bhbh2rcd13ifvqeo0","pricing_plan_id":"free"},{"bike_id":"db12139b-23b9-4e5d-8849-bc895f7bba81","system_id":"levelo_inurba_marseille","lat":43.273613,"lon":5.362705,"is_reserved":false,"is_disabled":false,"rental_uris":{"android":"levelo://app?vid=db12139b-23b9-4e5d-8849-bc895f7bba81","ios":"levelo://app?vid=db12139b-23b9-4e5d-8849-bc895f7bba81"},"vehicle_type_id":"4","last_reported":1701612331,"current_range_meters":0,"station_id":"ce4bhbh2rcd13ifvqeo0","pricing_plan_id":"free"},{"bike_id":"19efdd98-5ce9-4330-9a5f-0697d7daae1b","system_id":"levelo_inurba_marseille","lat":43.273609,"lon":5.362708,"is_reserved":false,"is_disabled":false,"rental_uris":{"android":"levelo://app?vid=19efdd98-5ce9-4330-9a5f-0697d7daae1b","ios":"levelo://app?vid=19efdd98-5ce9-4330-9a5f-0697d7daae1b"},"vehicle_type_id":"4","last_reported":1701612331,"current_range_meters":23200,"station_id":"ce4bhbh2rcd13ifvqeo0","pricing_plan_id":"free"},{"bike_id":"2255962e-f1ca-471b-ab08-aa4b990c6808","system_id":"levelo_inurba_marseille","lat":43.310785,"lon":5.424305,"is_reserved":false,"is_disabled":false,"rental_uris":{"android":"levelo://app?vid=2255962e-f1ca-471b-ab08-aa4b990c6808","ios":"levelo://app?vid=2255962e-f1ca-471b-ab08-aa4b990c6808"},"vehicle_type_id":"4","last_reported":1701612331,"current_range_meters":26800,"station_id":"ce4bhp92rcd13ifvqhag","pricing_plan_id":"free"},{"bike_id":"75269014-fd84-4a1f-9fa5-95a0080041c8","system_id":"levelo_inurba_marseille","lat":43.310785,"lon":5.424305,"is_reserved":false,"is_disabled":false,"rental_uris":{"android":"levelo://app?vid=75269014-fd84-4a1f-9fa5-95a0080041c8","ios":"levelo://app?vid=75269014-fd84-4a1f-9fa5-95a0080041c8"},"vehicle_type_id":"4","last_reported":1701612331,"current_range_meters":31600,"station_id":"ce4bhp92rcd13ifvqhag","pricing_plan_id":"free"},{"bike_id":"910fd3aa-d2e0-4553-894a-6161d41c7fcd","system_id":"levelo_inurba_marseille","lat":43.27609,"lon":5.39475,"is_reserved":false,"is_disabled":false,"rental_uris":{"android":"levelo://app?vid=910fd3aa-d2e0-4553-894a-6161d41c7fcd","ios":"levelo://app?vid=910fd3aa-d2e0-4553-894a-6161d41c7fcd"},"vehicle_type_id":"4","last_reported":1701612331,"current_range_meters":15200,"station_id":"","pricing_plan_id":"free"},{"bike_id":"284b492f-6935-470e-bcfa-775810170911","system_id":"levelo_inurba_marseille","lat":43.340804,"lon":5.410219,"is_reserved":false,"is_disabled":false,"rental_uris":{"android":"levelo://app?vid=284b492f-6935-470e-bcfa-775810170911","ios":"levelo://app?vid=284b492f-6935-470e-bcfa-775810170911"},"vehicle_type_id":"4","last_reported":1701612331,"current_range_meters":26400,"station_id":"ce4bhqh2rcd13ifvqhlg","pricing_plan_id":"free"},{"bike_id":"e83ebcb9-2f31-46bb-8c22-29a341b162d7","system_id":"levelo_inurba_marseille","lat":43.304088,"lon":5.425388,"is_reserved":false,"is_disabled":false,"rental_uris":{"android":"levelo://app?vid=e83ebcb9-2f31-46bb-8c22-29a341b162d7","ios":"levelo://app?vid=e83ebcb9-2f31-46bb-8c22-29a341b162d7"},"vehicle_type_id":"4","last_reported":1701612331,"current_range_meters":26800,"station_id":"ce4bhoh2rcd13ifvqh6g","pricing_plan_id":"free"},{"bike_id":"151c6746-6a02-4b30-9611-f5f88d7ace86","system_id":"levelo_inurba_marseille","lat":43.272116,"lon":5.391763,"is_reserved":false,"is_disabled":false,"rental_uris":{"android":"levelo://app?vid=151c6746-6a02-4b30-9611-f5f88d7ace86","ios":"levelo://app?vid=151c6746-6a02-4b30-9611-f5f88d7ace86"},"vehicle_type_id":"4","last_reported":1701612331,"current_range_meters":12800,"station_id":"ce4bhhp2rcd13ifvqfm0","pricing_plan_id":"free"},{"bike_id":"2dc817f6-5f5b-4802-86d2-e3014d431647","system_id":"levelo_inurba_marseille","lat":43.272118,"lon":5.391758,"is_reserved":false,"is_disabled":false,"rental_uris":{"android":"levelo://app?vid=2dc817f6-5f5b-4802-86d2-e3014d431647","ios":"levelo://app?vid=2dc817f6-5f5b-4802-86d2-e3014d431647"},"vehicle_type_id":"4","last_reported":1701612331,"current_range_meters":9200,"station_id":"ce4bhhp2rcd13ifvqfm0","pricing_plan_id":"free"},{"bike_id":"5ac17fae-8d66-44d1-8f9c-b64d71d7a793","system_id":"levelo_inurba_marseille","lat":43.27946,"lon":5.4105,"is_reserved":false,"is_disabled":false,"rental_uris":{"android":"levelo://app?vid=5ac17fae-8d66-44d1-8f9c-b64d71d7a793","ios":"levelo://app?vid=5ac17fae-8d66-44d1-8f9c-b64d71d7a793"},"vehicle_type_id":"4","last_reported":1701612331,"current_range_meters":28000,"station_id":"ce4bhnp2rcd13ifvqh0g","pricing_plan_id":"free"},{"bike_id":"1b6188ac-ab27-4d42-a1bd-93b1a1d003f4","system_id":"levelo_inurba_marseille","lat":43.269319,"lon":5.389397,"is_reserved":false,"is_disabled":false,"rental_uris":{"android":"levelo://app?vid=1b6188ac-ab27-4d42-a1bd-93b1a1d003f4","ios":"levelo://app?vid=1b6188ac-ab27-4d42-a1bd-93b1a1d003f4"},"vehicle_type_id":"4","last_reported":1701612331,"current_range_meters":16400,"station_id":"ce4bhhh2rcd13ifvqfl0","pricing_plan_id":"free"},{"bike_id":"c52d6031-bade-41d4-9bdc-ac2359439ebe","system_id":"levelo_inurba_marseille","lat":43.26681,"lon":5.382694,"is_reserved":false,"is_disabled":false,"rental_uris":{"android":"levelo://app?vid=c52d6031-bade-41d4-9bdc-ac2359439ebe","ios":"levelo://app?vid=c52d6031-bade-41d4-9bdc-ac2359439ebe"},"vehicle_type_id":"4","last_reported":1701612331,"current_range_meters":13200,"station_id":"ce4bhg92rcd13ifvqf90","pricing_plan_id":"free"},{"bike_id":"96155030-8d11-4c5f-b342-288a68c796ad","system_id":"levelo_inurba_marseille","lat":43.26556,"lon":5.37283,"is_reserved":false,"is_disabled":false,"rental_uris":{"android":"levelo://app?vid=96155030-8d11-4c5f-b342-288a68c796ad","ios":"levelo://app?vid=96155030-8d11-4c5f-b342-288a68c796ad"},"vehicle_type_id":"4","last_reported":1701612331,"current_range_meters":12000,"station_id":"ce4bhg12rcd13ifvqf70","pricing_plan_id":"free"},{"bike_id":"6cea33eb-f3c2-4d06-b7bd-e5086b4799a1","system_id":"levelo_inurba_marseille","lat":43.267966,"lon":5.393976,"is_reserved":false,"is_disabled":false,"rental_uris":{"android":"levelo://app?vid=6cea33eb-f3c2-4d06-b7bd-e5086b4799a1","ios":"levelo://app?vid=6cea33eb-f3c2-4d06-b7bd-e5086b4799a1"},"vehicle_type_id":"4","last_reported":1701612331,"current_range_meters":28800,"station_id":"ce4bhh12rcd13ifvqfg0","pricing_plan_id":"free"},{"bike_id":"0421581f-3d70-4f06-8c1c-ab50496ba6c0","system_id":"levelo_inurba_marseille","lat":43.265571,"lon":5.390032,"is_reserved":false,"is_disabled":false,"rental_uris":{"android":"levelo://app?vid=0421581f-3d70-4f06-8c1c-ab50496ba6c0","ios":"levelo://app?vid=0421581f-3d70-4f06-8c1c-ab50496ba6c0"},"vehicle_type_id":"4","last_reported":1701612331,"current_range_meters":10400,"station_id":"ce4bhe12rcd13ifvqf30","pricing_plan_id":"free"},{"bike_id":"8dad4d35-015b-404e-b450-34d6e03792dc","system_id":"levelo_inurba_marseille","lat":43.261782,"lon":5.374515,"is_reserved":false,"is_disabled":false,"rental_uris":{"android":"levelo://app?vid=8dad4d35-015b-404e-b450-34d6e03792dc","ios":"levelo://app?vid=8dad4d35-015b-404e-b450-34d6e03792dc"},"vehicle_type_id":"4","last_reported":1701612331,"current_range_meters":20400,"station_id":"ce4bhgp2rcd13ifvqfc0","pricing_plan_id":"free"},{"bike_id":"f9505c4b-c2ce-4bca-bead-e0efb1f24e15","system_id":"levelo_inurba_marseille","lat":43.271368,"lon":5.40928,"is_reserved":false,"is_disabled":false,"rental_uris":{"android":"levelo://app?vid=f9505c4b-c2ce-4bca-bead-e0efb1f24e15","ios":"levelo://app?vid=f9505c4b-c2ce-4bca-bead-e0efb1f24e15"},"vehicle_type_id":"4","last_reported":1701612331,"current_range_meters":26800,"station_id":"ce4bhl12rcd13ifvqgf0","pricing_plan_id":"free"},{"bike_id":"beee792d-c111-4e09-8ccb-9ad495de738f","system_id":"levelo_inurba_marseille","lat":43.25574,"lon":5.38231,"is_reserved":false,"is_disabled":false,"rental_uris":{"android":"levelo://app?vid=beee792d-c111-4e09-8ccb-9ad495de738f","ios":"levelo://app?vid=beee792d-c111-4e09-8ccb-9ad495de738f"},"vehicle_type_id":"4","last_reported":1701612331,"current_range_meters":13200,"station_id":"ce4bhih2rcd13ifvqfs0","pricing_plan_id":"free"},{"bike_id":"755461d1-be74-4777-b81d-ab0b3264273a","system_id":"levelo_inurba_marseille","lat":43.25571,"lon":5.38228,"is_reserved":false,"is_disabled":false,"rental_uris":{"android":"levelo://app?vid=755461d1-be74-4777-b81d-ab0b3264273a","ios":"levelo://app?vid=755461d1-be74-4777-b81d-ab0b3264273a"},"vehicle_type_id":"4","last_reported":1701612331,"current_range_meters":3200,"station_id":"ce4bhih2rcd13ifvqfs0","pricing_plan_id":"free"},{"bike_id":"c6d509a4-0052-46c4-a36a-f95be4f7be99","system_id":"levelo_inurba_marseille","lat":43.2557,"lon":5.38238,"is_reserved":false,"is_disabled":false,"rental_uris":{"android":"levelo://app?vid=c6d509a4-0052-46c4-a36a-f95be4f7be99","ios":"levelo://app?vid=c6d509a4-0052-46c4-a36a-f95be4f7be99"},"vehicle_type_id":"4","last_reported":1701612331,"current_range_meters":14000,"station_id":"ce4bhih2rcd13ifvqfs0","pricing_plan_id":"free"},{"bike_id":"b8b300d3-fdcd-4f2f-a48a-f2434df84ec7","system_id":"levelo_inurba_marseille","lat":43.254947,"lon":5.376454,"is_reserved":false,"is_disabled":false,"rental_uris":{"android":"levelo://app?vid=b8b300d3-fdcd-4f2f-a48a-f2434df84ec7","ios":"levelo://app?vid=b8b300d3-fdcd-4f2f-a48a-f2434df84ec7"},"vehicle_type_id":"4","last_reported":1701612331,"current_range_meters":7200,"station_id":"ce4bhh12rcd13ifvqff0","pricing_plan_id":"free"},{"bike_id":"bdc72d7c-9d46-4016-8a92-851cd50823f9","system_id":"levelo_inurba_marseille","lat":43.25929,"lon":5.40906,"is_reserved":false,"is_disabled":false,"rental_uris":{"android":"levelo://app?vid=bdc72d7c-9d46-4016-8a92-851cd50823f9","ios":"levelo://app?vid=bdc72d7c-9d46-4016-8a92-851cd50823f9"},"vehicle_type_id":"4","last_reported":1701612331,"current_range_meters":23600,"station_id":"ce4bhm92rcd13ifvqglg","pricing_plan_id":"free"},{"bike_id":"05ffcfcb-20c3-4466-b79e-af248191fe78","system_id":"levelo_inurba_marseille","lat":43.257079,"lon":5.411051,"is_reserved":false,"is_disabled":false,"rental_uris":{"android":"levelo://app?vid=05ffcfcb-20c3-4466-b79e-af248191fe78","ios":"levelo://app?vid=05ffcfcb-20c3-4466-b79e-af248191fe78"},"vehicle_type_id":"4","last_reported":1701612331,"current_range_meters":30400,"station_id":"ce4bhkp2rcd13ifvqgd0","pricing_plan_id":"free"},{"bike_id":"774fb8e6-d473-45c2-b889-9f9d5e582cb8","system_id":"levelo_inurba_marseille","lat":43.250023,"lon":5.38919,"is_reserved":false,"is_disabled":false,"rental_uris":{"android":"levelo://app?vid=774fb8e6-d473-45c2-b889-9f9d5e582cb8","ios":"levelo://app?vid=774fb8e6-d473-45c2-b889-9f9d5e582cb8"},"vehicle_type_id":"4","last_reported":1701612331,"current_range_meters":6400,"station_id":"ce4bhgp2rcd13ifvqfd0","pricing_plan_id":"free"},{"bike_id":"6a89a169-99d2-4867-aa64-0afff492de89","system_id":"levelo_inurba_marseille","lat":43.2479,"lon":5.374457,"is_reserved":false,"is_disabled":false,"rental_uris":{"android":"levelo://app?vid=6a89a169-99d2-4867-aa64-0afff492de89","ios":"levelo://app?vid=6a89a169-99d2-4867-aa64-0afff492de89"},"vehicle_type_id":"4","last_reported":1701612331,"current_range_meters":24000,"station_id":"ce4bhgh2rcd13ifvqfb0","pricing_plan_id":"free"},{"bike_id":"409f549d-23a0-4f62-9381-c1fc42e386c6","system_id":"levelo_inurba_marseille","lat":43.2479,"lon":5.374457,"is_reserved":false,"is_disabled":false,"rental_uris":{"android":"levelo://app?vid=409f549d-23a0-4f62-9381-c1fc42e386c6","ios":"levelo://app?vid=409f549d-23a0-4f62-9381-c1fc42e386c6"},"vehicle_type_id":"4","last_reported":1701612331,"current_range_meters":24400,"station_id":"ce4bhgh2rcd13ifvqfb0","pricing_plan_id":"free"},{"bike_id":"317a5e10-b4f0-4b21-84fd-20965563253f","system_id":"levelo_inurba_marseille","lat":43.2508,"lon":5.39514,"is_reserved":false,"is_disabled":false,"rental_uris":{"android":"levelo://app?vid=317a5e10-b4f0-4b21-84fd-20965563253f","ios":"levelo://app?vid=317a5e10-b4f0-4b21-84fd-20965563253f"},"vehicle_type_id":"4","last_reported":1701612331,"current_range_meters":19600,"station_id":"ce4bhm12rcd13ifvqgkg","pricing_plan_id":"free"},{"bike_id":"e5d9c72d-e880-4e33-9a08-447e4da6cd1f","system_id":"levelo_inurba_marseille","lat":43.25102,"lon":5.403214,"is_reserved":false,"is_disabled":false,"rental_uris":{"android":"levelo://app?vid=e5d9c72d-e880-4e33-9a08-447e4da6cd1f","ios":"levelo://app?vid=e5d9c72d-e880-4e33-9a08-447e4da6cd1f"},"vehicle_type_id":"4","last_reported":1701612331,"current_range_meters":10000,"station_id":"ce4bhlh2rcd13ifvqgig","pricing_plan_id":"free"},{"bike_id":"6fa4d5cd-dc77-4707-832a-620257d10493","system_id":"levelo_inurba_marseille","lat":43.25102,"lon":5.403214,"is_reserved":false,"is_disabled":false,"rental_uris":{"android":"levelo://app?vid=6fa4d5cd-dc77-4707-832a-620257d10493","ios":"levelo://app?vid=6fa4d5cd-dc77-4707-832a-620257d10493"},"vehicle_type_id":"4","last_reported":1701612331,"current_range_meters":20400,"station_id":"ce4bhlh2rcd13ifvqgig","pricing_plan_id":"free"},{"bike_id":"3f16351b-1791-4e68-8cd9-f12470e5a137","system_id":"levelo_inurba_marseille","lat":43.24656,"lon":5.38886,"is_reserved":false,"is_disabled":false,"rental_uris":{"android":"levelo://app?vid=3f16351b-1791-4e68-8cd9-f12470e5a137","ios":"levelo://app?vid=3f16351b-1791-4e68-8cd9-f12470e5a137"},"vehicle_type_id":"4","last_reported":1701612331,"current_range_meters":10800,"station_id":"ce4bhg12rcd13ifvqf60","pricing_plan_id":"free"},{"bike_id":"c776deb1-8aa1-4dde-87bb-4bf5aba2d69d","system_id":"levelo_inurba_marseille","lat":43.246467,"lon":5.388984,"is_reserved":false,"is_disabled":false,"rental_uris":{"android":"levelo://app?vid=c776deb1-8aa1-4dde-87bb-4bf5aba2d69d","ios":"levelo://app?vid=c776deb1-8aa1-4dde-87bb-4bf5aba2d69d"},"vehicle_type_id":"4","last_reported":1701612331,"current_range_meters":23600,"station_id":"ce4bhg12rcd13ifvqf60","pricing_plan_id":"free"},{"bike_id":"ecf13557-161d-4e27-b0e7-48e2d8f8fde0","system_id":"levelo_inurba_marseille","lat":43.246467,"lon":5.388984,"is_reserved":false,"is_disabled":false,"rental_uris":{"android":"levelo://app?vid=ecf13557-161d-4e27-b0e7-48e2d8f8fde0","ios":"levelo://app?vid=ecf13557-161d-4e27-b0e7-48e2d8f8fde0"},"vehicle_type_id":"4","last_reported":1701612331,"current_range_meters":15200,"station_id":"ce4bhg12rcd13ifvqf60","pricing_plan_id":"free"},{"bike_id":"344d2e4e-b54d-4897-ad5f-02f90554f1ce","system_id":"levelo_inurba_marseille","lat":43.24643,"lon":5.38898,"is_reserved":false,"is_disabled":false,"rental_uris":{"android":"levelo://app?vid=344d2e4e-b54d-4897-ad5f-02f90554f1ce","ios":"levelo://app?vid=344d2e4e-b54d-4897-ad5f-02f90554f1ce"},"vehicle_type_id":"4","last_reported":1701612331,"current_range_meters":4000,"station_id":"ce4bhg12rcd13ifvqf60","pricing_plan_id":"free"},{"bike_id":"61a9e6b0-f435-4470-83bd-a67a85c1a979","system_id":"levelo_inurba_marseille","lat":43.243884,"lon":5.370736,"is_reserved":false,"is_disabled":false,"rental_uris":{"android":"levelo://app?vid=61a9e6b0-f435-4470-83bd-a67a85c1a979","ios":"levelo://app?vid=61a9e6b0-f435-4470-83bd-a67a85c1a979"},"vehicle_type_id":"4","last_reported":1701612331,"current_range_meters":31600,"station_id":"ce4bhhh2rcd13ifvqfk0","pricing_plan_id":"free"},{"bike_id":"581b3e3c-f49b-4afa-b904-b2b4fac016e9","system_id":"levelo_inurba_marseille","lat":43.243884,"lon":5.370736,"is_reserved":false,"is_disabled":false,"rental_uris":{"android":"levelo://app?vid=581b3e3c-f49b-4afa-b904-b2b4fac016e9","ios":"levelo://app?vid=581b3e3c-f49b-4afa-b904-b2b4fac016e9"},"vehicle_type_id":"4","last_reported":1701612331,"current_range_meters":23200,"station_id":"ce4bhhh2rcd13ifvqfk0","pricing_plan_id":"free"},{"bike_id":"0912f654-b971-4d60-ad8b-bfa9605c7097","system_id":"levelo_inurba_marseille","lat":43.243884,"lon":5.370736,"is_reserved":false,"is_disabled":false,"rental_uris":{"android":"levelo://app?vid=0912f654-b971-4d60-ad8b-bfa9605c7097","ios":"levelo://app?vid=0912f654-b971-4d60-ad8b-bfa9605c7097"},"vehicle_type_id":"4","last_reported":1701612331,"current_range_meters":31200,"station_id":"ce4bhhh2rcd13ifvqfk0","pricing_plan_id":"free"},{"bike_id":"a468bfa3-0f10-4318-9c6f-0ec62d97356c","system_id":"levelo_inurba_marseille","lat":43.243884,"lon":5.370737,"is_reserved":false,"is_disabled":false,"rental_uris":{"android":"levelo://app?vid=a468bfa3-0f10-4318-9c6f-0ec62d97356c","ios":"levelo://app?vid=a468bfa3-0f10-4318-9c6f-0ec62d97356c"},"vehicle_type_id":"4","last_reported":1701612331,"current_range_meters":31200,"station_id":"ce4bhhh2rcd13ifvqfk0","pricing_plan_id":"free"},{"bike_id":"63309d50-3d9c-4476-9f0b-b14e06a3401d","system_id":"levelo_inurba_marseille","lat":43.243884,"lon":5.370736,"is_reserved":false,"is_disabled":false,"rental_uris":{"android":"levelo://app?vid=63309d50-3d9c-4476-9f0b-b14e06a3401d","ios":"levelo://app?vid=63309d50-3d9c-4476-9f0b-b14e06a3401d"},"vehicle_type_id":"4","last_reported":1701612331,"current_range_meters":0,"station_id":"ce4bhhh2rcd13ifvqfk0","pricing_plan_id":"free"},{"bike_id":"84bd67a2-517e-4820-a194-7b5c271e738b","system_id":"levelo_inurba_marseille","lat":43.24547,"lon":5.39526,"is_reserved":false,"is_disabled":false,"rental_uris":{"android":"levelo://app?vid=84bd67a2-517e-4820-a194-7b5c271e738b","ios":"levelo://app?vid=84bd67a2-517e-4820-a194-7b5c271e738b"},"vehicle_type_id":"4","last_reported":1701612331,"current_range_meters":27200,"station_id":"ce4bhlp2rcd13ifvqgjg","pricing_plan_id":"free"},{"bike_id":"66d07158-1c05-469e-a266-b66692f04cb5","system_id":"levelo_inurba_marseille","lat":43.239588,"lon":5.366238,"is_reserved":false,"is_disabled":false,"rental_uris":{"android":"levelo://app?vid=66d07158-1c05-469e-a266-b66692f04cb5","ios":"levelo://app?vid=66d07158-1c05-469e-a266-b66692f04cb5"},"vehicle_type_id":"4","last_reported":1701612331,"current_range_meters":31200,"station_id":"ce4bhi12rcd13ifvqfp0","pricing_plan_id":"free"},{"bike_id":"b35e7f80-a6b5-4c37-aa6a-7c53399b0c14","system_id":"levelo_inurba_marseille","lat":43.23965,"lon":5.36627,"is_reserved":false,"is_disabled":false,"rental_uris":{"android":"levelo://app?vid=b35e7f80-a6b5-4c37-aa6a-7c53399b0c14","ios":"levelo://app?vid=b35e7f80-a6b5-4c37-aa6a-7c53399b0c14"},"vehicle_type_id":"4","last_reported":1701612331,"current_range_meters":24400,"station_id":"ce4bhi12rcd13ifvqfp0","pricing_plan_id":"free"},{"bike_id":"9616335e-129b-4f75-ae72-69ae36567887","system_id":"levelo_inurba_marseille","lat":43.239588,"lon":5.366238,"is_reserved":false,"is_disabled":false,"rental_uris":{"android":"levelo://app?vid=9616335e-129b-4f75-ae72-69ae36567887","ios":"levelo://app?vid=9616335e-129b-4f75-ae72-69ae36567887"},"vehicle_type_id":"4","last_reported":1701612331,"current_range_meters":26400,"station_id":"ce4bhi12rcd13ifvqfp0","pricing_plan_id":"free"},{"bike_id":"293b68e1-0d6a-4028-99b9-98974101a22d","system_id":"levelo_inurba_marseille","lat":43.239588,"lon":5.366238,"is_reserved":false,"is_disabled":false,"rental_uris":{"android":"levelo://app?vid=293b68e1-0d6a-4028-99b9-98974101a22d","ios":"levelo://app?vid=293b68e1-0d6a-4028-99b9-98974101a22d"},"vehicle_type_id":"4","last_reported":1701612331,"current_range_meters":26400,"station_id":"ce4bhi12rcd13ifvqfp0","pricing_plan_id":"free"},{"bike_id":"b090f973-2c95-4f28-bad8-f0fb3cef1d29","system_id":"levelo_inurba_marseille","lat":43.2396,"lon":5.36627,"is_reserved":false,"is_disabled":false,"rental_uris":{"android":"levelo://app?vid=b090f973-2c95-4f28-bad8-f0fb3cef1d29","ios":"levelo://app?vid=b090f973-2c95-4f28-bad8-f0fb3cef1d29"},"vehicle_type_id":"4","last_reported":1701612331,"current_range_meters":19200,"station_id":"ce4bhi12rcd13ifvqfp0","pricing_plan_id":"free"},{"bike_id":"b101f295-ac85-402a-8afe-c635c176f114","system_id":"levelo_inurba_marseille","lat":43.28531,"lon":5.46056,"is_reserved":false,"is_disabled":false,"rental_uris":{"android":"levelo://app?vid=b101f295-ac85-402a-8afe-c635c176f114","ios":"levelo://app?vid=b101f295-ac85-402a-8afe-c635c176f114"},"vehicle_type_id":"4","last_reported":1701612331,"current_range_meters":19200,"station_id":"","pricing_plan_id":"free"},{"bike_id":"efab28f3-6bbe-4dfe-9e31-ccdc6083347d","system_id":"levelo_inurba_marseille","lat":43.241782,"lon":5.397264,"is_reserved":false,"is_disabled":false,"rental_uris":{"android":"levelo://app?vid=efab28f3-6bbe-4dfe-9e31-ccdc6083347d","ios":"levelo://app?vid=efab28f3-6bbe-4dfe-9e31-ccdc6083347d"},"vehicle_type_id":"4","last_reported":1701612331,"current_range_meters":0,"station_id":"ce4bhn12rcd13ifvqgpg","pricing_plan_id":"free"},{"bike_id":"9f7746be-aa54-4a37-ad70-7bf88b7714fd","system_id":"levelo_inurba_marseille","lat":43.241782,"lon":5.397261,"is_reserved":false,"is_disabled":false,"rental_uris":{"android":"levelo://app?vid=9f7746be-aa54-4a37-ad70-7bf88b7714fd","ios":"levelo://app?vid=9f7746be-aa54-4a37-ad70-7bf88b7714fd"},"vehicle_type_id":"4","last_reported":1701612331,"current_range_meters":21200,"station_id":"ce4bhn12rcd13ifvqgpg","pricing_plan_id":"free"},{"bike_id":"6573cb36-3c40-4042-8b0f-1356381ee019","system_id":"levelo_inurba_marseille","lat":43.231923,"lon":5.355545,"is_reserved":false,"is_disabled":false,"rental_uris":{"android":"levelo://app?vid=6573cb36-3c40-4042-8b0f-1356381ee019","ios":"levelo://app?vid=6573cb36-3c40-4042-8b0f-1356381ee019"},"vehicle_type_id":"4","last_reported":1701612331,"current_range_meters":28400,"station_id":"ce4bhu92rcd13ifvqi70","pricing_plan_id":"free"},{"bike_id":"df76bb33-a4ef-4a36-a72d-84c57504fc7a","system_id":"levelo_inurba_marseille","lat":43.231983,"lon":5.355469,"is_reserved":false,"is_disabled":false,"rental_uris":{"android":"levelo://app?vid=df76bb33-a4ef-4a36-a72d-84c57504fc7a","ios":"levelo://app?vid=df76bb33-a4ef-4a36-a72d-84c57504fc7a"},"vehicle_type_id":"4","last_reported":1701612331,"current_range_meters":29600,"station_id":"ce4bhu92rcd13ifvqi70","pricing_plan_id":"free"},{"bike_id":"58d4edcd-4441-486c-8457-28ebda4ac431","system_id":"levelo_inurba_marseille","lat":43.23198,"lon":5.35551,"is_reserved":false,"is_disabled":false,"rental_uris":{"android":"levelo://app?vid=58d4edcd-4441-486c-8457-28ebda4ac431","ios":"levelo://app?vid=58d4edcd-4441-486c-8457-28ebda4ac431"},"vehicle_type_id":"4","last_reported":1701612331,"current_range_meters":20400,"station_id":"ce4bhu92rcd13ifvqi70","pricing_plan_id":"free"},{"bike_id":"87815193-0a9e-4a5a-8f22-63817bf9d429","system_id":"levelo_inurba_marseille","lat":43.23197,"lon":5.35551,"is_reserved":false,"is_disabled":false,"rental_uris":{"android":"levelo://app?vid=87815193-0a9e-4a5a-8f22-63817bf9d429","ios":"levelo://app?vid=87815193-0a9e-4a5a-8f22-63817bf9d429"},"vehicle_type_id":"4","last_reported":1701612331,"current_range_meters":8800,"station_id":"ce4bhu92rcd13ifvqi70","pricing_plan_id":"free"},{"bike_id":"90a66033-92d6-4ce5-9800-5d20674c66dd","system_id":"levelo_inurba_marseille","lat":43.231972,"lon":5.355476,"is_reserved":false,"is_disabled":false,"rental_uris":{"android":"levelo://app?vid=90a66033-92d6-4ce5-9800-5d20674c66dd","ios":"levelo://app?vid=90a66033-92d6-4ce5-9800-5d20674c66dd"},"vehicle_type_id":"4","last_reported":1701612331,"current_range_meters":29200,"station_id":"ce4bhu92rcd13ifvqi70","pricing_plan_id":"free"},{"bike_id":"6041d620-664b-4836-b597-a0e62593a032","system_id":"levelo_inurba_marseille","lat":43.231923,"lon":5.355545,"is_reserved":false,"is_disabled":false,"rental_uris":{"android":"levelo://app?vid=6041d620-664b-4836-b597-a0e62593a032","ios":"levelo://app?vid=6041d620-664b-4836-b597-a0e62593a032"},"vehicle_type_id":"4","last_reported":1701612331,"current_range_meters":28400,"station_id":"ce4bhu92rcd13ifvqi70","pricing_plan_id":"free"},{"bike_id":"6462fbc5-ceb8-47e3-b56d-fc1e69bef19f","system_id":"levelo_inurba_marseille","lat":43.231919,"lon":5.355532,"is_reserved":false,"is_disabled":false,"rental_uris":{"android":"levelo://app?vid=6462fbc5-ceb8-47e3-b56d-fc1e69bef19f","ios":"levelo://app?vid=6462fbc5-ceb8-47e3-b56d-fc1e69bef19f"},"vehicle_type_id":"4","last_reported":1701612331,"current_range_meters":25200,"station_id":"ce4bhu92rcd13ifvqi70","pricing_plan_id":"free"},{"bike_id":"a2778a75-2f32-457d-810c-ad5c32010803","system_id":"levelo_inurba_marseille","lat":43.23195,"lon":5.3556,"is_reserved":false,"is_disabled":false,"rental_uris":{"android":"levelo://app?vid=a2778a75-2f32-457d-810c-ad5c32010803","ios":"levelo://app?vid=a2778a75-2f32-457d-810c-ad5c32010803"},"vehicle_type_id":"4","last_reported":1701612331,"current_range_meters":20000,"station_id":"ce4bhu92rcd13ifvqi70","pricing_plan_id":"free"},{"bike_id":"9e01ee59-41e6-425c-ae1f-3e33312fefcd","system_id":"levelo_inurba_marseille","lat":43.231923,"lon":5.355545,"is_reserved":false,"is_disabled":false,"rental_uris":{"android":"levelo://app?vid=9e01ee59-41e6-425c-ae1f-3e33312fefcd","ios":"levelo://app?vid=9e01ee59-41e6-425c-ae1f-3e33312fefcd"},"vehicle_type_id":"4","last_reported":1701612331,"current_range_meters":16000,"station_id":"ce4bhu92rcd13ifvqi70","pricing_plan_id":"free"},{"bike_id":"177a82e2-68da-4975-a68b-b32649f3d1f2","system_id":"levelo_inurba_marseille","lat":43.231923,"lon":5.355545,"is_reserved":false,"is_disabled":false,"rental_uris":{"android":"levelo://app?vid=177a82e2-68da-4975-a68b-b32649f3d1f2","ios":"levelo://app?vid=177a82e2-68da-4975-a68b-b32649f3d1f2"},"vehicle_type_id":"4","last_reported":1701612331,"current_range_meters":8400,"station_id":"ce4bhu92rcd13ifvqi70","pricing_plan_id":"free"},{"bike_id":"2b04708e-eed8-4471-916a-9fdeea01eec7","system_id":"levelo_inurba_marseille","lat":43.231923,"lon":5.355545,"is_reserved":false,"is_disabled":false,"rental_uris":{"android":"levelo://app?vid=2b04708e-eed8-4471-916a-9fdeea01eec7","ios":"levelo://app?vid=2b04708e-eed8-4471-916a-9fdeea01eec7"},"vehicle_type_id":"4","last_reported":1701612331,"current_range_meters":14000,"station_id":"ce4bhu92rcd13ifvqi70","pricing_plan_id":"free"},{"bike_id":"4506c45e-2d09-462d-97b5-d051c36d1044","system_id":"levelo_inurba_marseille","lat":43.231919,"lon":5.355532,"is_reserved":false,"is_disabled":false,"rental_uris":{"android":"levelo://app?vid=4506c45e-2d09-462d-97b5-d051c36d1044","ios":"levelo://app?vid=4506c45e-2d09-462d-97b5-d051c36d1044"},"vehicle_type_id":"4","last_reported":1701612331,"current_range_meters":27600,"station_id":"ce4bhu92rcd13ifvqi70","pricing_plan_id":"free"},{"bike_id":"6382809b-45d0-4ad2-8be7-697249f82077","system_id":"levelo_inurba_marseille","lat":43.231919,"lon":5.355532,"is_reserved":false,"is_disabled":false,"rental_uris":{"android":"levelo://app?vid=6382809b-45d0-4ad2-8be7-697249f82077","ios":"levelo://app?vid=6382809b-45d0-4ad2-8be7-697249f82077"},"vehicle_type_id":"4","last_reported":1701612331,"current_range_meters":31200,"station_id":"ce4bhu92rcd13ifvqi70","pricing_plan_id":"free"},{"bike_id":"cf3102c4-88e0-4a41-86b7-69a76932d3e6","system_id":"levelo_inurba_marseille","lat":43.231923,"lon":5.355545,"is_reserved":false,"is_disabled":false,"rental_uris":{"android":"levelo://app?vid=cf3102c4-88e0-4a41-86b7-69a76932d3e6","ios":"levelo://app?vid=cf3102c4-88e0-4a41-86b7-69a76932d3e6"},"vehicle_type_id":"4","last_reported":1701612331,"current_range_meters":31200,"station_id":"ce4bhu92rcd13ifvqi70","pricing_plan_id":"free"},{"bike_id":"b8f295a9-10f8-4746-b4a0-4491480d1fc4","system_id":"levelo_inurba_marseille","lat":43.231919,"lon":5.355532,"is_reserved":false,"is_disabled":false,"rental_uris":{"android":"levelo://app?vid=b8f295a9-10f8-4746-b4a0-4491480d1fc4","ios":"levelo://app?vid=b8f295a9-10f8-4746-b4a0-4491480d1fc4"},"vehicle_type_id":"4","last_reported":1701612331,"current_range_meters":20400,"station_id":"ce4bhu92rcd13ifvqi70","pricing_plan_id":"free"},{"bike_id":"384a17af-27e8-4164-b8c0-d8b51c5b0eac","system_id":"levelo_inurba_marseille","lat":43.231923,"lon":5.355545,"is_reserved":false,"is_disabled":false,"rental_uris":{"android":"levelo://app?vid=384a17af-27e8-4164-b8c0-d8b51c5b0eac","ios":"levelo://app?vid=384a17af-27e8-4164-b8c0-d8b51c5b0eac"},"vehicle_type_id":"4","last_reported":1701612331,"current_range_meters":7200,"station_id":"ce4bhu92rcd13ifvqi70","pricing_plan_id":"free"},{"bike_id":"4e176977-ccb9-4a01-b3da-279fd61eadf6","system_id":"levelo_inurba_marseille","lat":43.231919,"lon":5.355532,"is_reserved":false,"is_disabled":false,"rental_uris":{"android":"levelo://app?vid=4e176977-ccb9-4a01-b3da-279fd61eadf6","ios":"levelo://app?vid=4e176977-ccb9-4a01-b3da-279fd61eadf6"},"vehicle_type_id":"4","last_reported":1701612331,"current_range_meters":18400,"station_id":"ce4bhu92rcd13ifvqi70","pricing_plan_id":"free"},{"bike_id":"c384cc79-d05c-49b7-9293-603bcf5d3796","system_id":"levelo_inurba_marseille","lat":43.231919,"lon":5.355532,"is_reserved":false,"is_disabled":false,"rental_uris":{"android":"levelo://app?vid=c384cc79-d05c-49b7-9293-603bcf5d3796","ios":"levelo://app?vid=c384cc79-d05c-49b7-9293-603bcf5d3796"},"vehicle_type_id":"4","last_reported":1701612331,"current_range_meters":6400,"station_id":"ce4bhu92rcd13ifvqi70","pricing_plan_id":"free"},{"bike_id":"4ee99995-f63f-4ddb-ac4b-88a5ee23324c","system_id":"levelo_inurba_marseille","lat":43.231899,"lon":5.399767,"is_reserved":false,"is_disabled":false,"rental_uris":{"android":"levelo://app?vid=4ee99995-f63f-4ddb-ac4b-88a5ee23324c","ios":"levelo://app?vid=4ee99995-f63f-4ddb-ac4b-88a5ee23324c"},"vehicle_type_id":"4","last_reported":1701612331,"current_range_meters":13200,"station_id":"ce4bhn12rcd13ifvqgqg","pricing_plan_id":"free"},{"bike_id":"88cf855f-bb31-40e0-8afc-686df3c193ab","system_id":"levelo_inurba_marseille","lat":43.231794,"lon":5.400052,"is_reserved":false,"is_disabled":false,"rental_uris":{"android":"levelo://app?vid=88cf855f-bb31-40e0-8afc-686df3c193ab","ios":"levelo://app?vid=88cf855f-bb31-40e0-8afc-686df3c193ab"},"vehicle_type_id":"4","last_reported":1701612331,"current_range_meters":28400,"station_id":"ce4bhn12rcd13ifvqgqg","pricing_plan_id":"free"},{"bike_id":"d0b35396-6769-42d4-8160-8b44cb829902","system_id":"levelo_inurba_marseille","lat":43.231886,"lon":5.399811,"is_reserved":false,"is_disabled":false,"rental_uris":{"android":"levelo://app?vid=d0b35396-6769-42d4-8160-8b44cb829902","ios":"levelo://app?vid=d0b35396-6769-42d4-8160-8b44cb829902"},"vehicle_type_id":"4","last_reported":1701612331,"current_range_meters":29200,"station_id":"ce4bhn12rcd13ifvqgqg","pricing_plan_id":"free"},{"bike_id":"22bd98e3-c33f-4c44-ae2b-f96729d36f4f","system_id":"levelo_inurba_marseille","lat":43.231793,"lon":5.400044,"is_reserved":false,"is_disabled":false,"rental_uris":{"android":"levelo://app?vid=22bd98e3-c33f-4c44-ae2b-f96729d36f4f","ios":"levelo://app?vid=22bd98e3-c33f-4c44-ae2b-f96729d36f4f"},"vehicle_type_id":"4","last_reported":1701612331,"current_range_meters":30000,"station_id":"ce4bhn12rcd13ifvqgqg","pricing_plan_id":"free"},{"bike_id":"d7955d6f-88ae-4e83-97c1-4a0668d076f6","system_id":"levelo_inurba_marseille","lat":43.23188,"lon":5.39986,"is_reserved":false,"is_disabled":false,"rental_uris":{"android":"levelo://app?vid=d7955d6f-88ae-4e83-97c1-4a0668d076f6","ios":"levelo://app?vid=d7955d6f-88ae-4e83-97c1-4a0668d076f6"},"vehicle_type_id":"4","last_reported":1701612331,"current_range_meters":18800,"station_id":"ce4bhn12rcd13ifvqgqg","pricing_plan_id":"free"},{"bike_id":"a926f4bb-1e59-4822-80ea-1d5ff6f2a5c5","system_id":"levelo_inurba_marseille","lat":43.23187,"lon":5.399827,"is_reserved":false,"is_disabled":false,"rental_uris":{"android":"levelo://app?vid=a926f4bb-1e59-4822-80ea-1d5ff6f2a5c5","ios":"levelo://app?vid=a926f4bb-1e59-4822-80ea-1d5ff6f2a5c5"},"vehicle_type_id":"4","last_reported":1701612331,"current_range_meters":14800,"station_id":"ce4bhn12rcd13ifvqgqg","pricing_plan_id":"free"},{"bike_id":"e47e98e0-4256-4c41-ae86-e531a41b9213","system_id":"levelo_inurba_marseille","lat":43.231794,"lon":5.400052,"is_reserved":false,"is_disabled":false,"rental_uris":{"android":"levelo://app?vid=e47e98e0-4256-4c41-ae86-e531a41b9213","ios":"levelo://app?vid=e47e98e0-4256-4c41-ae86-e531a41b9213"},"vehicle_type_id":"4","last_reported":1701612331,"current_range_meters":31200,"station_id":"ce4bhn12rcd13ifvqgqg","pricing_plan_id":"free"},{"bike_id":"27852c29-47dc-4826-817e-c88bd3a0386e","system_id":"levelo_inurba_marseille","lat":43.23188,"lon":5.39992,"is_reserved":false,"is_disabled":false,"rental_uris":{"android":"levelo://app?vid=27852c29-47dc-4826-817e-c88bd3a0386e","ios":"levelo://app?vid=27852c29-47dc-4826-817e-c88bd3a0386e"},"vehicle_type_id":"4","last_reported":1701612331,"current_range_meters":18000,"station_id":"ce4bhn12rcd13ifvqgqg","pricing_plan_id":"free"},{"bike_id":"77b1a551-da7f-429a-980e-bfc6767a5958","system_id":"levelo_inurba_marseille","lat":43.231794,"lon":5.400052,"is_reserved":false,"is_disabled":false,"rental_uris":{"android":"levelo://app?vid=77b1a551-da7f-429a-980e-bfc6767a5958","ios":"levelo://app?vid=77b1a551-da7f-429a-980e-bfc6767a5958"},"vehicle_type_id":"4","last_reported":1701612331,"current_range_meters":31200,"station_id":"ce4bhn12rcd13ifvqgqg","pricing_plan_id":"free"},{"bike_id":"3fdd6789-d52a-4c7f-96f4-f754cbf436d6","system_id":"levelo_inurba_marseille","lat":43.23183,"lon":5.39977,"is_reserved":false,"is_disabled":false,"rental_uris":{"android":"levelo://app?vid=3fdd6789-d52a-4c7f-96f4-f754cbf436d6","ios":"levelo://app?vid=3fdd6789-d52a-4c7f-96f4-f754cbf436d6"},"vehicle_type_id":"4","last_reported":1701612331,"current_range_meters":12000,"station_id":"ce4bhn12rcd13ifvqgqg","pricing_plan_id":"free"},{"bike_id":"6bd9f065-50d9-4657-9ca0-a006f413d305","system_id":"levelo_inurba_marseille","lat":43.231794,"lon":5.400052,"is_reserved":false,"is_disabled":false,"rental_uris":{"android":"levelo://app?vid=6bd9f065-50d9-4657-9ca0-a006f413d305","ios":"levelo://app?vid=6bd9f065-50d9-4657-9ca0-a006f413d305"},"vehicle_type_id":"4","last_reported":1701612331,"current_range_meters":31200,"station_id":"ce4bhn12rcd13ifvqgqg","pricing_plan_id":"free"},{"bike_id":"83862a0a-d647-45eb-9884-693fce6366ab","system_id":"levelo_inurba_marseille","lat":43.23183,"lon":5.39985,"is_reserved":false,"is_disabled":false,"rental_uris":{"android":"levelo://app?vid=83862a0a-d647-45eb-9884-693fce6366ab","ios":"levelo://app?vid=83862a0a-d647-45eb-9884-693fce6366ab"},"vehicle_type_id":"4","last_reported":1701612331,"current_range_meters":14000,"station_id":"ce4bhn12rcd13ifvqgqg","pricing_plan_id":"free"},{"bike_id":"ddecb7a7-8295-4a56-96b7-ae63ab6d05c4","system_id":"levelo_inurba_marseille","lat":43.231794,"lon":5.400052,"is_reserved":false,"is_disabled":false,"rental_uris":{"android":"levelo://app?vid=ddecb7a7-8295-4a56-96b7-ae63ab6d05c4","ios":"levelo://app?vid=ddecb7a7-8295-4a56-96b7-ae63ab6d05c4"},"vehicle_type_id":"4","last_reported":1701612331,"current_range_meters":20000,"station_id":"ce4bhn12rcd13ifvqgqg","pricing_plan_id":"free"},{"bike_id":"d8ad9864-eb6b-4faa-b8e1-e2e245ce7f97","system_id":"levelo_inurba_marseille","lat":43.231839,"lon":5.399918,"is_reserved":false,"is_disabled":false,"rental_uris":{"android":"levelo://app?vid=d8ad9864-eb6b-4faa-b8e1-e2e245ce7f97","ios":"levelo://app?vid=d8ad9864-eb6b-4faa-b8e1-e2e245ce7f97"},"vehicle_type_id":"4","last_reported":1701612331,"current_range_meters":15600,"station_id":"ce4bhn12rcd13ifvqgqg","pricing_plan_id":"free"},{"bike_id":"457c552c-8af5-4b7b-9f6b-8c901265a623","system_id":"levelo_inurba_marseille","lat":43.23183,"lon":5.39989,"is_reserved":false,"is_disabled":false,"rental_uris":{"android":"levelo://app?vid=457c552c-8af5-4b7b-9f6b-8c901265a623","ios":"levelo://app?vid=457c552c-8af5-4b7b-9f6b-8c901265a623"},"vehicle_type_id":"4","last_reported":1701612331,"current_range_meters":28400,"station_id":"ce4bhn12rcd13ifvqgqg","pricing_plan_id":"free"},{"bike_id":"3ca2546c-f9ed-464d-b941-53a82f5e8048","system_id":"levelo_inurba_marseille","lat":43.231794,"lon":5.400052,"is_reserved":false,"is_disabled":false,"rental_uris":{"android":"levelo://app?vid=3ca2546c-f9ed-464d-b941-53a82f5e8048","ios":"levelo://app?vid=3ca2546c-f9ed-464d-b941-53a82f5e8048"},"vehicle_type_id":"4","last_reported":1701612331,"current_range_meters":9600,"station_id":"ce4bhn12rcd13ifvqgqg","pricing_plan_id":"free"},{"bike_id":"c254a53a-e90d-4047-8753-6835b99d333e","system_id":"levelo_inurba_marseille","lat":43.23184,"lon":5.40001,"is_reserved":false,"is_disabled":false,"rental_uris":{"android":"levelo://app?vid=c254a53a-e90d-4047-8753-6835b99d333e","ios":"levelo://app?vid=c254a53a-e90d-4047-8753-6835b99d333e"},"vehicle_type_id":"4","last_reported":1701612331,"current_range_meters":14800,"station_id":"ce4bhn12rcd13ifvqgqg","pricing_plan_id":"free"},{"bike_id":"118d4a35-86b4-49cc-8abc-987caa7ffe62","system_id":"levelo_inurba_marseille","lat":43.23182,"lon":5.4,"is_reserved":false,"is_disabled":false,"rental_uris":{"android":"levelo://app?vid=118d4a35-86b4-49cc-8abc-987caa7ffe62","ios":"levelo://app?vid=118d4a35-86b4-49cc-8abc-987caa7ffe62"},"vehicle_type_id":"4","last_reported":1701612331,"current_range_meters":4000,"station_id":"ce4bhn12rcd13ifvqgqg","pricing_plan_id":"free"}]}}