{"last_updated":1738156546,"ttl":60,"version":"2.2","data":{"bikes":[{"bike_id":"b9be6050-4377-4b60-9db3-4141bfbba510","system_id":"levelo_inurba_marseille","lat":43.29787,"lon":5.39363,"is_reserved":false,"is_disabled":false,"rental_uris":{"android":"levelo://app?vid=b9be6050-4377-4b60-9db3-4141bfbba510","ios":"levelo://app?vid=b9be6050-4377-4b60-9db3-4141bfbba510"},"vehicle_type_id":"4","last_reported":1738156546,"current_range_meters":30800,"station_id":"chh1huq6cuj3fo74tm60","pricing_plan_id":"cebpf4jnsgd1na2vs0mg"},{"bike_id":"ee5e61c1-197e-4ec6-883c-2846f16a43b2","system_id":"levelo_inurba_marseille","lat":43.26931,"lon":5.40243,"is_reserved":false,"is_disabled":false,"rental_uris":{"android":"levelo://app?vid=ee5e61c1-197e-4ec6-883c-2846f16a43b2","ios":"levelo://app?vid=ee5e61c1-197e-4ec6-883c-2846f16a43b2"},"vehicle_type_id":"4","last_reported":1738156546,"current_range_meters":6800,"station_id":"cjm6bp8fraef2m0cb0m0","pricing_plan_id":"cebpf4jnsgd1na2vs0mg"},{"bike_id":"fb620fb5-d025-4c6e-8873-b8f1e543e797","system_id":"levelo_inurba_marseille","lat":43.29868,"lon":5.39733,"is_reserved":false,"is_disabled":false,"rental_uris":{"android":"levelo://app?vid=fb620fb5-d025-4c6e-8873-b8f1e543e797","ios":"levelo://app?vid=fb620fb5-d025-4c6e-8873-b8f1e543e797"},"vehicle_type_id":"4","last_reported":1738156546,"current_range_meters":35600,"station_id":"ce4bh0h2rcd13ifvqd50","pricing_plan_id":"cebpf4jnsgd1na2vs0mg"},{"bike_id":"90058ec2-5b7d-4fc4-8bb8-6caee5be3d19","system_id":"levelo_inurba_marseille","lat":43.23178,"lon":5.39983,"is_reserved":false,"is_disabled":false,"rental_uris":{"android":"levelo://app?vid=90058ec2-5b7d-4fc4-8bb8-6caee5be3d19","ios":"levelo://app?vid=90058ec2-5b7d-4fc4-8bb8-6caee5be3d19"},"vehicle_type_id":"4","last_reported":1738156546,"current_range_meters":24000,"station_id":"ce4bhn12rcd13ifvqgqg","pricing_plan_id":"cebpf4jnsgd1na2vs0mg"},{"bike_id":"974c5eb2-2a34-4e22-a39a-ece7bbe75958","system_id":"levelo_inurba_marseille","lat":43.29025,"lon":5.38124,"is_reserved":false,"is_disabled":false,"rental_uris":{"android":"levelo://app?vid=974c5eb2-2a34-4e22-a39a-ece7bbe75958","ios":"levelo://app?vid=974c5eb2-2a34-4e22-a39a-ece7bbe75958"},"vehicle_type_id":"4","last_reported":1738156546,"current_range_meters":38400,"station_id":"ce4bh4p2rcd13ifvqe1g","pricing_plan_id":"cebpf4jnsgd1na2vs0mg"},{"bike_id":"6e03df0c-fe46-4f90-85d9-72630160992d","system_id":"levelo_inurba_marseille","lat":43.26952,"lon":5.38637,"is_reserved":false,"is_disabled":false,"rental_uris":{"android":"levelo://app?vid=6e03df0c-fe46-4f90-85d9-72630160992d","ios":"levelo://app?vid=6e03df0c-fe46-4f90-85d9-72630160992d"},"vehicle_type_id":"4","last_reported":1738156546,"current_range_meters":34800,"station_id":"ce4bhh92rcd13ifvqfh0","pricing_plan_id":"cebpf4jnsgd1na2vs0mg"},{"bike_id":"56f49f8b-4bf2-4d84-97ce-54c8a66ab5f7","system_id":"levelo_inurba_marseille","lat":43.30011,"lon":5.37167,"is_reserved":false,"is_disabled":false,"rental_uris":{"android":"levelo://app?vid=56f49f8b-4bf2-4d84-97ce-54c8a66ab5f7","ios":"levelo://app?vid=56f49f8b-4bf2-4d84-97ce-54c8a66ab5f7"},"vehicle_type_id":"4","last_reported":1738156546,"current_range_meters":39200,"station_id":"ce4bgr92rcd13ifvqc7g","pricing_plan_id":"cebpf4jnsgd1na2vs0mg"},{"bike_id":"c1caf84a-2270-4d8d-9aad-139f3782bc96","system_id":"levelo_inurba_marseille","lat":43.29634,"lon":5.40599,"is_reserved":false,"is_disabled":false,"rental_uris":{"android":"levelo://app?vid=c1caf84a-2270-4d8d-9aad-139f3782bc96","ios":"levelo://app?vid=c1caf84a-2270-4d8d-9aad-139f3782bc96"},"vehicle_type_id":"4","last_reported":1738156546,"current_range_meters":28000,"station_id":"ce4bh0h2rcd13ifvqd60","pricing_plan_id":"cebpf4jnsgd1na2vs0mg"},{"bike_id":"f7f8117f-03ef-415e-85c6-2eeaf165e4f2","system_id":"levelo_inurba_marseille","lat":43.26269,"lon":5.40509,"is_reserved":false,"is_disabled":true,"rental_uris":{"android":"levelo://app?vid=f7f8117f-03ef-415e-85c6-2eeaf165e4f2","ios":"levelo://app?vid=f7f8117f-03ef-415e-85c6-2eeaf165e4f2"},"vehicle_type_id":"4","last_reported":1738156546,"current_range_meters":28800,"station_id":"","pricing_plan_id":"cebpf4jnsgd1na2vs0mg"},{"bike_id":"37280b76-769d-4d4a-8241-33e865aa7efe","system_id":"levelo_inurba_marseille","lat":43.28834,"lon":5.3585,"is_reserved":false,"is_disabled":false,"rental_uris":{"android":"levelo://app?vid=37280b76-769d-4d4a-8241-33e865aa7efe","ios":"levelo://app?vid=37280b76-769d-4d4a-8241-33e865aa7efe"},"vehicle_type_id":"4","last_reported":1738156546,"current_range_meters":22400,"station_id":"ce4bhb12rcd13ifvqem0","pricing_plan_id":"cebpf4jnsgd1na2vs0mg"},{"bike_id":"60b94ec1-a2e5-42fc-ad7c-d66b2ada9c44","system_id":"levelo_inurba_marseille","lat":43.23968,"lon":5.36644,"is_reserved":false,"is_disabled":false,"rental_uris":{"android":"levelo://app?vid=60b94ec1-a2e5-42fc-ad7c-d66b2ada9c44","ios":"levelo://app?vid=60b94ec1-a2e5-42fc-ad7c-d66b2ada9c44"},"vehicle_type_id":"4","last_reported":1738156546,"current_range_meters":38800,"station_id":"ce4bhi12rcd13ifvqfp0","pricing_plan_id":"cebpf4jnsgd1na2vs0mg"},{"bike_id":"1c691f34-b581-43fa-9960-cfc896fbdb5c","system_id":"levelo_inurba_marseille","lat":43.30533,"lon":5.36538,"is_reserved":false,"is_disabled":false,"rental_uris":{"android":"levelo://app?vid=1c691f34-b581-43fa-9960-cfc896fbdb5c","ios":"levelo://app?vid=1c691f34-b581-43fa-9960-cfc896fbdb5c"},"vehicle_type_id":"4","last_reported":1738156546,"current_range_meters":38800,"station_id":"ce4bgs12rcd13ifvqcag","pricing_plan_id":"cebpf4jnsgd1na2vs0mg"},{"bike_id":"d77faba5-2b0c-430f-ad22-bcf40b90e74c","system_id":"levelo_inurba_marseille","lat":43.27818,"lon":5.40711,"is_reserved":false,"is_disabled":true,"rental_uris":{"android":"levelo://app?vid=d77faba5-2b0c-430f-ad22-bcf40b90e74c","ios":"levelo://app?vid=d77faba5-2b0c-430f-ad22-bcf40b90e74c"},"vehicle_type_id":"4","last_reported":1738156546,"current_range_meters":35600,"station_id":"ce4bhnh2rcd13ifvqgtg","pricing_plan_id":"cebpf4jnsgd1na2vs0mg"},{"bike_id":"269d9297-6dbf-4f05-98c0-e001f8e68811","system_id":"levelo_inurba_marseille","lat":43.24997,"lon":5.38938,"is_reserved":false,"is_disabled":false,"rental_uris":{"android":"levelo://app?vid=269d9297-6dbf-4f05-98c0-e001f8e68811","ios":"levelo://app?vid=269d9297-6dbf-4f05-98c0-e001f8e68811"},"vehicle_type_id":"4","last_reported":1738156546,"current_range_meters":36400,"station_id":"ce4bhgp2rcd13ifvqfd0","pricing_plan_id":"cebpf4jnsgd1na2vs0mg"},{"bike_id":"f93041b9-b8e0-42d2-8838-ad70483b616d","system_id":"levelo_inurba_marseille","lat":43.2678,"lon":5.39417,"is_reserved":false,"is_disabled":false,"rental_uris":{"android":"levelo://app?vid=f93041b9-b8e0-42d2-8838-ad70483b616d","ios":"levelo://app?vid=f93041b9-b8e0-42d2-8838-ad70483b616d"},"vehicle_type_id":"4","last_reported":1738156546,"current_range_meters":17600,"station_id":"ce4bhh12rcd13ifvqfg0","pricing_plan_id":"cebpf4jnsgd1na2vs0mg"},{"bike_id":"adc2855c-ce96-4ab1-9132-d4c82e18f627","system_id":"levelo_inurba_marseille","lat":43.26516,"lon":5.39549,"is_reserved":false,"is_disabled":false,"rental_uris":{"android":"levelo://app?vid=adc2855c-ce96-4ab1-9132-d4c82e18f627","ios":"levelo://app?vid=adc2855c-ce96-4ab1-9132-d4c82e18f627"},"vehicle_type_id":"4","last_reported":1738156546,"current_range_meters":32800,"station_id":"ce4bhi12rcd13ifvqfq0","pricing_plan_id":"cebpf4jnsgd1na2vs0mg"},{"bike_id":"c75d1bbf-3a64-4bdf-9a6c-3e82944fa834","system_id":"levelo_inurba_marseille","lat":43.30461,"lon":5.37906,"is_reserved":false,"is_disabled":false,"rental_uris":{"android":"levelo://app?vid=c75d1bbf-3a64-4bdf-9a6c-3e82944fa834","ios":"levelo://app?vid=c75d1bbf-3a64-4bdf-9a6c-3e82944fa834"},"vehicle_type_id":"4","last_reported":1738156546,"current_range_meters":28000,"station_id":"ce4bgup2rcd13ifvqcn0","pricing_plan_id":"cebpf4jnsgd1na2vs0mg"},{"bike_id":"df517269-7978-40e7-92b9-aba0b6440d0d","system_id":"levelo_inurba_marseille","lat":43.27375,"lon":5.36256,"is_reserved":false,"is_disabled":false,"rental_uris":{"android":"levelo://app?vid=df517269-7978-40e7-92b9-aba0b6440d0d","ios":"levelo://app?vid=df517269-7978-40e7-92b9-aba0b6440d0d"},"vehicle_type_id":"4","last_reported":1738156546,"current_range_meters":29600,"station_id":"ce4bhbh2rcd13ifvqeo0","pricing_plan_id":"cebpf4jnsgd1na2vs0mg"},{"bike_id":"fdebd92f-94f9-40c9-91d7-1d02999ba671","system_id":"levelo_inurba_marseille","lat":43.30099,"lon":5.39075,"is_reserved":false,"is_disabled":false,"rental_uris":{"android":"levelo://app?vid=fdebd92f-94f9-40c9-91d7-1d02999ba671","ios":"levelo://app?vid=fdebd92f-94f9-40c9-91d7-1d02999ba671"},"vehicle_type_id":"4","last_reported":1738156546,"current_range_meters":38800,"station_id":"ce4bh192rcd13ifvqdb0","pricing_plan_id":"cebpf4jnsgd1na2vs0mg"},{"bike_id":"96c6d005-88bb-4fd6-98f4-0a014c553eb8","system_id":"levelo_inurba_marseille","lat":43.33026,"lon":5.39038,"is_reserved":false,"is_disabled":false,"rental_uris":{"android":"levelo://app?vid=96c6d005-88bb-4fd6-98f4-0a014c553eb8","ios":"levelo://app?vid=96c6d005-88bb-4fd6-98f4-0a014c553eb8"},"vehicle_type_id":"4","last_reported":1738156546,"current_range_meters":38800,"station_id":"","pricing_plan_id":"cebpf4jnsgd1na2vs0mg"},{"bike_id":"49ec782e-5315-4950-8252-9cc05f281e6a","system_id":"levelo_inurba_marseille","lat":43.33618,"lon":5.41007,"is_reserved":false,"is_disabled":false,"rental_uris":{"android":"levelo://app?vid=49ec782e-5315-4950-8252-9cc05f281e6a","ios":"levelo://app?vid=49ec782e-5315-4950-8252-9cc05f281e6a"},"vehicle_type_id":"4","last_reported":1738156546,"current_range_meters":32000,"station_id":"ce4bhqh2rcd13ifvqhmg","pricing_plan_id":"cebpf4jnsgd1na2vs0mg"},{"bike_id":"d682f04f-dadf-4e93-9f08-390c2d434b3f","system_id":"levelo_inurba_marseille","lat":43.29787,"lon":5.381,"is_reserved":false,"is_disabled":false,"rental_uris":{"android":"levelo://app?vid=d682f04f-dadf-4e93-9f08-390c2d434b3f","ios":"levelo://app?vid=d682f04f-dadf-4e93-9f08-390c2d434b3f"},"vehicle_type_id":"4","last_reported":1738156546,"current_range_meters":20400,"station_id":"ce4bgip2rcd13ifvqbb0","pricing_plan_id":"cebpf4jnsgd1na2vs0mg"},{"bike_id":"69899191-e293-497b-a27d-18f1e8ac236e","system_id":"levelo_inurba_marseille","lat":43.301017,"lon":5.390913,"is_reserved":false,"is_disabled":false,"rental_uris":{"android":"levelo://app?vid=69899191-e293-497b-a27d-18f1e8ac236e","ios":"levelo://app?vid=69899191-e293-497b-a27d-18f1e8ac236e"},"vehicle_type_id":"4","last_reported":1738156546,"current_range_meters":36800,"station_id":"ce4bh192rcd13ifvqdb0","pricing_plan_id":"cebpf4jnsgd1na2vs0mg"},{"bike_id":"e05d3339-457c-46fa-9827-97d4d0e79dfd","system_id":"levelo_inurba_marseille","lat":43.25861,"lon":5.39912,"is_reserved":false,"is_disabled":false,"rental_uris":{"android":"levelo://app?vid=e05d3339-457c-46fa-9827-97d4d0e79dfd","ios":"levelo://app?vid=e05d3339-457c-46fa-9827-97d4d0e79dfd"},"vehicle_type_id":"4","last_reported":1738156546,"current_range_meters":39200,"station_id":"ce4bhl92rcd13ifvqghg","pricing_plan_id":"cebpf4jnsgd1na2vs0mg"},{"bike_id":"9bd21267-26f6-4122-9567-2f0b5d4f790f","system_id":"levelo_inurba_marseille","lat":43.32384,"lon":5.38877,"is_reserved":false,"is_disabled":false,"rental_uris":{"android":"levelo://app?vid=9bd21267-26f6-4122-9567-2f0b5d4f790f","ios":"levelo://app?vid=9bd21267-26f6-4122-9567-2f0b5d4f790f"},"vehicle_type_id":"4","last_reported":1738156546,"current_range_meters":8400,"station_id":"ce4bhqp2rcd13ifvqhog","pricing_plan_id":"cebpf4jnsgd1na2vs0mg"},{"bike_id":"93128da9-dde1-46b2-80e9-7cd33681002e","system_id":"levelo_inurba_marseille","lat":43.30276,"lon":5.37689,"is_reserved":false,"is_disabled":false,"rental_uris":{"android":"levelo://app?vid=93128da9-dde1-46b2-80e9-7cd33681002e","ios":"levelo://app?vid=93128da9-dde1-46b2-80e9-7cd33681002e"},"vehicle_type_id":"4","last_reported":1738156546,"current_range_meters":11600,"station_id":"ce4bguh2rcd13ifvqcj0","pricing_plan_id":"cebpf4jnsgd1na2vs0mg"},{"bike_id":"62fa4956-a921-4fb6-aa16-b51e55abc994","system_id":"levelo_inurba_marseille","lat":43.26218,"lon":5.40468,"is_reserved":false,"is_disabled":false,"rental_uris":{"android":"levelo://app?vid=62fa4956-a921-4fb6-aa16-b51e55abc994","ios":"levelo://app?vid=62fa4956-a921-4fb6-aa16-b51e55abc994"},"vehicle_type_id":"4","last_reported":1738156546,"current_range_meters":11600,"station_id":"ce4bhmh2rcd13ifvqgmg","pricing_plan_id":"cebpf4jnsgd1na2vs0mg"},{"bike_id":"e91f1c46-aedf-4681-9dcb-9e0af998d12b","system_id":"levelo_inurba_marseille","lat":43.27912,"lon":5.39579,"is_reserved":false,"is_disabled":false,"rental_uris":{"android":"levelo://app?vid=e91f1c46-aedf-4681-9dcb-9e0af998d12b","ios":"levelo://app?vid=e91f1c46-aedf-4681-9dcb-9e0af998d12b"},"vehicle_type_id":"4","last_reported":1738156546,"current_range_meters":28000,"station_id":"ce4bhf92rcd13ifvqf40","pricing_plan_id":"cebpf4jnsgd1na2vs0mg"},{"bike_id":"29960704-41cd-4e5e-a9b4-2623922ffc47","system_id":"levelo_inurba_marseille","lat":43.28717,"lon":5.39978,"is_reserved":false,"is_disabled":false,"rental_uris":{"android":"levelo://app?vid=29960704-41cd-4e5e-a9b4-2623922ffc47","ios":"levelo://app?vid=29960704-41cd-4e5e-a9b4-2623922ffc47"},"vehicle_type_id":"4","last_reported":1738156546,"current_range_meters":39200,"station_id":"ce4bho92rcd13ifvqh3g","pricing_plan_id":"cebpf4jnsgd1na2vs0mg"},{"bike_id":"1c63fa7b-8bb3-4da5-8267-9c40ab75cc0b","system_id":"levelo_inurba_marseille","lat":43.33712,"lon":5.392,"is_reserved":false,"is_disabled":false,"rental_uris":{"android":"levelo://app?vid=1c63fa7b-8bb3-4da5-8267-9c40ab75cc0b","ios":"levelo://app?vid=1c63fa7b-8bb3-4da5-8267-9c40ab75cc0b"},"vehicle_type_id":"4","last_reported":1738156546,"current_range_meters":38000,"station_id":"ce4bhr92rcd13ifvqhsg","pricing_plan_id":"cebpf4jnsgd1na2vs0mg"},{"bike_id":"e91c96b5-9be8-4d36-82c9-b84d1011de85","system_id":"levelo_inurba_marseille","lat":43.2509,"lon":5.39526,"is_reserved":false,"is_disabled":false,"rental_uris":{"android":"levelo://app?vid=e91c96b5-9be8-4d36-82c9-b84d1011de85","ios":"levelo://app?vid=e91c96b5-9be8-4d36-82c9-b84d1011de85"},"vehicle_type_id":"4","last_reported":1738156546,"current_range_meters":14400,"station_id":"ce4bhm12rcd13ifvqgkg","pricing_plan_id":"cebpf4jnsgd1na2vs0mg"},{"bike_id":"5d4915e0-4a9f-4c36-821a-8bde58abc3cd","system_id":"levelo_inurba_marseille","lat":43.25137,"lon":5.40312,"is_reserved":false,"is_disabled":true,"rental_uris":{"android":"levelo://app?vid=5d4915e0-4a9f-4c36-821a-8bde58abc3cd","ios":"levelo://app?vid=5d4915e0-4a9f-4c36-821a-8bde58abc3cd"},"vehicle_type_id":"4","last_reported":1738156546,"current_range_meters":38800,"station_id":"ce4bhlh2rcd13ifvqgig","pricing_plan_id":"cebpf4jnsgd1na2vs0mg"},{"bike_id":"b6ffbcad-9371-46a8-899d-8ed92473acd5","system_id":"levelo_inurba_marseille","lat":43.32451,"lon":5.36534,"is_reserved":false,"is_disabled":false,"rental_uris":{"android":"levelo://app?vid=b6ffbcad-9371-46a8-899d-8ed92473acd5","ios":"levelo://app?vid=b6ffbcad-9371-46a8-899d-8ed92473acd5"},"vehicle_type_id":"4","last_reported":1738156546,"current_range_meters":23200,"station_id":"ce4bhs12rcd13ifvqhvg","pricing_plan_id":"cebpf4jnsgd1na2vs0mg"},{"bike_id":"3e374112-fbcb-4a4c-9923-132aeda9cf24","system_id":"levelo_inurba_marseille","lat":43.29253,"lon":5.35913,"is_reserved":false,"is_disabled":false,"rental_uris":{"android":"levelo://app?vid=3e374112-fbcb-4a4c-9923-132aeda9cf24","ios":"levelo://app?vid=3e374112-fbcb-4a4c-9923-132aeda9cf24"},"vehicle_type_id":"4","last_reported":1738156546,"current_range_meters":14000,"station_id":"","pricing_plan_id":"cebpf4jnsgd1na2vs0mg"},{"bike_id":"6325b2e4-1145-482e-a98b-ea9ba7994f1b","system_id":"levelo_inurba_marseille","lat":43.25932,"lon":5.40904,"is_reserved":false,"is_disabled":false,"rental_uris":{"android":"levelo://app?vid=6325b2e4-1145-482e-a98b-ea9ba7994f1b","ios":"levelo://app?vid=6325b2e4-1145-482e-a98b-ea9ba7994f1b"},"vehicle_type_id":"4","last_reported":1738156546,"current_range_meters":30800,"station_id":"ce4bhm92rcd13ifvqglg","pricing_plan_id":"cebpf4jnsgd1na2vs0mg"},{"bike_id":"896cd925-72cf-4706-97b0-d25c4ad56ffa","system_id":"levelo_inurba_marseille","lat":43.30926,"lon":5.36826,"is_reserved":false,"is_disabled":false,"rental_uris":{"android":"levelo://app?vid=896cd925-72cf-4706-97b0-d25c4ad56ffa","ios":"levelo://app?vid=896cd925-72cf-4706-97b0-d25c4ad56ffa"},"vehicle_type_id":"4","last_reported":1738156546,"current_range_meters":36800,"station_id":"ce4bgn92rcd13ifvqbvg","pricing_plan_id":"cebpf4jnsgd1na2vs0mg"},{"bike_id":"a3c6429c-bb9c-49f5-8674-c210096ed9cc","system_id":"levelo_inurba_marseille","lat":43.27496,"lon":5.42453,"is_reserved":false,"is_disabled":false,"rental_uris":{"android":"levelo://app?vid=a3c6429c-bb9c-49f5-8674-c210096ed9cc","ios":"levelo://app?vid=a3c6429c-bb9c-49f5-8674-c210096ed9cc"},"vehicle_type_id":"4","last_reported":1738156546,"current_range_meters":39200,"station_id":"ce4bhn92rcd13ifvqgrg","pricing_plan_id":"cebpf4jnsgd1na2vs0mg"},{"bike_id":"c4ba8351-6579-4c11-ad1b-784fa7f14822","system_id":"levelo_inurba_marseille","lat":43.29941,"lon":5.36516,"is_reserved":false,"is_disabled":false,"rental_uris":{"android":"levelo://app?vid=c4ba8351-6579-4c11-ad1b-784fa7f14822","ios":"levelo://app?vid=c4ba8351-6579-4c11-ad1b-784fa7f14822"},"vehicle_type_id":"4","last_reported":1738156546,"current_range_meters":4400,"station_id":"ce4bgm92rcd13ifvqbr0","pricing_plan_id":"cebpf4jnsgd1na2vs0mg"},{"bike_id":"0a7e7607-24fe-42d2-ac43-c29bfc549f3d","system_id":"levelo_inurba_marseille","lat":43.284701,"lon":5.392131,"is_reserved":false,"is_disabled":true,"rental_uris":{"android":"levelo://app?vid=0a7e7607-24fe-42d2-ac43-c29bfc549f3d","ios":"levelo://app?vid=0a7e7607-24fe-42d2-ac43-c29bfc549f3d"},"vehicle_type_id":"4","last_reported":1738156546,"current_range_meters":800,"station_id":"ce4bhoh2rcd13ifvqh5g","pricing_plan_id":"cebpf4jnsgd1na2vs0mg"},{"bike_id":"d6af585f-c468-474f-9bf8-9417f47a5f4b","system_id":"levelo_inurba_marseille","lat":43.31352,"lon":5.36733,"is_reserved":false,"is_disabled":false,"rental_uris":{"android":"levelo://app?vid=d6af585f-c468-474f-9bf8-9417f47a5f4b","ios":"levelo://app?vid=d6af585f-c468-474f-9bf8-9417f47a5f4b"},"vehicle_type_id":"4","last_reported":1738156546,"current_range_meters":38800,"station_id":"ce4bgr92rcd13ifvqc6g","pricing_plan_id":"cebpf4jnsgd1na2vs0mg"},{"bike_id":"d8b6a92b-c2a5-41b6-be3b-616526b40ac3","system_id":"levelo_inurba_marseille","lat":43.30539,"lon":5.36555,"is_reserved":false,"is_disabled":false,"rental_uris":{"android":"levelo://app?vid=d8b6a92b-c2a5-41b6-be3b-616526b40ac3","ios":"levelo://app?vid=d8b6a92b-c2a5-41b6-be3b-616526b40ac3"},"vehicle_type_id":"4","last_reported":1738156546,"current_range_meters":25200,"station_id":"ce4bgs12rcd13ifvqcag","pricing_plan_id":"cebpf4jnsgd1na2vs0mg"},{"bike_id":"3c6336fe-eb72-435e-95d3-a1bde11ea3e3","system_id":"levelo_inurba_marseille","lat":43.30358,"lon":5.41882,"is_reserved":false,"is_disabled":false,"rental_uris":{"android":"levelo://app?vid=3c6336fe-eb72-435e-95d3-a1bde11ea3e3","ios":"levelo://app?vid=3c6336fe-eb72-435e-95d3-a1bde11ea3e3"},"vehicle_type_id":"4","last_reported":1738156546,"current_range_meters":38800,"station_id":"ce4bhop2rcd13ifvqh7g","pricing_plan_id":"cebpf4jnsgd1na2vs0mg"},{"bike_id":"09667ae2-2844-4d31-aac6-7ace6aae889b","system_id":"levelo_inurba_marseille","lat":43.29811,"lon":5.38093,"is_reserved":false,"is_disabled":false,"rental_uris":{"android":"levelo://app?vid=09667ae2-2844-4d31-aac6-7ace6aae889b","ios":"levelo://app?vid=09667ae2-2844-4d31-aac6-7ace6aae889b"},"vehicle_type_id":"4","last_reported":1738156546,"current_range_meters":38000,"station_id":"ce4bgip2rcd13ifvqbb0","pricing_plan_id":"cebpf4jnsgd1na2vs0mg"},{"bike_id":"1d3d6cfb-1973-4ef0-b19e-3b4fa3b6b11c","system_id":"levelo_inurba_marseille","lat":43.23963,"lon":5.36637,"is_reserved":false,"is_disabled":false,"rental_uris":{"android":"levelo://app?vid=1d3d6cfb-1973-4ef0-b19e-3b4fa3b6b11c","ios":"levelo://app?vid=1d3d6cfb-1973-4ef0-b19e-3b4fa3b6b11c"},"vehicle_type_id":"4","last_reported":1738156546,"current_range_meters":7200,"station_id":"ce4bhi12rcd13ifvqfp0","pricing_plan_id":"cebpf4jnsgd1na2vs0mg"},{"bike_id":"f7b8932e-ea90-4124-94c3-84dcbea4d8a0","system_id":"levelo_inurba_marseille","lat":43.27191,"lon":5.39152,"is_reserved":false,"is_disabled":false,"rental_uris":{"android":"levelo://app?vid=f7b8932e-ea90-4124-94c3-84dcbea4d8a0","ios":"levelo://app?vid=f7b8932e-ea90-4124-94c3-84dcbea4d8a0"},"vehicle_type_id":"4","last_reported":1738156546,"current_range_meters":25600,"station_id":"ce4bhhp2rcd13ifvqfm0","pricing_plan_id":"cebpf4jnsgd1na2vs0mg"},{"bike_id":"0d8ed079-b90b-46da-b651-8cf4a9537986","system_id":"levelo_inurba_marseille","lat":43.23225,"lon":5.39971,"is_reserved":false,"is_disabled":false,"rental_uris":{"android":"levelo://app?vid=0d8ed079-b90b-46da-b651-8cf4a9537986","ios":"levelo://app?vid=0d8ed079-b90b-46da-b651-8cf4a9537986"},"vehicle_type_id":"4","last_reported":1738156546,"current_range_meters":28400,"station_id":"ce4bhn12rcd13ifvqgqg","pricing_plan_id":"cebpf4jnsgd1na2vs0mg"},{"bike_id":"2726ab7d-4283-49db-be89-c5e6b97f39e0","system_id":"levelo_inurba_marseille","lat":43.29758,"lon":5.37692,"is_reserved":false,"is_disabled":false,"rental_uris":{"android":"levelo://app?vid=2726ab7d-4283-49db-be89-c5e6b97f39e0","ios":"levelo://app?vid=2726ab7d-4283-49db-be89-c5e6b97f39e0"},"vehicle_type_id":"4","last_reported":1738156546,"current_range_meters":31200,"station_id":"","pricing_plan_id":"cebpf4jnsgd1na2vs0mg"},{"bike_id":"c8a3a0ed-dff2-4f3c-87dc-2e6b47b1ad28","system_id":"levelo_inurba_marseille","lat":43.337444,"lon":5.374475,"is_reserved":false,"is_disabled":true,"rental_uris":{"android":"levelo://app?vid=c8a3a0ed-dff2-4f3c-87dc-2e6b47b1ad28","ios":"levelo://app?vid=c8a3a0ed-dff2-4f3c-87dc-2e6b47b1ad28"},"vehicle_type_id":"4","last_reported":1738156546,"current_range_meters":800,"station_id":"","pricing_plan_id":"cebpf4jnsgd1na2vs0mg"},{"bike_id":"56b21505-0aab-463f-8b11-cb19b7370689","system_id":"levelo_inurba_marseille","lat":43.30245,"lon":5.4007,"is_reserved":false,"is_disabled":false,"rental_uris":{"android":"levelo://app?vid=56b21505-0aab-463f-8b11-cb19b7370689","ios":"levelo://app?vid=56b21505-0aab-463f-8b11-cb19b7370689"},"vehicle_type_id":"4","last_reported":1738156546,"current_range_meters":11600,"station_id":"ce4bgvh2rcd13ifvqcs0","pricing_plan_id":"cebpf4jnsgd1na2vs0mg"},{"bike_id":"061a807c-1db8-46c7-beec-da6308b151ea","system_id":"levelo_inurba_marseille","lat":43.29605,"lon":5.38073,"is_reserved":false,"is_disabled":true,"rental_uris":{"android":"levelo://app?vid=061a807c-1db8-46c7-beec-da6308b151ea","ios":"levelo://app?vid=061a807c-1db8-46c7-beec-da6308b151ea"},"vehicle_type_id":"4","last_reported":1738156546,"current_range_meters":28400,"station_id":"ce4bgl12rcd13ifvqbo0","pricing_plan_id":"cebpf4jnsgd1na2vs0mg"},{"bike_id":"d323c514-0964-4830-ab1c-7976c00b8559","system_id":"levelo_inurba_marseille","lat":43.23152,"lon":5.43731,"is_reserved":false,"is_disabled":false,"rental_uris":{"android":"levelo://app?vid=d323c514-0964-4830-ab1c-7976c00b8559","ios":"levelo://app?vid=d323c514-0964-4830-ab1c-7976c00b8559"},"vehicle_type_id":"4","last_reported":1738156546,"current_range_meters":38800,"station_id":"ce4bhmp2rcd13ifvqgog","pricing_plan_id":"cebpf4jnsgd1na2vs0mg"},{"bike_id":"391485c7-12c0-4509-8478-7f653b278ce6","system_id":"levelo_inurba_marseille","lat":43.29009,"lon":5.35605,"is_reserved":false,"is_disabled":false,"rental_uris":{"android":"levelo://app?vid=391485c7-12c0-4509-8478-7f653b278ce6","ios":"levelo://app?vid=391485c7-12c0-4509-8478-7f653b278ce6"},"vehicle_type_id":"4","last_reported":1738156546,"current_range_meters":33600,"station_id":"ce4bhb92rcd13ifvqen0","pricing_plan_id":"cebpf4jnsgd1na2vs0mg"},{"bike_id":"99e8e631-96fe-44dd-bebb-99eaedb6f047","system_id":"levelo_inurba_marseille","lat":43.33027,"lon":5.39039,"is_reserved":false,"is_disabled":false,"rental_uris":{"android":"levelo://app?vid=99e8e631-96fe-44dd-bebb-99eaedb6f047","ios":"levelo://app?vid=99e8e631-96fe-44dd-bebb-99eaedb6f047"},"vehicle_type_id":"4","last_reported":1738156546,"current_range_meters":38400,"station_id":"ce4bhr92rcd13ifvqhrg","pricing_plan_id":"cebpf4jnsgd1na2vs0mg"},{"bike_id":"aa068523-cd19-4a6f-9f4b-654f8e53a92c","system_id":"levelo_inurba_marseille","lat":43.29222,"lon":5.36072,"is_reserved":false,"is_disabled":false,"rental_uris":{"android":"levelo://app?vid=aa068523-cd19-4a6f-9f4b-654f8e53a92c","ios":"levelo://app?vid=aa068523-cd19-4a6f-9f4b-654f8e53a92c"},"vehicle_type_id":"4","last_reported":1738156546,"current_range_meters":17200,"station_id":"ce4bhbh2rcd13ifvqeqg","pricing_plan_id":"cebpf4jnsgd1na2vs0mg"},{"bike_id":"e055110e-8e50-4402-9b32-8745c1542d21","system_id":"levelo_inurba_marseille","lat":43.23945,"lon":5.36649,"is_reserved":false,"is_disabled":false,"rental_uris":{"android":"levelo://app?vid=e055110e-8e50-4402-9b32-8745c1542d21","ios":"levelo://app?vid=e055110e-8e50-4402-9b32-8745c1542d21"},"vehicle_type_id":"4","last_reported":1738156546,"current_range_meters":37600,"station_id":"ce4bhi12rcd13ifvqfp0","pricing_plan_id":"cebpf4jnsgd1na2vs0mg"},{"bike_id":"4af47e37-e152-4ab1-a20e-15b113150682","system_id":"levelo_inurba_marseille","lat":43.3055,"lon":5.36718,"is_reserved":false,"is_disabled":false,"rental_uris":{"android":"levelo://app?vid=4af47e37-e152-4ab1-a20e-15b113150682","ios":"levelo://app?vid=4af47e37-e152-4ab1-a20e-15b113150682"},"vehicle_type_id":"4","last_reported":1738156546,"current_range_meters":38800,"station_id":"ce4bgrp2rcd13ifvqc9g","pricing_plan_id":"cebpf4jnsgd1na2vs0mg"},{"bike_id":"2dfb15fe-ed9c-4a99-9533-901ea6e7f65a","system_id":"levelo_inurba_marseille","lat":43.3149,"lon":5.37306,"is_reserved":false,"is_disabled":false,"rental_uris":{"android":"levelo://app?vid=2dfb15fe-ed9c-4a99-9533-901ea6e7f65a","ios":"levelo://app?vid=2dfb15fe-ed9c-4a99-9533-901ea6e7f65a"},"vehicle_type_id":"4","last_reported":1738156546,"current_range_meters":21600,"station_id":"ce4bgt12rcd13ifvqcd0","pricing_plan_id":"cebpf4jnsgd1na2vs0mg"},{"bike_id":"6acd79e6-d07e-437a-b9ff-a79f21491a8c","system_id":"levelo_inurba_marseille","lat":43.32545,"lon":5.4144,"is_reserved":false,"is_disabled":false,"rental_uris":{"android":"levelo://app?vid=6acd79e6-d07e-437a-b9ff-a79f21491a8c","ios":"levelo://app?vid=6acd79e6-d07e-437a-b9ff-a79f21491a8c"},"vehicle_type_id":"4","last_reported":1738156546,"current_range_meters":38800,"station_id":"ce4bhq12rcd13ifvqhhg","pricing_plan_id":"cebpf4jnsgd1na2vs0mg"},{"bike_id":"a99754b0-533c-4b68-ad89-42118685fbc7","system_id":"levelo_inurba_marseille","lat":43.28,"lon":5.4167,"is_reserved":false,"is_disabled":false,"rental_uris":{"android":"levelo://app?vid=a99754b0-533c-4b68-ad89-42118685fbc7","ios":"levelo://app?vid=a99754b0-533c-4b68-ad89-42118685fbc7"},"vehicle_type_id":"4","last_reported":1738156546,"current_range_meters":24400,"station_id":"ce4bho12rcd13ifvqh1g","pricing_plan_id":"cebpf4jnsgd1na2vs0mg"},{"bike_id":"3f2c69f0-bf94-4b26-b406-de5d8e36f881","system_id":"levelo_inurba_marseille","lat":43.304477,"lon":5.373343,"is_reserved":false,"is_disabled":false,"rental_uris":{"android":"levelo://app?vid=3f2c69f0-bf94-4b26-b406-de5d8e36f881","ios":"levelo://app?vid=3f2c69f0-bf94-4b26-b406-de5d8e36f881"},"vehicle_type_id":"4","last_reported":1738156546,"current_range_meters":19600,"station_id":"ce4bgt92rcd13ifvqcg0","pricing_plan_id":"cebpf4jnsgd1na2vs0mg"},{"bike_id":"cbd1d28d-8e7e-433b-8441-fc41990c6634","system_id":"levelo_inurba_marseille","lat":43.2916,"lon":5.37155,"is_reserved":false,"is_disabled":false,"rental_uris":{"android":"levelo://app?vid=cbd1d28d-8e7e-433b-8441-fc41990c6634","ios":"levelo://app?vid=cbd1d28d-8e7e-433b-8441-fc41990c6634"},"vehicle_type_id":"4","last_reported":1738156546,"current_range_meters":38000,"station_id":"ce4bha92rcd13ifvqeh0","pricing_plan_id":"cebpf4jnsgd1na2vs0mg"},{"bike_id":"a217eca2-76bf-464c-aef5-0f63397f1780","system_id":"levelo_inurba_marseille","lat":43.29892,"lon":5.43653,"is_reserved":false,"is_disabled":false,"rental_uris":{"android":"levelo://app?vid=a217eca2-76bf-464c-aef5-0f63397f1780","ios":"levelo://app?vid=a217eca2-76bf-464c-aef5-0f63397f1780"},"vehicle_type_id":"4","last_reported":1738156546,"current_range_meters":15200,"station_id":"ce4bhpp2rcd13ifvqhfg","pricing_plan_id":"cebpf4jnsgd1na2vs0mg"},{"bike_id":"6087eac1-5596-4bac-81f3-6e4270a420d5","system_id":"levelo_inurba_marseille","lat":43.29791,"lon":5.37274,"is_reserved":false,"is_disabled":false,"rental_uris":{"android":"levelo://app?vid=6087eac1-5596-4bac-81f3-6e4270a420d5","ios":"levelo://app?vid=6087eac1-5596-4bac-81f3-6e4270a420d5"},"vehicle_type_id":"4","last_reported":1738156546,"current_range_meters":4800,"station_id":"","pricing_plan_id":"cebpf4jnsgd1na2vs0mg"},{"bike_id":"6154358a-439a-46b5-9df8-fc726363e491","system_id":"levelo_inurba_marseille","lat":43.2886,"lon":5.38438,"is_reserved":false,"is_disabled":false,"rental_uris":{"android":"levelo://app?vid=6154358a-439a-46b5-9df8-fc726363e491","ios":"levelo://app?vid=6154358a-439a-46b5-9df8-fc726363e491"},"vehicle_type_id":"4","last_reported":1738156546,"current_range_meters":8000,"station_id":"","pricing_plan_id":"cebpf4jnsgd1na2vs0mg"},{"bike_id":"9838cc78-2b53-49d3-ae13-82df62c4fd64","system_id":"levelo_inurba_marseille","lat":43.28412,"lon":5.40934,"is_reserved":false,"is_disabled":true,"rental_uris":{"android":"levelo://app?vid=9838cc78-2b53-49d3-ae13-82df62c4fd64","ios":"levelo://app?vid=9838cc78-2b53-49d3-ae13-82df62c4fd64"},"vehicle_type_id":"4","last_reported":1738156546,"current_range_meters":0,"station_id":"","pricing_plan_id":"cebpf4jnsgd1na2vs0mg"},{"bike_id":"a765fe06-018c-4a73-898c-2082c09f528c","system_id":"levelo_inurba_marseille","lat":43.27194,"lon":5.40981,"is_reserved":false,"is_disabled":false,"rental_uris":{"android":"levelo://app?vid=a765fe06-018c-4a73-898c-2082c09f528c","ios":"levelo://app?vid=a765fe06-018c-4a73-898c-2082c09f528c"},"vehicle_type_id":"4","last_reported":1738156546,"current_range_meters":27600,"station_id":"ce4bhl12rcd13ifvqgf0","pricing_plan_id":"cebpf4jnsgd1na2vs0mg"},{"bike_id":"657875ac-b7c9-40ba-9ddf-f88ae38c3ec1","system_id":"levelo_inurba_marseille","lat":43.31485,"lon":5.37305,"is_reserved":false,"is_disabled":true,"rental_uris":{"android":"levelo://app?vid=657875ac-b7c9-40ba-9ddf-f88ae38c3ec1","ios":"levelo://app?vid=657875ac-b7c9-40ba-9ddf-f88ae38c3ec1"},"vehicle_type_id":"4","last_reported":1738156546,"current_range_meters":1200,"station_id":"ce4bgt12rcd13ifvqcd0","pricing_plan_id":"cebpf4jnsgd1na2vs0mg"},{"bike_id":"44d70056-f722-4d8f-80f9-afd89c389591","system_id":"levelo_inurba_marseille","lat":43.33012,"lon":5.38998,"is_reserved":false,"is_disabled":false,"rental_uris":{"android":"levelo://app?vid=44d70056-f722-4d8f-80f9-afd89c389591","ios":"levelo://app?vid=44d70056-f722-4d8f-80f9-afd89c389591"},"vehicle_type_id":"4","last_reported":1738156546,"current_range_meters":16800,"station_id":"ce4bhr92rcd13ifvqhrg","pricing_plan_id":"cebpf4jnsgd1na2vs0mg"},{"bike_id":"c4b612cf-bd83-4c1a-9a6d-5ad5ed4741f9","system_id":"levelo_inurba_marseille","lat":43.27188,"lon":5.40976,"is_reserved":false,"is_disabled":false,"rental_uris":{"android":"levelo://app?vid=c4b612cf-bd83-4c1a-9a6d-5ad5ed4741f9","ios":"levelo://app?vid=c4b612cf-bd83-4c1a-9a6d-5ad5ed4741f9"},"vehicle_type_id":"4","last_reported":1738156546,"current_range_meters":30800,"station_id":"ce4bhl12rcd13ifvqgf0","pricing_plan_id":"cebpf4jnsgd1na2vs0mg"},{"bike_id":"cebc1cc3-2475-48cb-aa41-05d47858d44e","system_id":"levelo_inurba_marseille","lat":43.2991,"lon":5.43661,"is_reserved":false,"is_disabled":false,"rental_uris":{"android":"levelo://app?vid=cebc1cc3-2475-48cb-aa41-05d47858d44e","ios":"levelo://app?vid=cebc1cc3-2475-48cb-aa41-05d47858d44e"},"vehicle_type_id":"4","last_reported":1738156546,"current_range_meters":27200,"station_id":"ce4bhpp2rcd13ifvqhfg","pricing_plan_id":"cebpf4jnsgd1na2vs0mg"},{"bike_id":"e358e4d6-8f5f-469b-beed-eded1e001bb0","system_id":"levelo_inurba_marseille","lat":43.29895,"lon":5.37486,"is_reserved":false,"is_disabled":false,"rental_uris":{"android":"levelo://app?vid=e358e4d6-8f5f-469b-beed-eded1e001bb0","ios":"levelo://app?vid=e358e4d6-8f5f-469b-beed-eded1e001bb0"},"vehicle_type_id":"4","last_reported":1738156546,"current_range_meters":14400,"station_id":"ce4bgjh2rcd13ifvqbg0","pricing_plan_id":"cebpf4jnsgd1na2vs0mg"},{"bike_id":"7191c8f0-5f6f-49ed-b937-3e0deb05e38b","system_id":"levelo_inurba_marseille","lat":43.31371,"lon":5.38498,"is_reserved":false,"is_disabled":true,"rental_uris":{"android":"levelo://app?vid=7191c8f0-5f6f-49ed-b937-3e0deb05e38b","ios":"levelo://app?vid=7191c8f0-5f6f-49ed-b937-3e0deb05e38b"},"vehicle_type_id":"4","last_reported":1738156546,"current_range_meters":2000,"station_id":"ce4bgt92rcd13ifvqcf0","pricing_plan_id":"cebpf4jnsgd1na2vs0mg"},{"bike_id":"d09fbc8b-1664-4bee-b0d4-ddf0f6322931","system_id":"levelo_inurba_marseille","lat":43.3055,"lon":5.36544,"is_reserved":false,"is_disabled":false,"rental_uris":{"android":"levelo://app?vid=d09fbc8b-1664-4bee-b0d4-ddf0f6322931","ios":"levelo://app?vid=d09fbc8b-1664-4bee-b0d4-ddf0f6322931"},"vehicle_type_id":"4","last_reported":1738156546,"current_range_meters":29600,"station_id":"ce4bgs12rcd13ifvqcag","pricing_plan_id":"cebpf4jnsgd1na2vs0mg"},{"bike_id":"45edd30c-4fe6-49c9-bb7c-f2a7f04f52ad","system_id":"levelo_inurba_marseille","lat":43.28266,"lon":5.3506,"is_reserved":false,"is_disabled":true,"rental_uris":{"android":"levelo://app?vid=45edd30c-4fe6-49c9-bb7c-f2a7f04f52ad","ios":"levelo://app?vid=45edd30c-4fe6-49c9-bb7c-f2a7f04f52ad"},"vehicle_type_id":"4","last_reported":1738156546,"current_range_meters":1600,"station_id":"ce4bhbp2rcd13ifvqerg","pricing_plan_id":"cebpf4jnsgd1na2vs0mg"},{"bike_id":"edeaf80b-3d9a-43b0-a625-44cf3eecc846","system_id":"levelo_inurba_marseille","lat":43.2797,"lon":5.38728,"is_reserved":false,"is_disabled":false,"rental_uris":{"android":"levelo://app?vid=edeaf80b-3d9a-43b0-a625-44cf3eecc846","ios":"levelo://app?vid=edeaf80b-3d9a-43b0-a625-44cf3eecc846"},"vehicle_type_id":"4","last_reported":1738156546,"current_range_meters":20800,"station_id":"ce4bhg12rcd13ifvqf80","pricing_plan_id":"cebpf4jnsgd1na2vs0mg"},{"bike_id":"07556ea4-01ed-4d53-81d9-893d9b6d23fa","system_id":"levelo_inurba_marseille","lat":43.23151,"lon":5.43703,"is_reserved":false,"is_disabled":false,"rental_uris":{"android":"levelo://app?vid=07556ea4-01ed-4d53-81d9-893d9b6d23fa","ios":"levelo://app?vid=07556ea4-01ed-4d53-81d9-893d9b6d23fa"},"vehicle_type_id":"4","last_reported":1738156546,"current_range_meters":12000,"station_id":"ce4bhmp2rcd13ifvqgog","pricing_plan_id":"cebpf4jnsgd1na2vs0mg"},{"bike_id":"542c2176-6593-4f82-a71f-f1de3a92562f","system_id":"levelo_inurba_marseille","lat":43.229301,"lon":5.353802,"is_reserved":false,"is_disabled":false,"rental_uris":{"android":"levelo://app?vid=542c2176-6593-4f82-a71f-f1de3a92562f","ios":"levelo://app?vid=542c2176-6593-4f82-a71f-f1de3a92562f"},"vehicle_type_id":"4","last_reported":1738156546,"current_range_meters":38800,"station_id":"cpo3532slgdg3j2ikp40","pricing_plan_id":"cebpf4jnsgd1na2vs0mg"},{"bike_id":"6077467c-7074-4f45-87db-adb3cf561683","system_id":"levelo_inurba_marseille","lat":43.294204,"lon":5.386116,"is_reserved":false,"is_disabled":true,"rental_uris":{"android":"levelo://app?vid=6077467c-7074-4f45-87db-adb3cf561683","ios":"levelo://app?vid=6077467c-7074-4f45-87db-adb3cf561683"},"vehicle_type_id":"4","last_reported":1738156546,"current_range_meters":18800,"station_id":"ce4bh2h2rcd13ifvqdh0","pricing_plan_id":"cebpf4jnsgd1na2vs0mg"},{"bike_id":"c866490c-e315-4375-b761-f62fbbfce75e","system_id":"levelo_inurba_marseille","lat":43.24381,"lon":5.37057,"is_reserved":false,"is_disabled":false,"rental_uris":{"android":"levelo://app?vid=c866490c-e315-4375-b761-f62fbbfce75e","ios":"levelo://app?vid=c866490c-e315-4375-b761-f62fbbfce75e"},"vehicle_type_id":"4","last_reported":1738156546,"current_range_meters":38800,"station_id":"ce4bhhh2rcd13ifvqfk0","pricing_plan_id":"cebpf4jnsgd1na2vs0mg"},{"bike_id":"10f0f636-63cb-4533-aaca-23051387d623","system_id":"levelo_inurba_marseille","lat":43.30304,"lon":5.36902,"is_reserved":false,"is_disabled":false,"rental_uris":{"android":"levelo://app?vid=10f0f636-63cb-4533-aaca-23051387d623","ios":"levelo://app?vid=10f0f636-63cb-4533-aaca-23051387d623"},"vehicle_type_id":"4","last_reported":1738156546,"current_range_meters":22800,"station_id":"ce4bgqh2rcd13ifvqc5g","pricing_plan_id":"cebpf4jnsgd1na2vs0mg"},{"bike_id":"d979d8d2-ec65-47af-9229-e4270aab279a","system_id":"levelo_inurba_marseille","lat":43.23061,"lon":5.35482,"is_reserved":false,"is_disabled":false,"rental_uris":{"android":"levelo://app?vid=d979d8d2-ec65-47af-9229-e4270aab279a","ios":"levelo://app?vid=d979d8d2-ec65-47af-9229-e4270aab279a"},"vehicle_type_id":"4","last_reported":1738156546,"current_range_meters":19200,"station_id":"cpo3342slgdg3j2ifvpg","pricing_plan_id":"cebpf4jnsgd1na2vs0mg"},{"bike_id":"beec82ff-6bac-4064-befa-4bdf4421761b","system_id":"levelo_inurba_marseille","lat":43.31731,"lon":5.42427,"is_reserved":false,"is_disabled":false,"rental_uris":{"android":"levelo://app?vid=beec82ff-6bac-4064-befa-4bdf4421761b","ios":"levelo://app?vid=beec82ff-6bac-4064-befa-4bdf4421761b"},"vehicle_type_id":"4","last_reported":1738156546,"current_range_meters":36000,"station_id":"ce4bhp92rcd13ifvqhbg","pricing_plan_id":"cebpf4jnsgd1na2vs0mg"},{"bike_id":"50a08572-efc0-46a7-a674-5b7f9d217ef3","system_id":"levelo_inurba_marseille","lat":43.28944,"lon":5.38382,"is_reserved":false,"is_disabled":false,"rental_uris":{"android":"levelo://app?vid=50a08572-efc0-46a7-a674-5b7f9d217ef3","ios":"levelo://app?vid=50a08572-efc0-46a7-a674-5b7f9d217ef3"},"vehicle_type_id":"4","last_reported":1738156546,"current_range_meters":32400,"station_id":"ce4bh612rcd13ifvqe6g","pricing_plan_id":"cebpf4jnsgd1na2vs0mg"},{"bike_id":"64be77f4-07a5-4d4b-b2d0-0608076ab689","system_id":"levelo_inurba_marseille","lat":43.303,"lon":5.37717,"is_reserved":false,"is_disabled":false,"rental_uris":{"android":"levelo://app?vid=64be77f4-07a5-4d4b-b2d0-0608076ab689","ios":"levelo://app?vid=64be77f4-07a5-4d4b-b2d0-0608076ab689"},"vehicle_type_id":"4","last_reported":1738156546,"current_range_meters":39200,"station_id":"ce4bguh2rcd13ifvqcj0","pricing_plan_id":"cebpf4jnsgd1na2vs0mg"},{"bike_id":"8400d4d1-f3a9-4908-b181-0eb6fc5d39c8","system_id":"levelo_inurba_marseille","lat":43.30553,"lon":5.36711,"is_reserved":false,"is_disabled":false,"rental_uris":{"android":"levelo://app?vid=8400d4d1-f3a9-4908-b181-0eb6fc5d39c8","ios":"levelo://app?vid=8400d4d1-f3a9-4908-b181-0eb6fc5d39c8"},"vehicle_type_id":"4","last_reported":1738156546,"current_range_meters":26000,"station_id":"ce4bgrp2rcd13ifvqc9g","pricing_plan_id":"cebpf4jnsgd1na2vs0mg"},{"bike_id":"88c2cc5d-a997-4eed-9b83-e8bd270b37db","system_id":"levelo_inurba_marseille","lat":43.34141,"lon":5.40903,"is_reserved":false,"is_disabled":false,"rental_uris":{"android":"levelo://app?vid=88c2cc5d-a997-4eed-9b83-e8bd270b37db","ios":"levelo://app?vid=88c2cc5d-a997-4eed-9b83-e8bd270b37db"},"vehicle_type_id":"4","last_reported":1738156546,"current_range_meters":20400,"station_id":"ce4bhqh2rcd13ifvqhlg","pricing_plan_id":"cebpf4jnsgd1na2vs0mg"},{"bike_id":"fd1b0acf-be7b-4b50-80ff-b4d511d71416","system_id":"levelo_inurba_marseille","lat":43.31346,"lon":5.36722,"is_reserved":false,"is_disabled":false,"rental_uris":{"android":"levelo://app?vid=fd1b0acf-be7b-4b50-80ff-b4d511d71416","ios":"levelo://app?vid=fd1b0acf-be7b-4b50-80ff-b4d511d71416"},"vehicle_type_id":"4","last_reported":1738156546,"current_range_meters":12000,"station_id":"ce4bgr92rcd13ifvqc6g","pricing_plan_id":"cebpf4jnsgd1na2vs0mg"},{"bike_id":"815df10a-417d-4ac6-a444-446308a0c916","system_id":"levelo_inurba_marseille","lat":43.27374,"lon":5.36232,"is_reserved":false,"is_disabled":true,"rental_uris":{"android":"levelo://app?vid=815df10a-417d-4ac6-a444-446308a0c916","ios":"levelo://app?vid=815df10a-417d-4ac6-a444-446308a0c916"},"vehicle_type_id":"4","last_reported":1738156546,"current_range_meters":0,"station_id":"ce4bhbh2rcd13ifvqeo0","pricing_plan_id":"cebpf4jnsgd1na2vs0mg"},{"bike_id":"21de2bae-9766-4068-87d6-cd368a9d7930","system_id":"levelo_inurba_marseille","lat":43.25116,"lon":5.40322,"is_reserved":false,"is_disabled":false,"rental_uris":{"android":"levelo://app?vid=21de2bae-9766-4068-87d6-cd368a9d7930","ios":"levelo://app?vid=21de2bae-9766-4068-87d6-cd368a9d7930"},"vehicle_type_id":"4","last_reported":1738156546,"current_range_meters":32000,"station_id":"ce4bhlh2rcd13ifvqgig","pricing_plan_id":"cebpf4jnsgd1na2vs0mg"},{"bike_id":"d8b1c3f9-ff6e-4179-8423-4ba0d2a2af0e","system_id":"levelo_inurba_marseille","lat":43.33721,"lon":5.39182,"is_reserved":false,"is_disabled":false,"rental_uris":{"android":"levelo://app?vid=d8b1c3f9-ff6e-4179-8423-4ba0d2a2af0e","ios":"levelo://app?vid=d8b1c3f9-ff6e-4179-8423-4ba0d2a2af0e"},"vehicle_type_id":"4","last_reported":1738156546,"current_range_meters":38800,"station_id":"ce4bhr92rcd13ifvqhsg","pricing_plan_id":"cebpf4jnsgd1na2vs0mg"},{"bike_id":"a63e499b-a728-46d1-a9cf-1b94bba8e8a7","system_id":"levelo_inurba_marseille","lat":43.286996,"lon":5.373849,"is_reserved":false,"is_disabled":false,"rental_uris":{"android":"levelo://app?vid=a63e499b-a728-46d1-a9cf-1b94bba8e8a7","ios":"levelo://app?vid=a63e499b-a728-46d1-a9cf-1b94bba8e8a7"},"vehicle_type_id":"4","last_reported":1738156546,"current_range_meters":19600,"station_id":"ce4bh3p2rcd13ifvqdq0","pricing_plan_id":"cebpf4jnsgd1na2vs0mg"},{"bike_id":"b096dde7-0293-4b8c-aabb-a8806716e559","system_id":"levelo_inurba_marseille","lat":43.26693,"lon":5.38279,"is_reserved":false,"is_disabled":true,"rental_uris":{"android":"levelo://app?vid=b096dde7-0293-4b8c-aabb-a8806716e559","ios":"levelo://app?vid=b096dde7-0293-4b8c-aabb-a8806716e559"},"vehicle_type_id":"4","last_reported":1738156546,"current_range_meters":1600,"station_id":"ce4bhg92rcd13ifvqf90","pricing_plan_id":"cebpf4jnsgd1na2vs0mg"},{"bike_id":"7074e7c5-102e-4752-aae6-a8d5618dff3c","system_id":"levelo_inurba_marseille","lat":43.32998,"lon":5.39027,"is_reserved":false,"is_disabled":false,"rental_uris":{"android":"levelo://app?vid=7074e7c5-102e-4752-aae6-a8d5618dff3c","ios":"levelo://app?vid=7074e7c5-102e-4752-aae6-a8d5618dff3c"},"vehicle_type_id":"4","last_reported":1738156546,"current_range_meters":38000,"station_id":"ce4bhr92rcd13ifvqhrg","pricing_plan_id":"cebpf4jnsgd1na2vs0mg"},{"bike_id":"91394c05-5d2c-4802-8f5f-6f60929bbe7d","system_id":"levelo_inurba_marseille","lat":43.26776,"lon":5.39421,"is_reserved":false,"is_disabled":false,"rental_uris":{"android":"levelo://app?vid=91394c05-5d2c-4802-8f5f-6f60929bbe7d","ios":"levelo://app?vid=91394c05-5d2c-4802-8f5f-6f60929bbe7d"},"vehicle_type_id":"4","last_reported":1738156546,"current_range_meters":37600,"station_id":"ce4bhh12rcd13ifvqfg0","pricing_plan_id":"cebpf4jnsgd1na2vs0mg"},{"bike_id":"ba097584-3afc-4ac8-959a-b196fa7f6cd5","system_id":"levelo_inurba_marseille","lat":43.31355,"lon":5.3675,"is_reserved":false,"is_disabled":false,"rental_uris":{"android":"levelo://app?vid=ba097584-3afc-4ac8-959a-b196fa7f6cd5","ios":"levelo://app?vid=ba097584-3afc-4ac8-959a-b196fa7f6cd5"},"vehicle_type_id":"4","last_reported":1738156546,"current_range_meters":24800,"station_id":"ce4bgr92rcd13ifvqc6g","pricing_plan_id":"cebpf4jnsgd1na2vs0mg"},{"bike_id":"e93b966f-bdcb-4618-bc04-d356b15b9050","system_id":"levelo_inurba_marseille","lat":43.25832,"lon":5.3943,"is_reserved":false,"is_disabled":false,"rental_uris":{"android":"levelo://app?vid=e93b966f-bdcb-4618-bc04-d356b15b9050","ios":"levelo://app?vid=e93b966f-bdcb-4618-bc04-d356b15b9050"},"vehicle_type_id":"4","last_reported":1738156546,"current_range_meters":32000,"station_id":"ce4bhip2rcd13ifvqft0","pricing_plan_id":"cebpf4jnsgd1na2vs0mg"},{"bike_id":"f4dd74a9-a4e1-4171-8564-2f3d5f39ace6","system_id":"levelo_inurba_marseille","lat":43.27833,"lon":5.40714,"is_reserved":false,"is_disabled":false,"rental_uris":{"android":"levelo://app?vid=f4dd74a9-a4e1-4171-8564-2f3d5f39ace6","ios":"levelo://app?vid=f4dd74a9-a4e1-4171-8564-2f3d5f39ace6"},"vehicle_type_id":"4","last_reported":1738156546,"current_range_meters":36400,"station_id":"ce4bhnh2rcd13ifvqgtg","pricing_plan_id":"cebpf4jnsgd1na2vs0mg"},{"bike_id":"16768b4a-48a5-40c7-a225-b9d927de544d","system_id":"levelo_inurba_marseille","lat":43.27076,"lon":5.42278,"is_reserved":false,"is_disabled":false,"rental_uris":{"android":"levelo://app?vid=16768b4a-48a5-40c7-a225-b9d927de544d","ios":"levelo://app?vid=16768b4a-48a5-40c7-a225-b9d927de544d"},"vehicle_type_id":"4","last_reported":1738156546,"current_range_meters":37600,"station_id":"ce4bhk92rcd13ifvqgb0","pricing_plan_id":"cebpf4jnsgd1na2vs0mg"},{"bike_id":"3c9c9088-9c27-4609-bc62-8218c0dc2be8","system_id":"levelo_inurba_marseille","lat":43.23206,"lon":5.35556,"is_reserved":false,"is_disabled":false,"rental_uris":{"android":"levelo://app?vid=3c9c9088-9c27-4609-bc62-8218c0dc2be8","ios":"levelo://app?vid=3c9c9088-9c27-4609-bc62-8218c0dc2be8"},"vehicle_type_id":"4","last_reported":1738156546,"current_range_meters":30400,"station_id":"ce4bhu92rcd13ifvqi70","pricing_plan_id":"cebpf4jnsgd1na2vs0mg"},{"bike_id":"e658b7fe-f35b-4a53-9343-4b90e481c9f9","system_id":"levelo_inurba_marseille","lat":43.30553,"lon":5.36536,"is_reserved":false,"is_disabled":false,"rental_uris":{"android":"levelo://app?vid=e658b7fe-f35b-4a53-9343-4b90e481c9f9","ios":"levelo://app?vid=e658b7fe-f35b-4a53-9343-4b90e481c9f9"},"vehicle_type_id":"4","last_reported":1738156546,"current_range_meters":31200,"station_id":"ce4bgs12rcd13ifvqcag","pricing_plan_id":"cebpf4jnsgd1na2vs0mg"},{"bike_id":"0fae8589-b80b-4832-a94c-5a9859038264","system_id":"levelo_inurba_marseille","lat":43.3014,"lon":5.3985,"is_reserved":false,"is_disabled":false,"rental_uris":{"android":"levelo://app?vid=0fae8589-b80b-4832-a94c-5a9859038264","ios":"levelo://app?vid=0fae8589-b80b-4832-a94c-5a9859038264"},"vehicle_type_id":"4","last_reported":1738156546,"current_range_meters":38000,"station_id":"ce4bh0h2rcd13ifvqd40","pricing_plan_id":"cebpf4jnsgd1na2vs0mg"},{"bike_id":"fcad0249-1559-40ed-96d4-2561e5236abe","system_id":"levelo_inurba_marseille","lat":43.27325,"lon":5.39067,"is_reserved":false,"is_disabled":false,"rental_uris":{"android":"levelo://app?vid=fcad0249-1559-40ed-96d4-2561e5236abe","ios":"levelo://app?vid=fcad0249-1559-40ed-96d4-2561e5236abe"},"vehicle_type_id":"4","last_reported":1738156546,"current_range_meters":36800,"station_id":"ce4bhgp2rcd13ifvqfe0","pricing_plan_id":"cebpf4jnsgd1na2vs0mg"},{"bike_id":"15af56a0-50cc-4287-938a-57061c15f0c6","system_id":"levelo_inurba_marseille","lat":43.33001,"lon":5.39053,"is_reserved":false,"is_disabled":false,"rental_uris":{"android":"levelo://app?vid=15af56a0-50cc-4287-938a-57061c15f0c6","ios":"levelo://app?vid=15af56a0-50cc-4287-938a-57061c15f0c6"},"vehicle_type_id":"4","last_reported":1738156546,"current_range_meters":30800,"station_id":"ce4bhr92rcd13ifvqhrg","pricing_plan_id":"cebpf4jnsgd1na2vs0mg"},{"bike_id":"e83347d4-304c-4eb0-afec-ba22257148d3","system_id":"levelo_inurba_marseille","lat":43.26226,"lon":5.37914,"is_reserved":false,"is_disabled":false,"rental_uris":{"android":"levelo://app?vid=e83347d4-304c-4eb0-afec-ba22257148d3","ios":"levelo://app?vid=e83347d4-304c-4eb0-afec-ba22257148d3"},"vehicle_type_id":"4","last_reported":1738156546,"current_range_meters":30400,"station_id":"ce4bhjp2rcd13ifvqg90","pricing_plan_id":"cebpf4jnsgd1na2vs0mg"},{"bike_id":"bd3c5c1a-e849-4df0-a253-a32ff2a29756","system_id":"levelo_inurba_marseille","lat":43.25106,"lon":5.40325,"is_reserved":false,"is_disabled":false,"rental_uris":{"android":"levelo://app?vid=bd3c5c1a-e849-4df0-a253-a32ff2a29756","ios":"levelo://app?vid=bd3c5c1a-e849-4df0-a253-a32ff2a29756"},"vehicle_type_id":"4","last_reported":1738156546,"current_range_meters":16400,"station_id":"ce4bhlh2rcd13ifvqgig","pricing_plan_id":"cebpf4jnsgd1na2vs0mg"},{"bike_id":"72b1f73d-6a0a-412b-9138-c5c55f5cb606","system_id":"levelo_inurba_marseille","lat":43.29275,"lon":5.36852,"is_reserved":false,"is_disabled":false,"rental_uris":{"android":"levelo://app?vid=72b1f73d-6a0a-412b-9138-c5c55f5cb606","ios":"levelo://app?vid=72b1f73d-6a0a-412b-9138-c5c55f5cb606"},"vehicle_type_id":"4","last_reported":1738156546,"current_range_meters":28000,"station_id":"ce4bhbp2rcd13ifvqesg","pricing_plan_id":"cebpf4jnsgd1na2vs0mg"},{"bike_id":"7427c665-2cc8-4882-8959-647a0d86024a","system_id":"levelo_inurba_marseille","lat":43.30359,"lon":5.41851,"is_reserved":false,"is_disabled":false,"rental_uris":{"android":"levelo://app?vid=7427c665-2cc8-4882-8959-647a0d86024a","ios":"levelo://app?vid=7427c665-2cc8-4882-8959-647a0d86024a"},"vehicle_type_id":"4","last_reported":1738156546,"current_range_meters":38800,"station_id":"ce4bhop2rcd13ifvqh7g","pricing_plan_id":"cebpf4jnsgd1na2vs0mg"},{"bike_id":"53d46465-1c69-4274-9bb5-d6a4feb5e603","system_id":"levelo_inurba_marseille","lat":43.313404,"lon":5.367249,"is_reserved":false,"is_disabled":false,"rental_uris":{"android":"levelo://app?vid=53d46465-1c69-4274-9bb5-d6a4feb5e603","ios":"levelo://app?vid=53d46465-1c69-4274-9bb5-d6a4feb5e603"},"vehicle_type_id":"4","last_reported":1738156546,"current_range_meters":38800,"station_id":"ce4bgr92rcd13ifvqc6g","pricing_plan_id":"cebpf4jnsgd1na2vs0mg"},{"bike_id":"d19234ed-7d88-47e6-9566-ffdb11469076","system_id":"levelo_inurba_marseille","lat":43.29306,"lon":5.37454,"is_reserved":false,"is_disabled":false,"rental_uris":{"android":"levelo://app?vid=d19234ed-7d88-47e6-9566-ffdb11469076","ios":"levelo://app?vid=d19234ed-7d88-47e6-9566-ffdb11469076"},"vehicle_type_id":"4","last_reported":1738156546,"current_range_meters":39200,"station_id":"ce4bgi12rcd13ifvqb70","pricing_plan_id":"cebpf4jnsgd1na2vs0mg"},{"bike_id":"763fb187-2b7c-4ebc-b96c-4eab3c1a2944","system_id":"levelo_inurba_marseille","lat":43.29722,"lon":5.36605,"is_reserved":false,"is_disabled":false,"rental_uris":{"android":"levelo://app?vid=763fb187-2b7c-4ebc-b96c-4eab3c1a2944","ios":"levelo://app?vid=763fb187-2b7c-4ebc-b96c-4eab3c1a2944"},"vehicle_type_id":"4","last_reported":1738156546,"current_range_meters":38800,"station_id":"ce4bgn12rcd13ifvqbt0","pricing_plan_id":"cebpf4jnsgd1na2vs0mg"},{"bike_id":"05b11dd3-6a9c-4f38-8b8d-f8ec90669833","system_id":"levelo_inurba_marseille","lat":43.33604,"lon":5.41033,"is_reserved":false,"is_disabled":false,"rental_uris":{"android":"levelo://app?vid=05b11dd3-6a9c-4f38-8b8d-f8ec90669833","ios":"levelo://app?vid=05b11dd3-6a9c-4f38-8b8d-f8ec90669833"},"vehicle_type_id":"4","last_reported":1738156546,"current_range_meters":38800,"station_id":"ce4bhqh2rcd13ifvqhmg","pricing_plan_id":"cebpf4jnsgd1na2vs0mg"},{"bike_id":"8813469c-333b-4e6e-b9ff-34491d7c3830","system_id":"levelo_inurba_marseille","lat":43.27501,"lon":5.42442,"is_reserved":false,"is_disabled":false,"rental_uris":{"android":"levelo://app?vid=8813469c-333b-4e6e-b9ff-34491d7c3830","ios":"levelo://app?vid=8813469c-333b-4e6e-b9ff-34491d7c3830"},"vehicle_type_id":"4","last_reported":1738156546,"current_range_meters":38400,"station_id":"ce4bhn92rcd13ifvqgrg","pricing_plan_id":"cebpf4jnsgd1na2vs0mg"},{"bike_id":"26a2526c-def2-4237-a6aa-da9ae2b42975","system_id":"levelo_inurba_marseille","lat":43.28663,"lon":5.36353,"is_reserved":false,"is_disabled":false,"rental_uris":{"android":"levelo://app?vid=26a2526c-def2-4237-a6aa-da9ae2b42975","ios":"levelo://app?vid=26a2526c-def2-4237-a6aa-da9ae2b42975"},"vehicle_type_id":"4","last_reported":1738156546,"current_range_meters":8000,"station_id":"ce4bhah2rcd13ifvqej0","pricing_plan_id":"cebpf4jnsgd1na2vs0mg"},{"bike_id":"ab2c796a-c23b-4a3a-9534-777b873d6a05","system_id":"levelo_inurba_marseille","lat":43.24181,"lon":5.36403,"is_reserved":false,"is_disabled":false,"rental_uris":{"android":"levelo://app?vid=ab2c796a-c23b-4a3a-9534-777b873d6a05","ios":"levelo://app?vid=ab2c796a-c23b-4a3a-9534-777b873d6a05"},"vehicle_type_id":"4","last_reported":1738156546,"current_range_meters":16400,"station_id":"cpo36qri1sfpv3e86is0","pricing_plan_id":"cebpf4jnsgd1na2vs0mg"},{"bike_id":"6c477c9c-4c2c-4e15-a8a0-01489ce6534f","system_id":"levelo_inurba_marseille","lat":43.23954,"lon":5.36643,"is_reserved":false,"is_disabled":false,"rental_uris":{"android":"levelo://app?vid=6c477c9c-4c2c-4e15-a8a0-01489ce6534f","ios":"levelo://app?vid=6c477c9c-4c2c-4e15-a8a0-01489ce6534f"},"vehicle_type_id":"4","last_reported":1738156546,"current_range_meters":9600,"station_id":"ce4bhi12rcd13ifvqfp0","pricing_plan_id":"cebpf4jnsgd1na2vs0mg"},{"bike_id":"1ae0d9e2-f188-46c3-bfad-63b2aaa31071","system_id":"levelo_inurba_marseille","lat":43.29179,"lon":5.35809,"is_reserved":false,"is_disabled":false,"rental_uris":{"android":"levelo://app?vid=1ae0d9e2-f188-46c3-bfad-63b2aaa31071","ios":"levelo://app?vid=1ae0d9e2-f188-46c3-bfad-63b2aaa31071"},"vehicle_type_id":"4","last_reported":1738156546,"current_range_meters":38800,"station_id":"ce4bhb12rcd13ifvqel0","pricing_plan_id":"cebpf4jnsgd1na2vs0mg"},{"bike_id":"7023018f-a9cc-4d01-b59d-de75cc5a9d8d","system_id":"levelo_inurba_marseille","lat":43.30138,"lon":5.38102,"is_reserved":false,"is_disabled":false,"rental_uris":{"android":"levelo://app?vid=7023018f-a9cc-4d01-b59d-de75cc5a9d8d","ios":"levelo://app?vid=7023018f-a9cc-4d01-b59d-de75cc5a9d8d"},"vehicle_type_id":"4","last_reported":1738156546,"current_range_meters":33600,"station_id":"ce4bgjp2rcd13ifvqbh0","pricing_plan_id":"cebpf4jnsgd1na2vs0mg"},{"bike_id":"e17bae85-ac7a-4f85-afe6-b25e8db02192","system_id":"levelo_inurba_marseille","lat":43.31727,"lon":5.42395,"is_reserved":false,"is_disabled":false,"rental_uris":{"android":"levelo://app?vid=e17bae85-ac7a-4f85-afe6-b25e8db02192","ios":"levelo://app?vid=e17bae85-ac7a-4f85-afe6-b25e8db02192"},"vehicle_type_id":"4","last_reported":1738156546,"current_range_meters":36800,"station_id":"ce4bhp92rcd13ifvqhbg","pricing_plan_id":"cebpf4jnsgd1na2vs0mg"},{"bike_id":"4a4e6af2-809f-4485-a57c-5df9908c1ab8","system_id":"levelo_inurba_marseille","lat":43.30953,"lon":5.39036,"is_reserved":false,"is_disabled":false,"rental_uris":{"android":"levelo://app?vid=4a4e6af2-809f-4485-a57c-5df9908c1ab8","ios":"levelo://app?vid=4a4e6af2-809f-4485-a57c-5df9908c1ab8"},"vehicle_type_id":"4","last_reported":1738156546,"current_range_meters":8400,"station_id":"ce4bgup2rcd13ifvqco0","pricing_plan_id":"cebpf4jnsgd1na2vs0mg"},{"bike_id":"3fbf8eda-8f4a-4c14-bf0d-70d6eb38e532","system_id":"levelo_inurba_marseille","lat":43.29014,"lon":5.35618,"is_reserved":false,"is_disabled":false,"rental_uris":{"android":"levelo://app?vid=3fbf8eda-8f4a-4c14-bf0d-70d6eb38e532","ios":"levelo://app?vid=3fbf8eda-8f4a-4c14-bf0d-70d6eb38e532"},"vehicle_type_id":"4","last_reported":1738156546,"current_range_meters":33200,"station_id":"ce4bhb92rcd13ifvqen0","pricing_plan_id":"cebpf4jnsgd1na2vs0mg"},{"bike_id":"f0f07e84-01c4-443b-852b-4e00b882c1d8","system_id":"levelo_inurba_marseille","lat":43.30809,"lon":5.43516,"is_reserved":false,"is_disabled":false,"rental_uris":{"android":"levelo://app?vid=f0f07e84-01c4-443b-852b-4e00b882c1d8","ios":"levelo://app?vid=f0f07e84-01c4-443b-852b-4e00b882c1d8"},"vehicle_type_id":"4","last_reported":1738156546,"current_range_meters":38800,"station_id":"ce4bhph2rcd13ifvqheg","pricing_plan_id":"cebpf4jnsgd1na2vs0mg"},{"bike_id":"839ce8c4-e1b4-4ca7-9346-153bfdad2f4c","system_id":"levelo_inurba_marseille","lat":43.24388,"lon":5.37057,"is_reserved":false,"is_disabled":false,"rental_uris":{"android":"levelo://app?vid=839ce8c4-e1b4-4ca7-9346-153bfdad2f4c","ios":"levelo://app?vid=839ce8c4-e1b4-4ca7-9346-153bfdad2f4c"},"vehicle_type_id":"4","last_reported":1738156546,"current_range_meters":37600,"station_id":"ce4bhhh2rcd13ifvqfk0","pricing_plan_id":"cebpf4jnsgd1na2vs0mg"},{"bike_id":"dce5245e-eacd-4e71-b5ef-e376c8c2cbf7","system_id":"levelo_inurba_marseille","lat":43.3025,"lon":5.40045,"is_reserved":false,"is_disabled":false,"rental_uris":{"android":"levelo://app?vid=dce5245e-eacd-4e71-b5ef-e376c8c2cbf7","ios":"levelo://app?vid=dce5245e-eacd-4e71-b5ef-e376c8c2cbf7"},"vehicle_type_id":"4","last_reported":1738156546,"current_range_meters":17600,"station_id":"ce4bgvh2rcd13ifvqcs0","pricing_plan_id":"cebpf4jnsgd1na2vs0mg"},{"bike_id":"4e331cde-9b58-436f-9288-d266e9017c62","system_id":"levelo_inurba_marseille","lat":43.24193,"lon":5.39756,"is_reserved":false,"is_disabled":false,"rental_uris":{"android":"levelo://app?vid=4e331cde-9b58-436f-9288-d266e9017c62","ios":"levelo://app?vid=4e331cde-9b58-436f-9288-d266e9017c62"},"vehicle_type_id":"4","last_reported":1738156546,"current_range_meters":11600,"station_id":"ce4bhn12rcd13ifvqgpg","pricing_plan_id":"cebpf4jnsgd1na2vs0mg"},{"bike_id":"e6225d32-d899-44da-838c-c7bd5362528d","system_id":"levelo_inurba_marseille","lat":43.26508,"lon":5.39545,"is_reserved":false,"is_disabled":false,"rental_uris":{"android":"levelo://app?vid=e6225d32-d899-44da-838c-c7bd5362528d","ios":"levelo://app?vid=e6225d32-d899-44da-838c-c7bd5362528d"},"vehicle_type_id":"4","last_reported":1738156546,"current_range_meters":37600,"station_id":"ce4bhi12rcd13ifvqfq0","pricing_plan_id":"cebpf4jnsgd1na2vs0mg"},{"bike_id":"3afe2907-14fe-40b0-8ce8-247215ed16c8","system_id":"levelo_inurba_marseille","lat":43.26946,"lon":5.38945,"is_reserved":false,"is_disabled":true,"rental_uris":{"android":"levelo://app?vid=3afe2907-14fe-40b0-8ce8-247215ed16c8","ios":"levelo://app?vid=3afe2907-14fe-40b0-8ce8-247215ed16c8"},"vehicle_type_id":"4","last_reported":1738156546,"current_range_meters":4800,"station_id":"ce4bhhh2rcd13ifvqfl0","pricing_plan_id":"cebpf4jnsgd1na2vs0mg"},{"bike_id":"e8e1f7c6-d773-4c38-bfcc-4a6d773355ce","system_id":"levelo_inurba_marseille","lat":43.22943,"lon":5.35383,"is_reserved":false,"is_disabled":false,"rental_uris":{"android":"levelo://app?vid=e8e1f7c6-d773-4c38-bfcc-4a6d773355ce","ios":"levelo://app?vid=e8e1f7c6-d773-4c38-bfcc-4a6d773355ce"},"vehicle_type_id":"4","last_reported":1738156546,"current_range_meters":38800,"station_id":"cpo3532slgdg3j2ikp40","pricing_plan_id":"cebpf4jnsgd1na2vs0mg"},{"bike_id":"65a4fd37-d87a-41db-b970-5d3a9a8b7aa1","system_id":"levelo_inurba_marseille","lat":43.27619,"lon":5.36108,"is_reserved":false,"is_disabled":false,"rental_uris":{"android":"levelo://app?vid=65a4fd37-d87a-41db-b970-5d3a9a8b7aa1","ios":"levelo://app?vid=65a4fd37-d87a-41db-b970-5d3a9a8b7aa1"},"vehicle_type_id":"4","last_reported":1738156546,"current_range_meters":38800,"station_id":"ce4bgj92rcd13ifvqbe0","pricing_plan_id":"cebpf4jnsgd1na2vs0mg"},{"bike_id":"3db96b0b-b0cf-4283-a863-386edecd0027","system_id":"levelo_inurba_marseille","lat":43.23151,"lon":5.43731,"is_reserved":false,"is_disabled":false,"rental_uris":{"android":"levelo://app?vid=3db96b0b-b0cf-4283-a863-386edecd0027","ios":"levelo://app?vid=3db96b0b-b0cf-4283-a863-386edecd0027"},"vehicle_type_id":"4","last_reported":1738156546,"current_range_meters":18800,"station_id":"ce4bhmp2rcd13ifvqgog","pricing_plan_id":"cebpf4jnsgd1na2vs0mg"},{"bike_id":"e7bdfee9-7114-438e-a648-30f1818a3d1d","system_id":"levelo_inurba_marseille","lat":43.30324,"lon":5.40423,"is_reserved":false,"is_disabled":false,"rental_uris":{"android":"levelo://app?vid=e7bdfee9-7114-438e-a648-30f1818a3d1d","ios":"levelo://app?vid=e7bdfee9-7114-438e-a648-30f1818a3d1d"},"vehicle_type_id":"4","last_reported":1738156546,"current_range_meters":38800,"station_id":"ce4bh012rcd13ifvqd10","pricing_plan_id":"cebpf4jnsgd1na2vs0mg"},{"bike_id":"15a2534f-067f-4a6e-9a16-df5a009ee3a1","system_id":"levelo_inurba_marseille","lat":43.24807,"lon":5.3746,"is_reserved":false,"is_disabled":false,"rental_uris":{"android":"levelo://app?vid=15a2534f-067f-4a6e-9a16-df5a009ee3a1","ios":"levelo://app?vid=15a2534f-067f-4a6e-9a16-df5a009ee3a1"},"vehicle_type_id":"4","last_reported":1738156546,"current_range_meters":24000,"station_id":"ce4bhgh2rcd13ifvqfb0","pricing_plan_id":"cebpf4jnsgd1na2vs0mg"},{"bike_id":"5e0dcc46-b34b-4251-b7c6-c72d7dd6e2c0","system_id":"levelo_inurba_marseille","lat":43.279839,"lon":5.400159,"is_reserved":false,"is_disabled":true,"rental_uris":{"android":"levelo://app?vid=5e0dcc46-b34b-4251-b7c6-c72d7dd6e2c0","ios":"levelo://app?vid=5e0dcc46-b34b-4251-b7c6-c72d7dd6e2c0"},"vehicle_type_id":"4","last_reported":1738156546,"current_range_meters":38800,"station_id":"ce4bho92rcd13ifvqh4g","pricing_plan_id":"cebpf4jnsgd1na2vs0mg"},{"bike_id":"b54070eb-2a35-4b58-9236-d2a76833778e","system_id":"levelo_inurba_marseille","lat":43.25869,"lon":5.39903,"is_reserved":false,"is_disabled":false,"rental_uris":{"android":"levelo://app?vid=b54070eb-2a35-4b58-9236-d2a76833778e","ios":"levelo://app?vid=b54070eb-2a35-4b58-9236-d2a76833778e"},"vehicle_type_id":"4","last_reported":1738156546,"current_range_meters":37600,"station_id":"ce4bhl92rcd13ifvqghg","pricing_plan_id":"cebpf4jnsgd1na2vs0mg"},{"bike_id":"b44e55cf-bb88-4765-93bb-b3366d96aec2","system_id":"levelo_inurba_marseille","lat":43.27376,"lon":5.36236,"is_reserved":false,"is_disabled":true,"rental_uris":{"android":"levelo://app?vid=b44e55cf-bb88-4765-93bb-b3366d96aec2","ios":"levelo://app?vid=b44e55cf-bb88-4765-93bb-b3366d96aec2"},"vehicle_type_id":"4","last_reported":1738156546,"current_range_meters":800,"station_id":"ce4bhbh2rcd13ifvqeo0","pricing_plan_id":"cebpf4jnsgd1na2vs0mg"},{"bike_id":"9a6a3b93-b7a9-404c-bb2f-de811de243c6","system_id":"levelo_inurba_marseille","lat":43.30103,"lon":5.39083,"is_reserved":false,"is_disabled":false,"rental_uris":{"android":"levelo://app?vid=9a6a3b93-b7a9-404c-bb2f-de811de243c6","ios":"levelo://app?vid=9a6a3b93-b7a9-404c-bb2f-de811de243c6"},"vehicle_type_id":"4","last_reported":1738156546,"current_range_meters":38800,"station_id":"ce4bh192rcd13ifvqdb0","pricing_plan_id":"cebpf4jnsgd1na2vs0mg"},{"bike_id":"2ee01295-203c-44f2-acac-171d52e6945f","system_id":"levelo_inurba_marseille","lat":43.26796,"lon":5.39408,"is_reserved":false,"is_disabled":false,"rental_uris":{"android":"levelo://app?vid=2ee01295-203c-44f2-acac-171d52e6945f","ios":"levelo://app?vid=2ee01295-203c-44f2-acac-171d52e6945f"},"vehicle_type_id":"4","last_reported":1738156546,"current_range_meters":32400,"station_id":"ce4bhh12rcd13ifvqfg0","pricing_plan_id":"cebpf4jnsgd1na2vs0mg"},{"bike_id":"fdbf9199-fe1a-4626-b84d-2f0d79ac25c5","system_id":"levelo_inurba_marseille","lat":43.24545,"lon":5.39526,"is_reserved":false,"is_disabled":false,"rental_uris":{"android":"levelo://app?vid=fdbf9199-fe1a-4626-b84d-2f0d79ac25c5","ios":"levelo://app?vid=fdbf9199-fe1a-4626-b84d-2f0d79ac25c5"},"vehicle_type_id":"4","last_reported":1738156546,"current_range_meters":14000,"station_id":"ce4bhlp2rcd13ifvqgjg","pricing_plan_id":"cebpf4jnsgd1na2vs0mg"},{"bike_id":"dd195832-ff3f-4763-a260-74003ef7ff4c","system_id":"levelo_inurba_marseille","lat":43.292229,"lon":5.36047,"is_reserved":false,"is_disabled":false,"rental_uris":{"android":"levelo://app?vid=dd195832-ff3f-4763-a260-74003ef7ff4c","ios":"levelo://app?vid=dd195832-ff3f-4763-a260-74003ef7ff4c"},"vehicle_type_id":"4","last_reported":1738156546,"current_range_meters":33600,"station_id":"ce4bhbh2rcd13ifvqeqg","pricing_plan_id":"cebpf4jnsgd1na2vs0mg"},{"bike_id":"cf39b8f8-8782-424a-8003-82a2a3225368","system_id":"levelo_inurba_marseille","lat":43.31082,"lon":5.42438,"is_reserved":false,"is_disabled":false,"rental_uris":{"android":"levelo://app?vid=cf39b8f8-8782-424a-8003-82a2a3225368","ios":"levelo://app?vid=cf39b8f8-8782-424a-8003-82a2a3225368"},"vehicle_type_id":"4","last_reported":1738156546,"current_range_meters":30800,"station_id":"ce4bhp92rcd13ifvqhag","pricing_plan_id":"cebpf4jnsgd1na2vs0mg"},{"bike_id":"20787997-bce5-428a-9523-f277b90776a0","system_id":"levelo_inurba_marseille","lat":43.31072,"lon":5.38353,"is_reserved":false,"is_disabled":false,"rental_uris":{"android":"levelo://app?vid=20787997-bce5-428a-9523-f277b90776a0","ios":"levelo://app?vid=20787997-bce5-428a-9523-f277b90776a0"},"vehicle_type_id":"4","last_reported":1738156546,"current_range_meters":22000,"station_id":"ce4bgv92rcd13ifvqcr0","pricing_plan_id":"cebpf4jnsgd1na2vs0mg"},{"bike_id":"c1d1ce73-8f8f-42c4-8303-66858ad4f592","system_id":"levelo_inurba_marseille","lat":43.27496,"lon":5.42456,"is_reserved":false,"is_disabled":true,"rental_uris":{"android":"levelo://app?vid=c1d1ce73-8f8f-42c4-8303-66858ad4f592","ios":"levelo://app?vid=c1d1ce73-8f8f-42c4-8303-66858ad4f592"},"vehicle_type_id":"4","last_reported":1738156546,"current_range_meters":28000,"station_id":"ce4bhn92rcd13ifvqgrg","pricing_plan_id":"cebpf4jnsgd1na2vs0mg"},{"bike_id":"d9d8491a-b0aa-4bef-958c-74dfc36d5337","system_id":"levelo_inurba_marseille","lat":43.24539,"lon":5.39537,"is_reserved":false,"is_disabled":false,"rental_uris":{"android":"levelo://app?vid=d9d8491a-b0aa-4bef-958c-74dfc36d5337","ios":"levelo://app?vid=d9d8491a-b0aa-4bef-958c-74dfc36d5337"},"vehicle_type_id":"4","last_reported":1738156546,"current_range_meters":17200,"station_id":"ce4bhlp2rcd13ifvqgjg","pricing_plan_id":"cebpf4jnsgd1na2vs0mg"},{"bike_id":"71f34f72-d3b7-46a5-9bd4-1fe057b3152f","system_id":"levelo_inurba_marseille","lat":43.22929,"lon":5.35377,"is_reserved":false,"is_disabled":false,"rental_uris":{"android":"levelo://app?vid=71f34f72-d3b7-46a5-9bd4-1fe057b3152f","ios":"levelo://app?vid=71f34f72-d3b7-46a5-9bd4-1fe057b3152f"},"vehicle_type_id":"4","last_reported":1738156546,"current_range_meters":38800,"station_id":"cpo3532slgdg3j2ikp40","pricing_plan_id":"cebpf4jnsgd1na2vs0mg"},{"bike_id":"bcb037fb-7dd7-4722-b84f-e2dcaadbe5b6","system_id":"levelo_inurba_marseille","lat":43.29446,"lon":5.39747,"is_reserved":false,"is_disabled":false,"rental_uris":{"android":"levelo://app?vid=bcb037fb-7dd7-4722-b84f-e2dcaadbe5b6","ios":"levelo://app?vid=bcb037fb-7dd7-4722-b84f-e2dcaadbe5b6"},"vehicle_type_id":"4","last_reported":1738156546,"current_range_meters":33600,"station_id":"ce4bh3h2rcd13ifvqdo0","pricing_plan_id":"cebpf4jnsgd1na2vs0mg"},{"bike_id":"20029bdd-9f9c-4ff9-86e4-5ba6ed30f46a","system_id":"levelo_inurba_marseille","lat":43.23161,"lon":5.4372,"is_reserved":false,"is_disabled":true,"rental_uris":{"android":"levelo://app?vid=20029bdd-9f9c-4ff9-86e4-5ba6ed30f46a","ios":"levelo://app?vid=20029bdd-9f9c-4ff9-86e4-5ba6ed30f46a"},"vehicle_type_id":"4","last_reported":1738156546,"current_range_meters":0,"station_id":"ce4bhmp2rcd13ifvqgog","pricing_plan_id":"cebpf4jnsgd1na2vs0mg"},{"bike_id":"2985637e-2459-4dc7-806f-992191cb28e4","system_id":"levelo_inurba_marseille","lat":43.32051,"lon":5.41549,"is_reserved":false,"is_disabled":false,"rental_uris":{"android":"levelo://app?vid=2985637e-2459-4dc7-806f-992191cb28e4","ios":"levelo://app?vid=2985637e-2459-4dc7-806f-992191cb28e4"},"vehicle_type_id":"4","last_reported":1738156546,"current_range_meters":37600,"station_id":"ce4bhq92rcd13ifvqhkg","pricing_plan_id":"cebpf4jnsgd1na2vs0mg"},{"bike_id":"aa4f6ae5-d01b-4b01-be63-8c20aa761ad8","system_id":"levelo_inurba_marseille","lat":43.27415,"lon":5.39406,"is_reserved":false,"is_disabled":false,"rental_uris":{"android":"levelo://app?vid=aa4f6ae5-d01b-4b01-be63-8c20aa761ad8","ios":"levelo://app?vid=aa4f6ae5-d01b-4b01-be63-8c20aa761ad8"},"vehicle_type_id":"4","last_reported":1738156546,"current_range_meters":24000,"station_id":"ce4bhdp2rcd13ifvqf20","pricing_plan_id":"cebpf4jnsgd1na2vs0mg"},{"bike_id":"2c944d66-9d70-4828-8d86-94cdb71fa5ce","system_id":"levelo_inurba_marseille","lat":43.26191,"lon":5.37459,"is_reserved":false,"is_disabled":true,"rental_uris":{"android":"levelo://app?vid=2c944d66-9d70-4828-8d86-94cdb71fa5ce","ios":"levelo://app?vid=2c944d66-9d70-4828-8d86-94cdb71fa5ce"},"vehicle_type_id":"4","last_reported":1738156546,"current_range_meters":0,"station_id":"ce4bhgp2rcd13ifvqfc0","pricing_plan_id":"cebpf4jnsgd1na2vs0mg"},{"bike_id":"fca35355-d14c-4633-9b5c-7140e7fb44b0","system_id":"levelo_inurba_marseille","lat":43.29916,"lon":5.37475,"is_reserved":false,"is_disabled":false,"rental_uris":{"android":"levelo://app?vid=fca35355-d14c-4633-9b5c-7140e7fb44b0","ios":"levelo://app?vid=fca35355-d14c-4633-9b5c-7140e7fb44b0"},"vehicle_type_id":"4","last_reported":1738156546,"current_range_meters":34000,"station_id":"ce4bgjh2rcd13ifvqbg0","pricing_plan_id":"cebpf4jnsgd1na2vs0mg"},{"bike_id":"ac57c428-a19a-41cd-ba3c-9d46f04d1b63","system_id":"levelo_inurba_marseille","lat":43.25491,"lon":5.37648,"is_reserved":false,"is_disabled":false,"rental_uris":{"android":"levelo://app?vid=ac57c428-a19a-41cd-ba3c-9d46f04d1b63","ios":"levelo://app?vid=ac57c428-a19a-41cd-ba3c-9d46f04d1b63"},"vehicle_type_id":"4","last_reported":1738156546,"current_range_meters":34800,"station_id":"ce4bhh12rcd13ifvqff0","pricing_plan_id":"cebpf4jnsgd1na2vs0mg"},{"bike_id":"2ec84c22-8666-467b-b9ab-b38e4ac8ff9f","system_id":"levelo_inurba_marseille","lat":43.29912,"lon":5.43665,"is_reserved":false,"is_disabled":true,"rental_uris":{"android":"levelo://app?vid=2ec84c22-8666-467b-b9ab-b38e4ac8ff9f","ios":"levelo://app?vid=2ec84c22-8666-467b-b9ab-b38e4ac8ff9f"},"vehicle_type_id":"4","last_reported":1738156546,"current_range_meters":34000,"station_id":"ce4bhpp2rcd13ifvqhfg","pricing_plan_id":"cebpf4jnsgd1na2vs0mg"},{"bike_id":"3154e4d7-3621-464d-b456-ea323d2e489d","system_id":"levelo_inurba_marseille","lat":43.29286,"lon":5.37466,"is_reserved":false,"is_disabled":false,"rental_uris":{"android":"levelo://app?vid=3154e4d7-3621-464d-b456-ea323d2e489d","ios":"levelo://app?vid=3154e4d7-3621-464d-b456-ea323d2e489d"},"vehicle_type_id":"4","last_reported":1738156546,"current_range_meters":25600,"station_id":"ce4bgi12rcd13ifvqb70","pricing_plan_id":"cebpf4jnsgd1na2vs0mg"},{"bike_id":"f758916d-7680-40a3-9582-cd262e26db01","system_id":"levelo_inurba_marseille","lat":43.324777,"lon":5.36592,"is_reserved":false,"is_disabled":false,"rental_uris":{"android":"levelo://app?vid=f758916d-7680-40a3-9582-cd262e26db01","ios":"levelo://app?vid=f758916d-7680-40a3-9582-cd262e26db01"},"vehicle_type_id":"4","last_reported":1738156546,"current_range_meters":38800,"station_id":"ce4bhs12rcd13ifvqhvg","pricing_plan_id":"cebpf4jnsgd1na2vs0mg"},{"bike_id":"bdddf215-203d-43c3-93dc-953ad8b0e105","system_id":"levelo_inurba_marseille","lat":43.23189,"lon":5.39996,"is_reserved":false,"is_disabled":false,"rental_uris":{"android":"levelo://app?vid=bdddf215-203d-43c3-93dc-953ad8b0e105","ios":"levelo://app?vid=bdddf215-203d-43c3-93dc-953ad8b0e105"},"vehicle_type_id":"4","last_reported":1738156546,"current_range_meters":38800,"station_id":"ce4bhn12rcd13ifvqgqg","pricing_plan_id":"cebpf4jnsgd1na2vs0mg"},{"bike_id":"ff68af14-5554-4f8d-a3de-4549d987f602","system_id":"levelo_inurba_marseille","lat":43.29897,"lon":5.43673,"is_reserved":false,"is_disabled":false,"rental_uris":{"android":"levelo://app?vid=ff68af14-5554-4f8d-a3de-4549d987f602","ios":"levelo://app?vid=ff68af14-5554-4f8d-a3de-4549d987f602"},"vehicle_type_id":"4","last_reported":1738156546,"current_range_meters":31200,"station_id":"ce4bhpp2rcd13ifvqhfg","pricing_plan_id":"cebpf4jnsgd1na2vs0mg"},{"bike_id":"296acca2-a355-4830-bc97-a6939a85f573","system_id":"levelo_inurba_marseille","lat":43.25562,"lon":5.3825,"is_reserved":false,"is_disabled":false,"rental_uris":{"android":"levelo://app?vid=296acca2-a355-4830-bc97-a6939a85f573","ios":"levelo://app?vid=296acca2-a355-4830-bc97-a6939a85f573"},"vehicle_type_id":"4","last_reported":1738156546,"current_range_meters":24400,"station_id":"ce4bhih2rcd13ifvqfs0","pricing_plan_id":"cebpf4jnsgd1na2vs0mg"},{"bike_id":"0e35e855-d45f-4f2c-81bc-6651763d070e","system_id":"levelo_inurba_marseille","lat":43.29371,"lon":5.37836,"is_reserved":false,"is_disabled":false,"rental_uris":{"android":"levelo://app?vid=0e35e855-d45f-4f2c-81bc-6651763d070e","ios":"levelo://app?vid=0e35e855-d45f-4f2c-81bc-6651763d070e"},"vehicle_type_id":"4","last_reported":1738156546,"current_range_meters":28400,"station_id":"ce4bgjh2rcd13ifvqbf0","pricing_plan_id":"cebpf4jnsgd1na2vs0mg"},{"bike_id":"8381ecee-e398-4ae4-a060-80727e153d18","system_id":"levelo_inurba_marseille","lat":43.30563,"lon":5.36727,"is_reserved":false,"is_disabled":false,"rental_uris":{"android":"levelo://app?vid=8381ecee-e398-4ae4-a060-80727e153d18","ios":"levelo://app?vid=8381ecee-e398-4ae4-a060-80727e153d18"},"vehicle_type_id":"4","last_reported":1738156546,"current_range_meters":38800,"station_id":"ce4bgrp2rcd13ifvqc9g","pricing_plan_id":"cebpf4jnsgd1na2vs0mg"},{"bike_id":"f0f67881-7352-4155-b4bf-aab18afa8127","system_id":"levelo_inurba_marseille","lat":43.289423,"lon":5.396263,"is_reserved":false,"is_disabled":false,"rental_uris":{"android":"levelo://app?vid=f0f67881-7352-4155-b4bf-aab18afa8127","ios":"levelo://app?vid=f0f67881-7352-4155-b4bf-aab18afa8127"},"vehicle_type_id":"4","last_reported":1738156546,"current_range_meters":28400,"station_id":"ce4bh3h2rcd13ifvqdn0","pricing_plan_id":"cebpf4jnsgd1na2vs0mg"},{"bike_id":"1c903cbc-8f2e-4999-801f-9a6b4b897cdb","system_id":"levelo_inurba_marseille","lat":43.30467,"lon":5.37905,"is_reserved":false,"is_disabled":false,"rental_uris":{"android":"levelo://app?vid=1c903cbc-8f2e-4999-801f-9a6b4b897cdb","ios":"levelo://app?vid=1c903cbc-8f2e-4999-801f-9a6b4b897cdb"},"vehicle_type_id":"4","last_reported":1738156546,"current_range_meters":24400,"station_id":"ce4bgup2rcd13ifvqcn0","pricing_plan_id":"cebpf4jnsgd1na2vs0mg"},{"bike_id":"c5745781-23ef-4edf-b2c4-81b65840b77d","system_id":"levelo_inurba_marseille","lat":43.30139,"lon":5.39852,"is_reserved":false,"is_disabled":false,"rental_uris":{"android":"levelo://app?vid=c5745781-23ef-4edf-b2c4-81b65840b77d","ios":"levelo://app?vid=c5745781-23ef-4edf-b2c4-81b65840b77d"},"vehicle_type_id":"4","last_reported":1738156546,"current_range_meters":35600,"station_id":"ce4bh0h2rcd13ifvqd40","pricing_plan_id":"cebpf4jnsgd1na2vs0mg"},{"bike_id":"3d8f0195-5d2c-4c8e-871e-b599e365f913","system_id":"levelo_inurba_marseille","lat":43.28442,"lon":5.39182,"is_reserved":false,"is_disabled":true,"rental_uris":{"android":"levelo://app?vid=3d8f0195-5d2c-4c8e-871e-b599e365f913","ios":"levelo://app?vid=3d8f0195-5d2c-4c8e-871e-b599e365f913"},"vehicle_type_id":"4","last_reported":1738156546,"current_range_meters":24800,"station_id":"ce4bhoh2rcd13ifvqh5g","pricing_plan_id":"cebpf4jnsgd1na2vs0mg"},{"bike_id":"60ce30e7-9301-4ca8-982f-21e0e801cbbe","system_id":"levelo_inurba_marseille","lat":43.29908,"lon":5.37465,"is_reserved":false,"is_disabled":false,"rental_uris":{"android":"levelo://app?vid=60ce30e7-9301-4ca8-982f-21e0e801cbbe","ios":"levelo://app?vid=60ce30e7-9301-4ca8-982f-21e0e801cbbe"},"vehicle_type_id":"4","last_reported":1738156546,"current_range_meters":38800,"station_id":"ce4bgjh2rcd13ifvqbg0","pricing_plan_id":"cebpf4jnsgd1na2vs0mg"},{"bike_id":"053833af-ba3d-4612-b908-e90298b33a73","system_id":"levelo_inurba_marseille","lat":43.30592,"lon":5.36522,"is_reserved":false,"is_disabled":false,"rental_uris":{"android":"levelo://app?vid=053833af-ba3d-4612-b908-e90298b33a73","ios":"levelo://app?vid=053833af-ba3d-4612-b908-e90298b33a73"},"vehicle_type_id":"4","last_reported":1738156546,"current_range_meters":19600,"station_id":"ce4bgs12rcd13ifvqcag","pricing_plan_id":"cebpf4jnsgd1na2vs0mg"},{"bike_id":"d3cedc6c-a5ff-464d-b34a-9145a06580ca","system_id":"levelo_inurba_marseille","lat":43.25941,"lon":5.40903,"is_reserved":false,"is_disabled":false,"rental_uris":{"android":"levelo://app?vid=d3cedc6c-a5ff-464d-b34a-9145a06580ca","ios":"levelo://app?vid=d3cedc6c-a5ff-464d-b34a-9145a06580ca"},"vehicle_type_id":"4","last_reported":1738156546,"current_range_meters":2800,"station_id":"ce4bhm92rcd13ifvqglg","pricing_plan_id":"cebpf4jnsgd1na2vs0mg"},{"bike_id":"e3c5a10e-948d-477c-91ce-8c835a7fe362","system_id":"levelo_inurba_marseille","lat":43.28078,"lon":5.39648,"is_reserved":false,"is_disabled":true,"rental_uris":{"android":"levelo://app?vid=e3c5a10e-948d-477c-91ce-8c835a7fe362","ios":"levelo://app?vid=e3c5a10e-948d-477c-91ce-8c835a7fe362"},"vehicle_type_id":"4","last_reported":1738156546,"current_range_meters":0,"station_id":"ce4bho12rcd13ifvqh2g","pricing_plan_id":"cebpf4jnsgd1na2vs0mg"},{"bike_id":"eab6542a-8ad7-4c30-879d-73524ccbba10","system_id":"levelo_inurba_marseille","lat":43.28937,"lon":5.39628,"is_reserved":false,"is_disabled":false,"rental_uris":{"android":"levelo://app?vid=eab6542a-8ad7-4c30-879d-73524ccbba10","ios":"levelo://app?vid=eab6542a-8ad7-4c30-879d-73524ccbba10"},"vehicle_type_id":"4","last_reported":1738156546,"current_range_meters":22800,"station_id":"ce4bh3h2rcd13ifvqdn0","pricing_plan_id":"cebpf4jnsgd1na2vs0mg"},{"bike_id":"742413b3-9b46-43c5-aaac-9fcb94aa115f","system_id":"levelo_inurba_marseille","lat":43.28156,"lon":5.42639,"is_reserved":false,"is_disabled":true,"rental_uris":{"android":"levelo://app?vid=742413b3-9b46-43c5-aaac-9fcb94aa115f","ios":"levelo://app?vid=742413b3-9b46-43c5-aaac-9fcb94aa115f"},"vehicle_type_id":"4","last_reported":1738156546,"current_range_meters":3600,"station_id":"ce4bhnh2rcd13ifvqgug","pricing_plan_id":"cebpf4jnsgd1na2vs0mg"},{"bike_id":"1e7882da-a016-4654-9a16-4361fd531dc2","system_id":"levelo_inurba_marseille","lat":43.27234,"lon":5.40964,"is_reserved":false,"is_disabled":false,"rental_uris":{"android":"levelo://app?vid=1e7882da-a016-4654-9a16-4361fd531dc2","ios":"levelo://app?vid=1e7882da-a016-4654-9a16-4361fd531dc2"},"vehicle_type_id":"4","last_reported":1738156546,"current_range_meters":24000,"station_id":"","pricing_plan_id":"cebpf4jnsgd1na2vs0mg"},{"bike_id":"fef8f4dc-7b3f-4f9d-9ace-5962177c579b","system_id":"levelo_inurba_marseille","lat":43.26559,"lon":5.37291,"is_reserved":false,"is_disabled":false,"rental_uris":{"android":"levelo://app?vid=fef8f4dc-7b3f-4f9d-9ace-5962177c579b","ios":"levelo://app?vid=fef8f4dc-7b3f-4f9d-9ace-5962177c579b"},"vehicle_type_id":"4","last_reported":1738156546,"current_range_meters":3200,"station_id":"ce4bhg12rcd13ifvqf70","pricing_plan_id":"cebpf4jnsgd1na2vs0mg"},{"bike_id":"73ac8a1a-926b-46ad-a862-46e7c83d0c9f","system_id":"levelo_inurba_marseille","lat":43.29195,"lon":5.39337,"is_reserved":false,"is_disabled":false,"rental_uris":{"android":"levelo://app?vid=73ac8a1a-926b-46ad-a862-46e7c83d0c9f","ios":"levelo://app?vid=73ac8a1a-926b-46ad-a862-46e7c83d0c9f"},"vehicle_type_id":"4","last_reported":1738156546,"current_range_meters":36400,"station_id":"ce4bh192rcd13ifvqdd0","pricing_plan_id":"cebpf4jnsgd1na2vs0mg"},{"bike_id":"085eb1b9-3157-475b-a7c3-09fe52f481b0","system_id":"levelo_inurba_marseille","lat":43.27826,"lon":5.40724,"is_reserved":false,"is_disabled":false,"rental_uris":{"android":"levelo://app?vid=085eb1b9-3157-475b-a7c3-09fe52f481b0","ios":"levelo://app?vid=085eb1b9-3157-475b-a7c3-09fe52f481b0"},"vehicle_type_id":"4","last_reported":1738156546,"current_range_meters":37600,"station_id":"ce4bhnh2rcd13ifvqgtg","pricing_plan_id":"cebpf4jnsgd1na2vs0mg"},{"bike_id":"bb289f34-7ef0-4e95-93d6-772fea1a48e2","system_id":"levelo_inurba_marseille","lat":43.30467,"lon":5.37891,"is_reserved":false,"is_disabled":false,"rental_uris":{"android":"levelo://app?vid=bb289f34-7ef0-4e95-93d6-772fea1a48e2","ios":"levelo://app?vid=bb289f34-7ef0-4e95-93d6-772fea1a48e2"},"vehicle_type_id":"4","last_reported":1738156546,"current_range_meters":38800,"station_id":"ce4bgup2rcd13ifvqcn0","pricing_plan_id":"cebpf4jnsgd1na2vs0mg"},{"bike_id":"dc7c1c67-58fd-4b23-90e5-a1f21ef47cbc","system_id":"levelo_inurba_marseille","lat":43.29573,"lon":5.36722,"is_reserved":false,"is_disabled":false,"rental_uris":{"android":"levelo://app?vid=dc7c1c67-58fd-4b23-90e5-a1f21ef47cbc","ios":"levelo://app?vid=dc7c1c67-58fd-4b23-90e5-a1f21ef47cbc"},"vehicle_type_id":"4","last_reported":1738156546,"current_range_meters":38800,"station_id":"ce4bgph2rcd13ifvqc2g","pricing_plan_id":"cebpf4jnsgd1na2vs0mg"},{"bike_id":"58b8b44c-2672-4bb8-b098-98226b9f539a","system_id":"levelo_inurba_marseille","lat":43.30461,"lon":5.37908,"is_reserved":false,"is_disabled":false,"rental_uris":{"android":"levelo://app?vid=58b8b44c-2672-4bb8-b098-98226b9f539a","ios":"levelo://app?vid=58b8b44c-2672-4bb8-b098-98226b9f539a"},"vehicle_type_id":"4","last_reported":1738156546,"current_range_meters":38000,"station_id":"ce4bgup2rcd13ifvqcn0","pricing_plan_id":"cebpf4jnsgd1na2vs0mg"},{"bike_id":"17e47042-8c77-4541-a11d-5ae1a42c0ff2","system_id":"levelo_inurba_marseille","lat":43.2749,"lon":5.42464,"is_reserved":false,"is_disabled":false,"rental_uris":{"android":"levelo://app?vid=17e47042-8c77-4541-a11d-5ae1a42c0ff2","ios":"levelo://app?vid=17e47042-8c77-4541-a11d-5ae1a42c0ff2"},"vehicle_type_id":"4","last_reported":1738156546,"current_range_meters":38800,"station_id":"ce4bhn92rcd13ifvqgrg","pricing_plan_id":"cebpf4jnsgd1na2vs0mg"},{"bike_id":"b891a845-22ae-4964-87fe-61c6bc3a8303","system_id":"levelo_inurba_marseille","lat":43.27847,"lon":5.40707,"is_reserved":false,"is_disabled":false,"rental_uris":{"android":"levelo://app?vid=b891a845-22ae-4964-87fe-61c6bc3a8303","ios":"levelo://app?vid=b891a845-22ae-4964-87fe-61c6bc3a8303"},"vehicle_type_id":"4","last_reported":1738156546,"current_range_meters":32400,"station_id":"ce4bhnh2rcd13ifvqgtg","pricing_plan_id":"cebpf4jnsgd1na2vs0mg"},{"bike_id":"435e41d5-061a-4e72-b7c4-7dabe7f3e35f","system_id":"levelo_inurba_marseille","lat":43.30095,"lon":5.39088,"is_reserved":false,"is_disabled":false,"rental_uris":{"android":"levelo://app?vid=435e41d5-061a-4e72-b7c4-7dabe7f3e35f","ios":"levelo://app?vid=435e41d5-061a-4e72-b7c4-7dabe7f3e35f"},"vehicle_type_id":"4","last_reported":1738156546,"current_range_meters":38800,"station_id":"ce4bh192rcd13ifvqdb0","pricing_plan_id":"cebpf4jnsgd1na2vs0mg"},{"bike_id":"84e53b70-f8f3-491d-a490-f13cad8d073a","system_id":"levelo_inurba_marseille","lat":43.31353,"lon":5.36731,"is_reserved":false,"is_disabled":true,"rental_uris":{"android":"levelo://app?vid=84e53b70-f8f3-491d-a490-f13cad8d073a","ios":"levelo://app?vid=84e53b70-f8f3-491d-a490-f13cad8d073a"},"vehicle_type_id":"4","last_reported":1738156546,"current_range_meters":24400,"station_id":"ce4bgr92rcd13ifvqc6g","pricing_plan_id":"cebpf4jnsgd1na2vs0mg"},{"bike_id":"1932502a-a386-4bd4-8041-b68d3b661876","system_id":"levelo_inurba_marseille","lat":43.27614,"lon":5.361069,"is_reserved":false,"is_disabled":false,"rental_uris":{"android":"levelo://app?vid=1932502a-a386-4bd4-8041-b68d3b661876","ios":"levelo://app?vid=1932502a-a386-4bd4-8041-b68d3b661876"},"vehicle_type_id":"4","last_reported":1738156546,"current_range_meters":22000,"station_id":"ce4bgj92rcd13ifvqbe0","pricing_plan_id":"cebpf4jnsgd1na2vs0mg"},{"bike_id":"3ad10b32-c1b1-4c7a-9f3c-30dcc350bc0c","system_id":"levelo_inurba_marseille","lat":43.27963,"lon":5.41056,"is_reserved":false,"is_disabled":false,"rental_uris":{"android":"levelo://app?vid=3ad10b32-c1b1-4c7a-9f3c-30dcc350bc0c","ios":"levelo://app?vid=3ad10b32-c1b1-4c7a-9f3c-30dcc350bc0c"},"vehicle_type_id":"4","last_reported":1738156546,"current_range_meters":11600,"station_id":"ce4bhnp2rcd13ifvqh0g","pricing_plan_id":"cebpf4jnsgd1na2vs0mg"},{"bike_id":"0f4b3813-faf4-4a38-a8d2-313659685248","system_id":"levelo_inurba_marseille","lat":43.30414,"lon":5.41301,"is_reserved":false,"is_disabled":false,"rental_uris":{"android":"levelo://app?vid=0f4b3813-faf4-4a38-a8d2-313659685248","ios":"levelo://app?vid=0f4b3813-faf4-4a38-a8d2-313659685248"},"vehicle_type_id":"4","last_reported":1738156546,"current_range_meters":38800,"station_id":"ce4bhop2rcd13ifvqh8g","pricing_plan_id":"cebpf4jnsgd1na2vs0mg"},{"bike_id":"70435a30-439d-4347-8667-d14392ea6663","system_id":"levelo_inurba_marseille","lat":43.29552,"lon":5.42274,"is_reserved":false,"is_disabled":false,"rental_uris":{"android":"levelo://app?vid=70435a30-439d-4347-8667-d14392ea6663","ios":"levelo://app?vid=70435a30-439d-4347-8667-d14392ea6663"},"vehicle_type_id":"4","last_reported":1738156546,"current_range_meters":11200,"station_id":"ce4bhph2rcd13ifvqhdg","pricing_plan_id":"cebpf4jnsgd1na2vs0mg"},{"bike_id":"44a2692f-71ce-4483-a988-fcdcfe06292b","system_id":"levelo_inurba_marseille","lat":43.29978,"lon":5.37172,"is_reserved":false,"is_disabled":false,"rental_uris":{"android":"levelo://app?vid=44a2692f-71ce-4483-a988-fcdcfe06292b","ios":"levelo://app?vid=44a2692f-71ce-4483-a988-fcdcfe06292b"},"vehicle_type_id":"4","last_reported":1738156546,"current_range_meters":26800,"station_id":"ce4bgr92rcd13ifvqc7g","pricing_plan_id":"cebpf4jnsgd1na2vs0mg"},{"bike_id":"a17ecb5a-c1b2-4c17-a30d-ef39ebecdf96","system_id":"levelo_inurba_marseille","lat":43.2782,"lon":5.40715,"is_reserved":false,"is_disabled":false,"rental_uris":{"android":"levelo://app?vid=a17ecb5a-c1b2-4c17-a30d-ef39ebecdf96","ios":"levelo://app?vid=a17ecb5a-c1b2-4c17-a30d-ef39ebecdf96"},"vehicle_type_id":"4","last_reported":1738156546,"current_range_meters":38800,"station_id":"ce4bhnh2rcd13ifvqgtg","pricing_plan_id":"cebpf4jnsgd1na2vs0mg"},{"bike_id":"94a555c1-19b6-467d-8110-f48d39704e02","system_id":"levelo_inurba_marseille","lat":43.30136,"lon":5.38789,"is_reserved":false,"is_disabled":false,"rental_uris":{"android":"levelo://app?vid=94a555c1-19b6-467d-8110-f48d39704e02","ios":"levelo://app?vid=94a555c1-19b6-467d-8110-f48d39704e02"},"vehicle_type_id":"4","last_reported":1738156546,"current_range_meters":6000,"station_id":"ce4bhoh2rcd13ifvqh6g","pricing_plan_id":"cebpf4jnsgd1na2vs0mg"},{"bike_id":"7c3df97a-2f27-4ded-9b4c-5f084cc1020d","system_id":"levelo_inurba_marseille","lat":43.28039,"lon":5.3694,"is_reserved":false,"is_disabled":false,"rental_uris":{"android":"levelo://app?vid=7c3df97a-2f27-4ded-9b4c-5f084cc1020d","ios":"levelo://app?vid=7c3df97a-2f27-4ded-9b4c-5f084cc1020d"},"vehicle_type_id":"4","last_reported":1738156546,"current_range_meters":4400,"station_id":"ce4bha12rcd13ifvqef0","pricing_plan_id":"cebpf4jnsgd1na2vs0mg"},{"bike_id":"b3549804-7b8e-4b94-882f-e8b540f8f9f6","system_id":"levelo_inurba_marseille","lat":43.28347,"lon":5.381,"is_reserved":false,"is_disabled":false,"rental_uris":{"android":"levelo://app?vid=b3549804-7b8e-4b94-882f-e8b540f8f9f6","ios":"levelo://app?vid=b3549804-7b8e-4b94-882f-e8b540f8f9f6"},"vehicle_type_id":"4","last_reported":1738156546,"current_range_meters":34000,"station_id":"ce4bh412rcd13ifvqdr0","pricing_plan_id":"cebpf4jnsgd1na2vs0mg"},{"bike_id":"2fc291c0-4f54-4056-ba52-252d6715bfe0","system_id":"levelo_inurba_marseille","lat":43.2783,"lon":5.39216,"is_reserved":false,"is_disabled":false,"rental_uris":{"android":"levelo://app?vid=2fc291c0-4f54-4056-ba52-252d6715bfe0","ios":"levelo://app?vid=2fc291c0-4f54-4056-ba52-252d6715bfe0"},"vehicle_type_id":"4","last_reported":1738156546,"current_range_meters":28400,"station_id":"ce4bhjp2rcd13ifvqga0","pricing_plan_id":"cebpf4jnsgd1na2vs0mg"},{"bike_id":"d5ae971b-d5ff-4914-97c7-dc9b996ae58b","system_id":"levelo_inurba_marseille","lat":43.28426,"lon":5.34999,"is_reserved":false,"is_disabled":false,"rental_uris":{"android":"levelo://app?vid=d5ae971b-d5ff-4914-97c7-dc9b996ae58b","ios":"levelo://app?vid=d5ae971b-d5ff-4914-97c7-dc9b996ae58b"},"vehicle_type_id":"4","last_reported":1738156546,"current_range_meters":25200,"station_id":"ce4bhbh2rcd13ifvqepg","pricing_plan_id":"cebpf4jnsgd1na2vs0mg"},{"bike_id":"e3e26aee-15e1-425c-a48f-db58aa520742","system_id":"levelo_inurba_marseille","lat":43.23068,"lon":5.35501,"is_reserved":false,"is_disabled":false,"rental_uris":{"android":"levelo://app?vid=e3e26aee-15e1-425c-a48f-db58aa520742","ios":"levelo://app?vid=e3e26aee-15e1-425c-a48f-db58aa520742"},"vehicle_type_id":"4","last_reported":1738156546,"current_range_meters":33600,"station_id":"cpo3342slgdg3j2ifvpg","pricing_plan_id":"cebpf4jnsgd1na2vs0mg"},{"bike_id":"ad0bd333-8fb6-443e-b5ff-d312a6eacff0","system_id":"levelo_inurba_marseille","lat":43.26791,"lon":5.39416,"is_reserved":false,"is_disabled":false,"rental_uris":{"android":"levelo://app?vid=ad0bd333-8fb6-443e-b5ff-d312a6eacff0","ios":"levelo://app?vid=ad0bd333-8fb6-443e-b5ff-d312a6eacff0"},"vehicle_type_id":"4","last_reported":1738156546,"current_range_meters":35200,"station_id":"ce4bhh12rcd13ifvqfg0","pricing_plan_id":"cebpf4jnsgd1na2vs0mg"},{"bike_id":"406f1379-7e5f-40c8-b8c8-3f0d17a7f0fa","system_id":"levelo_inurba_marseille","lat":43.27559,"lon":5.38428,"is_reserved":false,"is_disabled":false,"rental_uris":{"android":"levelo://app?vid=406f1379-7e5f-40c8-b8c8-3f0d17a7f0fa","ios":"levelo://app?vid=406f1379-7e5f-40c8-b8c8-3f0d17a7f0fa"},"vehicle_type_id":"4","last_reported":1738156546,"current_range_meters":37600,"station_id":"ce4bhh92rcd13ifvqfi0","pricing_plan_id":"cebpf4jnsgd1na2vs0mg"},{"bike_id":"e7353ab7-a487-4edd-b8d3-16be6cf405ea","system_id":"levelo_inurba_marseille","lat":43.2895,"lon":5.36413,"is_reserved":false,"is_disabled":false,"rental_uris":{"android":"levelo://app?vid=e7353ab7-a487-4edd-b8d3-16be6cf405ea","ios":"levelo://app?vid=e7353ab7-a487-4edd-b8d3-16be6cf405ea"},"vehicle_type_id":"4","last_reported":1738156546,"current_range_meters":9600,"station_id":"ce4bhc92rcd13ifvqetg","pricing_plan_id":"cebpf4jnsgd1na2vs0mg"},{"bike_id":"df2653fe-4fdf-43fd-a7c1-0f1c8d8556c5","system_id":"levelo_inurba_marseille","lat":43.33028,"lon":5.39046,"is_reserved":false,"is_disabled":false,"rental_uris":{"android":"levelo://app?vid=df2653fe-4fdf-43fd-a7c1-0f1c8d8556c5","ios":"levelo://app?vid=df2653fe-4fdf-43fd-a7c1-0f1c8d8556c5"},"vehicle_type_id":"4","last_reported":1738156546,"current_range_meters":36400,"station_id":"ce4bhr92rcd13ifvqhrg","pricing_plan_id":"cebpf4jnsgd1na2vs0mg"},{"bike_id":"7c78a755-c7f5-4f07-a96b-621451d47948","system_id":"levelo_inurba_marseille","lat":43.29906,"lon":5.43672,"is_reserved":false,"is_disabled":false,"rental_uris":{"android":"levelo://app?vid=7c78a755-c7f5-4f07-a96b-621451d47948","ios":"levelo://app?vid=7c78a755-c7f5-4f07-a96b-621451d47948"},"vehicle_type_id":"4","last_reported":1738156546,"current_range_meters":18000,"station_id":"ce4bhpp2rcd13ifvqhfg","pricing_plan_id":"cebpf4jnsgd1na2vs0mg"},{"bike_id":"3d1fcd99-fa1f-402d-be1e-7639922ccd47","system_id":"levelo_inurba_marseille","lat":43.22937,"lon":5.35389,"is_reserved":false,"is_disabled":false,"rental_uris":{"android":"levelo://app?vid=3d1fcd99-fa1f-402d-be1e-7639922ccd47","ios":"levelo://app?vid=3d1fcd99-fa1f-402d-be1e-7639922ccd47"},"vehicle_type_id":"4","last_reported":1738156546,"current_range_meters":38800,"station_id":"cpo3532slgdg3j2ikp40","pricing_plan_id":"cebpf4jnsgd1na2vs0mg"},{"bike_id":"2e37b0d2-8751-4445-aa1b-b3f8e099ffd5","system_id":"levelo_inurba_marseille","lat":43.27406,"lon":5.39404,"is_reserved":false,"is_disabled":false,"rental_uris":{"android":"levelo://app?vid=2e37b0d2-8751-4445-aa1b-b3f8e099ffd5","ios":"levelo://app?vid=2e37b0d2-8751-4445-aa1b-b3f8e099ffd5"},"vehicle_type_id":"4","last_reported":1738156546,"current_range_meters":38800,"station_id":"ce4bhdp2rcd13ifvqf20","pricing_plan_id":"cebpf4jnsgd1na2vs0mg"},{"bike_id":"803e03d8-7d2e-4feb-ac46-774902d16dee","system_id":"levelo_inurba_marseille","lat":43.33731,"lon":5.37442,"is_reserved":false,"is_disabled":true,"rental_uris":{"android":"levelo://app?vid=803e03d8-7d2e-4feb-ac46-774902d16dee","ios":"levelo://app?vid=803e03d8-7d2e-4feb-ac46-774902d16dee"},"vehicle_type_id":"4","last_reported":1738156546,"current_range_meters":33600,"station_id":"","pricing_plan_id":"cebpf4jnsgd1na2vs0mg"},{"bike_id":"e9d69482-76af-4c5e-baf1-30565de835b9","system_id":"levelo_inurba_marseille","lat":43.27424,"lon":5.39419,"is_reserved":false,"is_disabled":false,"rental_uris":{"android":"levelo://app?vid=e9d69482-76af-4c5e-baf1-30565de835b9","ios":"levelo://app?vid=e9d69482-76af-4c5e-baf1-30565de835b9"},"vehicle_type_id":"4","last_reported":1738156546,"current_range_meters":30400,"station_id":"ce4bhdp2rcd13ifvqf20","pricing_plan_id":"cebpf4jnsgd1na2vs0mg"},{"bike_id":"ff1e303e-f01b-45b4-953d-3439c6552787","system_id":"levelo_inurba_marseille","lat":43.26953,"lon":5.40257,"is_reserved":false,"is_disabled":false,"rental_uris":{"android":"levelo://app?vid=ff1e303e-f01b-45b4-953d-3439c6552787","ios":"levelo://app?vid=ff1e303e-f01b-45b4-953d-3439c6552787"},"vehicle_type_id":"4","last_reported":1738156546,"current_range_meters":29600,"station_id":"cjm6bp8fraef2m0cb0m0","pricing_plan_id":"cebpf4jnsgd1na2vs0mg"},{"bike_id":"ff0491cb-d86b-434c-8cdb-028bf9f1e6a6","system_id":"levelo_inurba_marseille","lat":43.30469,"lon":5.37907,"is_reserved":false,"is_disabled":false,"rental_uris":{"android":"levelo://app?vid=ff0491cb-d86b-434c-8cdb-028bf9f1e6a6","ios":"levelo://app?vid=ff0491cb-d86b-434c-8cdb-028bf9f1e6a6"},"vehicle_type_id":"4","last_reported":1738156546,"current_range_meters":37600,"station_id":"ce4bgup2rcd13ifvqcn0","pricing_plan_id":"cebpf4jnsgd1na2vs0mg"},{"bike_id":"e01b48cb-9ca7-4c6e-9fce-13ad8af1a3f4","system_id":"levelo_inurba_marseille","lat":43.28033,"lon":5.36955,"is_reserved":false,"is_disabled":false,"rental_uris":{"android":"levelo://app?vid=e01b48cb-9ca7-4c6e-9fce-13ad8af1a3f4","ios":"levelo://app?vid=e01b48cb-9ca7-4c6e-9fce-13ad8af1a3f4"},"vehicle_type_id":"4","last_reported":1738156546,"current_range_meters":9600,"station_id":"ce4bha12rcd13ifvqef0","pricing_plan_id":"cebpf4jnsgd1na2vs0mg"},{"bike_id":"6d1da78d-00cf-4bf6-8937-cad8764c7ccc","system_id":"levelo_inurba_marseille","lat":43.30331,"lon":5.36895,"is_reserved":false,"is_disabled":false,"rental_uris":{"android":"levelo://app?vid=6d1da78d-00cf-4bf6-8937-cad8764c7ccc","ios":"levelo://app?vid=6d1da78d-00cf-4bf6-8937-cad8764c7ccc"},"vehicle_type_id":"4","last_reported":1738156546,"current_range_meters":10800,"station_id":"ce4bgqh2rcd13ifvqc5g","pricing_plan_id":"cebpf4jnsgd1na2vs0mg"},{"bike_id":"3622e152-b5be-42cb-bc60-3cf0f1d519df","system_id":"levelo_inurba_marseille","lat":43.26682,"lon":5.38298,"is_reserved":false,"is_disabled":false,"rental_uris":{"android":"levelo://app?vid=3622e152-b5be-42cb-bc60-3cf0f1d519df","ios":"levelo://app?vid=3622e152-b5be-42cb-bc60-3cf0f1d519df"},"vehicle_type_id":"4","last_reported":1738156546,"current_range_meters":38800,"station_id":"ce4bhg92rcd13ifvqf90","pricing_plan_id":"cebpf4jnsgd1na2vs0mg"},{"bike_id":"fbf4a090-7867-4075-a3fd-edc6192db4f7","system_id":"levelo_inurba_marseille","lat":43.32676,"lon":5.40991,"is_reserved":false,"is_disabled":false,"rental_uris":{"android":"levelo://app?vid=fbf4a090-7867-4075-a3fd-edc6192db4f7","ios":"levelo://app?vid=fbf4a090-7867-4075-a3fd-edc6192db4f7"},"vehicle_type_id":"4","last_reported":1738156546,"current_range_meters":38800,"station_id":"ce4bhpp2rcd13ifvqhgg","pricing_plan_id":"cebpf4jnsgd1na2vs0mg"},{"bike_id":"9d8ca685-20a9-4250-b7d1-41aa3c58cfdc","system_id":"levelo_inurba_marseille","lat":43.284082,"lon":5.374978,"is_reserved":false,"is_disabled":false,"rental_uris":{"android":"levelo://app?vid=9d8ca685-20a9-4250-b7d1-41aa3c58cfdc","ios":"levelo://app?vid=9d8ca685-20a9-4250-b7d1-41aa3c58cfdc"},"vehicle_type_id":"4","last_reported":1738156546,"current_range_meters":25600,"station_id":"ce4bh412rcd13ifvqds0","pricing_plan_id":"cebpf4jnsgd1na2vs0mg"},{"bike_id":"7a932788-39f8-4d3a-8997-624b5a4df5c4","system_id":"levelo_inurba_marseille","lat":43.32496,"lon":5.3657,"is_reserved":false,"is_disabled":false,"rental_uris":{"android":"levelo://app?vid=7a932788-39f8-4d3a-8997-624b5a4df5c4","ios":"levelo://app?vid=7a932788-39f8-4d3a-8997-624b5a4df5c4"},"vehicle_type_id":"4","last_reported":1738156546,"current_range_meters":38800,"station_id":"ce4bhs12rcd13ifvqhvg","pricing_plan_id":"cebpf4jnsgd1na2vs0mg"},{"bike_id":"e4b07a35-b128-471b-8729-d9548b076a1b","system_id":"levelo_inurba_marseille","lat":43.27982,"lon":5.38745,"is_reserved":false,"is_disabled":false,"rental_uris":{"android":"levelo://app?vid=e4b07a35-b128-471b-8729-d9548b076a1b","ios":"levelo://app?vid=e4b07a35-b128-471b-8729-d9548b076a1b"},"vehicle_type_id":"4","last_reported":1738156546,"current_range_meters":30800,"station_id":"ce4bhg12rcd13ifvqf80","pricing_plan_id":"cebpf4jnsgd1na2vs0mg"},{"bike_id":"98b3fb70-9c33-4b67-a512-5e693f108cce","system_id":"levelo_inurba_marseille","lat":43.23954,"lon":5.36652,"is_reserved":false,"is_disabled":false,"rental_uris":{"android":"levelo://app?vid=98b3fb70-9c33-4b67-a512-5e693f108cce","ios":"levelo://app?vid=98b3fb70-9c33-4b67-a512-5e693f108cce"},"vehicle_type_id":"4","last_reported":1738156546,"current_range_meters":20800,"station_id":"ce4bhi12rcd13ifvqfp0","pricing_plan_id":"cebpf4jnsgd1na2vs0mg"},{"bike_id":"3cab5ce9-fa36-4f37-a4fd-aa59591df4d1","system_id":"levelo_inurba_marseille","lat":43.28424,"lon":5.34983,"is_reserved":false,"is_disabled":true,"rental_uris":{"android":"levelo://app?vid=3cab5ce9-fa36-4f37-a4fd-aa59591df4d1","ios":"levelo://app?vid=3cab5ce9-fa36-4f37-a4fd-aa59591df4d1"},"vehicle_type_id":"4","last_reported":1738156546,"current_range_meters":30400,"station_id":"ce4bhbh2rcd13ifvqepg","pricing_plan_id":"cebpf4jnsgd1na2vs0mg"},{"bike_id":"b3147477-908a-436d-8a1b-73effa774a9f","system_id":"levelo_inurba_marseille","lat":43.30079,"lon":5.39085,"is_reserved":false,"is_disabled":false,"rental_uris":{"android":"levelo://app?vid=b3147477-908a-436d-8a1b-73effa774a9f","ios":"levelo://app?vid=b3147477-908a-436d-8a1b-73effa774a9f"},"vehicle_type_id":"4","last_reported":1738156546,"current_range_meters":38800,"station_id":"ce4bh192rcd13ifvqdb0","pricing_plan_id":"cebpf4jnsgd1na2vs0mg"},{"bike_id":"85af6c92-372c-4cd2-84da-c4ec61fa470d","system_id":"levelo_inurba_marseille","lat":43.2568,"lon":5.41166,"is_reserved":false,"is_disabled":true,"rental_uris":{"android":"levelo://app?vid=85af6c92-372c-4cd2-84da-c4ec61fa470d","ios":"levelo://app?vid=85af6c92-372c-4cd2-84da-c4ec61fa470d"},"vehicle_type_id":"4","last_reported":1738156546,"current_range_meters":36800,"station_id":"","pricing_plan_id":"cebpf4jnsgd1na2vs0mg"},{"bike_id":"27b01289-75db-4721-83a0-1f75481678af","system_id":"levelo_inurba_marseille","lat":43.28615,"lon":5.35108,"is_reserved":false,"is_disabled":false,"rental_uris":{"android":"levelo://app?vid=27b01289-75db-4721-83a0-1f75481678af","ios":"levelo://app?vid=27b01289-75db-4721-83a0-1f75481678af"},"vehicle_type_id":"4","last_reported":1738156546,"current_range_meters":33600,"station_id":"ce4bhch2rcd13ifvqeug","pricing_plan_id":"cebpf4jnsgd1na2vs0mg"},{"bike_id":"1ab9c917-4620-4970-b7ea-8bc62fd93738","system_id":"levelo_inurba_marseille","lat":43.29092,"lon":5.38147,"is_reserved":false,"is_disabled":false,"rental_uris":{"android":"levelo://app?vid=1ab9c917-4620-4970-b7ea-8bc62fd93738","ios":"levelo://app?vid=1ab9c917-4620-4970-b7ea-8bc62fd93738"},"vehicle_type_id":"4","last_reported":1738156546,"current_range_meters":38000,"station_id":"ce4bh512rcd13ifvqe2g","pricing_plan_id":"cebpf4jnsgd1na2vs0mg"},{"bike_id":"28d711f5-f137-429b-81fa-a3e159679326","system_id":"levelo_inurba_marseille","lat":43.30266,"lon":5.40078,"is_reserved":false,"is_disabled":false,"rental_uris":{"android":"levelo://app?vid=28d711f5-f137-429b-81fa-a3e159679326","ios":"levelo://app?vid=28d711f5-f137-429b-81fa-a3e159679326"},"vehicle_type_id":"4","last_reported":1738156546,"current_range_meters":36800,"station_id":"ce4bgvh2rcd13ifvqcs0","pricing_plan_id":"cebpf4jnsgd1na2vs0mg"},{"bike_id":"0d3f46ad-475b-45ab-bba3-a9b43b092108","system_id":"levelo_inurba_marseille","lat":43.27625,"lon":5.36107,"is_reserved":false,"is_disabled":false,"rental_uris":{"android":"levelo://app?vid=0d3f46ad-475b-45ab-bba3-a9b43b092108","ios":"levelo://app?vid=0d3f46ad-475b-45ab-bba3-a9b43b092108"},"vehicle_type_id":"4","last_reported":1738156546,"current_range_meters":38800,"station_id":"ce4bgj92rcd13ifvqbe0","pricing_plan_id":"cebpf4jnsgd1na2vs0mg"},{"bike_id":"7a2257c1-f3b7-4b69-a1d7-4fe6443e5424","system_id":"levelo_inurba_marseille","lat":43.27568,"lon":5.3842,"is_reserved":false,"is_disabled":true,"rental_uris":{"android":"levelo://app?vid=7a2257c1-f3b7-4b69-a1d7-4fe6443e5424","ios":"levelo://app?vid=7a2257c1-f3b7-4b69-a1d7-4fe6443e5424"},"vehicle_type_id":"4","last_reported":1738156546,"current_range_meters":800,"station_id":"ce4bhh92rcd13ifvqfi0","pricing_plan_id":"cebpf4jnsgd1na2vs0mg"},{"bike_id":"3d98c6ce-e80d-46e8-b577-648cd8c28632","system_id":"levelo_inurba_marseille","lat":43.34699,"lon":5.34741,"is_reserved":false,"is_disabled":true,"rental_uris":{"android":"levelo://app?vid=3d98c6ce-e80d-46e8-b577-648cd8c28632","ios":"levelo://app?vid=3d98c6ce-e80d-46e8-b577-648cd8c28632"},"vehicle_type_id":"4","last_reported":1738156546,"current_range_meters":0,"station_id":"","pricing_plan_id":"cebpf4jnsgd1na2vs0mg"},