{"last_updated":1774174594,"ttl":60,"version":"2.2","data":{"bikes":[{"bike_id":"8648ff3d-a49d-4491-be6c-bab3f9812603","system_id":"levelo_inurba_marseille","lat":43.28302,"lon":5.43842,"is_reserved":false,"is_disabled":false,"rental_uris":{"android":"levelo://app?vid=8648ff3d-a49d-4491-be6c-bab3f9812603","ios":"levelo://app?vid=8648ff3d-a49d-4491-be6c-bab3f9812603"},"vehicle_type_id":"4","last_reported":1774174595,"current_range_meters":2800,"station_id":"","pricing_plan_id":"cebpf4jnsgd1na2vs0mg"},{"bike_id":"d9c97143-42c6-4a06-98ff-6d527890b4d9","system_id":"levelo_inurba_marseille","lat":43.26566,"lon":5.38998,"is_reserved":false,"is_disabled":false,"rental_uris":{"android":"levelo://app?vid=d9c97143-42c6-4a06-98ff-6d527890b4d9","ios":"levelo://app?vid=d9c97143-42c6-4a06-98ff-6d527890b4d9"},"vehicle_type_id":"4","last_reported":1774174595,"current_range_meters":2800,"station_id":"ce4bhe12rcd13ifvqf30","pricing_plan_id":"cebpf4jnsgd1na2vs0mg"},{"bike_id":"a8c8307b-e1e9-4950-a785-578e1a82f805","system_id":"levelo_inurba_marseille","lat":43.31267,"lon":5.37841,"is_reserved":false,"is_disabled":false,"rental_uris":{"android":"levelo://app?vid=a8c8307b-e1e9-4950-a785-578e1a82f805","ios":"levelo://app?vid=a8c8307b-e1e9-4950-a785-578e1a82f805"},"vehicle_type_id":"4","last_reported":1774174595,"current_range_meters":2800,"station_id":"","pricing_plan_id":"cebpf4jnsgd1na2vs0mg"},{"bike_id":"a52ba6dc-1b15-4a85-8d00-b41ad0623a75","system_id":"levelo_inurba_marseille","lat":43.32358,"lon":5.36685,"is_reserved":false,"is_disabled":false,"rental_uris":{"android":"levelo://app?vid=a52ba6dc-1b15-4a85-8d00-b41ad0623a75","ios":"levelo://app?vid=a52ba6dc-1b15-4a85-8d00-b41ad0623a75"},"vehicle_type_id":"4","last_reported":1774174595,"current_range_meters":2800,"station_id":"","pricing_plan_id":"cebpf4jnsgd1na2vs0mg"},{"bike_id":"47efb401-c51b-46fd-bc6f-b874c731d32b","system_id":"levelo_inurba_marseille","lat":43.29555,"lon":5.36696,"is_reserved":false,"is_disabled":true,"rental_uris":{"android":"levelo://app?vid=47efb401-c51b-46fd-bc6f-b874c731d32b","ios":"levelo://app?vid=47efb401-c51b-46fd-bc6f-b874c731d32b"},"vehicle_type_id":"4","last_reported":1774174595,"current_range_meters":2800,"station_id":"ce4bgph2rcd13ifvqc2g","pricing_plan_id":"cebpf4jnsgd1na2vs0mg"},{"bike_id":"21dcff95-3114-402a-9713-10e340a8f8dd","system_id":"levelo_inurba_marseille","lat":43.29293,"lon":5.37158,"is_reserved":false,"is_disabled":false,"rental_uris":{"android":"levelo://app?vid=21dcff95-3114-402a-9713-10e340a8f8dd","ios":"levelo://app?vid=21dcff95-3114-402a-9713-10e340a8f8dd"},"vehicle_type_id":"4","last_reported":1774174595,"current_range_meters":2800,"station_id":"ce4bgh92rcd13ifvqb40","pricing_plan_id":"cebpf4jnsgd1na2vs0mg"},{"bike_id":"799e5206-e569-46be-93f3-cb56e5726e56","system_id":"levelo_inurba_marseille","lat":43.26379,"lon":5.41034,"is_reserved":false,"is_disabled":false,"rental_uris":{"android":"levelo://app?vid=799e5206-e569-46be-93f3-cb56e5726e56","ios":"levelo://app?vid=799e5206-e569-46be-93f3-cb56e5726e56"},"vehicle_type_id":"4","last_reported":1774174595,"current_range_meters":2800,"station_id":"st_d4e5ca6na9uc73bfl5fg","pricing_plan_id":"cebpf4jnsgd1na2vs0mg"},{"bike_id":"8d027409-862d-44ee-9762-b031c06870a8","system_id":"levelo_inurba_marseille","lat":43.29436,"lon":5.39751,"is_reserved":false,"is_disabled":false,"rental_uris":{"android":"levelo://app?vid=8d027409-862d-44ee-9762-b031c06870a8","ios":"levelo://app?vid=8d027409-862d-44ee-9762-b031c06870a8"},"vehicle_type_id":"4","last_reported":1774174595,"current_range_meters":3200,"station_id":"ce4bh3h2rcd13ifvqdo0","pricing_plan_id":"cebpf4jnsgd1na2vs0mg"},{"bike_id":"ac656c46-4691-458f-95ae-06026bff305e","system_id":"levelo_inurba_marseille","lat":43.28148,"lon":5.42615,"is_reserved":false,"is_disabled":false,"rental_uris":{"android":"levelo://app?vid=ac656c46-4691-458f-95ae-06026bff305e","ios":"levelo://app?vid=ac656c46-4691-458f-95ae-06026bff305e"},"vehicle_type_id":"4","last_reported":1774174595,"current_range_meters":3200,"station_id":"ce4bhnh2rcd13ifvqgug","pricing_plan_id":"cebpf4jnsgd1na2vs0mg"},{"bike_id":"34e58aa9-898e-4f2a-a0d3-cd7852da2d04","system_id":"levelo_inurba_marseille","lat":43.27818,"lon":5.40728,"is_reserved":false,"is_disabled":false,"rental_uris":{"android":"levelo://app?vid=34e58aa9-898e-4f2a-a0d3-cd7852da2d04","ios":"levelo://app?vid=34e58aa9-898e-4f2a-a0d3-cd7852da2d04"},"vehicle_type_id":"4","last_reported":1774174595,"current_range_meters":3200,"station_id":"ce4bhnh2rcd13ifvqgtg","pricing_plan_id":"cebpf4jnsgd1na2vs0mg"},{"bike_id":"71389fc3-a4c3-46c5-a0f9-4330fcbb165b","system_id":"levelo_inurba_marseille","lat":43.27943,"lon":5.41015,"is_reserved":false,"is_disabled":true,"rental_uris":{"android":"levelo://app?vid=71389fc3-a4c3-46c5-a0f9-4330fcbb165b","ios":"levelo://app?vid=71389fc3-a4c3-46c5-a0f9-4330fcbb165b"},"vehicle_type_id":"4","last_reported":1774174595,"current_range_meters":3200,"station_id":"ce4bhnp2rcd13ifvqh0g","pricing_plan_id":"cebpf4jnsgd1na2vs0mg"},{"bike_id":"278f7054-f255-42b7-b87e-903ee568e65a","system_id":"levelo_inurba_marseille","lat":43.28477,"lon":5.38433,"is_reserved":false,"is_disabled":true,"rental_uris":{"android":"levelo://app?vid=278f7054-f255-42b7-b87e-903ee568e65a","ios":"levelo://app?vid=278f7054-f255-42b7-b87e-903ee568e65a"},"vehicle_type_id":"4","last_reported":1774174595,"current_range_meters":3200,"station_id":"ce4bh512rcd13ifvqe3g","pricing_plan_id":"cebpf4jnsgd1na2vs0mg"},{"bike_id":"b4e79cf1-3ca4-4b8d-b2f7-eb95462793aa","system_id":"levelo_inurba_marseille","lat":43.30547,"lon":5.3669,"is_reserved":false,"is_disabled":false,"rental_uris":{"android":"levelo://app?vid=b4e79cf1-3ca4-4b8d-b2f7-eb95462793aa","ios":"levelo://app?vid=b4e79cf1-3ca4-4b8d-b2f7-eb95462793aa"},"vehicle_type_id":"4","last_reported":1774174595,"current_range_meters":3200,"station_id":"ce4bgrp2rcd13ifvqc9g","pricing_plan_id":"cebpf4jnsgd1na2vs0mg"},{"bike_id":"bfa999de-7a32-454a-b31e-f99ace51a3fc","system_id":"levelo_inurba_marseille","lat":43.28479,"lon":5.48398,"is_reserved":false,"is_disabled":false,"rental_uris":{"android":"levelo://app?vid=bfa999de-7a32-454a-b31e-f99ace51a3fc","ios":"levelo://app?vid=bfa999de-7a32-454a-b31e-f99ace51a3fc"},"vehicle_type_id":"4","last_reported":1774174595,"current_range_meters":3200,"station_id":"","pricing_plan_id":"cebpf4jnsgd1na2vs0mg"},{"bike_id":"4b11e079-bb00-4636-9cda-72c733e64f87","system_id":"levelo_inurba_marseille","lat":43.30914,"lon":5.36843,"is_reserved":false,"is_disabled":false,"rental_uris":{"android":"levelo://app?vid=4b11e079-bb00-4636-9cda-72c733e64f87","ios":"levelo://app?vid=4b11e079-bb00-4636-9cda-72c733e64f87"},"vehicle_type_id":"4","last_reported":1774174595,"current_range_meters":3200,"station_id":"ce4bgn92rcd13ifvqbvg","pricing_plan_id":"cebpf4jnsgd1na2vs0mg"},{"bike_id":"9562cb1b-3eaf-4a03-a5e3-1337d62db9d4","system_id":"levelo_inurba_marseille","lat":43.2894,"lon":5.36389,"is_reserved":false,"is_disabled":false,"rental_uris":{"android":"levelo://app?vid=9562cb1b-3eaf-4a03-a5e3-1337d62db9d4","ios":"levelo://app?vid=9562cb1b-3eaf-4a03-a5e3-1337d62db9d4"},"vehicle_type_id":"4","last_reported":1774174595,"current_range_meters":3600,"station_id":"ce4bhc92rcd13ifvqetg","pricing_plan_id":"cebpf4jnsgd1na2vs0mg"},{"bike_id":"fa19fa03-a955-4473-bb14-c0215f128c58","system_id":"levelo_inurba_marseille","lat":43.29762,"lon":5.37108,"is_reserved":false,"is_disabled":false,"rental_uris":{"android":"levelo://app?vid=fa19fa03-a955-4473-bb14-c0215f128c58","ios":"levelo://app?vid=fa19fa03-a955-4473-bb14-c0215f128c58"},"vehicle_type_id":"4","last_reported":1774174595,"current_range_meters":3600,"station_id":"ce4bgop2rcd13ifvqc1g","pricing_plan_id":"cebpf4jnsgd1na2vs0mg"},{"bike_id":"922b18cd-37dd-4d90-8953-8a50f6296f4b","system_id":"levelo_inurba_marseille","lat":43.24465,"lon":5.42541,"is_reserved":false,"is_disabled":false,"rental_uris":{"android":"levelo://app?vid=922b18cd-37dd-4d90-8953-8a50f6296f4b","ios":"levelo://app?vid=922b18cd-37dd-4d90-8953-8a50f6296f4b"},"vehicle_type_id":"4","last_reported":1774174595,"current_range_meters":3600,"station_id":"","pricing_plan_id":"cebpf4jnsgd1na2vs0mg"},{"bike_id":"8e70251c-8f02-4240-8304-f6a3026eaebe","system_id":"levelo_inurba_marseille","lat":43.30921,"lon":5.36846,"is_reserved":false,"is_disabled":false,"rental_uris":{"android":"levelo://app?vid=8e70251c-8f02-4240-8304-f6a3026eaebe","ios":"levelo://app?vid=8e70251c-8f02-4240-8304-f6a3026eaebe"},"vehicle_type_id":"4","last_reported":1774174595,"current_range_meters":3600,"station_id":"ce4bgn92rcd13ifvqbvg","pricing_plan_id":"cebpf4jnsgd1na2vs0mg"},{"bike_id":"9895479c-7522-4c8b-996f-5f3e1c1b4f33","system_id":"levelo_inurba_marseille","lat":43.23796,"lon":5.36609,"is_reserved":false,"is_disabled":false,"rental_uris":{"android":"levelo://app?vid=9895479c-7522-4c8b-996f-5f3e1c1b4f33","ios":"levelo://app?vid=9895479c-7522-4c8b-996f-5f3e1c1b4f33"},"vehicle_type_id":"4","last_reported":1774174595,"current_range_meters":3600,"station_id":"st_d3nk18o9ro0c73en2l3g","pricing_plan_id":"cebpf4jnsgd1na2vs0mg"},{"bike_id":"b75b0ef9-58e6-489e-a8cf-7c4c4208dccd","system_id":"levelo_inurba_marseille","lat":43.28,"lon":5.41662,"is_reserved":false,"is_disabled":false,"rental_uris":{"android":"levelo://app?vid=b75b0ef9-58e6-489e-a8cf-7c4c4208dccd","ios":"levelo://app?vid=b75b0ef9-58e6-489e-a8cf-7c4c4208dccd"},"vehicle_type_id":"4","last_reported":1774174595,"current_range_meters":3600,"station_id":"ce4bho12rcd13ifvqh1g","pricing_plan_id":"cebpf4jnsgd1na2vs0mg"},{"bike_id":"9e87f03a-9860-4893-845f-6c3c8a02a628","system_id":"levelo_inurba_marseille","lat":43.2743,"lon":5.3937,"is_reserved":false,"is_disabled":false,"rental_uris":{"android":"levelo://app?vid=9e87f03a-9860-4893-845f-6c3c8a02a628","ios":"levelo://app?vid=9e87f03a-9860-4893-845f-6c3c8a02a628"},"vehicle_type_id":"4","last_reported":1774174595,"current_range_meters":3600,"station_id":"ce4bhdp2rcd13ifvqf20","pricing_plan_id":"cebpf4jnsgd1na2vs0mg"},{"bike_id":"da5dc73f-7051-402b-b54b-6e143151c084","system_id":"levelo_inurba_marseille","lat":43.24671,"lon":5.38138,"is_reserved":false,"is_disabled":false,"rental_uris":{"android":"levelo://app?vid=da5dc73f-7051-402b-b54b-6e143151c084","ios":"levelo://app?vid=da5dc73f-7051-402b-b54b-6e143151c084"},"vehicle_type_id":"4","last_reported":1774174595,"current_range_meters":3600,"station_id":"ce4bhih2rcd13ifvqfr0","pricing_plan_id":"cebpf4jnsgd1na2vs0mg"},{"bike_id":"7735375d-1041-4f99-b2b7-719b8a41cb75","system_id":"levelo_inurba_marseille","lat":43.28157,"lon":5.42635,"is_reserved":false,"is_disabled":true,"rental_uris":{"android":"levelo://app?vid=7735375d-1041-4f99-b2b7-719b8a41cb75","ios":"levelo://app?vid=7735375d-1041-4f99-b2b7-719b8a41cb75"},"vehicle_type_id":"4","last_reported":1774174595,"current_range_meters":3600,"station_id":"ce4bhnh2rcd13ifvqgug","pricing_plan_id":"cebpf4jnsgd1na2vs0mg"},{"bike_id":"1ef365fb-488e-4c1c-85b8-5a9107b69030","system_id":"levelo_inurba_marseille","lat":43.31301,"lon":5.39639,"is_reserved":false,"is_disabled":false,"rental_uris":{"android":"levelo://app?vid=1ef365fb-488e-4c1c-85b8-5a9107b69030","ios":"levelo://app?vid=1ef365fb-488e-4c1c-85b8-5a9107b69030"},"vehicle_type_id":"4","last_reported":1774174595,"current_range_meters":3600,"station_id":"ce4bgvp2rcd13ifvqcu0","pricing_plan_id":"cebpf4jnsgd1na2vs0mg"},{"bike_id":"f1f374c7-7df8-4ad3-87c0-64cf3efed19a","system_id":"levelo_inurba_marseille","lat":43.30793,"lon":5.37646,"is_reserved":false,"is_disabled":false,"rental_uris":{"android":"levelo://app?vid=f1f374c7-7df8-4ad3-87c0-64cf3efed19a","ios":"levelo://app?vid=f1f374c7-7df8-4ad3-87c0-64cf3efed19a"},"vehicle_type_id":"4","last_reported":1774174595,"current_range_meters":4000,"station_id":"ce4bgv92rcd13ifvqcq0","pricing_plan_id":"cebpf4jnsgd1na2vs0mg"},{"bike_id":"9666d726-062c-4a11-80ec-ca5e3a6441ca","system_id":"levelo_inurba_marseille","lat":43.27956,"lon":5.38712,"is_reserved":false,"is_disabled":false,"rental_uris":{"android":"levelo://app?vid=9666d726-062c-4a11-80ec-ca5e3a6441ca","ios":"levelo://app?vid=9666d726-062c-4a11-80ec-ca5e3a6441ca"},"vehicle_type_id":"4","last_reported":1774174595,"current_range_meters":4000,"station_id":"ce4bhg12rcd13ifvqf80","pricing_plan_id":"cebpf4jnsgd1na2vs0mg"},{"bike_id":"37fd8b91-bebb-483f-9ede-850904204da2","system_id":"levelo_inurba_marseille","lat":43.33419,"lon":5.35688,"is_reserved":false,"is_disabled":false,"rental_uris":{"android":"levelo://app?vid=37fd8b91-bebb-483f-9ede-850904204da2","ios":"levelo://app?vid=37fd8b91-bebb-483f-9ede-850904204da2"},"vehicle_type_id":"4","last_reported":1774174595,"current_range_meters":4000,"station_id":"","pricing_plan_id":"cebpf4jnsgd1na2vs0mg"},{"bike_id":"2cf76306-be49-40e2-b33f-3774877dc26e","system_id":"levelo_inurba_marseille","lat":43.28153,"lon":5.42627,"is_reserved":false,"is_disabled":false,"rental_uris":{"android":"levelo://app?vid=2cf76306-be49-40e2-b33f-3774877dc26e","ios":"levelo://app?vid=2cf76306-be49-40e2-b33f-3774877dc26e"},"vehicle_type_id":"4","last_reported":1774174595,"current_range_meters":4000,"station_id":"ce4bhnh2rcd13ifvqgug","pricing_plan_id":"cebpf4jnsgd1na2vs0mg"},{"bike_id":"1856b9ba-950d-4d20-8b8a-1dd2c2ab3f7d","system_id":"levelo_inurba_marseille","lat":43.26942,"lon":5.4026,"is_reserved":false,"is_disabled":false,"rental_uris":{"android":"levelo://app?vid=1856b9ba-950d-4d20-8b8a-1dd2c2ab3f7d","ios":"levelo://app?vid=1856b9ba-950d-4d20-8b8a-1dd2c2ab3f7d"},"vehicle_type_id":"4","last_reported":1774174595,"current_range_meters":4000,"station_id":"cjm6bp8fraef2m0cb0m0","pricing_plan_id":"cebpf4jnsgd1na2vs0mg"},{"bike_id":"b6a0fd7c-52e7-425e-b7f0-202eb8ef440f","system_id":"levelo_inurba_marseille","lat":43.29526,"lon":5.37496,"is_reserved":false,"is_disabled":false,"rental_uris":{"android":"levelo://app?vid=b6a0fd7c-52e7-425e-b7f0-202eb8ef440f","ios":"levelo://app?vid=b6a0fd7c-52e7-425e-b7f0-202eb8ef440f"},"vehicle_type_id":"4","last_reported":1774174595,"current_range_meters":4400,"station_id":"ce4bgkp2rcd13ifvqbmg","pricing_plan_id":"cebpf4jnsgd1na2vs0mg"},{"bike_id":"ee8c0786-704b-4515-a31a-2e24ac80a01b","system_id":"levelo_inurba_marseille","lat":43.3354,"lon":5.37485,"is_reserved":false,"is_disabled":false,"rental_uris":{"android":"levelo://app?vid=ee8c0786-704b-4515-a31a-2e24ac80a01b","ios":"levelo://app?vid=ee8c0786-704b-4515-a31a-2e24ac80a01b"},"vehicle_type_id":"4","last_reported":1774174595,"current_range_meters":4400,"station_id":"st_d46tts09ee8s73dlu43g","pricing_plan_id":"cebpf4jnsgd1na2vs0mg"},{"bike_id":"c1132910-04b4-46e1-a0d5-c4ac5cbe805d","system_id":"levelo_inurba_marseille","lat":43.2694,"lon":5.40285,"is_reserved":false,"is_disabled":false,"rental_uris":{"android":"levelo://app?vid=c1132910-04b4-46e1-a0d5-c4ac5cbe805d","ios":"levelo://app?vid=c1132910-04b4-46e1-a0d5-c4ac5cbe805d"},"vehicle_type_id":"4","last_reported":1774174595,"current_range_meters":4400,"station_id":"cjm6bp8fraef2m0cb0m0","pricing_plan_id":"cebpf4jnsgd1na2vs0mg"},{"bike_id":"b87ee8de-0dcf-46cf-b088-5ce18734bb4a","system_id":"levelo_inurba_marseille","lat":43.27211,"lon":5.39186,"is_reserved":false,"is_disabled":false,"rental_uris":{"android":"levelo://app?vid=b87ee8de-0dcf-46cf-b088-5ce18734bb4a","ios":"levelo://app?vid=b87ee8de-0dcf-46cf-b088-5ce18734bb4a"},"vehicle_type_id":"4","last_reported":1774174595,"current_range_meters":4400,"station_id":"ce4bhhp2rcd13ifvqfm0","pricing_plan_id":"cebpf4jnsgd1na2vs0mg"},{"bike_id":"077ba1f4-9955-44ea-8995-8df9c4ed43ac","system_id":"levelo_inurba_marseille","lat":43.31055,"lon":5.37146,"is_reserved":false,"is_disabled":false,"rental_uris":{"android":"levelo://app?vid=077ba1f4-9955-44ea-8995-8df9c4ed43ac","ios":"levelo://app?vid=077ba1f4-9955-44ea-8995-8df9c4ed43ac"},"vehicle_type_id":"4","last_reported":1774174595,"current_range_meters":4400,"station_id":"st_d4kl2rp97mjs73e7tdfg","pricing_plan_id":"cebpf4jnsgd1na2vs0mg"},{"bike_id":"e80e3045-8283-4d1d-b48f-693d799b5a5c","system_id":"levelo_inurba_marseille","lat":43.29498,"lon":5.43307,"is_reserved":false,"is_disabled":false,"rental_uris":{"android":"levelo://app?vid=e80e3045-8283-4d1d-b48f-693d799b5a5c","ios":"levelo://app?vid=e80e3045-8283-4d1d-b48f-693d799b5a5c"},"vehicle_type_id":"4","last_reported":1774174595,"current_range_meters":4400,"station_id":"st_d3j5ugp08ojc73fj9d10","pricing_plan_id":"cebpf4jnsgd1na2vs0mg"},{"bike_id":"5c964224-b7a1-45e9-979d-0b588b3cc015","system_id":"levelo_inurba_marseille","lat":43.29101,"lon":5.38152,"is_reserved":false,"is_disabled":true,"rental_uris":{"android":"levelo://app?vid=5c964224-b7a1-45e9-979d-0b588b3cc015","ios":"levelo://app?vid=5c964224-b7a1-45e9-979d-0b588b3cc015"},"vehicle_type_id":"4","last_reported":1774174595,"current_range_meters":4400,"station_id":"ce4bh512rcd13ifvqe2g","pricing_plan_id":"cebpf4jnsgd1na2vs0mg"},{"bike_id":"5206b1c0-ea28-4288-9fb7-15de647e09fa","system_id":"levelo_inurba_marseille","lat":43.33532,"lon":5.37441,"is_reserved":false,"is_disabled":false,"rental_uris":{"android":"levelo://app?vid=5206b1c0-ea28-4288-9fb7-15de647e09fa","ios":"levelo://app?vid=5206b1c0-ea28-4288-9fb7-15de647e09fa"},"vehicle_type_id":"4","last_reported":1774174595,"current_range_meters":4400,"station_id":"st_d46tts09ee8s73dlu43g","pricing_plan_id":"cebpf4jnsgd1na2vs0mg"},{"bike_id":"84dc3d68-1c59-4a3a-a8d1-cca6c5afc7c9","system_id":"levelo_inurba_marseille","lat":43.26952,"lon":5.38627,"is_reserved":false,"is_disabled":false,"rental_uris":{"android":"levelo://app?vid=84dc3d68-1c59-4a3a-a8d1-cca6c5afc7c9","ios":"levelo://app?vid=84dc3d68-1c59-4a3a-a8d1-cca6c5afc7c9"},"vehicle_type_id":"4","last_reported":1774174595,"current_range_meters":4400,"station_id":"ce4bhh92rcd13ifvqfh0","pricing_plan_id":"cebpf4jnsgd1na2vs0mg"},{"bike_id":"d9a2340f-4dc0-456b-89f0-454af4d93a65","system_id":"levelo_inurba_marseille","lat":43.28493,"lon":5.35124,"is_reserved":false,"is_disabled":false,"rental_uris":{"android":"levelo://app?vid=d9a2340f-4dc0-456b-89f0-454af4d93a65","ios":"levelo://app?vid=d9a2340f-4dc0-456b-89f0-454af4d93a65"},"vehicle_type_id":"4","last_reported":1774174595,"current_range_meters":4400,"station_id":"","pricing_plan_id":"cebpf4jnsgd1na2vs0mg"},{"bike_id":"eec1e70a-7a70-4f35-82df-f3727eb58f06","system_id":"levelo_inurba_marseille","lat":43.29648,"lon":5.40184,"is_reserved":false,"is_disabled":false,"rental_uris":{"android":"levelo://app?vid=eec1e70a-7a70-4f35-82df-f3727eb58f06","ios":"levelo://app?vid=eec1e70a-7a70-4f35-82df-f3727eb58f06"},"vehicle_type_id":"4","last_reported":1774174595,"current_range_meters":4400,"station_id":"","pricing_plan_id":"cebpf4jnsgd1na2vs0mg"},{"bike_id":"30488e53-a916-4576-8d60-08964688e945","system_id":"levelo_inurba_marseille","lat":43.30888,"lon":5.37194,"is_reserved":false,"is_disabled":false,"rental_uris":{"android":"levelo://app?vid=30488e53-a916-4576-8d60-08964688e945","ios":"levelo://app?vid=30488e53-a916-4576-8d60-08964688e945"},"vehicle_type_id":"4","last_reported":1774174595,"current_range_meters":4400,"station_id":"ce4bguh2rcd13ifvqckg","pricing_plan_id":"cebpf4jnsgd1na2vs0mg"},{"bike_id":"703efbe1-feef-417d-a9e3-0fca1a7eab74","system_id":"levelo_inurba_marseille","lat":43.3493,"lon":5.37906,"is_reserved":false,"is_disabled":false,"rental_uris":{"android":"levelo://app?vid=703efbe1-feef-417d-a9e3-0fca1a7eab74","ios":"levelo://app?vid=703efbe1-feef-417d-a9e3-0fca1a7eab74"},"vehicle_type_id":"4","last_reported":1774174595,"current_range_meters":4400,"station_id":"","pricing_plan_id":"cebpf4jnsgd1na2vs0mg"},{"bike_id":"7df589a5-17f0-469b-9718-8c8cb28924d3","system_id":"levelo_inurba_marseille","lat":43.33203,"lon":5.37663,"is_reserved":false,"is_disabled":false,"rental_uris":{"android":"levelo://app?vid=7df589a5-17f0-469b-9718-8c8cb28924d3","ios":"levelo://app?vid=7df589a5-17f0-469b-9718-8c8cb28924d3"},"vehicle_type_id":"4","last_reported":1774174595,"current_range_meters":4400,"station_id":"st_d46cu089ee8s73dldbu0","pricing_plan_id":"cebpf4jnsgd1na2vs0mg"},{"bike_id":"0d715b3a-bf00-4b51-86f8-fa10dbeac6fa","system_id":"levelo_inurba_marseille","lat":43.2574,"lon":5.41958,"is_reserved":false,"is_disabled":false,"rental_uris":{"android":"levelo://app?vid=0d715b3a-bf00-4b51-86f8-fa10dbeac6fa","ios":"levelo://app?vid=0d715b3a-bf00-4b51-86f8-fa10dbeac6fa"},"vehicle_type_id":"4","last_reported":1774174595,"current_range_meters":4400,"station_id":"","pricing_plan_id":"cebpf4jnsgd1na2vs0mg"},{"bike_id":"77fd8b22-7cd5-4b6c-897d-023411de4a80","system_id":"levelo_inurba_marseille","lat":43.31215,"lon":5.36836,"is_reserved":false,"is_disabled":false,"rental_uris":{"android":"levelo://app?vid=77fd8b22-7cd5-4b6c-897d-023411de4a80","ios":"levelo://app?vid=77fd8b22-7cd5-4b6c-897d-023411de4a80"},"vehicle_type_id":"4","last_reported":1774174595,"current_range_meters":4400,"station_id":"ce4bgl92rcd13ifvqbq0","pricing_plan_id":"cebpf4jnsgd1na2vs0mg"},{"bike_id":"53663f10-c972-4dad-83a0-96ec19d2a37e","system_id":"levelo_inurba_marseille","lat":43.25014,"lon":5.38872,"is_reserved":false,"is_disabled":true,"rental_uris":{"android":"levelo://app?vid=53663f10-c972-4dad-83a0-96ec19d2a37e","ios":"levelo://app?vid=53663f10-c972-4dad-83a0-96ec19d2a37e"},"vehicle_type_id":"4","last_reported":1774174595,"current_range_meters":4800,"station_id":"ce4bhgp2rcd13ifvqfd0","pricing_plan_id":"cebpf4jnsgd1na2vs0mg"},{"bike_id":"c7cc5081-8a90-4664-8378-0ac0db8d74fb","system_id":"levelo_inurba_marseille","lat":43.29838,"lon":5.36677,"is_reserved":false,"is_disabled":false,"rental_uris":{"android":"levelo://app?vid=c7cc5081-8a90-4664-8378-0ac0db8d74fb","ios":"levelo://app?vid=c7cc5081-8a90-4664-8378-0ac0db8d74fb"},"vehicle_type_id":"4","last_reported":1774174595,"current_range_meters":4800,"station_id":"","pricing_plan_id":"cebpf4jnsgd1na2vs0mg"},{"bike_id":"a3937008-bd85-4217-8a76-18de4c3db7e7","system_id":"levelo_inurba_marseille","lat":43.31365,"lon":5.38497,"is_reserved":false,"is_disabled":false,"rental_uris":{"android":"levelo://app?vid=a3937008-bd85-4217-8a76-18de4c3db7e7","ios":"levelo://app?vid=a3937008-bd85-4217-8a76-18de4c3db7e7"},"vehicle_type_id":"4","last_reported":1774174595,"current_range_meters":4800,"station_id":"ce4bgt92rcd13ifvqcf0","pricing_plan_id":"cebpf4jnsgd1na2vs0mg"},{"bike_id":"d65bd890-bd76-40b1-a464-add252f480e6","system_id":"levelo_inurba_marseille","lat":43.31736,"lon":5.38999,"is_reserved":false,"is_disabled":false,"rental_uris":{"android":"levelo://app?vid=d65bd890-bd76-40b1-a464-add252f480e6","ios":"levelo://app?vid=d65bd890-bd76-40b1-a464-add252f480e6"},"vehicle_type_id":"4","last_reported":1774174595,"current_range_meters":4800,"station_id":"ce4bhqp2rcd13ifvqhng","pricing_plan_id":"cebpf4jnsgd1na2vs0mg"},{"bike_id":"772c118b-fc2d-4928-9dbe-f788fcb6ff52","system_id":"levelo_inurba_marseille","lat":43.28453,"lon":5.35873,"is_reserved":false,"is_disabled":false,"rental_uris":{"android":"levelo://app?vid=772c118b-fc2d-4928-9dbe-f788fcb6ff52","ios":"levelo://app?vid=772c118b-fc2d-4928-9dbe-f788fcb6ff52"},"vehicle_type_id":"4","last_reported":1774174595,"current_range_meters":4800,"station_id":"ce4bhah2rcd13ifvqei0","pricing_plan_id":"cebpf4jnsgd1na2vs0mg"},{"bike_id":"1bf523a3-5926-4a56-bcae-e377f2ed8117","system_id":"levelo_inurba_marseille","lat":43.27941,"lon":5.41034,"is_reserved":false,"is_disabled":false,"rental_uris":{"android":"levelo://app?vid=1bf523a3-5926-4a56-bcae-e377f2ed8117","ios":"levelo://app?vid=1bf523a3-5926-4a56-bcae-e377f2ed8117"},"vehicle_type_id":"4","last_reported":1774174595,"current_range_meters":4800,"station_id":"ce4bhnp2rcd13ifvqh0g","pricing_plan_id":"cebpf4jnsgd1na2vs0mg"},{"bike_id":"e6475c08-c2b5-4384-9f5a-f76a9e6ed419","system_id":"levelo_inurba_marseille","lat":43.30151,"lon":5.39892,"is_reserved":false,"is_disabled":true,"rental_uris":{"android":"levelo://app?vid=e6475c08-c2b5-4384-9f5a-f76a9e6ed419","ios":"levelo://app?vid=e6475c08-c2b5-4384-9f5a-f76a9e6ed419"},"vehicle_type_id":"4","last_reported":1774174595,"current_range_meters":4800,"station_id":"ce4bh0h2rcd13ifvqd40","pricing_plan_id":"cebpf4jnsgd1na2vs0mg"},{"bike_id":"bb64248e-0e5d-4ee1-9d8f-d48a0dd77d66","system_id":"levelo_inurba_marseille","lat":43.21625,"lon":5.34474,"is_reserved":false,"is_disabled":false,"rental_uris":{"android":"levelo://app?vid=bb64248e-0e5d-4ee1-9d8f-d48a0dd77d66","ios":"levelo://app?vid=bb64248e-0e5d-4ee1-9d8f-d48a0dd77d66"},"vehicle_type_id":"4","last_reported":1774174595,"current_range_meters":4800,"station_id":"","pricing_plan_id":"cebpf4jnsgd1na2vs0mg"},{"bike_id":"881552ad-57ca-4484-9a05-f159c58f50d9","system_id":"levelo_inurba_marseille","lat":43.31689,"lon":5.38688,"is_reserved":false,"is_disabled":false,"rental_uris":{"android":"levelo://app?vid=881552ad-57ca-4484-9a05-f159c58f50d9","ios":"levelo://app?vid=881552ad-57ca-4484-9a05-f159c58f50d9"},"vehicle_type_id":"4","last_reported":1774174595,"current_range_meters":4800,"station_id":"","pricing_plan_id":"cebpf4jnsgd1na2vs0mg"},{"bike_id":"7f49cfef-fa82-40c2-9530-fca463b27d0d","system_id":"levelo_inurba_marseille","lat":43.30896,"lon":5.39646,"is_reserved":false,"is_disabled":false,"rental_uris":{"android":"levelo://app?vid=7f49cfef-fa82-40c2-9530-fca463b27d0d","ios":"levelo://app?vid=7f49cfef-fa82-40c2-9530-fca463b27d0d"},"vehicle_type_id":"4","last_reported":1774174595,"current_range_meters":4800,"station_id":"ce4bh012rcd13ifvqcv0","pricing_plan_id":"cebpf4jnsgd1na2vs0mg"},{"bike_id":"58930592-65f7-4192-ac2f-be7392b8805a","system_id":"levelo_inurba_marseille","lat":43.2622,"lon":5.40468,"is_reserved":false,"is_disabled":false,"rental_uris":{"android":"levelo://app?vid=58930592-65f7-4192-ac2f-be7392b8805a","ios":"levelo://app?vid=58930592-65f7-4192-ac2f-be7392b8805a"},"vehicle_type_id":"4","last_reported":1774174595,"current_range_meters":5600,"station_id":"ce4bhmh2rcd13ifvqgmg","pricing_plan_id":"cebpf4jnsgd1na2vs0mg"},{"bike_id":"684715c6-945f-4949-9133-64dec7838b4e","system_id":"levelo_inurba_marseille","lat":43.27211,"lon":5.39194,"is_reserved":false,"is_disabled":true,"rental_uris":{"android":"levelo://app?vid=684715c6-945f-4949-9133-64dec7838b4e","ios":"levelo://app?vid=684715c6-945f-4949-9133-64dec7838b4e"},"vehicle_type_id":"4","last_reported":1774174595,"current_range_meters":5600,"station_id":"ce4bhhp2rcd13ifvqfm0","pricing_plan_id":"cebpf4jnsgd1na2vs0mg"},{"bike_id":"2903e23d-89db-4960-bf9f-79327039d7a5","system_id":"levelo_inurba_marseille","lat":43.29031,"lon":5.37565,"is_reserved":false,"is_disabled":false,"rental_uris":{"android":"levelo://app?vid=2903e23d-89db-4960-bf9f-79327039d7a5","ios":"levelo://app?vid=2903e23d-89db-4960-bf9f-79327039d7a5"},"vehicle_type_id":"4","last_reported":1774174595,"current_range_meters":5600,"station_id":"ce4bh692rcd13ifvqe90","pricing_plan_id":"cebpf4jnsgd1na2vs0mg"},{"bike_id":"df5ad533-8354-43dd-b4db-d4118becde63","system_id":"levelo_inurba_marseille","lat":43.28487,"lon":5.48309,"is_reserved":false,"is_disabled":false,"rental_uris":{"android":"levelo://app?vid=df5ad533-8354-43dd-b4db-d4118becde63","ios":"levelo://app?vid=df5ad533-8354-43dd-b4db-d4118becde63"},"vehicle_type_id":"4","last_reported":1774174595,"current_range_meters":5600,"station_id":"","pricing_plan_id":"cebpf4jnsgd1na2vs0mg"},{"bike_id":"853b60f9-9203-48d1-83d9-1955c5adb34b","system_id":"levelo_inurba_marseille","lat":43.31325,"lon":5.39685,"is_reserved":false,"is_disabled":false,"rental_uris":{"android":"levelo://app?vid=853b60f9-9203-48d1-83d9-1955c5adb34b","ios":"levelo://app?vid=853b60f9-9203-48d1-83d9-1955c5adb34b"},"vehicle_type_id":"4","last_reported":1774174595,"current_range_meters":5600,"station_id":"ce4bgvp2rcd13ifvqcu0","pricing_plan_id":"cebpf4jnsgd1na2vs0mg"},{"bike_id":"69e1d157-7775-4f17-8829-e4cd647d9b9a","system_id":"levelo_inurba_marseille","lat":43.2559,"lon":5.38227,"is_reserved":false,"is_disabled":false,"rental_uris":{"android":"levelo://app?vid=69e1d157-7775-4f17-8829-e4cd647d9b9a","ios":"levelo://app?vid=69e1d157-7775-4f17-8829-e4cd647d9b9a"},"vehicle_type_id":"4","last_reported":1774174595,"current_range_meters":5600,"station_id":"ce4bhih2rcd13ifvqfs0","pricing_plan_id":"cebpf4jnsgd1na2vs0mg"},{"bike_id":"bf370da2-9793-4874-9a08-205575cb1266","system_id":"levelo_inurba_marseille","lat":43.29577,"lon":5.37518,"is_reserved":false,"is_disabled":false,"rental_uris":{"android":"levelo://app?vid=bf370da2-9793-4874-9a08-205575cb1266","ios":"levelo://app?vid=bf370da2-9793-4874-9a08-205575cb1266"},"vehicle_type_id":"4","last_reported":1774174595,"current_range_meters":5600,"station_id":"ce4bgh92rcd13ifvqb50","pricing_plan_id":"cebpf4jnsgd1na2vs0mg"},{"bike_id":"5c57b442-e44c-4217-ae47-6fe16361dbee","system_id":"levelo_inurba_marseille","lat":43.29769,"lon":5.42769,"is_reserved":false,"is_disabled":false,"rental_uris":{"android":"levelo://app?vid=5c57b442-e44c-4217-ae47-6fe16361dbee","ios":"levelo://app?vid=5c57b442-e44c-4217-ae47-6fe16361dbee"},"vehicle_type_id":"4","last_reported":1774174595,"current_range_meters":5600,"station_id":"st_d3md5207bmas73dh9klg","pricing_plan_id":"cebpf4jnsgd1na2vs0mg"},{"bike_id":"c8ef8237-7c82-4474-9282-627a5eccbcba","system_id":"levelo_inurba_marseille","lat":43.31287,"lon":5.4017,"is_reserved":false,"is_disabled":false,"rental_uris":{"android":"levelo://app?vid=c8ef8237-7c82-4474-9282-627a5eccbcba","ios":"levelo://app?vid=c8ef8237-7c82-4474-9282-627a5eccbcba"},"vehicle_type_id":"4","last_reported":1774174595,"current_range_meters":5600,"station_id":"ce4bh092rcd13ifvqd30","pricing_plan_id":"cebpf4jnsgd1na2vs0mg"},{"bike_id":"fdc655d4-8c99-4d97-9c1e-46ec98ef8979","system_id":"levelo_inurba_marseille","lat":43.28697,"lon":5.35027,"is_reserved":false,"is_disabled":true,"rental_uris":{"android":"levelo://app?vid=fdc655d4-8c99-4d97-9c1e-46ec98ef8979","ios":"levelo://app?vid=fdc655d4-8c99-4d97-9c1e-46ec98ef8979"},"vehicle_type_id":"4","last_reported":1774174595,"current_range_meters":6000,"station_id":"","pricing_plan_id":"cebpf4jnsgd1na2vs0mg"},{"bike_id":"b6fffe2f-9423-41b9-a53f-4ddbccd10965","system_id":"levelo_inurba_marseille","lat":43.3354,"lon":5.37454,"is_reserved":false,"is_disabled":false,"rental_uris":{"android":"levelo://app?vid=b6fffe2f-9423-41b9-a53f-4ddbccd10965","ios":"levelo://app?vid=b6fffe2f-9423-41b9-a53f-4ddbccd10965"},"vehicle_type_id":"4","last_reported":1774174595,"current_range_meters":6000,"station_id":"st_d46tts09ee8s73dlu43g","pricing_plan_id":"cebpf4jnsgd1na2vs0mg"},{"bike_id":"f72d76b5-18e1-454b-afe7-6526fb898042","system_id":"levelo_inurba_marseille","lat":43.2706,"lon":5.38305,"is_reserved":false,"is_disabled":false,"rental_uris":{"android":"levelo://app?vid=f72d76b5-18e1-454b-afe7-6526fb898042","ios":"levelo://app?vid=f72d76b5-18e1-454b-afe7-6526fb898042"},"vehicle_type_id":"4","last_reported":1774174595,"current_range_meters":6000,"station_id":"st_d3n2fo6cfp8s73cte1j0","pricing_plan_id":"cebpf4jnsgd1na2vs0mg"},{"bike_id":"2dcaae07-8f2a-468c-81ff-c8df57e96b3f","system_id":"levelo_inurba_marseille","lat":43.2958,"lon":5.37505,"is_reserved":false,"is_disabled":false,"rental_uris":{"android":"levelo://app?vid=2dcaae07-8f2a-468c-81ff-c8df57e96b3f","ios":"levelo://app?vid=2dcaae07-8f2a-468c-81ff-c8df57e96b3f"},"vehicle_type_id":"4","last_reported":1774174595,"current_range_meters":6000,"station_id":"ce4bgh92rcd13ifvqb50","pricing_plan_id":"cebpf4jnsgd1na2vs0mg"},{"bike_id":"280578b9-60d3-4d63-bb0d-4693a52f0b6d","system_id":"levelo_inurba_marseille","lat":43.2901,"lon":5.38119,"is_reserved":false,"is_disabled":true,"rental_uris":{"android":"levelo://app?vid=280578b9-60d3-4d63-bb0d-4693a52f0b6d","ios":"levelo://app?vid=280578b9-60d3-4d63-bb0d-4693a52f0b6d"},"vehicle_type_id":"4","last_reported":1774174595,"current_range_meters":6000,"station_id":"ce4bh4p2rcd13ifvqe1g","pricing_plan_id":"cebpf4jnsgd1na2vs0mg"},{"bike_id":"157e7141-28c2-4140-9fc5-3680c6b177ad","system_id":"levelo_inurba_marseille","lat":43.27376,"lon":5.36257,"is_reserved":false,"is_disabled":false,"rental_uris":{"android":"levelo://app?vid=157e7141-28c2-4140-9fc5-3680c6b177ad","ios":"levelo://app?vid=157e7141-28c2-4140-9fc5-3680c6b177ad"},"vehicle_type_id":"4","last_reported":1774174595,"current_range_meters":6000,"station_id":"ce4bhbh2rcd13ifvqeo0","pricing_plan_id":"cebpf4jnsgd1na2vs0mg"},{"bike_id":"afaf009b-854b-4a4a-9a19-fdc9f27a88ec","system_id":"levelo_inurba_marseille","lat":43.29027,"lon":5.38641,"is_reserved":false,"is_disabled":true,"rental_uris":{"android":"levelo://app?vid=afaf009b-854b-4a4a-9a19-fdc9f27a88ec","ios":"levelo://app?vid=afaf009b-854b-4a4a-9a19-fdc9f27a88ec"},"vehicle_type_id":"4","last_reported":1774174595,"current_range_meters":6000,"station_id":"ce4bh4p2rcd13ifvqe0g","pricing_plan_id":"cebpf4jnsgd1na2vs0mg"},{"bike_id":"2cd11bbe-ed2d-4401-ac74-aa88c1ac5db6","system_id":"levelo_inurba_marseille","lat":43.29427,"lon":5.39765,"is_reserved":false,"is_disabled":false,"rental_uris":{"android":"levelo://app?vid=2cd11bbe-ed2d-4401-ac74-aa88c1ac5db6","ios":"levelo://app?vid=2cd11bbe-ed2d-4401-ac74-aa88c1ac5db6"},"vehicle_type_id":"4","last_reported":1774174595,"current_range_meters":6000,"station_id":"ce4bh3h2rcd13ifvqdo0","pricing_plan_id":"cebpf4jnsgd1na2vs0mg"},{"bike_id":"39f4beb0-012a-4d3a-98c2-50c05feff499","system_id":"levelo_inurba_marseille","lat":43.28529,"lon":5.44066,"is_reserved":false,"is_disabled":false,"rental_uris":{"android":"levelo://app?vid=39f4beb0-012a-4d3a-98c2-50c05feff499","ios":"levelo://app?vid=39f4beb0-012a-4d3a-98c2-50c05feff499"},"vehicle_type_id":"4","last_reported":1774174595,"current_range_meters":6400,"station_id":"st_d3j3df2ikq2c7380ej80","pricing_plan_id":"cebpf4jnsgd1na2vs0mg"},{"bike_id":"9428c957-f603-4346-9e68-4f9e4a780b24","system_id":"levelo_inurba_marseille","lat":43.21784,"lon":5.34622,"is_reserved":false,"is_disabled":true,"rental_uris":{"android":"levelo://app?vid=9428c957-f603-4346-9e68-4f9e4a780b24","ios":"levelo://app?vid=9428c957-f603-4346-9e68-4f9e4a780b24"},"vehicle_type_id":"4","last_reported":1774174595,"current_range_meters":6400,"station_id":"","pricing_plan_id":"cebpf4jnsgd1na2vs0mg"},{"bike_id":"34c091fc-8184-4773-bd2e-dd88d75d3a2c","system_id":"levelo_inurba_marseille","lat":43.25753,"lon":5.37647,"is_reserved":false,"is_disabled":false,"rental_uris":{"android":"levelo://app?vid=34c091fc-8184-4773-bd2e-dd88d75d3a2c","ios":"levelo://app?vid=34c091fc-8184-4773-bd2e-dd88d75d3a2c"},"vehicle_type_id":"4","last_reported":1774174595,"current_range_meters":6400,"station_id":"","pricing_plan_id":"cebpf4jnsgd1na2vs0mg"},{"bike_id":"7de6d0c9-bc6f-4a80-a9b0-1914a070d739","system_id":"levelo_inurba_marseille","lat":43.30188,"lon":5.38077,"is_reserved":false,"is_disabled":false,"rental_uris":{"android":"levelo://app?vid=7de6d0c9-bc6f-4a80-a9b0-1914a070d739","ios":"levelo://app?vid=7de6d0c9-bc6f-4a80-a9b0-1914a070d739"},"vehicle_type_id":"4","last_reported":1774174595,"current_range_meters":6400,"station_id":"","pricing_plan_id":"cebpf4jnsgd1na2vs0mg"},{"bike_id":"13542ed8-b3ab-4457-bed0-fd2a2f796cb6","system_id":"levelo_inurba_marseille","lat":43.30148,"lon":5.38085,"is_reserved":false,"is_disabled":false,"rental_uris":{"android":"levelo://app?vid=13542ed8-b3ab-4457-bed0-fd2a2f796cb6","ios":"levelo://app?vid=13542ed8-b3ab-4457-bed0-fd2a2f796cb6"},"vehicle_type_id":"4","last_reported":1774174595,"current_range_meters":6400,"station_id":"ce4bgjp2rcd13ifvqbh0","pricing_plan_id":"cebpf4jnsgd1na2vs0mg"},{"bike_id":"4655b419-c73e-4d14-9457-58258dfd8582","system_id":"levelo_inurba_marseille","lat":43.31283,"lon":5.40168,"is_reserved":false,"is_disabled":false,"rental_uris":{"android":"levelo://app?vid=4655b419-c73e-4d14-9457-58258dfd8582","ios":"levelo://app?vid=4655b419-c73e-4d14-9457-58258dfd8582"},"vehicle_type_id":"4","last_reported":1774174595,"current_range_meters":6400,"station_id":"ce4bh092rcd13ifvqd30","pricing_plan_id":"cebpf4jnsgd1na2vs0mg"},{"bike_id":"f84df946-1fe9-4d68-b54f-3a23cc20fde7","system_id":"levelo_inurba_marseille","lat":43.29869,"lon":5.42086,"is_reserved":false,"is_disabled":false,"rental_uris":{"android":"levelo://app?vid=f84df946-1fe9-4d68-b54f-3a23cc20fde7","ios":"levelo://app?vid=f84df946-1fe9-4d68-b54f-3a23cc20fde7"},"vehicle_type_id":"4","last_reported":1774174595,"current_range_meters":6400,"station_id":"st_d6tc004otcvc738tfe70","pricing_plan_id":"cebpf4jnsgd1na2vs0mg"},{"bike_id":"bb2bb087-057b-42f3-9513-f048d27083cc","system_id":"levelo_inurba_marseille","lat":43.28174,"lon":5.42808,"is_reserved":false,"is_disabled":false,"rental_uris":{"android":"levelo://app?vid=bb2bb087-057b-42f3-9513-f048d27083cc","ios":"levelo://app?vid=bb2bb087-057b-42f3-9513-f048d27083cc"},"vehicle_type_id":"4","last_reported":1774174595,"current_range_meters":6400,"station_id":"","pricing_plan_id":"cebpf4jnsgd1na2vs0mg"},{"bike_id":"b19a626a-93cd-41bf-8d4f-8b63d7aeec08","system_id":"levelo_inurba_marseille","lat":43.30128,"lon":5.43867,"is_reserved":false,"is_disabled":false,"rental_uris":{"android":"levelo://app?vid=b19a626a-93cd-41bf-8d4f-8b63d7aeec08","ios":"levelo://app?vid=b19a626a-93cd-41bf-8d4f-8b63d7aeec08"},"vehicle_type_id":"4","last_reported":1774174595,"current_range_meters":6400,"station_id":"","pricing_plan_id":"cebpf4jnsgd1na2vs0mg"},{"bike_id":"c0e712b0-8e3d-4fec-a262-a832fe71beaa","system_id":"levelo_inurba_marseille","lat":43.25581,"lon":5.38223,"is_reserved":false,"is_disabled":false,"rental_uris":{"android":"levelo://app?vid=c0e712b0-8e3d-4fec-a262-a832fe71beaa","ios":"levelo://app?vid=c0e712b0-8e3d-4fec-a262-a832fe71beaa"},"vehicle_type_id":"4","last_reported":1774174595,"current_range_meters":6400,"station_id":"ce4bhih2rcd13ifvqfs0","pricing_plan_id":"cebpf4jnsgd1na2vs0mg"},{"bike_id":"5369d941-756a-4a39-ae59-10b7c47d2be3","system_id":"levelo_inurba_marseille","lat":43.31055,"lon":5.37144,"is_reserved":false,"is_disabled":false,"rental_uris":{"android":"levelo://app?vid=5369d941-756a-4a39-ae59-10b7c47d2be3","ios":"levelo://app?vid=5369d941-756a-4a39-ae59-10b7c47d2be3"},"vehicle_type_id":"4","last_reported":1774174595,"current_range_meters":6400,"station_id":"st_d4kl2rp97mjs73e7tdfg","pricing_plan_id":"cebpf4jnsgd1na2vs0mg"},{"bike_id":"3092fb04-4642-47e2-9f66-d751758f980d","system_id":"levelo_inurba_marseille","lat":43.30652,"lon":5.40102,"is_reserved":false,"is_disabled":false,"rental_uris":{"android":"levelo://app?vid=3092fb04-4642-47e2-9f66-d751758f980d","ios":"levelo://app?vid=3092fb04-4642-47e2-9f66-d751758f980d"},"vehicle_type_id":"4","last_reported":1774174595,"current_range_meters":6400,"station_id":"ce4bh112rcd13ifvqda0","pricing_plan_id":"cebpf4jnsgd1na2vs0mg"},{"bike_id":"d13beb39-6370-4275-bcf3-5e08790510bd","system_id":"levelo_inurba_marseille","lat":43.28537,"lon":5.44096,"is_reserved":false,"is_disabled":false,"rental_uris":{"android":"levelo://app?vid=d13beb39-6370-4275-bcf3-5e08790510bd","ios":"levelo://app?vid=d13beb39-6370-4275-bcf3-5e08790510bd"},"vehicle_type_id":"4","last_reported":1774174595,"current_range_meters":6400,"station_id":"st_d3j3df2ikq2c7380ej80","pricing_plan_id":"cebpf4jnsgd1na2vs0mg"},{"bike_id":"24892758-e1c8-4866-9ace-f6379bc81fdc","system_id":"levelo_inurba_marseille","lat":43.26375,"lon":5.41077,"is_reserved":false,"is_disabled":false,"rental_uris":{"android":"levelo://app?vid=24892758-e1c8-4866-9ace-f6379bc81fdc","ios":"levelo://app?vid=24892758-e1c8-4866-9ace-f6379bc81fdc"},"vehicle_type_id":"4","last_reported":1774174595,"current_range_meters":6400,"station_id":"st_d4e5ca6na9uc73bfl5fg","pricing_plan_id":"cebpf4jnsgd1na2vs0mg"},{"bike_id":"62ccf4a8-0426-42c8-92c7-60b92e2221c9","system_id":"levelo_inurba_marseille","lat":43.28481,"lon":5.48389,"is_reserved":false,"is_disabled":false,"rental_uris":{"android":"levelo://app?vid=62ccf4a8-0426-42c8-92c7-60b92e2221c9","ios":"levelo://app?vid=62ccf4a8-0426-42c8-92c7-60b92e2221c9"},"vehicle_type_id":"4","last_reported":1774174595,"current_range_meters":6800,"station_id":"","pricing_plan_id":"cebpf4jnsgd1na2vs0mg"},{"bike_id":"589e256a-566c-48aa-ba2e-bb8bec131139","system_id":"levelo_inurba_marseille","lat":43.27397,"lon":5.36243,"is_reserved":false,"is_disabled":true,"rental_uris":{"android":"levelo://app?vid=589e256a-566c-48aa-ba2e-bb8bec131139","ios":"levelo://app?vid=589e256a-566c-48aa-ba2e-bb8bec131139"},"vehicle_type_id":"4","last_reported":1774174595,"current_range_meters":6800,"station_id":"ce4bhbh2rcd13ifvqeo0","pricing_plan_id":"cebpf4jnsgd1na2vs0mg"},{"bike_id":"183fd90c-0052-4b2b-a72d-89bd5fb0a1bb","system_id":"levelo_inurba_marseille","lat":43.30962,"lon":5.43875,"is_reserved":false,"is_disabled":false,"rental_uris":{"android":"levelo://app?vid=183fd90c-0052-4b2b-a72d-89bd5fb0a1bb","ios":"levelo://app?vid=183fd90c-0052-4b2b-a72d-89bd5fb0a1bb"},"vehicle_type_id":"4","last_reported":1774174595,"current_range_meters":6800,"station_id":"","pricing_plan_id":"cebpf4jnsgd1na2vs0mg"},{"bike_id":"3f12e940-de87-4cda-8d19-b5ddb45a8f36","system_id":"levelo_inurba_marseille","lat":43.23198,"lon":5.3554,"is_reserved":false,"is_disabled":false,"rental_uris":{"android":"levelo://app?vid=3f12e940-de87-4cda-8d19-b5ddb45a8f36","ios":"levelo://app?vid=3f12e940-de87-4cda-8d19-b5ddb45a8f36"},"vehicle_type_id":"4","last_reported":1774174595,"current_range_meters":6800,"station_id":"ce4bhu92rcd13ifvqi70","pricing_plan_id":"cebpf4jnsgd1na2vs0mg"},{"bike_id":"037af263-c94a-46ee-b673-7aa7948320d5","system_id":"levelo_inurba_marseille","lat":43.29277,"lon":5.38411,"is_reserved":false,"is_disabled":true,"rental_uris":{"android":"levelo://app?vid=037af263-c94a-46ee-b673-7aa7948320d5","ios":"levelo://app?vid=037af263-c94a-46ee-b673-7aa7948320d5"},"vehicle_type_id":"4","last_reported":1774174595,"current_range_meters":6800,"station_id":"ce4bh692rcd13ifvqea0","pricing_plan_id":"cebpf4jnsgd1na2vs0mg"},{"bike_id":"069a31e1-8491-47f6-acb3-52f081dfc8d1","system_id":"levelo_inurba_marseille","lat":43.30302,"lon":5.36914,"is_reserved":false,"is_disabled":false,"rental_uris":{"android":"levelo://app?vid=069a31e1-8491-47f6-acb3-52f081dfc8d1","ios":"levelo://app?vid=069a31e1-8491-47f6-acb3-52f081dfc8d1"},"vehicle_type_id":"4","last_reported":1774174595,"current_range_meters":6800,"station_id":"ce4bgqh2rcd13ifvqc5g","pricing_plan_id":"cebpf4jnsgd1na2vs0mg"},{"bike_id":"6768fb01-97ee-4f47-89cf-88cf0e1f3240","system_id":"levelo_inurba_marseille","lat":43.29877,"lon":5.39739,"is_reserved":false,"is_disabled":false,"rental_uris":{"android":"levelo://app?vid=6768fb01-97ee-4f47-89cf-88cf0e1f3240","ios":"levelo://app?vid=6768fb01-97ee-4f47-89cf-88cf0e1f3240"},"vehicle_type_id":"4","last_reported":1774174595,"current_range_meters":6800,"station_id":"ce4bh0h2rcd13ifvqd50","pricing_plan_id":"cebpf4jnsgd1na2vs0mg"},{"bike_id":"35939b35-432f-4730-9a4d-bca4477a51c8","system_id":"levelo_inurba_marseille","lat":43.32116,"lon":5.36782,"is_reserved":false,"is_disabled":false,"rental_uris":{"android":"levelo://app?vid=35939b35-432f-4730-9a4d-bca4477a51c8","ios":"levelo://app?vid=35939b35-432f-4730-9a4d-bca4477a51c8"},"vehicle_type_id":"4","last_reported":1774174595,"current_range_meters":6800,"station_id":"ce4bhrh2rcd13ifvqhug","pricing_plan_id":"cebpf4jnsgd1na2vs0mg"},{"bike_id":"dc45b164-1452-43fd-b987-428e9e588766","system_id":"levelo_inurba_marseille","lat":43.29793,"lon":5.37141,"is_reserved":false,"is_disabled":false,"rental_uris":{"android":"levelo://app?vid=dc45b164-1452-43fd-b987-428e9e588766","ios":"levelo://app?vid=dc45b164-1452-43fd-b987-428e9e588766"},"vehicle_type_id":"4","last_reported":1774174595,"current_range_meters":6800,"station_id":"ce4bgop2rcd13ifvqc1g","pricing_plan_id":"cebpf4jnsgd1na2vs0mg"},{"bike_id":"6c1ac590-511b-4ef3-b19a-055f363bbc14","system_id":"levelo_inurba_marseille","lat":43.29895,"lon":5.43673,"is_reserved":false,"is_disabled":false,"rental_uris":{"android":"levelo://app?vid=6c1ac590-511b-4ef3-b19a-055f363bbc14","ios":"levelo://app?vid=6c1ac590-511b-4ef3-b19a-055f363bbc14"},"vehicle_type_id":"4","last_reported":1774174595,"current_range_meters":6800,"station_id":"ce4bhpp2rcd13ifvqhfg","pricing_plan_id":"cebpf4jnsgd1na2vs0mg"},{"bike_id":"b6bd7335-6c6d-461c-80a2-97a8664a80f6","system_id":"levelo_inurba_marseille","lat":43.28411,"lon":5.37497,"is_reserved":false,"is_disabled":false,"rental_uris":{"android":"levelo://app?vid=b6bd7335-6c6d-461c-80a2-97a8664a80f6","ios":"levelo://app?vid=b6bd7335-6c6d-461c-80a2-97a8664a80f6"},"vehicle_type_id":"4","last_reported":1774174595,"current_range_meters":7200,"station_id":"ce4bh412rcd13ifvqds0","pricing_plan_id":"cebpf4jnsgd1na2vs0mg"},{"bike_id":"f35f25a3-f6e2-49ab-a635-857e4cb91e6c","system_id":"levelo_inurba_marseille","lat":43.29583,"lon":5.37488,"is_reserved":false,"is_disabled":false,"rental_uris":{"android":"levelo://app?vid=f35f25a3-f6e2-49ab-a635-857e4cb91e6c","ios":"levelo://app?vid=f35f25a3-f6e2-49ab-a635-857e4cb91e6c"},"vehicle_type_id":"4","last_reported":1774174595,"current_range_meters":7200,"station_id":"ce4bgh92rcd13ifvqb50","pricing_plan_id":"cebpf4jnsgd1na2vs0mg"},{"bike_id":"f7d6c650-f32c-4f32-9970-3fed07f42d78","system_id":"levelo_inurba_marseille","lat":43.27061,"lon":5.38347,"is_reserved":false,"is_disabled":false,"rental_uris":{"android":"levelo://app?vid=f7d6c650-f32c-4f32-9970-3fed07f42d78","ios":"levelo://app?vid=f7d6c650-f32c-4f32-9970-3fed07f42d78"},"vehicle_type_id":"4","last_reported":1774174595,"current_range_meters":7200,"station_id":"st_d3n2fo6cfp8s73cte1j0","pricing_plan_id":"cebpf4jnsgd1na2vs0mg"},{"bike_id":"f8cc83d7-8cfc-43c5-a95c-950d60be7ca1","system_id":"levelo_inurba_marseille","lat":43.22928,"lon":5.35371,"is_reserved":false,"is_disabled":false,"rental_uris":{"android":"levelo://app?vid=f8cc83d7-8cfc-43c5-a95c-950d60be7ca1","ios":"levelo://app?vid=f8cc83d7-8cfc-43c5-a95c-950d60be7ca1"},"vehicle_type_id":"4","last_reported":1774174595,"current_range_meters":7200,"station_id":"cpo3532slgdg3j2ikp40","pricing_plan_id":"cebpf4jnsgd1na2vs0mg"},{"bike_id":"15410fe7-a937-4a83-a4f8-433a723cf59f","system_id":"levelo_inurba_marseille","lat":43.29253,"lon":5.37613,"is_reserved":false,"is_disabled":false,"rental_uris":{"android":"levelo://app?vid=15410fe7-a937-4a83-a4f8-433a723cf59f","ios":"levelo://app?vid=15410fe7-a937-4a83-a4f8-433a723cf59f"},"vehicle_type_id":"4","last_reported":1774174595,"current_range_meters":7200,"station_id":"ce4bgi12rcd13ifvqb80","pricing_plan_id":"cebpf4jnsgd1na2vs0mg"},{"bike_id":"21de157a-5e00-4554-aa09-05d9fd4473d6","system_id":"levelo_inurba_marseille","lat":43.24186,"lon":5.39697,"is_reserved":false,"is_disabled":true,"rental_uris":{"android":"levelo://app?vid=21de157a-5e00-4554-aa09-05d9fd4473d6","ios":"levelo://app?vid=21de157a-5e00-4554-aa09-05d9fd4473d6"},"vehicle_type_id":"4","last_reported":1774174595,"current_range_meters":7200,"station_id":"ce4bhn12rcd13ifvqgpg","pricing_plan_id":"cebpf4jnsgd1na2vs0mg"},{"bike_id":"b48db811-f2cf-46ea-aa62-4aa4fcd788b4","system_id":"levelo_inurba_marseille","lat":43.29893,"lon":5.43674,"is_reserved":false,"is_disabled":false,"rental_uris":{"android":"levelo://app?vid=b48db811-f2cf-46ea-aa62-4aa4fcd788b4","ios":"levelo://app?vid=b48db811-f2cf-46ea-aa62-4aa4fcd788b4"},"vehicle_type_id":"4","last_reported":1774174595,"current_range_meters":7200,"station_id":"ce4bhpp2rcd13ifvqhfg","pricing_plan_id":"cebpf4jnsgd1na2vs0mg"},{"bike_id":"c66abed4-a510-467b-9fe2-a140744c1f13","system_id":"levelo_inurba_marseille","lat":43.31524,"lon":5.38037,"is_reserved":false,"is_disabled":false,"rental_uris":{"android":"levelo://app?vid=c66abed4-a510-467b-9fe2-a140744c1f13","ios":"levelo://app?vid=c66abed4-a510-467b-9fe2-a140744c1f13"},"vehicle_type_id":"4","last_reported":1774174595,"current_range_meters":7200,"station_id":"ce4bhsp2rcd13ifvqi50","pricing_plan_id":"cebpf4jnsgd1na2vs0mg"},{"bike_id":"4c3f08d4-34c7-4e1b-9255-baed674c1087","system_id":"levelo_inurba_marseille","lat":43.24139,"lon":5.36841,"is_reserved":false,"is_disabled":false,"rental_uris":{"android":"levelo://app?vid=4c3f08d4-34c7-4e1b-9255-baed674c1087","ios":"levelo://app?vid=4c3f08d4-34c7-4e1b-9255-baed674c1087"},"vehicle_type_id":"4","last_reported":1774174595,"current_range_meters":7200,"station_id":"","pricing_plan_id":"cebpf4jnsgd1na2vs0mg"},{"bike_id":"fcfa3e4d-7cf3-4d27-bd73-136b9ec1b8ca","system_id":"levelo_inurba_marseille","lat":43.25024,"lon":5.38904,"is_reserved":false,"is_disabled":true,"rental_uris":{"android":"levelo://app?vid=fcfa3e4d-7cf3-4d27-bd73-136b9ec1b8ca","ios":"levelo://app?vid=fcfa3e4d-7cf3-4d27-bd73-136b9ec1b8ca"},"vehicle_type_id":"4","last_reported":1774174595,"current_range_meters":7200,"station_id":"ce4bhgp2rcd13ifvqfd0","pricing_plan_id":"cebpf4jnsgd1na2vs0mg"},{"bike_id":"8827da7c-4553-4e45-8b96-33f6c2699a52","system_id":"levelo_inurba_marseille","lat":43.21745,"lon":5.346,"is_reserved":false,"is_disabled":true,"rental_uris":{"android":"levelo://app?vid=8827da7c-4553-4e45-8b96-33f6c2699a52","ios":"levelo://app?vid=8827da7c-4553-4e45-8b96-33f6c2699a52"},"vehicle_type_id":"4","last_reported":1774174595,"current_range_meters":7200,"station_id":"st_cvj6r9ubvosntc0bgbag","pricing_plan_id":"cebpf4jnsgd1na2vs0mg"},{"bike_id":"c740e20c-eca7-406c-92dd-2b448718a645","system_id":"levelo_inurba_marseille","lat":43.28479,"lon":5.48389,"is_reserved":false,"is_disabled":false,"rental_uris":{"android":"levelo://app?vid=c740e20c-eca7-406c-92dd-2b448718a645","ios":"levelo://app?vid=c740e20c-eca7-406c-92dd-2b448718a645"},"vehicle_type_id":"4","last_reported":1774174595,"current_range_meters":7200,"station_id":"st_d3svhcjqgbts73a3dn0g","pricing_plan_id":"cebpf4jnsgd1na2vs0mg"},{"bike_id":"a3171e9b-4c5d-4f89-b939-af69dea0c5af","system_id":"levelo_inurba_marseille","lat":43.29702,"lon":5.36614,"is_reserved":false,"is_disabled":false,"rental_uris":{"android":"levelo://app?vid=a3171e9b-4c5d-4f89-b939-af69dea0c5af","ios":"levelo://app?vid=a3171e9b-4c5d-4f89-b939-af69dea0c5af"},"vehicle_type_id":"4","last_reported":1774174595,"current_range_meters":7200,"station_id":"ce4bgn12rcd13ifvqbt0","pricing_plan_id":"cebpf4jnsgd1na2vs0mg"},{"bike_id":"ef8cd562-295e-4308-aa28-51ee95bd4f8d","system_id":"levelo_inurba_marseille","lat":43.28151,"lon":5.42644,"is_reserved":false,"is_disabled":false,"rental_uris":{"android":"levelo://app?vid=ef8cd562-295e-4308-aa28-51ee95bd4f8d","ios":"levelo://app?vid=ef8cd562-295e-4308-aa28-51ee95bd4f8d"},"vehicle_type_id":"4","last_reported":1774174595,"current_range_meters":8000,"station_id":"ce4bhnh2rcd13ifvqgug","pricing_plan_id":"cebpf4jnsgd1na2vs0mg"},{"bike_id":"348b028b-7113-4df9-8c29-432c15b7b280","system_id":"levelo_inurba_marseille","lat":43.23962,"lon":5.36633,"is_reserved":false,"is_disabled":true,"rental_uris":{"android":"levelo://app?vid=348b028b-7113-4df9-8c29-432c15b7b280","ios":"levelo://app?vid=348b028b-7113-4df9-8c29-432c15b7b280"},"vehicle_type_id":"4","last_reported":1774174595,"current_range_meters":8000,"station_id":"ce4bhi12rcd13ifvqfp0","pricing_plan_id":"cebpf4jnsgd1na2vs0mg"},{"bike_id":"54493c86-a4ae-4109-bfc7-0b88e6e19cc7","system_id":"levelo_inurba_marseille","lat":43.27381,"lon":5.36246,"is_reserved":false,"is_disabled":true,"rental_uris":{"android":"levelo://app?vid=54493c86-a4ae-4109-bfc7-0b88e6e19cc7","ios":"levelo://app?vid=54493c86-a4ae-4109-bfc7-0b88e6e19cc7"},"vehicle_type_id":"4","last_reported":1774174595,"current_range_meters":8000,"station_id":"ce4bhbh2rcd13ifvqeo0","pricing_plan_id":"cebpf4jnsgd1na2vs0mg"},{"bike_id":"1251245c-8245-4039-a13b-eaa939230dc3","system_id":"levelo_inurba_marseille","lat":43.25007,"lon":5.38923,"is_reserved":false,"is_disabled":false,"rental_uris":{"android":"levelo://app?vid=1251245c-8245-4039-a13b-eaa939230dc3","ios":"levelo://app?vid=1251245c-8245-4039-a13b-eaa939230dc3"},"vehicle_type_id":"4","last_reported":1774174595,"current_range_meters":8000,"station_id":"ce4bhgp2rcd13ifvqfd0","pricing_plan_id":"cebpf4jnsgd1na2vs0mg"},{"bike_id":"cc696a92-d35f-424c-9e4d-00cc096b60f0","system_id":"levelo_inurba_marseille","lat":43.24175,"lon":5.36391,"is_reserved":false,"is_disabled":false,"rental_uris":{"android":"levelo://app?vid=cc696a92-d35f-424c-9e4d-00cc096b60f0","ios":"levelo://app?vid=cc696a92-d35f-424c-9e4d-00cc096b60f0"},"vehicle_type_id":"4","last_reported":1774174595,"current_range_meters":8000,"station_id":"cpo36qri1sfpv3e86is0","pricing_plan_id":"cebpf4jnsgd1na2vs0mg"},{"bike_id":"8294aced-9d8f-401e-9e74-4555a1438aad","system_id":"levelo_inurba_marseille","lat":43.3162,"lon":5.44535,"is_reserved":false,"is_disabled":false,"rental_uris":{"android":"levelo://app?vid=8294aced-9d8f-401e-9e74-4555a1438aad","ios":"levelo://app?vid=8294aced-9d8f-401e-9e74-4555a1438aad"},"vehicle_type_id":"4","last_reported":1774174595,"current_range_meters":8000,"station_id":"","pricing_plan_id":"cebpf4jnsgd1na2vs0mg"},{"bike_id":"8401c78f-dd98-40d3-a78c-b44db4992f67","system_id":"levelo_inurba_marseille","lat":43.31191,"lon":5.37615,"is_reserved":false,"is_disabled":false,"rental_uris":{"android":"levelo://app?vid=8401c78f-dd98-40d3-a78c-b44db4992f67","ios":"levelo://app?vid=8401c78f-dd98-40d3-a78c-b44db4992f67"},"vehicle_type_id":"4","last_reported":1774174595,"current_range_meters":8000,"station_id":"","pricing_plan_id":"cebpf4jnsgd1na2vs0mg"},{"bike_id":"6f6df225-4705-4b4c-9021-62a89ef1f67f","system_id":"levelo_inurba_marseille","lat":43.30527,"lon":5.36653,"is_reserved":false,"is_disabled":false,"rental_uris":{"android":"levelo://app?vid=6f6df225-4705-4b4c-9021-62a89ef1f67f","ios":"levelo://app?vid=6f6df225-4705-4b4c-9021-62a89ef1f67f"},"vehicle_type_id":"4","last_reported":1774174595,"current_range_meters":8000,"station_id":"","pricing_plan_id":"cebpf4jnsgd1na2vs0mg"},{"bike_id":"4be772b0-70fb-4565-a7a2-840a9845edba","system_id":"levelo_inurba_marseille","lat":43.32596,"lon":5.37488,"is_reserved":false,"is_disabled":false,"rental_uris":{"android":"levelo://app?vid=4be772b0-70fb-4565-a7a2-840a9845edba","ios":"levelo://app?vid=4be772b0-70fb-4565-a7a2-840a9845edba"},"vehicle_type_id":"4","last_reported":1774174595,"current_range_meters":8000,"station_id":"","pricing_plan_id":"cebpf4jnsgd1na2vs0mg"},{"bike_id":"c6b8c288-7f12-44f1-b184-782c8c64e9d9","system_id":"levelo_inurba_marseille","lat":43.30922,"lon":5.36856,"is_reserved":false,"is_disabled":false,"rental_uris":{"android":"levelo://app?vid=c6b8c288-7f12-44f1-b184-782c8c64e9d9","ios":"levelo://app?vid=c6b8c288-7f12-44f1-b184-782c8c64e9d9"},"vehicle_type_id":"4","last_reported":1774174595,"current_range_meters":8000,"station_id":"ce4bgn92rcd13ifvqbvg","pricing_plan_id":"cebpf4jnsgd1na2vs0mg"},{"bike_id":"b41ba9fd-1286-49b2-bb79-3ecc772ffeae","system_id":"levelo_inurba_marseille","lat":43.32116,"lon":5.36727,"is_reserved":false,"is_disabled":false,"rental_uris":{"android":"levelo://app?vid=b41ba9fd-1286-49b2-bb79-3ecc772ffeae","ios":"levelo://app?vid=b41ba9fd-1286-49b2-bb79-3ecc772ffeae"},"vehicle_type_id":"4","last_reported":1774174595,"current_range_meters":8000,"station_id":"ce4bhrh2rcd13ifvqhug","pricing_plan_id":"cebpf4jnsgd1na2vs0mg"},{"bike_id":"4dbcbb21-40ca-4c05-9c4d-91c43c42066a","system_id":"levelo_inurba_marseille","lat":43.26916,"lon":5.42051,"is_reserved":false,"is_disabled":false,"rental_uris":{"android":"levelo://app?vid=4dbcbb21-40ca-4c05-9c4d-91c43c42066a","ios":"levelo://app?vid=4dbcbb21-40ca-4c05-9c4d-91c43c42066a"},"vehicle_type_id":"4","last_reported":1774174595,"current_range_meters":8000,"station_id":"","pricing_plan_id":"cebpf4jnsgd1na2vs0mg"},{"bike_id":"d92fac84-f7c6-4576-83d3-9b7f9122cf30","system_id":"levelo_inurba_marseille","lat":43.24465,"lon":5.42533,"is_reserved":false,"is_disabled":false,"rental_uris":{"android":"levelo://app?vid=d92fac84-f7c6-4576-83d3-9b7f9122cf30","ios":"levelo://app?vid=d92fac84-f7c6-4576-83d3-9b7f9122cf30"},"vehicle_type_id":"4","last_reported":1774174595,"current_range_meters":8000,"station_id":"st_d4a3vfp97mjs738cd8kg","pricing_plan_id":"cebpf4jnsgd1na2vs0mg"},{"bike_id":"76e3202f-50fd-4567-8d90-9ecb0c2a894c","system_id":"levelo_inurba_marseille","lat":43.30125,"lon":5.43097,"is_reserved":false,"is_disabled":false,"rental_uris":{"android":"levelo://app?vid=76e3202f-50fd-4567-8d90-9ecb0c2a894c","ios":"levelo://app?vid=76e3202f-50fd-4567-8d90-9ecb0c2a894c"},"vehicle_type_id":"4","last_reported":1774174595,"current_range_meters":8000,"station_id":"st_d3js3co5814s73ftftug","pricing_plan_id":"cebpf4jnsgd1na2vs0mg"},{"bike_id":"d40eaa64-a3b8-4e26-8b08-a6febafe1391","system_id":"levelo_inurba_marseille","lat":43.29795,"lon":5.37057,"is_reserved":false,"is_disabled":false,"rental_uris":{"android":"levelo://app?vid=d40eaa64-a3b8-4e26-8b08-a6febafe1391","ios":"levelo://app?vid=d40eaa64-a3b8-4e26-8b08-a6febafe1391"},"vehicle_type_id":"4","last_reported":1774174595,"current_range_meters":8400,"station_id":"ce4bgop2rcd13ifvqc1g","pricing_plan_id":"cebpf4jnsgd1na2vs0mg"},{"bike_id":"76b26924-278b-4413-bc71-94244ae001aa","system_id":"levelo_inurba_marseille","lat":43.31724,"lon":5.40475,"is_reserved":false,"is_disabled":false,"rental_uris":{"android":"levelo://app?vid=76b26924-278b-4413-bc71-94244ae001aa","ios":"levelo://app?vid=76b26924-278b-4413-bc71-94244ae001aa"},"vehicle_type_id":"4","last_reported":1774174595,"current_range_meters":8400,"station_id":"ce4bh012rcd13ifvqd00","pricing_plan_id":"cebpf4jnsgd1na2vs0mg"},{"bike_id":"97809e02-50de-4c50-bf69-d22356960f3c","system_id":"levelo_inurba_marseille","lat":43.30416,"lon":5.38868,"is_reserved":false,"is_disabled":false,"rental_uris":{"android":"levelo://app?vid=97809e02-50de-4c50-bf69-d22356960f3c","ios":"levelo://app?vid=97809e02-50de-4c50-bf69-d22356960f3c"},"vehicle_type_id":"4","last_reported":1774174595,"current_range_meters":8400,"station_id":"ce4bgk12rcd13ifvqbi0","pricing_plan_id":"cebpf4jnsgd1na2vs0mg"},{"bike_id":"1182e6ca-0fa4-4bde-b010-4b71c852ea66","system_id":"levelo_inurba_marseille","lat":43.24167,"lon":5.36391,"is_reserved":false,"is_disabled":false,"rental_uris":{"android":"levelo://app?vid=1182e6ca-0fa4-4bde-b010-4b71c852ea66","ios":"levelo://app?vid=1182e6ca-0fa4-4bde-b010-4b71c852ea66"},"vehicle_type_id":"4","last_reported":1774174595,"current_range_meters":8400,"station_id":"cpo36qri1sfpv3e86is0","pricing_plan_id":"cebpf4jnsgd1na2vs0mg"},{"bike_id":"be0bd703-edcf-469f-aea6-ef8d4bd6f6fc","system_id":"levelo_inurba_marseille","lat":43.23893,"lon":5.37455,"is_reserved":false,"is_disabled":false,"rental_uris":{"android":"levelo://app?vid=be0bd703-edcf-469f-aea6-ef8d4bd6f6fc","ios":"levelo://app?vid=be0bd703-edcf-469f-aea6-ef8d4bd6f6fc"},"vehicle_type_id":"4","last_reported":1774174595,"current_range_meters":8400,"station_id":"st_d6sm7csbq4hs73f8fpjg","pricing_plan_id":"cebpf4jnsgd1na2vs0mg"},{"bike_id":"b8282293-9e5d-44c0-961a-c4ad312c5b39","system_id":"levelo_inurba_marseille","lat":43.28479,"lon":5.4839,"is_reserved":false,"is_disabled":false,"rental_uris":{"android":"levelo://app?vid=b8282293-9e5d-44c0-961a-c4ad312c5b39","ios":"levelo://app?vid=b8282293-9e5d-44c0-961a-c4ad312c5b39"},"vehicle_type_id":"4","last_reported":1774174595,"current_range_meters":8400,"station_id":"st_d3svhcjqgbts73a3dn0g","pricing_plan_id":"cebpf4jnsgd1na2vs0mg"},{"bike_id":"c053b868-c2ee-4f2d-a9a7-293c7c11f502","system_id":"levelo_inurba_marseille","lat":43.3134,"lon":5.39679,"is_reserved":false,"is_disabled":false,"rental_uris":{"android":"levelo://app?vid=c053b868-c2ee-4f2d-a9a7-293c7c11f502","ios":"levelo://app?vid=c053b868-c2ee-4f2d-a9a7-293c7c11f502"},"vehicle_type_id":"4","last_reported":1774174595,"current_range_meters":8400,"station_id":"ce4bgvp2rcd13ifvqcu0","pricing_plan_id":"cebpf4jnsgd1na2vs0mg"},{"bike_id":"bb014a77-b4dd-49b3-80b4-21c6e7b2c2fe","system_id":"levelo_inurba_marseille","lat":43.27338,"lon":5.39091,"is_reserved":false,"is_disabled":true,"rental_uris":{"android":"levelo://app?vid=bb014a77-b4dd-49b3-80b4-21c6e7b2c2fe","ios":"levelo://app?vid=bb014a77-b4dd-49b3-80b4-21c6e7b2c2fe"},"vehicle_type_id":"4","last_reported":1774174595,"current_range_meters":8400,"station_id":"ce4bhgp2rcd13ifvqfe0","pricing_plan_id":"cebpf4jnsgd1na2vs0mg"},{"bike_id":"f441bbfb-11df-4904-b981-dd0c81ba7646","system_id":"levelo_inurba_marseille","lat":43.30895,"lon":5.3963,"is_reserved":false,"is_disabled":false,"rental_uris":{"android":"levelo://app?vid=f441bbfb-11df-4904-b981-dd0c81ba7646","ios":"levelo://app?vid=f441bbfb-11df-4904-b981-dd0c81ba7646"},"vehicle_type_id":"4","last_reported":1774174595,"current_range_meters":8400,"station_id":"ce4bh012rcd13ifvqcv0","pricing_plan_id":"cebpf4jnsgd1na2vs0mg"},{"bike_id":"f26513af-706d-43cc-956c-9102569421f3","system_id":"levelo_inurba_marseille","lat":43.24633,"lon":5.393,"is_reserved":false,"is_disabled":false,"rental_uris":{"android":"levelo://app?vid=f26513af-706d-43cc-956c-9102569421f3","ios":"levelo://app?vid=f26513af-706d-43cc-956c-9102569421f3"},"vehicle_type_id":"4","last_reported":1774174595,"current_range_meters":8400,"station_id":"","pricing_plan_id":"cebpf4jnsgd1na2vs0mg"},{"bike_id":"727a7cec-c0a4-42ee-b13e-1092ce84e6ac","system_id":"levelo_inurba_marseille","lat":43.25504,"lon":5.37648,"is_reserved":false,"is_disabled":true,"rental_uris":{"android":"levelo://app?vid=727a7cec-c0a4-42ee-b13e-1092ce84e6ac","ios":"levelo://app?vid=727a7cec-c0a4-42ee-b13e-1092ce84e6ac"},"vehicle_type_id":"4","last_reported":1774174595,"current_range_meters":8400,"station_id":"ce4bhh12rcd13ifvqff0","pricing_plan_id":"cebpf4jnsgd1na2vs0mg"},{"bike_id":"ecfaeba0-eb3e-4890-8290-078f45c79c6a","system_id":"levelo_inurba_marseille","lat":43.29723,"lon":5.3645,"is_reserved":false,"is_disabled":false,"rental_uris":{"android":"levelo://app?vid=ecfaeba0-eb3e-4890-8290-078f45c79c6a","ios":"levelo://app?vid=ecfaeba0-eb3e-4890-8290-078f45c79c6a"},"vehicle_type_id":"4","last_reported":1774174595,"current_range_meters":8400,"station_id":"","pricing_plan_id":"cebpf4jnsgd1na2vs0mg"},{"bike_id":"014b2c60-e51a-453d-9790-b7677e44e2bc","system_id":"levelo_inurba_marseille","lat":43.28543,"lon":5.44099,"is_reserved":false,"is_disabled":false,"rental_uris":{"android":"levelo://app?vid=014b2c60-e51a-453d-9790-b7677e44e2bc","ios":"levelo://app?vid=014b2c60-e51a-453d-9790-b7677e44e2bc"},"vehicle_type_id":"4","last_reported":1774174595,"current_range_meters":8400,"station_id":"st_d3j3df2ikq2c7380ej80","pricing_plan_id":"cebpf4jnsgd1na2vs0mg"},{"bike_id":"c8bce134-97c4-4426-b939-85d1b3b365e4","system_id":"levelo_inurba_marseille","lat":43.2927,"lon":5.40891,"is_reserved":false,"is_disabled":false,"rental_uris":{"android":"levelo://app?vid=c8bce134-97c4-4426-b939-85d1b3b365e4","ios":"levelo://app?vid=c8bce134-97c4-4426-b939-85d1b3b365e4"},"vehicle_type_id":"4","last_reported":1774174595,"current_range_meters":8400,"station_id":"ce4bh192rcd13ifvqdc0","pricing_plan_id":"cebpf4jnsgd1na2vs0mg"},{"bike_id":"8134f6aa-938c-4d37-bb98-fe39b6e1811c","system_id":"levelo_inurba_marseille","lat":43.29264,"lon":5.40905,"is_reserved":false,"is_disabled":false,"rental_uris":{"android":"levelo://app?vid=8134f6aa-938c-4d37-bb98-fe39b6e1811c","ios":"levelo://app?vid=8134f6aa-938c-4d37-bb98-fe39b6e1811c"},"vehicle_type_id":"4","last_reported":1774174595,"current_range_meters":8400,"station_id":"ce4bh192rcd13ifvqdc0","pricing_plan_id":"cebpf4jnsgd1na2vs0mg"},{"bike_id":"0955d8c3-9038-4ae4-9344-2ae0f75ca95c","system_id":"levelo_inurba_marseille","lat":43.24157,"lon":5.3968,"is_reserved":false,"is_disabled":false,"rental_uris":{"android":"levelo://app?vid=0955d8c3-9038-4ae4-9344-2ae0f75ca95c","ios":"levelo://app?vid=0955d8c3-9038-4ae4-9344-2ae0f75ca95c"},"vehicle_type_id":"4","last_reported":1774174595,"current_range_meters":8800,"station_id":"ce4bhn12rcd13ifvqgpg","pricing_plan_id":"cebpf4jnsgd1na2vs0mg"},{"bike_id":"f31af7da-bcce-4b34-9ba7-f01b9da1af25","system_id":"levelo_inurba_marseille","lat":43.2464,"lon":5.43492,"is_reserved":false,"is_disabled":true,"rental_uris":{"android":"levelo://app?vid=f31af7da-bcce-4b34-9ba7-f01b9da1af25","ios":"levelo://app?vid=f31af7da-bcce-4b34-9ba7-f01b9da1af25"},"vehicle_type_id":"4","last_reported":1774174595,"current_range_meters":8800,"station_id":"","pricing_plan_id":"cebpf4jnsgd1na2vs0mg"},{"bike_id":"59f675c7-3300-4b5c-9b6c-736612a162ac","system_id":"levelo_inurba_marseille","lat":43.31334,"lon":5.39726,"is_reserved":false,"is_disabled":false,"rental_uris":{"android":"levelo://app?vid=59f675c7-3300-4b5c-9b6c-736612a162ac","ios":"levelo://app?vid=59f675c7-3300-4b5c-9b6c-736612a162ac"},"vehicle_type_id":"4","last_reported":1774174595,"current_range_meters":8800,"station_id":"ce4bgvp2rcd13ifvqcu0","pricing_plan_id":"cebpf4jnsgd1na2vs0mg"},{"bike_id":"3e617a73-7d2a-4bcc-bd8b-c8e14a46adc1","system_id":"levelo_inurba_marseille","lat":43.31128,"lon":5.37758,"is_reserved":false,"is_disabled":false,"rental_uris":{"android":"levelo://app?vid=3e617a73-7d2a-4bcc-bd8b-c8e14a46adc1","ios":"levelo://app?vid=3e617a73-7d2a-4bcc-bd8b-c8e14a46adc1"},"vehicle_type_id":"4","last_reported":1774174595,"current_range_meters":8800,"station_id":"ce4bgt92rcd13ifvqcg0","pricing_plan_id":"cebpf4jnsgd1na2vs0mg"},{"bike_id":"4231e657-f9f1-445a-8a2c-0ab1eabe9f5e","system_id":"levelo_inurba_marseille","lat":43.24392,"lon":5.37069,"is_reserved":false,"is_disabled":false,"rental_uris":{"android":"levelo://app?vid=4231e657-f9f1-445a-8a2c-0ab1eabe9f5e","ios":"levelo://app?vid=4231e657-f9f1-445a-8a2c-0ab1eabe9f5e"},"vehicle_type_id":"4","last_reported":1774174595,"current_range_meters":8800,"station_id":"ce4bhhh2rcd13ifvqfk0","pricing_plan_id":"cebpf4jnsgd1na2vs0mg"},{"bike_id":"0dc294e0-1f73-46fa-89e8-0f67671a83c2","system_id":"levelo_inurba_marseille","lat":43.29177,"lon":5.37112,"is_reserved":false,"is_disabled":true,"rental_uris":{"android":"levelo://app?vid=0dc294e0-1f73-46fa-89e8-0f67671a83c2","ios":"levelo://app?vid=0dc294e0-1f73-46fa-89e8-0f67671a83c2"},"vehicle_type_id":"4","last_reported":1774174595,"current_range_meters":8800,"station_id":"ce4bha92rcd13ifvqeh0","pricing_plan_id":"cebpf4jnsgd1na2vs0mg"},{"bike_id":"cf960eae-b383-41a4-a5f7-d4e246ad8ace","system_id":"levelo_inurba_marseille","lat":43.30608,"lon":5.37235,"is_reserved":false,"is_disabled":false,"rental_uris":{"android":"levelo://app?vid=cf960eae-b383-41a4-a5f7-d4e246ad8ace","ios":"levelo://app?vid=cf960eae-b383-41a4-a5f7-d4e246ad8ace"},"vehicle_type_id":"4","last_reported":1774174595,"current_range_meters":8800,"station_id":"ce4bgqh2rcd13ifvqc4g","pricing_plan_id":"cebpf4jnsgd1na2vs0mg"},{"bike_id":"e29fa5ae-14c6-4a72-a28a-f5d7dff9bf28","system_id":"levelo_inurba_marseille","lat":43.32965,"lon":5.3666,"is_reserved":false,"is_disabled":false,"rental_uris":{"android":"levelo://app?vid=e29fa5ae-14c6-4a72-a28a-f5d7dff9bf28","ios":"levelo://app?vid=e29fa5ae-14c6-4a72-a28a-f5d7dff9bf28"},"vehicle_type_id":"4","last_reported":1774174595,"current_range_meters":8800,"station_id":"","pricing_plan_id":"cebpf4jnsgd1na2vs0mg"},{"bike_id":"a372ad3c-ff60-4bc7-b820-28897cbec0bf","system_id":"levelo_inurba_marseille","lat":43.30205,"lon":5.38076,"is_reserved":false,"is_disabled":false,"rental_uris":{"android":"levelo://app?vid=a372ad3c-ff60-4bc7-b820-28897cbec0bf","ios":"levelo://app?vid=a372ad3c-ff60-4bc7-b820-28897cbec0bf"},"vehicle_type_id":"4","last_reported":1774174595,"current_range_meters":9200,"station_id":"ce4bgjp2rcd13ifvqbh0","pricing_plan_id":"cebpf4jnsgd1na2vs0mg"},{"bike_id":"cc777a7e-f3d4-4026-819d-66c6f1a5d2b6","system_id":"levelo_inurba_marseille","lat":43.28896,"lon":5.43344,"is_reserved":false,"is_disabled":false,"rental_uris":{"android":"levelo://app?vid=cc777a7e-f3d4-4026-819d-66c6f1a5d2b6","ios":"levelo://app?vid=cc777a7e-f3d4-4026-819d-66c6f1a5d2b6"},"vehicle_type_id":"4","last_reported":1774174595,"current_range_meters":9200,"station_id":"","pricing_plan_id":"cebpf4jnsgd1na2vs0mg"},{"bike_id":"6e968e2f-d197-43ac-9ee2-f1e4e597035c","system_id":"levelo_inurba_marseille","lat":43.26565,"lon":5.39017,"is_reserved":false,"is_disabled":false,"rental_uris":{"android":"levelo://app?vid=6e968e2f-d197-43ac-9ee2-f1e4e597035c","ios":"levelo://app?vid=6e968e2f-d197-43ac-9ee2-f1e4e597035c"},"vehicle_type_id":"4","last_reported":1774174595,"current_range_meters":9200,"station_id":"ce4bhe12rcd13ifvqf30","pricing_plan_id":"cebpf4jnsgd1na2vs0mg"},{"bike_id":"73a3b26e-3a6d-4e68-b7f8-014d26b23e9a","system_id":"levelo_inurba_marseille","lat":43.31037,"lon":5.37912,"is_reserved":false,"is_disabled":false,"rental_uris":{"android":"levelo://app?vid=73a3b26e-3a6d-4e68-b7f8-014d26b23e9a","ios":"levelo://app?vid=73a3b26e-3a6d-4e68-b7f8-014d26b23e9a"},"vehicle_type_id":"4","last_reported":1774174595,"current_range_meters":9200,"station_id":"","pricing_plan_id":"cebpf4jnsgd1na2vs0mg"},{"bike_id":"f10997a7-599b-4a82-be79-5c369e7a5732","system_id":"levelo_inurba_marseille","lat":43.29287,"lon":5.40891,"is_reserved":false,"is_disabled":false,"rental_uris":{"android":"levelo://app?vid=f10997a7-599b-4a82-be79-5c369e7a5732","ios":"levelo://app?vid=f10997a7-599b-4a82-be79-5c369e7a5732"},"vehicle_type_id":"4","last_reported":1774174595,"current_range_meters":9200,"station_id":"ce4bh192rcd13ifvqdc0","pricing_plan_id":"cebpf4jnsgd1na2vs0mg"},{"bike_id":"b846518d-9413-4122-88c9-caec257fb279","system_id":"levelo_inurba_marseille","lat":43.30641,"lon":5.40063,"is_reserved":false,"is_disabled":false,"rental_uris":{"android":"levelo://app?vid=b846518d-9413-4122-88c9-caec257fb279","ios":"levelo://app?vid=b846518d-9413-4122-88c9-caec257fb279"},"vehicle_type_id":"4","last_reported":1774174595,"current_range_meters":9200,"station_id":"ce4bh112rcd13ifvqda0","pricing_plan_id":"cebpf4jnsgd1na2vs0mg"},{"bike_id":"a1614e97-0fde-4b88-a19f-d517decb1f27","system_id":"levelo_inurba_marseille","lat":43.32111,"lon":5.36767,"is_reserved":false,"is_disabled":false,"rental_uris":{"android":"levelo://app?vid=a1614e97-0fde-4b88-a19f-d517decb1f27","ios":"levelo://app?vid=a1614e97-0fde-4b88-a19f-d517decb1f27"},"vehicle_type_id":"4","last_reported":1774174595,"current_range_meters":9200,"station_id":"ce4bhrh2rcd13ifvqhug","pricing_plan_id":"cebpf4jnsgd1na2vs0mg"},{"bike_id":"0273712f-17e9-48aa-9e69-0ac0ce214834","system_id":"levelo_inurba_marseille","lat":43.25334,"lon":5.42173,"is_reserved":false,"is_disabled":false,"rental_uris":{"android":"levelo://app?vid=0273712f-17e9-48aa-9e69-0ac0ce214834","ios":"levelo://app?vid=0273712f-17e9-48aa-9e69-0ac0ce214834"},"vehicle_type_id":"4","last_reported":1774174595,"current_range_meters":9200,"station_id":"st_d2m65c5bi1j21697t3ng","pricing_plan_id":"cebpf4jnsgd1na2vs0mg"},{"bike_id":"f7aedbd1-1df1-4b1a-aef5-7cb9a05c14ec","system_id":"levelo_inurba_marseille","lat":43.28683,"lon":5.39991,"is_reserved":false,"is_disabled":false,"rental_uris":{"android":"levelo://app?vid=f7aedbd1-1df1-4b1a-aef5-7cb9a05c14ec","ios":"levelo://app?vid=f7aedbd1-1df1-4b1a-aef5-7cb9a05c14ec"},"vehicle_type_id":"4","last_reported":1774174595,"current_range_meters":9200,"station_id":"ce4bho92rcd13ifvqh3g","pricing_plan_id":"cebpf4jnsgd1na2vs0mg"},{"bike_id":"8fe420e0-6dec-41b2-9eea-e30417641a3b","system_id":"levelo_inurba_marseille","lat":43.23384,"lon":5.41226,"is_reserved":false,"is_disabled":false,"rental_uris":{"android":"levelo://app?vid=8fe420e0-6dec-41b2-9eea-e30417641a3b","ios":"levelo://app?vid=8fe420e0-6dec-41b2-9eea-e30417641a3b"},"vehicle_type_id":"4","last_reported":1774174595,"current_range_meters":9200,"station_id":"","pricing_plan_id":"cebpf4jnsgd1na2vs0mg"},{"bike_id":"be27c081-d6c0-4feb-a587-965600a5f4f7","system_id":"levelo_inurba_marseille","lat":43.26391,"lon":5.41062,"is_reserved":false,"is_disabled":false,"rental_uris":{"android":"levelo://app?vid=be27c081-d6c0-4feb-a587-965600a5f4f7","ios":"levelo://app?vid=be27c081-d6c0-4feb-a587-965600a5f4f7"},"vehicle_type_id":"4","last_reported":1774174595,"current_range_meters":9200,"station_id":"st_d4e5ca6na9uc73bfl5fg","pricing_plan_id":"cebpf4jnsgd1na2vs0mg"},{"bike_id":"4696be1a-03ad-459b-acfa-2ea1b934be2f","system_id":"levelo_inurba_marseille","lat":43.29255,"lon":5.40911,"is_reserved":false,"is_disabled":false,"rental_uris":{"android":"levelo://app?vid=4696be1a-03ad-459b-acfa-2ea1b934be2f","ios":"levelo://app?vid=4696be1a-03ad-459b-acfa-2ea1b934be2f"},"vehicle_type_id":"4","last_reported":1774174595,"current_range_meters":9200,"station_id":"ce4bh192rcd13ifvqdc0","pricing_plan_id":"cebpf4jnsgd1na2vs0mg"},{"bike_id":"b9141419-e833-445d-b4bc-3df0c1c6d105","system_id":"levelo_inurba_marseille","lat":43.28354,"lon":5.38105,"is_reserved":false,"is_disabled":false,"rental_uris":{"android":"levelo://app?vid=b9141419-e833-445d-b4bc-3df0c1c6d105","ios":"levelo://app?vid=b9141419-e833-445d-b4bc-3df0c1c6d105"},"vehicle_type_id":"4","last_reported":1774174595,"current_range_meters":9600,"station_id":"ce4bh412rcd13ifvqdr0","pricing_plan_id":"cebpf4jnsgd1na2vs0mg"},{"bike_id":"1b90cb8f-5376-4467-8f30-7080f04519ef","system_id":"levelo_inurba_marseille","lat":43.23898,"lon":5.3747,"is_reserved":false,"is_disabled":true,"rental_uris":{"android":"levelo://app?vid=1b90cb8f-5376-4467-8f30-7080f04519ef","ios":"levelo://app?vid=1b90cb8f-5376-4467-8f30-7080f04519ef"},"vehicle_type_id":"4","last_reported":1774174595,"current_range_meters":9600,"station_id":"st_d6sm7csbq4hs73f8fpjg","pricing_plan_id":"cebpf4jnsgd1na2vs0mg"},{"bike_id":"1d3ccbe4-172b-4420-8816-e91033e4424e","system_id":"levelo_inurba_marseille","lat":43.27963,"lon":5.38699,"is_reserved":false,"is_disabled":false,"rental_uris":{"android":"levelo://app?vid=1d3ccbe4-172b-4420-8816-e91033e4424e","ios":"levelo://app?vid=1d3ccbe4-172b-4420-8816-e91033e4424e"},"vehicle_type_id":"4","last_reported":1774174595,"current_range_meters":9600,"station_id":"ce4bhg12rcd13ifvqf80","pricing_plan_id":"cebpf4jnsgd1na2vs0mg"},{"bike_id":"d928d6a0-ac04-4448-bd38-9d352511fe30","system_id":"levelo_inurba_marseille","lat":43.25336,"lon":5.42163,"is_reserved":false,"is_disabled":false,"rental_uris":{"android":"levelo://app?vid=d928d6a0-ac04-4448-bd38-9d352511fe30","ios":"levelo://app?vid=d928d6a0-ac04-4448-bd38-9d352511fe30"},"vehicle_type_id":"4","last_reported":1774174595,"current_range_meters":9600,"station_id":"st_d2m65c5bi1j21697t3ng","pricing_plan_id":"cebpf4jnsgd1na2vs0mg"},{"bike_id":"f78a220d-0c94-40e2-aaad-bf32cf057ac9","system_id":"levelo_inurba_marseille","lat":43.28533,"lon":5.4409,"is_reserved":false,"is_disabled":false,"rental_uris":{"android":"levelo://app?vid=f78a220d-0c94-40e2-aaad-bf32cf057ac9","ios":"levelo://app?vid=f78a220d-0c94-40e2-aaad-bf32cf057ac9"},"vehicle_type_id":"4","last_reported":1774174595,"current_range_meters":9600,"station_id":"st_d3j3df2ikq2c7380ej80","pricing_plan_id":"cebpf4jnsgd1na2vs0mg"},{"bike_id":"c4420246-b0aa-4f7f-b6f0-90f25ad97000","system_id":"levelo_inurba_marseille","lat":43.30758,"lon":5.38177,"is_reserved":false,"is_disabled":false,"rental_uris":{"android":"levelo://app?vid=c4420246-b0aa-4f7f-b6f0-90f25ad97000","ios":"levelo://app?vid=c4420246-b0aa-4f7f-b6f0-90f25ad97000"},"vehicle_type_id":"4","last_reported":1774174595,"current_range_meters":9600,"station_id":"","pricing_plan_id":"cebpf4jnsgd1na2vs0mg"},{"bike_id":"5135b388-2c36-4537-be3f-d4aaec9eb489","system_id":"levelo_inurba_marseille","lat":43.32046,"lon":5.41574,"is_reserved":false,"is_disabled":true,"rental_uris":{"android":"levelo://app?vid=5135b388-2c36-4537-be3f-d4aaec9eb489","ios":"levelo://app?vid=5135b388-2c36-4537-be3f-d4aaec9eb489"},"vehicle_type_id":"4","last_reported":1774174595,"current_range_meters":9600,"station_id":"ce4bhq92rcd13ifvqhkg","pricing_plan_id":"cebpf4jnsgd1na2vs0mg"},{"bike_id":"b3a01e08-d6e3-42c8-92ba-e15566b55c57","system_id":"levelo_inurba_marseille","lat":43.2593,"lon":5.40918,"is_reserved":false,"is_disabled":true,"rental_uris":{"android":"levelo://app?vid=b3a01e08-d6e3-42c8-92ba-e15566b55c57","ios":"levelo://app?vid=b3a01e08-d6e3-42c8-92ba-e15566b55c57"},"vehicle_type_id":"4","last_reported":1774174595,"current_range_meters":9600,"station_id":"ce4bhm92rcd13ifvqglg","pricing_plan_id":"cebpf4jnsgd1na2vs0mg"},{"bike_id":"ebde9368-c67c-463e-a604-75f89826b908","system_id":"levelo_inurba_marseille","lat":43.29651,"lon":5.39783,"is_reserved":false,"is_disabled":false,"rental_uris":{"android":"levelo://app?vid=ebde9368-c67c-463e-a604-75f89826b908","ios":"levelo://app?vid=ebde9368-c67c-463e-a604-75f89826b908"},"vehicle_type_id":"4","last_reported":1774174595,"current_range_meters":9600,"station_id":"","pricing_plan_id":"cebpf4jnsgd1na2vs0mg"},{"bike_id":"cf2b5c97-ce5a-429d-a47d-e52be80a15ff","system_id":"levelo_inurba_marseille","lat":43.2467,"lon":5.40107,"is_reserved":false,"is_disabled":false,"rental_uris":{"android":"levelo://app?vid=cf2b5c97-ce5a-429d-a47d-e52be80a15ff","ios":"levelo://app?vid=cf2b5c97-ce5a-429d-a47d-e52be80a15ff"},"vehicle_type_id":"4","last_reported":1774174595,"current_range_meters":9600,"station_id":"","pricing_plan_id":"cebpf4jnsgd1na2vs0mg"},{"bike_id":"92dd9d77-4896-43b1-971c-28499a0b045d","system_id":"levelo_inurba_marseille","lat":43.28234,"lon":5.40837,"is_reserved":false,"is_disabled":false,"rental_uris":{"android":"levelo://app?vid=92dd9d77-4896-43b1-971c-28499a0b045d","ios":"levelo://app?vid=92dd9d77-4896-43b1-971c-28499a0b045d"},"vehicle_type_id":"4","last_reported":1774174595,"current_range_meters":9600,"station_id":"","pricing_plan_id":"cebpf4jnsgd1na2vs0mg"},{"bike_id":"c13a6b3c-c14e-4ecc-9460-c79bd6a0f398","system_id":"levelo_inurba_marseille","lat":43.29966,"lon":5.41326,"is_reserved":false,"is_disabled":false,"rental_uris":{"android":"levelo://app?vid=c13a6b3c-c14e-4ecc-9460-c79bd6a0f398","ios":"levelo://app?vid=c13a6b3c-c14e-4ecc-9460-c79bd6a0f398"},"vehicle_type_id":"4","last_reported":1774174595,"current_range_meters":9600,"station_id":"ce4bhp12rcd13ifvqh9g","pricing_plan_id":"cebpf4jnsgd1na2vs0mg"},{"bike_id":"3a5ba4a4-1cd4-45b4-a774-5fec89f7240f","system_id":"levelo_inurba_marseille","lat":43.28483,"lon":5.48367,"is_reserved":false,"is_disabled":false,"rental_uris":{"android":"levelo://app?vid=3a5ba4a4-1cd4-45b4-a774-5fec89f7240f","ios":"levelo://app?vid=3a5ba4a4-1cd4-45b4-a774-5fec89f7240f"},"vehicle_type_id":"4","last_reported":1774174595,"current_range_meters":9600,"station_id":"st_d3svhcjqgbts73a3dn0g","pricing_plan_id":"cebpf4jnsgd1na2vs0mg"},{"bike_id":"7340281b-0e78-4306-8a96-2b0449ebe341","system_id":"levelo_inurba_marseille","lat":43.26562,"lon":5.39011,"is_reserved":false,"is_disabled":false,"rental_uris":{"android":"levelo://app?vid=7340281b-0e78-4306-8a96-2b0449ebe341","ios":"levelo://app?vid=7340281b-0e78-4306-8a96-2b0449ebe341"},"vehicle_type_id":"4","last_reported":1774174595,"current_range_meters":9600,"station_id":"ce4bhe12rcd13ifvqf30","pricing_plan_id":"cebpf4jnsgd1na2vs0mg"},{"bike_id":"291fc04c-074f-442e-97fd-1d0417718243","system_id":"levelo_inurba_marseille","lat":43.30302,"lon":5.44972,"is_reserved":false,"is_disabled":false,"rental_uris":{"android":"levelo://app?vid=291fc04c-074f-442e-97fd-1d0417718243","ios":"levelo://app?vid=291fc04c-074f-442e-97fd-1d0417718243"},"vehicle_type_id":"4","last_reported":1774174595,"current_range_meters":9600,"station_id":"","pricing_plan_id":"cebpf4jnsgd1na2vs0mg"},{"bike_id":"7fc84e7f-16e2-4d18-8d28-12bb10ae662a","system_id":"levelo_inurba_marseille","lat":43.31461,"lon":5.4455,"is_reserved":false,"is_disabled":false,"rental_uris":{"android":"levelo://app?vid=7fc84e7f-16e2-4d18-8d28-12bb10ae662a","ios":"levelo://app?vid=7fc84e7f-16e2-4d18-8d28-12bb10ae662a"},"vehicle_type_id":"4","last_reported":1774174595,"current_range_meters":10000,"station_id":"","pricing_plan_id":"cebpf4jnsgd1na2vs0mg"},{"bike_id":"0df751db-05e4-4cd5-ac31-ddf538c4e392","system_id":"levelo_inurba_marseille","lat":43.29251,"lon":5.36823,"is_reserved":false,"is_disabled":false,"rental_uris":{"android":"levelo://app?vid=0df751db-05e4-4cd5-ac31-ddf538c4e392","ios":"levelo://app?vid=0df751db-05e4-4cd5-ac31-ddf538c4e392"},"vehicle_type_id":"4","last_reported":1774174595,"current_range_meters":10000,"station_id":"ce4bhbp2rcd13ifvqesg","pricing_plan_id":"cebpf4jnsgd1na2vs0mg"},{"bike_id":"e76a3c96-967e-4e71-9d28-5af1c796316e","system_id":"levelo_inurba_marseille","lat":43.31312,"lon":5.39673,"is_reserved":false,"is_disabled":false,"rental_uris":{"android":"levelo://app?vid=e76a3c96-967e-4e71-9d28-5af1c796316e","ios":"levelo://app?vid=e76a3c96-967e-4e71-9d28-5af1c796316e"},"vehicle_type_id":"4","last_reported":1774174595,"current_range_meters":10000,"station_id":"ce4bgvp2rcd13ifvqcu0","pricing_plan_id":"cebpf4jnsgd1na2vs0mg"},{"bike_id":"3f14d548-9e51-4923-8a9f-7ffc65d9c85d","system_id":"levelo_inurba_marseille","lat":43.28928,"lon":5.38411,"is_reserved":false,"is_disabled":true,"rental_uris":{"android":"levelo://app?vid=3f14d548-9e51-4923-8a9f-7ffc65d9c85d","ios":"levelo://app?vid=3f14d548-9e51-4923-8a9f-7ffc65d9c85d"},"vehicle_type_id":"4","last_reported":1774174595,"current_range_meters":10000,"station_id":"ce4bh612rcd13ifvqe6g","pricing_plan_id":"cebpf4jnsgd1na2vs0mg"},{"bike_id":"61efe9a0-0d5c-4060-b440-e1c6f3374585","system_id":"levelo_inurba_marseille","lat":43.28482,"lon":5.48393,"is_reserved":false,"is_disabled":true,"rental_uris":{"android":"levelo://app?vid=61efe9a0-0d5c-4060-b440-e1c6f3374585","ios":"levelo://app?vid=61efe9a0-0d5c-4060-b440-e1c6f3374585"},"vehicle_type_id":"4","last_reported":1774174595,"current_range_meters":10000,"station_id":"","pricing_plan_id":"cebpf4jnsgd1na2vs0mg"},{"bike_id":"d6a92379-a83b-4d16-bc9b-01277d622909","system_id":"levelo_inurba_marseille","lat":43.32102,"lon":5.36765,"is_reserved":false,"is_disabled":false,"rental_uris":{"android":"levelo://app?vid=d6a92379-a83b-4d16-bc9b-01277d622909","ios":"levelo://app?vid=d6a92379-a83b-4d16-bc9b-01277d622909"},"vehicle_type_id":"4","last_reported":1774174595,"current_range_meters":10000,"station_id":"ce4bhrh2rcd13ifvqhug","pricing_plan_id":"cebpf4jnsgd1na2vs0mg"},{"bike_id":"269d2d70-366c-4e00-8307-4303b7d6e591","system_id":"levelo_inurba_marseille","lat":43.24631,"lon":5.41639,"is_reserved":false,"is_disabled":false,"rental_uris":{"android":"levelo://app?vid=269d2d70-366c-4e00-8307-4303b7d6e591","ios":"levelo://app?vid=269d2d70-366c-4e00-8307-4303b7d6e591"},"vehicle_type_id":"4","last_reported":1774174595,"current_range_meters":10000,"station_id":"","pricing_plan_id":"cebpf4jnsgd1na2vs0mg"},{"bike_id":"6a116e03-27be-4007-95a9-3c707554e9e1","system_id":"levelo_inurba_marseille","lat":43.25342,"lon":5.4217,"is_reserved":false,"is_disabled":true,"rental_uris":{"android":"levelo://app?vid=6a116e03-27be-4007-95a9-3c707554e9e1","ios":"levelo://app?vid=6a116e03-27be-4007-95a9-3c707554e9e1"},"vehicle_type_id":"4","last_reported":1774174595,"current_range_meters":10000,"station_id":"st_d2m65c5bi1j21697t3ng","pricing_plan_id":"cebpf4jnsgd1na2vs0mg"},{"bike_id":"dac3590a-b4b5-445b-9d2d-113c17baa295","system_id":"levelo_inurba_marseille","lat":43.25085,"lon":5.39503,"is_reserved":false,"is_disabled":true,"rental_uris":{"android":"levelo://app?vid=dac3590a-b4b5-445b-9d2d-113c17baa295","ios":"levelo://app?vid=dac3590a-b4b5-445b-9d2d-113c17baa295"},"vehicle_type_id":"4","last_reported":1774174595,"current_range_meters":10000,"station_id":"ce4bhm12rcd13ifvqgkg","pricing_plan_id":"cebpf4jnsgd1na2vs0mg"},{"bike_id":"e75c0e5f-106c-47e2-93f8-5a002f67eaa8","system_id":"levelo_inurba_marseille","lat":43.23778,"lon":5.36644,"is_reserved":false,"is_disabled":false,"rental_uris":{"android":"levelo://app?vid=e75c0e5f-106c-47e2-93f8-5a002f67eaa8","ios":"levelo://app?vid=e75c0e5f-106c-47e2-93f8-5a002f67eaa8"},"vehicle_type_id":"4","last_reported":1774174595,"current_range_meters":10000,"station_id":"st_d3nk18o9ro0c73en2l3g","pricing_plan_id":"cebpf4jnsgd1na2vs0mg"},{"bike_id":"f0388167-dcc0-435a-837c-5eb0c48f50c0","system_id":"levelo_inurba_marseille","lat":43.28716,"lon":5.46654,"is_reserved":false,"is_disabled":false,"rental_uris":{"android":"levelo://app?vid=f0388167-dcc0-435a-837c-5eb0c48f50c0","ios":"levelo://app?vid=f0388167-dcc0-435a-837c-5eb0c48f50c0"},"vehicle_type_id":"4","last_reported":1774174595,"current_range_meters":10000,"station_id":"st_d6tc3vkotcvc738tfjhg","pricing_plan_id":"cebpf4jnsgd1na2vs0mg"},{"bike_id":"4654d03d-a6a4-4eee-a061-7c2a677f6949","system_id":"levelo_inurba_marseille","lat":43.32114,"lon":5.36761,"is_reserved":false,"is_disabled":false,"rental_uris":{"android":"levelo://app?vid=4654d03d-a6a4-4eee-a061-7c2a677f6949","ios":"levelo://app?vid=4654d03d-a6a4-4eee-a061-7c2a677f6949"},"vehicle_type_id":"4","last_reported":1774174595,"current_range_meters":10000,"station_id":"ce4bhrh2rcd13ifvqhug","pricing_plan_id":"cebpf4jnsgd1na2vs0mg"},{"bike_id":"3e86872d-0403-4619-842e-1549b9470291","system_id":"levelo_inurba_marseille","lat":43.27986,"lon":5.40006,"is_reserved":false,"is_disabled":true,"rental_uris":{"android":"levelo://app?vid=3e86872d-0403-4619-842e-1549b9470291","ios":"levelo://app?vid=3e86872d-0403-4619-842e-1549b9470291"},"vehicle_type_id":"4","last_reported":1774174595,"current_range_meters":10000,"station_id":"ce4bho92rcd13ifvqh4g","pricing_plan_id":"cebpf4jnsgd1na2vs0mg"},{"bike_id":"d349a719-3c34-4a1a-8af7-5d73925c7ca3","system_id":"levelo_inurba_marseille","lat":43.2822,"lon":5.39069,"is_reserved":false,"is_disabled":false,"rental_uris":{"android":"levelo://app?vid=d349a719-3c34-4a1a-8af7-5d73925c7ca3","ios":"levelo://app?vid=d349a719-3c34-4a1a-8af7-5d73925c7ca3"},"vehicle_type_id":"4","last_reported":1774174595,"current_range_meters":10800,"station_id":"ce4bhn92rcd13ifvqgsg","pricing_plan_id":"cebpf4jnsgd1na2vs0mg"},{"bike_id":"4106d846-6cc7-4d44-b0eb-87859350b808","system_id":"levelo_inurba_marseille","lat":43.28662,"lon":5.37918,"is_reserved":false,"is_disabled":false,"rental_uris":{"android":"levelo://app?vid=4106d846-6cc7-4d44-b0eb-87859350b808","ios":"levelo://app?vid=4106d846-6cc7-4d44-b0eb-87859350b808"},"vehicle_type_id":"4","last_reported":1774174595,"current_range_meters":10800,"station_id":"","pricing_plan_id":"cebpf4jnsgd1na2vs0mg"},{"bike_id":"c203ab65-1c70-4299-8d5d-e7ccd979dd74","system_id":"levelo_inurba_marseille","lat":43.28685,"lon":5.39999,"is_reserved":false,"is_disabled":false,"rental_uris":{"android":"levelo://app?vid=c203ab65-1c70-4299-8d5d-e7ccd979dd74","ios":"levelo://app?vid=c203ab65-1c70-4299-8d5d-e7ccd979dd74"},"vehicle_type_id":"4","last_reported":1774174595,"current_range_meters":10800,"station_id":"ce4bho92rcd13ifvqh3g","pricing_plan_id":"cebpf4jnsgd1na2vs0mg"},{"bike_id":"69fcec7f-ac33-45cd-bce0-553de2f7ffb9","system_id":"levelo_inurba_marseille","lat":43.27056,"lon":5.40232,"is_reserved":false,"is_disabled":false,"rental_uris":{"android":"levelo://app?vid=69fcec7f-ac33-45cd-bce0-553de2f7ffb9","ios":"levelo://app?vid=69fcec7f-ac33-45cd-bce0-553de2f7ffb9"},"vehicle_type_id":"4","last_reported":1774174595,"current_range_meters":10800,"station_id":"ce4bhk92rcd13ifvqgc0","pricing_plan_id":"cebpf4jnsgd1na2vs0mg"},{"bike_id":"f6b0aaa3-f85d-4911-b3c0-89e24d615d95","system_id":"levelo_inurba_marseille","lat":43.21229,"lon":5.35038,"is_reserved":false,"is_disabled":true,"rental_uris":{"android":"levelo://app?vid=f6b0aaa3-f85d-4911-b3c0-89e24d615d95","ios":"levelo://app?vid=f6b0aaa3-f85d-4911-b3c0-89e24d615d95"},"vehicle_type_id":"4","last_reported":1774174595,"current_range_meters":10800,"station_id":"","pricing_plan_id":"cebpf4jnsgd1na2vs0mg"},{"bike_id":"b0171302-9d19-42a8-b85d-b3c8cdec90a4","system_id":"levelo_inurba_marseille","lat":43.29585,"lon":5.36734,"is_reserved":false,"is_disabled":true,"rental_uris":{"android":"levelo://app?vid=b0171302-9d19-42a8-b85d-b3c8cdec90a4","ios":"levelo://app?vid=b0171302-9d19-42a8-b85d-b3c8cdec90a4"},"vehicle_type_id":"4","last_reported":1774174595,"current_range_meters":10800,"station_id":"ce4bgph2rcd13ifvqc2g","pricing_plan_id":"cebpf4jnsgd1na2vs0mg"},{"bike_id":"ad998b8e-1e0e-4522-a6b0-38e1268f96a5","system_id":"levelo_inurba_marseille","lat":43.31263,"lon":5.36809,"is_reserved":false,"is_disabled":false,"rental_uris":{"android":"levelo://app?vid=ad998b8e-1e0e-4522-a6b0-38e1268f96a5","ios":"levelo://app?vid=ad998b8e-1e0e-4522-a6b0-38e1268f96a5"},"vehicle_type_id":"4","last_reported":1774174595,"current_range_meters":10800,"station_id":"","pricing_plan_id":"cebpf4jnsgd1na2vs0mg"},{"bike_id":"0b2517ff-7555-440c-8a7d-8e629f682998","system_id":"levelo_inurba_marseille","lat":43.31329,"lon":5.39689,"is_reserved":false,"is_disabled":false,"rental_uris":{"android":"levelo://app?vid=0b2517ff-7555-440c-8a7d-8e629f682998","ios":"levelo://app?vid=0b2517ff-7555-440c-8a7d-8e629f682998"},"vehicle_type_id":"4","last_reported":1774174595,"current_range_meters":10800,"station_id":"ce4bgvp2rcd13ifvqcu0","pricing_plan_id":"cebpf4jnsgd1na2vs0mg"},{"bike_id":"c19c9f98-3513-4940-a9ab-a2b896a35250","system_id":"levelo_inurba_marseille","lat":43.313269,"lon":5.396816,"is_reserved":false,"is_disabled":false,"rental_uris":{"android":"levelo://app?vid=c19c9f98-3513-4940-a9ab-a2b896a35250","ios":"levelo://app?vid=c19c9f98-3513-4940-a9ab-a2b896a35250"},"vehicle_type_id":"4","last_reported":1774174595,"current_range_meters":10800,"station_id":"ce4bgvp2rcd13ifvqcu0","pricing_plan_id":"cebpf4jnsgd1na2vs0mg"},{"bike_id":"b673ef2d-bc5a-4b3a-a990-b644ee6ba2da","system_id":"levelo_inurba_marseille","lat":43.26551,"lon":5.37293,"is_reserved":false,"is_disabled":false,"rental_uris":{"android":"levelo://app?vid=b673ef2d-bc5a-4b3a-a990-b644ee6ba2da","ios":"levelo://app?vid=b673ef2d-bc5a-4b3a-a990-b644ee6ba2da"},"vehicle_type_id":"4","last_reported":1774174595,"current_range_meters":10800,"station_id":"ce4bhg12rcd13ifvqf70","pricing_plan_id":"cebpf4jnsgd1na2vs0mg"},{"bike_id":"43e59ba5-ec46-4220-91f3-66a9acd0748a","system_id":"levelo_inurba_marseille","lat":43.2309,"lon":5.35457,"is_reserved":false,"is_disabled":false,"rental_uris":{"android":"levelo://app?vid=43e59ba5-ec46-4220-91f3-66a9acd0748a","ios":"levelo://app?vid=43e59ba5-ec46-4220-91f3-66a9acd0748a"},"vehicle_type_id":"4","last_reported":1774174595,"current_range_meters":10800,"station_id":"cpo3342slgdg3j2ifvpg","pricing_plan_id":"cebpf4jnsgd1na2vs0mg"},{"bike_id":"e2c736f1-02a0-472a-8264-657f57cf2541","system_id":"levelo_inurba_marseille","lat":43.30538,"lon":5.36554,"is_reserved":false,"is_disabled":false,"rental_uris":{"android":"levelo://app?vid=e2c736f1-02a0-472a-8264-657f57cf2541","ios":"levelo://app?vid=e2c736f1-02a0-472a-8264-657f57cf2541"},"vehicle_type_id":"4","last_reported":1774174595,"current_range_meters":11200,"station_id":"ce4bgs12rcd13ifvqcag","pricing_plan_id":"cebpf4jnsgd1na2vs0mg"},{"bike_id":"9bd3f79a-0719-4c3f-b3c7-8051544625c1","system_id":"levelo_inurba_marseille","lat":43.26559,"lon":5.39002,"is_reserved":false,"is_disabled":true,"rental_uris":{"android":"levelo://app?vid=9bd3f79a-0719-4c3f-b3c7-8051544625c1","ios":"levelo://app?vid=9bd3f79a-0719-4c3f-b3c7-8051544625c1"},"vehicle_type_id":"4","last_reported":1774174595,"current_range_meters":11200,"station_id":"ce4bhe12rcd13ifvqf30","pricing_plan_id":"cebpf4jnsgd1na2vs0mg"},{"bike_id":"689efa8f-1f35-430e-a9ba-181faf62404f","system_id":"levelo_inurba_marseille","lat":43.29571,"lon":5.37511,"is_reserved":false,"is_disabled":false,"rental_uris":{"android":"levelo://app?vid=689efa8f-1f35-430e-a9ba-181faf62404f","ios":"levelo://app?vid=689efa8f-1f35-430e-a9ba-181faf62404f"},"vehicle_type_id":"4","last_reported":1774174595,"current_range_meters":11200,"station_id":"ce4bgh92rcd13ifvqb50","pricing_plan_id":"cebpf4jnsgd1na2vs0mg"},{"bike_id":"1be3a4ec-c2ec-4fa5-b915-220eda4109f4","system_id":"levelo_inurba_marseille","lat":43.28703,"lon":5.46674,"is_reserved":false,"is_disabled":false,"rental_uris":{"android":"levelo://app?vid=1be3a4ec-c2ec-4fa5-b915-220eda4109f4","ios":"levelo://app?vid=1be3a4ec-c2ec-4fa5-b915-220eda4109f4"},"vehicle_type_id":"4","last_reported":1774174595,"current_range_meters":11200,"station_id":"st_d6tc3vkotcvc738tfjhg","pricing_plan_id":"cebpf4jnsgd1na2vs0mg"},{"bike_id":"8b5ac345-ed06-4aa3-a02e-461c1d85a878","system_id":"levelo_inurba_marseille","lat":43.2501,"lon":5.38926,"is_reserved":false,"is_disabled":true,"rental_uris":{"android":"levelo://app?vid=8b5ac345-ed06-4aa3-a02e-461c1d85a878","ios":"levelo://app?vid=8b5ac345-ed06-4aa3-a02e-461c1d85a878"},"vehicle_type_id":"4","last_reported":1774174595,"current_range_meters":11200,"station_id":"ce4bhgp2rcd13ifvqfd0","pricing_plan_id":"cebpf4jnsgd1na2vs0mg"},{"bike_id":"c92fb013-f65a-4b6e-8912-580a6142357c","system_id":"levelo_inurba_marseille","lat":43.3354,"lon":5.37466,"is_reserved":false,"is_disabled":false,"rental_uris":{"android":"levelo://app?vid=c92fb013-f65a-4b6e-8912-580a6142357c","ios":"levelo://app?vid=c92fb013-f65a-4b6e-8912-580a6142357c"},"vehicle_type_id":"4","last_reported":1774174595,"current_range_meters":11200,"station_id":"st_d46tts09ee8s73dlu43g","pricing_plan_id":"cebpf4jnsgd1na2vs0mg"},{"bike_id":"59d26c1c-a626-4fe5-bb54-85a4f4e17640","system_id":"levelo_inurba_marseille","lat":43.2847,"lon":5.48389,"is_reserved":false,"is_disabled":false,"rental_uris":{"android":"levelo://app?vid=59d26c1c-a626-4fe5-bb54-85a4f4e17640","ios":"levelo://app?vid=59d26c1c-a626-4fe5-bb54-85a4f4e17640"},"vehicle_type_id":"4","last_reported":1774174595,"current_range_meters":11200,"station_id":"","pricing_plan_id":"cebpf4jnsgd1na2vs0mg"},{"bike_id":"c524ee7b-a362-41ed-9659-586e5fab1e4b","system_id":"levelo_inurba_marseille","lat":43.29557,"lon":5.39936,"is_reserved":false,"is_disabled":true,"rental_uris":{"android":"levelo://app?vid=c524ee7b-a362-41ed-9659-586e5fab1e4b","ios":"levelo://app?vid=c524ee7b-a362-41ed-9659-586e5fab1e4b"},"vehicle_type_id":"4","last_reported":1774174595,"current_range_meters":11200,"station_id":"ce4bh312rcd13ifvqdj0","pricing_plan_id":"cebpf4jnsgd1na2vs0mg"},{"bike_id":"cd25e487-f139-4d00-8797-a233697c2e18","system_id":"levelo_inurba_marseille","lat":43.28364,"lon":5.38445,"is_reserved":false,"is_disabled":false,"rental_uris":{"android":"levelo://app?vid=cd25e487-f139-4d00-8797-a233697c2e18","ios":"levelo://app?vid=cd25e487-f139-4d00-8797-a233697c2e18"},"vehicle_type_id":"4","last_reported":1774174595,"current_range_meters":11200,"station_id":"","pricing_plan_id":"cebpf4jnsgd1na2vs0mg"},{"bike_id":"6a349db2-35cd-46bc-9450-f4ec403eb3e2","system_id":"levelo_inurba_marseille","lat":43.24801,"lon":5.39262,"is_reserved":false,"is_disabled":false,"rental_uris":{"android":"levelo://app?vid=6a349db2-35cd-46bc-9450-f4ec403eb3e2","ios":"levelo://app?vid=6a349db2-35cd-46bc-9450-f4ec403eb3e2"},"vehicle_type_id":"4","last_reported":1774174595,"current_range_meters":11200,"station_id":"","pricing_plan_id":"cebpf4jnsgd1na2vs0mg"},{"bike_id":"fa7f5f0d-1fd4-40b2-9523-978617503ff0","system_id":"levelo_inurba_marseille","lat":43.26687,"lon":5.38306,"is_reserved":false,"is_disabled":true,"rental_uris":{"android":"levelo://app?vid=fa7f5f0d-1fd4-40b2-9523-978617503ff0","ios":"levelo://app?vid=fa7f5f0d-1fd4-40b2-9523-978617503ff0"},"vehicle_type_id":"4","last_reported":1774174595,"current_range_meters":11200,"station_id":"ce4bhg92rcd13ifvqf90","pricing_plan_id":"cebpf4jnsgd1na2vs0mg"},{"bike_id":"06517dae-b7b9-4e7f-a9bd-9b462d98abd3","system_id":"levelo_inurba_marseille","lat":43.28042,"lon":5.36903,"is_reserved":false,"is_disabled":false,"rental_uris":{"android":"levelo://app?vid=06517dae-b7b9-4e7f-a9bd-9b462d98abd3","ios":"levelo://app?vid=06517dae-b7b9-4e7f-a9bd-9b462d98abd3"},"vehicle_type_id":"4","last_reported":1774174595,"current_range_meters":11200,"station_id":"ce4bha12rcd13ifvqef0","pricing_plan_id":"cebpf4jnsgd1na2vs0mg"},{"bike_id":"5521ae74-b716-4888-ae64-fd25b7d56914","system_id":"levelo_inurba_marseille","lat":43.29606,"lon":5.36534,"is_reserved":false,"is_disabled":false,"rental_uris":{"android":"levelo://app?vid=5521ae74-b716-4888-ae64-fd25b7d56914","ios":"levelo://app?vid=5521ae74-b716-4888-ae64-fd25b7d56914"},"vehicle_type_id":"4","last_reported":1774174595,"current_range_meters":11200,"station_id":"","pricing_plan_id":"cebpf4jnsgd1na2vs0mg"},{"bike_id":"6fb15948-a05b-43c6-8157-c719b829935b","system_id":"levelo_inurba_marseille","lat":43.31319,"lon":5.39688,"is_reserved":false,"is_disabled":false,"rental_uris":{"android":"levelo://app?vid=6fb15948-a05b-43c6-8157-c719b829935b","ios":"levelo://app?vid=6fb15948-a05b-43c6-8157-c719b829935b"},"vehicle_type_id":"4","last_reported":1774174595,"current_range_meters":11200,"station_id":"ce4bgvp2rcd13ifvqcu0","pricing_plan_id":"cebpf4jnsgd1na2vs0mg"},{"bike_id":"afbc3d1f-517c-4fe0-8f02-47686ebfac6d","system_id":"levelo_inurba_marseille","lat":43.31994,"lon":5.38147,"is_reserved":false,"is_disabled":false,"rental_uris":{"android":"levelo://app?vid=afbc3d1f-517c-4fe0-8f02-47686ebfac6d","ios":"levelo://app?vid=afbc3d1f-517c-4fe0-8f02-47686ebfac6d"},"vehicle_type_id":"4","last_reported":1774174595,"current_range_meters":11200,"station_id":"ce4bhr12rcd13ifvqhpg","pricing_plan_id":"cebpf4jnsgd1na2vs0mg"},{"bike_id":"3bbb2d24-3e39-4a5a-acef-2063c8f69749","system_id":"levelo_inurba_marseille","lat":43.30131,"lon":5.38765,"is_reserved":false,"is_disabled":true,"rental_uris":{"android":"levelo://app?vid=3bbb2d24-3e39-4a5a-acef-2063c8f69749","ios":"levelo://app?vid=3bbb2d24-3e39-4a5a-acef-2063c8f69749"},"vehicle_type_id":"4","last_reported":1774174595,"current_range_meters":11600,"station_id":"ce4bghh2rcd13ifvqb60","pricing_plan_id":"cebpf4jnsgd1na2vs0mg"},{"bike_id":"94b186d1-2ae3-49b4-8152-d41fc2565b52","system_id":"levelo_inurba_marseille","lat":43.29256,"lon":5.40889,"is_reserved":false,"is_disabled":false,"rental_uris":{"android":"levelo://app?vid=94b186d1-2ae3-49b4-8152-d41fc2565b52","ios":"levelo://app?vid=94b186d1-2ae3-49b4-8152-d41fc2565b52"},"vehicle_type_id":"4","last_reported":1774174595,"current_range_meters":11600,"station_id":"ce4bh192rcd13ifvqdc0","pricing_plan_id":"cebpf4jnsgd1na2vs0mg"},{"bike_id":"41068ca7-3036-4528-9526-26d09af62506","system_id":"levelo_inurba_marseille","lat":43.32117,"lon":5.3677,"is_reserved":false,"is_disabled":false,"rental_uris":{"android":"levelo://app?vid=41068ca7-3036-4528-9526-26d09af62506","ios":"levelo://app?vid=41068ca7-3036-4528-9526-26d09af62506"},"vehicle_type_id":"4","last_reported":1774174595,"current_range_meters":11600,"station_id":"ce4bhrh2rcd13ifvqhug","pricing_plan_id":"cebpf4jnsgd1na2vs0mg"},{"bike_id":"93f253f5-33ac-4d46-8b5e-097b6097951a","system_id":"levelo_inurba_marseille","lat":43.296227,"lon":5.378021,"is_reserved":false,"is_disabled":false,"rental_uris":{"android":"levelo://app?vid=93f253f5-33ac-4d46-8b5e-097b6097951a","ios":"levelo://app?vid=93f253f5-33ac-4d46-8b5e-097b6097951a"},"vehicle_type_id":"4","last_reported":1774174595,"current_range_meters":11600,"station_id":"ce4bgi92rcd13ifvqb90","pricing_plan_id":"cebpf4jnsgd1na2vs0mg"},{"bike_id":"4fbd7bdc-310e-4946-a8b8-c5e070fba8f4","system_id":"levelo_inurba_marseille","lat":43.2898,"lon":5.37847,"is_reserved":false,"is_disabled":true,"rental_uris":{"android":"levelo://app?vid=4fbd7bdc-310e-4946-a8b8-c5e070fba8f4","ios":"levelo://app?vid=4fbd7bdc-310e-4946-a8b8-c5e070fba8f4"},"vehicle_type_id":"4","last_reported":1774174595,"current_range_meters":11600,"station_id":"ce4bh9p2rcd13ifvqed0","pricing_plan_id":"cebpf4jnsgd1na2vs0mg"},{"bike_id":"ab5e7411-95a0-47c6-928f-dc3ca79b16b4","system_id":"levelo_inurba_marseille","lat":43.29728,"lon":5.37666,"is_reserved":false,"is_disabled":false,"rental_uris":{"android":"levelo://app?vid=ab5e7411-95a0-47c6-928f-dc3ca79b16b4","ios":"levelo://app?vid=ab5e7411-95a0-47c6-928f-dc3ca79b16b4"},"vehicle_type_id":"4","last_reported":1774174595,"current_range_meters":11600,"station_id":"ce4bgkh2rcd13ifvqbl0","pricing_plan_id":"cebpf4jnsgd1na2vs0mg"},{"bike_id":"fadcab69-0108-4173-b29b-15ba2f34e9de","system_id":"levelo_inurba_marseille","lat":43.323667,"lon":5.388825,"is_reserved":false,"is_disabled":false,"rental_uris":{"android":"levelo://app?vid=fadcab69-0108-4173-b29b-15ba2f34e9de","ios":"levelo://app?vid=fadcab69-0108-4173-b29b-15ba2f34e9de"},"vehicle_type_id":"4","last_reported":1774174595,"current_range_meters":11600,"station_id":"ce4bhqp2rcd13ifvqhog","pricing_plan_id":"cebpf4jnsgd1na2vs0mg"},{"bike_id":"728c189a-ecd8-46ef-aadc-354c1c8ed43b","system_id":"levelo_inurba_marseille","lat":43.27666,"lon":5.38881,"is_reserved":false,"is_disabled":false,"rental_uris":{"android":"levelo://app?vid=728c189a-ecd8-46ef-aadc-354c1c8ed43b","ios":"levelo://app?vid=728c189a-ecd8-46ef-aadc-354c1c8ed43b"},"vehicle_type_id":"4","last_reported":1774174595,"current_range_meters":11600,"station_id":"ce4bhi12rcd13ifvqfo0","pricing_plan_id":"cebpf4jnsgd1na2vs0mg"},