{"last_updated":1704121615,"ttl":30,"version":"2.2","data":{"bikes":[{"bike_id":"7d85abb0-786c-454d-939c-3f7819b2c5c6","system_id":"levelo_inurba_marseille","lat":43.31341,"lon":5.367098,"is_reserved":false,"is_disabled":false,"rental_uris":{"android":"levelo://app?vid=7d85abb0-786c-454d-939c-3f7819b2c5c6","ios":"levelo://app?vid=7d85abb0-786c-454d-939c-3f7819b2c5c6"},"vehicle_type_id":"4","last_reported":1704121616,"current_range_meters":32000,"station_id":"ce4bgr92rcd13ifvqc6g","pricing_plan_id":"free"},{"bike_id":"19681d20-0e94-4d95-bd6e-75843e212133","system_id":"levelo_inurba_marseille","lat":43.313391,"lon":5.36706,"is_reserved":false,"is_disabled":false,"rental_uris":{"android":"levelo://app?vid=19681d20-0e94-4d95-bd6e-75843e212133","ios":"levelo://app?vid=19681d20-0e94-4d95-bd6e-75843e212133"},"vehicle_type_id":"4","last_reported":1704121616,"current_range_meters":29200,"station_id":"ce4bgr92rcd13ifvqc6g","pricing_plan_id":"free"},{"bike_id":"a996665b-2d87-4552-8a22-15efdfad4c1d","system_id":"levelo_inurba_marseille","lat":43.31341,"lon":5.367098,"is_reserved":false,"is_disabled":false,"rental_uris":{"android":"levelo://app?vid=a996665b-2d87-4552-8a22-15efdfad4c1d","ios":"levelo://app?vid=a996665b-2d87-4552-8a22-15efdfad4c1d"},"vehicle_type_id":"4","last_reported":1704121616,"current_range_meters":20400,"station_id":"ce4bgr92rcd13ifvqc6g","pricing_plan_id":"free"},{"bike_id":"919dfe44-fe7e-443f-8c95-a074229b7bd7","system_id":"levelo_inurba_marseille","lat":43.312239,"lon":5.368562,"is_reserved":false,"is_disabled":false,"rental_uris":{"android":"levelo://app?vid=919dfe44-fe7e-443f-8c95-a074229b7bd7","ios":"levelo://app?vid=919dfe44-fe7e-443f-8c95-a074229b7bd7"},"vehicle_type_id":"4","last_reported":1704121616,"current_range_meters":24800,"station_id":"ce4bgl92rcd13ifvqbq0","pricing_plan_id":"free"},{"bike_id":"44a9498d-b1bb-4a79-8fdb-f829f6d9457c","system_id":"levelo_inurba_marseille","lat":43.312239,"lon":5.368562,"is_reserved":false,"is_disabled":false,"rental_uris":{"android":"levelo://app?vid=44a9498d-b1bb-4a79-8fdb-f829f6d9457c","ios":"levelo://app?vid=44a9498d-b1bb-4a79-8fdb-f829f6d9457c"},"vehicle_type_id":"4","last_reported":1704121616,"current_range_meters":20800,"station_id":"ce4bgl92rcd13ifvqbq0","pricing_plan_id":"free"},{"bike_id":"33ecc7cb-a5cc-4ab9-afe8-3a61e292b84d","system_id":"levelo_inurba_marseille","lat":43.312239,"lon":5.368562,"is_reserved":false,"is_disabled":false,"rental_uris":{"android":"levelo://app?vid=33ecc7cb-a5cc-4ab9-afe8-3a61e292b84d","ios":"levelo://app?vid=33ecc7cb-a5cc-4ab9-afe8-3a61e292b84d"},"vehicle_type_id":"4","last_reported":1704121616,"current_range_meters":0,"station_id":"ce4bgl92rcd13ifvqbq0","pricing_plan_id":"free"},{"bike_id":"e17f47b2-3166-47b8-83f0-bf2dacd947e9","system_id":"levelo_inurba_marseille","lat":43.31209,"lon":5.37618,"is_reserved":false,"is_disabled":false,"rental_uris":{"android":"levelo://app?vid=e17f47b2-3166-47b8-83f0-bf2dacd947e9","ios":"levelo://app?vid=e17f47b2-3166-47b8-83f0-bf2dacd947e9"},"vehicle_type_id":"4","last_reported":1704121616,"current_range_meters":20800,"station_id":"","pricing_plan_id":"free"},{"bike_id":"fcd4091a-97ab-4e2b-8c12-0c8375797e63","system_id":"levelo_inurba_marseille","lat":43.30594,"lon":5.36695,"is_reserved":false,"is_disabled":false,"rental_uris":{"android":"levelo://app?vid=fcd4091a-97ab-4e2b-8c12-0c8375797e63","ios":"levelo://app?vid=fcd4091a-97ab-4e2b-8c12-0c8375797e63"},"vehicle_type_id":"4","last_reported":1704121616,"current_range_meters":19200,"station_id":"ce4bgrp2rcd13ifvqc9g","pricing_plan_id":"free"},{"bike_id":"6cc10ba3-514e-4b87-b859-081a0f2df958","system_id":"levelo_inurba_marseille","lat":43.305706,"lon":5.365654,"is_reserved":false,"is_disabled":false,"rental_uris":{"android":"levelo://app?vid=6cc10ba3-514e-4b87-b859-081a0f2df958","ios":"levelo://app?vid=6cc10ba3-514e-4b87-b859-081a0f2df958"},"vehicle_type_id":"4","last_reported":1704121616,"current_range_meters":23200,"station_id":"ce4bgs12rcd13ifvqcag","pricing_plan_id":"free"},{"bike_id":"25af9e1c-886c-4f64-92f2-5ca68e46ae4a","system_id":"levelo_inurba_marseille","lat":43.31722,"lon":5.37668,"is_reserved":false,"is_disabled":false,"rental_uris":{"android":"levelo://app?vid=25af9e1c-886c-4f64-92f2-5ca68e46ae4a","ios":"levelo://app?vid=25af9e1c-886c-4f64-92f2-5ca68e46ae4a"},"vehicle_type_id":"4","last_reported":1704121616,"current_range_meters":18000,"station_id":"","pricing_plan_id":"free"},{"bike_id":"c2d7fdb8-2acb-4491-bf06-eb589a40ace1","system_id":"levelo_inurba_marseille","lat":43.307945,"lon":5.376487,"is_reserved":false,"is_disabled":false,"rental_uris":{"android":"levelo://app?vid=c2d7fdb8-2acb-4491-bf06-eb589a40ace1","ios":"levelo://app?vid=c2d7fdb8-2acb-4491-bf06-eb589a40ace1"},"vehicle_type_id":"4","last_reported":1704121616,"current_range_meters":18000,"station_id":"ce4bgv92rcd13ifvqcq0","pricing_plan_id":"free"},{"bike_id":"64a93320-b6f7-4f00-82e1-5c71938933c4","system_id":"levelo_inurba_marseille","lat":43.31648,"lon":5.37786,"is_reserved":false,"is_disabled":false,"rental_uris":{"android":"levelo://app?vid=64a93320-b6f7-4f00-82e1-5c71938933c4","ios":"levelo://app?vid=64a93320-b6f7-4f00-82e1-5c71938933c4"},"vehicle_type_id":"4","last_reported":1704121616,"current_range_meters":18400,"station_id":"","pricing_plan_id":"free"},{"bike_id":"c750d365-3247-411d-836f-4d697ad14eb9","system_id":"levelo_inurba_marseille","lat":43.317075,"lon":5.377367,"is_reserved":false,"is_disabled":false,"rental_uris":{"android":"levelo://app?vid=c750d365-3247-411d-836f-4d697ad14eb9","ios":"levelo://app?vid=c750d365-3247-411d-836f-4d697ad14eb9"},"vehicle_type_id":"4","last_reported":1704121616,"current_range_meters":29600,"station_id":"ce4bgth2rcd13ifvqch0","pricing_plan_id":"free"},{"bike_id":"2eee3bee-8a58-4598-b69c-08fea2289695","system_id":"levelo_inurba_marseille","lat":43.315293,"lon":5.380349,"is_reserved":false,"is_disabled":false,"rental_uris":{"android":"levelo://app?vid=2eee3bee-8a58-4598-b69c-08fea2289695","ios":"levelo://app?vid=2eee3bee-8a58-4598-b69c-08fea2289695"},"vehicle_type_id":"4","last_reported":1704121616,"current_range_meters":0,"station_id":"ce4bhsp2rcd13ifvqi50","pricing_plan_id":"free"},{"bike_id":"da8ede2f-c623-4c5d-be6f-1b0bc8d464c1","system_id":"levelo_inurba_marseille","lat":43.301939,"lon":5.366286,"is_reserved":false,"is_disabled":false,"rental_uris":{"android":"levelo://app?vid=da8ede2f-c623-4c5d-be6f-1b0bc8d464c1","ios":"levelo://app?vid=da8ede2f-c623-4c5d-be6f-1b0bc8d464c1"},"vehicle_type_id":"4","last_reported":1704121616,"current_range_meters":15200,"station_id":"ce4bgrh2rcd13ifvqc8g","pricing_plan_id":"free"},{"bike_id":"95a11474-a3a9-4175-b926-14886a44a48c","system_id":"levelo_inurba_marseille","lat":43.301939,"lon":5.366286,"is_reserved":false,"is_disabled":false,"rental_uris":{"android":"levelo://app?vid=95a11474-a3a9-4175-b926-14886a44a48c","ios":"levelo://app?vid=95a11474-a3a9-4175-b926-14886a44a48c"},"vehicle_type_id":"4","last_reported":1704121616,"current_range_meters":3200,"station_id":"ce4bgrh2rcd13ifvqc8g","pricing_plan_id":"free"},{"bike_id":"dffc2115-7fb4-446b-a125-f242d4063b8a","system_id":"levelo_inurba_marseille","lat":43.304708,"lon":5.379039,"is_reserved":false,"is_disabled":false,"rental_uris":{"android":"levelo://app?vid=dffc2115-7fb4-446b-a125-f242d4063b8a","ios":"levelo://app?vid=dffc2115-7fb4-446b-a125-f242d4063b8a"},"vehicle_type_id":"4","last_reported":1704121616,"current_range_meters":14400,"station_id":"","pricing_plan_id":"free"},{"bike_id":"79f0d8a4-334f-4f3c-a8df-bf0b7ddfd4c9","system_id":"levelo_inurba_marseille","lat":43.3248,"lon":5.365747,"is_reserved":false,"is_disabled":false,"rental_uris":{"android":"levelo://app?vid=79f0d8a4-334f-4f3c-a8df-bf0b7ddfd4c9","ios":"levelo://app?vid=79f0d8a4-334f-4f3c-a8df-bf0b7ddfd4c9"},"vehicle_type_id":"4","last_reported":1704121616,"current_range_meters":31200,"station_id":"ce4bhs12rcd13ifvqhvg","pricing_plan_id":"free"},{"bike_id":"12cc3e03-e48b-4f30-bfc9-f1b37a6da005","system_id":"levelo_inurba_marseille","lat":43.302787,"lon":5.377032,"is_reserved":false,"is_disabled":false,"rental_uris":{"android":"levelo://app?vid=12cc3e03-e48b-4f30-bfc9-f1b37a6da005","ios":"levelo://app?vid=12cc3e03-e48b-4f30-bfc9-f1b37a6da005"},"vehicle_type_id":"4","last_reported":1704121616,"current_range_meters":30400,"station_id":"ce4bguh2rcd13ifvqcj0","pricing_plan_id":"free"},{"bike_id":"37654fee-c31e-4e93-a13c-b8fb11c15bab","system_id":"levelo_inurba_marseille","lat":43.302766,"lon":5.377055,"is_reserved":false,"is_disabled":false,"rental_uris":{"android":"levelo://app?vid=37654fee-c31e-4e93-a13c-b8fb11c15bab","ios":"levelo://app?vid=37654fee-c31e-4e93-a13c-b8fb11c15bab"},"vehicle_type_id":"4","last_reported":1704121616,"current_range_meters":29200,"station_id":"ce4bguh2rcd13ifvqcj0","pricing_plan_id":"free"},{"bike_id":"f1c4a9f6-f95e-4244-be32-9b3daec9f8d4","system_id":"levelo_inurba_marseille","lat":43.319935,"lon":5.381699,"is_reserved":false,"is_disabled":false,"rental_uris":{"android":"levelo://app?vid=f1c4a9f6-f95e-4244-be32-9b3daec9f8d4","ios":"levelo://app?vid=f1c4a9f6-f95e-4244-be32-9b3daec9f8d4"},"vehicle_type_id":"4","last_reported":1704121616,"current_range_meters":25200,"station_id":"ce4bhr12rcd13ifvqhpg","pricing_plan_id":"free"},{"bike_id":"b6456304-95f3-44c0-a6b0-1dd30d9dee2f","system_id":"levelo_inurba_marseille","lat":43.299724,"lon":5.371829,"is_reserved":false,"is_disabled":false,"rental_uris":{"android":"levelo://app?vid=b6456304-95f3-44c0-a6b0-1dd30d9dee2f","ios":"levelo://app?vid=b6456304-95f3-44c0-a6b0-1dd30d9dee2f"},"vehicle_type_id":"4","last_reported":1704121616,"current_range_meters":30400,"station_id":"ce4bgr92rcd13ifvqc7g","pricing_plan_id":"free"},{"bike_id":"e1f9537e-4a40-4d75-b43e-51d990876e9a","system_id":"levelo_inurba_marseille","lat":43.297163,"lon":5.365866,"is_reserved":false,"is_disabled":false,"rental_uris":{"android":"levelo://app?vid=e1f9537e-4a40-4d75-b43e-51d990876e9a","ios":"levelo://app?vid=e1f9537e-4a40-4d75-b43e-51d990876e9a"},"vehicle_type_id":"4","last_reported":1704121616,"current_range_meters":24400,"station_id":"ce4bgn12rcd13ifvqbt0","pricing_plan_id":"free"},{"bike_id":"5a7b6f71-2a1a-475e-9087-fdbf7ac8818b","system_id":"levelo_inurba_marseille","lat":43.29986,"lon":5.37425,"is_reserved":false,"is_disabled":false,"rental_uris":{"android":"levelo://app?vid=5a7b6f71-2a1a-475e-9087-fdbf7ac8818b","ios":"levelo://app?vid=5a7b6f71-2a1a-475e-9087-fdbf7ac8818b"},"vehicle_type_id":"4","last_reported":1704121616,"current_range_meters":22400,"station_id":"","pricing_plan_id":"free"},{"bike_id":"45be1f6c-adf3-4113-8854-aa518c525d85","system_id":"levelo_inurba_marseille","lat":43.310651,"lon":5.386145,"is_reserved":false,"is_disabled":false,"rental_uris":{"android":"levelo://app?vid=45be1f6c-adf3-4113-8854-aa518c525d85","ios":"levelo://app?vid=45be1f6c-adf3-4113-8854-aa518c525d85"},"vehicle_type_id":"4","last_reported":1704121616,"current_range_meters":26800,"station_id":"","pricing_plan_id":"free"},{"bike_id":"3c9bf24c-b538-4eae-99f5-9903fe75c815","system_id":"levelo_inurba_marseille","lat":43.322872,"lon":5.382756,"is_reserved":false,"is_disabled":false,"rental_uris":{"android":"levelo://app?vid=3c9bf24c-b538-4eae-99f5-9903fe75c815","ios":"levelo://app?vid=3c9bf24c-b538-4eae-99f5-9903fe75c815"},"vehicle_type_id":"4","last_reported":1704121616,"current_range_meters":7200,"station_id":"ce4bhr12rcd13ifvqhqg","pricing_plan_id":"free"},{"bike_id":"7892f7ad-391a-4b01-9629-9863c77731a1","system_id":"levelo_inurba_marseille","lat":43.32288,"lon":5.38273,"is_reserved":false,"is_disabled":false,"rental_uris":{"android":"levelo://app?vid=7892f7ad-391a-4b01-9629-9863c77731a1","ios":"levelo://app?vid=7892f7ad-391a-4b01-9629-9863c77731a1"},"vehicle_type_id":"4","last_reported":1704121616,"current_range_meters":30000,"station_id":"ce4bhr12rcd13ifvqhqg","pricing_plan_id":"free"},{"bike_id":"7dacb968-7456-46f9-98a4-1c1aa118f5e2","system_id":"levelo_inurba_marseille","lat":43.32285,"lon":5.38277,"is_reserved":false,"is_disabled":false,"rental_uris":{"android":"levelo://app?vid=7dacb968-7456-46f9-98a4-1c1aa118f5e2","ios":"levelo://app?vid=7dacb968-7456-46f9-98a4-1c1aa118f5e2"},"vehicle_type_id":"4","last_reported":1704121616,"current_range_meters":21200,"station_id":"ce4bhr12rcd13ifvqhqg","pricing_plan_id":"free"},{"bike_id":"3406ac08-144e-419c-8a8c-9c89910b5b78","system_id":"levelo_inurba_marseille","lat":43.328248,"lon":5.36683,"is_reserved":false,"is_disabled":false,"rental_uris":{"android":"levelo://app?vid=3406ac08-144e-419c-8a8c-9c89910b5b78","ios":"levelo://app?vid=3406ac08-144e-419c-8a8c-9c89910b5b78"},"vehicle_type_id":"4","last_reported":1704121616,"current_range_meters":22400,"station_id":"ce4bhs92rcd13ifvqi0g","pricing_plan_id":"free"},{"bike_id":"ea7074d7-b7c9-4941-82c2-dff391bae9cb","system_id":"levelo_inurba_marseille","lat":43.328265,"lon":5.36685,"is_reserved":false,"is_disabled":false,"rental_uris":{"android":"levelo://app?vid=ea7074d7-b7c9-4941-82c2-dff391bae9cb","ios":"levelo://app?vid=ea7074d7-b7c9-4941-82c2-dff391bae9cb"},"vehicle_type_id":"4","last_reported":1704121616,"current_range_meters":20400,"station_id":"ce4bhs92rcd13ifvqi0g","pricing_plan_id":"free"},{"bike_id":"8233d320-3015-483d-9317-9f5ea8045c87","system_id":"levelo_inurba_marseille","lat":43.3283,"lon":5.36692,"is_reserved":false,"is_disabled":false,"rental_uris":{"android":"levelo://app?vid=8233d320-3015-483d-9317-9f5ea8045c87","ios":"levelo://app?vid=8233d320-3015-483d-9317-9f5ea8045c87"},"vehicle_type_id":"4","last_reported":1704121616,"current_range_meters":6800,"station_id":"","pricing_plan_id":"free"},{"bike_id":"777e7b6f-5840-4b9c-afcf-288933a9c0d9","system_id":"levelo_inurba_marseille","lat":43.328371,"lon":5.366909,"is_reserved":false,"is_disabled":false,"rental_uris":{"android":"levelo://app?vid=777e7b6f-5840-4b9c-afcf-288933a9c0d9","ios":"levelo://app?vid=777e7b6f-5840-4b9c-afcf-288933a9c0d9"},"vehicle_type_id":"4","last_reported":1704121616,"current_range_meters":24000,"station_id":"ce4bhs92rcd13ifvqi0g","pricing_plan_id":"free"},{"bike_id":"a5291874-f635-43ed-9c4e-b592f5564ee1","system_id":"levelo_inurba_marseille","lat":43.328371,"lon":5.366909,"is_reserved":false,"is_disabled":false,"rental_uris":{"android":"levelo://app?vid=a5291874-f635-43ed-9c4e-b592f5564ee1","ios":"levelo://app?vid=a5291874-f635-43ed-9c4e-b592f5564ee1"},"vehicle_type_id":"4","last_reported":1704121616,"current_range_meters":31200,"station_id":"ce4bhs92rcd13ifvqi0g","pricing_plan_id":"free"},{"bike_id":"62abb9e6-1f07-4614-a121-0a460039c740","system_id":"levelo_inurba_marseille","lat":43.297163,"lon":5.365866,"is_reserved":false,"is_disabled":false,"rental_uris":{"android":"levelo://app?vid=62abb9e6-1f07-4614-a121-0a460039c740","ios":"levelo://app?vid=62abb9e6-1f07-4614-a121-0a460039c740"},"vehicle_type_id":"4","last_reported":1704121616,"current_range_meters":11600,"station_id":"ce4bgn12rcd13ifvqbt0","pricing_plan_id":"free"},{"bike_id":"370cccf7-c9ba-46c2-819b-c8e8cacc4c21","system_id":"levelo_inurba_marseille","lat":43.3277,"lon":5.37458,"is_reserved":false,"is_disabled":false,"rental_uris":{"android":"levelo://app?vid=370cccf7-c9ba-46c2-819b-c8e8cacc4c21","ios":"levelo://app?vid=370cccf7-c9ba-46c2-819b-c8e8cacc4c21"},"vehicle_type_id":"4","last_reported":1704121616,"current_range_meters":12400,"station_id":"","pricing_plan_id":"free"},{"bike_id":"14ed87cd-d452-42d8-94de-73990dee8eb3","system_id":"levelo_inurba_marseille","lat":43.29573,"lon":5.367355,"is_reserved":false,"is_disabled":false,"rental_uris":{"android":"levelo://app?vid=14ed87cd-d452-42d8-94de-73990dee8eb3","ios":"levelo://app?vid=14ed87cd-d452-42d8-94de-73990dee8eb3"},"vehicle_type_id":"4","last_reported":1704121616,"current_range_meters":6000,"station_id":"ce4bgph2rcd13ifvqc2g","pricing_plan_id":"free"},{"bike_id":"5b22a852-7412-4b01-ad22-7b0a8b4805ff","system_id":"levelo_inurba_marseille","lat":43.298037,"lon":5.381066,"is_reserved":false,"is_disabled":false,"rental_uris":{"android":"levelo://app?vid=5b22a852-7412-4b01-ad22-7b0a8b4805ff","ios":"levelo://app?vid=5b22a852-7412-4b01-ad22-7b0a8b4805ff"},"vehicle_type_id":"4","last_reported":1704121616,"current_range_meters":26400,"station_id":"ce4bgip2rcd13ifvqbb0","pricing_plan_id":"free"},{"bike_id":"bfcbeef4-987b-49d7-a6a9-7dac156b490d","system_id":"levelo_inurba_marseille","lat":43.295748,"lon":5.37522,"is_reserved":false,"is_disabled":false,"rental_uris":{"android":"levelo://app?vid=bfcbeef4-987b-49d7-a6a9-7dac156b490d","ios":"levelo://app?vid=bfcbeef4-987b-49d7-a6a9-7dac156b490d"},"vehicle_type_id":"4","last_reported":1704121616,"current_range_meters":6400,"station_id":"ce4bgh92rcd13ifvqb50","pricing_plan_id":"free"},{"bike_id":"883fd599-816d-4f97-aeec-82e096025f35","system_id":"levelo_inurba_marseille","lat":43.304274,"lon":5.388873,"is_reserved":false,"is_disabled":false,"rental_uris":{"android":"levelo://app?vid=883fd599-816d-4f97-aeec-82e096025f35","ios":"levelo://app?vid=883fd599-816d-4f97-aeec-82e096025f35"},"vehicle_type_id":"4","last_reported":1704121616,"current_range_meters":25200,"station_id":"ce4bgk12rcd13ifvqbi0","pricing_plan_id":"free"},{"bike_id":"d60802d6-4f47-444a-b234-883690eec05b","system_id":"levelo_inurba_marseille","lat":43.33062,"lon":5.3627,"is_reserved":false,"is_disabled":false,"rental_uris":{"android":"levelo://app?vid=d60802d6-4f47-444a-b234-883690eec05b","ios":"levelo://app?vid=d60802d6-4f47-444a-b234-883690eec05b"},"vehicle_type_id":"4","last_reported":1704121616,"current_range_meters":19200,"station_id":"","pricing_plan_id":"free"},{"bike_id":"5eff7ea6-2e0a-4920-979e-156d3059afdb","system_id":"levelo_inurba_marseille","lat":43.296263,"lon":5.377094,"is_reserved":false,"is_disabled":false,"rental_uris":{"android":"levelo://app?vid=5eff7ea6-2e0a-4920-979e-156d3059afdb","ios":"levelo://app?vid=5eff7ea6-2e0a-4920-979e-156d3059afdb"},"vehicle_type_id":"4","last_reported":1704121616,"current_range_meters":28000,"station_id":"ce4bgi92rcd13ifvqb90","pricing_plan_id":"free"},{"bike_id":"7119845d-00aa-4d9f-be8c-fc97d41f1380","system_id":"levelo_inurba_marseille","lat":43.297594,"lon":5.381134,"is_reserved":false,"is_disabled":false,"rental_uris":{"android":"levelo://app?vid=7119845d-00aa-4d9f-be8c-fc97d41f1380","ios":"levelo://app?vid=7119845d-00aa-4d9f-be8c-fc97d41f1380"},"vehicle_type_id":"4","last_reported":1704121616,"current_range_meters":7600,"station_id":"ce4bgip2rcd13ifvqbb0","pricing_plan_id":"free"},{"bike_id":"50616ab4-67c9-46a7-b107-bc97848450ff","system_id":"levelo_inurba_marseille","lat":43.299707,"lon":5.384859,"is_reserved":false,"is_disabled":false,"rental_uris":{"android":"levelo://app?vid=50616ab4-67c9-46a7-b107-bc97848450ff","ios":"levelo://app?vid=50616ab4-67c9-46a7-b107-bc97848450ff"},"vehicle_type_id":"4","last_reported":1704121616,"current_range_meters":29600,"station_id":"ce4bgj92rcd13ifvqbd0","pricing_plan_id":"free"},{"bike_id":"347f1b42-8092-4f1d-970e-00856badbcb9","system_id":"levelo_inurba_marseille","lat":43.303002,"lon":5.392142,"is_reserved":false,"is_disabled":false,"rental_uris":{"android":"levelo://app?vid=347f1b42-8092-4f1d-970e-00856badbcb9","ios":"levelo://app?vid=347f1b42-8092-4f1d-970e-00856badbcb9"},"vehicle_type_id":"4","last_reported":1704121616,"current_range_meters":12800,"station_id":"ce4bgkh2rcd13ifvqbk0","pricing_plan_id":"free"},{"bike_id":"4192fb43-ce9c-4e8a-a56a-aab8f8283a8f","system_id":"levelo_inurba_marseille","lat":43.30085,"lon":5.390856,"is_reserved":false,"is_disabled":false,"rental_uris":{"android":"levelo://app?vid=4192fb43-ce9c-4e8a-a56a-aab8f8283a8f","ios":"levelo://app?vid=4192fb43-ce9c-4e8a-a56a-aab8f8283a8f"},"vehicle_type_id":"4","last_reported":1704121616,"current_range_meters":30400,"station_id":"ce4bh192rcd13ifvqdb0","pricing_plan_id":"free"},{"bike_id":"f3340db0-8566-48f1-a198-709b9471029d","system_id":"levelo_inurba_marseille","lat":43.300852,"lon":5.390859,"is_reserved":false,"is_disabled":false,"rental_uris":{"android":"levelo://app?vid=f3340db0-8566-48f1-a198-709b9471029d","ios":"levelo://app?vid=f3340db0-8566-48f1-a198-709b9471029d"},"vehicle_type_id":"4","last_reported":1704121616,"current_range_meters":16800,"station_id":"ce4bh192rcd13ifvqdb0","pricing_plan_id":"free"},{"bike_id":"453c26e7-1304-498d-9fbc-6cb9b1e286e8","system_id":"levelo_inurba_marseille","lat":43.30097,"lon":5.39088,"is_reserved":false,"is_disabled":false,"rental_uris":{"android":"levelo://app?vid=453c26e7-1304-498d-9fbc-6cb9b1e286e8","ios":"levelo://app?vid=453c26e7-1304-498d-9fbc-6cb9b1e286e8"},"vehicle_type_id":"4","last_reported":1704121616,"current_range_meters":24000,"station_id":"","pricing_plan_id":"free"},{"bike_id":"8f128946-12cd-4524-ad53-e802f570e480","system_id":"levelo_inurba_marseille","lat":43.291671,"lon":5.371575,"is_reserved":false,"is_disabled":false,"rental_uris":{"android":"levelo://app?vid=8f128946-12cd-4524-ad53-e802f570e480","ios":"levelo://app?vid=8f128946-12cd-4524-ad53-e802f570e480"},"vehicle_type_id":"4","last_reported":1704121616,"current_range_meters":26000,"station_id":"ce4bha92rcd13ifvqeh0","pricing_plan_id":"free"},{"bike_id":"63676e9d-823e-498e-9e87-dc8051081815","system_id":"levelo_inurba_marseille","lat":43.33379,"lon":5.37452,"is_reserved":false,"is_disabled":false,"rental_uris":{"android":"levelo://app?vid=63676e9d-823e-498e-9e87-dc8051081815","ios":"levelo://app?vid=63676e9d-823e-498e-9e87-dc8051081815"},"vehicle_type_id":"4","last_reported":1704121616,"current_range_meters":28000,"station_id":"","pricing_plan_id":"free"},{"bike_id":"4b2ba33c-7cdc-4277-b145-13f7259e024e","system_id":"levelo_inurba_marseille","lat":43.291994,"lon":5.357886,"is_reserved":false,"is_disabled":false,"rental_uris":{"android":"levelo://app?vid=4b2ba33c-7cdc-4277-b145-13f7259e024e","ios":"levelo://app?vid=4b2ba33c-7cdc-4277-b145-13f7259e024e"},"vehicle_type_id":"4","last_reported":1704121616,"current_range_meters":23200,"station_id":"ce4bhb12rcd13ifvqel0","pricing_plan_id":"free"},{"bike_id":"92d51ea9-f9c3-4190-bb27-ca64da3ffb26","system_id":"levelo_inurba_marseille","lat":43.291994,"lon":5.357886,"is_reserved":false,"is_disabled":false,"rental_uris":{"android":"levelo://app?vid=92d51ea9-f9c3-4190-bb27-ca64da3ffb26","ios":"levelo://app?vid=92d51ea9-f9c3-4190-bb27-ca64da3ffb26"},"vehicle_type_id":"4","last_reported":1704121616,"current_range_meters":23200,"station_id":"ce4bhb12rcd13ifvqel0","pricing_plan_id":"free"},{"bike_id":"668942d6-33c2-433a-a4c3-8da233302454","system_id":"levelo_inurba_marseille","lat":43.313291,"lon":5.396838,"is_reserved":false,"is_disabled":false,"rental_uris":{"android":"levelo://app?vid=668942d6-33c2-433a-a4c3-8da233302454","ios":"levelo://app?vid=668942d6-33c2-433a-a4c3-8da233302454"},"vehicle_type_id":"4","last_reported":1704121616,"current_range_meters":30400,"station_id":"ce4bgvp2rcd13ifvqcu0","pricing_plan_id":"free"},{"bike_id":"80746dd0-422a-4052-80d6-6318856385c9","system_id":"levelo_inurba_marseille","lat":43.309038,"lon":5.396546,"is_reserved":false,"is_disabled":false,"rental_uris":{"android":"levelo://app?vid=80746dd0-422a-4052-80d6-6318856385c9","ios":"levelo://app?vid=80746dd0-422a-4052-80d6-6318856385c9"},"vehicle_type_id":"4","last_reported":1704121616,"current_range_meters":4400,"station_id":"ce4bh012rcd13ifvqcv0","pricing_plan_id":"free"},{"bike_id":"6200517d-4846-467e-827d-b4b55c7312ad","system_id":"levelo_inurba_marseille","lat":43.309038,"lon":5.396546,"is_reserved":false,"is_disabled":false,"rental_uris":{"android":"levelo://app?vid=6200517d-4846-467e-827d-b4b55c7312ad","ios":"levelo://app?vid=6200517d-4846-467e-827d-b4b55c7312ad"},"vehicle_type_id":"4","last_reported":1704121616,"current_range_meters":1600,"station_id":"ce4bh012rcd13ifvqcv0","pricing_plan_id":"free"},{"bike_id":"4b816063-53f5-43a9-841f-7428bb933caf","system_id":"levelo_inurba_marseille","lat":43.294153,"lon":5.386305,"is_reserved":false,"is_disabled":false,"rental_uris":{"android":"levelo://app?vid=4b816063-53f5-43a9-841f-7428bb933caf","ios":"levelo://app?vid=4b816063-53f5-43a9-841f-7428bb933caf"},"vehicle_type_id":"4","last_reported":1704121616,"current_range_meters":19200,"station_id":"ce4bh2h2rcd13ifvqdh0","pricing_plan_id":"free"},{"bike_id":"87d4d082-e75b-449d-b41a-af15fc30b8a7","system_id":"levelo_inurba_marseille","lat":43.289184,"lon":5.366408,"is_reserved":false,"is_disabled":false,"rental_uris":{"android":"levelo://app?vid=87d4d082-e75b-449d-b41a-af15fc30b8a7","ios":"levelo://app?vid=87d4d082-e75b-449d-b41a-af15fc30b8a7"},"vehicle_type_id":"4","last_reported":1704121616,"current_range_meters":22800,"station_id":"ce4bhap2rcd13ifvqek0","pricing_plan_id":"free"},{"bike_id":"4314848d-dc20-454e-9a78-abd5def189b0","system_id":"levelo_inurba_marseille","lat":43.292642,"lon":5.384254,"is_reserved":false,"is_disabled":false,"rental_uris":{"android":"levelo://app?vid=4314848d-dc20-454e-9a78-abd5def189b0","ios":"levelo://app?vid=4314848d-dc20-454e-9a78-abd5def189b0"},"vehicle_type_id":"4","last_reported":1704121616,"current_range_meters":15200,"station_id":"ce4bh692rcd13ifvqea0","pricing_plan_id":"free"},{"bike_id":"f18f046e-fbfb-469b-b572-4fa06760bcab","system_id":"levelo_inurba_marseille","lat":43.292644,"lon":5.384257,"is_reserved":false,"is_disabled":false,"rental_uris":{"android":"levelo://app?vid=f18f046e-fbfb-469b-b572-4fa06760bcab","ios":"levelo://app?vid=f18f046e-fbfb-469b-b572-4fa06760bcab"},"vehicle_type_id":"4","last_reported":1704121616,"current_range_meters":23600,"station_id":"ce4bh692rcd13ifvqea0","pricing_plan_id":"free"},{"bike_id":"e24ab4c0-d7fa-4707-95d7-dc784d3b1cbf","system_id":"levelo_inurba_marseille","lat":43.292642,"lon":5.384254,"is_reserved":false,"is_disabled":false,"rental_uris":{"android":"levelo://app?vid=e24ab4c0-d7fa-4707-95d7-dc784d3b1cbf","ios":"levelo://app?vid=e24ab4c0-d7fa-4707-95d7-dc784d3b1cbf"},"vehicle_type_id":"4","last_reported":1704121616,"current_range_meters":0,"station_id":"ce4bh692rcd13ifvqea0","pricing_plan_id":"free"},{"bike_id":"cafe4ff6-db12-419b-87f1-003f394a10eb","system_id":"levelo_inurba_marseille","lat":43.29013,"lon":5.35612,"is_reserved":false,"is_disabled":false,"rental_uris":{"android":"levelo://app?vid=cafe4ff6-db12-419b-87f1-003f394a10eb","ios":"levelo://app?vid=cafe4ff6-db12-419b-87f1-003f394a10eb"},"vehicle_type_id":"4","last_reported":1704121616,"current_range_meters":10000,"station_id":"ce4bhb92rcd13ifvqen0","pricing_plan_id":"free"},{"bike_id":"22f6a45f-613d-4431-995a-f0a403ef69f7","system_id":"levelo_inurba_marseille","lat":43.290104,"lon":5.356111,"is_reserved":false,"is_disabled":false,"rental_uris":{"android":"levelo://app?vid=22f6a45f-613d-4431-995a-f0a403ef69f7","ios":"levelo://app?vid=22f6a45f-613d-4431-995a-f0a403ef69f7"},"vehicle_type_id":"4","last_reported":1704121616,"current_range_meters":14800,"station_id":"ce4bhb92rcd13ifvqen0","pricing_plan_id":"free"},{"bike_id":"802de2f9-96cf-4215-87ba-781055a7ce7e","system_id":"levelo_inurba_marseille","lat":43.29007,"lon":5.3562,"is_reserved":false,"is_disabled":false,"rental_uris":{"android":"levelo://app?vid=802de2f9-96cf-4215-87ba-781055a7ce7e","ios":"levelo://app?vid=802de2f9-96cf-4215-87ba-781055a7ce7e"},"vehicle_type_id":"4","last_reported":1704121616,"current_range_meters":12800,"station_id":"ce4bhb92rcd13ifvqen0","pricing_plan_id":"free"},{"bike_id":"686c2726-09a3-4d51-8a6d-24c40a149146","system_id":"levelo_inurba_marseille","lat":43.290093,"lon":5.356093,"is_reserved":false,"is_disabled":false,"rental_uris":{"android":"levelo://app?vid=686c2726-09a3-4d51-8a6d-24c40a149146","ios":"levelo://app?vid=686c2726-09a3-4d51-8a6d-24c40a149146"},"vehicle_type_id":"4","last_reported":1704121616,"current_range_meters":12800,"station_id":"ce4bhb92rcd13ifvqen0","pricing_plan_id":"free"},{"bike_id":"45311c5a-b1d9-496a-a991-be0b9c18668f","system_id":"levelo_inurba_marseille","lat":43.290104,"lon":5.356111,"is_reserved":false,"is_disabled":false,"rental_uris":{"android":"levelo://app?vid=45311c5a-b1d9-496a-a991-be0b9c18668f","ios":"levelo://app?vid=45311c5a-b1d9-496a-a991-be0b9c18668f"},"vehicle_type_id":"4","last_reported":1704121616,"current_range_meters":11200,"station_id":"ce4bhb92rcd13ifvqen0","pricing_plan_id":"free"},{"bike_id":"2dea5c7f-d22b-4692-9256-f255e724939e","system_id":"levelo_inurba_marseille","lat":43.29007,"lon":5.35611,"is_reserved":false,"is_disabled":false,"rental_uris":{"android":"levelo://app?vid=2dea5c7f-d22b-4692-9256-f255e724939e","ios":"levelo://app?vid=2dea5c7f-d22b-4692-9256-f255e724939e"},"vehicle_type_id":"4","last_reported":1704121616,"current_range_meters":22000,"station_id":"ce4bhb92rcd13ifvqen0","pricing_plan_id":"free"},{"bike_id":"8d45abdb-9415-4695-82b2-32e865af61f4","system_id":"levelo_inurba_marseille","lat":43.290104,"lon":5.356111,"is_reserved":false,"is_disabled":false,"rental_uris":{"android":"levelo://app?vid=8d45abdb-9415-4695-82b2-32e865af61f4","ios":"levelo://app?vid=8d45abdb-9415-4695-82b2-32e865af61f4"},"vehicle_type_id":"4","last_reported":1704121616,"current_range_meters":12400,"station_id":"ce4bhb92rcd13ifvqen0","pricing_plan_id":"free"},{"bike_id":"c064a763-963c-4c95-836c-0118f7762c71","system_id":"levelo_inurba_marseille","lat":43.290995,"lon":5.381361,"is_reserved":false,"is_disabled":false,"rental_uris":{"android":"levelo://app?vid=c064a763-963c-4c95-836c-0118f7762c71","ios":"levelo://app?vid=c064a763-963c-4c95-836c-0118f7762c71"},"vehicle_type_id":"4","last_reported":1704121616,"current_range_meters":20000,"station_id":"ce4bh512rcd13ifvqe2g","pricing_plan_id":"free"},{"bike_id":"fdfb70d8-9890-422e-9251-12e030bcfb72","system_id":"levelo_inurba_marseille","lat":43.330442,"lon":5.389148,"is_reserved":false,"is_disabled":false,"rental_uris":{"android":"levelo://app?vid=fdfb70d8-9890-422e-9251-12e030bcfb72","ios":"levelo://app?vid=fdfb70d8-9890-422e-9251-12e030bcfb72"},"vehicle_type_id":"4","last_reported":1704121616,"current_range_meters":17600,"station_id":"ce4bhr92rcd13ifvqhrg","pricing_plan_id":"free"},{"bike_id":"7d3f0707-26fc-41d0-8f63-88674e57e19c","system_id":"levelo_inurba_marseille","lat":43.330442,"lon":5.389148,"is_reserved":false,"is_disabled":false,"rental_uris":{"android":"levelo://app?vid=7d3f0707-26fc-41d0-8f63-88674e57e19c","ios":"levelo://app?vid=7d3f0707-26fc-41d0-8f63-88674e57e19c"},"vehicle_type_id":"4","last_reported":1704121616,"current_range_meters":11600,"station_id":"ce4bhr92rcd13ifvqhrg","pricing_plan_id":"free"},{"bike_id":"854d4e8d-73a6-456e-8ae0-718b01d3f2c9","system_id":"levelo_inurba_marseille","lat":43.295169,"lon":5.390426,"is_reserved":false,"is_disabled":false,"rental_uris":{"android":"levelo://app?vid=854d4e8d-73a6-456e-8ae0-718b01d3f2c9","ios":"levelo://app?vid=854d4e8d-73a6-456e-8ae0-718b01d3f2c9"},"vehicle_type_id":"4","last_reported":1704121616,"current_range_meters":14000,"station_id":"ce4bh3p2rcd13ifvqdp0","pricing_plan_id":"free"},{"bike_id":"13d41c86-d361-4b17-ae49-6b5491dd4e85","system_id":"levelo_inurba_marseille","lat":43.330442,"lon":5.389148,"is_reserved":false,"is_disabled":false,"rental_uris":{"android":"levelo://app?vid=13d41c86-d361-4b17-ae49-6b5491dd4e85","ios":"levelo://app?vid=13d41c86-d361-4b17-ae49-6b5491dd4e85"},"vehicle_type_id":"4","last_reported":1704121616,"current_range_meters":28800,"station_id":"ce4bhr92rcd13ifvqhrg","pricing_plan_id":"free"},{"bike_id":"983ae15b-e6ac-4e63-857d-b1c023399b7b","system_id":"levelo_inurba_marseille","lat":43.330442,"lon":5.389148,"is_reserved":false,"is_disabled":false,"rental_uris":{"android":"levelo://app?vid=983ae15b-e6ac-4e63-857d-b1c023399b7b","ios":"levelo://app?vid=983ae15b-e6ac-4e63-857d-b1c023399b7b"},"vehicle_type_id":"4","last_reported":1704121616,"current_range_meters":27200,"station_id":"ce4bhr92rcd13ifvqhrg","pricing_plan_id":"free"},{"bike_id":"b7260b24-190c-4e81-9dee-b081acc1ab9c","system_id":"levelo_inurba_marseille","lat":43.312609,"lon":5.401662,"is_reserved":false,"is_disabled":false,"rental_uris":{"android":"levelo://app?vid=b7260b24-190c-4e81-9dee-b081acc1ab9c","ios":"levelo://app?vid=b7260b24-190c-4e81-9dee-b081acc1ab9c"},"vehicle_type_id":"4","last_reported":1704121616,"current_range_meters":24000,"station_id":"ce4bh092rcd13ifvqd30","pricing_plan_id":"free"},{"bike_id":"afad0d4d-a92d-484f-b576-505288f508e6","system_id":"levelo_inurba_marseille","lat":43.312609,"lon":5.401662,"is_reserved":false,"is_disabled":false,"rental_uris":{"android":"levelo://app?vid=afad0d4d-a92d-484f-b576-505288f508e6","ios":"levelo://app?vid=afad0d4d-a92d-484f-b576-505288f508e6"},"vehicle_type_id":"4","last_reported":1704121616,"current_range_meters":20800,"station_id":"ce4bh092rcd13ifvqd30","pricing_plan_id":"free"},{"bike_id":"09a95a56-b337-4b56-b0de-e69147a45e41","system_id":"levelo_inurba_marseille","lat":43.31283,"lon":5.40172,"is_reserved":false,"is_disabled":false,"rental_uris":{"android":"levelo://app?vid=09a95a56-b337-4b56-b0de-e69147a45e41","ios":"levelo://app?vid=09a95a56-b337-4b56-b0de-e69147a45e41"},"vehicle_type_id":"4","last_reported":1704121616,"current_range_meters":21200,"station_id":"","pricing_plan_id":"free"},{"bike_id":"43e6fe3d-4119-4a29-ae24-d4474807016c","system_id":"levelo_inurba_marseille","lat":43.309371,"lon":5.401449,"is_reserved":false,"is_disabled":false,"rental_uris":{"android":"levelo://app?vid=43e6fe3d-4119-4a29-ae24-d4474807016c","ios":"levelo://app?vid=43e6fe3d-4119-4a29-ae24-d4474807016c"},"vehicle_type_id":"4","last_reported":1704121616,"current_range_meters":30000,"station_id":"ce4bgvp2rcd13ifvqct0","pricing_plan_id":"free"},{"bike_id":"904f83aa-e9ab-401d-84c1-9edfed82b884","system_id":"levelo_inurba_marseille","lat":43.33753,"lon":5.37462,"is_reserved":false,"is_disabled":false,"rental_uris":{"android":"levelo://app?vid=904f83aa-e9ab-401d-84c1-9edfed82b884","ios":"levelo://app?vid=904f83aa-e9ab-401d-84c1-9edfed82b884"},"vehicle_type_id":"4","last_reported":1704121616,"current_range_meters":31200,"station_id":"","pricing_plan_id":"free"},{"bike_id":"5292914b-ac67-4d83-9706-276b66d94ec1","system_id":"levelo_inurba_marseille","lat":43.28778,"lon":5.35947,"is_reserved":false,"is_disabled":false,"rental_uris":{"android":"levelo://app?vid=5292914b-ac67-4d83-9706-276b66d94ec1","ios":"levelo://app?vid=5292914b-ac67-4d83-9706-276b66d94ec1"},"vehicle_type_id":"4","last_reported":1704121616,"current_range_meters":14000,"station_id":"","pricing_plan_id":"free"},{"bike_id":"7e9a59ee-058b-4752-9380-1129ce8586dd","system_id":"levelo_inurba_marseille","lat":43.28727,"lon":5.36078,"is_reserved":false,"is_disabled":false,"rental_uris":{"android":"levelo://app?vid=7e9a59ee-058b-4752-9380-1129ce8586dd","ios":"levelo://app?vid=7e9a59ee-058b-4752-9380-1129ce8586dd"},"vehicle_type_id":"4","last_reported":1704121616,"current_range_meters":22800,"station_id":"cki0cbj6b192h4jlfktg","pricing_plan_id":"free"},{"bike_id":"f182ad30-578d-439a-b895-037c49f93cbb","system_id":"levelo_inurba_marseille","lat":43.28039,"lon":5.369297,"is_reserved":false,"is_disabled":false,"rental_uris":{"android":"levelo://app?vid=f182ad30-578d-439a-b895-037c49f93cbb","ios":"levelo://app?vid=f182ad30-578d-439a-b895-037c49f93cbb"},"vehicle_type_id":"4","last_reported":1704121616,"current_range_meters":31600,"station_id":"ce4bha12rcd13ifvqef0","pricing_plan_id":"free"},{"bike_id":"1333767f-4d2c-4d90-82a2-06e6db6c35b4","system_id":"levelo_inurba_marseille","lat":43.287184,"lon":5.37937,"is_reserved":false,"is_disabled":false,"rental_uris":{"android":"levelo://app?vid=1333767f-4d2c-4d90-82a2-06e6db6c35b4","ios":"levelo://app?vid=1333767f-4d2c-4d90-82a2-06e6db6c35b4"},"vehicle_type_id":"4","last_reported":1704121616,"current_range_meters":13600,"station_id":"ce4bh9p2rcd13ifvqec0","pricing_plan_id":"free"},{"bike_id":"a32f45e5-7b35-4e4c-b435-e11c51b0e22a","system_id":"levelo_inurba_marseille","lat":43.284214,"lon":5.349706,"is_reserved":false,"is_disabled":false,"rental_uris":{"android":"levelo://app?vid=a32f45e5-7b35-4e4c-b435-e11c51b0e22a","ios":"levelo://app?vid=a32f45e5-7b35-4e4c-b435-e11c51b0e22a"},"vehicle_type_id":"4","last_reported":1704121616,"current_range_meters":23600,"station_id":"ce4bhbh2rcd13ifvqepg","pricing_plan_id":"free"},{"bike_id":"ad2cc45f-cb4a-45a1-9c67-d3ff29739959","system_id":"levelo_inurba_marseille","lat":43.316828,"lon":5.404723,"is_reserved":false,"is_disabled":false,"rental_uris":{"android":"levelo://app?vid=ad2cc45f-cb4a-45a1-9c67-d3ff29739959","ios":"levelo://app?vid=ad2cc45f-cb4a-45a1-9c67-d3ff29739959"},"vehicle_type_id":"4","last_reported":1704121616,"current_range_meters":30800,"station_id":"ce4bh012rcd13ifvqd00","pricing_plan_id":"free"},{"bike_id":"bba896a5-792a-4d9a-a436-821c3d86166a","system_id":"levelo_inurba_marseille","lat":43.316828,"lon":5.404723,"is_reserved":false,"is_disabled":false,"rental_uris":{"android":"levelo://app?vid=bba896a5-792a-4d9a-a436-821c3d86166a","ios":"levelo://app?vid=bba896a5-792a-4d9a-a436-821c3d86166a"},"vehicle_type_id":"4","last_reported":1704121616,"current_range_meters":28000,"station_id":"ce4bh012rcd13ifvqd00","pricing_plan_id":"free"},{"bike_id":"620fe265-ae7f-4bd9-9301-aefdaab8c917","system_id":"levelo_inurba_marseille","lat":43.284538,"lon":5.358657,"is_reserved":false,"is_disabled":false,"rental_uris":{"android":"levelo://app?vid=620fe265-ae7f-4bd9-9301-aefdaab8c917","ios":"levelo://app?vid=620fe265-ae7f-4bd9-9301-aefdaab8c917"},"vehicle_type_id":"4","last_reported":1704121616,"current_range_meters":2000,"station_id":"ce4bhah2rcd13ifvqei0","pricing_plan_id":"free"},{"bike_id":"7be1fd96-9df7-4dc2-864e-e485fc92ec9f","system_id":"levelo_inurba_marseille","lat":43.28457,"lon":5.35896,"is_reserved":false,"is_disabled":false,"rental_uris":{"android":"levelo://app?vid=7be1fd96-9df7-4dc2-864e-e485fc92ec9f","ios":"levelo://app?vid=7be1fd96-9df7-4dc2-864e-e485fc92ec9f"},"vehicle_type_id":"4","last_reported":1704121616,"current_range_meters":26000,"station_id":"","pricing_plan_id":"free"},{"bike_id":"6d6fe783-1222-4da5-8869-6556a448e627","system_id":"levelo_inurba_marseille","lat":43.285848,"lon":5.350787,"is_reserved":false,"is_disabled":false,"rental_uris":{"android":"levelo://app?vid=6d6fe783-1222-4da5-8869-6556a448e627","ios":"levelo://app?vid=6d6fe783-1222-4da5-8869-6556a448e627"},"vehicle_type_id":"4","last_reported":1704121616,"current_range_meters":30400,"station_id":"ce4bhch2rcd13ifvqeug","pricing_plan_id":"free"},{"bike_id":"55fb0476-d557-4546-9491-f3ee38c3e52c","system_id":"levelo_inurba_marseille","lat":43.28614,"lon":5.35103,"is_reserved":false,"is_disabled":false,"rental_uris":{"android":"levelo://app?vid=55fb0476-d557-4546-9491-f3ee38c3e52c","ios":"levelo://app?vid=55fb0476-d557-4546-9491-f3ee38c3e52c"},"vehicle_type_id":"4","last_reported":1704121616,"current_range_meters":31200,"station_id":"ce4bhch2rcd13ifvqeug","pricing_plan_id":"free"},{"bike_id":"3589a6ca-9b2a-47c7-8dda-dd72da20a2ab","system_id":"levelo_inurba_marseille","lat":43.286135,"lon":5.351045,"is_reserved":false,"is_disabled":false,"rental_uris":{"android":"levelo://app?vid=3589a6ca-9b2a-47c7-8dda-dd72da20a2ab","ios":"levelo://app?vid=3589a6ca-9b2a-47c7-8dda-dd72da20a2ab"},"vehicle_type_id":"4","last_reported":1704121616,"current_range_meters":24000,"station_id":"ce4bhch2rcd13ifvqeug","pricing_plan_id":"free"},{"bike_id":"cb2ee55a-ee57-41e5-b85f-bae49a78399d","system_id":"levelo_inurba_marseille","lat":43.28614,"lon":5.351,"is_reserved":false,"is_disabled":false,"rental_uris":{"android":"levelo://app?vid=cb2ee55a-ee57-41e5-b85f-bae49a78399d","ios":"levelo://app?vid=cb2ee55a-ee57-41e5-b85f-bae49a78399d"},"vehicle_type_id":"4","last_reported":1704121616,"current_range_meters":20400,"station_id":"ce4bhch2rcd13ifvqeug","pricing_plan_id":"free"},{"bike_id":"9712f9d9-d7ea-4e92-a7aa-c97565ad50a6","system_id":"levelo_inurba_marseille","lat":43.28613,"lon":5.35099,"is_reserved":false,"is_disabled":false,"rental_uris":{"android":"levelo://app?vid=9712f9d9-d7ea-4e92-a7aa-c97565ad50a6","ios":"levelo://app?vid=9712f9d9-d7ea-4e92-a7aa-c97565ad50a6"},"vehicle_type_id":"4","last_reported":1704121616,"current_range_meters":23200,"station_id":"ce4bhch2rcd13ifvqeug","pricing_plan_id":"free"},{"bike_id":"3ebce117-dcb3-4440-b9ce-07470832ba75","system_id":"levelo_inurba_marseille","lat":43.28611,"lon":5.35103,"is_reserved":false,"is_disabled":false,"rental_uris":{"android":"levelo://app?vid=3ebce117-dcb3-4440-b9ce-07470832ba75","ios":"levelo://app?vid=3ebce117-dcb3-4440-b9ce-07470832ba75"},"vehicle_type_id":"4","last_reported":1704121616,"current_range_meters":800,"station_id":"ce4bhch2rcd13ifvqeug","pricing_plan_id":"free"},{"bike_id":"5ad5f6e0-523b-47b6-83a4-9862cad4a565","system_id":"levelo_inurba_marseille","lat":43.28403,"lon":5.37516,"is_reserved":false,"is_disabled":false,"rental_uris":{"android":"levelo://app?vid=5ad5f6e0-523b-47b6-83a4-9862cad4a565","ios":"levelo://app?vid=5ad5f6e0-523b-47b6-83a4-9862cad4a565"},"vehicle_type_id":"4","last_reported":1704121616,"current_range_meters":24400,"station_id":"ce4bh412rcd13ifvqds0","pricing_plan_id":"free"},{"bike_id":"39d5cbe7-b822-47a0-ba1f-88c4b6d12144","system_id":"levelo_inurba_marseille","lat":43.28666,"lon":5.38677,"is_reserved":false,"is_disabled":false,"rental_uris":{"android":"levelo://app?vid=39d5cbe7-b822-47a0-ba1f-88c4b6d12144","ios":"levelo://app?vid=39d5cbe7-b822-47a0-ba1f-88c4b6d12144"},"vehicle_type_id":"4","last_reported":1704121616,"current_range_meters":17200,"station_id":"ce4bh492rcd13ifvqdug","pricing_plan_id":"free"},{"bike_id":"8af6642b-e526-4770-8a06-6b115e68c32b","system_id":"levelo_inurba_marseille","lat":43.3372,"lon":5.39183,"is_reserved":false,"is_disabled":false,"rental_uris":{"android":"levelo://app?vid=8af6642b-e526-4770-8a06-6b115e68c32b","ios":"levelo://app?vid=8af6642b-e526-4770-8a06-6b115e68c32b"},"vehicle_type_id":"4","last_reported":1704121616,"current_range_meters":24800,"station_id":"ce4bhr92rcd13ifvqhsg","pricing_plan_id":"free"},{"bike_id":"1860c054-e673-4084-804e-8832a59aeb53","system_id":"levelo_inurba_marseille","lat":43.337168,"lon":5.391825,"is_reserved":false,"is_disabled":false,"rental_uris":{"android":"levelo://app?vid=1860c054-e673-4084-804e-8832a59aeb53","ios":"levelo://app?vid=1860c054-e673-4084-804e-8832a59aeb53"},"vehicle_type_id":"4","last_reported":1704121616,"current_range_meters":28000,"station_id":"ce4bhr92rcd13ifvqhsg","pricing_plan_id":"free"},{"bike_id":"9c89ccbb-1205-42f3-9670-7f7c8e469aa6","system_id":"levelo_inurba_marseille","lat":43.323464,"lon":5.406297,"is_reserved":false,"is_disabled":false,"rental_uris":{"android":"levelo://app?vid=9c89ccbb-1205-42f3-9670-7f7c8e469aa6","ios":"levelo://app?vid=9c89ccbb-1205-42f3-9670-7f7c8e469aa6"},"vehicle_type_id":"4","last_reported":1704121616,"current_range_meters":28000,"station_id":"ce4bhq92rcd13ifvqhjg","pricing_plan_id":"free"},{"bike_id":"09abad57-2621-48c9-8b6d-b048770fbb2a","system_id":"levelo_inurba_marseille","lat":43.284859,"lon":5.384277,"is_reserved":false,"is_disabled":false,"rental_uris":{"android":"levelo://app?vid=09abad57-2621-48c9-8b6d-b048770fbb2a","ios":"levelo://app?vid=09abad57-2621-48c9-8b6d-b048770fbb2a"},"vehicle_type_id":"4","last_reported":1704121616,"current_range_meters":30800,"station_id":"ce4bh492rcd13ifvqdug","pricing_plan_id":"free"},{"bike_id":"99d9275e-e121-4dd0-8f78-23062f56e709","system_id":"levelo_inurba_marseille","lat":43.297946,"lon":5.404063,"is_reserved":false,"is_disabled":false,"rental_uris":{"android":"levelo://app?vid=99d9275e-e121-4dd0-8f78-23062f56e709","ios":"levelo://app?vid=99d9275e-e121-4dd0-8f78-23062f56e709"},"vehicle_type_id":"4","last_reported":1704121616,"current_range_meters":14400,"station_id":"ce4bh112rcd13ifvqd90","pricing_plan_id":"free"},{"bike_id":"8e12f901-d572-452b-8175-cc16e537e299","system_id":"levelo_inurba_marseille","lat":43.29795,"lon":5.404086,"is_reserved":false,"is_disabled":false,"rental_uris":{"android":"levelo://app?vid=8e12f901-d572-452b-8175-cc16e537e299","ios":"levelo://app?vid=8e12f901-d572-452b-8175-cc16e537e299"},"vehicle_type_id":"4","last_reported":1704121616,"current_range_meters":20400,"station_id":"ce4bh112rcd13ifvqd90","pricing_plan_id":"free"},{"bike_id":"f77e0254-7fd9-43ec-8c55-1353ab3e45b6","system_id":"levelo_inurba_marseille","lat":43.297946,"lon":5.404063,"is_reserved":false,"is_disabled":false,"rental_uris":{"android":"levelo://app?vid=f77e0254-7fd9-43ec-8c55-1353ab3e45b6","ios":"levelo://app?vid=f77e0254-7fd9-43ec-8c55-1353ab3e45b6"},"vehicle_type_id":"4","last_reported":1704121616,"current_range_meters":21200,"station_id":"ce4bh112rcd13ifvqd90","pricing_plan_id":"free"},{"bike_id":"73baccf2-2f35-40cb-b44e-6d50cd41c007","system_id":"levelo_inurba_marseille","lat":43.29795,"lon":5.404086,"is_reserved":false,"is_disabled":false,"rental_uris":{"android":"levelo://app?vid=73baccf2-2f35-40cb-b44e-6d50cd41c007","ios":"levelo://app?vid=73baccf2-2f35-40cb-b44e-6d50cd41c007"},"vehicle_type_id":"4","last_reported":1704121616,"current_range_meters":22400,"station_id":"ce4bh112rcd13ifvqd90","pricing_plan_id":"free"},{"bike_id":"b924de06-84c0-4487-a6f0-edd67915c447","system_id":"levelo_inurba_marseille","lat":43.284219,"lon":5.3497,"is_reserved":false,"is_disabled":false,"rental_uris":{"android":"levelo://app?vid=b924de06-84c0-4487-a6f0-edd67915c447","ios":"levelo://app?vid=b924de06-84c0-4487-a6f0-edd67915c447"},"vehicle_type_id":"4","last_reported":1704121616,"current_range_meters":400,"station_id":"ce4bhbh2rcd13ifvqepg","pricing_plan_id":"free"},{"bike_id":"e7b79f5c-0730-4cf7-896e-bc27c745ca59","system_id":"levelo_inurba_marseille","lat":43.283494,"lon":5.380945,"is_reserved":false,"is_disabled":false,"rental_uris":{"android":"levelo://app?vid=e7b79f5c-0730-4cf7-896e-bc27c745ca59","ios":"levelo://app?vid=e7b79f5c-0730-4cf7-896e-bc27c745ca59"},"vehicle_type_id":"4","last_reported":1704121616,"current_range_meters":29200,"station_id":"ce4bh412rcd13ifvqdr0","pricing_plan_id":"free"},{"bike_id":"815df7b1-eb70-49f9-9b93-bdef005a1639","system_id":"levelo_inurba_marseille","lat":43.284219,"lon":5.3497,"is_reserved":false,"is_disabled":false,"rental_uris":{"android":"levelo://app?vid=815df7b1-eb70-49f9-9b93-bdef005a1639","ios":"levelo://app?vid=815df7b1-eb70-49f9-9b93-bdef005a1639"},"vehicle_type_id":"4","last_reported":1704121616,"current_range_meters":30800,"station_id":"ce4bhbh2rcd13ifvqepg","pricing_plan_id":"free"},{"bike_id":"fddd2611-feab-4620-876b-52cc1e62e134","system_id":"levelo_inurba_marseille","lat":43.284219,"lon":5.3497,"is_reserved":false,"is_disabled":false,"rental_uris":{"android":"levelo://app?vid=fddd2611-feab-4620-876b-52cc1e62e134","ios":"levelo://app?vid=fddd2611-feab-4620-876b-52cc1e62e134"},"vehicle_type_id":"4","last_reported":1704121616,"current_range_meters":32000,"station_id":"ce4bhbh2rcd13ifvqepg","pricing_plan_id":"free"},{"bike_id":"3a1044d1-2076-4898-a7a7-eaca9090fada","system_id":"levelo_inurba_marseille","lat":43.284219,"lon":5.3497,"is_reserved":false,"is_disabled":false,"rental_uris":{"android":"levelo://app?vid=3a1044d1-2076-4898-a7a7-eaca9090fada","ios":"levelo://app?vid=3a1044d1-2076-4898-a7a7-eaca9090fada"},"vehicle_type_id":"4","last_reported":1704121616,"current_range_meters":24400,"station_id":"ce4bhbh2rcd13ifvqepg","pricing_plan_id":"free"},{"bike_id":"07ce3283-9bab-40bf-8b26-72b3cfef7452","system_id":"levelo_inurba_marseille","lat":43.284219,"lon":5.3497,"is_reserved":false,"is_disabled":false,"rental_uris":{"android":"levelo://app?vid=07ce3283-9bab-40bf-8b26-72b3cfef7452","ios":"levelo://app?vid=07ce3283-9bab-40bf-8b26-72b3cfef7452"},"vehicle_type_id":"4","last_reported":1704121616,"current_range_meters":32000,"station_id":"ce4bhbh2rcd13ifvqepg","pricing_plan_id":"free"},{"bike_id":"b6bd7d30-f6ac-4b63-98bc-6948b1d49107","system_id":"levelo_inurba_marseille","lat":43.284219,"lon":5.3497,"is_reserved":false,"is_disabled":false,"rental_uris":{"android":"levelo://app?vid=b6bd7d30-f6ac-4b63-98bc-6948b1d49107","ios":"levelo://app?vid=b6bd7d30-f6ac-4b63-98bc-6948b1d49107"},"vehicle_type_id":"4","last_reported":1704121616,"current_range_meters":19200,"station_id":"ce4bhbh2rcd13ifvqepg","pricing_plan_id":"free"},{"bike_id":"d731d671-a3f5-4243-ac4b-1201edd40e88","system_id":"levelo_inurba_marseille","lat":43.284217,"lon":5.349697,"is_reserved":false,"is_disabled":false,"rental_uris":{"android":"levelo://app?vid=d731d671-a3f5-4243-ac4b-1201edd40e88","ios":"levelo://app?vid=d731d671-a3f5-4243-ac4b-1201edd40e88"},"vehicle_type_id":"4","last_reported":1704121616,"current_range_meters":32000,"station_id":"ce4bhbh2rcd13ifvqepg","pricing_plan_id":"free"},{"bike_id":"fdaed254-768f-4eb1-882a-539209c05fd1","system_id":"levelo_inurba_marseille","lat":43.284219,"lon":5.3497,"is_reserved":false,"is_disabled":false,"rental_uris":{"android":"levelo://app?vid=fdaed254-768f-4eb1-882a-539209c05fd1","ios":"levelo://app?vid=fdaed254-768f-4eb1-882a-539209c05fd1"},"vehicle_type_id":"4","last_reported":1704121616,"current_range_meters":22400,"station_id":"ce4bhbh2rcd13ifvqepg","pricing_plan_id":"free"},{"bike_id":"bf484915-3c31-461f-a9d2-7ffde0d90705","system_id":"levelo_inurba_marseille","lat":43.284217,"lon":5.349697,"is_reserved":false,"is_disabled":false,"rental_uris":{"android":"levelo://app?vid=bf484915-3c31-461f-a9d2-7ffde0d90705","ios":"levelo://app?vid=bf484915-3c31-461f-a9d2-7ffde0d90705"},"vehicle_type_id":"4","last_reported":1704121616,"current_range_meters":19600,"station_id":"ce4bhbh2rcd13ifvqepg","pricing_plan_id":"free"},{"bike_id":"e66eb6ab-0946-4702-a509-720e5946a983","system_id":"levelo_inurba_marseille","lat":43.284219,"lon":5.3497,"is_reserved":false,"is_disabled":false,"rental_uris":{"android":"levelo://app?vid=e66eb6ab-0946-4702-a509-720e5946a983","ios":"levelo://app?vid=e66eb6ab-0946-4702-a509-720e5946a983"},"vehicle_type_id":"4","last_reported":1704121616,"current_range_meters":28000,"station_id":"ce4bhbh2rcd13ifvqepg","pricing_plan_id":"free"},{"bike_id":"42453d5c-7409-4c34-978a-bda9a64c32f1","system_id":"levelo_inurba_marseille","lat":43.284219,"lon":5.3497,"is_reserved":false,"is_disabled":false,"rental_uris":{"android":"levelo://app?vid=42453d5c-7409-4c34-978a-bda9a64c32f1","ios":"levelo://app?vid=42453d5c-7409-4c34-978a-bda9a64c32f1"},"vehicle_type_id":"4","last_reported":1704121616,"current_range_meters":22000,"station_id":"ce4bhbh2rcd13ifvqepg","pricing_plan_id":"free"},{"bike_id":"c4842957-daa2-4150-9acd-bbbe2df74d61","system_id":"levelo_inurba_marseille","lat":43.28414,"lon":5.34989,"is_reserved":false,"is_disabled":false,"rental_uris":{"android":"levelo://app?vid=c4842957-daa2-4150-9acd-bbbe2df74d61","ios":"levelo://app?vid=c4842957-daa2-4150-9acd-bbbe2df74d61"},"vehicle_type_id":"4","last_reported":1704121616,"current_range_meters":22800,"station_id":"ce4bhbh2rcd13ifvqepg","pricing_plan_id":"free"},{"bike_id":"90f5e4b8-7df2-4121-90c1-56809b6ac2e8","system_id":"levelo_inurba_marseille","lat":43.284217,"lon":5.349697,"is_reserved":false,"is_disabled":false,"rental_uris":{"android":"levelo://app?vid=90f5e4b8-7df2-4121-90c1-56809b6ac2e8","ios":"levelo://app?vid=90f5e4b8-7df2-4121-90c1-56809b6ac2e8"},"vehicle_type_id":"4","last_reported":1704121616,"current_range_meters":19600,"station_id":"ce4bhbh2rcd13ifvqepg","pricing_plan_id":"free"},{"bike_id":"7a1beebc-52c8-47ad-9484-9d71ab7861e3","system_id":"levelo_inurba_marseille","lat":43.28039,"lon":5.369297,"is_reserved":false,"is_disabled":false,"rental_uris":{"android":"levelo://app?vid=7a1beebc-52c8-47ad-9484-9d71ab7861e3","ios":"levelo://app?vid=7a1beebc-52c8-47ad-9484-9d71ab7861e3"},"vehicle_type_id":"4","last_reported":1704121616,"current_range_meters":6800,"station_id":"ce4bha12rcd13ifvqef0","pricing_plan_id":"free"},{"bike_id":"d226521a-d32e-4d5c-8e69-6b20335f32a9","system_id":"levelo_inurba_marseille","lat":43.282754,"lon":5.350519,"is_reserved":false,"is_disabled":false,"rental_uris":{"android":"levelo://app?vid=d226521a-d32e-4d5c-8e69-6b20335f32a9","ios":"levelo://app?vid=d226521a-d32e-4d5c-8e69-6b20335f32a9"},"vehicle_type_id":"4","last_reported":1704121616,"current_range_meters":25600,"station_id":"ce4bhbp2rcd13ifvqerg","pricing_plan_id":"free"},{"bike_id":"4df270d6-7f51-40d4-beb6-32efee89fda9","system_id":"levelo_inurba_marseille","lat":43.282754,"lon":5.350519,"is_reserved":false,"is_disabled":false,"rental_uris":{"android":"levelo://app?vid=4df270d6-7f51-40d4-beb6-32efee89fda9","ios":"levelo://app?vid=4df270d6-7f51-40d4-beb6-32efee89fda9"},"vehicle_type_id":"4","last_reported":1704121616,"current_range_meters":20400,"station_id":"ce4bhbp2rcd13ifvqerg","pricing_plan_id":"free"},{"bike_id":"3ec37707-9cad-4d1b-a321-7a7230b711ad","system_id":"levelo_inurba_marseille","lat":43.282744,"lon":5.350533,"is_reserved":false,"is_disabled":false,"rental_uris":{"android":"levelo://app?vid=3ec37707-9cad-4d1b-a321-7a7230b711ad","ios":"levelo://app?vid=3ec37707-9cad-4d1b-a321-7a7230b711ad"},"vehicle_type_id":"4","last_reported":1704121616,"current_range_meters":30800,"station_id":"ce4bhbp2rcd13ifvqerg","pricing_plan_id":"free"},{"bike_id":"d7466c6f-7c08-483f-9a9c-af9013e734f0","system_id":"levelo_inurba_marseille","lat":43.284462,"lon":5.392121,"is_reserved":false,"is_disabled":false,"rental_uris":{"android":"levelo://app?vid=d7466c6f-7c08-483f-9a9c-af9013e734f0","ios":"levelo://app?vid=d7466c6f-7c08-483f-9a9c-af9013e734f0"},"vehicle_type_id":"4","last_reported":1704121616,"current_range_meters":14800,"station_id":"ce4bhoh2rcd13ifvqh5g","pricing_plan_id":"free"},{"bike_id":"f2a77905-389b-48fc-84c0-3ad634214821","system_id":"levelo_inurba_marseille","lat":43.30422,"lon":5.41278,"is_reserved":false,"is_disabled":false,"rental_uris":{"android":"levelo://app?vid=f2a77905-389b-48fc-84c0-3ad634214821","ios":"levelo://app?vid=f2a77905-389b-48fc-84c0-3ad634214821"},"vehicle_type_id":"4","last_reported":1704121616,"current_range_meters":26800,"station_id":"ce4bhop2rcd13ifvqh8g","pricing_plan_id":"free"},{"bike_id":"4266b66e-7361-4f27-bdcb-46d22a6ef3c4","system_id":"levelo_inurba_marseille","lat":43.304188,"lon":5.412904,"is_reserved":false,"is_disabled":false,"rental_uris":{"android":"levelo://app?vid=4266b66e-7361-4f27-bdcb-46d22a6ef3c4","ios":"levelo://app?vid=4266b66e-7361-4f27-bdcb-46d22a6ef3c4"},"vehicle_type_id":"4","last_reported":1704121616,"current_range_meters":18000,"station_id":"ce4bhop2rcd13ifvqh8g","pricing_plan_id":"free"},{"bike_id":"1eaa7da4-b659-4f26-8f57-e079a057542f","system_id":"levelo_inurba_marseille","lat":43.303837,"lon":5.418724,"is_reserved":false,"is_disabled":false,"rental_uris":{"android":"levelo://app?vid=1eaa7da4-b659-4f26-8f57-e079a057542f","ios":"levelo://app?vid=1eaa7da4-b659-4f26-8f57-e079a057542f"},"vehicle_type_id":"4","last_reported":1704121616,"current_range_meters":20800,"station_id":"ce4bhop2rcd13ifvqh7g","pricing_plan_id":"free"},{"bike_id":"5f1aec32-7175-41cc-ad30-3b9ee4159dae","system_id":"levelo_inurba_marseille","lat":43.292569,"lon":5.409107,"is_reserved":false,"is_disabled":false,"rental_uris":{"android":"levelo://app?vid=5f1aec32-7175-41cc-ad30-3b9ee4159dae","ios":"levelo://app?vid=5f1aec32-7175-41cc-ad30-3b9ee4159dae"},"vehicle_type_id":"4","last_reported":1704121616,"current_range_meters":30000,"station_id":"ce4bh192rcd13ifvqdc0","pricing_plan_id":"free"},{"bike_id":"9b79004f-b235-4acf-aaf6-11dfc1bcc384","system_id":"levelo_inurba_marseille","lat":43.292569,"lon":5.409107,"is_reserved":false,"is_disabled":false,"rental_uris":{"android":"levelo://app?vid=9b79004f-b235-4acf-aaf6-11dfc1bcc384","ios":"levelo://app?vid=9b79004f-b235-4acf-aaf6-11dfc1bcc384"},"vehicle_type_id":"4","last_reported":1704121616,"current_range_meters":31200,"station_id":"ce4bh192rcd13ifvqdc0","pricing_plan_id":"free"},{"bike_id":"0f84f884-bab3-4200-8cc7-d4f2c72d9909","system_id":"levelo_inurba_marseille","lat":43.292571,"lon":5.409107,"is_reserved":false,"is_disabled":false,"rental_uris":{"android":"levelo://app?vid=0f84f884-bab3-4200-8cc7-d4f2c72d9909","ios":"levelo://app?vid=0f84f884-bab3-4200-8cc7-d4f2c72d9909"},"vehicle_type_id":"4","last_reported":1704121616,"current_range_meters":31600,"station_id":"ce4bh192rcd13ifvqdc0","pricing_plan_id":"free"},{"bike_id":"85ae0ce9-025c-46b2-92f4-d5773f30a4b4","system_id":"levelo_inurba_marseille","lat":43.27618,"lon":5.361009,"is_reserved":false,"is_disabled":false,"rental_uris":{"android":"levelo://app?vid=85ae0ce9-025c-46b2-92f4-d5773f30a4b4","ios":"levelo://app?vid=85ae0ce9-025c-46b2-92f4-d5773f30a4b4"},"vehicle_type_id":"4","last_reported":1704121616,"current_range_meters":21600,"station_id":"ce4bgj92rcd13ifvqbe0","pricing_plan_id":"free"},{"bike_id":"d2a3da75-7092-415e-b8a8-ce83ba1178e9","system_id":"levelo_inurba_marseille","lat":43.280784,"lon":5.396622,"is_reserved":false,"is_disabled":false,"rental_uris":{"android":"levelo://app?vid=d2a3da75-7092-415e-b8a8-ce83ba1178e9","ios":"levelo://app?vid=d2a3da75-7092-415e-b8a8-ce83ba1178e9"},"vehicle_type_id":"4","last_reported":1704121616,"current_range_meters":15200,"station_id":"ce4bho12rcd13ifvqh2g","pricing_plan_id":"free"},{"bike_id":"52710c2c-e727-4072-b4b3-43bca13f4228","system_id":"levelo_inurba_marseille","lat":43.280784,"lon":5.396622,"is_reserved":false,"is_disabled":false,"rental_uris":{"android":"levelo://app?vid=52710c2c-e727-4072-b4b3-43bca13f4228","ios":"levelo://app?vid=52710c2c-e727-4072-b4b3-43bca13f4228"},"vehicle_type_id":"4","last_reported":1704121616,"current_range_meters":23200,"station_id":"ce4bho12rcd13ifvqh2g","pricing_plan_id":"free"},{"bike_id":"e1838f9f-299f-437d-abd8-4f286644fe17","system_id":"levelo_inurba_marseille","lat":43.280784,"lon":5.396622,"is_reserved":false,"is_disabled":false,"rental_uris":{"android":"levelo://app?vid=e1838f9f-299f-437d-abd8-4f286644fe17","ios":"levelo://app?vid=e1838f9f-299f-437d-abd8-4f286644fe17"},"vehicle_type_id":"4","last_reported":1704121616,"current_range_meters":28800,"station_id":"ce4bho12rcd13ifvqh2g","pricing_plan_id":"free"},{"bike_id":"9727190a-b3e3-4d96-a370-472e6c8b4d96","system_id":"levelo_inurba_marseille","lat":43.303837,"lon":5.418724,"is_reserved":false,"is_disabled":false,"rental_uris":{"android":"levelo://app?vid=9727190a-b3e3-4d96-a370-472e6c8b4d96","ios":"levelo://app?vid=9727190a-b3e3-4d96-a370-472e6c8b4d96"},"vehicle_type_id":"4","last_reported":1704121616,"current_range_meters":4400,"station_id":"ce4bhop2rcd13ifvqh7g","pricing_plan_id":"free"},{"bike_id":"274d9a72-069f-4bbb-8dd5-f58c8b3273e9","system_id":"levelo_inurba_marseille","lat":43.303837,"lon":5.418724,"is_reserved":false,"is_disabled":false,"rental_uris":{"android":"levelo://app?vid=274d9a72-069f-4bbb-8dd5-f58c8b3273e9","ios":"levelo://app?vid=274d9a72-069f-4bbb-8dd5-f58c8b3273e9"},"vehicle_type_id":"4","last_reported":1704121616,"current_range_meters":12000,"station_id":"ce4bhop2rcd13ifvqh7g","pricing_plan_id":"free"},{"bike_id":"4e4ff796-b6c2-4ed5-bf16-c931dd6520f7","system_id":"levelo_inurba_marseille","lat":43.303837,"lon":5.418724,"is_reserved":false,"is_disabled":false,"rental_uris":{"android":"levelo://app?vid=4e4ff796-b6c2-4ed5-bf16-c931dd6520f7","ios":"levelo://app?vid=4e4ff796-b6c2-4ed5-bf16-c931dd6520f7"},"vehicle_type_id":"4","last_reported":1704121616,"current_range_meters":26800,"station_id":"ce4bhop2rcd13ifvqh7g","pricing_plan_id":"free"},{"bike_id":"d29df094-5986-438b-b8e0-81fd03207abc","system_id":"levelo_inurba_marseille","lat":43.303837,"lon":5.418724,"is_reserved":false,"is_disabled":false,"rental_uris":{"android":"levelo://app?vid=d29df094-5986-438b-b8e0-81fd03207abc","ios":"levelo://app?vid=d29df094-5986-438b-b8e0-81fd03207abc"},"vehicle_type_id":"4","last_reported":1704121616,"current_range_meters":26000,"station_id":"ce4bhop2rcd13ifvqh7g","pricing_plan_id":"free"},{"bike_id":"4550a97a-6e19-492e-9316-a9f65a0e2e79","system_id":"levelo_inurba_marseille","lat":43.278401,"lon":5.392152,"is_reserved":false,"is_disabled":false,"rental_uris":{"android":"levelo://app?vid=4550a97a-6e19-492e-9316-a9f65a0e2e79","ios":"levelo://app?vid=4550a97a-6e19-492e-9316-a9f65a0e2e79"},"vehicle_type_id":"4","last_reported":1704121616,"current_range_meters":26000,"station_id":"ce4bhjp2rcd13ifvqga0","pricing_plan_id":"free"},{"bike_id":"c4c083d5-92e5-4786-b2da-040468168eef","system_id":"levelo_inurba_marseille","lat":43.278401,"lon":5.392152,"is_reserved":false,"is_disabled":false,"rental_uris":{"android":"levelo://app?vid=c4c083d5-92e5-4786-b2da-040468168eef","ios":"levelo://app?vid=c4c083d5-92e5-4786-b2da-040468168eef"},"vehicle_type_id":"4","last_reported":1704121616,"current_range_meters":27600,"station_id":"ce4bhjp2rcd13ifvqga0","pricing_plan_id":"free"},{"bike_id":"bfd486f4-17e1-4113-8c5a-5f0cc3e52a57","system_id":"levelo_inurba_marseille","lat":43.273613,"lon":5.362705,"is_reserved":false,"is_disabled":false,"rental_uris":{"android":"levelo://app?vid=bfd486f4-17e1-4113-8c5a-5f0cc3e52a57","ios":"levelo://app?vid=bfd486f4-17e1-4113-8c5a-5f0cc3e52a57"},"vehicle_type_id":"4","last_reported":1704121616,"current_range_meters":20400,"station_id":"ce4bhbh2rcd13ifvqeo0","pricing_plan_id":"free"},{"bike_id":"0e564609-4f8d-4a2d-bbd8-a0dc5274f062","system_id":"levelo_inurba_marseille","lat":43.273613,"lon":5.362705,"is_reserved":false,"is_disabled":false,"rental_uris":{"android":"levelo://app?vid=0e564609-4f8d-4a2d-bbd8-a0dc5274f062","ios":"levelo://app?vid=0e564609-4f8d-4a2d-bbd8-a0dc5274f062"},"vehicle_type_id":"4","last_reported":1704121616,"current_range_meters":14800,"station_id":"ce4bhbh2rcd13ifvqeo0","pricing_plan_id":"free"},{"bike_id":"87f5182e-847e-4126-af65-24775d7beaa1","system_id":"levelo_inurba_marseille","lat":43.273613,"lon":5.362705,"is_reserved":false,"is_disabled":false,"rental_uris":{"android":"levelo://app?vid=87f5182e-847e-4126-af65-24775d7beaa1","ios":"levelo://app?vid=87f5182e-847e-4126-af65-24775d7beaa1"},"vehicle_type_id":"4","last_reported":1704121616,"current_range_meters":19600,"station_id":"ce4bhbh2rcd13ifvqeo0","pricing_plan_id":"free"},{"bike_id":"a5efee43-822f-4bc7-8192-7899da942fce","system_id":"levelo_inurba_marseille","lat":43.273609,"lon":5.362708,"is_reserved":false,"is_disabled":false,"rental_uris":{"android":"levelo://app?vid=a5efee43-822f-4bc7-8192-7899da942fce","ios":"levelo://app?vid=a5efee43-822f-4bc7-8192-7899da942fce"},"vehicle_type_id":"4","last_reported":1704121616,"current_range_meters":6000,"station_id":"ce4bhbh2rcd13ifvqeo0","pricing_plan_id":"free"},{"bike_id":"39b8a5e8-a84d-44d5-9963-20c8ca83127a","system_id":"levelo_inurba_marseille","lat":43.275625,"lon":5.384392,"is_reserved":false,"is_disabled":false,"rental_uris":{"android":"levelo://app?vid=39b8a5e8-a84d-44d5-9963-20c8ca83127a","ios":"levelo://app?vid=39b8a5e8-a84d-44d5-9963-20c8ca83127a"},"vehicle_type_id":"4","last_reported":1704121616,"current_range_meters":20400,"station_id":"ce4bhh92rcd13ifvqfi0","pricing_plan_id":"free"},{"bike_id":"ecfb48ed-6de1-4add-a91c-2938ff6f0d86","system_id":"levelo_inurba_marseille","lat":43.273609,"lon":5.362708,"is_reserved":false,"is_disabled":false,"rental_uris":{"android":"levelo://app?vid=ecfb48ed-6de1-4add-a91c-2938ff6f0d86","ios":"levelo://app?vid=ecfb48ed-6de1-4add-a91c-2938ff6f0d86"},"vehicle_type_id":"4","last_reported":1704121616,"current_range_meters":19600,"station_id":"ce4bhbh2rcd13ifvqeo0","pricing_plan_id":"free"},{"bike_id":"37a7781f-5a6d-4157-b264-a14eeb95218a","system_id":"levelo_inurba_marseille","lat":43.273613,"lon":5.362705,"is_reserved":false,"is_disabled":false,"rental_uris":{"android":"levelo://app?vid=37a7781f-5a6d-4157-b264-a14eeb95218a","ios":"levelo://app?vid=37a7781f-5a6d-4157-b264-a14eeb95218a"},"vehicle_type_id":"4","last_reported":1704121616,"current_range_meters":13200,"station_id":"ce4bhbh2rcd13ifvqeo0","pricing_plan_id":"free"},{"bike_id":"c6738132-8432-42b9-b65d-f3b842c6eb0c","system_id":"levelo_inurba_marseille","lat":43.336134,"lon":5.410341,"is_reserved":false,"is_disabled":false,"rental_uris":{"android":"levelo://app?vid=c6738132-8432-42b9-b65d-f3b842c6eb0c","ios":"levelo://app?vid=c6738132-8432-42b9-b65d-f3b842c6eb0c"},"vehicle_type_id":"4","last_reported":1704121616,"current_range_meters":16400,"station_id":"ce4bhqh2rcd13ifvqhmg","pricing_plan_id":"free"},{"bike_id":"2eb5e3f3-7c50-4683-bb5f-0083bc5777c4","system_id":"levelo_inurba_marseille","lat":43.275625,"lon":5.384392,"is_reserved":false,"is_disabled":false,"rental_uris":{"android":"levelo://app?vid=2eb5e3f3-7c50-4683-bb5f-0083bc5777c4","ios":"levelo://app?vid=2eb5e3f3-7c50-4683-bb5f-0083bc5777c4"},"vehicle_type_id":"4","last_reported":1704121616,"current_range_meters":19600,"station_id":"ce4bhh92rcd13ifvqfi0","pricing_plan_id":"free"},{"bike_id":"838e390a-0d2f-44c2-87a4-d40aabcd8ccc","system_id":"levelo_inurba_marseille","lat":43.27671,"lon":5.389198,"is_reserved":false,"is_disabled":false,"rental_uris":{"android":"levelo://app?vid=838e390a-0d2f-44c2-87a4-d40aabcd8ccc","ios":"levelo://app?vid=838e390a-0d2f-44c2-87a4-d40aabcd8ccc"},"vehicle_type_id":"4","last_reported":1704121616,"current_range_meters":400,"station_id":"","pricing_plan_id":"free"},{"bike_id":"29db4e75-73a9-45d1-8a88-78686b16c358","system_id":"levelo_inurba_marseille","lat":43.27998,"lon":5.40019,"is_reserved":false,"is_disabled":false,"rental_uris":{"android":"levelo://app?vid=29db4e75-73a9-45d1-8a88-78686b16c358","ios":"levelo://app?vid=29db4e75-73a9-45d1-8a88-78686b16c358"},"vehicle_type_id":"4","last_reported":1704121616,"current_range_meters":19600,"station_id":"ce4bho92rcd13ifvqh4g","pricing_plan_id":"free"},{"bike_id":"ad8ead7b-2150-462d-9ff1-f4303c6e32bd","system_id":"levelo_inurba_marseille","lat":43.279972,"lon":5.400248,"is_reserved":false,"is_disabled":false,"rental_uris":{"android":"levelo://app?vid=ad8ead7b-2150-462d-9ff1-f4303c6e32bd","ios":"levelo://app?vid=ad8ead7b-2150-462d-9ff1-f4303c6e32bd"},"vehicle_type_id":"4","last_reported":1704121616,"current_range_meters":27600,"station_id":"ce4bho92rcd13ifvqh4g","pricing_plan_id":"free"},{"bike_id":"95620b28-48e0-40ed-8f4c-f7654a31b6da","system_id":"levelo_inurba_marseille","lat":43.317226,"lon":5.423922,"is_reserved":false,"is_disabled":false,"rental_uris":{"android":"levelo://app?vid=95620b28-48e0-40ed-8f4c-f7654a31b6da","ios":"levelo://app?vid=95620b28-48e0-40ed-8f4c-f7654a31b6da"},"vehicle_type_id":"4","last_reported":1704121616,"current_range_meters":31200,"station_id":"","pricing_plan_id":"free"},{"bike_id":"5e3452d0-bbc8-463b-8852-ec98e809d5a0","system_id":"levelo_inurba_marseille","lat":43.317121,"lon":5.423936,"is_reserved":false,"is_disabled":false,"rental_uris":{"android":"levelo://app?vid=5e3452d0-bbc8-463b-8852-ec98e809d5a0","ios":"levelo://app?vid=5e3452d0-bbc8-463b-8852-ec98e809d5a0"},"vehicle_type_id":"4","last_reported":1704121616,"current_range_meters":32000,"station_id":"ce4bhp92rcd13ifvqhbg","pricing_plan_id":"free"},{"bike_id":"450ed659-c181-4eab-9bb5-1bc0054378de","system_id":"levelo_inurba_marseille","lat":43.317121,"lon":5.423936,"is_reserved":false,"is_disabled":false,"rental_uris":{"android":"levelo://app?vid=450ed659-c181-4eab-9bb5-1bc0054378de","ios":"levelo://app?vid=450ed659-c181-4eab-9bb5-1bc0054378de"},"vehicle_type_id":"4","last_reported":1704121616,"current_range_meters":28800,"station_id":"ce4bhp92rcd13ifvqhbg","pricing_plan_id":"free"},{"bike_id":"a8f3a594-707b-47ca-8d44-e5deb7af4735","system_id":"levelo_inurba_marseille","lat":43.317121,"lon":5.423936,"is_reserved":false,"is_disabled":false,"rental_uris":{"android":"levelo://app?vid=a8f3a594-707b-47ca-8d44-e5deb7af4735","ios":"levelo://app?vid=a8f3a594-707b-47ca-8d44-e5deb7af4735"},"vehicle_type_id":"4","last_reported":1704121616,"current_range_meters":28400,"station_id":"ce4bhp92rcd13ifvqhbg","pricing_plan_id":"free"},{"bike_id":"f3e351f0-7ca3-497e-a450-69da3118abd7","system_id":"levelo_inurba_marseille","lat":43.317121,"lon":5.423936,"is_reserved":false,"is_disabled":false,"rental_uris":{"android":"levelo://app?vid=f3e351f0-7ca3-497e-a450-69da3118abd7","ios":"levelo://app?vid=f3e351f0-7ca3-497e-a450-69da3118abd7"},"vehicle_type_id":"4","last_reported":1704121616,"current_range_meters":28800,"station_id":"ce4bhp92rcd13ifvqhbg","pricing_plan_id":"free"},{"bike_id":"e2340435-a767-4a07-9db0-637fd4bce462","system_id":"levelo_inurba_marseille","lat":43.317121,"lon":5.423936,"is_reserved":false,"is_disabled":false,"rental_uris":{"android":"levelo://app?vid=e2340435-a767-4a07-9db0-637fd4bce462","ios":"levelo://app?vid=e2340435-a767-4a07-9db0-637fd4bce462"},"vehicle_type_id":"4","last_reported":1704121616,"current_range_meters":14800,"station_id":"ce4bhp92rcd13ifvqhbg","pricing_plan_id":"free"},{"bike_id":"f3df15e8-aad3-4eb3-8655-ae037bdab9c9","system_id":"levelo_inurba_marseille","lat":43.310785,"lon":5.424305,"is_reserved":false,"is_disabled":false,"rental_uris":{"android":"levelo://app?vid=f3df15e8-aad3-4eb3-8655-ae037bdab9c9","ios":"levelo://app?vid=f3df15e8-aad3-4eb3-8655-ae037bdab9c9"},"vehicle_type_id":"4","last_reported":1704121616,"current_range_meters":10400,"station_id":"ce4bhp92rcd13ifvqhag","pricing_plan_id":"free"},{"bike_id":"5207cc93-8b83-4cd4-bf21-e3b17bacc613","system_id":"levelo_inurba_marseille","lat":43.310785,"lon":5.424305,"is_reserved":false,"is_disabled":false,"rental_uris":{"android":"levelo://app?vid=5207cc93-8b83-4cd4-bf21-e3b17bacc613","ios":"levelo://app?vid=5207cc93-8b83-4cd4-bf21-e3b17bacc613"},"vehicle_type_id":"4","last_reported":1704121616,"current_range_meters":14000,"station_id":"ce4bhp92rcd13ifvqhag","pricing_plan_id":"free"},{"bike_id":"4760841b-4fd7-4b7d-aef3-782de75b0909","system_id":"levelo_inurba_marseille","lat":43.317121,"lon":5.423936,"is_reserved":false,"is_disabled":false,"rental_uris":{"android":"levelo://app?vid=4760841b-4fd7-4b7d-aef3-782de75b0909","ios":"levelo://app?vid=4760841b-4fd7-4b7d-aef3-782de75b0909"},"vehicle_type_id":"4","last_reported":1704121616,"current_range_meters":26000,"station_id":"ce4bhp92rcd13ifvqhbg","pricing_plan_id":"free"},{"bike_id":"72be8c87-95b5-44a3-a58e-8e3ac1a66cf3","system_id":"levelo_inurba_marseille","lat":43.340804,"lon":5.410219,"is_reserved":false,"is_disabled":false,"rental_uris":{"android":"levelo://app?vid=72be8c87-95b5-44a3-a58e-8e3ac1a66cf3","ios":"levelo://app?vid=72be8c87-95b5-44a3-a58e-8e3ac1a66cf3"},"vehicle_type_id":"4","last_reported":1704121616,"current_range_meters":27200,"station_id":"ce4bhqh2rcd13ifvqhlg","pricing_plan_id":"free"},{"bike_id":"508f89e4-9c47-4308-b172-f67c85f17eb8","system_id":"levelo_inurba_marseille","lat":43.340804,"lon":5.410219,"is_reserved":false,"is_disabled":false,"rental_uris":{"android":"levelo://app?vid=508f89e4-9c47-4308-b172-f67c85f17eb8","ios":"levelo://app?vid=508f89e4-9c47-4308-b172-f67c85f17eb8"},"vehicle_type_id":"4","last_reported":1704121616,"current_range_meters":18800,"station_id":"ce4bhqh2rcd13ifvqhlg","pricing_plan_id":"free"},{"bike_id":"be65a10b-bdfa-4c38-89e0-b5a4fe3c9fa9","system_id":"levelo_inurba_marseille","lat":43.274099,"lon":5.394019,"is_reserved":false,"is_disabled":false,"rental_uris":{"android":"levelo://app?vid=be65a10b-bdfa-4c38-89e0-b5a4fe3c9fa9","ios":"levelo://app?vid=be65a10b-bdfa-4c38-89e0-b5a4fe3c9fa9"},"vehicle_type_id":"4","last_reported":1704121616,"current_range_meters":27200,"station_id":"ce4bhdp2rcd13ifvqf20","pricing_plan_id":"free"},{"bike_id":"d548d66b-88c9-49f9-867c-e26df10c9510","system_id":"levelo_inurba_marseille","lat":43.29553,"lon":5.42286,"is_reserved":false,"is_disabled":false,"rental_uris":{"android":"levelo://app?vid=d548d66b-88c9-49f9-867c-e26df10c9510","ios":"levelo://app?vid=d548d66b-88c9-49f9-867c-e26df10c9510"},"vehicle_type_id":"4","last_reported":1704121616,"current_range_meters":28000,"station_id":"ce4bhph2rcd13ifvqhdg","pricing_plan_id":"free"},{"bike_id":"306afd85-beb4-4f6c-b611-066e0436e9ba","system_id":"levelo_inurba_marseille","lat":43.29551,"lon":5.42286,"is_reserved":false,"is_disabled":false,"rental_uris":{"android":"levelo://app?vid=306afd85-beb4-4f6c-b611-066e0436e9ba","ios":"levelo://app?vid=306afd85-beb4-4f6c-b611-066e0436e9ba"},"vehicle_type_id":"4","last_reported":1704121616,"current_range_meters":30800,"station_id":"ce4bhph2rcd13ifvqhdg","pricing_plan_id":"free"},{"bike_id":"425f9578-de78-4e61-bdf4-7cfac3cad89a","system_id":"levelo_inurba_marseille","lat":43.279465,"lon":5.410561,"is_reserved":false,"is_disabled":false,"rental_uris":{"android":"levelo://app?vid=425f9578-de78-4e61-bdf4-7cfac3cad89a","ios":"levelo://app?vid=425f9578-de78-4e61-bdf4-7cfac3cad89a"},"vehicle_type_id":"4","last_reported":1704121616,"current_range_meters":25200,"station_id":"ce4bhnp2rcd13ifvqh0g","pricing_plan_id":"free"},{"bike_id":"136aa616-cd18-48d2-904b-2f78b63de31b","system_id":"levelo_inurba_marseille","lat":43.27996,"lon":5.416624,"is_reserved":false,"is_disabled":false,"rental_uris":{"android":"levelo://app?vid=136aa616-cd18-48d2-904b-2f78b63de31b","ios":"levelo://app?vid=136aa616-cd18-48d2-904b-2f78b63de31b"},"vehicle_type_id":"4","last_reported":1704121616,"current_range_meters":8800,"station_id":"ce4bho12rcd13ifvqh1g","pricing_plan_id":"free"},{"bike_id":"f652367e-f5ed-48e5-bf62-d744a5b9128b","system_id":"levelo_inurba_marseille","lat":43.27996,"lon":5.416624,"is_reserved":false,"is_disabled":false,"rental_uris":{"android":"levelo://app?vid=f652367e-f5ed-48e5-bf62-d744a5b9128b","ios":"levelo://app?vid=f652367e-f5ed-48e5-bf62-d744a5b9128b"},"vehicle_type_id":"4","last_reported":1704121616,"current_range_meters":8000,"station_id":"ce4bho12rcd13ifvqh1g","pricing_plan_id":"free"},{"bike_id":"97ef873d-c22d-4614-9533-b6e68228cd50","system_id":"levelo_inurba_marseille","lat":43.265714,"lon":5.372891,"is_reserved":false,"is_disabled":false,"rental_uris":{"android":"levelo://app?vid=97ef873d-c22d-4614-9533-b6e68228cd50","ios":"levelo://app?vid=97ef873d-c22d-4614-9533-b6e68228cd50"},"vehicle_type_id":"4","last_reported":1704121616,"current_range_meters":25200,"station_id":"ce4bhg12rcd13ifvqf70","pricing_plan_id":"free"},{"bike_id":"3cad7bc1-a04f-46b7-9076-5d66a34483ac","system_id":"levelo_inurba_marseille","lat":43.265714,"lon":5.372891,"is_reserved":false,"is_disabled":false,"rental_uris":{"android":"levelo://app?vid=3cad7bc1-a04f-46b7-9076-5d66a34483ac","ios":"levelo://app?vid=3cad7bc1-a04f-46b7-9076-5d66a34483ac"},"vehicle_type_id":"4","last_reported":1704121616,"current_range_meters":23600,"station_id":"ce4bhg12rcd13ifvqf70","pricing_plan_id":"free"},{"bike_id":"4e7b82a4-f271-4a72-bdbd-460d1cfbd58d","system_id":"levelo_inurba_marseille","lat":43.27181,"lon":5.404997,"is_reserved":false,"is_disabled":false,"rental_uris":{"android":"levelo://app?vid=4e7b82a4-f271-4a72-bdbd-460d1cfbd58d","ios":"levelo://app?vid=4e7b82a4-f271-4a72-bdbd-460d1cfbd58d"},"vehicle_type_id":"4","last_reported":1704121616,"current_range_meters":10000,"station_id":"","pricing_plan_id":"free"},{"bike_id":"9ac33b84-00e2-4b9d-9fa8-2e1ec3262473","system_id":"levelo_inurba_marseille","lat":43.265571,"lon":5.390032,"is_reserved":false,"is_disabled":false,"rental_uris":{"android":"levelo://app?vid=9ac33b84-00e2-4b9d-9fa8-2e1ec3262473","ios":"levelo://app?vid=9ac33b84-00e2-4b9d-9fa8-2e1ec3262473"},"vehicle_type_id":"4","last_reported":1704121616,"current_range_meters":29600,"station_id":"ce4bhe12rcd13ifvqf30","pricing_plan_id":"free"},{"bike_id":"20d64874-f49a-4586-ac7e-ba0eae6d7240","system_id":"levelo_inurba_marseille","lat":43.26949,"lon":5.40262,"is_reserved":false,"is_disabled":false,"rental_uris":{"android":"levelo://app?vid=20d64874-f49a-4586-ac7e-ba0eae6d7240","ios":"levelo://app?vid=20d64874-f49a-4586-ac7e-ba0eae6d7240"},"vehicle_type_id":"4","last_reported":1704121616,"current_range_meters":27200,"station_id":"cjm6bp8fraef2m0cb0m0","pricing_plan_id":"free"},{"bike_id":"dac5ea74-92f7-462e-b536-31f322bb01c0","system_id":"levelo_inurba_marseille","lat":43.331893,"lon":5.431791,"is_reserved":false,"is_disabled":false,"rental_uris":{"android":"levelo://app?vid=dac5ea74-92f7-462e-b536-31f322bb01c0","ios":"levelo://app?vid=dac5ea74-92f7-462e-b536-31f322bb01c0"},"vehicle_type_id":"4","last_reported":1704121616,"current_range_meters":7200,"station_id":"","pricing_plan_id":"free"},{"bike_id":"c693cffc-c1b1-4f48-a2af-4776d28f9155","system_id":"levelo_inurba_marseille","lat":43.31714,"lon":5.43707,"is_reserved":false,"is_disabled":false,"rental_uris":{"android":"levelo://app?vid=c693cffc-c1b1-4f48-a2af-4776d28f9155","ios":"levelo://app?vid=c693cffc-c1b1-4f48-a2af-4776d28f9155"},"vehicle_type_id":"4","last_reported":1704121616,"current_range_meters":20000,"station_id":"ce4bhp92rcd13ifvqhcg","pricing_plan_id":"free"},{"bike_id":"8c7df74b-a509-49f1-af95-b0a69adf8f56","system_id":"levelo_inurba_marseille","lat":43.317151,"lon":5.437118,"is_reserved":false,"is_disabled":false,"rental_uris":{"android":"levelo://app?vid=8c7df74b-a509-49f1-af95-b0a69adf8f56","ios":"levelo://app?vid=8c7df74b-a509-49f1-af95-b0a69adf8f56"},"vehicle_type_id":"4","last_reported":1704121616,"current_range_meters":29600,"station_id":"ce4bhp92rcd13ifvqhcg","pricing_plan_id":"free"},{"bike_id":"e3292893-401d-405b-9c7b-d7aa6a3cd3a4","system_id":"levelo_inurba_marseille","lat":43.262012,"lon":5.379307,"is_reserved":false,"is_disabled":false,"rental_uris":{"android":"levelo://app?vid=e3292893-401d-405b-9c7b-d7aa6a3cd3a4","ios":"levelo://app?vid=e3292893-401d-405b-9c7b-d7aa6a3cd3a4"},"vehicle_type_id":"4","last_reported":1704121616,"current_range_meters":28800,"station_id":"ce4bhjp2rcd13ifvqg90","pricing_plan_id":"free"},{"bike_id":"561232c7-db97-4857-969f-2ad8276e1366","system_id":"levelo_inurba_marseille","lat":43.292724,"lon":5.401131,"is_reserved":false,"is_disabled":false,"rental_uris":{"android":"levelo://app?vid=561232c7-db97-4857-969f-2ad8276e1366","ios":"levelo://app?vid=561232c7-db97-4857-969f-2ad8276e1366"},"vehicle_type_id":"4","last_reported":1704121616,"current_range_meters":6800,"station_id":"ce4bh312rcd13ifvqdk0","pricing_plan_id":"free"},{"bike_id":"aee55816-91af-4090-b86d-2303bacde030","system_id":"levelo_inurba_marseille","lat":43.26126,"lon":5.37507,"is_reserved":false,"is_disabled":false,"rental_uris":{"android":"levelo://app?vid=aee55816-91af-4090-b86d-2303bacde030","ios":"levelo://app?vid=aee55816-91af-4090-b86d-2303bacde030"},"vehicle_type_id":"4","last_reported":1704121616,"current_range_meters":21600,"station_id":"","pricing_plan_id":"free"},{"bike_id":"719b55e0-0109-4a1e-a348-694667c7e5d2","system_id":"levelo_inurba_marseille","lat":43.2651,"lon":5.39469,"is_reserved":false,"is_disabled":false,"rental_uris":{"android":"levelo://app?vid=719b55e0-0109-4a1e-a348-694667c7e5d2","ios":"levelo://app?vid=719b55e0-0109-4a1e-a348-694667c7e5d2"},"vehicle_type_id":"4","last_reported":1704121616,"current_range_meters":18000,"station_id":"ce4bhi12rcd13ifvqfq0","pricing_plan_id":"free"},{"bike_id":"9de322e8-f55e-4d15-ae01-b1693c650908","system_id":"levelo_inurba_marseille","lat":43.2651,"lon":5.39469,"is_reserved":false,"is_disabled":false,"rental_uris":{"android":"levelo://app?vid=9de322e8-f55e-4d15-ae01-b1693c650908","ios":"levelo://app?vid=9de322e8-f55e-4d15-ae01-b1693c650908"},"vehicle_type_id":"4","last_reported":1704121616,"current_range_meters":22000,"station_id":"ce4bhi12rcd13ifvqfq0","pricing_plan_id":"free"},{"bike_id":"6423d35c-7bc9-4cf8-a67e-81f29e5f1392","system_id":"levelo_inurba_marseille","lat":43.26497,"lon":5.3957,"is_reserved":false,"is_disabled":false,"rental_uris":{"android":"levelo://app?vid=6423d35c-7bc9-4cf8-a67e-81f29e5f1392","ios":"levelo://app?vid=6423d35c-7bc9-4cf8-a67e-81f29e5f1392"},"vehicle_type_id":"4","last_reported":1704121616,"current_range_meters":17600,"station_id":"ce4bhlh2rcd13ifvqgig","pricing_plan_id":"free"},{"bike_id":"0982b2df-9308-454b-bc34-f9feda6af4f0","system_id":"levelo_inurba_marseille","lat":43.26202,"lon":5.379299,"is_reserved":false,"is_disabled":false,"rental_uris":{"android":"levelo://app?vid=0982b2df-9308-454b-bc34-f9feda6af4f0","ios":"levelo://app?vid=0982b2df-9308-454b-bc34-f9feda6af4f0"},"vehicle_type_id":"4","last_reported":1704121616,"current_range_meters":23600,"station_id":"ce4bhjp2rcd13ifvqg90","pricing_plan_id":"free"},{"bike_id":"f359195f-f069-42a0-b818-68741f0dae01","system_id":"levelo_inurba_marseille","lat":43.298768,"lon":5.43643,"is_reserved":false,"is_disabled":false,"rental_uris":{"android":"levelo://app?vid=f359195f-f069-42a0-b818-68741f0dae01","ios":"levelo://app?vid=f359195f-f069-42a0-b818-68741f0dae01"},"vehicle_type_id":"4","last_reported":1704121616,"current_range_meters":29200,"station_id":"ce4bhpp2rcd13ifvqhfg","pricing_plan_id":"free"},{"bike_id":"2aef17d2-5e1a-42db-a1a2-eebc4e3d678f","system_id":"levelo_inurba_marseille","lat":43.298768,"lon":5.43643,"is_reserved":false,"is_disabled":false,"rental_uris":{"android":"levelo://app?vid=2aef17d2-5e1a-42db-a1a2-eebc4e3d678f","ios":"levelo://app?vid=2aef17d2-5e1a-42db-a1a2-eebc4e3d678f"},"vehicle_type_id":"4","last_reported":1704121616,"current_range_meters":9200,"station_id":"ce4bhpp2rcd13ifvqhfg","pricing_plan_id":"free"},{"bike_id":"ec17f12b-76f2-4e38-bdf0-2f3dcd905333","system_id":"levelo_inurba_marseille","lat":43.298768,"lon":5.43643,"is_reserved":false,"is_disabled":false,"rental_uris":{"android":"levelo://app?vid=ec17f12b-76f2-4e38-bdf0-2f3dcd905333","ios":"levelo://app?vid=ec17f12b-76f2-4e38-bdf0-2f3dcd905333"},"vehicle_type_id":"4","last_reported":1704121616,"current_range_meters":28000,"station_id":"ce4bhpp2rcd13ifvqhfg","pricing_plan_id":"free"},{"bike_id":"b7c303e2-8552-48b5-ba4e-5318dec4d9ea","system_id":"levelo_inurba_marseille","lat":43.260219,"lon":5.37546,"is_reserved":false,"is_disabled":false,"rental_uris":{"android":"levelo://app?vid=b7c303e2-8552-48b5-ba4e-5318dec4d9ea","ios":"levelo://app?vid=b7c303e2-8552-48b5-ba4e-5318dec4d9ea"},"vehicle_type_id":"4","last_reported":1704121616,"current_range_meters":5600,"station_id":"ce4bhgh2rcd13ifvqfa0","pricing_plan_id":"free"},{"bike_id":"5f1555ac-704e-4a70-abf2-d97627b4f388","system_id":"levelo_inurba_marseille","lat":43.281548,"lon":5.42643,"is_reserved":false,"is_disabled":false,"rental_uris":{"android":"levelo://app?vid=5f1555ac-704e-4a70-abf2-d97627b4f388","ios":"levelo://app?vid=5f1555ac-704e-4a70-abf2-d97627b4f388"},"vehicle_type_id":"4","last_reported":1704121616,"current_range_meters":22400,"station_id":"ce4bhnh2rcd13ifvqgug","pricing_plan_id":"free"},{"bike_id":"51b307ad-3e03-4c88-8cbb-3669bbc8a1ad","system_id":"levelo_inurba_marseille","lat":43.281548,"lon":5.42643,"is_reserved":false,"is_disabled":false,"rental_uris":{"android":"levelo://app?vid=51b307ad-3e03-4c88-8cbb-3669bbc8a1ad","ios":"levelo://app?vid=51b307ad-3e03-4c88-8cbb-3669bbc8a1ad"},"vehicle_type_id":"4","last_reported":1704121616,"current_range_meters":32000,"station_id":"ce4bhnh2rcd13ifvqgug","pricing_plan_id":"free"},{"bike_id":"e32e8b2f-227a-41f1-a651-f92b4e26dae8","system_id":"levelo_inurba_marseille","lat":43.281548,"lon":5.42643,"is_reserved":false,"is_disabled":false,"rental_uris":{"android":"levelo://app?vid=e32e8b2f-227a-41f1-a651-f92b4e26dae8","ios":"levelo://app?vid=e32e8b2f-227a-41f1-a651-f92b4e26dae8"},"vehicle_type_id":"4","last_reported":1704121616,"current_range_meters":0,"station_id":"ce4bhnh2rcd13ifvqgug","pricing_plan_id":"free"},{"bike_id":"5a04ea17-eb41-4e08-b828-ac0858829f65","system_id":"levelo_inurba_marseille","lat":43.281548,"lon":5.42643,"is_reserved":false,"is_disabled":false,"rental_uris":{"android":"levelo://app?vid=5a04ea17-eb41-4e08-b828-ac0858829f65","ios":"levelo://app?vid=5a04ea17-eb41-4e08-b828-ac0858829f65"},"vehicle_type_id":"4","last_reported":1704121616,"current_range_meters":18400,"station_id":"ce4bhnh2rcd13ifvqgug","pricing_plan_id":"free"},{"bike_id":"20f457aa-21b0-4254-bd2f-8b6f31ce302e","system_id":"levelo_inurba_marseille","lat":43.281548,"lon":5.42643,"is_reserved":false,"is_disabled":false,"rental_uris":{"android":"levelo://app?vid=20f457aa-21b0-4254-bd2f-8b6f31ce302e","ios":"levelo://app?vid=20f457aa-21b0-4254-bd2f-8b6f31ce302e"},"vehicle_type_id":"4","last_reported":1704121616,"current_range_meters":32000,"station_id":"ce4bhnh2rcd13ifvqgug","pricing_plan_id":"free"},{"bike_id":"239866bf-d593-439b-8f00-008a123dffd7","system_id":"levelo_inurba_marseille","lat":43.281548,"lon":5.42643,"is_reserved":false,"is_disabled":false,"rental_uris":{"android":"levelo://app?vid=239866bf-d593-439b-8f00-008a123dffd7","ios":"levelo://app?vid=239866bf-d593-439b-8f00-008a123dffd7"},"vehicle_type_id":"4","last_reported":1704121616,"current_range_meters":32000,"station_id":"ce4bhnh2rcd13ifvqgug","pricing_plan_id":"free"},{"bike_id":"dd2ae354-b374-4e9f-a915-275627cc27df","system_id":"levelo_inurba_marseille","lat":43.281548,"lon":5.42643,"is_reserved":false,"is_disabled":false,"rental_uris":{"android":"levelo://app?vid=dd2ae354-b374-4e9f-a915-275627cc27df","ios":"levelo://app?vid=dd2ae354-b374-4e9f-a915-275627cc27df"},"vehicle_type_id":"4","last_reported":1704121616,"current_range_meters":27200,"station_id":"ce4bhnh2rcd13ifvqgug","pricing_plan_id":"free"},{"bike_id":"7ad50cc5-9788-45de-b807-fd22b7baeb89","system_id":"levelo_inurba_marseille","lat":43.2607,"lon":5.393983,"is_reserved":false,"is_disabled":false,"rental_uris":{"android":"levelo://app?vid=7ad50cc5-9788-45de-b807-fd22b7baeb89","ios":"levelo://app?vid=7ad50cc5-9788-45de-b807-fd22b7baeb89"},"vehicle_type_id":"4","last_reported":1704121616,"current_range_meters":1200,"station_id":"ce4bhh92rcd13ifvqfj0","pricing_plan_id":"free"},{"bike_id":"c3b597f8-0e69-4c23-be26-e5b458587bee","system_id":"levelo_inurba_marseille","lat":43.27494,"lon":5.42456,"is_reserved":false,"is_disabled":false,"rental_uris":{"android":"levelo://app?vid=c3b597f8-0e69-4c23-be26-e5b458587bee","ios":"levelo://app?vid=c3b597f8-0e69-4c23-be26-e5b458587bee"},"vehicle_type_id":"4","last_reported":1704121616,"current_range_meters":30800,"station_id":"ce4bhn92rcd13ifvqgrg","pricing_plan_id":"free"},{"bike_id":"9441a47b-203c-4edc-a146-e9ae571d595b","system_id":"levelo_inurba_marseille","lat":43.258224,"lon":5.394369,"is_reserved":false,"is_disabled":false,"rental_uris":{"android":"levelo://app?vid=9441a47b-203c-4edc-a146-e9ae571d595b","ios":"levelo://app?vid=9441a47b-203c-4edc-a146-e9ae571d595b"},"vehicle_type_id":"4","last_reported":1704121616,"current_range_meters":18800,"station_id":"ce4bhip2rcd13ifvqft0","pricing_plan_id":"free"},{"bike_id":"012042c3-55c4-4d69-9b12-969c1c6a20e7","system_id":"levelo_inurba_marseille","lat":43.255756,"lon":5.382303,"is_reserved":false,"is_disabled":false,"rental_uris":{"android":"levelo://app?vid=012042c3-55c4-4d69-9b12-969c1c6a20e7","ios":"levelo://app?vid=012042c3-55c4-4d69-9b12-969c1c6a20e7"},"vehicle_type_id":"4","last_reported":1704121616,"current_range_meters":31200,"station_id":"ce4bhih2rcd13ifvqfs0","pricing_plan_id":"free"},{"bike_id":"c04b467f-47e5-405b-9668-8295580576a7","system_id":"levelo_inurba_marseille","lat":43.255756,"lon":5.382303,"is_reserved":false,"is_disabled":false,"rental_uris":{"android":"levelo://app?vid=c04b467f-47e5-405b-9668-8295580576a7","ios":"levelo://app?vid=c04b467f-47e5-405b-9668-8295580576a7"},"vehicle_type_id":"4","last_reported":1704121616,"current_range_meters":30400,"station_id":"ce4bhih2rcd13ifvqfs0","pricing_plan_id":"free"},{"bike_id":"8a24ac09-accc-4d7e-a549-77ff24f813db","system_id":"levelo_inurba_marseille","lat":43.255756,"lon":5.382303,"is_reserved":false,"is_disabled":false,"rental_uris":{"android":"levelo://app?vid=8a24ac09-accc-4d7e-a549-77ff24f813db","ios":"levelo://app?vid=8a24ac09-accc-4d7e-a549-77ff24f813db"},"vehicle_type_id":"4","last_reported":1704121616,"current_range_meters":30000,"station_id":"ce4bhih2rcd13ifvqfs0","pricing_plan_id":"free"},{"bike_id":"35e299be-ac03-46ee-b330-188ac0409696","system_id":"levelo_inurba_marseille","lat":43.254945,"lon":5.376454,"is_reserved":false,"is_disabled":false,"rental_uris":{"android":"levelo://app?vid=35e299be-ac03-46ee-b330-188ac0409696","ios":"levelo://app?vid=35e299be-ac03-46ee-b330-188ac0409696"},"vehicle_type_id":"4","last_reported":1704121616,"current_range_meters":26000,"station_id":"ce4bhh12rcd13ifvqff0","pricing_plan_id":"free"},{"bike_id":"b8b38ea0-fd03-49c8-ba02-da08fa98ea33","system_id":"levelo_inurba_marseille","lat":43.254947,"lon":5.376454,"is_reserved":false,"is_disabled":false,"rental_uris":{"android":"levelo://app?vid=b8b38ea0-fd03-49c8-ba02-da08fa98ea33","ios":"levelo://app?vid=b8b38ea0-fd03-49c8-ba02-da08fa98ea33"},"vehicle_type_id":"4","last_reported":1704121616,"current_range_meters":22800,"station_id":"ce4bhh12rcd13ifvqff0","pricing_plan_id":"free"},{"bike_id":"14725738-5c42-4249-986c-99d5759b48c2","system_id":"levelo_inurba_marseille","lat":43.254947,"lon":5.376454,"is_reserved":false,"is_disabled":false,"rental_uris":{"android":"levelo://app?vid=14725738-5c42-4249-986c-99d5759b48c2","ios":"levelo://app?vid=14725738-5c42-4249-986c-99d5759b48c2"},"vehicle_type_id":"4","last_reported":1704121616,"current_range_meters":8800,"station_id":"ce4bhh12rcd13ifvqff0","pricing_plan_id":"free"},{"bike_id":"2a4e01fa-aaeb-4975-a320-963c24a9292c","system_id":"levelo_inurba_marseille","lat":43.254947,"lon":5.376454,"is_reserved":false,"is_disabled":false,"rental_uris":{"android":"levelo://app?vid=2a4e01fa-aaeb-4975-a320-963c24a9292c","ios":"levelo://app?vid=2a4e01fa-aaeb-4975-a320-963c24a9292c"},"vehicle_type_id":"4","last_reported":1704121616,"current_range_meters":0,"station_id":"ce4bhh12rcd13ifvqff0","pricing_plan_id":"free"},{"bike_id":"7669850a-32e8-45c5-9693-8568cfd6b237","system_id":"levelo_inurba_marseille","lat":43.258658,"lon":5.398935,"is_reserved":false,"is_disabled":false,"rental_uris":{"android":"levelo://app?vid=7669850a-32e8-45c5-9693-8568cfd6b237","ios":"levelo://app?vid=7669850a-32e8-45c5-9693-8568cfd6b237"},"vehicle_type_id":"4","last_reported":1704121616,"current_range_meters":23200,"station_id":"ce4bhl92rcd13ifvqghg","pricing_plan_id":"free"},{"bike_id":"0be6edf7-3e3e-425e-bd51-d30b845fe421","system_id":"levelo_inurba_marseille","lat":43.258658,"lon":5.398935,"is_reserved":false,"is_disabled":false,"rental_uris":{"android":"levelo://app?vid=0be6edf7-3e3e-425e-bd51-d30b845fe421","ios":"levelo://app?vid=0be6edf7-3e3e-425e-bd51-d30b845fe421"},"vehicle_type_id":"4","last_reported":1704121616,"current_range_meters":29600,"station_id":"ce4bhl92rcd13ifvqghg","pricing_plan_id":"free"},{"bike_id":"16045ca1-c53e-4085-bf70-5638d4b802d2","system_id":"levelo_inurba_marseille","lat":43.2586,"lon":5.39904,"is_reserved":false,"is_disabled":false,"rental_uris":{"android":"levelo://app?vid=16045ca1-c53e-4085-bf70-5638d4b802d2","ios":"levelo://app?vid=16045ca1-c53e-4085-bf70-5638d4b802d2"},"vehicle_type_id":"4","last_reported":1704121616,"current_range_meters":31200,"station_id":"ce4bhl92rcd13ifvqghg","pricing_plan_id":"free"},{"bike_id":"0f487114-d8e8-4683-b853-6d4af536fb75","system_id":"levelo_inurba_marseille","lat":43.250023,"lon":5.38919,"is_reserved":false,"is_disabled":false,"rental_uris":{"android":"levelo://app?vid=0f487114-d8e8-4683-b853-6d4af536fb75","ios":"levelo://app?vid=0f487114-d8e8-4683-b853-6d4af536fb75"},"vehicle_type_id":"4","last_reported":1704121616,"current_range_meters":20800,"station_id":"ce4bhgp2rcd13ifvqfd0","pricing_plan_id":"free"},{"bike_id":"bbc04dd5-5b71-48e6-a33b-7b8a42741760","system_id":"levelo_inurba_marseille","lat":43.250009,"lon":5.389195,"is_reserved":false,"is_disabled":false,"rental_uris":{"android":"levelo://app?vid=bbc04dd5-5b71-48e6-a33b-7b8a42741760","ios":"levelo://app?vid=bbc04dd5-5b71-48e6-a33b-7b8a42741760"},"vehicle_type_id":"4","last_reported":1704121616,"current_range_meters":26000,"station_id":"ce4bhgp2rcd13ifvqfd0","pricing_plan_id":"free"},{"bike_id":"e77bb6c7-1e0f-4bd1-aa8b-30414b46f243","system_id":"levelo_inurba_marseille","lat":43.2481,"lon":5.37456,"is_reserved":false,"is_disabled":false,"rental_uris":{"android":"levelo://app?vid=e77bb6c7-1e0f-4bd1-aa8b-30414b46f243","ios":"levelo://app?vid=e77bb6c7-1e0f-4bd1-aa8b-30414b46f243"},"vehicle_type_id":"4","last_reported":1704121616,"current_range_meters":27200,"station_id":"ce4bhgh2rcd13ifvqfb0","pricing_plan_id":"free"},{"bike_id":"5bbcd1f8-6d11-4856-9be1-c2ec172c9171","system_id":"levelo_inurba_marseille","lat":43.2479,"lon":5.374457,"is_reserved":false,"is_disabled":false,"rental_uris":{"android":"levelo://app?vid=5bbcd1f8-6d11-4856-9be1-c2ec172c9171","ios":"levelo://app?vid=5bbcd1f8-6d11-4856-9be1-c2ec172c9171"},"vehicle_type_id":"4","last_reported":1704121616,"current_range_meters":24800,"station_id":"ce4bhgh2rcd13ifvqfb0","pricing_plan_id":"free"},{"bike_id":"474f30e4-26be-41ba-9fef-fb821352252e","system_id":"levelo_inurba_marseille","lat":43.2479,"lon":5.374457,"is_reserved":false,"is_disabled":false,"rental_uris":{"android":"levelo://app?vid=474f30e4-26be-41ba-9fef-fb821352252e","ios":"levelo://app?vid=474f30e4-26be-41ba-9fef-fb821352252e"},"vehicle_type_id":"4","last_reported":1704121616,"current_range_meters":13600,"station_id":"ce4bhgh2rcd13ifvqfb0","pricing_plan_id":"free"},{"bike_id":"c1743a2c-61e7-4a7e-9f80-73d8cf77be75","system_id":"levelo_inurba_marseille","lat":43.257079,"lon":5.411051,"is_reserved":false,"is_disabled":false,"rental_uris":{"android":"levelo://app?vid=c1743a2c-61e7-4a7e-9f80-73d8cf77be75","ios":"levelo://app?vid=c1743a2c-61e7-4a7e-9f80-73d8cf77be75"},"vehicle_type_id":"4","last_reported":1704121616,"current_range_meters":25600,"station_id":"ce4bhkp2rcd13ifvqgd0","pricing_plan_id":"free"},{"bike_id":"fe4c8911-87f0-4be2-b903-0d09344a559c","system_id":"levelo_inurba_marseille","lat":43.250966,"lon":5.395186,"is_reserved":false,"is_disabled":false,"rental_uris":{"android":"levelo://app?vid=fe4c8911-87f0-4be2-b903-0d09344a559c","ios":"levelo://app?vid=fe4c8911-87f0-4be2-b903-0d09344a559c"},"vehicle_type_id":"4","last_reported":1704121616,"current_range_meters":26800,"station_id":"ce4bhm12rcd13ifvqgkg","pricing_plan_id":"free"},{"bike_id":"63329b49-21d0-43d5-bd9c-6f215476104a","system_id":"levelo_inurba_marseille","lat":43.24693,"lon":5.382096,"is_reserved":false,"is_disabled":false,"rental_uris":{"android":"levelo://app?vid=63329b49-21d0-43d5-bd9c-6f215476104a","ios":"levelo://app?vid=63329b49-21d0-43d5-bd9c-6f215476104a"},"vehicle_type_id":"4","last_reported":1704121616,"current_range_meters":13200,"station_id":"ce4bhih2rcd13ifvqfr0","pricing_plan_id":"free"},{"bike_id":"180313ca-569d-4e0d-ab0b-bc36edc0e56b","system_id":"levelo_inurba_marseille","lat":43.243884,"lon":5.370737,"is_reserved":false,"is_disabled":false,"rental_uris":{"android":"levelo://app?vid=180313ca-569d-4e0d-ab0b-bc36edc0e56b","ios":"levelo://app?vid=180313ca-569d-4e0d-ab0b-bc36edc0e56b"},"vehicle_type_id":"4","last_reported":1704121616,"current_range_meters":31200,"station_id":"ce4bhhh2rcd13ifvqfk0","pricing_plan_id":"free"},{"bike_id":"013b6576-2cad-4d84-a227-ff86eb17f2c3","system_id":"levelo_inurba_marseille","lat":43.243884,"lon":5.370736,"is_reserved":false,"is_disabled":false,"rental_uris":{"android":"levelo://app?vid=013b6576-2cad-4d84-a227-ff86eb17f2c3","ios":"levelo://app?vid=013b6576-2cad-4d84-a227-ff86eb17f2c3"},"vehicle_type_id":"4","last_reported":1704121616,"current_range_meters":28800,"station_id":"ce4bhhh2rcd13ifvqfk0","pricing_plan_id":"free"},{"bike_id":"e6d2f590-d531-4c5f-bb46-ec9899830e63","system_id":"levelo_inurba_marseille","lat":43.243884,"lon":5.370736,"is_reserved":false,"is_disabled":false,"rental_uris":{"android":"levelo://app?vid=e6d2f590-d531-4c5f-bb46-ec9899830e63","ios":"levelo://app?vid=e6d2f590-d531-4c5f-bb46-ec9899830e63"},"vehicle_type_id":"4","last_reported":1704121616,"current_range_meters":18800,"station_id":"ce4bhhh2rcd13ifvqfk0","pricing_plan_id":"free"},{"bike_id":"3dc4b1b8-2b5b-4811-96fd-f95d367653f8","system_id":"levelo_inurba_marseille","lat":43.243884,"lon":5.370736,"is_reserved":false,"is_disabled":false,"rental_uris":{"android":"levelo://app?vid=3dc4b1b8-2b5b-4811-96fd-f95d367653f8","ios":"levelo://app?vid=3dc4b1b8-2b5b-4811-96fd-f95d367653f8"},"vehicle_type_id":"4","last_reported":1704121616,"current_range_meters":26000,"station_id":"ce4bhhh2rcd13ifvqfk0","pricing_plan_id":"free"},{"bike_id":"fba0ad2c-017b-475a-9518-10ef1e1b21c8","system_id":"levelo_inurba_marseille","lat":43.245581,"lon":5.395069,"is_reserved":false,"is_disabled":false,"rental_uris":{"android":"levelo://app?vid=fba0ad2c-017b-475a-9518-10ef1e1b21c8","ios":"levelo://app?vid=fba0ad2c-017b-475a-9518-10ef1e1b21c8"},"vehicle_type_id":"4","last_reported":1704121616,"current_range_meters":30000,"station_id":"ce4bhlp2rcd13ifvqgjg","pricing_plan_id":"free"},{"bike_id":"405ac0c7-f44c-487c-ba7d-dc956496380a","system_id":"levelo_inurba_marseille","lat":43.245581,"lon":5.395069,"is_reserved":false,"is_disabled":false,"rental_uris":{"android":"levelo://app?vid=405ac0c7-f44c-487c-ba7d-dc956496380a","ios":"levelo://app?vid=405ac0c7-f44c-487c-ba7d-dc956496380a"},"vehicle_type_id":"4","last_reported":1704121616,"current_range_meters":30400,"station_id":"ce4bhlp2rcd13ifvqgjg","pricing_plan_id":"free"},{"bike_id":"342e4bf6-74af-4c04-863a-b76d0a0eae08","system_id":"levelo_inurba_marseille","lat":43.245581,"lon":5.395069,"is_reserved":false,"is_disabled":false,"rental_uris":{"android":"levelo://app?vid=342e4bf6-74af-4c04-863a-b76d0a0eae08","ios":"levelo://app?vid=342e4bf6-74af-4c04-863a-b76d0a0eae08"},"vehicle_type_id":"4","last_reported":1704121616,"current_range_meters":20400,"station_id":"ce4bhlp2rcd13ifvqgjg","pricing_plan_id":"free"},{"bike_id":"d12a419b-badc-49e5-9eaa-1a3f80959f79","system_id":"levelo_inurba_marseille","lat":43.245581,"lon":5.395069,"is_reserved":false,"is_disabled":false,"rental_uris":{"android":"levelo://app?vid=d12a419b-badc-49e5-9eaa-1a3f80959f79","ios":"levelo://app?vid=d12a419b-badc-49e5-9eaa-1a3f80959f79"},"vehicle_type_id":"4","last_reported":1704121616,"current_range_meters":18400,"station_id":"ce4bhlp2rcd13ifvqgjg","pricing_plan_id":"free"},{"bike_id":"ded8e85e-4d53-49fb-ac71-d49d2b329f44","system_id":"levelo_inurba_marseille","lat":43.245581,"lon":5.395069,"is_reserved":false,"is_disabled":false,"rental_uris":{"android":"levelo://app?vid=ded8e85e-4d53-49fb-ac71-d49d2b329f44","ios":"levelo://app?vid=ded8e85e-4d53-49fb-ac71-d49d2b329f44"},"vehicle_type_id":"4","last_reported":1704121616,"current_range_meters":2000,"station_id":"ce4bhlp2rcd13ifvqgjg","pricing_plan_id":"free"},{"bike_id":"8af763bd-0a08-4239-a8d0-a17a5ef8776c","system_id":"levelo_inurba_marseille","lat":43.240623,"lon":5.377642,"is_reserved":false,"is_disabled":false,"rental_uris":{"android":"levelo://app?vid=8af763bd-0a08-4239-a8d0-a17a5ef8776c","ios":"levelo://app?vid=8af763bd-0a08-4239-a8d0-a17a5ef8776c"},"vehicle_type_id":"4","last_reported":1704121616,"current_range_meters":16400,"station_id":"ce4bhnp2rcd13ifvqgvg","pricing_plan_id":"free"},{"bike_id":"89a24668-b749-44db-a458-993b77d3e5d0","system_id":"levelo_inurba_marseille","lat":43.239716,"lon":5.366254,"is_reserved":false,"is_disabled":false,"rental_uris":{"android":"levelo://app?vid=89a24668-b749-44db-a458-993b77d3e5d0","ios":"levelo://app?vid=89a24668-b749-44db-a458-993b77d3e5d0"},"vehicle_type_id":"4","last_reported":1704121616,"current_range_meters":31200,"station_id":"ce4bhi12rcd13ifvqfp0","pricing_plan_id":"free"},{"bike_id":"b5b01bd5-6f14-40eb-a61a-3b01d17b0ca3","system_id":"levelo_inurba_marseille","lat":43.239711,"lon":5.366246,"is_reserved":false,"is_disabled":false,"rental_uris":{"android":"levelo://app?vid=b5b01bd5-6f14-40eb-a61a-3b01d17b0ca3","ios":"levelo://app?vid=b5b01bd5-6f14-40eb-a61a-3b01d17b0ca3"},"vehicle_type_id":"4","last_reported":1704121616,"current_range_meters":21200,"station_id":"ce4bhi12rcd13ifvqfp0","pricing_plan_id":"free"},{"bike_id":"88529da0-168f-4d83-96c0-be310b30c829","system_id":"levelo_inurba_marseille","lat":43.239651,"lon":5.366219,"is_reserved":false,"is_disabled":false,"rental_uris":{"android":"levelo://app?vid=88529da0-168f-4d83-96c0-be310b30c829","ios":"levelo://app?vid=88529da0-168f-4d83-96c0-be310b30c829"},"vehicle_type_id":"4","last_reported":1704121616,"current_range_meters":27600,"station_id":"ce4bhi12rcd13ifvqfp0","pricing_plan_id":"free"},{"bike_id":"56ec463f-b8b9-4cfd-90ce-f872c4bc185d","system_id":"levelo_inurba_marseille","lat":43.239649,"lon":5.366236,"is_reserved":false,"is_disabled":false,"rental_uris":{"android":"levelo://app?vid=56ec463f-b8b9-4cfd-90ce-f872c4bc185d","ios":"levelo://app?vid=56ec463f-b8b9-4cfd-90ce-f872c4bc185d"},