{"last_updated":1714565633,"ttl":30,"version":"2.2","data":{"bikes":[{"bike_id":"d944751c-b763-4e61-a7e0-9bbcab0d22c6","system_id":"levelo_inurba_marseille","lat":43.313391,"lon":5.36706,"is_reserved":false,"is_disabled":false,"rental_uris":{"android":"levelo://app?vid=d944751c-b763-4e61-a7e0-9bbcab0d22c6","ios":"levelo://app?vid=d944751c-b763-4e61-a7e0-9bbcab0d22c6"},"vehicle_type_id":"4","last_reported":1714565633,"current_range_meters":16400,"station_id":"ce4bgr92rcd13ifvqc6g","pricing_plan_id":"cebpf4jnsgd1na2vs0mg"},{"bike_id":"534594db-23c9-4c7f-9646-1db86381f06d","system_id":"levelo_inurba_marseille","lat":43.312239,"lon":5.368562,"is_reserved":false,"is_disabled":false,"rental_uris":{"android":"levelo://app?vid=534594db-23c9-4c7f-9646-1db86381f06d","ios":"levelo://app?vid=534594db-23c9-4c7f-9646-1db86381f06d"},"vehicle_type_id":"4","last_reported":1714565633,"current_range_meters":4000,"station_id":"ce4bgl92rcd13ifvqbq0","pricing_plan_id":"cebpf4jnsgd1na2vs0mg"},{"bike_id":"7813f34d-8f46-4a92-a080-0d5c7185fc78","system_id":"levelo_inurba_marseille","lat":43.31341,"lon":5.367098,"is_reserved":false,"is_disabled":false,"rental_uris":{"android":"levelo://app?vid=7813f34d-8f46-4a92-a080-0d5c7185fc78","ios":"levelo://app?vid=7813f34d-8f46-4a92-a080-0d5c7185fc78"},"vehicle_type_id":"4","last_reported":1714565633,"current_range_meters":0,"station_id":"ce4bgr92rcd13ifvqc6g","pricing_plan_id":"cebpf4jnsgd1na2vs0mg"},{"bike_id":"47a9397d-2991-4cfa-87ce-201273b877a1","system_id":"levelo_inurba_marseille","lat":43.312239,"lon":5.368562,"is_reserved":false,"is_disabled":false,"rental_uris":{"android":"levelo://app?vid=47a9397d-2991-4cfa-87ce-201273b877a1","ios":"levelo://app?vid=47a9397d-2991-4cfa-87ce-201273b877a1"},"vehicle_type_id":"4","last_reported":1714565633,"current_range_meters":19600,"station_id":"ce4bgl92rcd13ifvqbq0","pricing_plan_id":"cebpf4jnsgd1na2vs0mg"},{"bike_id":"e491c518-e9b5-41a6-a7a9-5e31268bae60","system_id":"levelo_inurba_marseille","lat":43.312239,"lon":5.368562,"is_reserved":false,"is_disabled":false,"rental_uris":{"android":"levelo://app?vid=e491c518-e9b5-41a6-a7a9-5e31268bae60","ios":"levelo://app?vid=e491c518-e9b5-41a6-a7a9-5e31268bae60"},"vehicle_type_id":"4","last_reported":1714565633,"current_range_meters":6400,"station_id":"ce4bgl92rcd13ifvqbq0","pricing_plan_id":"cebpf4jnsgd1na2vs0mg"},{"bike_id":"fc9d75e7-d2c7-4e30-b9ba-1f655ebe2d91","system_id":"levelo_inurba_marseille","lat":43.312239,"lon":5.368562,"is_reserved":false,"is_disabled":false,"rental_uris":{"android":"levelo://app?vid=fc9d75e7-d2c7-4e30-b9ba-1f655ebe2d91","ios":"levelo://app?vid=fc9d75e7-d2c7-4e30-b9ba-1f655ebe2d91"},"vehicle_type_id":"4","last_reported":1714565633,"current_range_meters":21600,"station_id":"ce4bgl92rcd13ifvqbq0","pricing_plan_id":"cebpf4jnsgd1na2vs0mg"},{"bike_id":"92d2eb52-f350-4018-8351-b847c493d2cd","system_id":"levelo_inurba_marseille","lat":43.312239,"lon":5.368562,"is_reserved":false,"is_disabled":false,"rental_uris":{"android":"levelo://app?vid=92d2eb52-f350-4018-8351-b847c493d2cd","ios":"levelo://app?vid=92d2eb52-f350-4018-8351-b847c493d2cd"},"vehicle_type_id":"4","last_reported":1714565633,"current_range_meters":15200,"station_id":"ce4bgl92rcd13ifvqbq0","pricing_plan_id":"cebpf4jnsgd1na2vs0mg"},{"bike_id":"8f05130e-02af-4f33-8401-8b09e33c9c11","system_id":"levelo_inurba_marseille","lat":43.312239,"lon":5.368562,"is_reserved":false,"is_disabled":false,"rental_uris":{"android":"levelo://app?vid=8f05130e-02af-4f33-8401-8b09e33c9c11","ios":"levelo://app?vid=8f05130e-02af-4f33-8401-8b09e33c9c11"},"vehicle_type_id":"4","last_reported":1714565633,"current_range_meters":0,"station_id":"ce4bgl92rcd13ifvqbq0","pricing_plan_id":"cebpf4jnsgd1na2vs0mg"},{"bike_id":"628768c8-c69b-45a5-8b37-28240c7f4af3","system_id":"levelo_inurba_marseille","lat":43.312239,"lon":5.368562,"is_reserved":false,"is_disabled":false,"rental_uris":{"android":"levelo://app?vid=628768c8-c69b-45a5-8b37-28240c7f4af3","ios":"levelo://app?vid=628768c8-c69b-45a5-8b37-28240c7f4af3"},"vehicle_type_id":"4","last_reported":1714565633,"current_range_meters":25200,"station_id":"ce4bgl92rcd13ifvqbq0","pricing_plan_id":"cebpf4jnsgd1na2vs0mg"},{"bike_id":"5d67813d-aca9-466b-af43-07cd8a3cd0d5","system_id":"levelo_inurba_marseille","lat":43.312239,"lon":5.368562,"is_reserved":false,"is_disabled":false,"rental_uris":{"android":"levelo://app?vid=5d67813d-aca9-466b-af43-07cd8a3cd0d5","ios":"levelo://app?vid=5d67813d-aca9-466b-af43-07cd8a3cd0d5"},"vehicle_type_id":"4","last_reported":1714565633,"current_range_meters":25600,"station_id":"ce4bgl92rcd13ifvqbq0","pricing_plan_id":"cebpf4jnsgd1na2vs0mg"},{"bike_id":"44aee295-0cb7-459c-97d6-a2c960341925","system_id":"levelo_inurba_marseille","lat":43.309076,"lon":5.368465,"is_reserved":false,"is_disabled":false,"rental_uris":{"android":"levelo://app?vid=44aee295-0cb7-459c-97d6-a2c960341925","ios":"levelo://app?vid=44aee295-0cb7-459c-97d6-a2c960341925"},"vehicle_type_id":"4","last_reported":1714565633,"current_range_meters":27200,"station_id":"ce4bgn92rcd13ifvqbvg","pricing_plan_id":"cebpf4jnsgd1na2vs0mg"},{"bike_id":"80ce00ef-4d64-451c-b953-d649709943b3","system_id":"levelo_inurba_marseille","lat":43.30909,"lon":5.36853,"is_reserved":false,"is_disabled":false,"rental_uris":{"android":"levelo://app?vid=80ce00ef-4d64-451c-b953-d649709943b3","ios":"levelo://app?vid=80ce00ef-4d64-451c-b953-d649709943b3"},"vehicle_type_id":"4","last_reported":1714565633,"current_range_meters":0,"station_id":"ce4bgn92rcd13ifvqbvg","pricing_plan_id":"cebpf4jnsgd1na2vs0mg"},{"bike_id":"0a0eb501-b7c7-4a50-9900-c6132cbc5c4a","system_id":"levelo_inurba_marseille","lat":43.309076,"lon":5.368465,"is_reserved":false,"is_disabled":false,"rental_uris":{"android":"levelo://app?vid=0a0eb501-b7c7-4a50-9900-c6132cbc5c4a","ios":"levelo://app?vid=0a0eb501-b7c7-4a50-9900-c6132cbc5c4a"},"vehicle_type_id":"4","last_reported":1714565633,"current_range_meters":31200,"station_id":"ce4bgn92rcd13ifvqbvg","pricing_plan_id":"cebpf4jnsgd1na2vs0mg"},{"bike_id":"e2d8f4e3-22d6-4745-bad7-13e32d319a42","system_id":"levelo_inurba_marseille","lat":43.31498,"lon":5.37313,"is_reserved":false,"is_disabled":false,"rental_uris":{"android":"levelo://app?vid=e2d8f4e3-22d6-4745-bad7-13e32d319a42","ios":"levelo://app?vid=e2d8f4e3-22d6-4745-bad7-13e32d319a42"},"vehicle_type_id":"4","last_reported":1714565633,"current_range_meters":10000,"station_id":"ce4bgt12rcd13ifvqcd0","pricing_plan_id":"cebpf4jnsgd1na2vs0mg"},{"bike_id":"a06f7976-c9b3-4d83-82e1-96f6bf3b121f","system_id":"levelo_inurba_marseille","lat":43.309039,"lon":5.371797,"is_reserved":false,"is_disabled":false,"rental_uris":{"android":"levelo://app?vid=a06f7976-c9b3-4d83-82e1-96f6bf3b121f","ios":"levelo://app?vid=a06f7976-c9b3-4d83-82e1-96f6bf3b121f"},"vehicle_type_id":"4","last_reported":1714565633,"current_range_meters":21600,"station_id":"ce4bguh2rcd13ifvqckg","pricing_plan_id":"cebpf4jnsgd1na2vs0mg"},{"bike_id":"152e1763-fe99-49a1-a3cf-f705fddf2c69","system_id":"levelo_inurba_marseille","lat":43.305712,"lon":5.365641,"is_reserved":false,"is_disabled":false,"rental_uris":{"android":"levelo://app?vid=152e1763-fe99-49a1-a3cf-f705fddf2c69","ios":"levelo://app?vid=152e1763-fe99-49a1-a3cf-f705fddf2c69"},"vehicle_type_id":"4","last_reported":1714565633,"current_range_meters":31200,"station_id":"ce4bgs12rcd13ifvqcag","pricing_plan_id":"cebpf4jnsgd1na2vs0mg"},{"bike_id":"3c85d146-f15c-4b7b-8cd2-8e537769c49f","system_id":"levelo_inurba_marseille","lat":43.305712,"lon":5.365641,"is_reserved":false,"is_disabled":false,"rental_uris":{"android":"levelo://app?vid=3c85d146-f15c-4b7b-8cd2-8e537769c49f","ios":"levelo://app?vid=3c85d146-f15c-4b7b-8cd2-8e537769c49f"},"vehicle_type_id":"4","last_reported":1714565633,"current_range_meters":28000,"station_id":"ce4bgs12rcd13ifvqcag","pricing_plan_id":"cebpf4jnsgd1na2vs0mg"},{"bike_id":"57592ee7-d1cc-426e-ada3-c6bd4d1730b6","system_id":"levelo_inurba_marseille","lat":43.305712,"lon":5.365641,"is_reserved":false,"is_disabled":false,"rental_uris":{"android":"levelo://app?vid=57592ee7-d1cc-426e-ada3-c6bd4d1730b6","ios":"levelo://app?vid=57592ee7-d1cc-426e-ada3-c6bd4d1730b6"},"vehicle_type_id":"4","last_reported":1714565633,"current_range_meters":14000,"station_id":"ce4bgs12rcd13ifvqcag","pricing_plan_id":"cebpf4jnsgd1na2vs0mg"},{"bike_id":"19922a60-848d-4fb3-b88b-595d7c84e4ef","system_id":"levelo_inurba_marseille","lat":43.305712,"lon":5.365641,"is_reserved":false,"is_disabled":false,"rental_uris":{"android":"levelo://app?vid=19922a60-848d-4fb3-b88b-595d7c84e4ef","ios":"levelo://app?vid=19922a60-848d-4fb3-b88b-595d7c84e4ef"},"vehicle_type_id":"4","last_reported":1714565633,"current_range_meters":4800,"station_id":"ce4bgs12rcd13ifvqcag","pricing_plan_id":"cebpf4jnsgd1na2vs0mg"},{"bike_id":"21ba9709-2107-4a3a-86f2-36a2396c3051","system_id":"levelo_inurba_marseille","lat":43.305714,"lon":5.365633,"is_reserved":false,"is_disabled":false,"rental_uris":{"android":"levelo://app?vid=21ba9709-2107-4a3a-86f2-36a2396c3051","ios":"levelo://app?vid=21ba9709-2107-4a3a-86f2-36a2396c3051"},"vehicle_type_id":"4","last_reported":1714565633,"current_range_meters":30800,"station_id":"ce4bgs12rcd13ifvqcag","pricing_plan_id":"cebpf4jnsgd1na2vs0mg"},{"bike_id":"032dad85-f6bd-4825-8bff-82e95fa8de43","system_id":"levelo_inurba_marseille","lat":43.305714,"lon":5.365633,"is_reserved":false,"is_disabled":false,"rental_uris":{"android":"levelo://app?vid=032dad85-f6bd-4825-8bff-82e95fa8de43","ios":"levelo://app?vid=032dad85-f6bd-4825-8bff-82e95fa8de43"},"vehicle_type_id":"4","last_reported":1714565633,"current_range_meters":25600,"station_id":"ce4bgs12rcd13ifvqcag","pricing_plan_id":"cebpf4jnsgd1na2vs0mg"},{"bike_id":"4749c549-3cec-4abd-9976-88dc1150d8c5","system_id":"levelo_inurba_marseille","lat":43.305714,"lon":5.365633,"is_reserved":false,"is_disabled":false,"rental_uris":{"android":"levelo://app?vid=4749c549-3cec-4abd-9976-88dc1150d8c5","ios":"levelo://app?vid=4749c549-3cec-4abd-9976-88dc1150d8c5"},"vehicle_type_id":"4","last_reported":1714565633,"current_range_meters":0,"station_id":"ce4bgs12rcd13ifvqcag","pricing_plan_id":"cebpf4jnsgd1na2vs0mg"},{"bike_id":"aec27b6c-d321-4f90-b0cc-6c8b360ce97a","system_id":"levelo_inurba_marseille","lat":43.305714,"lon":5.365633,"is_reserved":false,"is_disabled":false,"rental_uris":{"android":"levelo://app?vid=aec27b6c-d321-4f90-b0cc-6c8b360ce97a","ios":"levelo://app?vid=aec27b6c-d321-4f90-b0cc-6c8b360ce97a"},"vehicle_type_id":"4","last_reported":1714565633,"current_range_meters":29600,"station_id":"ce4bgs12rcd13ifvqcag","pricing_plan_id":"cebpf4jnsgd1na2vs0mg"},{"bike_id":"c241b5a9-637a-4aba-a761-06d6968c22a1","system_id":"levelo_inurba_marseille","lat":43.305706,"lon":5.365654,"is_reserved":false,"is_disabled":false,"rental_uris":{"android":"levelo://app?vid=c241b5a9-637a-4aba-a761-06d6968c22a1","ios":"levelo://app?vid=c241b5a9-637a-4aba-a761-06d6968c22a1"},"vehicle_type_id":"4","last_reported":1714565633,"current_range_meters":25600,"station_id":"ce4bgs12rcd13ifvqcag","pricing_plan_id":"cebpf4jnsgd1na2vs0mg"},{"bike_id":"236d1cd7-dbbf-4d13-a25c-904021658808","system_id":"levelo_inurba_marseille","lat":43.305706,"lon":5.365654,"is_reserved":false,"is_disabled":false,"rental_uris":{"android":"levelo://app?vid=236d1cd7-dbbf-4d13-a25c-904021658808","ios":"levelo://app?vid=236d1cd7-dbbf-4d13-a25c-904021658808"},"vehicle_type_id":"4","last_reported":1714565633,"current_range_meters":25600,"station_id":"ce4bgs12rcd13ifvqcag","pricing_plan_id":"cebpf4jnsgd1na2vs0mg"},{"bike_id":"87c23914-4c4c-4433-952b-28b6bec55415","system_id":"levelo_inurba_marseille","lat":43.305706,"lon":5.365654,"is_reserved":false,"is_disabled":false,"rental_uris":{"android":"levelo://app?vid=87c23914-4c4c-4433-952b-28b6bec55415","ios":"levelo://app?vid=87c23914-4c4c-4433-952b-28b6bec55415"},"vehicle_type_id":"4","last_reported":1714565633,"current_range_meters":30400,"station_id":"ce4bgs12rcd13ifvqcag","pricing_plan_id":"cebpf4jnsgd1na2vs0mg"},{"bike_id":"9f7c764e-87db-41e4-9b4f-c1059e8d72e8","system_id":"levelo_inurba_marseille","lat":43.305706,"lon":5.365654,"is_reserved":false,"is_disabled":false,"rental_uris":{"android":"levelo://app?vid=9f7c764e-87db-41e4-9b4f-c1059e8d72e8","ios":"levelo://app?vid=9f7c764e-87db-41e4-9b4f-c1059e8d72e8"},"vehicle_type_id":"4","last_reported":1714565633,"current_range_meters":27200,"station_id":"ce4bgs12rcd13ifvqcag","pricing_plan_id":"cebpf4jnsgd1na2vs0mg"},{"bike_id":"652ac7c6-66c6-46c7-b300-8d83aae66435","system_id":"levelo_inurba_marseille","lat":43.305706,"lon":5.365654,"is_reserved":false,"is_disabled":false,"rental_uris":{"android":"levelo://app?vid=652ac7c6-66c6-46c7-b300-8d83aae66435","ios":"levelo://app?vid=652ac7c6-66c6-46c7-b300-8d83aae66435"},"vehicle_type_id":"4","last_reported":1714565633,"current_range_meters":14400,"station_id":"ce4bgs12rcd13ifvqcag","pricing_plan_id":"cebpf4jnsgd1na2vs0mg"},{"bike_id":"38329cf6-90ac-498e-b19e-ca01e1c114c1","system_id":"levelo_inurba_marseille","lat":43.305706,"lon":5.365654,"is_reserved":false,"is_disabled":false,"rental_uris":{"android":"levelo://app?vid=38329cf6-90ac-498e-b19e-ca01e1c114c1","ios":"levelo://app?vid=38329cf6-90ac-498e-b19e-ca01e1c114c1"},"vehicle_type_id":"4","last_reported":1714565633,"current_range_meters":6400,"station_id":"ce4bgs12rcd13ifvqcag","pricing_plan_id":"cebpf4jnsgd1na2vs0mg"},{"bike_id":"3a661ece-5faa-4d82-8339-1eca738c23d4","system_id":"levelo_inurba_marseille","lat":43.311131,"lon":5.377651,"is_reserved":false,"is_disabled":false,"rental_uris":{"android":"levelo://app?vid=3a661ece-5faa-4d82-8339-1eca738c23d4","ios":"levelo://app?vid=3a661ece-5faa-4d82-8339-1eca738c23d4"},"vehicle_type_id":"4","last_reported":1714565633,"current_range_meters":1600,"station_id":"ce4bgt92rcd13ifvqcg0","pricing_plan_id":"cebpf4jnsgd1na2vs0mg"},{"bike_id":"206adb2c-d1d1-4c1b-bd42-5b7015969672","system_id":"levelo_inurba_marseille","lat":43.30602,"lon":5.37228,"is_reserved":false,"is_disabled":false,"rental_uris":{"android":"levelo://app?vid=206adb2c-d1d1-4c1b-bd42-5b7015969672","ios":"levelo://app?vid=206adb2c-d1d1-4c1b-bd42-5b7015969672"},"vehicle_type_id":"4","last_reported":1714565633,"current_range_meters":0,"station_id":"ce4bgqh2rcd13ifvqc4g","pricing_plan_id":"cebpf4jnsgd1na2vs0mg"},{"bike_id":"df154f38-a34e-459a-aa74-3a6615199a58","system_id":"levelo_inurba_marseille","lat":43.3059,"lon":5.37215,"is_reserved":false,"is_disabled":false,"rental_uris":{"android":"levelo://app?vid=df154f38-a34e-459a-aa74-3a6615199a58","ios":"levelo://app?vid=df154f38-a34e-459a-aa74-3a6615199a58"},"vehicle_type_id":"4","last_reported":1714565633,"current_range_meters":0,"station_id":"ce4bgqh2rcd13ifvqc4g","pricing_plan_id":"cebpf4jnsgd1na2vs0mg"},{"bike_id":"1c1dad86-06ee-4bf5-9beb-ef6446dc820a","system_id":"levelo_inurba_marseille","lat":43.307945,"lon":5.376487,"is_reserved":false,"is_disabled":false,"rental_uris":{"android":"levelo://app?vid=1c1dad86-06ee-4bf5-9beb-ef6446dc820a","ios":"levelo://app?vid=1c1dad86-06ee-4bf5-9beb-ef6446dc820a"},"vehicle_type_id":"4","last_reported":1714565633,"current_range_meters":0,"station_id":"ce4bgv92rcd13ifvqcq0","pricing_plan_id":"cebpf4jnsgd1na2vs0mg"},{"bike_id":"b89fb175-fb0f-4930-a865-78305887e57f","system_id":"levelo_inurba_marseille","lat":43.307945,"lon":5.376487,"is_reserved":false,"is_disabled":false,"rental_uris":{"android":"levelo://app?vid=b89fb175-fb0f-4930-a865-78305887e57f","ios":"levelo://app?vid=b89fb175-fb0f-4930-a865-78305887e57f"},"vehicle_type_id":"4","last_reported":1714565633,"current_range_meters":21200,"station_id":"ce4bgv92rcd13ifvqcq0","pricing_plan_id":"cebpf4jnsgd1na2vs0mg"},{"bike_id":"553b0ff0-dc6a-48b1-a026-a2bd3f529643","system_id":"levelo_inurba_marseille","lat":43.307945,"lon":5.376487,"is_reserved":false,"is_disabled":false,"rental_uris":{"android":"levelo://app?vid=553b0ff0-dc6a-48b1-a026-a2bd3f529643","ios":"levelo://app?vid=553b0ff0-dc6a-48b1-a026-a2bd3f529643"},"vehicle_type_id":"4","last_reported":1714565633,"current_range_meters":0,"station_id":"ce4bgv92rcd13ifvqcq0","pricing_plan_id":"cebpf4jnsgd1na2vs0mg"},{"bike_id":"93a36ab8-f4a8-4566-9604-fd72ae766b8e","system_id":"levelo_inurba_marseille","lat":43.307945,"lon":5.376487,"is_reserved":false,"is_disabled":false,"rental_uris":{"android":"levelo://app?vid=93a36ab8-f4a8-4566-9604-fd72ae766b8e","ios":"levelo://app?vid=93a36ab8-f4a8-4566-9604-fd72ae766b8e"},"vehicle_type_id":"4","last_reported":1714565633,"current_range_meters":24400,"station_id":"ce4bgv92rcd13ifvqcq0","pricing_plan_id":"cebpf4jnsgd1na2vs0mg"},{"bike_id":"cd504a8b-cc24-4154-a73d-8147ca906fdd","system_id":"levelo_inurba_marseille","lat":43.306051,"lon":5.37442,"is_reserved":false,"is_disabled":false,"rental_uris":{"android":"levelo://app?vid=cd504a8b-cc24-4154-a73d-8147ca906fdd","ios":"levelo://app?vid=cd504a8b-cc24-4154-a73d-8147ca906fdd"},"vehicle_type_id":"4","last_reported":1714565633,"current_range_meters":21600,"station_id":"","pricing_plan_id":"cebpf4jnsgd1na2vs0mg"},{"bike_id":"4bddb212-954f-4511-b2b3-b7cf7216648c","system_id":"levelo_inurba_marseille","lat":43.317075,"lon":5.377367,"is_reserved":false,"is_disabled":false,"rental_uris":{"android":"levelo://app?vid=4bddb212-954f-4511-b2b3-b7cf7216648c","ios":"levelo://app?vid=4bddb212-954f-4511-b2b3-b7cf7216648c"},"vehicle_type_id":"4","last_reported":1714565633,"current_range_meters":5200,"station_id":"ce4bgth2rcd13ifvqch0","pricing_plan_id":"cebpf4jnsgd1na2vs0mg"},{"bike_id":"604ac29d-d859-4abd-a70e-54cf4b756b35","system_id":"levelo_inurba_marseille","lat":43.317075,"lon":5.377367,"is_reserved":false,"is_disabled":false,"rental_uris":{"android":"levelo://app?vid=604ac29d-d859-4abd-a70e-54cf4b756b35","ios":"levelo://app?vid=604ac29d-d859-4abd-a70e-54cf4b756b35"},"vehicle_type_id":"4","last_reported":1714565633,"current_range_meters":27600,"station_id":"ce4bgth2rcd13ifvqch0","pricing_plan_id":"cebpf4jnsgd1na2vs0mg"},{"bike_id":"4ee60a04-ed89-48bd-b443-561f10b2a85f","system_id":"levelo_inurba_marseille","lat":43.317097,"lon":5.377554,"is_reserved":false,"is_disabled":false,"rental_uris":{"android":"levelo://app?vid=4ee60a04-ed89-48bd-b443-561f10b2a85f","ios":"levelo://app?vid=4ee60a04-ed89-48bd-b443-561f10b2a85f"},"vehicle_type_id":"4","last_reported":1714565633,"current_range_meters":1600,"station_id":"ce4bgth2rcd13ifvqch0","pricing_plan_id":"cebpf4jnsgd1na2vs0mg"},{"bike_id":"164a693c-6743-4f57-8283-f63523ffeedc","system_id":"levelo_inurba_marseille","lat":43.31705,"lon":5.37759,"is_reserved":false,"is_disabled":false,"rental_uris":{"android":"levelo://app?vid=164a693c-6743-4f57-8283-f63523ffeedc","ios":"levelo://app?vid=164a693c-6743-4f57-8283-f63523ffeedc"},"vehicle_type_id":"4","last_reported":1714565633,"current_range_meters":11200,"station_id":"ce4bgth2rcd13ifvqch0","pricing_plan_id":"cebpf4jnsgd1na2vs0mg"},{"bike_id":"8a536011-c98f-46ed-8ba2-0864766b4488","system_id":"levelo_inurba_marseille","lat":43.303046,"lon":5.368981,"is_reserved":false,"is_disabled":false,"rental_uris":{"android":"levelo://app?vid=8a536011-c98f-46ed-8ba2-0864766b4488","ios":"levelo://app?vid=8a536011-c98f-46ed-8ba2-0864766b4488"},"vehicle_type_id":"4","last_reported":1714565633,"current_range_meters":24400,"station_id":"ce4bgqh2rcd13ifvqc5g","pricing_plan_id":"cebpf4jnsgd1na2vs0mg"},{"bike_id":"183af1fe-a5cd-4558-a770-d0985a6f786f","system_id":"levelo_inurba_marseille","lat":43.315293,"lon":5.380349,"is_reserved":false,"is_disabled":false,"rental_uris":{"android":"levelo://app?vid=183af1fe-a5cd-4558-a770-d0985a6f786f","ios":"levelo://app?vid=183af1fe-a5cd-4558-a770-d0985a6f786f"},"vehicle_type_id":"4","last_reported":1714565633,"current_range_meters":30000,"station_id":"ce4bhsp2rcd13ifvqi50","pricing_plan_id":"cebpf4jnsgd1na2vs0mg"},{"bike_id":"ebc5f2e4-2d70-420a-ae29-0a32a2f301f3","system_id":"levelo_inurba_marseille","lat":43.301939,"lon":5.366286,"is_reserved":false,"is_disabled":false,"rental_uris":{"android":"levelo://app?vid=ebc5f2e4-2d70-420a-ae29-0a32a2f301f3","ios":"levelo://app?vid=ebc5f2e4-2d70-420a-ae29-0a32a2f301f3"},"vehicle_type_id":"4","last_reported":1714565633,"current_range_meters":31200,"station_id":"ce4bgrh2rcd13ifvqc8g","pricing_plan_id":"cebpf4jnsgd1na2vs0mg"},{"bike_id":"44179ebd-b417-45dc-9f7c-91d33ff24849","system_id":"levelo_inurba_marseille","lat":43.301939,"lon":5.366286,"is_reserved":false,"is_disabled":false,"rental_uris":{"android":"levelo://app?vid=44179ebd-b417-45dc-9f7c-91d33ff24849","ios":"levelo://app?vid=44179ebd-b417-45dc-9f7c-91d33ff24849"},"vehicle_type_id":"4","last_reported":1714565633,"current_range_meters":23600,"station_id":"ce4bgrh2rcd13ifvqc8g","pricing_plan_id":"cebpf4jnsgd1na2vs0mg"},{"bike_id":"575e2aa5-dbb4-4bf7-9e47-3575dc2c5733","system_id":"levelo_inurba_marseille","lat":43.308012,"lon":5.381511,"is_reserved":false,"is_disabled":false,"rental_uris":{"android":"levelo://app?vid=575e2aa5-dbb4-4bf7-9e47-3575dc2c5733","ios":"levelo://app?vid=575e2aa5-dbb4-4bf7-9e47-3575dc2c5733"},"vehicle_type_id":"4","last_reported":1714565633,"current_range_meters":20000,"station_id":"ce4bgt12rcd13ifvqce0","pricing_plan_id":"cebpf4jnsgd1na2vs0mg"},{"bike_id":"9df02919-6461-4aa9-8a8d-424302fa70c5","system_id":"levelo_inurba_marseille","lat":43.308012,"lon":5.381511,"is_reserved":false,"is_disabled":false,"rental_uris":{"android":"levelo://app?vid=9df02919-6461-4aa9-8a8d-424302fa70c5","ios":"levelo://app?vid=9df02919-6461-4aa9-8a8d-424302fa70c5"},"vehicle_type_id":"4","last_reported":1714565633,"current_range_meters":0,"station_id":"ce4bgt12rcd13ifvqce0","pricing_plan_id":"cebpf4jnsgd1na2vs0mg"},{"bike_id":"e5089ae4-0349-43bb-afe0-9f165c1c67ea","system_id":"levelo_inurba_marseille","lat":43.308012,"lon":5.381511,"is_reserved":false,"is_disabled":false,"rental_uris":{"android":"levelo://app?vid=e5089ae4-0349-43bb-afe0-9f165c1c67ea","ios":"levelo://app?vid=e5089ae4-0349-43bb-afe0-9f165c1c67ea"},"vehicle_type_id":"4","last_reported":1714565633,"current_range_meters":4000,"station_id":"ce4bgt12rcd13ifvqce0","pricing_plan_id":"cebpf4jnsgd1na2vs0mg"},{"bike_id":"da814755-a194-4650-b7a1-e34a7b696375","system_id":"levelo_inurba_marseille","lat":43.304606,"lon":5.379026,"is_reserved":false,"is_disabled":false,"rental_uris":{"android":"levelo://app?vid=da814755-a194-4650-b7a1-e34a7b696375","ios":"levelo://app?vid=da814755-a194-4650-b7a1-e34a7b696375"},"vehicle_type_id":"4","last_reported":1714565633,"current_range_meters":11600,"station_id":"ce4bgup2rcd13ifvqcn0","pricing_plan_id":"cebpf4jnsgd1na2vs0mg"},{"bike_id":"dca0d2d9-9a9e-44e2-aee1-97d83fc307e1","system_id":"levelo_inurba_marseille","lat":43.304606,"lon":5.379026,"is_reserved":false,"is_disabled":false,"rental_uris":{"android":"levelo://app?vid=dca0d2d9-9a9e-44e2-aee1-97d83fc307e1","ios":"levelo://app?vid=dca0d2d9-9a9e-44e2-aee1-97d83fc307e1"},"vehicle_type_id":"4","last_reported":1714565633,"current_range_meters":27200,"station_id":"ce4bgup2rcd13ifvqcn0","pricing_plan_id":"cebpf4jnsgd1na2vs0mg"},{"bike_id":"0ed9891a-a5e6-4cd3-8617-f2559f9ec675","system_id":"levelo_inurba_marseille","lat":43.304606,"lon":5.379026,"is_reserved":false,"is_disabled":false,"rental_uris":{"android":"levelo://app?vid=0ed9891a-a5e6-4cd3-8617-f2559f9ec675","ios":"levelo://app?vid=0ed9891a-a5e6-4cd3-8617-f2559f9ec675"},"vehicle_type_id":"4","last_reported":1714565633,"current_range_meters":8800,"station_id":"ce4bgup2rcd13ifvqcn0","pricing_plan_id":"cebpf4jnsgd1na2vs0mg"},{"bike_id":"8e59c52e-3f0c-4d24-9343-480aae1d086f","system_id":"levelo_inurba_marseille","lat":43.304606,"lon":5.379026,"is_reserved":false,"is_disabled":false,"rental_uris":{"android":"levelo://app?vid=8e59c52e-3f0c-4d24-9343-480aae1d086f","ios":"levelo://app?vid=8e59c52e-3f0c-4d24-9343-480aae1d086f"},"vehicle_type_id":"4","last_reported":1714565633,"current_range_meters":10000,"station_id":"ce4bgup2rcd13ifvqcn0","pricing_plan_id":"cebpf4jnsgd1na2vs0mg"},{"bike_id":"937a6bbc-5fb5-47f2-8fb4-743a833a38c3","system_id":"levelo_inurba_marseille","lat":43.304606,"lon":5.379026,"is_reserved":false,"is_disabled":false,"rental_uris":{"android":"levelo://app?vid=937a6bbc-5fb5-47f2-8fb4-743a833a38c3","ios":"levelo://app?vid=937a6bbc-5fb5-47f2-8fb4-743a833a38c3"},"vehicle_type_id":"4","last_reported":1714565633,"current_range_meters":18400,"station_id":"ce4bgup2rcd13ifvqcn0","pricing_plan_id":"cebpf4jnsgd1na2vs0mg"},{"bike_id":"53a42792-564b-4387-ae2b-32c476faacb4","system_id":"levelo_inurba_marseille","lat":43.304606,"lon":5.379026,"is_reserved":false,"is_disabled":false,"rental_uris":{"android":"levelo://app?vid=53a42792-564b-4387-ae2b-32c476faacb4","ios":"levelo://app?vid=53a42792-564b-4387-ae2b-32c476faacb4"},"vehicle_type_id":"4","last_reported":1714565633,"current_range_meters":19600,"station_id":"ce4bgup2rcd13ifvqcn0","pricing_plan_id":"cebpf4jnsgd1na2vs0mg"},{"bike_id":"d20b1d9a-5e54-4a51-aa66-74fab0eff74e","system_id":"levelo_inurba_marseille","lat":43.304606,"lon":5.379026,"is_reserved":false,"is_disabled":false,"rental_uris":{"android":"levelo://app?vid=d20b1d9a-5e54-4a51-aa66-74fab0eff74e","ios":"levelo://app?vid=d20b1d9a-5e54-4a51-aa66-74fab0eff74e"},"vehicle_type_id":"4","last_reported":1714565633,"current_range_meters":16400,"station_id":"ce4bgup2rcd13ifvqcn0","pricing_plan_id":"cebpf4jnsgd1na2vs0mg"},{"bike_id":"6a6f71cb-1a69-4c76-92f4-7c1e3ae9897c","system_id":"levelo_inurba_marseille","lat":43.304606,"lon":5.379026,"is_reserved":false,"is_disabled":false,"rental_uris":{"android":"levelo://app?vid=6a6f71cb-1a69-4c76-92f4-7c1e3ae9897c","ios":"levelo://app?vid=6a6f71cb-1a69-4c76-92f4-7c1e3ae9897c"},"vehicle_type_id":"4","last_reported":1714565633,"current_range_meters":22000,"station_id":"ce4bgup2rcd13ifvqcn0","pricing_plan_id":"cebpf4jnsgd1na2vs0mg"},{"bike_id":"61f148c8-a6cf-400a-a852-48aa57397481","system_id":"levelo_inurba_marseille","lat":43.304606,"lon":5.379026,"is_reserved":false,"is_disabled":false,"rental_uris":{"android":"levelo://app?vid=61f148c8-a6cf-400a-a852-48aa57397481","ios":"levelo://app?vid=61f148c8-a6cf-400a-a852-48aa57397481"},"vehicle_type_id":"4","last_reported":1714565633,"current_range_meters":11200,"station_id":"ce4bgup2rcd13ifvqcn0","pricing_plan_id":"cebpf4jnsgd1na2vs0mg"},{"bike_id":"6986dc06-43a5-42db-b0d6-8b40c69beb15","system_id":"levelo_inurba_marseille","lat":43.304606,"lon":5.379026,"is_reserved":false,"is_disabled":false,"rental_uris":{"android":"levelo://app?vid=6986dc06-43a5-42db-b0d6-8b40c69beb15","ios":"levelo://app?vid=6986dc06-43a5-42db-b0d6-8b40c69beb15"},"vehicle_type_id":"4","last_reported":1714565633,"current_range_meters":14000,"station_id":"ce4bgup2rcd13ifvqcn0","pricing_plan_id":"cebpf4jnsgd1na2vs0mg"},{"bike_id":"672309a1-679a-42d4-8c5f-40865aa4059b","system_id":"levelo_inurba_marseille","lat":43.304606,"lon":5.379026,"is_reserved":false,"is_disabled":false,"rental_uris":{"android":"levelo://app?vid=672309a1-679a-42d4-8c5f-40865aa4059b","ios":"levelo://app?vid=672309a1-679a-42d4-8c5f-40865aa4059b"},"vehicle_type_id":"4","last_reported":1714565633,"current_range_meters":22400,"station_id":"ce4bgup2rcd13ifvqcn0","pricing_plan_id":"cebpf4jnsgd1na2vs0mg"},{"bike_id":"6e0da1e1-7ac5-4b14-86fc-689fa5c4c571","system_id":"levelo_inurba_marseille","lat":43.304606,"lon":5.379026,"is_reserved":false,"is_disabled":false,"rental_uris":{"android":"levelo://app?vid=6e0da1e1-7ac5-4b14-86fc-689fa5c4c571","ios":"levelo://app?vid=6e0da1e1-7ac5-4b14-86fc-689fa5c4c571"},"vehicle_type_id":"4","last_reported":1714565633,"current_range_meters":24400,"station_id":"ce4bgup2rcd13ifvqcn0","pricing_plan_id":"cebpf4jnsgd1na2vs0mg"},{"bike_id":"8f7a652c-9daf-4ece-8331-b8e0bfe7c225","system_id":"levelo_inurba_marseille","lat":43.304606,"lon":5.379026,"is_reserved":false,"is_disabled":false,"rental_uris":{"android":"levelo://app?vid=8f7a652c-9daf-4ece-8331-b8e0bfe7c225","ios":"levelo://app?vid=8f7a652c-9daf-4ece-8331-b8e0bfe7c225"},"vehicle_type_id":"4","last_reported":1714565633,"current_range_meters":26400,"station_id":"ce4bgup2rcd13ifvqcn0","pricing_plan_id":"cebpf4jnsgd1na2vs0mg"},{"bike_id":"2633600e-4dab-4cbe-b2ff-9c7a4b9a43d2","system_id":"levelo_inurba_marseille","lat":43.304606,"lon":5.379026,"is_reserved":false,"is_disabled":false,"rental_uris":{"android":"levelo://app?vid=2633600e-4dab-4cbe-b2ff-9c7a4b9a43d2","ios":"levelo://app?vid=2633600e-4dab-4cbe-b2ff-9c7a4b9a43d2"},"vehicle_type_id":"4","last_reported":1714565633,"current_range_meters":19600,"station_id":"ce4bgup2rcd13ifvqcn0","pricing_plan_id":"cebpf4jnsgd1na2vs0mg"},{"bike_id":"ef181368-e2d9-4b77-8e0c-b15cff5cd3c9","system_id":"levelo_inurba_marseille","lat":43.304606,"lon":5.379026,"is_reserved":false,"is_disabled":false,"rental_uris":{"android":"levelo://app?vid=ef181368-e2d9-4b77-8e0c-b15cff5cd3c9","ios":"levelo://app?vid=ef181368-e2d9-4b77-8e0c-b15cff5cd3c9"},"vehicle_type_id":"4","last_reported":1714565633,"current_range_meters":26800,"station_id":"ce4bgup2rcd13ifvqcn0","pricing_plan_id":"cebpf4jnsgd1na2vs0mg"},{"bike_id":"8a62af9a-2a8d-4f3c-b563-ddb2df53a4b2","system_id":"levelo_inurba_marseille","lat":43.304606,"lon":5.379026,"is_reserved":false,"is_disabled":false,"rental_uris":{"android":"levelo://app?vid=8a62af9a-2a8d-4f3c-b563-ddb2df53a4b2","ios":"levelo://app?vid=8a62af9a-2a8d-4f3c-b563-ddb2df53a4b2"},"vehicle_type_id":"4","last_reported":1714565633,"current_range_meters":24400,"station_id":"ce4bgup2rcd13ifvqcn0","pricing_plan_id":"cebpf4jnsgd1na2vs0mg"},{"bike_id":"bb401a9d-40ee-4293-837f-3390ce148742","system_id":"levelo_inurba_marseille","lat":43.304606,"lon":5.379026,"is_reserved":false,"is_disabled":false,"rental_uris":{"android":"levelo://app?vid=bb401a9d-40ee-4293-837f-3390ce148742","ios":"levelo://app?vid=bb401a9d-40ee-4293-837f-3390ce148742"},"vehicle_type_id":"4","last_reported":1714565633,"current_range_meters":25600,"station_id":"ce4bgup2rcd13ifvqcn0","pricing_plan_id":"cebpf4jnsgd1na2vs0mg"},{"bike_id":"00012da4-ad03-4020-bdd6-54b780983417","system_id":"levelo_inurba_marseille","lat":43.304606,"lon":5.379026,"is_reserved":false,"is_disabled":false,"rental_uris":{"android":"levelo://app?vid=00012da4-ad03-4020-bdd6-54b780983417","ios":"levelo://app?vid=00012da4-ad03-4020-bdd6-54b780983417"},"vehicle_type_id":"4","last_reported":1714565633,"current_range_meters":23600,"station_id":"ce4bgup2rcd13ifvqcn0","pricing_plan_id":"cebpf4jnsgd1na2vs0mg"},{"bike_id":"a2c062aa-e037-49d5-bfe9-71d9ba3a2ae5","system_id":"levelo_inurba_marseille","lat":43.304606,"lon":5.379026,"is_reserved":false,"is_disabled":false,"rental_uris":{"android":"levelo://app?vid=a2c062aa-e037-49d5-bfe9-71d9ba3a2ae5","ios":"levelo://app?vid=a2c062aa-e037-49d5-bfe9-71d9ba3a2ae5"},"vehicle_type_id":"4","last_reported":1714565633,"current_range_meters":26400,"station_id":"ce4bgup2rcd13ifvqcn0","pricing_plan_id":"cebpf4jnsgd1na2vs0mg"},{"bike_id":"d590a500-ea74-49d7-9ef4-2e59ad632601","system_id":"levelo_inurba_marseille","lat":43.304606,"lon":5.379026,"is_reserved":false,"is_disabled":false,"rental_uris":{"android":"levelo://app?vid=d590a500-ea74-49d7-9ef4-2e59ad632601","ios":"levelo://app?vid=d590a500-ea74-49d7-9ef4-2e59ad632601"},"vehicle_type_id":"4","last_reported":1714565633,"current_range_meters":31200,"station_id":"ce4bgup2rcd13ifvqcn0","pricing_plan_id":"cebpf4jnsgd1na2vs0mg"},{"bike_id":"3fafe9df-2f59-4db7-b205-2990c7720223","system_id":"levelo_inurba_marseille","lat":43.30464,"lon":5.37909,"is_reserved":false,"is_disabled":false,"rental_uris":{"android":"levelo://app?vid=3fafe9df-2f59-4db7-b205-2990c7720223","ios":"levelo://app?vid=3fafe9df-2f59-4db7-b205-2990c7720223"},"vehicle_type_id":"4","last_reported":1714565633,"current_range_meters":25200,"station_id":"ce4bgup2rcd13ifvqcn0","pricing_plan_id":"cebpf4jnsgd1na2vs0mg"},{"bike_id":"b7e1812b-71b7-413a-9761-bc07c6cc1d8b","system_id":"levelo_inurba_marseille","lat":43.304606,"lon":5.379026,"is_reserved":false,"is_disabled":false,"rental_uris":{"android":"levelo://app?vid=b7e1812b-71b7-413a-9761-bc07c6cc1d8b","ios":"levelo://app?vid=b7e1812b-71b7-413a-9761-bc07c6cc1d8b"},"vehicle_type_id":"4","last_reported":1714565633,"current_range_meters":24400,"station_id":"ce4bgup2rcd13ifvqcn0","pricing_plan_id":"cebpf4jnsgd1na2vs0mg"},{"bike_id":"aff14827-7060-4c86-96fa-b4c198503bed","system_id":"levelo_inurba_marseille","lat":43.304606,"lon":5.379026,"is_reserved":false,"is_disabled":false,"rental_uris":{"android":"levelo://app?vid=aff14827-7060-4c86-96fa-b4c198503bed","ios":"levelo://app?vid=aff14827-7060-4c86-96fa-b4c198503bed"},"vehicle_type_id":"4","last_reported":1714565633,"current_range_meters":20800,"station_id":"ce4bgup2rcd13ifvqcn0","pricing_plan_id":"cebpf4jnsgd1na2vs0mg"},{"bike_id":"9ab8f0a8-c4c7-46e6-93f0-3079918688a7","system_id":"levelo_inurba_marseille","lat":43.324771,"lon":5.36557,"is_reserved":false,"is_disabled":false,"rental_uris":{"android":"levelo://app?vid=9ab8f0a8-c4c7-46e6-93f0-3079918688a7","ios":"levelo://app?vid=9ab8f0a8-c4c7-46e6-93f0-3079918688a7"},"vehicle_type_id":"4","last_reported":1714565633,"current_range_meters":28000,"station_id":"ce4bhs12rcd13ifvqhvg","pricing_plan_id":"cebpf4jnsgd1na2vs0mg"},{"bike_id":"48b929d2-e3df-404d-820d-793f9abd15f1","system_id":"levelo_inurba_marseille","lat":43.304606,"lon":5.379026,"is_reserved":false,"is_disabled":false,"rental_uris":{"android":"levelo://app?vid=48b929d2-e3df-404d-820d-793f9abd15f1","ios":"levelo://app?vid=48b929d2-e3df-404d-820d-793f9abd15f1"},"vehicle_type_id":"4","last_reported":1714565633,"current_range_meters":31200,"station_id":"ce4bgup2rcd13ifvqcn0","pricing_plan_id":"cebpf4jnsgd1na2vs0mg"},{"bike_id":"8c92d843-6754-4ba3-96e0-b8996e5542b0","system_id":"levelo_inurba_marseille","lat":43.304606,"lon":5.379026,"is_reserved":false,"is_disabled":false,"rental_uris":{"android":"levelo://app?vid=8c92d843-6754-4ba3-96e0-b8996e5542b0","ios":"levelo://app?vid=8c92d843-6754-4ba3-96e0-b8996e5542b0"},"vehicle_type_id":"4","last_reported":1714565633,"current_range_meters":26800,"station_id":"ce4bgup2rcd13ifvqcn0","pricing_plan_id":"cebpf4jnsgd1na2vs0mg"},{"bike_id":"e04c034f-1b17-4a76-a455-64a6f80bff84","system_id":"levelo_inurba_marseille","lat":43.304606,"lon":5.379026,"is_reserved":false,"is_disabled":false,"rental_uris":{"android":"levelo://app?vid=e04c034f-1b17-4a76-a455-64a6f80bff84","ios":"levelo://app?vid=e04c034f-1b17-4a76-a455-64a6f80bff84"},"vehicle_type_id":"4","last_reported":1714565633,"current_range_meters":29200,"station_id":"ce4bgup2rcd13ifvqcn0","pricing_plan_id":"cebpf4jnsgd1na2vs0mg"},{"bike_id":"2d745f19-9e6f-407d-8030-70a535b6c69a","system_id":"levelo_inurba_marseille","lat":43.304606,"lon":5.379026,"is_reserved":false,"is_disabled":false,"rental_uris":{"android":"levelo://app?vid=2d745f19-9e6f-407d-8030-70a535b6c69a","ios":"levelo://app?vid=2d745f19-9e6f-407d-8030-70a535b6c69a"},"vehicle_type_id":"4","last_reported":1714565633,"current_range_meters":13600,"station_id":"ce4bgup2rcd13ifvqcn0","pricing_plan_id":"cebpf4jnsgd1na2vs0mg"},{"bike_id":"3508f144-2468-46c9-abf6-dc7450deae38","system_id":"levelo_inurba_marseille","lat":43.304606,"lon":5.379026,"is_reserved":false,"is_disabled":false,"rental_uris":{"android":"levelo://app?vid=3508f144-2468-46c9-abf6-dc7450deae38","ios":"levelo://app?vid=3508f144-2468-46c9-abf6-dc7450deae38"},"vehicle_type_id":"4","last_reported":1714565633,"current_range_meters":26000,"station_id":"ce4bgup2rcd13ifvqcn0","pricing_plan_id":"cebpf4jnsgd1na2vs0mg"},{"bike_id":"fae3462d-abd6-43dc-a658-b3919568d708","system_id":"levelo_inurba_marseille","lat":43.304585,"lon":5.379094,"is_reserved":false,"is_disabled":false,"rental_uris":{"android":"levelo://app?vid=fae3462d-abd6-43dc-a658-b3919568d708","ios":"levelo://app?vid=fae3462d-abd6-43dc-a658-b3919568d708"},"vehicle_type_id":"4","last_reported":1714565633,"current_range_meters":19600,"station_id":"ce4bgup2rcd13ifvqcn0","pricing_plan_id":"cebpf4jnsgd1na2vs0mg"},{"bike_id":"e5c5d40d-ddb9-45af-a363-1283403827e8","system_id":"levelo_inurba_marseille","lat":43.304606,"lon":5.379026,"is_reserved":false,"is_disabled":false,"rental_uris":{"android":"levelo://app?vid=e5c5d40d-ddb9-45af-a363-1283403827e8","ios":"levelo://app?vid=e5c5d40d-ddb9-45af-a363-1283403827e8"},"vehicle_type_id":"4","last_reported":1714565633,"current_range_meters":18000,"station_id":"ce4bgup2rcd13ifvqcn0","pricing_plan_id":"cebpf4jnsgd1na2vs0mg"},{"bike_id":"51beea3e-599d-44cf-a7a6-779160b7eec5","system_id":"levelo_inurba_marseille","lat":43.324736,"lon":5.365464,"is_reserved":false,"is_disabled":false,"rental_uris":{"android":"levelo://app?vid=51beea3e-599d-44cf-a7a6-779160b7eec5","ios":"levelo://app?vid=51beea3e-599d-44cf-a7a6-779160b7eec5"},"vehicle_type_id":"4","last_reported":1714565633,"current_range_meters":14400,"station_id":"ce4bhs12rcd13ifvqhvg","pricing_plan_id":"cebpf4jnsgd1na2vs0mg"},{"bike_id":"d68c6a04-97b9-446b-af52-1bf9a27f07c4","system_id":"levelo_inurba_marseille","lat":43.304606,"lon":5.379026,"is_reserved":false,"is_disabled":false,"rental_uris":{"android":"levelo://app?vid=d68c6a04-97b9-446b-af52-1bf9a27f07c4","ios":"levelo://app?vid=d68c6a04-97b9-446b-af52-1bf9a27f07c4"},"vehicle_type_id":"4","last_reported":1714565633,"current_range_meters":24000,"station_id":"ce4bgup2rcd13ifvqcn0","pricing_plan_id":"cebpf4jnsgd1na2vs0mg"},{"bike_id":"b22ab42e-8a3a-4ec7-97c5-d3fb72660fea","system_id":"levelo_inurba_marseille","lat":43.324771,"lon":5.36557,"is_reserved":false,"is_disabled":false,"rental_uris":{"android":"levelo://app?vid=b22ab42e-8a3a-4ec7-97c5-d3fb72660fea","ios":"levelo://app?vid=b22ab42e-8a3a-4ec7-97c5-d3fb72660fea"},"vehicle_type_id":"4","last_reported":1714565633,"current_range_meters":2800,"station_id":"ce4bhs12rcd13ifvqhvg","pricing_plan_id":"cebpf4jnsgd1na2vs0mg"},{"bike_id":"1c6723bb-7861-4c75-a149-5251883718a7","system_id":"levelo_inurba_marseille","lat":43.324776,"lon":5.3656,"is_reserved":false,"is_disabled":false,"rental_uris":{"android":"levelo://app?vid=1c6723bb-7861-4c75-a149-5251883718a7","ios":"levelo://app?vid=1c6723bb-7861-4c75-a149-5251883718a7"},"vehicle_type_id":"4","last_reported":1714565633,"current_range_meters":28400,"station_id":"ce4bhs12rcd13ifvqhvg","pricing_plan_id":"cebpf4jnsgd1na2vs0mg"},{"bike_id":"caadc003-ff39-41d7-a207-143cea53cb36","system_id":"levelo_inurba_marseille","lat":43.324788,"lon":5.365792,"is_reserved":false,"is_disabled":false,"rental_uris":{"android":"levelo://app?vid=caadc003-ff39-41d7-a207-143cea53cb36","ios":"levelo://app?vid=caadc003-ff39-41d7-a207-143cea53cb36"},"vehicle_type_id":"4","last_reported":1714565633,"current_range_meters":26800,"station_id":"ce4bhs12rcd13ifvqhvg","pricing_plan_id":"cebpf4jnsgd1na2vs0mg"},{"bike_id":"4a8ec3cb-d1f2-496e-bf5b-edd6fc6922c4","system_id":"levelo_inurba_marseille","lat":43.324784,"lon":5.365601,"is_reserved":false,"is_disabled":false,"rental_uris":{"android":"levelo://app?vid=4a8ec3cb-d1f2-496e-bf5b-edd6fc6922c4","ios":"levelo://app?vid=4a8ec3cb-d1f2-496e-bf5b-edd6fc6922c4"},"vehicle_type_id":"4","last_reported":1714565633,"current_range_meters":16800,"station_id":"ce4bhs12rcd13ifvqhvg","pricing_plan_id":"cebpf4jnsgd1na2vs0mg"},{"bike_id":"ec9ad42d-7bf5-43ef-a2cf-ce73f78031d9","system_id":"levelo_inurba_marseille","lat":43.324771,"lon":5.36557,"is_reserved":false,"is_disabled":false,"rental_uris":{"android":"levelo://app?vid=ec9ad42d-7bf5-43ef-a2cf-ce73f78031d9","ios":"levelo://app?vid=ec9ad42d-7bf5-43ef-a2cf-ce73f78031d9"},"vehicle_type_id":"4","last_reported":1714565633,"current_range_meters":4800,"station_id":"ce4bhs12rcd13ifvqhvg","pricing_plan_id":"cebpf4jnsgd1na2vs0mg"},{"bike_id":"505c9fc0-49c3-4c39-ab88-1ba2555dbf58","system_id":"levelo_inurba_marseille","lat":43.324797,"lon":5.365843,"is_reserved":false,"is_disabled":false,"rental_uris":{"android":"levelo://app?vid=505c9fc0-49c3-4c39-ab88-1ba2555dbf58","ios":"levelo://app?vid=505c9fc0-49c3-4c39-ab88-1ba2555dbf58"},"vehicle_type_id":"4","last_reported":1714565633,"current_range_meters":7600,"station_id":"ce4bhs12rcd13ifvqhvg","pricing_plan_id":"cebpf4jnsgd1na2vs0mg"},{"bike_id":"f6fae496-92cc-4dec-a285-ba68bff1ebcd","system_id":"levelo_inurba_marseille","lat":43.324771,"lon":5.36557,"is_reserved":false,"is_disabled":false,"rental_uris":{"android":"levelo://app?vid=f6fae496-92cc-4dec-a285-ba68bff1ebcd","ios":"levelo://app?vid=f6fae496-92cc-4dec-a285-ba68bff1ebcd"},"vehicle_type_id":"4","last_reported":1714565633,"current_range_meters":23200,"station_id":"ce4bhs12rcd13ifvqhvg","pricing_plan_id":"cebpf4jnsgd1na2vs0mg"},{"bike_id":"b542f8ad-0de0-40a1-9ef7-53b385381a12","system_id":"levelo_inurba_marseille","lat":43.324771,"lon":5.36557,"is_reserved":false,"is_disabled":false,"rental_uris":{"android":"levelo://app?vid=b542f8ad-0de0-40a1-9ef7-53b385381a12","ios":"levelo://app?vid=b542f8ad-0de0-40a1-9ef7-53b385381a12"},"vehicle_type_id":"4","last_reported":1714565633,"current_range_meters":4400,"station_id":"ce4bhs12rcd13ifvqhvg","pricing_plan_id":"cebpf4jnsgd1na2vs0mg"},{"bike_id":"263ddf92-f97b-4bde-af65-350aba08e4ca","system_id":"levelo_inurba_marseille","lat":43.324771,"lon":5.36557,"is_reserved":false,"is_disabled":false,"rental_uris":{"android":"levelo://app?vid=263ddf92-f97b-4bde-af65-350aba08e4ca","ios":"levelo://app?vid=263ddf92-f97b-4bde-af65-350aba08e4ca"},"vehicle_type_id":"4","last_reported":1714565633,"current_range_meters":8000,"station_id":"ce4bhs12rcd13ifvqhvg","pricing_plan_id":"cebpf4jnsgd1na2vs0mg"},{"bike_id":"4895fd52-b7de-4dd4-bf5b-bee0b028796c","system_id":"levelo_inurba_marseille","lat":43.324771,"lon":5.36557,"is_reserved":false,"is_disabled":false,"rental_uris":{"android":"levelo://app?vid=4895fd52-b7de-4dd4-bf5b-bee0b028796c","ios":"levelo://app?vid=4895fd52-b7de-4dd4-bf5b-bee0b028796c"},"vehicle_type_id":"4","last_reported":1714565633,"current_range_meters":5600,"station_id":"ce4bhs12rcd13ifvqhvg","pricing_plan_id":"cebpf4jnsgd1na2vs0mg"},{"bike_id":"06ac2027-09f1-4680-aa1f-6ab726213cb9","system_id":"levelo_inurba_marseille","lat":43.324771,"lon":5.36557,"is_reserved":false,"is_disabled":false,"rental_uris":{"android":"levelo://app?vid=06ac2027-09f1-4680-aa1f-6ab726213cb9","ios":"levelo://app?vid=06ac2027-09f1-4680-aa1f-6ab726213cb9"},"vehicle_type_id":"4","last_reported":1714565633,"current_range_meters":6000,"station_id":"ce4bhs12rcd13ifvqhvg","pricing_plan_id":"cebpf4jnsgd1na2vs0mg"},{"bike_id":"c309f7ba-6ad6-4d3f-a1a7-a3843971cf8b","system_id":"levelo_inurba_marseille","lat":43.324771,"lon":5.36557,"is_reserved":false,"is_disabled":false,"rental_uris":{"android":"levelo://app?vid=c309f7ba-6ad6-4d3f-a1a7-a3843971cf8b","ios":"levelo://app?vid=c309f7ba-6ad6-4d3f-a1a7-a3843971cf8b"},"vehicle_type_id":"4","last_reported":1714565633,"current_range_meters":20400,"station_id":"ce4bhs12rcd13ifvqhvg","pricing_plan_id":"cebpf4jnsgd1na2vs0mg"},{"bike_id":"c0642eef-4c64-4ce5-97d7-9a8f95d1dc58","system_id":"levelo_inurba_marseille","lat":43.304606,"lon":5.379026,"is_reserved":false,"is_disabled":false,"rental_uris":{"android":"levelo://app?vid=c0642eef-4c64-4ce5-97d7-9a8f95d1dc58","ios":"levelo://app?vid=c0642eef-4c64-4ce5-97d7-9a8f95d1dc58"},"vehicle_type_id":"4","last_reported":1714565633,"current_range_meters":22800,"station_id":"ce4bgup2rcd13ifvqcn0","pricing_plan_id":"cebpf4jnsgd1na2vs0mg"},{"bike_id":"e560c9f7-9a68-4c7c-a574-1ae51de44590","system_id":"levelo_inurba_marseille","lat":43.324771,"lon":5.36557,"is_reserved":false,"is_disabled":false,"rental_uris":{"android":"levelo://app?vid=e560c9f7-9a68-4c7c-a574-1ae51de44590","ios":"levelo://app?vid=e560c9f7-9a68-4c7c-a574-1ae51de44590"},"vehicle_type_id":"4","last_reported":1714565633,"current_range_meters":5200,"station_id":"ce4bhs12rcd13ifvqhvg","pricing_plan_id":"cebpf4jnsgd1na2vs0mg"},{"bike_id":"9ff0830f-e0f2-4f56-8687-5dd0c71549f1","system_id":"levelo_inurba_marseille","lat":43.324805,"lon":5.36572,"is_reserved":false,"is_disabled":false,"rental_uris":{"android":"levelo://app?vid=9ff0830f-e0f2-4f56-8687-5dd0c71549f1","ios":"levelo://app?vid=9ff0830f-e0f2-4f56-8687-5dd0c71549f1"},"vehicle_type_id":"4","last_reported":1714565633,"current_range_meters":26800,"station_id":"ce4bhs12rcd13ifvqhvg","pricing_plan_id":"cebpf4jnsgd1na2vs0mg"},{"bike_id":"38034195-f3ea-4a5f-9ad9-18410ccfb664","system_id":"levelo_inurba_marseille","lat":43.32481,"lon":5.36574,"is_reserved":false,"is_disabled":false,"rental_uris":{"android":"levelo://app?vid=38034195-f3ea-4a5f-9ad9-18410ccfb664","ios":"levelo://app?vid=38034195-f3ea-4a5f-9ad9-18410ccfb664"},"vehicle_type_id":"4","last_reported":1714565633,"current_range_meters":11600,"station_id":"ce4bhs12rcd13ifvqhvg","pricing_plan_id":"cebpf4jnsgd1na2vs0mg"},{"bike_id":"20ee36ab-83ec-4fcb-9465-adbceb8bedfc","system_id":"levelo_inurba_marseille","lat":43.324771,"lon":5.36557,"is_reserved":false,"is_disabled":false,"rental_uris":{"android":"levelo://app?vid=20ee36ab-83ec-4fcb-9465-adbceb8bedfc","ios":"levelo://app?vid=20ee36ab-83ec-4fcb-9465-adbceb8bedfc"},"vehicle_type_id":"4","last_reported":1714565633,"current_range_meters":26800,"station_id":"ce4bhs12rcd13ifvqhvg","pricing_plan_id":"cebpf4jnsgd1na2vs0mg"},{"bike_id":"6b85554c-f195-4dc5-977f-2b7beb5ffe88","system_id":"levelo_inurba_marseille","lat":43.32482,"lon":5.36577,"is_reserved":false,"is_disabled":false,"rental_uris":{"android":"levelo://app?vid=6b85554c-f195-4dc5-977f-2b7beb5ffe88","ios":"levelo://app?vid=6b85554c-f195-4dc5-977f-2b7beb5ffe88"},"vehicle_type_id":"4","last_reported":1714565633,"current_range_meters":20800,"station_id":"ce4bhs12rcd13ifvqhvg","pricing_plan_id":"cebpf4jnsgd1na2vs0mg"},{"bike_id":"775b5193-55cb-42f1-b0fa-acd6f40ef433","system_id":"levelo_inurba_marseille","lat":43.324771,"lon":5.36557,"is_reserved":false,"is_disabled":false,"rental_uris":{"android":"levelo://app?vid=775b5193-55cb-42f1-b0fa-acd6f40ef433","ios":"levelo://app?vid=775b5193-55cb-42f1-b0fa-acd6f40ef433"},"vehicle_type_id":"4","last_reported":1714565633,"current_range_meters":26000,"station_id":"ce4bhs12rcd13ifvqhvg","pricing_plan_id":"cebpf4jnsgd1na2vs0mg"},{"bike_id":"a220ad8e-30f9-4404-aa2e-6db3aa6afb45","system_id":"levelo_inurba_marseille","lat":43.324771,"lon":5.36557,"is_reserved":false,"is_disabled":false,"rental_uris":{"android":"levelo://app?vid=a220ad8e-30f9-4404-aa2e-6db3aa6afb45","ios":"levelo://app?vid=a220ad8e-30f9-4404-aa2e-6db3aa6afb45"},"vehicle_type_id":"4","last_reported":1714565633,"current_range_meters":6400,"station_id":"ce4bhs12rcd13ifvqhvg","pricing_plan_id":"cebpf4jnsgd1na2vs0mg"},{"bike_id":"1c9411c0-d42f-4c9c-954b-623621242b42","system_id":"levelo_inurba_marseille","lat":43.324771,"lon":5.36557,"is_reserved":false,"is_disabled":false,"rental_uris":{"android":"levelo://app?vid=1c9411c0-d42f-4c9c-954b-623621242b42","ios":"levelo://app?vid=1c9411c0-d42f-4c9c-954b-623621242b42"},"vehicle_type_id":"4","last_reported":1714565633,"current_range_meters":9600,"station_id":"ce4bhs12rcd13ifvqhvg","pricing_plan_id":"cebpf4jnsgd1na2vs0mg"},{"bike_id":"3233b655-0e42-4745-9352-e7ab6daacfd8","system_id":"levelo_inurba_marseille","lat":43.324771,"lon":5.36557,"is_reserved":false,"is_disabled":false,"rental_uris":{"android":"levelo://app?vid=3233b655-0e42-4745-9352-e7ab6daacfd8","ios":"levelo://app?vid=3233b655-0e42-4745-9352-e7ab6daacfd8"},"vehicle_type_id":"4","last_reported":1714565633,"current_range_meters":27600,"station_id":"ce4bhs12rcd13ifvqhvg","pricing_plan_id":"cebpf4jnsgd1na2vs0mg"},{"bike_id":"ff14dfe6-78af-413d-a3ea-3b224d7ea33d","system_id":"levelo_inurba_marseille","lat":43.324771,"lon":5.36557,"is_reserved":false,"is_disabled":false,"rental_uris":{"android":"levelo://app?vid=ff14dfe6-78af-413d-a3ea-3b224d7ea33d","ios":"levelo://app?vid=ff14dfe6-78af-413d-a3ea-3b224d7ea33d"},"vehicle_type_id":"4","last_reported":1714565633,"current_range_meters":20000,"station_id":"ce4bhs12rcd13ifvqhvg","pricing_plan_id":"cebpf4jnsgd1na2vs0mg"},{"bike_id":"fca0512a-e514-43b3-a37e-665741369b77","system_id":"levelo_inurba_marseille","lat":43.324771,"lon":5.36557,"is_reserved":false,"is_disabled":false,"rental_uris":{"android":"levelo://app?vid=fca0512a-e514-43b3-a37e-665741369b77","ios":"levelo://app?vid=fca0512a-e514-43b3-a37e-665741369b77"},"vehicle_type_id":"4","last_reported":1714565633,"current_range_meters":14400,"station_id":"ce4bhs12rcd13ifvqhvg","pricing_plan_id":"cebpf4jnsgd1na2vs0mg"},{"bike_id":"4df85e9e-063f-4c08-9824-b5780620e10e","system_id":"levelo_inurba_marseille","lat":43.324771,"lon":5.36557,"is_reserved":false,"is_disabled":false,"rental_uris":{"android":"levelo://app?vid=4df85e9e-063f-4c08-9824-b5780620e10e","ios":"levelo://app?vid=4df85e9e-063f-4c08-9824-b5780620e10e"},"vehicle_type_id":"4","last_reported":1714565633,"current_range_meters":10400,"station_id":"ce4bhs12rcd13ifvqhvg","pricing_plan_id":"cebpf4jnsgd1na2vs0mg"},{"bike_id":"d689d75b-2503-4c26-a0fd-e4e182d9b314","system_id":"levelo_inurba_marseille","lat":43.324847,"lon":5.365613,"is_reserved":false,"is_disabled":false,"rental_uris":{"android":"levelo://app?vid=d689d75b-2503-4c26-a0fd-e4e182d9b314","ios":"levelo://app?vid=d689d75b-2503-4c26-a0fd-e4e182d9b314"},"vehicle_type_id":"4","last_reported":1714565633,"current_range_meters":9600,"station_id":"ce4bhs12rcd13ifvqhvg","pricing_plan_id":"cebpf4jnsgd1na2vs0mg"},{"bike_id":"fe31481a-0451-49ec-81da-8efb345e394b","system_id":"levelo_inurba_marseille","lat":43.324771,"lon":5.36557,"is_reserved":false,"is_disabled":false,"rental_uris":{"android":"levelo://app?vid=fe31481a-0451-49ec-81da-8efb345e394b","ios":"levelo://app?vid=fe31481a-0451-49ec-81da-8efb345e394b"},"vehicle_type_id":"4","last_reported":1714565633,"current_range_meters":12400,"station_id":"ce4bhs12rcd13ifvqhvg","pricing_plan_id":"cebpf4jnsgd1na2vs0mg"},{"bike_id":"51b7c40f-72b8-4c8d-9344-83420c22fcac","system_id":"levelo_inurba_marseille","lat":43.32487,"lon":5.3658,"is_reserved":false,"is_disabled":false,"rental_uris":{"android":"levelo://app?vid=51b7c40f-72b8-4c8d-9344-83420c22fcac","ios":"levelo://app?vid=51b7c40f-72b8-4c8d-9344-83420c22fcac"},"vehicle_type_id":"4","last_reported":1714565633,"current_range_meters":14000,"station_id":"ce4bhs12rcd13ifvqhvg","pricing_plan_id":"cebpf4jnsgd1na2vs0mg"},{"bike_id":"b21ae7ee-dd87-4fb7-a859-109931d2977d","system_id":"levelo_inurba_marseille","lat":43.32487,"lon":5.365745,"is_reserved":false,"is_disabled":false,"rental_uris":{"android":"levelo://app?vid=b21ae7ee-dd87-4fb7-a859-109931d2977d","ios":"levelo://app?vid=b21ae7ee-dd87-4fb7-a859-109931d2977d"},"vehicle_type_id":"4","last_reported":1714565633,"current_range_meters":11600,"station_id":"ce4bhs12rcd13ifvqhvg","pricing_plan_id":"cebpf4jnsgd1na2vs0mg"},{"bike_id":"7036c69a-b779-4ece-8f74-4bc87ed55d46","system_id":"levelo_inurba_marseille","lat":43.324771,"lon":5.36557,"is_reserved":false,"is_disabled":false,"rental_uris":{"android":"levelo://app?vid=7036c69a-b779-4ece-8f74-4bc87ed55d46","ios":"levelo://app?vid=7036c69a-b779-4ece-8f74-4bc87ed55d46"},"vehicle_type_id":"4","last_reported":1714565633,"current_range_meters":13600,"station_id":"ce4bhs12rcd13ifvqhvg","pricing_plan_id":"cebpf4jnsgd1na2vs0mg"},{"bike_id":"5d03540d-abbb-4554-a73b-8e61d7d1552f","system_id":"levelo_inurba_marseille","lat":43.32488,"lon":5.36583,"is_reserved":false,"is_disabled":false,"rental_uris":{"android":"levelo://app?vid=5d03540d-abbb-4554-a73b-8e61d7d1552f","ios":"levelo://app?vid=5d03540d-abbb-4554-a73b-8e61d7d1552f"},"vehicle_type_id":"4","last_reported":1714565633,"current_range_meters":11200,"station_id":"ce4bhs12rcd13ifvqhvg","pricing_plan_id":"cebpf4jnsgd1na2vs0mg"},{"bike_id":"cb5035c4-9e66-46e5-baea-a68bc4206adf","system_id":"levelo_inurba_marseille","lat":43.32488,"lon":5.36582,"is_reserved":false,"is_disabled":false,"rental_uris":{"android":"levelo://app?vid=cb5035c4-9e66-46e5-baea-a68bc4206adf","ios":"levelo://app?vid=cb5035c4-9e66-46e5-baea-a68bc4206adf"},"vehicle_type_id":"4","last_reported":1714565633,"current_range_meters":10400,"station_id":"ce4bhs12rcd13ifvqhvg","pricing_plan_id":"cebpf4jnsgd1na2vs0mg"},{"bike_id":"18fb7a60-66d6-4c12-ad66-c83a47a61459","system_id":"levelo_inurba_marseille","lat":43.324771,"lon":5.36557,"is_reserved":false,"is_disabled":false,"rental_uris":{"android":"levelo://app?vid=18fb7a60-66d6-4c12-ad66-c83a47a61459","ios":"levelo://app?vid=18fb7a60-66d6-4c12-ad66-c83a47a61459"},"vehicle_type_id":"4","last_reported":1714565633,"current_range_meters":19600,"station_id":"ce4bhs12rcd13ifvqhvg","pricing_plan_id":"cebpf4jnsgd1na2vs0mg"},{"bike_id":"071ab0ad-56ca-4fd5-a7ed-e4446453c2bb","system_id":"levelo_inurba_marseille","lat":43.324771,"lon":5.36557,"is_reserved":false,"is_disabled":false,"rental_uris":{"android":"levelo://app?vid=071ab0ad-56ca-4fd5-a7ed-e4446453c2bb","ios":"levelo://app?vid=071ab0ad-56ca-4fd5-a7ed-e4446453c2bb"},"vehicle_type_id":"4","last_reported":1714565633,"current_range_meters":8400,"station_id":"ce4bhs12rcd13ifvqhvg","pricing_plan_id":"cebpf4jnsgd1na2vs0mg"},{"bike_id":"0a4a6ca4-0474-4f68-b089-af26c0c8b25a","system_id":"levelo_inurba_marseille","lat":43.324771,"lon":5.36557,"is_reserved":false,"is_disabled":false,"rental_uris":{"android":"levelo://app?vid=0a4a6ca4-0474-4f68-b089-af26c0c8b25a","ios":"levelo://app?vid=0a4a6ca4-0474-4f68-b089-af26c0c8b25a"},"vehicle_type_id":"4","last_reported":1714565633,"current_range_meters":16400,"station_id":"ce4bhs12rcd13ifvqhvg","pricing_plan_id":"cebpf4jnsgd1na2vs0mg"},{"bike_id":"2cb8d4af-041d-4bec-a228-7f59da5d6549","system_id":"levelo_inurba_marseille","lat":43.3249,"lon":5.36585,"is_reserved":false,"is_disabled":false,"rental_uris":{"android":"levelo://app?vid=2cb8d4af-041d-4bec-a228-7f59da5d6549","ios":"levelo://app?vid=2cb8d4af-041d-4bec-a228-7f59da5d6549"},"vehicle_type_id":"4","last_reported":1714565633,"current_range_meters":0,"station_id":"ce4bhs12rcd13ifvqhvg","pricing_plan_id":"cebpf4jnsgd1na2vs0mg"},{"bike_id":"e3bb15a4-ddc0-46aa-a283-1aba4953c1ec","system_id":"levelo_inurba_marseille","lat":43.3107,"lon":5.38348,"is_reserved":false,"is_disabled":false,"rental_uris":{"android":"levelo://app?vid=e3bb15a4-ddc0-46aa-a283-1aba4953c1ec","ios":"levelo://app?vid=e3bb15a4-ddc0-46aa-a283-1aba4953c1ec"},"vehicle_type_id":"4","last_reported":1714565633,"current_range_meters":21200,"station_id":"ce4bgv92rcd13ifvqcr0","pricing_plan_id":"cebpf4jnsgd1na2vs0mg"},{"bike_id":"f008f77f-4fa9-4fb9-b447-a83c703f3529","system_id":"levelo_inurba_marseille","lat":43.31071,"lon":5.383485,"is_reserved":false,"is_disabled":false,"rental_uris":{"android":"levelo://app?vid=f008f77f-4fa9-4fb9-b447-a83c703f3529","ios":"levelo://app?vid=f008f77f-4fa9-4fb9-b447-a83c703f3529"},"vehicle_type_id":"4","last_reported":1714565633,"current_range_meters":29600,"station_id":"ce4bgv92rcd13ifvqcr0","pricing_plan_id":"cebpf4jnsgd1na2vs0mg"},{"bike_id":"321f9d28-ee7f-4afa-a28c-be53e03f8d73","system_id":"levelo_inurba_marseille","lat":43.310767,"lon":5.383566,"is_reserved":false,"is_disabled":false,"rental_uris":{"android":"levelo://app?vid=321f9d28-ee7f-4afa-a28c-be53e03f8d73","ios":"levelo://app?vid=321f9d28-ee7f-4afa-a28c-be53e03f8d73"},"vehicle_type_id":"4","last_reported":1714565633,"current_range_meters":0,"station_id":"ce4bgv92rcd13ifvqcr0","pricing_plan_id":"cebpf4jnsgd1na2vs0mg"},{"bike_id":"745cd8e6-5c6c-435c-9c90-1244a3dc92c1","system_id":"levelo_inurba_marseille","lat":43.32499,"lon":5.36578,"is_reserved":false,"is_disabled":false,"rental_uris":{"android":"levelo://app?vid=745cd8e6-5c6c-435c-9c90-1244a3dc92c1","ios":"levelo://app?vid=745cd8e6-5c6c-435c-9c90-1244a3dc92c1"},"vehicle_type_id":"4","last_reported":1714565633,"current_range_meters":0,"station_id":"ce4bhs12rcd13ifvqhvg","pricing_plan_id":"cebpf4jnsgd1na2vs0mg"},{"bike_id":"307b2ff8-9ad6-4128-8a2f-ba86690d45f8","system_id":"levelo_inurba_marseille","lat":43.310804,"lon":5.38359,"is_reserved":false,"is_disabled":false,"rental_uris":{"android":"levelo://app?vid=307b2ff8-9ad6-4128-8a2f-ba86690d45f8","ios":"levelo://app?vid=307b2ff8-9ad6-4128-8a2f-ba86690d45f8"},"vehicle_type_id":"4","last_reported":1714565633,"current_range_meters":5600,"station_id":"ce4bgv92rcd13ifvqcr0","pricing_plan_id":"cebpf4jnsgd1na2vs0mg"},{"bike_id":"314ff1cc-f494-4905-bb66-fca0d47b8dab","system_id":"levelo_inurba_marseille","lat":43.302784,"lon":5.377158,"is_reserved":false,"is_disabled":false,"rental_uris":{"android":"levelo://app?vid=314ff1cc-f494-4905-bb66-fca0d47b8dab","ios":"levelo://app?vid=314ff1cc-f494-4905-bb66-fca0d47b8dab"},"vehicle_type_id":"4","last_reported":1714565633,"current_range_meters":16800,"station_id":"ce4bguh2rcd13ifvqcj0","pricing_plan_id":"cebpf4jnsgd1na2vs0mg"},{"bike_id":"87f26f40-8d6b-4134-b783-5bdc7e77e177","system_id":"levelo_inurba_marseille","lat":43.31076,"lon":5.38363,"is_reserved":false,"is_disabled":false,"rental_uris":{"android":"levelo://app?vid=87f26f40-8d6b-4134-b783-5bdc7e77e177","ios":"levelo://app?vid=87f26f40-8d6b-4134-b783-5bdc7e77e177"},"vehicle_type_id":"4","last_reported":1714565633,"current_range_meters":22400,"station_id":"ce4bgv92rcd13ifvqcr0","pricing_plan_id":"cebpf4jnsgd1na2vs0mg"},{"bike_id":"e8dba871-771c-4b92-b4b3-414143f18bd7","system_id":"levelo_inurba_marseille","lat":43.310804,"lon":5.38359,"is_reserved":false,"is_disabled":false,"rental_uris":{"android":"levelo://app?vid=e8dba871-771c-4b92-b4b3-414143f18bd7","ios":"levelo://app?vid=e8dba871-771c-4b92-b4b3-414143f18bd7"},"vehicle_type_id":"4","last_reported":1714565633,"current_range_meters":10800,"station_id":"ce4bgv92rcd13ifvqcr0","pricing_plan_id":"cebpf4jnsgd1na2vs0mg"},{"bike_id":"9f2ef3ae-73a9-4607-96d9-01c69b64af4e","system_id":"levelo_inurba_marseille","lat":43.302784,"lon":5.377158,"is_reserved":false,"is_disabled":false,"rental_uris":{"android":"levelo://app?vid=9f2ef3ae-73a9-4607-96d9-01c69b64af4e","ios":"levelo://app?vid=9f2ef3ae-73a9-4607-96d9-01c69b64af4e"},"vehicle_type_id":"4","last_reported":1714565633,"current_range_meters":30800,"station_id":"ce4bguh2rcd13ifvqcj0","pricing_plan_id":"cebpf4jnsgd1na2vs0mg"},{"bike_id":"7a9f23b9-dbea-48d7-8c04-d0f7cc515461","system_id":"levelo_inurba_marseille","lat":43.301429,"lon":5.37413,"is_reserved":false,"is_disabled":false,"rental_uris":{"android":"levelo://app?vid=7a9f23b9-dbea-48d7-8c04-d0f7cc515461","ios":"levelo://app?vid=7a9f23b9-dbea-48d7-8c04-d0f7cc515461"},"vehicle_type_id":"4","last_reported":1714565633,"current_range_meters":22800,"station_id":"ce4bgs92rcd13ifvqcc0","pricing_plan_id":"cebpf4jnsgd1na2vs0mg"},{"bike_id":"db0e3283-2d40-44e3-922d-dbf109de58d4","system_id":"levelo_inurba_marseille","lat":43.302784,"lon":5.377158,"is_reserved":false,"is_disabled":false,"rental_uris":{"android":"levelo://app?vid=db0e3283-2d40-44e3-922d-dbf109de58d4","ios":"levelo://app?vid=db0e3283-2d40-44e3-922d-dbf109de58d4"},"vehicle_type_id":"4","last_reported":1714565633,"current_range_meters":31200,"station_id":"ce4bguh2rcd13ifvqcj0","pricing_plan_id":"cebpf4jnsgd1na2vs0mg"},{"bike_id":"80230e76-6e04-4446-a7b9-45bb8281fb5d","system_id":"levelo_inurba_marseille","lat":43.301429,"lon":5.37413,"is_reserved":false,"is_disabled":false,"rental_uris":{"android":"levelo://app?vid=80230e76-6e04-4446-a7b9-45bb8281fb5d","ios":"levelo://app?vid=80230e76-6e04-4446-a7b9-45bb8281fb5d"},"vehicle_type_id":"4","last_reported":1714565633,"current_range_meters":26400,"station_id":"ce4bgs92rcd13ifvqcc0","pricing_plan_id":"cebpf4jnsgd1na2vs0mg"},{"bike_id":"9451bc48-9754-4b7b-b496-2c379bac9a6c","system_id":"levelo_inurba_marseille","lat":43.30272,"lon":5.37692,"is_reserved":false,"is_disabled":false,"rental_uris":{"android":"levelo://app?vid=9451bc48-9754-4b7b-b496-2c379bac9a6c","ios":"levelo://app?vid=9451bc48-9754-4b7b-b496-2c379bac9a6c"},"vehicle_type_id":"4","last_reported":1714565633,"current_range_meters":24000,"station_id":"ce4bguh2rcd13ifvqcj0","pricing_plan_id":"cebpf4jnsgd1na2vs0mg"},{"bike_id":"cfc0f6b7-5818-466e-b21c-ff0227fc3710","system_id":"levelo_inurba_marseille","lat":43.302784,"lon":5.377158,"is_reserved":false,"is_disabled":false,"rental_uris":{"android":"levelo://app?vid=cfc0f6b7-5818-466e-b21c-ff0227fc3710","ios":"levelo://app?vid=cfc0f6b7-5818-466e-b21c-ff0227fc3710"},"vehicle_type_id":"4","last_reported":1714565633,"current_range_meters":27200,"station_id":"ce4bguh2rcd13ifvqcj0","pricing_plan_id":"cebpf4jnsgd1na2vs0mg"},{"bike_id":"ef11b0f3-d54b-4c01-8da3-94146d9da72b","system_id":"levelo_inurba_marseille","lat":43.302784,"lon":5.377158,"is_reserved":false,"is_disabled":false,"rental_uris":{"android":"levelo://app?vid=ef11b0f3-d54b-4c01-8da3-94146d9da72b","ios":"levelo://app?vid=ef11b0f3-d54b-4c01-8da3-94146d9da72b"},"vehicle_type_id":"4","last_reported":1714565633,"current_range_meters":24000,"station_id":"ce4bguh2rcd13ifvqcj0","pricing_plan_id":"cebpf4jnsgd1na2vs0mg"},{"bike_id":"5c14b3bb-2dd0-4efc-bc82-917399bfd525","system_id":"levelo_inurba_marseille","lat":43.302784,"lon":5.377158,"is_reserved":false,"is_disabled":false,"rental_uris":{"android":"levelo://app?vid=5c14b3bb-2dd0-4efc-bc82-917399bfd525","ios":"levelo://app?vid=5c14b3bb-2dd0-4efc-bc82-917399bfd525"},"vehicle_type_id":"4","last_reported":1714565633,"current_range_meters":29600,"station_id":"ce4bguh2rcd13ifvqcj0","pricing_plan_id":"cebpf4jnsgd1na2vs0mg"},{"bike_id":"85bd8425-569d-4220-a6a5-b074c1cca34a","system_id":"levelo_inurba_marseille","lat":43.301429,"lon":5.37413,"is_reserved":false,"is_disabled":false,"rental_uris":{"android":"levelo://app?vid=85bd8425-569d-4220-a6a5-b074c1cca34a","ios":"levelo://app?vid=85bd8425-569d-4220-a6a5-b074c1cca34a"},"vehicle_type_id":"4","last_reported":1714565633,"current_range_meters":25600,"station_id":"ce4bgs92rcd13ifvqcc0","pricing_plan_id":"cebpf4jnsgd1na2vs0mg"},{"bike_id":"4eabf273-d6ab-4f69-aa17-5ce3078e9cfa","system_id":"levelo_inurba_marseille","lat":43.31988,"lon":5.38143,"is_reserved":false,"is_disabled":false,"rental_uris":{"android":"levelo://app?vid=4eabf273-d6ab-4f69-aa17-5ce3078e9cfa","ios":"levelo://app?vid=4eabf273-d6ab-4f69-aa17-5ce3078e9cfa"},"vehicle_type_id":"4","last_reported":1714565633,"current_range_meters":9600,"station_id":"ce4bhr12rcd13ifvqhpg","pricing_plan_id":"cebpf4jnsgd1na2vs0mg"},{"bike_id":"952baf88-6145-4f3f-b32f-66ddd2b06b56","system_id":"levelo_inurba_marseille","lat":43.31998,"lon":5.38151,"is_reserved":false,"is_disabled":false,"rental_uris":{"android":"levelo://app?vid=952baf88-6145-4f3f-b32f-66ddd2b06b56","ios":"levelo://app?vid=952baf88-6145-4f3f-b32f-66ddd2b06b56"},"vehicle_type_id":"4","last_reported":1714565633,"current_range_meters":3200,"station_id":"ce4bhr12rcd13ifvqhpg","pricing_plan_id":"cebpf4jnsgd1na2vs0mg"},{"bike_id":"4b678404-bcb7-469e-8217-1687e76be9e0","system_id":"levelo_inurba_marseille","lat":43.31992,"lon":5.38158,"is_reserved":false,"is_disabled":false,"rental_uris":{"android":"levelo://app?vid=4b678404-bcb7-469e-8217-1687e76be9e0","ios":"levelo://app?vid=4b678404-bcb7-469e-8217-1687e76be9e0"},"vehicle_type_id":"4","last_reported":1714565633,"current_range_meters":20400,"station_id":"ce4bhr12rcd13ifvqhpg","pricing_plan_id":"cebpf4jnsgd1na2vs0mg"},{"bike_id":"b3400650-0334-4551-92b0-231f6450255b","system_id":"levelo_inurba_marseille","lat":43.31995,"lon":5.38159,"is_reserved":false,"is_disabled":false,"rental_uris":{"android":"levelo://app?vid=b3400650-0334-4551-92b0-231f6450255b","ios":"levelo://app?vid=b3400650-0334-4551-92b0-231f6450255b"},"vehicle_type_id":"4","last_reported":1714565633,"current_range_meters":10800,"station_id":"ce4bhr12rcd13ifvqhpg","pricing_plan_id":"cebpf4jnsgd1na2vs0mg"},{"bike_id":"62e67821-9029-4427-a08b-ac2ae6c883ec","system_id":"levelo_inurba_marseille","lat":43.31365,"lon":5.38492,"is_reserved":false,"is_disabled":false,"rental_uris":{"android":"levelo://app?vid=62e67821-9029-4427-a08b-ac2ae6c883ec","ios":"levelo://app?vid=62e67821-9029-4427-a08b-ac2ae6c883ec"},"vehicle_type_id":"4","last_reported":1714565633,"current_range_meters":22000,"station_id":"ce4bgt92rcd13ifvqcf0","pricing_plan_id":"cebpf4jnsgd1na2vs0mg"},{"bike_id":"dc5a2d18-5f40-4df4-8730-9ab57a92e2a3","system_id":"levelo_inurba_marseille","lat":43.299222,"lon":5.365554,"is_reserved":false,"is_disabled":false,"rental_uris":{"android":"levelo://app?vid=dc5a2d18-5f40-4df4-8730-9ab57a92e2a3","ios":"levelo://app?vid=dc5a2d18-5f40-4df4-8730-9ab57a92e2a3"},"vehicle_type_id":"4","last_reported":1714565633,"current_range_meters":11200,"station_id":"ce4bgm92rcd13ifvqbr0","pricing_plan_id":"cebpf4jnsgd1na2vs0mg"},{"bike_id":"d6edce54-da23-46d9-ab5e-150c91e33c97","system_id":"levelo_inurba_marseille","lat":43.299724,"lon":5.371829,"is_reserved":false,"is_disabled":false,"rental_uris":{"android":"levelo://app?vid=d6edce54-da23-46d9-ab5e-150c91e33c97","ios":"levelo://app?vid=d6edce54-da23-46d9-ab5e-150c91e33c97"},"vehicle_type_id":"4","last_reported":1714565633,"current_range_meters":23600,"station_id":"ce4bgr92rcd13ifvqc7g","pricing_plan_id":"cebpf4jnsgd1na2vs0mg"},{"bike_id":"75882bba-ee99-4a4b-8350-acae74e9e0e5","system_id":"levelo_inurba_marseille","lat":43.299222,"lon":5.365554,"is_reserved":false,"is_disabled":false,"rental_uris":{"android":"levelo://app?vid=75882bba-ee99-4a4b-8350-acae74e9e0e5","ios":"levelo://app?vid=75882bba-ee99-4a4b-8350-acae74e9e0e5"},"vehicle_type_id":"4","last_reported":1714565633,"current_range_meters":26400,"station_id":"ce4bgm92rcd13ifvqbr0","pricing_plan_id":"cebpf4jnsgd1na2vs0mg"},{"bike_id":"5fa8005a-ceea-458d-99ad-c677a9ff06ae","system_id":"levelo_inurba_marseille","lat":43.299222,"lon":5.365554,"is_reserved":false,"is_disabled":false,"rental_uris":{"android":"levelo://app?vid=5fa8005a-ceea-458d-99ad-c677a9ff06ae","ios":"levelo://app?vid=5fa8005a-ceea-458d-99ad-c677a9ff06ae"},"vehicle_type_id":"4","last_reported":1714565633,"current_range_meters":26800,"station_id":"ce4bgm92rcd13ifvqbr0","pricing_plan_id":"cebpf4jnsgd1na2vs0mg"},{"bike_id":"781a3af4-7899-4914-9cb6-c23595608940","system_id":"levelo_inurba_marseille","lat":43.299724,"lon":5.371829,"is_reserved":false,"is_disabled":false,"rental_uris":{"android":"levelo://app?vid=781a3af4-7899-4914-9cb6-c23595608940","ios":"levelo://app?vid=781a3af4-7899-4914-9cb6-c23595608940"},"vehicle_type_id":"4","last_reported":1714565633,"current_range_meters":30400,"station_id":"ce4bgr92rcd13ifvqc7g","pricing_plan_id":"cebpf4jnsgd1na2vs0mg"},{"bike_id":"245f2010-6750-453f-ac7c-27a2b565b4e3","system_id":"levelo_inurba_marseille","lat":43.299222,"lon":5.365554,"is_reserved":false,"is_disabled":false,"rental_uris":{"android":"levelo://app?vid=245f2010-6750-453f-ac7c-27a2b565b4e3","ios":"levelo://app?vid=245f2010-6750-453f-ac7c-27a2b565b4e3"},"vehicle_type_id":"4","last_reported":1714565633,"current_range_meters":12400,"station_id":"ce4bgm92rcd13ifvqbr0","pricing_plan_id":"cebpf4jnsgd1na2vs0mg"},{"bike_id":"19d2384a-4139-41ef-8430-e9e1ff8665ed","system_id":"levelo_inurba_marseille","lat":43.299222,"lon":5.365554,"is_reserved":false,"is_disabled":false,"rental_uris":{"android":"levelo://app?vid=19d2384a-4139-41ef-8430-e9e1ff8665ed","ios":"levelo://app?vid=19d2384a-4139-41ef-8430-e9e1ff8665ed"},"vehicle_type_id":"4","last_reported":1714565633,"current_range_meters":8400,"station_id":"ce4bgm92rcd13ifvqbr0","pricing_plan_id":"cebpf4jnsgd1na2vs0mg"},{"bike_id":"eb33a0cd-46c5-49d4-bf2a-52328d9be6a9","system_id":"levelo_inurba_marseille","lat":43.299222,"lon":5.365554,"is_reserved":false,"is_disabled":false,"rental_uris":{"android":"levelo://app?vid=eb33a0cd-46c5-49d4-bf2a-52328d9be6a9","ios":"levelo://app?vid=eb33a0cd-46c5-49d4-bf2a-52328d9be6a9"},"vehicle_type_id":"4","last_reported":1714565633,"current_range_meters":19200,"station_id":"ce4bgm92rcd13ifvqbr0","pricing_plan_id":"cebpf4jnsgd1na2vs0mg"},{"bike_id":"9335b21e-84b8-4b8c-b34e-cbf3584805db","system_id":"levelo_inurba_marseille","lat":43.299724,"lon":5.371829,"is_reserved":false,"is_disabled":false,"rental_uris":{"android":"levelo://app?vid=9335b21e-84b8-4b8c-b34e-cbf3584805db","ios":"levelo://app?vid=9335b21e-84b8-4b8c-b34e-cbf3584805db"},"vehicle_type_id":"4","last_reported":1714565633,"current_range_meters":6400,"station_id":"ce4bgr92rcd13ifvqc7g","pricing_plan_id":"cebpf4jnsgd1na2vs0mg"},{"bike_id":"6e125a9a-67da-4d2a-a483-2937ecdd964d","system_id":"levelo_inurba_marseille","lat":43.29853,"lon":5.36287,"is_reserved":false,"is_disabled":false,"rental_uris":{"android":"levelo://app?vid=6e125a9a-67da-4d2a-a483-2937ecdd964d","ios":"levelo://app?vid=6e125a9a-67da-4d2a-a483-2937ecdd964d"},"vehicle_type_id":"4","last_reported":1714565633,"current_range_meters":31200,"station_id":"ce4bgpp2rcd13ifvqc3g","pricing_plan_id":"cebpf4jnsgd1na2vs0mg"},{"bike_id":"d40f2e9e-7e42-4b2f-a78a-2ca7e83f9418","system_id":"levelo_inurba_marseille","lat":43.29854,"lon":5.36278,"is_reserved":false,"is_disabled":false,"rental_uris":{"android":"levelo://app?vid=d40f2e9e-7e42-4b2f-a78a-2ca7e83f9418","ios":"levelo://app?vid=d40f2e9e-7e42-4b2f-a78a-2ca7e83f9418"},"vehicle_type_id":"4","last_reported":1714565633,"current_range_meters":26400,"station_id":"ce4bgpp2rcd13ifvqc3g","pricing_plan_id":"cebpf4jnsgd1na2vs0mg"},{"bike_id":"f1df5992-9046-4411-a7e2-bd4bfac5c961","system_id":"levelo_inurba_marseille","lat":43.29852,"lon":5.36287,"is_reserved":false,"is_disabled":false,"rental_uris":{"android":"levelo://app?vid=f1df5992-9046-4411-a7e2-bd4bfac5c961","ios":"levelo://app?vid=f1df5992-9046-4411-a7e2-bd4bfac5c961"},"vehicle_type_id":"4","last_reported":1714565633,"current_range_meters":24400,"station_id":"ce4bgpp2rcd13ifvqc3g","pricing_plan_id":"cebpf4jnsgd1na2vs0mg"},{"bike_id":"759e5d3b-f35e-4505-a173-8b2863b80224","system_id":"levelo_inurba_marseille","lat":43.29851,"lon":5.36291,"is_reserved":false,"is_disabled":false,"rental_uris":{"android":"levelo://app?vid=759e5d3b-f35e-4505-a173-8b2863b80224","ios":"levelo://app?vid=759e5d3b-f35e-4505-a173-8b2863b80224"},"vehicle_type_id":"4","last_reported":1714565633,"current_range_meters":22800,"station_id":"ce4bgpp2rcd13ifvqc3g","pricing_plan_id":"cebpf4jnsgd1na2vs0mg"},{"bike_id":"e8541831-866d-4e02-aa69-dd14a4debf51","system_id":"levelo_inurba_marseille","lat":43.29851,"lon":5.3629,"is_reserved":false,"is_disabled":false,"rental_uris":{"android":"levelo://app?vid=e8541831-866d-4e02-aa69-dd14a4debf51","ios":"levelo://app?vid=e8541831-866d-4e02-aa69-dd14a4debf51"},"vehicle_type_id":"4","last_reported":1714565633,"current_range_meters":28400,"station_id":"ce4bgpp2rcd13ifvqc3g","pricing_plan_id":"cebpf4jnsgd1na2vs0mg"},{"bike_id":"fee65362-64dc-4047-a50f-d6fe3d358077","system_id":"levelo_inurba_marseille","lat":43.29851,"lon":5.36289,"is_reserved":false,"is_disabled":false,"rental_uris":{"android":"levelo://app?vid=fee65362-64dc-4047-a50f-d6fe3d358077","ios":"levelo://app?vid=fee65362-64dc-4047-a50f-d6fe3d358077"},"vehicle_type_id":"4","last_reported":1714565633,"current_range_meters":23200,"station_id":"ce4bgpp2rcd13ifvqc3g","pricing_plan_id":"cebpf4jnsgd1na2vs0mg"},{"bike_id":"17dc2ba4-a297-4c9f-aabe-9cf081ea9f45","system_id":"levelo_inurba_marseille","lat":43.29851,"lon":5.362803,"is_reserved":false,"is_disabled":false,"rental_uris":{"android":"levelo://app?vid=17dc2ba4-a297-4c9f-aabe-9cf081ea9f45","ios":"levelo://app?vid=17dc2ba4-a297-4c9f-aabe-9cf081ea9f45"},"vehicle_type_id":"4","last_reported":1714565633,"current_range_meters":23200,"station_id":"ce4bgpp2rcd13ifvqc3g","pricing_plan_id":"cebpf4jnsgd1na2vs0mg"},{"bike_id":"115b28e0-2805-4a64-8420-691101163974","system_id":"levelo_inurba_marseille","lat":43.2985,"lon":5.36279,"is_reserved":false,"is_disabled":false,"rental_uris":{"android":"levelo://app?vid=115b28e0-2805-4a64-8420-691101163974","ios":"levelo://app?vid=115b28e0-2805-4a64-8420-691101163974"},"vehicle_type_id":"4","last_reported":1714565633,"current_range_meters":10800,"station_id":"ce4bgpp2rcd13ifvqc3g","pricing_plan_id":"cebpf4jnsgd1na2vs0mg"},{"bike_id":"9d47d2fb-192c-4a2d-9d42-6e89bc135ae6","system_id":"levelo_inurba_marseille","lat":43.29849,"lon":5.36284,"is_reserved":false,"is_disabled":false,"rental_uris":{"android":"levelo://app?vid=9d47d2fb-192c-4a2d-9d42-6e89bc135ae6","ios":"levelo://app?vid=9d47d2fb-192c-4a2d-9d42-6e89bc135ae6"},"vehicle_type_id":"4","last_reported":1714565633,"current_range_meters":3600,"station_id":"ce4bgpp2rcd13ifvqc3g","pricing_plan_id":"cebpf4jnsgd1na2vs0mg"},{"bike_id":"1e4ba49a-e7cd-4c9e-9904-a5994b970c61","system_id":"levelo_inurba_marseille","lat":43.30539,"lon":5.3842,"is_reserved":false,"is_disabled":false,"rental_uris":{"android":"levelo://app?vid=1e4ba49a-e7cd-4c9e-9904-a5994b970c61","ios":"levelo://app?vid=1e4ba49a-e7cd-4c9e-9904-a5994b970c61"},"vehicle_type_id":"4","last_reported":1714565633,"current_range_meters":30800,"station_id":"ce4bgg92rcd13ifvqb30","pricing_plan_id":"cebpf4jnsgd1na2vs0mg"},{"bike_id":"ece257b6-992f-40e5-bf83-259adbdeb6b1","system_id":"levelo_inurba_marseille","lat":43.29848,"lon":5.36283,"is_reserved":false,"is_disabled":false,"rental_uris":{"android":"levelo://app?vid=ece257b6-992f-40e5-bf83-259adbdeb6b1","ios":"levelo://app?vid=ece257b6-992f-40e5-bf83-259adbdeb6b1"},"vehicle_type_id":"4","last_reported":1714565633,"current_range_meters":21600,"station_id":"ce4bgpp2rcd13ifvqc3g","pricing_plan_id":"cebpf4jnsgd1na2vs0mg"},{"bike_id":"eef94e31-a688-4811-a5af-0d0e86bb0163","system_id":"levelo_inurba_marseille","lat":43.299243,"lon":5.374807,"is_reserved":false,"is_disabled":false,"rental_uris":{"android":"levelo://app?vid=eef94e31-a688-4811-a5af-0d0e86bb0163","ios":"levelo://app?vid=eef94e31-a688-4811-a5af-0d0e86bb0163"},"vehicle_type_id":"4","last_reported":1714565633,"current_range_meters":5600,"station_id":"ce4bgjh2rcd13ifvqbg0","pricing_plan_id":"cebpf4jnsgd1na2vs0mg"},{"bike_id":"08ca568d-a82c-4079-baa4-82153591fac8","system_id":"levelo_inurba_marseille","lat":43.29847,"lon":5.36284,"is_reserved":false,"is_disabled":false,"rental_uris":{"android":"levelo://app?vid=08ca568d-a82c-4079-baa4-82153591fac8","ios":"levelo://app?vid=08ca568d-a82c-4079-baa4-82153591fac8"},"vehicle_type_id":"4","last_reported":1714565633,"current_range_meters":28000,"station_id":"ce4bgpp2rcd13ifvqc3g","pricing_plan_id":"cebpf4jnsgd1na2vs0mg"},{"bike_id":"a6ef382c-ed4d-4d62-adf5-4f21280fbcad","system_id":"levelo_inurba_marseille","lat":43.29846,"lon":5.36285,"is_reserved":false,"is_disabled":false,"rental_uris":{"android":"levelo://app?vid=a6ef382c-ed4d-4d62-adf5-4f21280fbcad","ios":"levelo://app?vid=a6ef382c-ed4d-4d62-adf5-4f21280fbcad"},"vehicle_type_id":"4","last_reported":1714565633,"current_range_meters":27200,"station_id":"ce4bgpp2rcd13ifvqc3g","pricing_plan_id":"cebpf4jnsgd1na2vs0mg"},{"bike_id":"6edb7bb5-6df4-4ee4-95b3-5ba1918086f9","system_id":"levelo_inurba_marseille","lat":43.298433,"lon":5.362774,"is_reserved":false,"is_disabled":false,"rental_uris":{"android":"levelo://app?vid=6edb7bb5-6df4-4ee4-95b3-5ba1918086f9","ios":"levelo://app?vid=6edb7bb5-6df4-4ee4-95b3-5ba1918086f9"},"vehicle_type_id":"4","last_reported":1714565633,"current_range_meters":31200,"station_id":"ce4bgpp2rcd13ifvqc3g","pricing_plan_id":"cebpf4jnsgd1na2vs0mg"},{"bike_id":"763ddc54-a2a0-4c47-8ce7-bdb37edd8b53","system_id":"levelo_inurba_marseille","lat":43.29845,"lon":5.36282,"is_reserved":false,"is_disabled":false,"rental_uris":{"android":"levelo://app?vid=763ddc54-a2a0-4c47-8ce7-bdb37edd8b53","ios":"levelo://app?vid=763ddc54-a2a0-4c47-8ce7-bdb37edd8b53"},"vehicle_type_id":"4","last_reported":1714565633,"current_range_meters":20400,"station_id":"ce4bgpp2rcd13ifvqc3g","pricing_plan_id":"cebpf4jnsgd1na2vs0mg"},{"bike_id":"9a2ee92e-95ba-4017-a23a-addd93ca5c66","system_id":"levelo_inurba_marseille","lat":43.30542,"lon":5.38429,"is_reserved":false,"is_disabled":false,"rental_uris":{"android":"levelo://app?vid=9a2ee92e-95ba-4017-a23a-addd93ca5c66","ios":"levelo://app?vid=9a2ee92e-95ba-4017-a23a-addd93ca5c66"},"vehicle_type_id":"4","last_reported":1714565633,"current_range_meters":29600,"station_id":"ce4bgg92rcd13ifvqb30","pricing_plan_id":"cebpf4jnsgd1na2vs0mg"},{"bike_id":"b65ead4b-b6af-4c75-931b-4ff5418e8148","system_id":"levelo_inurba_marseille","lat":43.29847,"lon":5.36265,"is_reserved":false,"is_disabled":false,"rental_uris":{"android":"levelo://app?vid=b65ead4b-b6af-4c75-931b-4ff5418e8148","ios":"levelo://app?vid=b65ead4b-b6af-4c75-931b-4ff5418e8148"},"vehicle_type_id":"4","last_reported":1714565633,"current_range_meters":31200,"station_id":"ce4bgpp2rcd13ifvqc3g","pricing_plan_id":"cebpf4jnsgd1na2vs0mg"},{"bike_id":"a7f64e09-9f11-488b-bfaf-738c97dd5098","system_id":"levelo_inurba_marseille","lat":43.29845,"lon":5.36275,"is_reserved":false,"is_disabled":false,"rental_uris":{"android":"levelo://app?vid=a7f64e09-9f11-488b-bfaf-738c97dd5098","ios":"levelo://app?vid=a7f64e09-9f11-488b-bfaf-738c97dd5098"},"vehicle_type_id":"4","last_reported":1714565633,"current_range_meters":31200,"station_id":"ce4bgpp2rcd13ifvqc3g","pricing_plan_id":"cebpf4jnsgd1na2vs0mg"},{"bike_id":"b60a3b3e-a273-4169-b8b5-b54fb1674386","system_id":"levelo_inurba_marseille","lat":43.29844,"lon":5.36281,"is_reserved":false,"is_disabled":false,"rental_uris":{"android":"levelo://app?vid=b60a3b3e-a273-4169-b8b5-b54fb1674386","ios":"levelo://app?vid=b60a3b3e-a273-4169-b8b5-b54fb1674386"},"vehicle_type_id":"4","last_reported":1714565633,"current_range_meters":26800,"station_id":"ce4bgpp2rcd13ifvqc3g","pricing_plan_id":"cebpf4jnsgd1na2vs0mg"},{"bike_id":"97ffce17-33a4-41dc-b021-5d3a97508aa0","system_id":"levelo_inurba_marseille","lat":43.298434,"lon":5.362754,"is_reserved":false,"is_disabled":false,"rental_uris":{"android":"levelo://app?vid=97ffce17-33a4-41dc-b021-5d3a97508aa0","ios":"levelo://app?vid=97ffce17-33a4-41dc-b021-5d3a97508aa0"},"vehicle_type_id":"4","last_reported":1714565633,"current_range_meters":23600,"station_id":"ce4bgpp2rcd13ifvqc3g","pricing_plan_id":"cebpf4jnsgd1na2vs0mg"},{"bike_id":"2c1b4e8f-fe9f-4fa9-b596-da3b7a2dda8d","system_id":"levelo_inurba_marseille","lat":43.29843,"lon":5.36276,"is_reserved":false,"is_disabled":false,"rental_uris":{"android":"levelo://app?vid=2c1b4e8f-fe9f-4fa9-b596-da3b7a2dda8d","ios":"levelo://app?vid=2c1b4e8f-fe9f-4fa9-b596-da3b7a2dda8d"},"vehicle_type_id":"4","last_reported":1714565633,"current_range_meters":29200,"station_id":"ce4bgpp2rcd13ifvqc3g","pricing_plan_id":"cebpf4jnsgd1na2vs0mg"},{"bike_id":"e695fb01-9bcd-4b35-bba6-8627462ecd88","system_id":"levelo_inurba_marseille","lat":43.29842,"lon":5.36278,"is_reserved":false,"is_disabled":false,"rental_uris":{"android":"levelo://app?vid=e695fb01-9bcd-4b35-bba6-8627462ecd88","ios":"levelo://app?vid=e695fb01-9bcd-4b35-bba6-8627462ecd88"},"vehicle_type_id":"4","last_reported":1714565633,"current_range_meters":22400,"station_id":"ce4bgpp2rcd13ifvqc3g","pricing_plan_id":"cebpf4jnsgd1na2vs0mg"},{"bike_id":"679a35f3-c3a1-450c-85ce-a9e24d563cce","system_id":"levelo_inurba_marseille","lat":43.30544,"lon":5.38436,"is_reserved":false,"is_disabled":false,"rental_uris":{"android":"levelo://app?vid=679a35f3-c3a1-450c-85ce-a9e24d563cce","ios":"levelo://app?vid=679a35f3-c3a1-450c-85ce-a9e24d563cce"},"vehicle_type_id":"4","last_reported":1714565633,"current_range_meters":26800,"station_id":"ce4bgg92rcd13ifvqb30","pricing_plan_id":"cebpf4jnsgd1na2vs0mg"},{"bike_id":"55167aa2-0b8c-436b-82fa-5edf08c47d20","system_id":"levelo_inurba_marseille","lat":43.29837,"lon":5.363071,"is_reserved":false,"is_disabled":false,"rental_uris":{"android":"levelo://app?vid=55167aa2-0b8c-436b-82fa-5edf08c47d20","ios":"levelo://app?vid=55167aa2-0b8c-436b-82fa-5edf08c47d20"},"vehicle_type_id":"4","last_reported":1714565633,"current_range_meters":16000,"station_id":"ce4bgpp2rcd13ifvqc3g","pricing_plan_id":"cebpf4jnsgd1na2vs0mg"},{"bike_id":"3cc53f19-5e7d-462b-bb17-856d2431ec1a","system_id":"levelo_inurba_marseille","lat":43.29841,"lon":5.36278,"is_reserved":false,"is_disabled":false,"rental_uris":{"android":"levelo://app?vid=3cc53f19-5e7d-462b-bb17-856d2431ec1a","ios":"levelo://app?vid=3cc53f19-5e7d-462b-bb17-856d2431ec1a"},"vehicle_type_id":"4","last_reported":1714565633,"current_range_meters":27200,"station_id":"ce4bgpp2rcd13ifvqc3g","pricing_plan_id":"cebpf4jnsgd1na2vs0mg"},{"bike_id":"ab3234e2-c9e9-4f6c-b33f-be79c27f96ba","system_id":"levelo_inurba_marseille","lat":43.29842,"lon":5.36267,"is_reserved":false,"is_disabled":false,"rental_uris":{"android":"levelo://app?vid=ab3234e2-c9e9-4f6c-b33f-be79c27f96ba","ios":"levelo://app?vid=ab3234e2-c9e9-4f6c-b33f-be79c27f96ba"},"vehicle_type_id":"4","last_reported":1714565633,"current_range_meters":31200,"station_id":"ce4bgpp2rcd13ifvqc3g","pricing_plan_id":"cebpf4jnsgd1na2vs0mg"},{"bike_id":"583af1b8-370e-4ddc-80c7-efaf2c870415","system_id":"levelo_inurba_marseille","lat":43.29841,"lon":5.36266,"is_reserved":false,"is_disabled":false,"rental_uris":{"android":"levelo://app?vid=583af1b8-370e-4ddc-80c7-efaf2c870415","ios":"levelo://app?vid=583af1b8-370e-4ddc-80c7-efaf2c870415"},"vehicle_type_id":"4","last_reported":1714565633,"current_range_meters":4800,"station_id":"ce4bgpp2rcd13ifvqc3g","pricing_plan_id":"cebpf4jnsgd1na2vs0mg"},{"bike_id":"e48223a4-d4ee-424c-a5ed-b03b2ac52ac3","system_id":"levelo_inurba_marseille","lat":43.2984,"lon":5.36268,"is_reserved":false,"is_disabled":false,"rental_uris":{"android":"levelo://app?vid=e48223a4-d4ee-424c-a5ed-b03b2ac52ac3","ios":"levelo://app?vid=e48223a4-d4ee-424c-a5ed-b03b2ac52ac3"},"vehicle_type_id":"4","last_reported":1714565633,"current_range_meters":25200,"station_id":"ce4bgpp2rcd13ifvqc3g","pricing_plan_id":"cebpf4jnsgd1na2vs0mg"},{"bike_id":"fb507cf5-adeb-4c44-b221-fdb564a2f78f","system_id":"levelo_inurba_marseille","lat":43.2984,"lon":5.36267,"is_reserved":false,"is_disabled":false,"rental_uris":{"android":"levelo://app?vid=fb507cf5-adeb-4c44-b221-fdb564a2f78f","ios":"levelo://app?vid=fb507cf5-adeb-4c44-b221-fdb564a2f78f"},"vehicle_type_id":"4","last_reported":1714565633,"current_range_meters":24400,"station_id":"ce4bgpp2rcd13ifvqc3g","pricing_plan_id":"cebpf4jnsgd1na2vs0mg"},{"bike_id":"f40c9c0a-f3b5-4756-8f58-69d665e23edc","system_id":"levelo_inurba_marseille","lat":43.29839,"lon":5.36267,"is_reserved":false,"is_disabled":false,"rental_uris":{"android":"levelo://app?vid=f40c9c0a-f3b5-4756-8f58-69d665e23edc","ios":"levelo://app?vid=f40c9c0a-f3b5-4756-8f58-69d665e23edc"},"vehicle_type_id":"4","last_reported":1714565633,"current_range_meters":27200,"station_id":"ce4bgpp2rcd13ifvqc3g","pricing_plan_id":"cebpf4jnsgd1na2vs0mg"},{"bike_id":"f0fcc9b4-7827-4a54-874a-546abc319221","system_id":"levelo_inurba_marseille","lat":43.29838,"lon":5.36265,"is_reserved":false,"is_disabled":false,"rental_uris":{"android":"levelo://app?vid=f0fcc9b4-7827-4a54-874a-546abc319221","ios":"levelo://app?vid=f0fcc9b4-7827-4a54-874a-546abc319221"},"vehicle_type_id":"4","last_reported":1714565633,"current_range_meters":26000,"station_id":"ce4bgpp2rcd13ifvqc3g","pricing_plan_id":"cebpf4jnsgd1na2vs0mg"},{"bike_id":"72f4ea23-22a9-4715-9109-ee3d7635ab98","system_id":"levelo_inurba_marseille","lat":43.31176,"lon":5.38708,"is_reserved":false,"is_disabled":false,"rental_uris":{"android":"levelo://app?vid=72f4ea23-22a9-4715-9109-ee3d7635ab98","ios":"levelo://app?vid=72f4ea23-22a9-4715-9109-ee3d7635ab98"},"vehicle_type_id":"4","last_reported":1714565633,"current_range_meters":20000,"station_id":"ce4bgv12rcd13ifvqcp0","pricing_plan_id":"cebpf4jnsgd1na2vs0mg"},{"bike_id":"0a2dd885-c95e-4381-8c98-b74779aa3340","system_id":"levelo_inurba_marseille","lat":43.311819,"lon":5.387144,"is_reserved":false,"is_disabled":false,"rental_uris":{"android":"levelo://app?vid=0a2dd885-c95e-4381-8c98-b74779aa3340","ios":"levelo://app?vid=0a2dd885-c95e-4381-8c98-b74779aa3340"},"vehicle_type_id":"4","last_reported":1714565633,"current_range_meters":4000,"station_id":"ce4bgv12rcd13ifvqcp0","pricing_plan_id":"cebpf4jnsgd1na2vs0mg"},{"bike_id":"c13774fd-b874-402d-9c8d-e010d875ae80","system_id":"levelo_inurba_marseille","lat":43.299243,"lon":5.37481,"is_reserved":false,"is_disabled":false,"rental_uris":{"android":"levelo://app?vid=c13774fd-b874-402d-9c8d-e010d875ae80","ios":"levelo://app?vid=c13774fd-b874-402d-9c8d-e010d875ae80"},"vehicle_type_id":"4","last_reported":1714565633,"current_range_meters":16800,"station_id":"ce4bgjh2rcd13ifvqbg0","pricing_plan_id":"cebpf4jnsgd1na2vs0mg"},{"bike_id":"c1450498-c3e3-475b-892d-131828c2237e","system_id":"levelo_inurba_marseille","lat":43.297774,"lon":5.370875,"is_reserved":false,"is_disabled":false,"rental_uris":{"android":"levelo://app?vid=c1450498-c3e3-475b-892d-131828c2237e","ios":"levelo://app?vid=c1450498-c3e3-475b-892d-131828c2237e"},"vehicle_type_id":"4","last_reported":1714565633,"current_range_meters":7200,"station_id":"ce4bgop2rcd13ifvqc1g","pricing_plan_id":"cebpf4jnsgd1na2vs0mg"},{"bike_id":"87afb410-72d5-4fbd-b38b-b15c82153b5f","system_id":"levelo_inurba_marseille","lat":43.322872,"lon":5.382756,"is_reserved":false,"is_disabled":false,"rental_uris":{"android":"levelo://app?vid=87afb410-72d5-4fbd-b38b-b15c82153b5f","ios":"levelo://app?vid=87afb410-72d5-4fbd-b38b-b15c82153b5f"},"vehicle_type_id":"4","last_reported":1714565633,"current_range_meters":0,"station_id":"ce4bhr12rcd13ifvqhqg","pricing_plan_id":"cebpf4jnsgd1na2vs0mg"},{"bike_id":"b23e638d-d717-42cb-b5a4-7b276584ff37","system_id":"levelo_inurba_marseille","lat":43.322872,"lon":5.382756,"is_reserved":false,"is_disabled":false,"rental_uris":{"android":"levelo://app?vid=b23e638d-d717-42cb-b5a4-7b276584ff37","ios":"levelo://app?vid=b23e638d-d717-42cb-b5a4-7b276584ff37"},"vehicle_type_id":"4","last_reported":1714565633,"current_range_meters":17200,"station_id":"ce4bhr12rcd13ifvqhqg","pricing_plan_id":"cebpf4jnsgd1na2vs0mg"},{"bike_id":"3bff82e0-6a79-4451-a401-25a6a8746999","system_id":"levelo_inurba_marseille","lat":43.322872,"lon":5.382756,"is_reserved":false,"is_disabled":false,"rental_uris":{"android":"levelo://app?vid=3bff82e0-6a79-4451-a401-25a6a8746999","ios":"levelo://app?vid=3bff82e0-6a79-4451-a401-25a6a8746999"},"vehicle_type_id":"4","last_reported":1714565633,"current_range_meters":16000,"station_id":"ce4bhr12rcd13ifvqhqg","pricing_plan_id":"cebpf4jnsgd1na2vs0mg"},{"bike_id":"36dc4ac7-cf3b-456a-bc46-48f0a135afc3","system_id":"levelo_inurba_marseille","lat":43.322872,"lon":5.382756,"is_reserved":false,"is_disabled":false,"rental_uris":{"android":"levelo://app?vid=36dc4ac7-cf3b-456a-bc46-48f0a135afc3","ios":"levelo://app?vid=36dc4ac7-cf3b-456a-bc46-48f0a135afc3"},"vehicle_type_id":"4","last_reported":1714565633,"current_range_meters":31200,"station_id":"ce4bhr12rcd13ifvqhqg","pricing_plan_id":"cebpf4jnsgd1na2vs0mg"},{"bike_id":"32ac7f71-32b1-4afd-8222-5525a8c6d46d","system_id":"levelo_inurba_marseille","lat":43.322872,"lon":5.382756,"is_reserved":false,"is_disabled":false,"rental_uris":{"android":"levelo://app?vid=32ac7f71-32b1-4afd-8222-5525a8c6d46d","ios":"levelo://app?vid=32ac7f71-32b1-4afd-8222-5525a8c6d46d"},"vehicle_type_id":"4","last_reported":1714565633,"current_range_meters":6800,"station_id":"ce4bhr12rcd13ifvqhqg","pricing_plan_id":"cebpf4jnsgd1na2vs0mg"},{"bike_id":"726e1e87-cba6-41f7-ad2e-489ae4aa3f9f","system_id":"levelo_inurba_marseille","lat":43.322872,"lon":5.382756,"is_reserved":false,"is_disabled":false,"rental_uris":{"android":"levelo://app?vid=726e1e87-cba6-41f7-ad2e-489ae4aa3f9f","ios":"levelo://app?vid=726e1e87-cba6-41f7-ad2e-489ae4aa3f9f"},"vehicle_type_id":"4","last_reported":1714565633,"current_range_meters":31200,"station_id":"ce4bhr12rcd13ifvqhqg","pricing_plan_id":"cebpf4jnsgd1na2vs0mg"},{"bike_id":"6506c128-ea5f-4a9e-8e94-9b1f3fce7950","system_id":"levelo_inurba_marseille","lat":43.322872,"lon":5.382756,"is_reserved":false,"is_disabled":false,"rental_uris":{"android":"levelo://app?vid=6506c128-ea5f-4a9e-8e94-9b1f3fce7950","ios":"levelo://app?vid=6506c128-ea5f-4a9e-8e94-9b1f3fce7950"},"vehicle_type_id":"4","last_reported":1714565633,"current_range_meters":31600,"station_id":"ce4bhr12rcd13ifvqhqg","pricing_plan_id":"cebpf4jnsgd1na2vs0mg"},{"bike_id":"04a0f4e3-8764-424d-8acb-4d3e6efdc9b5","system_id":"levelo_inurba_marseille","lat":43.297163,"lon":5.365866,"is_reserved":false,"is_disabled":false,"rental_uris":{"android":"levelo://app?vid=04a0f4e3-8764-424d-8acb-4d3e6efdc9b5","ios":"levelo://app?vid=04a0f4e3-8764-424d-8acb-4d3e6efdc9b5"},"vehicle_type_id":"4","last_reported":1714565633,"current_range_meters":12800,"station_id":"ce4bgn12rcd13ifvqbt0","pricing_plan_id":"cebpf4jnsgd1na2vs0mg"},{"bike_id":"e0651902-77d5-4cb9-ba0f-3992d129b729","system_id":"levelo_inurba_marseille","lat":43.29713,"lon":5.36608,"is_reserved":false,"is_disabled":false,"rental_uris":{"android":"levelo://app?vid=e0651902-77d5-4cb9-ba0f-3992d129b729","ios":"levelo://app?vid=e0651902-77d5-4cb9-ba0f-3992d129b729"},"vehicle_type_id":"4","last_reported":1714565633,"current_range_meters":11200,"station_id":"ce4bgn12rcd13ifvqbt0","pricing_plan_id":"cebpf4jnsgd1na2vs0mg"},{"bike_id":"5daf5fce-bca2-4527-9ec6-f36c1363dc50","system_id":"levelo_inurba_marseille","lat":43.297163,"lon":5.365866,"is_reserved":false,"is_disabled":false,"rental_uris":{"android":"levelo://app?vid=5daf5fce-bca2-4527-9ec6-f36c1363dc50","ios":"levelo://app?vid=5daf5fce-bca2-4527-9ec6-f36c1363dc50"},"vehicle_type_id":"4","last_reported":1714565633,"current_range_meters":26400,"station_id":"ce4bgn12rcd13ifvqbt0","pricing_plan_id":"cebpf4jnsgd1na2vs0mg"},{"bike_id":"19d275d7-7e4d-42ca-9c06-38386ce1f0c8","system_id":"levelo_inurba_marseille","lat":43.297163,"lon":5.365866,"is_reserved":false,"is_disabled":false,"rental_uris":{"android":"levelo://app?vid=19d275d7-7e4d-42ca-9c06-38386ce1f0c8","ios":"levelo://app?vid=19d275d7-7e4d-42ca-9c06-38386ce1f0c8"},"vehicle_type_id":"4","last_reported":1714565633,"current_range_meters":24800,"station_id":"ce4bgn12rcd13ifvqbt0","pricing_plan_id":"cebpf4jnsgd1na2vs0mg"},{"bike_id":"e1bb68d1-2aa2-4585-b037-10ced0bab58b","system_id":"levelo_inurba_marseille","lat":43.2968,"lon":5.37291,"is_reserved":false,"is_disabled":false,"rental_uris":{"android":"levelo://app?vid=e1bb68d1-2aa2-4585-b037-10ced0bab58b","ios":"levelo://app?vid=e1bb68d1-2aa2-4585-b037-10ced0bab58b"},"vehicle_type_id":"4","last_reported":1714565633,"current_range_meters":25200,"station_id":"ce4bgk12rcd13ifvqbj0","pricing_plan_id":"cebpf4jnsgd1na2vs0mg"},{"bike_id":"a4f3d483-892f-4f84-917b-aa456f26e90b","system_id":"levelo_inurba_marseille","lat":43.2968,"lon":5.37291,"is_reserved":false,"is_disabled":false,"rental_uris":{"android":"levelo://app?vid=a4f3d483-892f-4f84-917b-aa456f26e90b","ios":"levelo://app?vid=a4f3d483-892f-4f84-917b-aa456f26e90b"},"vehicle_type_id":"4","last_reported":1714565633,"current_range_meters":17200,"station_id":"ce4bgk12rcd13ifvqbj0","pricing_plan_id":"cebpf4jnsgd1na2vs0mg"},{"bike_id":"23c872da-3afd-486a-9337-4149ee8e2769","system_id":"levelo_inurba_marseille","lat":43.2968,"lon":5.37291,"is_reserved":false,"is_disabled":false,"rental_uris":{"android":"levelo://app?vid=23c872da-3afd-486a-9337-4149ee8e2769","ios":"levelo://app?vid=23c872da-3afd-486a-9337-4149ee8e2769"},"vehicle_type_id":"4","last_reported":1714565633,"current_range_meters":23200,"station_id":"ce4bgk12rcd13ifvqbj0","pricing_plan_id":"cebpf4jnsgd1na2vs0mg"},{"bike_id":"72df074c-c3a0-40ff-9cc9-3f8adf65bc88","system_id":"levelo_inurba_marseille","lat":43.2968,"lon":5.37291,"is_reserved":false,"is_disabled":false,"rental_uris":{"android":"levelo://app?vid=72df074c-c3a0-40ff-9cc9-3f8adf65bc88","ios":"levelo://app?vid=72df074c-c3a0-40ff-9cc9-3f8adf65bc88"},"vehicle_type_id":"4","last_reported":1714565633,"current_range_meters":29200,"station_id":"ce4bgk12rcd13ifvqbj0","pricing_plan_id":"cebpf4jnsgd1na2vs0mg"},{"bike_id":"8d83816b-6b5e-4761-bec9-9fd15b0d202f","system_id":"levelo_inurba_marseille","lat":43.2968,"lon":5.37291,"is_reserved":false,"is_disabled":false,"rental_uris":{"android":"levelo://app?vid=8d83816b-6b5e-4761-bec9-9fd15b0d202f","ios":"levelo://app?vid=8d83816b-6b5e-4761-bec9-9fd15b0d202f"},"vehicle_type_id":"4","last_reported":1714565633,"current_range_meters":19200,"station_id":"ce4bgk12rcd13ifvqbj0","pricing_plan_id":"cebpf4jnsgd1na2vs0mg"},{"bike_id":"a5abed13-935f-48c9-bb6a-c81328076f3c","system_id":"levelo_inurba_marseille","lat":43.296129,"lon":5.370777,"is_reserved":false,"is_disabled":false,"rental_uris":{"android":"levelo://app?vid=a5abed13-935f-48c9-bb6a-c81328076f3c","ios":"levelo://app?vid=a5abed13-935f-48c9-bb6a-c81328076f3c"},"vehicle_type_id":"4","last_reported":1714565633,"current_range_meters":31200,"station_id":"ce4bgnh2rcd13ifvqc0g","pricing_plan_id":"cebpf4jnsgd1na2vs0mg"},{"bike_id":"c12cedd0-9d1a-48ca-8ed0-677f7aac613a","system_id":"levelo_inurba_marseille","lat":43.29573,"lon":5.367355,"is_reserved":false,"is_disabled":false,"rental_uris":{"android":"levelo://app?vid=c12cedd0-9d1a-48ca-8ed0-677f7aac613a","ios":"levelo://app?vid=c12cedd0-9d1a-48ca-8ed0-677f7aac613a"},"vehicle_type_id":"4","last_reported":1714565633,"current_range_meters":30400,"station_id":"ce4bgph2rcd13ifvqc2g","pricing_plan_id":"cebpf4jnsgd1na2vs0mg"},{"bike_id":"1df47a56-dbfa-4cca-9537-58a355cc3e78","system_id":"levelo_inurba_marseille","lat":43.296131,"lon":5.370773,"is_reserved":false,"is_disabled":false,"rental_uris":{"android":"levelo://app?vid=1df47a56-dbfa-4cca-9537-58a355cc3e78","ios":"levelo://app?vid=1df47a56-dbfa-4cca-9537-58a355cc3e78"},"vehicle_type_id":"4","last_reported":1714565633,"current_range_meters":24000,"station_id":"ce4bgnh2rcd13ifvqc0g","pricing_plan_id":"cebpf4jnsgd1na2vs0mg"},{"bike_id":"c725bda3-4016-49c2-b6dd-9a2ee6bbf36a","system_id":"levelo_inurba_marseille","lat":43.296131,"lon":5.370773,"is_reserved":false,"is_disabled":false,"rental_uris":{"android":"levelo://app?vid=c725bda3-4016-49c2-b6dd-9a2ee6bbf36a","ios":"levelo://app?vid=c725bda3-4016-49c2-b6dd-9a2ee6bbf36a"},"vehicle_type_id":"4","last_reported":1714565633,"current_range_meters":14800,"station_id":"ce4bgnh2rcd13ifvqc0g","pricing_plan_id":"cebpf4jnsgd1na2vs0mg"},{"bike_id":"a60d1fc2-2c67-4ff7-bbcd-1933282a08c8","system_id":"levelo_inurba_marseille","lat":43.296131,"lon":5.370773,"is_reserved":false,"is_disabled":false,"rental_uris":{"android":"levelo://app?vid=a60d1fc2-2c67-4ff7-bbcd-1933282a08c8","ios":"levelo://app?vid=a60d1fc2-2c67-4ff7-bbcd-1933282a08c8"},"vehicle_type_id":"4","last_reported":1714565633,"current_range_meters":31200,"station_id":"ce4bgnh2rcd13ifvqc0g","pricing_plan_id":"cebpf4jnsgd1na2vs0mg"},{"bike_id":"28748f29-a00c-4c5c-9c95-a2364f60cb2f","system_id":"levelo_inurba_marseille","lat":43.29622,"lon":5.37158,"is_reserved":false,"is_disabled":false,"rental_uris":{"android":"levelo://app?vid=28748f29-a00c-4c5c-9c95-a2364f60cb2f","ios":"levelo://app?vid=28748f29-a00c-4c5c-9c95-a2364f60cb2f"},"vehicle_type_id":"4","last_reported":1714565633,"current_range_meters":31200,"station_id":"ce4bgnh2rcd13ifvqc0g","pricing_plan_id":"cebpf4jnsgd1na2vs0mg"},{"bike_id":"91890f99-e245-4f01-ab96-891f706e713b","system_id":"levelo_inurba_marseille","lat":43.29622,"lon":5.37162,"is_reserved":false,"is_disabled":false,"rental_uris":{"android":"levelo://app?vid=91890f99-e245-4f01-ab96-891f706e713b","ios":"levelo://app?vid=91890f99-e245-4f01-ab96-891f706e713b"},"vehicle_type_id":"4","last_reported":1714565633,"current_range_meters":6800,"station_id":"ce4bgnh2rcd13ifvqc0g","pricing_plan_id":"cebpf4jnsgd1na2vs0mg"},{"bike_id":"93104089-f5c5-4f3b-afbb-eeeb334cae43","system_id":"levelo_inurba_marseille","lat":43.296131,"lon":5.370773,"is_reserved":false,"is_disabled":false,"rental_uris":{"android":"levelo://app?vid=93104089-f5c5-4f3b-afbb-eeeb334cae43","ios":"levelo://app?vid=93104089-f5c5-4f3b-afbb-eeeb334cae43"},"vehicle_type_id":"4","last_reported":1714565633,"current_range_meters":11200,"station_id":"ce4bgnh2rcd13ifvqc0g","pricing_plan_id":"cebpf4jnsgd1na2vs0mg"},{"bike_id":"7069eb12-dc75-4373-bb5d-009a6888b546","system_id":"levelo_inurba_marseille","lat":43.296131,"lon":5.370773,"is_reserved":false,"is_disabled":false,"rental_uris":{"android":"levelo://app?vid=7069eb12-dc75-4373-bb5d-009a6888b546","ios":"levelo://app?vid=7069eb12-dc75-4373-bb5d-009a6888b546"},"vehicle_type_id":"4","last_reported":1714565633,"current_range_meters":18400,"station_id":"ce4bgnh2rcd13ifvqc0g","pricing_plan_id":"cebpf4jnsgd1na2vs0mg"},{"bike_id":"fc2dc59f-8f99-49fd-972b-f4480c22aed9","system_id":"levelo_inurba_marseille","lat":43.296129,"lon":5.370777,"is_reserved":false,"is_disabled":false,"rental_uris":{"android":"levelo://app?vid=fc2dc59f-8f99-49fd-972b-f4480c22aed9","ios":"levelo://app?vid=fc2dc59f-8f99-49fd-972b-f4480c22aed9"},"vehicle_type_id":"4","last_reported":1714565633,"current_range_meters":16000,"station_id":"ce4bgnh2rcd13ifvqc0g","pricing_plan_id":"cebpf4jnsgd1na2vs0mg"},{"bike_id":"c6a71d86-acd8-4334-b1d1-6ed1b3c98eaa","system_id":"levelo_inurba_marseille","lat":43.296131,"lon":5.370773,"is_reserved":false,"is_disabled":false,"rental_uris":{"android":"levelo://app?vid=c6a71d86-acd8-4334-b1d1-6ed1b3c98eaa","ios":"levelo://app?vid=c6a71d86-acd8-4334-b1d1-6ed1b3c98eaa"},"vehicle_type_id":"4","last_reported":1714565633,"current_range_meters":22400,"station_id":"ce4bgnh2rcd13ifvqc0g","pricing_plan_id":"cebpf4jnsgd1na2vs0mg"},{"bike_id":"a5341dc6-e05b-4967-a2a1-61c5c1749422","system_id":"levelo_inurba_marseille","lat":43.29584,"lon":5.36743,"is_reserved":false,"is_disabled":false,"rental_uris":{"android":"levelo://app?vid=a5341dc6-e05b-4967-a2a1-61c5c1749422","ios":"levelo://app?vid=a5341dc6-e05b-4967-a2a1-61c5c1749422"},"vehicle_type_id":"4","last_reported":1714565633,"current_range_meters":8800,"station_id":"ce4bgph2rcd13ifvqc2g","pricing_plan_id":"cebpf4jnsgd1na2vs0mg"},{"bike_id":"9ddbe603-0c8f-4bef-8665-f2333b9928f2","system_id":"levelo_inurba_marseille","lat":43.296131,"lon":5.370773,"is_reserved":false,"is_disabled":false,"rental_uris":{"android":"levelo://app?vid=9ddbe603-0c8f-4bef-8665-f2333b9928f2","ios":"levelo://app?vid=9ddbe603-0c8f-4bef-8665-f2333b9928f2"},"vehicle_type_id":"4","last_reported":1714565633,"current_range_meters":22000,"station_id":"ce4bgnh2rcd13ifvqc0g","pricing_plan_id":"cebpf4jnsgd1na2vs0mg"},{"bike_id":"724be846-6804-4ceb-9bdd-3407ad9eba90","system_id":"levelo_inurba_marseille","lat":43.296131,"lon":5.370773,"is_reserved":false,"is_disabled":false,"rental_uris":{"android":"levelo://app?vid=724be846-6804-4ceb-9bdd-3407ad9eba90","ios":"levelo://app?vid=724be846-6804-4ceb-9bdd-3407ad9eba90"},"vehicle_type_id":"4","last_reported":1714565633,"current_range_meters":17200,"station_id":"ce4bgnh2rcd13ifvqc0g","pricing_plan_id":"cebpf4jnsgd1na2vs0mg"},{"bike_id":"7e0bf430-6f9d-4f26-8442-32c8f269d4bc","system_id":"levelo_inurba_marseille","lat":43.29615,"lon":5.3715,"is_reserved":false,"is_disabled":false,"rental_uris":{"android":"levelo://app?vid=7e0bf430-6f9d-4f26-8442-32c8f269d4bc","ios":"levelo://app?vid=7e0bf430-6f9d-4f26-8442-32c8f269d4bc"},"vehicle_type_id":"4","last_reported":1714565633,"current_range_meters":24000,"station_id":"ce4bgnh2rcd13ifvqc0g","pricing_plan_id":"cebpf4jnsgd1na2vs0mg"},{"bike_id":"9b8528bc-c705-40c7-b032-718c9897b131","system_id":"levelo_inurba_marseille","lat":43.29573,"lon":5.367355,"is_reserved":false,"is_disabled":false,"rental_uris":{"android":"levelo://app?vid=9b8528bc-c705-40c7-b032-718c9897b131","ios":"levelo://app?vid=9b8528bc-c705-40c7-b032-718c9897b131"},"vehicle_type_id":"4","last_reported":1714565633,"current_range_meters":7600,"station_id":"ce4bgph2rcd13ifvqc2g","pricing_plan_id":"cebpf4jnsgd1na2vs0mg"},{"bike_id":"ae3a7586-c596-4167-9afa-b540499c2731","system_id":"levelo_inurba_marseille","lat":43.29573,"lon":5.367355,"is_reserved":false,"is_disabled":false,"rental_uris":{"android":"levelo://app?vid=ae3a7586-c596-4167-9afa-b540499c2731","ios":"levelo://app?vid=ae3a7586-c596-4167-9afa-b540499c2731"},"vehicle_type_id":"4","last_reported":1714565633,"current_range_meters":31200,"station_id":"ce4bgph2rcd13ifvqc2g","pricing_plan_id":"cebpf4jnsgd1na2vs0mg"},{"bike_id":"0513ea70-3d61-45a3-bd0a-99377da33069","system_id":"levelo_inurba_marseille","lat":43.29573,"lon":5.367355,"is_reserved":false,"is_disabled":false,"rental_uris":{"android":"levelo://app?vid=0513ea70-3d61-45a3-bd0a-99377da33069","ios":"levelo://app?vid=0513ea70-3d61-45a3-bd0a-99377da33069"},"vehicle_type_id":"4","last_reported":1714565633,"current_range_meters":24000,"station_id":"ce4bgph2rcd13ifvqc2g","pricing_plan_id":"cebpf4jnsgd1na2vs0mg"},