{"last_updated":1748326522,"ttl":60,"version":"2.2","data":{"bikes":[{"bike_id":"c0b9fd4f-e181-46ce-b0bf-f5119973334f","system_id":"levelo_inurba_marseille","lat":43.33771,"lon":5.37424,"is_reserved":false,"is_disabled":true,"rental_uris":{"android":"levelo://app?vid=c0b9fd4f-e181-46ce-b0bf-f5119973334f","ios":"levelo://app?vid=c0b9fd4f-e181-46ce-b0bf-f5119973334f"},"vehicle_type_id":"4","last_reported":1748326523,"current_range_meters":0,"station_id":"","pricing_plan_id":"cebpf4jnsgd1na2vs0mg"},{"bike_id":"3581c28c-41f2-4cb7-b494-0448776c0438","system_id":"levelo_inurba_marseille","lat":43.29634,"lon":5.36025,"is_reserved":false,"is_disabled":true,"rental_uris":{"android":"levelo://app?vid=3581c28c-41f2-4cb7-b494-0448776c0438","ios":"levelo://app?vid=3581c28c-41f2-4cb7-b494-0448776c0438"},"vehicle_type_id":"4","last_reported":1748326523,"current_range_meters":0,"station_id":"","pricing_plan_id":"cebpf4jnsgd1na2vs0mg"},{"bike_id":"bb6c3066-a766-4717-8a32-075fbe284fd8","system_id":"levelo_inurba_marseille","lat":43.25157,"lon":5.3852,"is_reserved":false,"is_disabled":true,"rental_uris":{"android":"levelo://app?vid=bb6c3066-a766-4717-8a32-075fbe284fd8","ios":"levelo://app?vid=bb6c3066-a766-4717-8a32-075fbe284fd8"},"vehicle_type_id":"4","last_reported":1748326523,"current_range_meters":0,"station_id":"","pricing_plan_id":"cebpf4jnsgd1na2vs0mg"},{"bike_id":"9dfea71a-4994-4298-98be-a818ae9ee8f8","system_id":"levelo_inurba_marseille","lat":43.33335,"lon":5.40715,"is_reserved":false,"is_disabled":true,"rental_uris":{"android":"levelo://app?vid=9dfea71a-4994-4298-98be-a818ae9ee8f8","ios":"levelo://app?vid=9dfea71a-4994-4298-98be-a818ae9ee8f8"},"vehicle_type_id":"4","last_reported":1748326523,"current_range_meters":0,"station_id":"","pricing_plan_id":"cebpf4jnsgd1na2vs0mg"},{"bike_id":"3fe3d6c4-138a-47df-b6b4-e6f19e8f7d46","system_id":"levelo_inurba_marseille","lat":43.21411,"lon":5.34114,"is_reserved":false,"is_disabled":true,"rental_uris":{"android":"levelo://app?vid=3fe3d6c4-138a-47df-b6b4-e6f19e8f7d46","ios":"levelo://app?vid=3fe3d6c4-138a-47df-b6b4-e6f19e8f7d46"},"vehicle_type_id":"4","last_reported":1748326523,"current_range_meters":0,"station_id":"","pricing_plan_id":"cebpf4jnsgd1na2vs0mg"},{"bike_id":"fd133867-b5d2-4fd2-aa0a-382781ea3f5a","system_id":"levelo_inurba_marseille","lat":43.28993,"lon":5.43022,"is_reserved":false,"is_disabled":true,"rental_uris":{"android":"levelo://app?vid=fd133867-b5d2-4fd2-aa0a-382781ea3f5a","ios":"levelo://app?vid=fd133867-b5d2-4fd2-aa0a-382781ea3f5a"},"vehicle_type_id":"4","last_reported":1748326523,"current_range_meters":0,"station_id":"","pricing_plan_id":"cebpf4jnsgd1na2vs0mg"},{"bike_id":"d5335d64-e51c-4de5-80e3-8db36761569f","system_id":"levelo_inurba_marseille","lat":43.29448,"lon":5.381214,"is_reserved":false,"is_disabled":true,"rental_uris":{"android":"levelo://app?vid=d5335d64-e51c-4de5-80e3-8db36761569f","ios":"levelo://app?vid=d5335d64-e51c-4de5-80e3-8db36761569f"},"vehicle_type_id":"4","last_reported":1748326523,"current_range_meters":0,"station_id":"","pricing_plan_id":"cebpf4jnsgd1na2vs0mg"},{"bike_id":"15dcdbbd-a41e-43eb-9ed6-26ec15ce7a50","system_id":"levelo_inurba_marseille","lat":43.21411,"lon":5.34113,"is_reserved":false,"is_disabled":true,"rental_uris":{"android":"levelo://app?vid=15dcdbbd-a41e-43eb-9ed6-26ec15ce7a50","ios":"levelo://app?vid=15dcdbbd-a41e-43eb-9ed6-26ec15ce7a50"},"vehicle_type_id":"4","last_reported":1748326523,"current_range_meters":0,"station_id":"","pricing_plan_id":"cebpf4jnsgd1na2vs0mg"},{"bike_id":"f9fb40c0-1fcd-48cb-8e26-3f2dc0fb2451","system_id":"levelo_inurba_marseille","lat":43.33751,"lon":5.37509,"is_reserved":false,"is_disabled":true,"rental_uris":{"android":"levelo://app?vid=f9fb40c0-1fcd-48cb-8e26-3f2dc0fb2451","ios":"levelo://app?vid=f9fb40c0-1fcd-48cb-8e26-3f2dc0fb2451"},"vehicle_type_id":"4","last_reported":1748326523,"current_range_meters":0,"station_id":"","pricing_plan_id":"cebpf4jnsgd1na2vs0mg"},{"bike_id":"e9dd3aa4-b5e7-4480-926d-d7f537719bfa","system_id":"levelo_inurba_marseille","lat":43.230331,"lon":5.401847,"is_reserved":false,"is_disabled":true,"rental_uris":{"android":"levelo://app?vid=e9dd3aa4-b5e7-4480-926d-d7f537719bfa","ios":"levelo://app?vid=e9dd3aa4-b5e7-4480-926d-d7f537719bfa"},"vehicle_type_id":"4","last_reported":1748326523,"current_range_meters":0,"station_id":"","pricing_plan_id":"cebpf4jnsgd1na2vs0mg"},{"bike_id":"dcd075ea-b4af-4d6d-90b2-1236858b7bc1","system_id":"levelo_inurba_marseille","lat":43.27609,"lon":5.35873,"is_reserved":false,"is_disabled":true,"rental_uris":{"android":"levelo://app?vid=dcd075ea-b4af-4d6d-90b2-1236858b7bc1","ios":"levelo://app?vid=dcd075ea-b4af-4d6d-90b2-1236858b7bc1"},"vehicle_type_id":"4","last_reported":1748326523,"current_range_meters":0,"station_id":"","pricing_plan_id":"cebpf4jnsgd1na2vs0mg"},{"bike_id":"068f7d6b-ebf7-492c-8756-6cf549cba0ab","system_id":"levelo_inurba_marseille","lat":43.284775,"lon":5.384555,"is_reserved":false,"is_disabled":true,"rental_uris":{"android":"levelo://app?vid=068f7d6b-ebf7-492c-8756-6cf549cba0ab","ios":"levelo://app?vid=068f7d6b-ebf7-492c-8756-6cf549cba0ab"},"vehicle_type_id":"4","last_reported":1748326523,"current_range_meters":0,"station_id":"ce4bh512rcd13ifvqe3g","pricing_plan_id":"cebpf4jnsgd1na2vs0mg"},{"bike_id":"b5e507af-5dd9-4f7b-824a-160dcd6679e0","system_id":"levelo_inurba_marseille","lat":43.28255,"lon":5.35104,"is_reserved":false,"is_disabled":true,"rental_uris":{"android":"levelo://app?vid=b5e507af-5dd9-4f7b-824a-160dcd6679e0","ios":"levelo://app?vid=b5e507af-5dd9-4f7b-824a-160dcd6679e0"},"vehicle_type_id":"4","last_reported":1748326523,"current_range_meters":0,"station_id":"ce4bhbp2rcd13ifvqerg","pricing_plan_id":"cebpf4jnsgd1na2vs0mg"},{"bike_id":"18d91d21-3fbd-44ec-8ea5-ad154289350f","system_id":"levelo_inurba_marseille","lat":43.26147,"lon":5.37442,"is_reserved":false,"is_disabled":true,"rental_uris":{"android":"levelo://app?vid=18d91d21-3fbd-44ec-8ea5-ad154289350f","ios":"levelo://app?vid=18d91d21-3fbd-44ec-8ea5-ad154289350f"},"vehicle_type_id":"4","last_reported":1748326523,"current_range_meters":0,"station_id":"ce4bhgp2rcd13ifvqfc0","pricing_plan_id":"cebpf4jnsgd1na2vs0mg"},{"bike_id":"7fe337a2-1b46-4c17-bdf9-15e9d383471b","system_id":"levelo_inurba_marseille","lat":43.27239,"lon":5.390357,"is_reserved":false,"is_disabled":true,"rental_uris":{"android":"levelo://app?vid=7fe337a2-1b46-4c17-bdf9-15e9d383471b","ios":"levelo://app?vid=7fe337a2-1b46-4c17-bdf9-15e9d383471b"},"vehicle_type_id":"4","last_reported":1748326523,"current_range_meters":0,"station_id":"ce4bhgp2rcd13ifvqfe0","pricing_plan_id":"cebpf4jnsgd1na2vs0mg"},{"bike_id":"22d141d0-f292-44f0-b763-03241afc8540","system_id":"levelo_inurba_marseille","lat":43.274897,"lon":5.424535,"is_reserved":false,"is_disabled":true,"rental_uris":{"android":"levelo://app?vid=22d141d0-f292-44f0-b763-03241afc8540","ios":"levelo://app?vid=22d141d0-f292-44f0-b763-03241afc8540"},"vehicle_type_id":"4","last_reported":1748326523,"current_range_meters":0,"station_id":"ce4bhn92rcd13ifvqgrg","pricing_plan_id":"cebpf4jnsgd1na2vs0mg"},{"bike_id":"f043e868-ac9b-4cff-a3e5-9167c8c997d9","system_id":"levelo_inurba_marseille","lat":43.21746,"lon":5.34596,"is_reserved":false,"is_disabled":true,"rental_uris":{"android":"levelo://app?vid=f043e868-ac9b-4cff-a3e5-9167c8c997d9","ios":"levelo://app?vid=f043e868-ac9b-4cff-a3e5-9167c8c997d9"},"vehicle_type_id":"4","last_reported":1748326523,"current_range_meters":0,"station_id":"st_cvj6r9ubvosntc0bgbag","pricing_plan_id":"cebpf4jnsgd1na2vs0mg"},{"bike_id":"e1a337db-3999-4e99-bd7f-35e06168da4a","system_id":"levelo_inurba_marseille","lat":43.30486,"lon":5.3791,"is_reserved":false,"is_disabled":true,"rental_uris":{"android":"levelo://app?vid=e1a337db-3999-4e99-bd7f-35e06168da4a","ios":"levelo://app?vid=e1a337db-3999-4e99-bd7f-35e06168da4a"},"vehicle_type_id":"4","last_reported":1748326523,"current_range_meters":400,"station_id":"ce4bgup2rcd13ifvqcn0","pricing_plan_id":"cebpf4jnsgd1na2vs0mg"},{"bike_id":"074ad082-30e9-4a78-9cf6-87f9bb57a048","system_id":"levelo_inurba_marseille","lat":43.240689,"lon":5.377584,"is_reserved":false,"is_disabled":true,"rental_uris":{"android":"levelo://app?vid=074ad082-30e9-4a78-9cf6-87f9bb57a048","ios":"levelo://app?vid=074ad082-30e9-4a78-9cf6-87f9bb57a048"},"vehicle_type_id":"4","last_reported":1748326523,"current_range_meters":800,"station_id":"ce4bhnp2rcd13ifvqgvg","pricing_plan_id":"cebpf4jnsgd1na2vs0mg"},{"bike_id":"d9fa0449-e47c-4bbe-a91c-4939cab5d888","system_id":"levelo_inurba_marseille","lat":43.28561,"lon":5.42721,"is_reserved":false,"is_disabled":true,"rental_uris":{"android":"levelo://app?vid=d9fa0449-e47c-4bbe-a91c-4939cab5d888","ios":"levelo://app?vid=d9fa0449-e47c-4bbe-a91c-4939cab5d888"},"vehicle_type_id":"4","last_reported":1748326523,"current_range_meters":1200,"station_id":"","pricing_plan_id":"cebpf4jnsgd1na2vs0mg"},{"bike_id":"cc7f30ca-b955-4cb4-ae8e-1fd7bab6e1f7","system_id":"levelo_inurba_marseille","lat":43.30189,"lon":5.36622,"is_reserved":false,"is_disabled":true,"rental_uris":{"android":"levelo://app?vid=cc7f30ca-b955-4cb4-ae8e-1fd7bab6e1f7","ios":"levelo://app?vid=cc7f30ca-b955-4cb4-ae8e-1fd7bab6e1f7"},"vehicle_type_id":"4","last_reported":1748326523,"current_range_meters":1200,"station_id":"ce4bgrh2rcd13ifvqc8g","pricing_plan_id":"cebpf4jnsgd1na2vs0mg"},{"bike_id":"83df8741-d12e-47ed-9ebe-d7ebfcd99d9d","system_id":"levelo_inurba_marseille","lat":43.28718,"lon":5.37414,"is_reserved":false,"is_disabled":true,"rental_uris":{"android":"levelo://app?vid=83df8741-d12e-47ed-9ebe-d7ebfcd99d9d","ios":"levelo://app?vid=83df8741-d12e-47ed-9ebe-d7ebfcd99d9d"},"vehicle_type_id":"4","last_reported":1748326523,"current_range_meters":1200,"station_id":"ce4bh3p2rcd13ifvqdq0","pricing_plan_id":"cebpf4jnsgd1na2vs0mg"},{"bike_id":"da453a88-f81b-4e0f-9781-5a7f6c1d364c","system_id":"levelo_inurba_marseille","lat":43.337499,"lon":5.374469,"is_reserved":false,"is_disabled":true,"rental_uris":{"android":"levelo://app?vid=da453a88-f81b-4e0f-9781-5a7f6c1d364c","ios":"levelo://app?vid=da453a88-f81b-4e0f-9781-5a7f6c1d364c"},"vehicle_type_id":"4","last_reported":1748326523,"current_range_meters":1600,"station_id":"","pricing_plan_id":"cebpf4jnsgd1na2vs0mg"},{"bike_id":"0674abdd-b168-4a12-9775-c92f90618d0c","system_id":"levelo_inurba_marseille","lat":43.27491,"lon":5.42452,"is_reserved":false,"is_disabled":true,"rental_uris":{"android":"levelo://app?vid=0674abdd-b168-4a12-9775-c92f90618d0c","ios":"levelo://app?vid=0674abdd-b168-4a12-9775-c92f90618d0c"},"vehicle_type_id":"4","last_reported":1748326523,"current_range_meters":1600,"station_id":"","pricing_plan_id":"cebpf4jnsgd1na2vs0mg"},{"bike_id":"22714e58-3cb8-491b-b895-45fccd97b8e1","system_id":"levelo_inurba_marseille","lat":43.31493,"lon":5.37295,"is_reserved":false,"is_disabled":true,"rental_uris":{"android":"levelo://app?vid=22714e58-3cb8-491b-b895-45fccd97b8e1","ios":"levelo://app?vid=22714e58-3cb8-491b-b895-45fccd97b8e1"},"vehicle_type_id":"4","last_reported":1748326523,"current_range_meters":1600,"station_id":"ce4bgt12rcd13ifvqcd0","pricing_plan_id":"cebpf4jnsgd1na2vs0mg"},{"bike_id":"98ebf65e-e651-43eb-bbd4-161cddcbd829","system_id":"levelo_inurba_marseille","lat":43.284768,"lon":5.384156,"is_reserved":false,"is_disabled":true,"rental_uris":{"android":"levelo://app?vid=98ebf65e-e651-43eb-bbd4-161cddcbd829","ios":"levelo://app?vid=98ebf65e-e651-43eb-bbd4-161cddcbd829"},"vehicle_type_id":"4","last_reported":1748326523,"current_range_meters":2000,"station_id":"ce4bh512rcd13ifvqe3g","pricing_plan_id":"cebpf4jnsgd1na2vs0mg"},{"bike_id":"e32b1ab1-72ba-43d2-88bf-6e22529dc844","system_id":"levelo_inurba_marseille","lat":43.25583,"lon":5.38203,"is_reserved":false,"is_disabled":false,"rental_uris":{"android":"levelo://app?vid=e32b1ab1-72ba-43d2-88bf-6e22529dc844","ios":"levelo://app?vid=e32b1ab1-72ba-43d2-88bf-6e22529dc844"},"vehicle_type_id":"4","last_reported":1748326523,"current_range_meters":3200,"station_id":"ce4bhih2rcd13ifvqfs0","pricing_plan_id":"cebpf4jnsgd1na2vs0mg"},{"bike_id":"6f82629b-c0da-45e6-b483-604a86646cb8","system_id":"levelo_inurba_marseille","lat":43.29526,"lon":5.39382,"is_reserved":false,"is_disabled":false,"rental_uris":{"android":"levelo://app?vid=6f82629b-c0da-45e6-b483-604a86646cb8","ios":"levelo://app?vid=6f82629b-c0da-45e6-b483-604a86646cb8"},"vehicle_type_id":"4","last_reported":1748326523,"current_range_meters":3600,"station_id":"ce4bh292rcd13ifvqdf0","pricing_plan_id":"cebpf4jnsgd1na2vs0mg"},{"bike_id":"7cd549fc-acff-4355-863b-292323069c51","system_id":"levelo_inurba_marseille","lat":43.28343,"lon":5.38098,"is_reserved":false,"is_disabled":false,"rental_uris":{"android":"levelo://app?vid=7cd549fc-acff-4355-863b-292323069c51","ios":"levelo://app?vid=7cd549fc-acff-4355-863b-292323069c51"},"vehicle_type_id":"4","last_reported":1748326523,"current_range_meters":3600,"station_id":"ce4bh412rcd13ifvqdr0","pricing_plan_id":"cebpf4jnsgd1na2vs0mg"},{"bike_id":"20aedc1a-3258-494a-9b0e-5afc4945dd89","system_id":"levelo_inurba_marseille","lat":43.23196,"lon":5.39994,"is_reserved":false,"is_disabled":false,"rental_uris":{"android":"levelo://app?vid=20aedc1a-3258-494a-9b0e-5afc4945dd89","ios":"levelo://app?vid=20aedc1a-3258-494a-9b0e-5afc4945dd89"},"vehicle_type_id":"4","last_reported":1748326523,"current_range_meters":3600,"station_id":"ce4bhn12rcd13ifvqgqg","pricing_plan_id":"cebpf4jnsgd1na2vs0mg"},{"bike_id":"b7ab4751-3dbf-4148-86b3-37e175a4d63e","system_id":"levelo_inurba_marseille","lat":43.24606,"lon":5.39347,"is_reserved":false,"is_disabled":false,"rental_uris":{"android":"levelo://app?vid=b7ab4751-3dbf-4148-86b3-37e175a4d63e","ios":"levelo://app?vid=b7ab4751-3dbf-4148-86b3-37e175a4d63e"},"vehicle_type_id":"4","last_reported":1748326523,"current_range_meters":4000,"station_id":"","pricing_plan_id":"cebpf4jnsgd1na2vs0mg"},{"bike_id":"ab485184-dee6-4278-8ed8-78cb97c31dd5","system_id":"levelo_inurba_marseille","lat":43.2921,"lon":5.35824,"is_reserved":false,"is_disabled":false,"rental_uris":{"android":"levelo://app?vid=ab485184-dee6-4278-8ed8-78cb97c31dd5","ios":"levelo://app?vid=ab485184-dee6-4278-8ed8-78cb97c31dd5"},"vehicle_type_id":"4","last_reported":1748326523,"current_range_meters":4800,"station_id":"","pricing_plan_id":"cebpf4jnsgd1na2vs0mg"},{"bike_id":"15372c90-6dbc-41e3-b196-c5d9f18ef3fc","system_id":"levelo_inurba_marseille","lat":43.29608,"lon":5.38091,"is_reserved":false,"is_disabled":false,"rental_uris":{"android":"levelo://app?vid=15372c90-6dbc-41e3-b196-c5d9f18ef3fc","ios":"levelo://app?vid=15372c90-6dbc-41e3-b196-c5d9f18ef3fc"},"vehicle_type_id":"4","last_reported":1748326523,"current_range_meters":4800,"station_id":"ce4bgl12rcd13ifvqbo0","pricing_plan_id":"cebpf4jnsgd1na2vs0mg"},{"bike_id":"500aed2c-12e1-4d25-a6be-5374d8ab567a","system_id":"levelo_inurba_marseille","lat":43.275,"lon":5.42478,"is_reserved":false,"is_disabled":false,"rental_uris":{"android":"levelo://app?vid=500aed2c-12e1-4d25-a6be-5374d8ab567a","ios":"levelo://app?vid=500aed2c-12e1-4d25-a6be-5374d8ab567a"},"vehicle_type_id":"4","last_reported":1748326523,"current_range_meters":6000,"station_id":"","pricing_plan_id":"cebpf4jnsgd1na2vs0mg"},{"bike_id":"f8df2e97-c68d-41bd-945a-99495cf612d7","system_id":"levelo_inurba_marseille","lat":43.23239,"lon":5.40091,"is_reserved":false,"is_disabled":false,"rental_uris":{"android":"levelo://app?vid=f8df2e97-c68d-41bd-945a-99495cf612d7","ios":"levelo://app?vid=f8df2e97-c68d-41bd-945a-99495cf612d7"},"vehicle_type_id":"4","last_reported":1748326523,"current_range_meters":6000,"station_id":"","pricing_plan_id":"cebpf4jnsgd1na2vs0mg"},{"bike_id":"f1026e17-2fc7-4e29-9ca3-ef5ad6095be6","system_id":"levelo_inurba_marseille","lat":43.27498,"lon":5.4244,"is_reserved":false,"is_disabled":false,"rental_uris":{"android":"levelo://app?vid=f1026e17-2fc7-4e29-9ca3-ef5ad6095be6","ios":"levelo://app?vid=f1026e17-2fc7-4e29-9ca3-ef5ad6095be6"},"vehicle_type_id":"4","last_reported":1748326523,"current_range_meters":6000,"station_id":"","pricing_plan_id":"cebpf4jnsgd1na2vs0mg"},{"bike_id":"e9496718-b841-4999-823d-28c5bee5d6f1","system_id":"levelo_inurba_marseille","lat":43.26532,"lon":5.38996,"is_reserved":false,"is_disabled":false,"rental_uris":{"android":"levelo://app?vid=e9496718-b841-4999-823d-28c5bee5d6f1","ios":"levelo://app?vid=e9496718-b841-4999-823d-28c5bee5d6f1"},"vehicle_type_id":"4","last_reported":1748326523,"current_range_meters":6000,"station_id":"ce4bhe12rcd13ifvqf30","pricing_plan_id":"cebpf4jnsgd1na2vs0mg"},{"bike_id":"6a80d0cd-0ed1-4299-94b2-c768810a3301","system_id":"levelo_inurba_marseille","lat":43.25926,"lon":5.40892,"is_reserved":false,"is_disabled":false,"rental_uris":{"android":"levelo://app?vid=6a80d0cd-0ed1-4299-94b2-c768810a3301","ios":"levelo://app?vid=6a80d0cd-0ed1-4299-94b2-c768810a3301"},"vehicle_type_id":"4","last_reported":1748326523,"current_range_meters":6000,"station_id":"ce4bhm92rcd13ifvqglg","pricing_plan_id":"cebpf4jnsgd1na2vs0mg"},{"bike_id":"af02aa73-68b2-498b-ad6a-9a50456db18d","system_id":"levelo_inurba_marseille","lat":43.298746,"lon":5.376578,"is_reserved":false,"is_disabled":false,"rental_uris":{"android":"levelo://app?vid=af02aa73-68b2-498b-ad6a-9a50456db18d","ios":"levelo://app?vid=af02aa73-68b2-498b-ad6a-9a50456db18d"},"vehicle_type_id":"4","last_reported":1748326523,"current_range_meters":6400,"station_id":"","pricing_plan_id":"cebpf4jnsgd1na2vs0mg"},{"bike_id":"efd698cb-2450-498f-9f0b-bfc662548e61","system_id":"levelo_inurba_marseille","lat":43.265568,"lon":5.403158,"is_reserved":false,"is_disabled":false,"rental_uris":{"android":"levelo://app?vid=efd698cb-2450-498f-9f0b-bfc662548e61","ios":"levelo://app?vid=efd698cb-2450-498f-9f0b-bfc662548e61"},"vehicle_type_id":"4","last_reported":1748326523,"current_range_meters":6400,"station_id":"","pricing_plan_id":"cebpf4jnsgd1na2vs0mg"},{"bike_id":"d328b393-4635-4ce9-afd2-e36f2a11611e","system_id":"levelo_inurba_marseille","lat":43.26024,"lon":5.41741,"is_reserved":false,"is_disabled":false,"rental_uris":{"android":"levelo://app?vid=d328b393-4635-4ce9-afd2-e36f2a11611e","ios":"levelo://app?vid=d328b393-4635-4ce9-afd2-e36f2a11611e"},"vehicle_type_id":"4","last_reported":1748326523,"current_range_meters":6400,"station_id":"","pricing_plan_id":"cebpf4jnsgd1na2vs0mg"},{"bike_id":"ef26afaf-694c-45c7-8abe-f233caa8749c","system_id":"levelo_inurba_marseille","lat":43.30118,"lon":5.39847,"is_reserved":false,"is_disabled":false,"rental_uris":{"android":"levelo://app?vid=ef26afaf-694c-45c7-8abe-f233caa8749c","ios":"levelo://app?vid=ef26afaf-694c-45c7-8abe-f233caa8749c"},"vehicle_type_id":"4","last_reported":1748326523,"current_range_meters":6400,"station_id":"ce4bh0h2rcd13ifvqd40","pricing_plan_id":"cebpf4jnsgd1na2vs0mg"},{"bike_id":"fc56555b-396d-4667-b896-0ad86036e39e","system_id":"levelo_inurba_marseille","lat":43.25899,"lon":5.38028,"is_reserved":false,"is_disabled":false,"rental_uris":{"android":"levelo://app?vid=fc56555b-396d-4667-b896-0ad86036e39e","ios":"levelo://app?vid=fc56555b-396d-4667-b896-0ad86036e39e"},"vehicle_type_id":"4","last_reported":1748326523,"current_range_meters":6800,"station_id":"","pricing_plan_id":"cebpf4jnsgd1na2vs0mg"},{"bike_id":"a4aef2b9-b7e8-4e2d-8340-592d28bc6c85","system_id":"levelo_inurba_marseille","lat":43.337654,"lon":5.37434,"is_reserved":false,"is_disabled":false,"rental_uris":{"android":"levelo://app?vid=a4aef2b9-b7e8-4e2d-8340-592d28bc6c85","ios":"levelo://app?vid=a4aef2b9-b7e8-4e2d-8340-592d28bc6c85"},"vehicle_type_id":"4","last_reported":1748326523,"current_range_meters":6800,"station_id":"","pricing_plan_id":"cebpf4jnsgd1na2vs0mg"},{"bike_id":"c55117bd-56a1-4cdf-a965-232cba35391d","system_id":"levelo_inurba_marseille","lat":43.272031,"lon":5.391977,"is_reserved":false,"is_disabled":false,"rental_uris":{"android":"levelo://app?vid=c55117bd-56a1-4cdf-a965-232cba35391d","ios":"levelo://app?vid=c55117bd-56a1-4cdf-a965-232cba35391d"},"vehicle_type_id":"4","last_reported":1748326523,"current_range_meters":6800,"station_id":"ce4bhi12rcd13ifvqfo0","pricing_plan_id":"cebpf4jnsgd1na2vs0mg"},{"bike_id":"e42975ea-3fde-48a6-8f1a-27268247a1ff","system_id":"levelo_inurba_marseille","lat":43.32041,"lon":5.41542,"is_reserved":false,"is_disabled":false,"rental_uris":{"android":"levelo://app?vid=e42975ea-3fde-48a6-8f1a-27268247a1ff","ios":"levelo://app?vid=e42975ea-3fde-48a6-8f1a-27268247a1ff"},"vehicle_type_id":"4","last_reported":1748326523,"current_range_meters":6800,"station_id":"ce4bhq92rcd13ifvqhkg","pricing_plan_id":"cebpf4jnsgd1na2vs0mg"},{"bike_id":"19157caf-d639-4573-a5c5-876a168303b8","system_id":"levelo_inurba_marseille","lat":43.30426,"lon":5.3889,"is_reserved":false,"is_disabled":false,"rental_uris":{"android":"levelo://app?vid=19157caf-d639-4573-a5c5-876a168303b8","ios":"levelo://app?vid=19157caf-d639-4573-a5c5-876a168303b8"},"vehicle_type_id":"4","last_reported":1748326523,"current_range_meters":7200,"station_id":"ce4bgk12rcd13ifvqbi0","pricing_plan_id":"cebpf4jnsgd1na2vs0mg"},{"bike_id":"24facd9d-f620-4331-b5c3-413c6cc3d20c","system_id":"levelo_inurba_marseille","lat":43.29599,"lon":5.38098,"is_reserved":false,"is_disabled":false,"rental_uris":{"android":"levelo://app?vid=24facd9d-f620-4331-b5c3-413c6cc3d20c","ios":"levelo://app?vid=24facd9d-f620-4331-b5c3-413c6cc3d20c"},"vehicle_type_id":"4","last_reported":1748326523,"current_range_meters":7200,"station_id":"ce4bgl12rcd13ifvqbo0","pricing_plan_id":"cebpf4jnsgd1na2vs0mg"},{"bike_id":"35617b76-5262-49cb-af3f-9a4bad24edc9","system_id":"levelo_inurba_marseille","lat":43.31481,"lon":5.37282,"is_reserved":false,"is_disabled":false,"rental_uris":{"android":"levelo://app?vid=35617b76-5262-49cb-af3f-9a4bad24edc9","ios":"levelo://app?vid=35617b76-5262-49cb-af3f-9a4bad24edc9"},"vehicle_type_id":"4","last_reported":1748326523,"current_range_meters":7200,"station_id":"ce4bgt12rcd13ifvqcd0","pricing_plan_id":"cebpf4jnsgd1na2vs0mg"},{"bike_id":"efa84cdd-d00d-4d7f-84ec-e0f8bb72a268","system_id":"levelo_inurba_marseille","lat":43.30939,"lon":5.39045,"is_reserved":false,"is_disabled":false,"rental_uris":{"android":"levelo://app?vid=efa84cdd-d00d-4d7f-84ec-e0f8bb72a268","ios":"levelo://app?vid=efa84cdd-d00d-4d7f-84ec-e0f8bb72a268"},"vehicle_type_id":"4","last_reported":1748326523,"current_range_meters":7200,"station_id":"ce4bgup2rcd13ifvqco0","pricing_plan_id":"cebpf4jnsgd1na2vs0mg"},{"bike_id":"554ff6ae-0a68-499f-83fe-face6d60c3df","system_id":"levelo_inurba_marseille","lat":43.29798,"lon":5.40394,"is_reserved":false,"is_disabled":false,"rental_uris":{"android":"levelo://app?vid=554ff6ae-0a68-499f-83fe-face6d60c3df","ios":"levelo://app?vid=554ff6ae-0a68-499f-83fe-face6d60c3df"},"vehicle_type_id":"4","last_reported":1748326523,"current_range_meters":7200,"station_id":"ce4bh112rcd13ifvqd90","pricing_plan_id":"cebpf4jnsgd1na2vs0mg"},{"bike_id":"e77edf7b-51c2-406f-9f9c-0223d7954771","system_id":"levelo_inurba_marseille","lat":43.26206,"lon":5.37439,"is_reserved":false,"is_disabled":false,"rental_uris":{"android":"levelo://app?vid=e77edf7b-51c2-406f-9f9c-0223d7954771","ios":"levelo://app?vid=e77edf7b-51c2-406f-9f9c-0223d7954771"},"vehicle_type_id":"4","last_reported":1748326523,"current_range_meters":7200,"station_id":"ce4bhgp2rcd13ifvqfc0","pricing_plan_id":"cebpf4jnsgd1na2vs0mg"},{"bike_id":"0212e413-9665-4b1d-91c3-cab0f0edd541","system_id":"levelo_inurba_marseille","lat":43.24395,"lon":5.37067,"is_reserved":false,"is_disabled":false,"rental_uris":{"android":"levelo://app?vid=0212e413-9665-4b1d-91c3-cab0f0edd541","ios":"levelo://app?vid=0212e413-9665-4b1d-91c3-cab0f0edd541"},"vehicle_type_id":"4","last_reported":1748326523,"current_range_meters":7200,"station_id":"ce4bhhh2rcd13ifvqfk0","pricing_plan_id":"cebpf4jnsgd1na2vs0mg"},{"bike_id":"db653464-8cd3-426b-b889-111e13b6398a","system_id":"levelo_inurba_marseille","lat":43.29556,"lon":5.42289,"is_reserved":false,"is_disabled":false,"rental_uris":{"android":"levelo://app?vid=db653464-8cd3-426b-b889-111e13b6398a","ios":"levelo://app?vid=db653464-8cd3-426b-b889-111e13b6398a"},"vehicle_type_id":"4","last_reported":1748326523,"current_range_meters":7200,"station_id":"ce4bhph2rcd13ifvqhdg","pricing_plan_id":"cebpf4jnsgd1na2vs0mg"},{"bike_id":"a3fdfab4-cb8b-4639-a8f9-ac99f398c758","system_id":"levelo_inurba_marseille","lat":43.24184,"lon":5.36404,"is_reserved":false,"is_disabled":false,"rental_uris":{"android":"levelo://app?vid=a3fdfab4-cb8b-4639-a8f9-ac99f398c758","ios":"levelo://app?vid=a3fdfab4-cb8b-4639-a8f9-ac99f398c758"},"vehicle_type_id":"4","last_reported":1748326523,"current_range_meters":7200,"station_id":"cpo36qri1sfpv3e86is0","pricing_plan_id":"cebpf4jnsgd1na2vs0mg"},{"bike_id":"b744080c-dd77-486d-9609-00c9cf60c1ad","system_id":"levelo_inurba_marseille","lat":43.236242,"lon":5.391967,"is_reserved":false,"is_disabled":false,"rental_uris":{"android":"levelo://app?vid=b744080c-dd77-486d-9609-00c9cf60c1ad","ios":"levelo://app?vid=b744080c-dd77-486d-9609-00c9cf60c1ad"},"vehicle_type_id":"4","last_reported":1748326523,"current_range_meters":8000,"station_id":"","pricing_plan_id":"cebpf4jnsgd1na2vs0mg"},{"bike_id":"49c75127-0769-49be-82b2-55c7c4c810cf","system_id":"levelo_inurba_marseille","lat":43.301468,"lon":5.380879,"is_reserved":false,"is_disabled":false,"rental_uris":{"android":"levelo://app?vid=49c75127-0769-49be-82b2-55c7c4c810cf","ios":"levelo://app?vid=49c75127-0769-49be-82b2-55c7c4c810cf"},"vehicle_type_id":"4","last_reported":1748326523,"current_range_meters":8000,"station_id":"ce4bgjp2rcd13ifvqbh0","pricing_plan_id":"cebpf4jnsgd1na2vs0mg"},{"bike_id":"914aca77-a853-4d72-9ad7-e6efe67ae857","system_id":"levelo_inurba_marseille","lat":43.28432,"lon":5.34978,"is_reserved":false,"is_disabled":false,"rental_uris":{"android":"levelo://app?vid=914aca77-a853-4d72-9ad7-e6efe67ae857","ios":"levelo://app?vid=914aca77-a853-4d72-9ad7-e6efe67ae857"},"vehicle_type_id":"4","last_reported":1748326523,"current_range_meters":8000,"station_id":"ce4bhbh2rcd13ifvqepg","pricing_plan_id":"cebpf4jnsgd1na2vs0mg"},{"bike_id":"ca0f4152-0770-4116-93a2-d0121dace056","system_id":"levelo_inurba_marseille","lat":43.2582,"lon":5.39432,"is_reserved":false,"is_disabled":false,"rental_uris":{"android":"levelo://app?vid=ca0f4152-0770-4116-93a2-d0121dace056","ios":"levelo://app?vid=ca0f4152-0770-4116-93a2-d0121dace056"},"vehicle_type_id":"4","last_reported":1748326523,"current_range_meters":8000,"station_id":"ce4bhip2rcd13ifvqft0","pricing_plan_id":"cebpf4jnsgd1na2vs0mg"},{"bike_id":"fb1a3b4e-0be5-4550-bfd4-854affb491cd","system_id":"levelo_inurba_marseille","lat":43.25934,"lon":5.40912,"is_reserved":false,"is_disabled":false,"rental_uris":{"android":"levelo://app?vid=fb1a3b4e-0be5-4550-bfd4-854affb491cd","ios":"levelo://app?vid=fb1a3b4e-0be5-4550-bfd4-854affb491cd"},"vehicle_type_id":"4","last_reported":1748326523,"current_range_meters":8000,"station_id":"ce4bhm92rcd13ifvqglg","pricing_plan_id":"cebpf4jnsgd1na2vs0mg"},{"bike_id":"98cbf70d-d9f6-4b71-bf03-63425172bed7","system_id":"levelo_inurba_marseille","lat":43.2315,"lon":5.43723,"is_reserved":false,"is_disabled":false,"rental_uris":{"android":"levelo://app?vid=98cbf70d-d9f6-4b71-bf03-63425172bed7","ios":"levelo://app?vid=98cbf70d-d9f6-4b71-bf03-63425172bed7"},"vehicle_type_id":"4","last_reported":1748326523,"current_range_meters":8000,"station_id":"ce4bhmp2rcd13ifvqgog","pricing_plan_id":"cebpf4jnsgd1na2vs0mg"},{"bike_id":"15895a4c-6504-4c01-aecb-996f77f1a3b5","system_id":"levelo_inurba_marseille","lat":43.32107,"lon":5.36712,"is_reserved":false,"is_disabled":false,"rental_uris":{"android":"levelo://app?vid=15895a4c-6504-4c01-aecb-996f77f1a3b5","ios":"levelo://app?vid=15895a4c-6504-4c01-aecb-996f77f1a3b5"},"vehicle_type_id":"4","last_reported":1748326523,"current_range_meters":8000,"station_id":"ce4bhrh2rcd13ifvqhug","pricing_plan_id":"cebpf4jnsgd1na2vs0mg"},{"bike_id":"8654a797-522d-48db-9c8f-3e52a37eb0a7","system_id":"levelo_inurba_marseille","lat":43.24666,"lon":5.38159,"is_reserved":false,"is_disabled":false,"rental_uris":{"android":"levelo://app?vid=8654a797-522d-48db-9c8f-3e52a37eb0a7","ios":"levelo://app?vid=8654a797-522d-48db-9c8f-3e52a37eb0a7"},"vehicle_type_id":"4","last_reported":1748326523,"current_range_meters":8400,"station_id":"","pricing_plan_id":"cebpf4jnsgd1na2vs0mg"},{"bike_id":"5f604fad-3c40-44b3-84b4-bcb16410a94e","system_id":"levelo_inurba_marseille","lat":43.31716,"lon":5.37755,"is_reserved":false,"is_disabled":false,"rental_uris":{"android":"levelo://app?vid=5f604fad-3c40-44b3-84b4-bcb16410a94e","ios":"levelo://app?vid=5f604fad-3c40-44b3-84b4-bcb16410a94e"},"vehicle_type_id":"4","last_reported":1748326523,"current_range_meters":8400,"station_id":"ce4bgth2rcd13ifvqch0","pricing_plan_id":"cebpf4jnsgd1na2vs0mg"},{"bike_id":"bc4aaef5-8456-47cd-8995-f8028b16a6a6","system_id":"levelo_inurba_marseille","lat":43.30427,"lon":5.41283,"is_reserved":false,"is_disabled":false,"rental_uris":{"android":"levelo://app?vid=bc4aaef5-8456-47cd-8995-f8028b16a6a6","ios":"levelo://app?vid=bc4aaef5-8456-47cd-8995-f8028b16a6a6"},"vehicle_type_id":"4","last_reported":1748326523,"current_range_meters":8400,"station_id":"ce4bhop2rcd13ifvqh8g","pricing_plan_id":"cebpf4jnsgd1na2vs0mg"},{"bike_id":"7d241e20-c6d4-405e-a9df-416472047c91","system_id":"levelo_inurba_marseille","lat":43.22934,"lon":5.35377,"is_reserved":false,"is_disabled":false,"rental_uris":{"android":"levelo://app?vid=7d241e20-c6d4-405e-a9df-416472047c91","ios":"levelo://app?vid=7d241e20-c6d4-405e-a9df-416472047c91"},"vehicle_type_id":"4","last_reported":1748326523,"current_range_meters":8400,"station_id":"cpo3532slgdg3j2ikp40","pricing_plan_id":"cebpf4jnsgd1na2vs0mg"},{"bike_id":"e600a130-bf76-4bc2-8231-6cb1d75ee3b3","system_id":"levelo_inurba_marseille","lat":43.274912,"lon":5.424585,"is_reserved":false,"is_disabled":false,"rental_uris":{"android":"levelo://app?vid=e600a130-bf76-4bc2-8231-6cb1d75ee3b3","ios":"levelo://app?vid=e600a130-bf76-4bc2-8231-6cb1d75ee3b3"},"vehicle_type_id":"4","last_reported":1748326523,"current_range_meters":8800,"station_id":"","pricing_plan_id":"cebpf4jnsgd1na2vs0mg"},{"bike_id":"0ffeef77-788f-4789-9e1d-d208f138fc3e","system_id":"levelo_inurba_marseille","lat":43.305927,"lon":5.372287,"is_reserved":false,"is_disabled":false,"rental_uris":{"android":"levelo://app?vid=0ffeef77-788f-4789-9e1d-d208f138fc3e","ios":"levelo://app?vid=0ffeef77-788f-4789-9e1d-d208f138fc3e"},"vehicle_type_id":"4","last_reported":1748326523,"current_range_meters":8800,"station_id":"ce4bgqh2rcd13ifvqc4g","pricing_plan_id":"cebpf4jnsgd1na2vs0mg"},{"bike_id":"2af89a02-fc72-499c-8525-15c8934774a7","system_id":"levelo_inurba_marseille","lat":43.27972,"lon":5.38743,"is_reserved":false,"is_disabled":false,"rental_uris":{"android":"levelo://app?vid=2af89a02-fc72-499c-8525-15c8934774a7","ios":"levelo://app?vid=2af89a02-fc72-499c-8525-15c8934774a7"},"vehicle_type_id":"4","last_reported":1748326523,"current_range_meters":8800,"station_id":"ce4bhg12rcd13ifvqf80","pricing_plan_id":"cebpf4jnsgd1na2vs0mg"},{"bike_id":"4661e59f-4017-457b-8d40-084f59302350","system_id":"levelo_inurba_marseille","lat":43.231876,"lon":5.399889,"is_reserved":false,"is_disabled":false,"rental_uris":{"android":"levelo://app?vid=4661e59f-4017-457b-8d40-084f59302350","ios":"levelo://app?vid=4661e59f-4017-457b-8d40-084f59302350"},"vehicle_type_id":"4","last_reported":1748326523,"current_range_meters":8800,"station_id":"ce4bhn12rcd13ifvqgqg","pricing_plan_id":"cebpf4jnsgd1na2vs0mg"},{"bike_id":"7a57b054-29e1-4b1f-a5e6-86f15e50427d","system_id":"levelo_inurba_marseille","lat":43.30374,"lon":5.42482,"is_reserved":false,"is_disabled":false,"rental_uris":{"android":"levelo://app?vid=7a57b054-29e1-4b1f-a5e6-86f15e50427d","ios":"levelo://app?vid=7a57b054-29e1-4b1f-a5e6-86f15e50427d"},"vehicle_type_id":"4","last_reported":1748326523,"current_range_meters":8800,"station_id":"ce4bhoh2rcd13ifvqh6g","pricing_plan_id":"cebpf4jnsgd1na2vs0mg"},{"bike_id":"9ea0d084-b7dd-4cae-8983-9385691118e8","system_id":"levelo_inurba_marseille","lat":43.31892,"lon":5.40731,"is_reserved":false,"is_disabled":false,"rental_uris":{"android":"levelo://app?vid=9ea0d084-b7dd-4cae-8983-9385691118e8","ios":"levelo://app?vid=9ea0d084-b7dd-4cae-8983-9385691118e8"},"vehicle_type_id":"4","last_reported":1748326523,"current_range_meters":8800,"station_id":"ce4bhq12rcd13ifvqhig","pricing_plan_id":"cebpf4jnsgd1na2vs0mg"},{"bike_id":"1a0998e5-8bb9-474f-a827-53cad24c9e8f","system_id":"levelo_inurba_marseille","lat":43.32034,"lon":5.44944,"is_reserved":false,"is_disabled":false,"rental_uris":{"android":"levelo://app?vid=1a0998e5-8bb9-474f-a827-53cad24c9e8f","ios":"levelo://app?vid=1a0998e5-8bb9-474f-a827-53cad24c9e8f"},"vehicle_type_id":"4","last_reported":1748326523,"current_range_meters":9200,"station_id":"","pricing_plan_id":"cebpf4jnsgd1na2vs0mg"},{"bike_id":"f0ea11cc-6b49-4c9c-90a7-c9e4ead2f0fb","system_id":"levelo_inurba_marseille","lat":43.254969,"lon":5.37649,"is_reserved":false,"is_disabled":false,"rental_uris":{"android":"levelo://app?vid=f0ea11cc-6b49-4c9c-90a7-c9e4ead2f0fb","ios":"levelo://app?vid=f0ea11cc-6b49-4c9c-90a7-c9e4ead2f0fb"},"vehicle_type_id":"4","last_reported":1748326523,"current_range_meters":9200,"station_id":"","pricing_plan_id":"cebpf4jnsgd1na2vs0mg"},{"bike_id":"df29ded3-a879-4221-a24a-fa3ebc65e6a4","system_id":"levelo_inurba_marseille","lat":43.3149,"lon":5.37301,"is_reserved":false,"is_disabled":false,"rental_uris":{"android":"levelo://app?vid=df29ded3-a879-4221-a24a-fa3ebc65e6a4","ios":"levelo://app?vid=df29ded3-a879-4221-a24a-fa3ebc65e6a4"},"vehicle_type_id":"4","last_reported":1748326523,"current_range_meters":9200,"station_id":"ce4bgt12rcd13ifvqcd0","pricing_plan_id":"cebpf4jnsgd1na2vs0mg"},{"bike_id":"ed98a655-9096-4e4c-a062-cebf79c9c208","system_id":"levelo_inurba_marseille","lat":43.28421,"lon":5.3749,"is_reserved":false,"is_disabled":false,"rental_uris":{"android":"levelo://app?vid=ed98a655-9096-4e4c-a062-cebf79c9c208","ios":"levelo://app?vid=ed98a655-9096-4e4c-a062-cebf79c9c208"},"vehicle_type_id":"4","last_reported":1748326523,"current_range_meters":9200,"station_id":"ce4bh412rcd13ifvqds0","pricing_plan_id":"cebpf4jnsgd1na2vs0mg"},{"bike_id":"867b3ad3-3535-4938-9703-c62c9dea9ff5","system_id":"levelo_inurba_marseille","lat":43.28402,"lon":5.37508,"is_reserved":false,"is_disabled":false,"rental_uris":{"android":"levelo://app?vid=867b3ad3-3535-4938-9703-c62c9dea9ff5","ios":"levelo://app?vid=867b3ad3-3535-4938-9703-c62c9dea9ff5"},"vehicle_type_id":"4","last_reported":1748326523,"current_range_meters":9200,"station_id":"ce4bh412rcd13ifvqds0","pricing_plan_id":"cebpf4jnsgd1na2vs0mg"},{"bike_id":"1710148a-3a48-4543-b954-3a96d221adf5","system_id":"levelo_inurba_marseille","lat":43.24075,"lon":5.37752,"is_reserved":false,"is_disabled":false,"rental_uris":{"android":"levelo://app?vid=1710148a-3a48-4543-b954-3a96d221adf5","ios":"levelo://app?vid=1710148a-3a48-4543-b954-3a96d221adf5"},"vehicle_type_id":"4","last_reported":1748326523,"current_range_meters":9200,"station_id":"ce4bhnp2rcd13ifvqgvg","pricing_plan_id":"cebpf4jnsgd1na2vs0mg"},{"bike_id":"ae6e6868-2635-4f49-b7c1-b03759c58ec7","system_id":"levelo_inurba_marseille","lat":43.272792,"lon":5.415879,"is_reserved":false,"is_disabled":false,"rental_uris":{"android":"levelo://app?vid=ae6e6868-2635-4f49-b7c1-b03759c58ec7","ios":"levelo://app?vid=ae6e6868-2635-4f49-b7c1-b03759c58ec7"},"vehicle_type_id":"4","last_reported":1748326523,"current_range_meters":9600,"station_id":"","pricing_plan_id":"cebpf4jnsgd1na2vs0mg"},{"bike_id":"99b469f2-c364-4159-9d35-9a1121c1578f","system_id":"levelo_inurba_marseille","lat":43.315561,"lon":5.383709,"is_reserved":false,"is_disabled":false,"rental_uris":{"android":"levelo://app?vid=99b469f2-c364-4159-9d35-9a1121c1578f","ios":"levelo://app?vid=99b469f2-c364-4159-9d35-9a1121c1578f"},"vehicle_type_id":"4","last_reported":1748326523,"current_range_meters":9600,"station_id":"","pricing_plan_id":"cebpf4jnsgd1na2vs0mg"},{"bike_id":"428f75b8-af61-4003-9713-c7b04795b0c9","system_id":"levelo_inurba_marseille","lat":43.30437,"lon":5.38879,"is_reserved":false,"is_disabled":false,"rental_uris":{"android":"levelo://app?vid=428f75b8-af61-4003-9713-c7b04795b0c9","ios":"levelo://app?vid=428f75b8-af61-4003-9713-c7b04795b0c9"},"vehicle_type_id":"4","last_reported":1748326523,"current_range_meters":9600,"station_id":"ce4bgk12rcd13ifvqbi0","pricing_plan_id":"cebpf4jnsgd1na2vs0mg"},{"bike_id":"75540114-1549-4701-9c33-0b22d6861feb","system_id":"levelo_inurba_marseille","lat":43.31218,"lon":5.36859,"is_reserved":false,"is_disabled":false,"rental_uris":{"android":"levelo://app?vid=75540114-1549-4701-9c33-0b22d6861feb","ios":"levelo://app?vid=75540114-1549-4701-9c33-0b22d6861feb"},"vehicle_type_id":"4","last_reported":1748326523,"current_range_meters":9600,"station_id":"ce4bgl92rcd13ifvqbq0","pricing_plan_id":"cebpf4jnsgd1na2vs0mg"},{"bike_id":"7e75b3bc-0075-4903-9da5-f4d99ff79813","system_id":"levelo_inurba_marseille","lat":43.25718,"lon":5.41112,"is_reserved":false,"is_disabled":false,"rental_uris":{"android":"levelo://app?vid=7e75b3bc-0075-4903-9da5-f4d99ff79813","ios":"levelo://app?vid=7e75b3bc-0075-4903-9da5-f4d99ff79813"},"vehicle_type_id":"4","last_reported":1748326523,"current_range_meters":9600,"station_id":"ce4bhkp2rcd13ifvqgd0","pricing_plan_id":"cebpf4jnsgd1na2vs0mg"},{"bike_id":"a8536057-cb7f-4925-9573-c3ea600f5e2b","system_id":"levelo_inurba_marseille","lat":43.25727,"lon":5.41107,"is_reserved":false,"is_disabled":false,"rental_uris":{"android":"levelo://app?vid=a8536057-cb7f-4925-9573-c3ea600f5e2b","ios":"levelo://app?vid=a8536057-cb7f-4925-9573-c3ea600f5e2b"},"vehicle_type_id":"4","last_reported":1748326523,"current_range_meters":9600,"station_id":"ce4bhkp2rcd13ifvqgd0","pricing_plan_id":"cebpf4jnsgd1na2vs0mg"},{"bike_id":"f6a291c8-009c-4799-858f-3d0684b35fea","system_id":"levelo_inurba_marseille","lat":43.23176,"lon":5.4374,"is_reserved":false,"is_disabled":false,"rental_uris":{"android":"levelo://app?vid=f6a291c8-009c-4799-858f-3d0684b35fea","ios":"levelo://app?vid=f6a291c8-009c-4799-858f-3d0684b35fea"},"vehicle_type_id":"4","last_reported":1748326523,"current_range_meters":9600,"station_id":"ce4bhmp2rcd13ifvqgog","pricing_plan_id":"cebpf4jnsgd1na2vs0mg"},{"bike_id":"8a45606e-2096-4a22-88d7-26c191e9986d","system_id":"levelo_inurba_marseille","lat":43.33025,"lon":5.39044,"is_reserved":false,"is_disabled":false,"rental_uris":{"android":"levelo://app?vid=8a45606e-2096-4a22-88d7-26c191e9986d","ios":"levelo://app?vid=8a45606e-2096-4a22-88d7-26c191e9986d"},"vehicle_type_id":"4","last_reported":1748326523,"current_range_meters":9600,"station_id":"ce4bhr92rcd13ifvqhrg","pricing_plan_id":"cebpf4jnsgd1na2vs0mg"},{"bike_id":"50dd7b08-5b20-4e4d-9ebf-93ed6a457901","system_id":"levelo_inurba_marseille","lat":43.30558,"lon":5.36712,"is_reserved":false,"is_disabled":false,"rental_uris":{"android":"levelo://app?vid=50dd7b08-5b20-4e4d-9ebf-93ed6a457901","ios":"levelo://app?vid=50dd7b08-5b20-4e4d-9ebf-93ed6a457901"},"vehicle_type_id":"4","last_reported":1748326523,"current_range_meters":10000,"station_id":"ce4bgrp2rcd13ifvqc9g","pricing_plan_id":"cebpf4jnsgd1na2vs0mg"},{"bike_id":"165066c2-8f4d-42a8-9966-8cf72e1c9e0f","system_id":"levelo_inurba_marseille","lat":43.309355,"lon":5.4015,"is_reserved":false,"is_disabled":false,"rental_uris":{"android":"levelo://app?vid=165066c2-8f4d-42a8-9966-8cf72e1c9e0f","ios":"levelo://app?vid=165066c2-8f4d-42a8-9966-8cf72e1c9e0f"},"vehicle_type_id":"4","last_reported":1748326523,"current_range_meters":10000,"station_id":"ce4bgvp2rcd13ifvqct0","pricing_plan_id":"cebpf4jnsgd1na2vs0mg"},{"bike_id":"8b7941b7-c318-4bf1-b5ca-a8f78ae5ca70","system_id":"levelo_inurba_marseille","lat":43.30894,"lon":5.36836,"is_reserved":false,"is_disabled":false,"rental_uris":{"android":"levelo://app?vid=8b7941b7-c318-4bf1-b5ca-a8f78ae5ca70","ios":"levelo://app?vid=8b7941b7-c318-4bf1-b5ca-a8f78ae5ca70"},"vehicle_type_id":"4","last_reported":1748326523,"current_range_meters":10800,"station_id":"ce4bgn92rcd13ifvqbvg","pricing_plan_id":"cebpf4jnsgd1na2vs0mg"},{"bike_id":"46cda4ed-94e5-4bec-b035-3e0d6ee84711","system_id":"levelo_inurba_marseille","lat":43.30906,"lon":5.36852,"is_reserved":false,"is_disabled":false,"rental_uris":{"android":"levelo://app?vid=46cda4ed-94e5-4bec-b035-3e0d6ee84711","ios":"levelo://app?vid=46cda4ed-94e5-4bec-b035-3e0d6ee84711"},"vehicle_type_id":"4","last_reported":1748326523,"current_range_meters":10800,"station_id":"ce4bgn92rcd13ifvqbvg","pricing_plan_id":"cebpf4jnsgd1na2vs0mg"},{"bike_id":"d2d3724d-b0c1-4b0e-acb1-2d903abcdff5","system_id":"levelo_inurba_marseille","lat":43.309342,"lon":5.401386,"is_reserved":false,"is_disabled":false,"rental_uris":{"android":"levelo://app?vid=d2d3724d-b0c1-4b0e-acb1-2d903abcdff5","ios":"levelo://app?vid=d2d3724d-b0c1-4b0e-acb1-2d903abcdff5"},"vehicle_type_id":"4","last_reported":1748326523,"current_range_meters":10800,"station_id":"ce4bgvp2rcd13ifvqct0","pricing_plan_id":"cebpf4jnsgd1na2vs0mg"},{"bike_id":"1d36b4f4-d5a6-4aef-a0f1-1c586dc174b0","system_id":"levelo_inurba_marseille","lat":43.27553,"lon":5.38415,"is_reserved":false,"is_disabled":false,"rental_uris":{"android":"levelo://app?vid=1d36b4f4-d5a6-4aef-a0f1-1c586dc174b0","ios":"levelo://app?vid=1d36b4f4-d5a6-4aef-a0f1-1c586dc174b0"},"vehicle_type_id":"4","last_reported":1748326523,"current_range_meters":10800,"station_id":"ce4bhh92rcd13ifvqfi0","pricing_plan_id":"cebpf4jnsgd1na2vs0mg"},{"bike_id":"d72e0ea7-1895-4253-8709-f376aa9f96f5","system_id":"levelo_inurba_marseille","lat":43.32657,"lon":5.40992,"is_reserved":false,"is_disabled":false,"rental_uris":{"android":"levelo://app?vid=d72e0ea7-1895-4253-8709-f376aa9f96f5","ios":"levelo://app?vid=d72e0ea7-1895-4253-8709-f376aa9f96f5"},"vehicle_type_id":"4","last_reported":1748326523,"current_range_meters":10800,"station_id":"ce4bhpp2rcd13ifvqhgg","pricing_plan_id":"cebpf4jnsgd1na2vs0mg"},{"bike_id":"42468a61-16bf-4710-9b9b-05de4aa301eb","system_id":"levelo_inurba_marseille","lat":43.26806,"lon":5.40268,"is_reserved":false,"is_disabled":false,"rental_uris":{"android":"levelo://app?vid=42468a61-16bf-4710-9b9b-05de4aa301eb","ios":"levelo://app?vid=42468a61-16bf-4710-9b9b-05de4aa301eb"},"vehicle_type_id":"4","last_reported":1748326523,"current_range_meters":10800,"station_id":"ce501612rcd8frsf0b60","pricing_plan_id":"cebpf4jnsgd1na2vs0mg"},{"bike_id":"5711907e-2b5f-47c4-9934-de86ae097ad1","system_id":"levelo_inurba_marseille","lat":43.30457,"lon":5.379,"is_reserved":false,"is_disabled":false,"rental_uris":{"android":"levelo://app?vid=5711907e-2b5f-47c4-9934-de86ae097ad1","ios":"levelo://app?vid=5711907e-2b5f-47c4-9934-de86ae097ad1"},"vehicle_type_id":"4","last_reported":1748326523,"current_range_meters":11200,"station_id":"ce4bgup2rcd13ifvqcn0","pricing_plan_id":"cebpf4jnsgd1na2vs0mg"},{"bike_id":"d0a1ee92-a4a3-47ad-9649-34d2a17c8df2","system_id":"levelo_inurba_marseille","lat":43.309291,"lon":5.40152,"is_reserved":false,"is_disabled":false,"rental_uris":{"android":"levelo://app?vid=d0a1ee92-a4a3-47ad-9649-34d2a17c8df2","ios":"levelo://app?vid=d0a1ee92-a4a3-47ad-9649-34d2a17c8df2"},"vehicle_type_id":"4","last_reported":1748326523,"current_range_meters":11200,"station_id":"ce4bgvp2rcd13ifvqct0","pricing_plan_id":"cebpf4jnsgd1na2vs0mg"},{"bike_id":"2375035a-2cd5-4b4b-a46a-292605bb3c00","system_id":"levelo_inurba_marseille","lat":43.289673,"lon":5.37831,"is_reserved":false,"is_disabled":false,"rental_uris":{"android":"levelo://app?vid=2375035a-2cd5-4b4b-a46a-292605bb3c00","ios":"levelo://app?vid=2375035a-2cd5-4b4b-a46a-292605bb3c00"},"vehicle_type_id":"4","last_reported":1748326523,"current_range_meters":11200,"station_id":"ce4bh9p2rcd13ifvqed0","pricing_plan_id":"cebpf4jnsgd1na2vs0mg"},{"bike_id":"6ef27e84-462a-46f9-afe5-e09b209cc7f0","system_id":"levelo_inurba_marseille","lat":43.331154,"lon":5.362064,"is_reserved":false,"is_disabled":false,"rental_uris":{"android":"levelo://app?vid=6ef27e84-462a-46f9-afe5-e09b209cc7f0","ios":"levelo://app?vid=6ef27e84-462a-46f9-afe5-e09b209cc7f0"},"vehicle_type_id":"4","last_reported":1748326523,"current_range_meters":11600,"station_id":"","pricing_plan_id":"cebpf4jnsgd1na2vs0mg"},{"bike_id":"f5b1aa50-af32-4b67-af03-fc8d46feddb5","system_id":"levelo_inurba_marseille","lat":43.292694,"lon":5.401271,"is_reserved":false,"is_disabled":false,"rental_uris":{"android":"levelo://app?vid=f5b1aa50-af32-4b67-af03-fc8d46feddb5","ios":"levelo://app?vid=f5b1aa50-af32-4b67-af03-fc8d46feddb5"},"vehicle_type_id":"4","last_reported":1748326523,"current_range_meters":11600,"station_id":"","pricing_plan_id":"cebpf4jnsgd1na2vs0mg"},{"bike_id":"f751281a-bb1b-441a-bca7-73629890d3ee","system_id":"levelo_inurba_marseille","lat":43.29994,"lon":5.37174,"is_reserved":false,"is_disabled":false,"rental_uris":{"android":"levelo://app?vid=f751281a-bb1b-441a-bca7-73629890d3ee","ios":"levelo://app?vid=f751281a-bb1b-441a-bca7-73629890d3ee"},"vehicle_type_id":"4","last_reported":1748326523,"current_range_meters":11600,"station_id":"ce4bgr92rcd13ifvqc7g","pricing_plan_id":"cebpf4jnsgd1na2vs0mg"},{"bike_id":"bc097aae-1d40-4e77-b2e1-1ac90d2665a1","system_id":"levelo_inurba_marseille","lat":43.24653,"lon":5.38178,"is_reserved":false,"is_disabled":false,"rental_uris":{"android":"levelo://app?vid=bc097aae-1d40-4e77-b2e1-1ac90d2665a1","ios":"levelo://app?vid=bc097aae-1d40-4e77-b2e1-1ac90d2665a1"},"vehicle_type_id":"4","last_reported":1748326523,"current_range_meters":11600,"station_id":"ce4bhih2rcd13ifvqfr0","pricing_plan_id":"cebpf4jnsgd1na2vs0mg"},{"bike_id":"1a775a5e-1792-4706-b4f6-ec50ef749d53","system_id":"levelo_inurba_marseille","lat":43.255796,"lon":5.38223,"is_reserved":false,"is_disabled":false,"rental_uris":{"android":"levelo://app?vid=1a775a5e-1792-4706-b4f6-ec50ef749d53","ios":"levelo://app?vid=1a775a5e-1792-4706-b4f6-ec50ef749d53"},"vehicle_type_id":"4","last_reported":1748326523,"current_range_meters":11600,"station_id":"ce4bhih2rcd13ifvqfs0","pricing_plan_id":"cebpf4jnsgd1na2vs0mg"},{"bike_id":"e6c65de3-7d92-4979-809c-6677188473c0","system_id":"levelo_inurba_marseille","lat":43.337684,"lon":5.37432,"is_reserved":false,"is_disabled":false,"rental_uris":{"android":"levelo://app?vid=e6c65de3-7d92-4979-809c-6677188473c0","ios":"levelo://app?vid=e6c65de3-7d92-4979-809c-6677188473c0"},"vehicle_type_id":"4","last_reported":1748326523,"current_range_meters":12000,"station_id":"","pricing_plan_id":"cebpf4jnsgd1na2vs0mg"},{"bike_id":"6a4612f8-d511-472f-9784-e69bac545256","system_id":"levelo_inurba_marseille","lat":43.290121,"lon":5.366317,"is_reserved":false,"is_disabled":false,"rental_uris":{"android":"levelo://app?vid=6a4612f8-d511-472f-9784-e69bac545256","ios":"levelo://app?vid=6a4612f8-d511-472f-9784-e69bac545256"},"vehicle_type_id":"4","last_reported":1748326523,"current_range_meters":12000,"station_id":"","pricing_plan_id":"cebpf4jnsgd1na2vs0mg"},{"bike_id":"c8b8bbea-449b-4f67-85ba-885540241e89","system_id":"levelo_inurba_marseille","lat":43.319278,"lon":5.372961,"is_reserved":false,"is_disabled":false,"rental_uris":{"android":"levelo://app?vid=c8b8bbea-449b-4f67-85ba-885540241e89","ios":"levelo://app?vid=c8b8bbea-449b-4f67-85ba-885540241e89"},"vehicle_type_id":"4","last_reported":1748326523,"current_range_meters":12000,"station_id":"","pricing_plan_id":"cebpf4jnsgd1na2vs0mg"},{"bike_id":"2a046dee-b3af-48c9-9659-b7d30ba20af5","system_id":"levelo_inurba_marseille","lat":43.24348,"lon":5.37978,"is_reserved":false,"is_disabled":false,"rental_uris":{"android":"levelo://app?vid=2a046dee-b3af-48c9-9659-b7d30ba20af5","ios":"levelo://app?vid=2a046dee-b3af-48c9-9659-b7d30ba20af5"},"vehicle_type_id":"4","last_reported":1748326523,"current_range_meters":12000,"station_id":"","pricing_plan_id":"cebpf4jnsgd1na2vs0mg"},{"bike_id":"26f79b5b-0582-46d0-8296-69f388f76872","system_id":"levelo_inurba_marseille","lat":43.30144,"lon":5.37418,"is_reserved":false,"is_disabled":false,"rental_uris":{"android":"levelo://app?vid=26f79b5b-0582-46d0-8296-69f388f76872","ios":"levelo://app?vid=26f79b5b-0582-46d0-8296-69f388f76872"},"vehicle_type_id":"4","last_reported":1748326523,"current_range_meters":12000,"station_id":"ce4bgs92rcd13ifvqcc0","pricing_plan_id":"cebpf4jnsgd1na2vs0mg"},{"bike_id":"a1ad37e9-65f1-44b3-b04a-e507016277ae","system_id":"levelo_inurba_marseille","lat":43.30935,"lon":5.40155,"is_reserved":false,"is_disabled":false,"rental_uris":{"android":"levelo://app?vid=a1ad37e9-65f1-44b3-b04a-e507016277ae","ios":"levelo://app?vid=a1ad37e9-65f1-44b3-b04a-e507016277ae"},"vehicle_type_id":"4","last_reported":1748326523,"current_range_meters":12000,"station_id":"ce4bgvp2rcd13ifvqct0","pricing_plan_id":"cebpf4jnsgd1na2vs0mg"},{"bike_id":"7f6ea04b-63d1-4eac-a9ba-5a9f032ad0aa","system_id":"levelo_inurba_marseille","lat":43.3059,"lon":5.3936,"is_reserved":false,"is_disabled":false,"rental_uris":{"android":"levelo://app?vid=7f6ea04b-63d1-4eac-a9ba-5a9f032ad0aa","ios":"levelo://app?vid=7f6ea04b-63d1-4eac-a9ba-5a9f032ad0aa"},"vehicle_type_id":"4","last_reported":1748326523,"current_range_meters":12000,"station_id":"ce4bh0p2rcd13ifvqd80","pricing_plan_id":"cebpf4jnsgd1na2vs0mg"},{"bike_id":"ad4e81e0-9d4a-4089-937b-81184d30b604","system_id":"levelo_inurba_marseille","lat":43.29043,"lon":5.39952,"is_reserved":false,"is_disabled":false,"rental_uris":{"android":"levelo://app?vid=ad4e81e0-9d4a-4089-937b-81184d30b604","ios":"levelo://app?vid=ad4e81e0-9d4a-4089-937b-81184d30b604"},"vehicle_type_id":"4","last_reported":1748326523,"current_range_meters":12000,"station_id":"ce4bh392rcd13ifvqdm0","pricing_plan_id":"cebpf4jnsgd1na2vs0mg"},{"bike_id":"48cd0317-1c6f-4804-9cd1-21cb1ebe5af3","system_id":"levelo_inurba_marseille","lat":43.25486,"lon":5.37645,"is_reserved":false,"is_disabled":false,"rental_uris":{"android":"levelo://app?vid=48cd0317-1c6f-4804-9cd1-21cb1ebe5af3","ios":"levelo://app?vid=48cd0317-1c6f-4804-9cd1-21cb1ebe5af3"},"vehicle_type_id":"4","last_reported":1748326523,"current_range_meters":12000,"station_id":"ce4bhh12rcd13ifvqff0","pricing_plan_id":"cebpf4jnsgd1na2vs0mg"},{"bike_id":"52da6684-0a1f-4e5c-8d8b-49dd7abe2c17","system_id":"levelo_inurba_marseille","lat":43.23185,"lon":5.39985,"is_reserved":false,"is_disabled":false,"rental_uris":{"android":"levelo://app?vid=52da6684-0a1f-4e5c-8d8b-49dd7abe2c17","ios":"levelo://app?vid=52da6684-0a1f-4e5c-8d8b-49dd7abe2c17"},"vehicle_type_id":"4","last_reported":1748326523,"current_range_meters":12000,"station_id":"ce4bhn12rcd13ifvqgqg","pricing_plan_id":"cebpf4jnsgd1na2vs0mg"},{"bike_id":"3f855aa9-a03a-4d28-bbc8-2f3b26d07315","system_id":"levelo_inurba_marseille","lat":43.22943,"lon":5.35386,"is_reserved":false,"is_disabled":false,"rental_uris":{"android":"levelo://app?vid=3f855aa9-a03a-4d28-bbc8-2f3b26d07315","ios":"levelo://app?vid=3f855aa9-a03a-4d28-bbc8-2f3b26d07315"},"vehicle_type_id":"4","last_reported":1748326523,"current_range_meters":12000,"station_id":"cpo3532slgdg3j2ikp40","pricing_plan_id":"cebpf4jnsgd1na2vs0mg"},{"bike_id":"3c5e6b9a-9c1f-414a-b720-857f602a66ce","system_id":"levelo_inurba_marseille","lat":43.31219,"lon":5.36859,"is_reserved":false,"is_disabled":false,"rental_uris":{"android":"levelo://app?vid=3c5e6b9a-9c1f-414a-b720-857f602a66ce","ios":"levelo://app?vid=3c5e6b9a-9c1f-414a-b720-857f602a66ce"},"vehicle_type_id":"4","last_reported":1748326523,"current_range_meters":12400,"station_id":"ce4bgl92rcd13ifvqbq0","pricing_plan_id":"cebpf4jnsgd1na2vs0mg"},{"bike_id":"79767285-69c6-4904-8805-51f0b4fdbeeb","system_id":"levelo_inurba_marseille","lat":43.29708,"lon":5.36611,"is_reserved":false,"is_disabled":false,"rental_uris":{"android":"levelo://app?vid=79767285-69c6-4904-8805-51f0b4fdbeeb","ios":"levelo://app?vid=79767285-69c6-4904-8805-51f0b4fdbeeb"},"vehicle_type_id":"4","last_reported":1748326523,"current_range_meters":12400,"station_id":"ce4bgn12rcd13ifvqbt0","pricing_plan_id":"cebpf4jnsgd1na2vs0mg"},{"bike_id":"209873e6-746a-4512-9cae-09ee2223672e","system_id":"levelo_inurba_marseille","lat":43.265669,"lon":5.390238,"is_reserved":false,"is_disabled":false,"rental_uris":{"android":"levelo://app?vid=209873e6-746a-4512-9cae-09ee2223672e","ios":"levelo://app?vid=209873e6-746a-4512-9cae-09ee2223672e"},"vehicle_type_id":"4","last_reported":1748326523,"current_range_meters":12400,"station_id":"ce4bhe12rcd13ifvqf30","pricing_plan_id":"cebpf4jnsgd1na2vs0mg"},{"bike_id":"17b0d8ff-aa28-408b-9628-4a545be2c769","system_id":"levelo_inurba_marseille","lat":43.319263,"lon":5.380331,"is_reserved":false,"is_disabled":false,"rental_uris":{"android":"levelo://app?vid=17b0d8ff-aa28-408b-9628-4a545be2c769","ios":"levelo://app?vid=17b0d8ff-aa28-408b-9628-4a545be2c769"},"vehicle_type_id":"4","last_reported":1748326523,"current_range_meters":12800,"station_id":"","pricing_plan_id":"cebpf4jnsgd1na2vs0mg"},{"bike_id":"6b482028-512e-4dbe-b943-3138dd0f6f46","system_id":"levelo_inurba_marseille","lat":43.29709,"lon":5.36831,"is_reserved":false,"is_disabled":false,"rental_uris":{"android":"levelo://app?vid=6b482028-512e-4dbe-b943-3138dd0f6f46","ios":"levelo://app?vid=6b482028-512e-4dbe-b943-3138dd0f6f46"},"vehicle_type_id":"4","last_reported":1748326523,"current_range_meters":12800,"station_id":"","pricing_plan_id":"cebpf4jnsgd1na2vs0mg"},{"bike_id":"24695fcc-1634-4887-9a04-00f71eb609f0","system_id":"levelo_inurba_marseille","lat":43.231822,"lon":5.399881,"is_reserved":false,"is_disabled":false,"rental_uris":{"android":"levelo://app?vid=24695fcc-1634-4887-9a04-00f71eb609f0","ios":"levelo://app?vid=24695fcc-1634-4887-9a04-00f71eb609f0"},"vehicle_type_id":"4","last_reported":1748326523,"current_range_meters":12800,"station_id":"ce4bhn12rcd13ifvqgqg","pricing_plan_id":"cebpf4jnsgd1na2vs0mg"},{"bike_id":"eb060acd-d403-4c33-9f13-e709466da355","system_id":"levelo_inurba_marseille","lat":43.296143,"lon":5.377079,"is_reserved":false,"is_disabled":false,"rental_uris":{"android":"levelo://app?vid=eb060acd-d403-4c33-9f13-e709466da355","ios":"levelo://app?vid=eb060acd-d403-4c33-9f13-e709466da355"},"vehicle_type_id":"4","last_reported":1748326523,"current_range_meters":13600,"station_id":"","pricing_plan_id":"cebpf4jnsgd1na2vs0mg"},{"bike_id":"a37d7072-fa8d-48ce-882a-f8346c36ab41","system_id":"levelo_inurba_marseille","lat":43.233186,"lon":5.361618,"is_reserved":false,"is_disabled":false,"rental_uris":{"android":"levelo://app?vid=a37d7072-fa8d-48ce-882a-f8346c36ab41","ios":"levelo://app?vid=a37d7072-fa8d-48ce-882a-f8346c36ab41"},"vehicle_type_id":"4","last_reported":1748326523,"current_range_meters":13600,"station_id":"","pricing_plan_id":"cebpf4jnsgd1na2vs0mg"},{"bike_id":"02f2d0ab-b0cb-4aef-b378-ae7900923714","system_id":"levelo_inurba_marseille","lat":43.2991,"lon":5.37473,"is_reserved":false,"is_disabled":false,"rental_uris":{"android":"levelo://app?vid=02f2d0ab-b0cb-4aef-b378-ae7900923714","ios":"levelo://app?vid=02f2d0ab-b0cb-4aef-b378-ae7900923714"},"vehicle_type_id":"4","last_reported":1748326523,"current_range_meters":13600,"station_id":"ce4bgjh2rcd13ifvqbg0","pricing_plan_id":"cebpf4jnsgd1na2vs0mg"},{"bike_id":"1fc1e726-4345-4368-8c7e-c7670fdb52e5","system_id":"levelo_inurba_marseille","lat":43.301052,"lon":5.380749,"is_reserved":false,"is_disabled":false,"rental_uris":{"android":"levelo://app?vid=1fc1e726-4345-4368-8c7e-c7670fdb52e5","ios":"levelo://app?vid=1fc1e726-4345-4368-8c7e-c7670fdb52e5"},"vehicle_type_id":"4","last_reported":1748326523,"current_range_meters":13600,"station_id":"ce4bgup2rcd13ifvqcn0","pricing_plan_id":"cebpf4jnsgd1na2vs0mg"},{"bike_id":"6443dad9-aa0c-4786-9534-13315961d247","system_id":"levelo_inurba_marseille","lat":43.28966,"lon":5.39654,"is_reserved":false,"is_disabled":false,"rental_uris":{"android":"levelo://app?vid=6443dad9-aa0c-4786-9534-13315961d247","ios":"levelo://app?vid=6443dad9-aa0c-4786-9534-13315961d247"},"vehicle_type_id":"4","last_reported":1748326523,"current_range_meters":13600,"station_id":"ce4bh3h2rcd13ifvqdn0","pricing_plan_id":"cebpf4jnsgd1na2vs0mg"},{"bike_id":"bc97aa8f-932b-42fd-9c19-7359aac4b8a5","system_id":"levelo_inurba_marseille","lat":43.26556,"lon":5.3728,"is_reserved":false,"is_disabled":false,"rental_uris":{"android":"levelo://app?vid=bc97aa8f-932b-42fd-9c19-7359aac4b8a5","ios":"levelo://app?vid=bc97aa8f-932b-42fd-9c19-7359aac4b8a5"},"vehicle_type_id":"4","last_reported":1748326523,"current_range_meters":13600,"station_id":"ce4bhg12rcd13ifvqf70","pricing_plan_id":"cebpf4jnsgd1na2vs0mg"},{"bike_id":"85631763-b95f-4dce-914e-2aa56c206117","system_id":"levelo_inurba_marseille","lat":43.25591,"lon":5.38272,"is_reserved":false,"is_disabled":false,"rental_uris":{"android":"levelo://app?vid=85631763-b95f-4dce-914e-2aa56c206117","ios":"levelo://app?vid=85631763-b95f-4dce-914e-2aa56c206117"},"vehicle_type_id":"4","last_reported":1748326523,"current_range_meters":13600,"station_id":"ce4bhih2rcd13ifvqfs0","pricing_plan_id":"cebpf4jnsgd1na2vs0mg"},{"bike_id":"a3a1e2f8-c082-4657-9cf8-ceb282e14a71","system_id":"levelo_inurba_marseille","lat":43.23183,"lon":5.39999,"is_reserved":false,"is_disabled":false,"rental_uris":{"android":"levelo://app?vid=a3a1e2f8-c082-4657-9cf8-ceb282e14a71","ios":"levelo://app?vid=a3a1e2f8-c082-4657-9cf8-ceb282e14a71"},"vehicle_type_id":"4","last_reported":1748326523,"current_range_meters":13600,"station_id":"ce4bhn12rcd13ifvqgqg","pricing_plan_id":"cebpf4jnsgd1na2vs0mg"},{"bike_id":"ceb81090-b40e-47dd-bc35-8598d269ef58","system_id":"levelo_inurba_marseille","lat":43.26663,"lon":5.38431,"is_reserved":false,"is_disabled":false,"rental_uris":{"android":"levelo://app?vid=ceb81090-b40e-47dd-bc35-8598d269ef58","ios":"levelo://app?vid=ceb81090-b40e-47dd-bc35-8598d269ef58"},"vehicle_type_id":"4","last_reported":1748326523,"current_range_meters":14000,"station_id":"","pricing_plan_id":"cebpf4jnsgd1na2vs0mg"},{"bike_id":"9fe6cf54-5d76-4eab-ad53-e7c251f03d1e","system_id":"levelo_inurba_marseille","lat":43.30891,"lon":5.372,"is_reserved":false,"is_disabled":false,"rental_uris":{"android":"levelo://app?vid=9fe6cf54-5d76-4eab-ad53-e7c251f03d1e","ios":"levelo://app?vid=9fe6cf54-5d76-4eab-ad53-e7c251f03d1e"},"vehicle_type_id":"4","last_reported":1748326523,"current_range_meters":14000,"station_id":"ce4bguh2rcd13ifvqckg","pricing_plan_id":"cebpf4jnsgd1na2vs0mg"},{"bike_id":"f8440d74-6946-4cc3-835a-107397f711e7","system_id":"levelo_inurba_marseille","lat":43.28396,"lon":5.37489,"is_reserved":false,"is_disabled":false,"rental_uris":{"android":"levelo://app?vid=f8440d74-6946-4cc3-835a-107397f711e7","ios":"levelo://app?vid=f8440d74-6946-4cc3-835a-107397f711e7"},"vehicle_type_id":"4","last_reported":1748326523,"current_range_meters":14000,"station_id":"ce4bh412rcd13ifvqds0","pricing_plan_id":"cebpf4jnsgd1na2vs0mg"},{"bike_id":"d415bbc8-6965-4b80-bc72-015476d0efd7","system_id":"levelo_inurba_marseille","lat":43.28941,"lon":5.38387,"is_reserved":false,"is_disabled":false,"rental_uris":{"android":"levelo://app?vid=d415bbc8-6965-4b80-bc72-015476d0efd7","ios":"levelo://app?vid=d415bbc8-6965-4b80-bc72-015476d0efd7"},"vehicle_type_id":"4","last_reported":1748326523,"current_range_meters":14000,"station_id":"ce4bh612rcd13ifvqe6g","pricing_plan_id":"cebpf4jnsgd1na2vs0mg"},{"bike_id":"ebc8c9a5-1024-472e-a00e-2d5a4d26d29e","system_id":"levelo_inurba_marseille","lat":43.27502,"lon":5.42456,"is_reserved":false,"is_disabled":false,"rental_uris":{"android":"levelo://app?vid=ebc8c9a5-1024-472e-a00e-2d5a4d26d29e","ios":"levelo://app?vid=ebc8c9a5-1024-472e-a00e-2d5a4d26d29e"},"vehicle_type_id":"4","last_reported":1748326523,"current_range_meters":14400,"station_id":"","pricing_plan_id":"cebpf4jnsgd1na2vs0mg"},{"bike_id":"9496408a-c4d6-43a6-bb32-918c5ecd196a","system_id":"levelo_inurba_marseille","lat":43.31486,"lon":5.37302,"is_reserved":false,"is_disabled":false,"rental_uris":{"android":"levelo://app?vid=9496408a-c4d6-43a6-bb32-918c5ecd196a","ios":"levelo://app?vid=9496408a-c4d6-43a6-bb32-918c5ecd196a"},"vehicle_type_id":"4","last_reported":1748326523,"current_range_meters":14400,"station_id":"ce4bgt12rcd13ifvqcd0","pricing_plan_id":"cebpf4jnsgd1na2vs0mg"},{"bike_id":"80621190-6360-4663-8ad5-fab22cb6eefd","system_id":"levelo_inurba_marseille","lat":43.273687,"lon":5.362367,"is_reserved":false,"is_disabled":false,"rental_uris":{"android":"levelo://app?vid=80621190-6360-4663-8ad5-fab22cb6eefd","ios":"levelo://app?vid=80621190-6360-4663-8ad5-fab22cb6eefd"},"vehicle_type_id":"4","last_reported":1748326523,"current_range_meters":14400,"station_id":"ce4bhbh2rcd13ifvqeo0","pricing_plan_id":"cebpf4jnsgd1na2vs0mg"},{"bike_id":"e113429b-222d-4f6d-9814-e3b93bf8685c","system_id":"levelo_inurba_marseille","lat":43.25938,"lon":5.40902,"is_reserved":false,"is_disabled":false,"rental_uris":{"android":"levelo://app?vid=e113429b-222d-4f6d-9814-e3b93bf8685c","ios":"levelo://app?vid=e113429b-222d-4f6d-9814-e3b93bf8685c"},"vehicle_type_id":"4","last_reported":1748326523,"current_range_meters":14400,"station_id":"ce4bhm92rcd13ifvqglg","pricing_plan_id":"cebpf4jnsgd1na2vs0mg"},{"bike_id":"064e6fa0-0d7c-4ec8-b1ad-7f69178c75b7","system_id":"levelo_inurba_marseille","lat":43.29885,"lon":5.43636,"is_reserved":false,"is_disabled":false,"rental_uris":{"android":"levelo://app?vid=064e6fa0-0d7c-4ec8-b1ad-7f69178c75b7","ios":"levelo://app?vid=064e6fa0-0d7c-4ec8-b1ad-7f69178c75b7"},"vehicle_type_id":"4","last_reported":1748326523,"current_range_meters":14400,"station_id":"ce4bhpp2rcd13ifvqhfg","pricing_plan_id":"cebpf4jnsgd1na2vs0mg"},{"bike_id":"59be5d3d-ccf7-4ada-9d8b-91dac08e748f","system_id":"levelo_inurba_marseille","lat":43.30914,"lon":5.3683,"is_reserved":false,"is_disabled":false,"rental_uris":{"android":"levelo://app?vid=59be5d3d-ccf7-4ada-9d8b-91dac08e748f","ios":"levelo://app?vid=59be5d3d-ccf7-4ada-9d8b-91dac08e748f"},"vehicle_type_id":"4","last_reported":1748326523,"current_range_meters":14800,"station_id":"ce4bgn92rcd13ifvqbvg","pricing_plan_id":"cebpf4jnsgd1na2vs0mg"},{"bike_id":"28694891-4d0f-4b6e-bc13-b3344cafed01","system_id":"levelo_inurba_marseille","lat":43.28399,"lon":5.37492,"is_reserved":false,"is_disabled":false,"rental_uris":{"android":"levelo://app?vid=28694891-4d0f-4b6e-bc13-b3344cafed01","ios":"levelo://app?vid=28694891-4d0f-4b6e-bc13-b3344cafed01"},"vehicle_type_id":"4","last_reported":1748326523,"current_range_meters":14800,"station_id":"ce4bh412rcd13ifvqds0","pricing_plan_id":"cebpf4jnsgd1na2vs0mg"},{"bike_id":"b66a4e95-8ede-4aec-83b5-1dcb1a492172","system_id":"levelo_inurba_marseille","lat":43.26956,"lon":5.38631,"is_reserved":false,"is_disabled":false,"rental_uris":{"android":"levelo://app?vid=b66a4e95-8ede-4aec-83b5-1dcb1a492172","ios":"levelo://app?vid=b66a4e95-8ede-4aec-83b5-1dcb1a492172"},"vehicle_type_id":"4","last_reported":1748326523,"current_range_meters":14800,"station_id":"ce4bhh92rcd13ifvqfh0","pricing_plan_id":"cebpf4jnsgd1na2vs0mg"},{"bike_id":"03a878d5-7464-43c2-bb12-8804355fff55","system_id":"levelo_inurba_marseille","lat":43.25579,"lon":5.38227,"is_reserved":false,"is_disabled":false,"rental_uris":{"android":"levelo://app?vid=03a878d5-7464-43c2-bb12-8804355fff55","ios":"levelo://app?vid=03a878d5-7464-43c2-bb12-8804355fff55"},"vehicle_type_id":"4","last_reported":1748326523,"current_range_meters":14800,"station_id":"ce4bhih2rcd13ifvqfs0","pricing_plan_id":"cebpf4jnsgd1na2vs0mg"},{"bike_id":"ade626e2-c9d9-42b7-b26b-cdded97b1af7","system_id":"levelo_inurba_marseille","lat":43.25939,"lon":5.4086,"is_reserved":false,"is_disabled":false,"rental_uris":{"android":"levelo://app?vid=ade626e2-c9d9-42b7-b26b-cdded97b1af7","ios":"levelo://app?vid=ade626e2-c9d9-42b7-b26b-cdded97b1af7"},"vehicle_type_id":"4","last_reported":1748326523,"current_range_meters":14800,"station_id":"ce4bhm92rcd13ifvqglg","pricing_plan_id":"cebpf4jnsgd1na2vs0mg"},{"bike_id":"91778dc6-5ac3-4d73-a11f-9b1ddc717184","system_id":"levelo_inurba_marseille","lat":43.231828,"lon":5.399853,"is_reserved":false,"is_disabled":false,"rental_uris":{"android":"levelo://app?vid=91778dc6-5ac3-4d73-a11f-9b1ddc717184","ios":"levelo://app?vid=91778dc6-5ac3-4d73-a11f-9b1ddc717184"},"vehicle_type_id":"4","last_reported":1748326523,"current_range_meters":14800,"station_id":"ce4bhn12rcd13ifvqgqg","pricing_plan_id":"cebpf4jnsgd1na2vs0mg"},{"bike_id":"a40588ee-00f9-4620-a7e7-03b577ebbb6e","system_id":"levelo_inurba_marseille","lat":43.23191,"lon":5.40004,"is_reserved":false,"is_disabled":false,"rental_uris":{"android":"levelo://app?vid=a40588ee-00f9-4620-a7e7-03b577ebbb6e","ios":"levelo://app?vid=a40588ee-00f9-4620-a7e7-03b577ebbb6e"},"vehicle_type_id":"4","last_reported":1748326523,"current_range_meters":14800,"station_id":"ce4bhn12rcd13ifvqgqg","pricing_plan_id":"cebpf4jnsgd1na2vs0mg"},{"bike_id":"73c9b58b-a0b3-4475-97df-f1163f97195c","system_id":"levelo_inurba_marseille","lat":43.27497,"lon":5.4245,"is_reserved":false,"is_disabled":false,"rental_uris":{"android":"levelo://app?vid=73c9b58b-a0b3-4475-97df-f1163f97195c","ios":"levelo://app?vid=73c9b58b-a0b3-4475-97df-f1163f97195c"},"vehicle_type_id":"4","last_reported":1748326523,"current_range_meters":14800,"station_id":"ce4bhn92rcd13ifvqgrg","pricing_plan_id":"cebpf4jnsgd1na2vs0mg"},{"bike_id":"9ff109c8-bdfd-4018-8b97-25df080fa9e4","system_id":"levelo_inurba_marseille","lat":43.28969,"lon":5.36424,"is_reserved":false,"is_disabled":false,"rental_uris":{"android":"levelo://app?vid=9ff109c8-bdfd-4018-8b97-25df080fa9e4","ios":"levelo://app?vid=9ff109c8-bdfd-4018-8b97-25df080fa9e4"},"vehicle_type_id":"4","last_reported":1748326523,"current_range_meters":15200,"station_id":"ce4bhc92rcd13ifvqetg","pricing_plan_id":"cebpf4jnsgd1na2vs0mg"},{"bike_id":"3ddd27a9-51c8-4de7-84da-dcdbf7a6b4cb","system_id":"levelo_inurba_marseille","lat":43.33722,"lon":5.39179,"is_reserved":false,"is_disabled":false,"rental_uris":{"android":"levelo://app?vid=3ddd27a9-51c8-4de7-84da-dcdbf7a6b4cb","ios":"levelo://app?vid=3ddd27a9-51c8-4de7-84da-dcdbf7a6b4cb"},"vehicle_type_id":"4","last_reported":1748326523,"current_range_meters":15200,"station_id":"ce4bhr92rcd13ifvqhsg","pricing_plan_id":"cebpf4jnsgd1na2vs0mg"},{"bike_id":"91d118f0-ea08-4ded-b282-aa3e98235efa","system_id":"levelo_inurba_marseille","lat":43.286073,"lon":5.3706,"is_reserved":false,"is_disabled":false,"rental_uris":{"android":"levelo://app?vid=91d118f0-ea08-4ded-b282-aa3e98235efa","ios":"levelo://app?vid=91d118f0-ea08-4ded-b282-aa3e98235efa"},"vehicle_type_id":"4","last_reported":1748326523,"current_range_meters":15200,"station_id":"ce4bht12rcd13ifvqi60","pricing_plan_id":"cebpf4jnsgd1na2vs0mg"},{"bike_id":"493a3534-8a6b-48f7-b188-716e14fbabdc","system_id":"levelo_inurba_marseille","lat":43.26807,"lon":5.40253,"is_reserved":false,"is_disabled":false,"rental_uris":{"android":"levelo://app?vid=493a3534-8a6b-48f7-b188-716e14fbabdc","ios":"levelo://app?vid=493a3534-8a6b-48f7-b188-716e14fbabdc"},"vehicle_type_id":"4","last_reported":1748326523,"current_range_meters":15200,"station_id":"ce501612rcd8frsf0b60","pricing_plan_id":"cebpf4jnsgd1na2vs0mg"},{"bike_id":"2296b000-9418-4e25-b3a0-ff6599969b36","system_id":"levelo_inurba_marseille","lat":43.28832,"lon":5.35272,"is_reserved":false,"is_disabled":false,"rental_uris":{"android":"levelo://app?vid=2296b000-9418-4e25-b3a0-ff6599969b36","ios":"levelo://app?vid=2296b000-9418-4e25-b3a0-ff6599969b36"},"vehicle_type_id":"4","last_reported":1748326523,"current_range_meters":16000,"station_id":"","pricing_plan_id":"cebpf4jnsgd1na2vs0mg"},{"bike_id":"9198b550-c5cf-463c-bb76-767cf162342b","system_id":"levelo_inurba_marseille","lat":43.255782,"lon":5.382427,"is_reserved":false,"is_disabled":false,"rental_uris":{"android":"levelo://app?vid=9198b550-c5cf-463c-bb76-767cf162342b","ios":"levelo://app?vid=9198b550-c5cf-463c-bb76-767cf162342b"},"vehicle_type_id":"4","last_reported":1748326523,"current_range_meters":16000,"station_id":"ce4bhih2rcd13ifvqfs0","pricing_plan_id":"cebpf4jnsgd1na2vs0mg"},{"bike_id":"52283b6a-a930-4b02-9dd0-1376797f777a","system_id":"levelo_inurba_marseille","lat":43.25582,"lon":5.38228,"is_reserved":false,"is_disabled":false,"rental_uris":{"android":"levelo://app?vid=52283b6a-a930-4b02-9dd0-1376797f777a","ios":"levelo://app?vid=52283b6a-a930-4b02-9dd0-1376797f777a"},"vehicle_type_id":"4","last_reported":1748326523,"current_range_meters":16000,"station_id":"ce4bhih2rcd13ifvqfs0","pricing_plan_id":"cebpf4jnsgd1na2vs0mg"},{"bike_id":"d6ceb9ee-8b08-4e3f-bf79-4d3c1039e7e6","system_id":"levelo_inurba_marseille","lat":43.24076,"lon":5.37755,"is_reserved":false,"is_disabled":false,"rental_uris":{"android":"levelo://app?vid=d6ceb9ee-8b08-4e3f-bf79-4d3c1039e7e6","ios":"levelo://app?vid=d6ceb9ee-8b08-4e3f-bf79-4d3c1039e7e6"},"vehicle_type_id":"4","last_reported":1748326523,"current_range_meters":16000,"station_id":"ce4bhnp2rcd13ifvqgvg","pricing_plan_id":"cebpf4jnsgd1na2vs0mg"},{"bike_id":"dbec5777-e1be-405e-94c6-afded2aa4329","system_id":"levelo_inurba_marseille","lat":43.30374,"lon":5.42434,"is_reserved":false,"is_disabled":false,"rental_uris":{"android":"levelo://app?vid=dbec5777-e1be-405e-94c6-afded2aa4329","ios":"levelo://app?vid=dbec5777-e1be-405e-94c6-afded2aa4329"},"vehicle_type_id":"4","last_reported":1748326523,"current_range_meters":16000,"station_id":"ce4bhoh2rcd13ifvqh6g","pricing_plan_id":"cebpf4jnsgd1na2vs0mg"},{"bike_id":"abd677dc-ded8-45c5-97c7-c54db966249e","system_id":"levelo_inurba_marseille","lat":43.28485,"lon":5.38421,"is_reserved":false,"is_disabled":false,"rental_uris":{"android":"levelo://app?vid=abd677dc-ded8-45c5-97c7-c54db966249e","ios":"levelo://app?vid=abd677dc-ded8-45c5-97c7-c54db966249e"},"vehicle_type_id":"4","last_reported":1748326523,"current_range_meters":16400,"station_id":"ce4bh512rcd13ifvqe3g","pricing_plan_id":"cebpf4jnsgd1na2vs0mg"},{"bike_id":"b9feece3-8db7-4d9c-b5c4-3d592ac61b90","system_id":"levelo_inurba_marseille","lat":43.291848,"lon":5.358085,"is_reserved":false,"is_disabled":false,"rental_uris":{"android":"levelo://app?vid=b9feece3-8db7-4d9c-b5c4-3d592ac61b90","ios":"levelo://app?vid=b9feece3-8db7-4d9c-b5c4-3d592ac61b90"},"vehicle_type_id":"4","last_reported":1748326523,"current_range_meters":16800,"station_id":"","pricing_plan_id":"cebpf4jnsgd1na2vs0mg"},{"bike_id":"53864ff9-0bd7-4116-a714-8c93c9f18c2e","system_id":"levelo_inurba_marseille","lat":43.29314,"lon":5.37159,"is_reserved":false,"is_disabled":false,"rental_uris":{"android":"levelo://app?vid=53864ff9-0bd7-4116-a714-8c93c9f18c2e","ios":"levelo://app?vid=53864ff9-0bd7-4116-a714-8c93c9f18c2e"},"vehicle_type_id":"4","last_reported":1748326523,"current_range_meters":16800,"station_id":"ce4bgh92rcd13ifvqb40","pricing_plan_id":"cebpf4jnsgd1na2vs0mg"},{"bike_id":"b0c06015-92f7-4a76-b580-f9828ce50a0b","system_id":"levelo_inurba_marseille","lat":43.29472,"lon":5.3978,"is_reserved":false,"is_disabled":false,"rental_uris":{"android":"levelo://app?vid=b0c06015-92f7-4a76-b580-f9828ce50a0b","ios":"levelo://app?vid=b0c06015-92f7-4a76-b580-f9828ce50a0b"},"vehicle_type_id":"4","last_reported":1748326523,"current_range_meters":16800,"station_id":"ce4bh3h2rcd13ifvqdo0","pricing_plan_id":"cebpf4jnsgd1na2vs0mg"},{"bike_id":"af7f9d02-5700-4613-acaa-4af8095e626d","system_id":"levelo_inurba_marseille","lat":43.28477,"lon":5.38416,"is_reserved":false,"is_disabled":false,"rental_uris":{"android":"levelo://app?vid=af7f9d02-5700-4613-acaa-4af8095e626d","ios":"levelo://app?vid=af7f9d02-5700-4613-acaa-4af8095e626d"},"vehicle_type_id":"4","last_reported":1748326523,"current_range_meters":16800,"station_id":"ce4bh512rcd13ifvqe3g","pricing_plan_id":"cebpf4jnsgd1na2vs0mg"},{"bike_id":"69ac8acb-6816-4e3d-b61e-e01a1548e4df","system_id":"levelo_inurba_marseille","lat":43.23143,"lon":5.43722,"is_reserved":false,"is_disabled":false,"rental_uris":{"android":"levelo://app?vid=69ac8acb-6816-4e3d-b61e-e01a1548e4df","ios":"levelo://app?vid=69ac8acb-6816-4e3d-b61e-e01a1548e4df"},"vehicle_type_id":"4","last_reported":1748326523,"current_range_meters":16800,"station_id":"ce4bhmp2rcd13ifvqgog","pricing_plan_id":"cebpf4jnsgd1na2vs0mg"},{"bike_id":"f226c307-06f0-42b1-ad50-ed8337f96a77","system_id":"levelo_inurba_marseille","lat":43.24068,"lon":5.37762,"is_reserved":false,"is_disabled":false,"rental_uris":{"android":"levelo://app?vid=f226c307-06f0-42b1-ad50-ed8337f96a77","ios":"levelo://app?vid=f226c307-06f0-42b1-ad50-ed8337f96a77"},"vehicle_type_id":"4","last_reported":1748326523,"current_range_meters":16800,"station_id":"ce4bhnp2rcd13ifvqgvg","pricing_plan_id":"cebpf4jnsgd1na2vs0mg"},{"bike_id":"543600ca-bf03-4bdf-9a02-ae5ec1e5bd24","system_id":"levelo_inurba_marseille","lat":43.284428,"lon":5.39209,"is_reserved":false,"is_disabled":false,"rental_uris":{"android":"levelo://app?vid=543600ca-bf03-4bdf-9a02-ae5ec1e5bd24","ios":"levelo://app?vid=543600ca-bf03-4bdf-9a02-ae5ec1e5bd24"},"vehicle_type_id":"4","last_reported":1748326523,"current_range_meters":16800,"station_id":"ce4bhoh2rcd13ifvqh5g","pricing_plan_id":"cebpf4jnsgd1na2vs0mg"},{"bike_id":"134c70cc-46f1-414c-ba60-b99ba2b4a992","system_id":"levelo_inurba_marseille","lat":43.348015,"lon":5.351696,"is_reserved":false,"is_disabled":false,"rental_uris":{"android":"levelo://app?vid=134c70cc-46f1-414c-ba60-b99ba2b4a992","ios":"levelo://app?vid=134c70cc-46f1-414c-ba60-b99ba2b4a992"},"vehicle_type_id":"4","last_reported":1748326523,"current_range_meters":17200,"station_id":"","pricing_plan_id":"cebpf4jnsgd1na2vs0mg"},{"bike_id":"75a70947-a318-469a-8756-7ed8dfd7b8ba","system_id":"levelo_inurba_marseille","lat":43.30611,"lon":5.39359,"is_reserved":false,"is_disabled":false,"rental_uris":{"android":"levelo://app?vid=75a70947-a318-469a-8756-7ed8dfd7b8ba","ios":"levelo://app?vid=75a70947-a318-469a-8756-7ed8dfd7b8ba"},"vehicle_type_id":"4","last_reported":1748326523,"current_range_meters":17200,"station_id":"ce4bh0p2rcd13ifvqd80","pricing_plan_id":"cebpf4jnsgd1na2vs0mg"},{"bike_id":"070b92ff-302c-46dc-b32d-b4c268fe7dc1","system_id":"levelo_inurba_marseille","lat":43.27499,"lon":5.42454,"is_reserved":false,"is_disabled":false,"rental_uris":{"android":"levelo://app?vid=070b92ff-302c-46dc-b32d-b4c268fe7dc1","ios":"levelo://app?vid=070b92ff-302c-46dc-b32d-b4c268fe7dc1"},"vehicle_type_id":"4","last_reported":1748326523,"current_range_meters":17600,"station_id":"","pricing_plan_id":"cebpf4jnsgd1na2vs0mg"},{"bike_id":"afb9f9de-fba0-4a16-ae08-f9c54c0e6bad","system_id":"levelo_inurba_marseille","lat":43.29576,"lon":5.374997,"is_reserved":false,"is_disabled":false,"rental_uris":{"android":"levelo://app?vid=afb9f9de-fba0-4a16-ae08-f9c54c0e6bad","ios":"levelo://app?vid=afb9f9de-fba0-4a16-ae08-f9c54c0e6bad"},"vehicle_type_id":"4","last_reported":1748326523,"current_range_meters":17600,"station_id":"ce4bgh92rcd13ifvqb50","pricing_plan_id":"cebpf4jnsgd1na2vs0mg"},{"bike_id":"0e8dcc92-08cd-4501-aca1-fa90a8bf6352","system_id":"levelo_inurba_marseille","lat":43.297024,"lon":5.376934,"is_reserved":false,"is_disabled":false,"rental_uris":{"android":"levelo://app?vid=0e8dcc92-08cd-4501-aca1-fa90a8bf6352","ios":"levelo://app?vid=0e8dcc92-08cd-4501-aca1-fa90a8bf6352"},"vehicle_type_id":"4","last_reported":1748326523,"current_range_meters":17600,"station_id":"ce4bgkh2rcd13ifvqbl0","pricing_plan_id":"cebpf4jnsgd1na2vs0mg"},{"bike_id":"0cb854ed-7007-4990-aab2-00958894f91c","system_id":"levelo_inurba_marseille","lat":43.3093,"lon":5.40148,"is_reserved":false,"is_disabled":false,"rental_uris":{"android":"levelo://app?vid=0cb854ed-7007-4990-aab2-00958894f91c","ios":"levelo://app?vid=0cb854ed-7007-4990-aab2-00958894f91c"},"vehicle_type_id":"4","last_reported":1748326523,"current_range_meters":17600,"station_id":"ce4bgvp2rcd13ifvqct0","pricing_plan_id":"cebpf4jnsgd1na2vs0mg"},{"bike_id":"50f8d604-e40d-4337-8907-256c137be807","system_id":"levelo_inurba_marseille","lat":43.27572,"lon":5.3841,"is_reserved":false,"is_disabled":false,"rental_uris":{"android":"levelo://app?vid=50f8d604-e40d-4337-8907-256c137be807","ios":"levelo://app?vid=50f8d604-e40d-4337-8907-256c137be807"},"vehicle_type_id":"4","last_reported":1748326523,"current_range_meters":17600,"station_id":"ce4bhh92rcd13ifvqfi0","pricing_plan_id":"cebpf4jnsgd1na2vs0mg"},{"bike_id":"9811cc04-0dc6-4dcc-89c2-64e0a11cd8fc","system_id":"levelo_inurba_marseille","lat":43.3254,"lon":5.41423,"is_reserved":false,"is_disabled":false,"rental_uris":{"android":"levelo://app?vid=9811cc04-0dc6-4dcc-89c2-64e0a11cd8fc","ios":"levelo://app?vid=9811cc04-0dc6-4dcc-89c2-64e0a11cd8fc"},"vehicle_type_id":"4","last_reported":1748326523,"current_range_meters":17600,"station_id":"ce4bhq12rcd13ifvqhhg","pricing_plan_id":"cebpf4jnsgd1na2vs0mg"},{"bike_id":"fd4f52a7-a2f4-4f66-8d2c-38b379123ee4","system_id":"levelo_inurba_marseille","lat":43.22491,"lon":5.34803,"is_reserved":false,"is_disabled":false,"rental_uris":{"android":"levelo://app?vid=fd4f52a7-a2f4-4f66-8d2c-38b379123ee4","ios":"levelo://app?vid=fd4f52a7-a2f4-4f66-8d2c-38b379123ee4"},"vehicle_type_id":"4","last_reported":1748326523,"current_range_meters":17600,"station_id":"st_cvj5dfep6f1abm77gieg","pricing_plan_id":"cebpf4jnsgd1na2vs0mg"},{"bike_id":"ed9771b0-7eaa-495d-943a-62208655fa9c","system_id":"levelo_inurba_marseille","lat":43.315674,"lon":5.383717,"is_reserved":false,"is_disabled":false,"rental_uris":{"android":"levelo://app?vid=ed9771b0-7eaa-495d-943a-62208655fa9c","ios":"levelo://app?vid=ed9771b0-7eaa-495d-943a-62208655fa9c"},"vehicle_type_id":"4","last_reported":1748326523,"current_range_meters":18800,"station_id":"","pricing_plan_id":"cebpf4jnsgd1na2vs0mg"},{"bike_id":"1582c58e-1d62-4be6-8684-d681b55b43ff","system_id":"levelo_inurba_marseille","lat":43.30928,"lon":5.40146,"is_reserved":false,"is_disabled":false,"rental_uris":{"android":"levelo://app?vid=1582c58e-1d62-4be6-8684-d681b55b43ff","ios":"levelo://app?vid=1582c58e-1d62-4be6-8684-d681b55b43ff"},"vehicle_type_id":"4","last_reported":1748326523,"current_range_meters":18800,"station_id":"ce4bgvp2rcd13ifvqct0","pricing_plan_id":"cebpf4jnsgd1na2vs0mg"},{"bike_id":"97e45c0d-5100-4ca2-ae40-27c3890a6eb1","system_id":"levelo_inurba_marseille","lat":43.25579,"lon":5.38215,"is_reserved":false,"is_disabled":false,"rental_uris":{"android":"levelo://app?vid=97e45c0d-5100-4ca2-ae40-27c3890a6eb1","ios":"levelo://app?vid=97e45c0d-5100-4ca2-ae40-27c3890a6eb1"},"vehicle_type_id":"4","last_reported":1748326523,"current_range_meters":18800,"station_id":"ce4bhih2rcd13ifvqfs0","pricing_plan_id":"cebpf4jnsgd1na2vs0mg"},{"bike_id":"5e2ea93b-2492-43c8-8577-cd66be306cdc","system_id":"levelo_inurba_marseille","lat":43.27493,"lon":5.42446,"is_reserved":false,"is_disabled":false,"rental_uris":{"android":"levelo://app?vid=5e2ea93b-2492-43c8-8577-cd66be306cdc","ios":"levelo://app?vid=5e2ea93b-2492-43c8-8577-cd66be306cdc"},"vehicle_type_id":"4","last_reported":1748326523,"current_range_meters":18800,"station_id":"ce4bhn92rcd13ifvqgrg","pricing_plan_id":"cebpf4jnsgd1na2vs0mg"},{"bike_id":"1536bfb5-8c8b-4212-99a3-e77d3ad5c419","system_id":"levelo_inurba_marseille","lat":43.303725,"lon":5.427213,"is_reserved":false,"is_disabled":false,"rental_uris":{"android":"levelo://app?vid=1536bfb5-8c8b-4212-99a3-e77d3ad5c419","ios":"levelo://app?vid=1536bfb5-8c8b-4212-99a3-e77d3ad5c419"},"vehicle_type_id":"4","last_reported":1748326523,"current_range_meters":18800,"station_id":"ce4bhoh2rcd13ifvqh6g","pricing_plan_id":"cebpf4jnsgd1na2vs0mg"},{"bike_id":"5b3dda85-555a-4869-90c1-207814bf8803","system_id":"levelo_inurba_marseille","lat":43.31495,"lon":5.37293,"is_reserved":false,"is_disabled":false,"rental_uris":{"android":"levelo://app?vid=5b3dda85-555a-4869-90c1-207814bf8803","ios":"levelo://app?vid=5b3dda85-555a-4869-90c1-207814bf8803"},"vehicle_type_id":"4","last_reported":1748326523,"current_range_meters":19200,"station_id":"ce4bgt12rcd13ifvqcd0","pricing_plan_id":"cebpf4jnsgd1na2vs0mg"},{"bike_id":"232b1ce9-edb9-4826-9f92-e32e54b60b4a","system_id":"levelo_inurba_marseille","lat":43.309339,"lon":5.401642,"is_reserved":false,"is_disabled":false,"rental_uris":{"android":"levelo://app?vid=232b1ce9-edb9-4826-9f92-e32e54b60b4a","ios":"levelo://app?vid=232b1ce9-edb9-4826-9f92-e32e54b60b4a"},"vehicle_type_id":"4","last_reported":1748326523,"current_range_meters":19200,"station_id":"ce4bgvp2rcd13ifvqct0","pricing_plan_id":"cebpf4jnsgd1na2vs0mg"},{"bike_id":"041ae94a-7d8a-4e3a-8b03-5209ae05c1f9","system_id":"levelo_inurba_marseille","lat":43.303199,"lon":5.404399,"is_reserved":false,"is_disabled":false,"rental_uris":{"android":"levelo://app?vid=041ae94a-7d8a-4e3a-8b03-5209ae05c1f9","ios":"levelo://app?vid=041ae94a-7d8a-4e3a-8b03-5209ae05c1f9"},"vehicle_type_id":"4","last_reported":1748326523,"current_range_meters":19200,"station_id":"ce4bh012rcd13ifvqd10","pricing_plan_id":"cebpf4jnsgd1na2vs0mg"},{"bike_id":"37116d38-3296-46f7-81ec-cf461d2b8736","system_id":"levelo_inurba_marseille","lat":43.30354,"lon":5.41864,"is_reserved":false,"is_disabled":false,"rental_uris":{"android":"levelo://app?vid=37116d38-3296-46f7-81ec-cf461d2b8736","ios":"levelo://app?vid=37116d38-3296-46f7-81ec-cf461d2b8736"},"vehicle_type_id":"4","last_reported":1748326523,"current_range_meters":19200,"station_id":"ce4bhop2rcd13ifvqh7g","pricing_plan_id":"cebpf4jnsgd1na2vs0mg"},{"bike_id":"f6373654-6d28-46a5-a01d-d04186121a2f","system_id":"levelo_inurba_marseille","lat":43.318891,"lon":5.407325,"is_reserved":false,"is_disabled":false,"rental_uris":{"android":"levelo://app?vid=f6373654-6d28-46a5-a01d-d04186121a2f","ios":"levelo://app?vid=f6373654-6d28-46a5-a01d-d04186121a2f"},"vehicle_type_id":"4","last_reported":1748326523,"current_range_meters":19200,"station_id":"ce4bhq12rcd13ifvqhig","pricing_plan_id":"cebpf4jnsgd1na2vs0mg"},{"bike_id":"c60e7186-f21d-42f5-8ff2-d9eb833350d3","system_id":"levelo_inurba_marseille","lat":43.27382,"lon":5.36232,"is_reserved":false,"is_disabled":false,"rental_uris":{"android":"levelo://app?vid=c60e7186-f21d-42f5-8ff2-d9eb833350d3","ios":"levelo://app?vid=c60e7186-f21d-42f5-8ff2-d9eb833350d3"},"vehicle_type_id":"4","last_reported":1748326523,"current_range_meters":19600,"station_id":"","pricing_plan_id":"cebpf4jnsgd1na2vs0mg"},{"bike_id":"3b07f020-3d8e-47eb-b723-de46e817e2a3","system_id":"levelo_inurba_marseille","lat":43.2974,"lon":5.383574,"is_reserved":false,"is_disabled":false,"rental_uris":{"android":"levelo://app?vid=3b07f020-3d8e-47eb-b723-de46e817e2a3","ios":"levelo://app?vid=3b07f020-3d8e-47eb-b723-de46e817e2a3"},"vehicle_type_id":"4","last_reported":1748326523,"current_range_meters":19600,"station_id":"","pricing_plan_id":"cebpf4jnsgd1na2vs0mg"},{"bike_id":"51080f6c-e761-4f9f-a7bd-41563acee77b","system_id":"levelo_inurba_marseille","lat":43.2623,"lon":5.40453,"is_reserved":false,"is_disabled":false,"rental_uris":{"android":"levelo://app?vid=51080f6c-e761-4f9f-a7bd-41563acee77b","ios":"levelo://app?vid=51080f6c-e761-4f9f-a7bd-41563acee77b"},"vehicle_type_id":"4","last_reported":1748326523,"current_range_meters":19600,"station_id":"ce4bhmh2rcd13ifvqgmg","pricing_plan_id":"cebpf4jnsgd1na2vs0mg"},{"bike_id":"799d75e0-088b-4441-bd94-28f251fa8a3d","system_id":"levelo_inurba_marseille","lat":43.23153,"lon":5.43696,"is_reserved":false,"is_disabled":false,"rental_uris":{"android":"levelo://app?vid=799d75e0-088b-4441-bd94-28f251fa8a3d","ios":"levelo://app?vid=799d75e0-088b-4441-bd94-28f251fa8a3d"},"vehicle_type_id":"4","last_reported":1748326523,"current_range_meters":19600,"station_id":"ce4bhmp2rcd13ifvqgog","pricing_plan_id":"cebpf4jnsgd1na2vs0mg"},{"bike_id":"e81d4459-d37c-40d7-9263-43215371b42d","system_id":"levelo_inurba_marseille","lat":43.23194,"lon":5.39966,"is_reserved":false,"is_disabled":false,"rental_uris":{"android":"levelo://app?vid=e81d4459-d37c-40d7-9263-43215371b42d","ios":"levelo://app?vid=e81d4459-d37c-40d7-9263-43215371b42d"},"vehicle_type_id":"4","last_reported":1748326523,"current_range_meters":19600,"station_id":"ce4bhn12rcd13ifvqgqg","pricing_plan_id":"cebpf4jnsgd1na2vs0mg"},{"bike_id":"e7f06466-2c87-4e01-b603-6ba4e14f04c8","system_id":"levelo_inurba_marseille","lat":43.24081,"lon":5.37764,"is_reserved":false,"is_disabled":false,"rental_uris":{"android":"levelo://app?vid=e7f06466-2c87-4e01-b603-6ba4e14f04c8","ios":"levelo://app?vid=e7f06466-2c87-4e01-b603-6ba4e14f04c8"},"vehicle_type_id":"4","last_reported":1748326523,"current_range_meters":19600,"station_id":"ce4bhnp2rcd13ifvqgvg","pricing_plan_id":"cebpf4jnsgd1na2vs0mg"},{"bike_id":"d1d38c42-7694-4a66-89c0-bd9ae2b49568","system_id":"levelo_inurba_marseille","lat":43.32546,"lon":5.41426,"is_reserved":false,"is_disabled":false,"rental_uris":{"android":"levelo://app?vid=d1d38c42-7694-4a66-89c0-bd9ae2b49568","ios":"levelo://app?vid=d1d38c42-7694-4a66-89c0-bd9ae2b49568"},"vehicle_type_id":"4","last_reported":1748326523,"current_range_meters":19600,"station_id":"ce4bhq12rcd13ifvqhhg","pricing_plan_id":"cebpf4jnsgd1na2vs0mg"},{"bike_id":"8ba40f1d-e3c8-4e9d-beea-020ae04fc8ea","system_id":"levelo_inurba_marseille","lat":43.31899,"lon":5.40747,"is_reserved":false,"is_disabled":false,"rental_uris":{"android":"levelo://app?vid=8ba40f1d-e3c8-4e9d-beea-020ae04fc8ea","ios":"levelo://app?vid=8ba40f1d-e3c8-4e9d-beea-020ae04fc8ea"},"vehicle_type_id":"4","last_reported":1748326523,"current_range_meters":19600,"station_id":"ce4bhq12rcd13ifvqhig","pricing_plan_id":"cebpf4jnsgd1na2vs0mg"},{"bike_id":"acbe88a9-8265-4ea4-bc2b-ee16df77a3f8","system_id":"levelo_inurba_marseille","lat":43.2306,"lon":5.35502,"is_reserved":false,"is_disabled":false,"rental_uris":{"android":"levelo://app?vid=acbe88a9-8265-4ea4-bc2b-ee16df77a3f8","ios":"levelo://app?vid=acbe88a9-8265-4ea4-bc2b-ee16df77a3f8"},"vehicle_type_id":"4","last_reported":1748326523,"current_range_meters":19600,"station_id":"cpo3342slgdg3j2ifvpg","pricing_plan_id":"cebpf4jnsgd1na2vs0mg"},{"bike_id":"6a4c8556-4847-45cb-8930-8f862ce9641e","system_id":"levelo_inurba_marseille","lat":43.29812,"lon":5.38091,"is_reserved":false,"is_disabled":false,"rental_uris":{"android":"levelo://app?vid=6a4c8556-4847-45cb-8930-8f862ce9641e","ios":"levelo://app?vid=6a4c8556-4847-45cb-8930-8f862ce9641e"},"vehicle_type_id":"4","last_reported":1748326523,"current_range_meters":20000,"station_id":"ce4bgip2rcd13ifvqbb0","pricing_plan_id":"cebpf4jnsgd1na2vs0mg"},{"bike_id":"c3317895-c2f6-48f6-aa81-b2c4a50e8dcf","system_id":"levelo_inurba_marseille","lat":43.30172,"lon":5.38079,"is_reserved":false,"is_disabled":false,"rental_uris":{"android":"levelo://app?vid=c3317895-c2f6-48f6-aa81-b2c4a50e8dcf","ios":"levelo://app?vid=c3317895-c2f6-48f6-aa81-b2c4a50e8dcf"},"vehicle_type_id":"4","last_reported":1748326523,"current_range_meters":20000,"station_id":"ce4bgjp2rcd13ifvqbh0","pricing_plan_id":"cebpf4jnsgd1na2vs0mg"},{"bike_id":"26b325a3-e113-451e-ae54-5be737e2359b","system_id":"levelo_inurba_marseille","lat":43.30617,"lon":5.37219,"is_reserved":false,"is_disabled":false,"rental_uris":{"android":"levelo://app?vid=26b325a3-e113-451e-ae54-5be737e2359b","ios":"levelo://app?vid=26b325a3-e113-451e-ae54-5be737e2359b"},"vehicle_type_id":"4","last_reported":1748326523,"current_range_meters":20000,"station_id":"ce4bgqh2rcd13ifvqc4g","pricing_plan_id":"cebpf4jnsgd1na2vs0mg"},{"bike_id":"cb9d698c-90eb-48f4-baad-7a727a05bc83","system_id":"levelo_inurba_marseille","lat":43.30592,"lon":5.39352,"is_reserved":false,"is_disabled":false,"rental_uris":{"android":"levelo://app?vid=cb9d698c-90eb-48f4-baad-7a727a05bc83","ios":"levelo://app?vid=cb9d698c-90eb-48f4-baad-7a727a05bc83"},"vehicle_type_id":"4","last_reported":1748326523,"current_range_meters":20000,"station_id":"ce4bh0p2rcd13ifvqd80","pricing_plan_id":"cebpf4jnsgd1na2vs0mg"},{"bike_id":"ec9715e3-f081-4921-bad2-abf768cb92c2","system_id":"levelo_inurba_marseille","lat":43.25027,"lon":5.38913,"is_reserved":false,"is_disabled":false,"rental_uris":{"android":"levelo://app?vid=ec9715e3-f081-4921-bad2-abf768cb92c2","ios":"levelo://app?vid=ec9715e3-f081-4921-bad2-abf768cb92c2"},"vehicle_type_id":"4","last_reported":1748326523,"current_range_meters":20000,"station_id":"ce4bhgp2rcd13ifvqfd0","pricing_plan_id":"cebpf4jnsgd1na2vs0mg"},{"bike_id":"1e5c2353-bcd2-4345-b6bc-eeb962901c8b","system_id":"levelo_inurba_marseille","lat":43.27679,"lon":5.38882,"is_reserved":false,"is_disabled":false,"rental_uris":{"android":"levelo://app?vid=1e5c2353-bcd2-4345-b6bc-eeb962901c8b","ios":"levelo://app?vid=1e5c2353-bcd2-4345-b6bc-eeb962901c8b"},"vehicle_type_id":"4","last_reported":1748326523,"current_range_meters":20000,"station_id":"ce4bhi12rcd13ifvqfo0","pricing_plan_id":"cebpf4jnsgd1na2vs0mg"},{"bike_id":"13f44831-c6c1-4d03-9899-2a7d2c674a4b","system_id":"levelo_inurba_marseille","lat":43.28101,"lon":5.40636,"is_reserved":false,"is_disabled":false,"rental_uris":{"android":"levelo://app?vid=13f44831-c6c1-4d03-9899-2a7d2c674a4b","ios":"levelo://app?vid=13f44831-c6c1-4d03-9899-2a7d2c674a4b"},"vehicle_type_id":"4","last_reported":1748326523,"current_range_meters":20400,"station_id":"","pricing_plan_id":"cebpf4jnsgd1na2vs0mg"},{"bike_id":"9f96c977-918e-4d59-937c-78e2d60493ee","system_id":"levelo_inurba_marseille","lat":43.272818,"lon":5.410525,"is_reserved":false,"is_disabled":false,"rental_uris":{"android":"levelo://app?vid=9f96c977-918e-4d59-937c-78e2d60493ee","ios":"levelo://app?vid=9f96c977-918e-4d59-937c-78e2d60493ee"},"vehicle_type_id":"4","last_reported":1748326523,"current_range_meters":20400,"station_id":"","pricing_plan_id":"cebpf4jnsgd1na2vs0mg"},{"bike_id":"7b15089c-44cc-47a5-a650-7ce8f9958ccc","system_id":"levelo_inurba_marseille","lat":43.3182,"lon":5.3746,"is_reserved":false,"is_disabled":false,"rental_uris":{"android":"levelo://app?vid=7b15089c-44cc-47a5-a650-7ce8f9958ccc","ios":"levelo://app?vid=7b15089c-44cc-47a5-a650-7ce8f9958ccc"},"vehicle_type_id":"4","last_reported":1748326523,"current_range_meters":20400,"station_id":"","pricing_plan_id":"cebpf4jnsgd1na2vs0mg"},{"bike_id":"afaf7e84-db48-407f-95ce-10debb55f27f","system_id":"levelo_inurba_marseille","lat":43.29436,"lon":5.3976,"is_reserved":false,"is_disabled":false,"rental_uris":{"android":"levelo://app?vid=afaf7e84-db48-407f-95ce-10debb55f27f","ios":"levelo://app?vid=afaf7e84-db48-407f-95ce-10debb55f27f"},"vehicle_type_id":"4","last_reported":1748326523,"current_range_meters":20400,"station_id":"ce4bh3h2rcd13ifvqdo0","pricing_plan_id":"cebpf4jnsgd1na2vs0mg"},{"bike_id":"f26b19d8-06bc-4979-83f9-ca853dde7788","system_id":"levelo_inurba_marseille","lat":43.2439,"lon":5.37061,"is_reserved":false,"is_disabled":false,"rental_uris":{"android":"levelo://app?vid=f26b19d8-06bc-4979-83f9-ca853dde7788","ios":"levelo://app?vid=f26b19d8-06bc-4979-83f9-ca853dde7788"},"vehicle_type_id":"4","last_reported":1748326523,"current_range_meters":20400,"station_id":"ce4bhhh2rcd13ifvqfk0","pricing_plan_id":"cebpf4jnsgd1na2vs0mg"},{"bike_id":"2cdcf8ee-ac2e-42f8-bc24-23ca08980bc8","system_id":"levelo_inurba_marseille","lat":43.2694,"lon":5.38918,"is_reserved":false,"is_disabled":false,"rental_uris":{"android":"levelo://app?vid=2cdcf8ee-ac2e-42f8-bc24-23ca08980bc8","ios":"levelo://app?vid=2cdcf8ee-ac2e-42f8-bc24-23ca08980bc8"},"vehicle_type_id":"4","last_reported":1748326523,"current_range_meters":20400,"station_id":"ce4bhhh2rcd13ifvqfl0","pricing_plan_id":"cebpf4jnsgd1na2vs0mg"},{"bike_id":"de4f922a-15bf-46b9-a7bf-d208f7b26502","system_id":"levelo_inurba_marseille","lat":43.337386,"lon":5.391857,"is_reserved":false,"is_disabled":false,"rental_uris":{"android":"levelo://app?vid=de4f922a-15bf-46b9-a7bf-d208f7b26502","ios":"levelo://app?vid=de4f922a-15bf-46b9-a7bf-d208f7b26502"},"vehicle_type_id":"4","last_reported":1748326523,"current_range_meters":20400,"station_id":"ce4bhr92rcd13ifvqhsg","pricing_plan_id":"cebpf4jnsgd1na2vs0mg"},{"bike_id":"7adbd369-f684-4c09-90a5-6bbf2f150346","system_id":"levelo_inurba_marseille","lat":43.32119,"lon":5.36785,"is_reserved":false,"is_disabled":false,"rental_uris":{"android":"levelo://app?vid=7adbd369-f684-4c09-90a5-6bbf2f150346","ios":"levelo://app?vid=7adbd369-f684-4c09-90a5-6bbf2f150346"},"vehicle_type_id":"4","last_reported":1748326523,"current_range_meters":20400,"station_id":"ce4bhrh2rcd13ifvqhug","pricing_plan_id":"cebpf4jnsgd1na2vs0mg"},{"bike_id":"d67585e1-f05e-4e10-8275-e0cd346cc0a1","system_id":"levelo_inurba_marseille","lat":43.30817,"lon":5.38164,"is_reserved":false,"is_disabled":false,"rental_uris":{"android":"levelo://app?vid=d67585e1-f05e-4e10-8275-e0cd346cc0a1","ios":"levelo://app?vid=d67585e1-f05e-4e10-8275-e0cd346cc0a1"},"vehicle_type_id":"4","last_reported":1748326523,"current_range_meters":20800,"station_id":"ce4bgt12rcd13ifvqce0","pricing_plan_id":"cebpf4jnsgd1na2vs0mg"},{"bike_id":"3bd22785-a8d5-4ddf-84a9-ba88b2b3ab21","system_id":"levelo_inurba_marseille","lat":43.29516,"lon":5.39046,"is_reserved":false,"is_disabled":false,"rental_uris":{"android":"levelo://app?vid=3bd22785-a8d5-4ddf-84a9-ba88b2b3ab21","ios":"levelo://app?vid=3bd22785-a8d5-4ddf-84a9-ba88b2b3ab21"},"vehicle_type_id":"4","last_reported":1748326523,"current_range_meters":20800,"station_id":"ce4bh3p2rcd13ifvqdp0","pricing_plan_id":"cebpf4jnsgd1na2vs0mg"},{"bike_id":"d6dc1f11-ddcb-4fc5-b0cd-05fa774387f1","system_id":"levelo_inurba_marseille","lat":43.288562,"lon":5.358001,"is_reserved":false,"is_disabled":false,"rental_uris":{"android":"levelo://app?vid=d6dc1f11-ddcb-4fc5-b0cd-05fa774387f1","ios":"levelo://app?vid=d6dc1f11-ddcb-4fc5-b0cd-05fa774387f1"},"vehicle_type_id":"4","last_reported":1748326523,"current_range_meters":20800,"station_id":"ce4bhb12rcd13ifvqem0","pricing_plan_id":"cebpf4jnsgd1na2vs0mg"},{"bike_id":"8dbdb0e6-1094-487c-bee3-1a310eb4d0b5","system_id":"levelo_inurba_marseille","lat":43.23149,"lon":5.43718,"is_reserved":false,"is_disabled":false,"rental_uris":{"android":"levelo://app?vid=8dbdb0e6-1094-487c-bee3-1a310eb4d0b5","ios":"levelo://app?vid=8dbdb0e6-1094-487c-bee3-1a310eb4d0b5"},"vehicle_type_id":"4","last_reported":1748326523,"current_range_meters":20800,"station_id":"ce4bhmp2rcd13ifvqgog","pricing_plan_id":"cebpf4jnsgd1na2vs0mg"},{"bike_id":"ef77543b-22de-44af-930a-38e7dfe2d4e6","system_id":"levelo_inurba_marseille","lat":43.23194,"lon":5.39986,"is_reserved":false,"is_disabled":false,"rental_uris":{"android":"levelo://app?vid=ef77543b-22de-44af-930a-38e7dfe2d4e6","ios":"levelo://app?vid=ef77543b-22de-44af-930a-38e7dfe2d4e6"},"vehicle_type_id":"4","last_reported":1748326523,"current_range_meters":20800,"station_id":"ce4bhn12rcd13ifvqgqg","pricing_plan_id":"cebpf4jnsgd1na2vs0mg"},{"bike_id":"8791eee7-8b82-4388-b86b-5810658e1a45","system_id":"levelo_inurba_marseille","lat":43.32097,"lon":5.36766,"is_reserved":false,"is_disabled":false,"rental_uris":{"android":"levelo://app?vid=8791eee7-8b82-4388-b86b-5810658e1a45","ios":"levelo://app?vid=8791eee7-8b82-4388-b86b-5810658e1a45"},"vehicle_type_id":"4","last_reported":1748326523,"current_range_meters":20800,"station_id":"ce4bhrh2rcd13ifvqhug","pricing_plan_id":"cebpf4jnsgd1na2vs0mg"},{"bike_id":"23729840-b82f-4bd5-b013-e529721eb068","system_id":"levelo_inurba_marseille","lat":43.3374,"lon":5.37401,"is_reserved":false,"is_disabled":false,"rental_uris":{"android":"levelo://app?vid=23729840-b82f-4bd5-b013-e529721eb068","ios":"levelo://app?vid=23729840-b82f-4bd5-b013-e529721eb068"},"vehicle_type_id":"4","last_reported":1748326523,"current_range_meters":21600,"station_id":"","pricing_plan_id":"cebpf4jnsgd1na2vs0mg"},{"bike_id":"3146866b-f1b5-4f96-8551-a3e96cc92dd6","system_id":"levelo_inurba_marseille","lat":43.252785,"lon":5.399266,"is_reserved":false,"is_disabled":false,"rental_uris":{"android":"levelo://app?vid=3146866b-f1b5-4f96-8551-a3e96cc92dd6","ios":"levelo://app?vid=3146866b-f1b5-4f96-8551-a3e96cc92dd6"},"vehicle_type_id":"4","last_reported":1748326523,"current_range_meters":21600,"station_id":"","pricing_plan_id":"cebpf4jnsgd1na2vs0mg"},{"bike_id":"35608f93-164c-4fc4-942c-2ab643cb41c2","system_id":"levelo_inurba_marseille","lat":43.298422,"lon":5.362742,"is_reserved":false,"is_disabled":false,"rental_uris":{"android":"levelo://app?vid=35608f93-164c-4fc4-942c-2ab643cb41c2","ios":"levelo://app?vid=35608f93-164c-4fc4-942c-2ab643cb41c2"},"vehicle_type_id":"4","last_reported":1748326523,"current_range_meters":21600,"station_id":"","pricing_plan_id":"cebpf4jnsgd1na2vs0mg"},{"bike_id":"cd73728d-9c23-4a65-a974-62e3c63b7786","system_id":"levelo_inurba_marseille","lat":43.30268,"lon":5.40043,"is_reserved":false,"is_disabled":false,"rental_uris":{"android":"levelo://app?vid=cd73728d-9c23-4a65-a974-62e3c63b7786","ios":"levelo://app?vid=cd73728d-9c23-4a65-a974-62e3c63b7786"},"vehicle_type_id":"4","last_reported":1748326523,"current_range_meters":21600,"station_id":"ce4bgvh2rcd13ifvqcs0","pricing_plan_id":"cebpf4jnsgd1na2vs0mg"},{"bike_id":"19bfec4f-4396-409c-974c-32f06de4221e","system_id":"levelo_inurba_marseille","lat":43.30599,"lon":5.39362,"is_reserved":false,"is_disabled":false,"rental_uris":{"android":"levelo://app?vid=19bfec4f-4396-409c-974c-32f06de4221e","ios":"levelo://app?vid=19bfec4f-4396-409c-974c-32f06de4221e"},"vehicle_type_id":"4","last_reported":1748326523,"current_range_meters":21600,"station_id":"ce4bh0p2rcd13ifvqd80","pricing_plan_id":"cebpf4jnsgd1na2vs0mg"},{"bike_id":"5e1f41df-af4a-4615-91c8-006b187176a3","system_id":"levelo_inurba_marseille","lat":43.247942,"lon":5.374434,"is_reserved":false,"is_disabled":false,"rental_uris":{"android":"levelo://app?vid=5e1f41df-af4a-4615-91c8-006b187176a3","ios":"levelo://app?vid=5e1f41df-af4a-4615-91c8-006b187176a3"},"vehicle_type_id":"4","last_reported":1748326523,"current_range_meters":21600,"station_id":"ce4bhgh2rcd13ifvqfb0","pricing_plan_id":"cebpf4jnsgd1na2vs0mg"},{"bike_id":"86acc373-6ed3-425a-ad70-3347dcbce599","system_id":"levelo_inurba_marseille","lat":43.26976,"lon":5.40608,"is_reserved":false,"is_disabled":false,"rental_uris":{"android":"levelo://app?vid=86acc373-6ed3-425a-ad70-3347dcbce599","ios":"levelo://app?vid=86acc373-6ed3-425a-ad70-3347dcbce599"},"vehicle_type_id":"4","last_reported":1748326523,"current_range_meters":22400,"station_id":"","pricing_plan_id":"cebpf4jnsgd1na2vs0mg"},{"bike_id":"592f80cf-4a1c-4180-82d6-7b624ee3a695","system_id":"levelo_inurba_marseille","lat":43.2904,"lon":5.35896,"is_reserved":false,"is_disabled":false,"rental_uris":{"android":"levelo://app?vid=592f80cf-4a1c-4180-82d6-7b624ee3a695","ios":"levelo://app?vid=592f80cf-4a1c-4180-82d6-7b624ee3a695"},"vehicle_type_id":"4","last_reported":1748326523,"current_range_meters":22400,"station_id":"","pricing_plan_id":"cebpf4jnsgd1na2vs0mg"},{"bike_id":"200b3500-255b-4a29-ad42-34578a4b3c90","system_id":"levelo_inurba_marseille","lat":43.27495,"lon":5.42445,"is_reserved":false,"is_disabled":false,"rental_uris":{"android":"levelo://app?vid=200b3500-255b-4a29-ad42-34578a4b3c90","ios":"levelo://app?vid=200b3500-255b-4a29-ad42-34578a4b3c90"},"vehicle_type_id":"4","last_reported":1748326523,"current_range_meters":22400,"station_id":"","pricing_plan_id":"cebpf4jnsgd1na2vs0mg"},{"bike_id":"4832ff7a-45ac-4743-8639-ad3787b77d62","system_id":"levelo_inurba_marseille","lat":43.30474,"lon":5.37904,"is_reserved":false,"is_disabled":false,"rental_uris":{"android":"levelo://app?vid=4832ff7a-45ac-4743-8639-ad3787b77d62","ios":"levelo://app?vid=4832ff7a-45ac-4743-8639-ad3787b77d62"},"vehicle_type_id":"4","last_reported":1748326523,"current_range_meters":22400,"station_id":"ce4bgup2rcd13ifvqcn0","pricing_plan_id":"cebpf4jnsgd1na2vs0mg"},{"bike_id":"decbe3c0-70aa-4022-9b08-2855ae4b7d9e","system_id":"levelo_inurba_marseille","lat":43.30605,"lon":5.39359,"is_reserved":false,"is_disabled":false,"rental_uris":{"android":"levelo://app?vid=decbe3c0-70aa-4022-9b08-2855ae4b7d9e","ios":"levelo://app?vid=decbe3c0-70aa-4022-9b08-2855ae4b7d9e"},"vehicle_type_id":"4","last_reported":1748326523,"current_range_meters":22400,"station_id":"ce4bh0p2rcd13ifvqd80","pricing_plan_id":"cebpf4jnsgd1na2vs0mg"},{"bike_id":"fddf8400-5a73-4e00-96c8-40182e7316b6","system_id":"levelo_inurba_marseille","lat":43.27497,"lon":5.42447,"is_reserved":false,"is_disabled":false,"rental_uris":{"android":"levelo://app?vid=fddf8400-5a73-4e00-96c8-40182e7316b6","ios":"levelo://app?vid=fddf8400-5a73-4e00-96c8-40182e7316b6"},"vehicle_type_id":"4","last_reported":1748326523,"current_range_meters":22400,"station_id":"ce4bhn92rcd13ifvqgrg","pricing_plan_id":"cebpf4jnsgd1na2vs0mg"},