{"last_updated":1736269699,"ttl":60,"version":"2.2","data":{"bikes":[{"bike_id":"439900da-033e-42c8-b3c3-ac3fa8cbf11d","system_id":"levelo_inurba_marseille","lat":43.29524,"lon":5.39048,"is_reserved":false,"is_disabled":false,"rental_uris":{"android":"levelo://app?vid=439900da-033e-42c8-b3c3-ac3fa8cbf11d","ios":"levelo://app?vid=439900da-033e-42c8-b3c3-ac3fa8cbf11d"},"vehicle_type_id":"4","last_reported":1736269699,"current_range_meters":30400,"station_id":"ce4bh3p2rcd13ifvqdp0","pricing_plan_id":"cebpf4jnsgd1na2vs0mg"},{"bike_id":"e5028c33-9f8e-4ac3-a14c-e67e8c232bdb","system_id":"levelo_inurba_marseille","lat":43.2785,"lon":5.40701,"is_reserved":false,"is_disabled":false,"rental_uris":{"android":"levelo://app?vid=e5028c33-9f8e-4ac3-a14c-e67e8c232bdb","ios":"levelo://app?vid=e5028c33-9f8e-4ac3-a14c-e67e8c232bdb"},"vehicle_type_id":"4","last_reported":1736269699,"current_range_meters":30000,"station_id":"ce4bhnh2rcd13ifvqgtg","pricing_plan_id":"cebpf4jnsgd1na2vs0mg"},{"bike_id":"51e9415c-b44d-48d5-b733-940928eeb4a8","system_id":"levelo_inurba_marseille","lat":43.30638,"lon":5.40097,"is_reserved":false,"is_disabled":false,"rental_uris":{"android":"levelo://app?vid=51e9415c-b44d-48d5-b733-940928eeb4a8","ios":"levelo://app?vid=51e9415c-b44d-48d5-b733-940928eeb4a8"},"vehicle_type_id":"4","last_reported":1736269699,"current_range_meters":27600,"station_id":"ce4bh112rcd13ifvqda0","pricing_plan_id":"cebpf4jnsgd1na2vs0mg"},{"bike_id":"5554c722-f216-481c-ab1b-b7b436d734d7","system_id":"levelo_inurba_marseille","lat":43.31267,"lon":5.4018,"is_reserved":false,"is_disabled":false,"rental_uris":{"android":"levelo://app?vid=5554c722-f216-481c-ab1b-b7b436d734d7","ios":"levelo://app?vid=5554c722-f216-481c-ab1b-b7b436d734d7"},"vehicle_type_id":"4","last_reported":1736269699,"current_range_meters":32400,"station_id":"ce4bh092rcd13ifvqd30","pricing_plan_id":"cebpf4jnsgd1na2vs0mg"},{"bike_id":"1c2c3464-8b3a-4eab-9fdd-fd6c6e2d5657","system_id":"levelo_inurba_marseille","lat":43.2868,"lon":5.38676,"is_reserved":false,"is_disabled":false,"rental_uris":{"android":"levelo://app?vid=1c2c3464-8b3a-4eab-9fdd-fd6c6e2d5657","ios":"levelo://app?vid=1c2c3464-8b3a-4eab-9fdd-fd6c6e2d5657"},"vehicle_type_id":"4","last_reported":1736269699,"current_range_meters":38800,"station_id":"ce4bh492rcd13ifvqdug","pricing_plan_id":"cebpf4jnsgd1na2vs0mg"},{"bike_id":"ab0e2f49-abf4-464d-9be5-62d75e2b0a5f","system_id":"levelo_inurba_marseille","lat":43.29228,"lon":5.36061,"is_reserved":false,"is_disabled":false,"rental_uris":{"android":"levelo://app?vid=ab0e2f49-abf4-464d-9be5-62d75e2b0a5f","ios":"levelo://app?vid=ab0e2f49-abf4-464d-9be5-62d75e2b0a5f"},"vehicle_type_id":"4","last_reported":1736269699,"current_range_meters":27600,"station_id":"ce4bhbh2rcd13ifvqeqg","pricing_plan_id":"cebpf4jnsgd1na2vs0mg"},{"bike_id":"eab2a828-9ecc-4dfb-9a1c-1f671724e4c8","system_id":"levelo_inurba_marseille","lat":43.31714,"lon":5.43702,"is_reserved":false,"is_disabled":false,"rental_uris":{"android":"levelo://app?vid=eab2a828-9ecc-4dfb-9a1c-1f671724e4c8","ios":"levelo://app?vid=eab2a828-9ecc-4dfb-9a1c-1f671724e4c8"},"vehicle_type_id":"4","last_reported":1736269699,"current_range_meters":25600,"station_id":"ce4bhp92rcd13ifvqhcg","pricing_plan_id":"cebpf4jnsgd1na2vs0mg"},{"bike_id":"e8f7458c-cf19-43d7-a972-43547ad9fe30","system_id":"levelo_inurba_marseille","lat":43.27192,"lon":5.4098,"is_reserved":false,"is_disabled":false,"rental_uris":{"android":"levelo://app?vid=e8f7458c-cf19-43d7-a972-43547ad9fe30","ios":"levelo://app?vid=e8f7458c-cf19-43d7-a972-43547ad9fe30"},"vehicle_type_id":"4","last_reported":1736269699,"current_range_meters":2800,"station_id":"ce4bhl12rcd13ifvqgf0","pricing_plan_id":"cebpf4jnsgd1na2vs0mg"},{"bike_id":"05a2c15a-fb68-455c-8082-fdf747a62fe7","system_id":"levelo_inurba_marseille","lat":43.27811,"lon":5.40706,"is_reserved":false,"is_disabled":false,"rental_uris":{"android":"levelo://app?vid=05a2c15a-fb68-455c-8082-fdf747a62fe7","ios":"levelo://app?vid=05a2c15a-fb68-455c-8082-fdf747a62fe7"},"vehicle_type_id":"4","last_reported":1736269699,"current_range_meters":38800,"station_id":"ce4bhnh2rcd13ifvqgtg","pricing_plan_id":"cebpf4jnsgd1na2vs0mg"},{"bike_id":"96dbec11-0c1e-45d9-8104-73307745956d","system_id":"levelo_inurba_marseille","lat":43.29026,"lon":5.3863,"is_reserved":false,"is_disabled":false,"rental_uris":{"android":"levelo://app?vid=96dbec11-0c1e-45d9-8104-73307745956d","ios":"levelo://app?vid=96dbec11-0c1e-45d9-8104-73307745956d"},"vehicle_type_id":"4","last_reported":1736269699,"current_range_meters":34800,"station_id":"ce4bh4p2rcd13ifvqe0g","pricing_plan_id":"cebpf4jnsgd1na2vs0mg"},{"bike_id":"7acb32b8-42a7-4a4d-88f8-f6099016e2cc","system_id":"levelo_inurba_marseille","lat":43.29037,"lon":5.37547,"is_reserved":false,"is_disabled":false,"rental_uris":{"android":"levelo://app?vid=7acb32b8-42a7-4a4d-88f8-f6099016e2cc","ios":"levelo://app?vid=7acb32b8-42a7-4a4d-88f8-f6099016e2cc"},"vehicle_type_id":"4","last_reported":1736269699,"current_range_meters":34800,"station_id":"ce4bh692rcd13ifvqe90","pricing_plan_id":"cebpf4jnsgd1na2vs0mg"},{"bike_id":"9c9da3e0-e69f-4cd5-beaa-cb2ed1efc70d","system_id":"levelo_inurba_marseille","lat":43.28603,"lon":5.37063,"is_reserved":false,"is_disabled":false,"rental_uris":{"android":"levelo://app?vid=9c9da3e0-e69f-4cd5-beaa-cb2ed1efc70d","ios":"levelo://app?vid=9c9da3e0-e69f-4cd5-beaa-cb2ed1efc70d"},"vehicle_type_id":"4","last_reported":1736269699,"current_range_meters":38800,"station_id":"ce4bht12rcd13ifvqi60","pricing_plan_id":"cebpf4jnsgd1na2vs0mg"},{"bike_id":"2e3020fc-739e-484f-aff1-968aa18f2ac1","system_id":"levelo_inurba_marseille","lat":43.27985,"lon":5.41645,"is_reserved":false,"is_disabled":true,"rental_uris":{"android":"levelo://app?vid=2e3020fc-739e-484f-aff1-968aa18f2ac1","ios":"levelo://app?vid=2e3020fc-739e-484f-aff1-968aa18f2ac1"},"vehicle_type_id":"4","last_reported":1736269699,"current_range_meters":35600,"station_id":"ce4bho12rcd13ifvqh1g","pricing_plan_id":"cebpf4jnsgd1na2vs0mg"},{"bike_id":"53d571f8-efce-44c6-8899-b9338e3df679","system_id":"levelo_inurba_marseille","lat":43.29001,"lon":5.35599,"is_reserved":false,"is_disabled":false,"rental_uris":{"android":"levelo://app?vid=53d571f8-efce-44c6-8899-b9338e3df679","ios":"levelo://app?vid=53d571f8-efce-44c6-8899-b9338e3df679"},"vehicle_type_id":"4","last_reported":1736269699,"current_range_meters":38400,"station_id":"ce4bhb92rcd13ifvqen0","pricing_plan_id":"cebpf4jnsgd1na2vs0mg"},{"bike_id":"07662c79-b5c1-456f-a9a8-8ffe4550c999","system_id":"levelo_inurba_marseille","lat":43.27912,"lon":5.39591,"is_reserved":false,"is_disabled":false,"rental_uris":{"android":"levelo://app?vid=07662c79-b5c1-456f-a9a8-8ffe4550c999","ios":"levelo://app?vid=07662c79-b5c1-456f-a9a8-8ffe4550c999"},"vehicle_type_id":"4","last_reported":1736269699,"current_range_meters":30000,"station_id":"ce4bhf92rcd13ifvqf40","pricing_plan_id":"cebpf4jnsgd1na2vs0mg"},{"bike_id":"8b7b03a4-76c0-429d-86c4-2cba528f75db","system_id":"levelo_inurba_marseille","lat":43.32363,"lon":5.38874,"is_reserved":false,"is_disabled":true,"rental_uris":{"android":"levelo://app?vid=8b7b03a4-76c0-429d-86c4-2cba528f75db","ios":"levelo://app?vid=8b7b03a4-76c0-429d-86c4-2cba528f75db"},"vehicle_type_id":"4","last_reported":1736269699,"current_range_meters":0,"station_id":"ce4bhqp2rcd13ifvqhog","pricing_plan_id":"cebpf4jnsgd1na2vs0mg"},{"bike_id":"3dcc1c8e-6db9-4000-a7ee-f1b5b658ee7a","system_id":"levelo_inurba_marseille","lat":43.27185,"lon":5.40982,"is_reserved":false,"is_disabled":false,"rental_uris":{"android":"levelo://app?vid=3dcc1c8e-6db9-4000-a7ee-f1b5b658ee7a","ios":"levelo://app?vid=3dcc1c8e-6db9-4000-a7ee-f1b5b658ee7a"},"vehicle_type_id":"4","last_reported":1736269699,"current_range_meters":38800,"station_id":"ce4bhl12rcd13ifvqgf0","pricing_plan_id":"cebpf4jnsgd1na2vs0mg"},{"bike_id":"e1d67e76-e9ef-43a5-b307-2704c03519b0","system_id":"levelo_inurba_marseille","lat":43.28939,"lon":5.39686,"is_reserved":false,"is_disabled":false,"rental_uris":{"android":"levelo://app?vid=e1d67e76-e9ef-43a5-b307-2704c03519b0","ios":"levelo://app?vid=e1d67e76-e9ef-43a5-b307-2704c03519b0"},"vehicle_type_id":"4","last_reported":1736269699,"current_range_meters":22800,"station_id":"ce4bh3h2rcd13ifvqdn0","pricing_plan_id":"cebpf4jnsgd1na2vs0mg"},{"bike_id":"ad34d3c3-f703-46ca-92c3-8e056f95de84","system_id":"levelo_inurba_marseille","lat":43.28463,"lon":5.35892,"is_reserved":false,"is_disabled":false,"rental_uris":{"android":"levelo://app?vid=ad34d3c3-f703-46ca-92c3-8e056f95de84","ios":"levelo://app?vid=ad34d3c3-f703-46ca-92c3-8e056f95de84"},"vehicle_type_id":"4","last_reported":1736269699,"current_range_meters":13600,"station_id":"ce4bhah2rcd13ifvqei0","pricing_plan_id":"cebpf4jnsgd1na2vs0mg"},{"bike_id":"0f2cd1e2-9305-49c2-a840-192d1b810e9e","system_id":"levelo_inurba_marseille","lat":43.27207,"lon":5.39176,"is_reserved":false,"is_disabled":true,"rental_uris":{"android":"levelo://app?vid=0f2cd1e2-9305-49c2-a840-192d1b810e9e","ios":"levelo://app?vid=0f2cd1e2-9305-49c2-a840-192d1b810e9e"},"vehicle_type_id":"4","last_reported":1736269699,"current_range_meters":0,"station_id":"ce4bhhp2rcd13ifvqfm0","pricing_plan_id":"cebpf4jnsgd1na2vs0mg"},{"bike_id":"8a4c045a-dd75-4b08-85b8-01a9f1b5d499","system_id":"levelo_inurba_marseille","lat":43.31071,"lon":5.38358,"is_reserved":false,"is_disabled":false,"rental_uris":{"android":"levelo://app?vid=8a4c045a-dd75-4b08-85b8-01a9f1b5d499","ios":"levelo://app?vid=8a4c045a-dd75-4b08-85b8-01a9f1b5d499"},"vehicle_type_id":"4","last_reported":1736269699,"current_range_meters":22000,"station_id":"ce4bgv92rcd13ifvqcr0","pricing_plan_id":"cebpf4jnsgd1na2vs0mg"},{"bike_id":"655d98ca-6f48-4af8-b86d-5e76a719cbcf","system_id":"levelo_inurba_marseille","lat":43.30426,"lon":5.3889,"is_reserved":false,"is_disabled":false,"rental_uris":{"android":"levelo://app?vid=655d98ca-6f48-4af8-b86d-5e76a719cbcf","ios":"levelo://app?vid=655d98ca-6f48-4af8-b86d-5e76a719cbcf"},"vehicle_type_id":"4","last_reported":1736269699,"current_range_meters":35600,"station_id":"ce4bgk12rcd13ifvqbi0","pricing_plan_id":"cebpf4jnsgd1na2vs0mg"},{"bike_id":"3d323989-af5b-476c-90d6-2e2cb5045875","system_id":"levelo_inurba_marseille","lat":43.30444,"lon":5.38893,"is_reserved":false,"is_disabled":false,"rental_uris":{"android":"levelo://app?vid=3d323989-af5b-476c-90d6-2e2cb5045875","ios":"levelo://app?vid=3d323989-af5b-476c-90d6-2e2cb5045875"},"vehicle_type_id":"4","last_reported":1736269699,"current_range_meters":17600,"station_id":"ce4bgk12rcd13ifvqbi0","pricing_plan_id":"cebpf4jnsgd1na2vs0mg"},{"bike_id":"e234c05e-ad7c-4a80-b77e-0f5f2642c720","system_id":"levelo_inurba_marseille","lat":43.28462,"lon":5.35877,"is_reserved":false,"is_disabled":false,"rental_uris":{"android":"levelo://app?vid=e234c05e-ad7c-4a80-b77e-0f5f2642c720","ios":"levelo://app?vid=e234c05e-ad7c-4a80-b77e-0f5f2642c720"},"vehicle_type_id":"4","last_reported":1736269699,"current_range_meters":22800,"station_id":"ce4bhah2rcd13ifvqei0","pricing_plan_id":"cebpf4jnsgd1na2vs0mg"},{"bike_id":"c023aed8-c4af-47de-bf55-7ec6cfb1c879","system_id":"levelo_inurba_marseille","lat":43.26186,"lon":5.37459,"is_reserved":false,"is_disabled":true,"rental_uris":{"android":"levelo://app?vid=c023aed8-c4af-47de-bf55-7ec6cfb1c879","ios":"levelo://app?vid=c023aed8-c4af-47de-bf55-7ec6cfb1c879"},"vehicle_type_id":"4","last_reported":1736269699,"current_range_meters":27200,"station_id":"ce4bhgp2rcd13ifvqfc0","pricing_plan_id":"cebpf4jnsgd1na2vs0mg"},{"bike_id":"f5477bd9-ae2b-4f4a-90d2-43e1d2905a20","system_id":"levelo_inurba_marseille","lat":43.28452,"lon":5.34996,"is_reserved":false,"is_disabled":false,"rental_uris":{"android":"levelo://app?vid=f5477bd9-ae2b-4f4a-90d2-43e1d2905a20","ios":"levelo://app?vid=f5477bd9-ae2b-4f4a-90d2-43e1d2905a20"},"vehicle_type_id":"4","last_reported":1736269699,"current_range_meters":18000,"station_id":"ce4bhbh2rcd13ifvqepg","pricing_plan_id":"cebpf4jnsgd1na2vs0mg"},{"bike_id":"ad036647-e9f4-4246-953d-37ee6601db50","system_id":"levelo_inurba_marseille","lat":43.24663,"lon":5.38172,"is_reserved":false,"is_disabled":false,"rental_uris":{"android":"levelo://app?vid=ad036647-e9f4-4246-953d-37ee6601db50","ios":"levelo://app?vid=ad036647-e9f4-4246-953d-37ee6601db50"},"vehicle_type_id":"4","last_reported":1736269699,"current_range_meters":16000,"station_id":"ce4bhih2rcd13ifvqfr0","pricing_plan_id":"cebpf4jnsgd1na2vs0mg"},{"bike_id":"515fb29a-e725-42c4-b3fe-98f830e3054e","system_id":"levelo_inurba_marseille","lat":43.26555,"lon":5.37313,"is_reserved":false,"is_disabled":false,"rental_uris":{"android":"levelo://app?vid=515fb29a-e725-42c4-b3fe-98f830e3054e","ios":"levelo://app?vid=515fb29a-e725-42c4-b3fe-98f830e3054e"},"vehicle_type_id":"4","last_reported":1736269699,"current_range_meters":28400,"station_id":"ce4bhg12rcd13ifvqf70","pricing_plan_id":"cebpf4jnsgd1na2vs0mg"},{"bike_id":"ee7f5816-483f-4372-8ce1-bc546e1bdb5f","system_id":"levelo_inurba_marseille","lat":43.24996,"lon":5.38932,"is_reserved":false,"is_disabled":false,"rental_uris":{"android":"levelo://app?vid=ee7f5816-483f-4372-8ce1-bc546e1bdb5f","ios":"levelo://app?vid=ee7f5816-483f-4372-8ce1-bc546e1bdb5f"},"vehicle_type_id":"4","last_reported":1736269699,"current_range_meters":22400,"station_id":"ce4bhgp2rcd13ifvqfd0","pricing_plan_id":"cebpf4jnsgd1na2vs0mg"},{"bike_id":"7ed6b1d7-c625-4660-be93-79f682be3518","system_id":"levelo_inurba_marseille","lat":43.29421,"lon":5.38622,"is_reserved":false,"is_disabled":false,"rental_uris":{"android":"levelo://app?vid=7ed6b1d7-c625-4660-be93-79f682be3518","ios":"levelo://app?vid=7ed6b1d7-c625-4660-be93-79f682be3518"},"vehicle_type_id":"4","last_reported":1736269699,"current_range_meters":8800,"station_id":"ce4bh2h2rcd13ifvqdh0","pricing_plan_id":"cebpf4jnsgd1na2vs0mg"},{"bike_id":"c736efc7-bdd4-4760-a57b-96851815e95f","system_id":"levelo_inurba_marseille","lat":43.26512,"lon":5.39535,"is_reserved":false,"is_disabled":true,"rental_uris":{"android":"levelo://app?vid=c736efc7-bdd4-4760-a57b-96851815e95f","ios":"levelo://app?vid=c736efc7-bdd4-4760-a57b-96851815e95f"},"vehicle_type_id":"4","last_reported":1736269699,"current_range_meters":38800,"station_id":"ce4bhi12rcd13ifvqfq0","pricing_plan_id":"cebpf4jnsgd1na2vs0mg"},{"bike_id":"52a27691-0980-4150-ac0e-032a862a6ca9","system_id":"levelo_inurba_marseille","lat":43.23192,"lon":5.3556,"is_reserved":false,"is_disabled":false,"rental_uris":{"android":"levelo://app?vid=52a27691-0980-4150-ac0e-032a862a6ca9","ios":"levelo://app?vid=52a27691-0980-4150-ac0e-032a862a6ca9"},"vehicle_type_id":"4","last_reported":1736269699,"current_range_meters":38000,"station_id":"ce4bhu92rcd13ifvqi70","pricing_plan_id":"cebpf4jnsgd1na2vs0mg"},{"bike_id":"0b612a78-0339-4e70-8c85-f23f8ddd6228","system_id":"levelo_inurba_marseille","lat":43.26808,"lon":5.40271,"is_reserved":false,"is_disabled":false,"rental_uris":{"android":"levelo://app?vid=0b612a78-0339-4e70-8c85-f23f8ddd6228","ios":"levelo://app?vid=0b612a78-0339-4e70-8c85-f23f8ddd6228"},"vehicle_type_id":"4","last_reported":1736269699,"current_range_meters":25600,"station_id":"ce501612rcd8frsf0b60","pricing_plan_id":"cebpf4jnsgd1na2vs0mg"},{"bike_id":"0524f485-e9cd-4cd8-8507-8c0d54cbe3a4","system_id":"levelo_inurba_marseille","lat":43.284096,"lon":5.37514,"is_reserved":false,"is_disabled":false,"rental_uris":{"android":"levelo://app?vid=0524f485-e9cd-4cd8-8507-8c0d54cbe3a4","ios":"levelo://app?vid=0524f485-e9cd-4cd8-8507-8c0d54cbe3a4"},"vehicle_type_id":"4","last_reported":1736269699,"current_range_meters":26000,"station_id":"ce4bh412rcd13ifvqds0","pricing_plan_id":"cebpf4jnsgd1na2vs0mg"},{"bike_id":"98e4abe9-268b-4ebe-b8a0-9d17e1060cf4","system_id":"levelo_inurba_marseille","lat":43.32109,"lon":5.36788,"is_reserved":false,"is_disabled":false,"rental_uris":{"android":"levelo://app?vid=98e4abe9-268b-4ebe-b8a0-9d17e1060cf4","ios":"levelo://app?vid=98e4abe9-268b-4ebe-b8a0-9d17e1060cf4"},"vehicle_type_id":"4","last_reported":1736269699,"current_range_meters":36800,"station_id":"ce4bhrh2rcd13ifvqhug","pricing_plan_id":"cebpf4jnsgd1na2vs0mg"},{"bike_id":"0d869571-702b-474e-9734-e51fa36b8db2","system_id":"levelo_inurba_marseille","lat":43.292,"lon":5.39322,"is_reserved":false,"is_disabled":true,"rental_uris":{"android":"levelo://app?vid=0d869571-702b-474e-9734-e51fa36b8db2","ios":"levelo://app?vid=0d869571-702b-474e-9734-e51fa36b8db2"},"vehicle_type_id":"4","last_reported":1736269699,"current_range_meters":7200,"station_id":"ce4bh192rcd13ifvqdd0","pricing_plan_id":"cebpf4jnsgd1na2vs0mg"},{"bike_id":"586b1f67-a008-4cd0-a2ee-af1709b94740","system_id":"levelo_inurba_marseille","lat":43.269013,"lon":5.368929,"is_reserved":false,"is_disabled":false,"rental_uris":{"android":"levelo://app?vid=586b1f67-a008-4cd0-a2ee-af1709b94740","ios":"levelo://app?vid=586b1f67-a008-4cd0-a2ee-af1709b94740"},"vehicle_type_id":"4","last_reported":1736269699,"current_range_meters":22400,"station_id":"ce4bhbp2rcd13ifvqerg","pricing_plan_id":"cebpf4jnsgd1na2vs0mg"},{"bike_id":"6ebaba3b-a1f7-47a9-8a13-a47e91f8a3d0","system_id":"levelo_inurba_marseille","lat":43.26038,"lon":5.37551,"is_reserved":false,"is_disabled":false,"rental_uris":{"android":"levelo://app?vid=6ebaba3b-a1f7-47a9-8a13-a47e91f8a3d0","ios":"levelo://app?vid=6ebaba3b-a1f7-47a9-8a13-a47e91f8a3d0"},"vehicle_type_id":"4","last_reported":1736269699,"current_range_meters":37600,"station_id":"ce4bhgh2rcd13ifvqfa0","pricing_plan_id":"cebpf4jnsgd1na2vs0mg"},{"bike_id":"34bedf54-dc53-4f92-95f7-a39e031be479","system_id":"levelo_inurba_marseille","lat":43.29576,"lon":5.36737,"is_reserved":false,"is_disabled":false,"rental_uris":{"android":"levelo://app?vid=34bedf54-dc53-4f92-95f7-a39e031be479","ios":"levelo://app?vid=34bedf54-dc53-4f92-95f7-a39e031be479"},"vehicle_type_id":"4","last_reported":1736269699,"current_range_meters":38000,"station_id":"ce4bgph2rcd13ifvqc2g","pricing_plan_id":"cebpf4jnsgd1na2vs0mg"},{"bike_id":"e22c015f-e074-4b77-b854-0255bb3c1e63","system_id":"levelo_inurba_marseille","lat":43.29869,"lon":5.39743,"is_reserved":false,"is_disabled":false,"rental_uris":{"android":"levelo://app?vid=e22c015f-e074-4b77-b854-0255bb3c1e63","ios":"levelo://app?vid=e22c015f-e074-4b77-b854-0255bb3c1e63"},"vehicle_type_id":"4","last_reported":1736269699,"current_range_meters":39200,"station_id":"ce4bh0h2rcd13ifvqd50","pricing_plan_id":"cebpf4jnsgd1na2vs0mg"},{"bike_id":"5cf5d467-316b-44fa-8fb8-856da6a44a4c","system_id":"levelo_inurba_marseille","lat":43.24644,"lon":5.37793,"is_reserved":false,"is_disabled":true,"rental_uris":{"android":"levelo://app?vid=5cf5d467-316b-44fa-8fb8-856da6a44a4c","ios":"levelo://app?vid=5cf5d467-316b-44fa-8fb8-856da6a44a4c"},"vehicle_type_id":"4","last_reported":1736269699,"current_range_meters":0,"station_id":"","pricing_plan_id":"cebpf4jnsgd1na2vs0mg"},{"bike_id":"37557093-6491-4690-b370-7a12c47f238b","system_id":"levelo_inurba_marseille","lat":43.2794,"lon":5.41033,"is_reserved":false,"is_disabled":false,"rental_uris":{"android":"levelo://app?vid=37557093-6491-4690-b370-7a12c47f238b","ios":"levelo://app?vid=37557093-6491-4690-b370-7a12c47f238b"},"vehicle_type_id":"4","last_reported":1736269699,"current_range_meters":8400,"station_id":"ce4bhnp2rcd13ifvqh0g","pricing_plan_id":"cebpf4jnsgd1na2vs0mg"},{"bike_id":"4627e9a0-8644-4796-96fd-d3570527e34b","system_id":"levelo_inurba_marseille","lat":43.26807,"lon":5.40275,"is_reserved":false,"is_disabled":false,"rental_uris":{"android":"levelo://app?vid=4627e9a0-8644-4796-96fd-d3570527e34b","ios":"levelo://app?vid=4627e9a0-8644-4796-96fd-d3570527e34b"},"vehicle_type_id":"4","last_reported":1736269699,"current_range_meters":20400,"station_id":"ce501612rcd8frsf0b60","pricing_plan_id":"cebpf4jnsgd1na2vs0mg"},{"bike_id":"7f3583a0-2a43-4173-9489-ad9aedc3bf58","system_id":"levelo_inurba_marseille","lat":43.32382,"lon":5.38864,"is_reserved":false,"is_disabled":false,"rental_uris":{"android":"levelo://app?vid=7f3583a0-2a43-4173-9489-ad9aedc3bf58","ios":"levelo://app?vid=7f3583a0-2a43-4173-9489-ad9aedc3bf58"},"vehicle_type_id":"4","last_reported":1736269699,"current_range_meters":38800,"station_id":"ce4bhqp2rcd13ifvqhog","pricing_plan_id":"cebpf4jnsgd1na2vs0mg"},{"bike_id":"4c79f864-3da8-4813-a506-a9595819fe25","system_id":"levelo_inurba_marseille","lat":43.25871,"lon":5.39894,"is_reserved":false,"is_disabled":false,"rental_uris":{"android":"levelo://app?vid=4c79f864-3da8-4813-a506-a9595819fe25","ios":"levelo://app?vid=4c79f864-3da8-4813-a506-a9595819fe25"},"vehicle_type_id":"4","last_reported":1736269699,"current_range_meters":35200,"station_id":"ce4bhl92rcd13ifvqghg","pricing_plan_id":"cebpf4jnsgd1na2vs0mg"},{"bike_id":"840e3f90-17d0-4c94-88a0-c5120c40cdea","system_id":"levelo_inurba_marseille","lat":43.257231,"lon":5.411039,"is_reserved":false,"is_disabled":true,"rental_uris":{"android":"levelo://app?vid=840e3f90-17d0-4c94-88a0-c5120c40cdea","ios":"levelo://app?vid=840e3f90-17d0-4c94-88a0-c5120c40cdea"},"vehicle_type_id":"4","last_reported":1736269699,"current_range_meters":38800,"station_id":"ce4bhkp2rcd13ifvqgd0","pricing_plan_id":"cebpf4jnsgd1na2vs0mg"},{"bike_id":"a0b57a50-67bc-4d12-bffe-4176748f2bc4","system_id":"levelo_inurba_marseille","lat":43.30302,"lon":5.36909,"is_reserved":false,"is_disabled":false,"rental_uris":{"android":"levelo://app?vid=a0b57a50-67bc-4d12-bffe-4176748f2bc4","ios":"levelo://app?vid=a0b57a50-67bc-4d12-bffe-4176748f2bc4"},"vehicle_type_id":"4","last_reported":1736269699,"current_range_meters":14400,"station_id":"ce4bgqh2rcd13ifvqc5g","pricing_plan_id":"cebpf4jnsgd1na2vs0mg"},{"bike_id":"2f68cdef-bffc-4037-b844-7b9747e6cb93","system_id":"levelo_inurba_marseille","lat":43.24384,"lon":5.37044,"is_reserved":false,"is_disabled":false,"rental_uris":{"android":"levelo://app?vid=2f68cdef-bffc-4037-b844-7b9747e6cb93","ios":"levelo://app?vid=2f68cdef-bffc-4037-b844-7b9747e6cb93"},"vehicle_type_id":"4","last_reported":1736269699,"current_range_meters":38800,"station_id":"ce4bhhh2rcd13ifvqfk0","pricing_plan_id":"cebpf4jnsgd1na2vs0mg"},{"bike_id":"90f8216f-fbb9-4598-9bab-eadf2338867f","system_id":"levelo_inurba_marseille","lat":43.23961,"lon":5.36633,"is_reserved":false,"is_disabled":false,"rental_uris":{"android":"levelo://app?vid=90f8216f-fbb9-4598-9bab-eadf2338867f","ios":"levelo://app?vid=90f8216f-fbb9-4598-9bab-eadf2338867f"},"vehicle_type_id":"4","last_reported":1736269699,"current_range_meters":28000,"station_id":"ce4bhi12rcd13ifvqfp0","pricing_plan_id":"cebpf4jnsgd1na2vs0mg"},{"bike_id":"76f2e993-b4d2-4397-8092-c7fd54bcae32","system_id":"levelo_inurba_marseille","lat":43.29357,"lon":5.37863,"is_reserved":false,"is_disabled":false,"rental_uris":{"android":"levelo://app?vid=76f2e993-b4d2-4397-8092-c7fd54bcae32","ios":"levelo://app?vid=76f2e993-b4d2-4397-8092-c7fd54bcae32"},"vehicle_type_id":"4","last_reported":1736269699,"current_range_meters":36400,"station_id":"ce4bgjh2rcd13ifvqbf0","pricing_plan_id":"cebpf4jnsgd1na2vs0mg"},{"bike_id":"8313f59d-9d2f-4cfa-a400-dc4b9e0a487c","system_id":"levelo_inurba_marseille","lat":43.28151,"lon":5.42652,"is_reserved":false,"is_disabled":false,"rental_uris":{"android":"levelo://app?vid=8313f59d-9d2f-4cfa-a400-dc4b9e0a487c","ios":"levelo://app?vid=8313f59d-9d2f-4cfa-a400-dc4b9e0a487c"},"vehicle_type_id":"4","last_reported":1736269699,"current_range_meters":8800,"station_id":"ce4bhnh2rcd13ifvqgug","pricing_plan_id":"cebpf4jnsgd1na2vs0mg"},{"bike_id":"502b9a2d-7119-4752-a288-d02d6d3527f6","system_id":"levelo_inurba_marseille","lat":43.28468,"lon":5.35875,"is_reserved":false,"is_disabled":false,"rental_uris":{"android":"levelo://app?vid=502b9a2d-7119-4752-a288-d02d6d3527f6","ios":"levelo://app?vid=502b9a2d-7119-4752-a288-d02d6d3527f6"},"vehicle_type_id":"4","last_reported":1736269699,"current_range_meters":30000,"station_id":"ce4bhah2rcd13ifvqei0","pricing_plan_id":"cebpf4jnsgd1na2vs0mg"},{"bike_id":"bc9bb4d7-2fdc-4d34-b0a0-ed77a3035abd","system_id":"levelo_inurba_marseille","lat":43.3171,"lon":5.37764,"is_reserved":false,"is_disabled":false,"rental_uris":{"android":"levelo://app?vid=bc9bb4d7-2fdc-4d34-b0a0-ed77a3035abd","ios":"levelo://app?vid=bc9bb4d7-2fdc-4d34-b0a0-ed77a3035abd"},"vehicle_type_id":"4","last_reported":1736269699,"current_range_meters":25600,"station_id":"ce4bgth2rcd13ifvqch0","pricing_plan_id":"cebpf4jnsgd1na2vs0mg"},{"bike_id":"570e232f-3d13-46ef-a056-25a31c330777","system_id":"levelo_inurba_marseille","lat":43.26212,"lon":5.37443,"is_reserved":false,"is_disabled":false,"rental_uris":{"android":"levelo://app?vid=570e232f-3d13-46ef-a056-25a31c330777","ios":"levelo://app?vid=570e232f-3d13-46ef-a056-25a31c330777"},"vehicle_type_id":"4","last_reported":1736269699,"current_range_meters":37600,"station_id":"ce4bhgp2rcd13ifvqfc0","pricing_plan_id":"cebpf4jnsgd1na2vs0mg"},{"bike_id":"bc86f23c-4371-4721-b514-43c753cee659","system_id":"levelo_inurba_marseille","lat":43.27996,"lon":5.4001,"is_reserved":false,"is_disabled":false,"rental_uris":{"android":"levelo://app?vid=bc86f23c-4371-4721-b514-43c753cee659","ios":"levelo://app?vid=bc86f23c-4371-4721-b514-43c753cee659"},"vehicle_type_id":"4","last_reported":1736269699,"current_range_meters":30400,"station_id":"ce4bho92rcd13ifvqh4g","pricing_plan_id":"cebpf4jnsgd1na2vs0mg"},{"bike_id":"ccefbdf4-df27-4947-9b01-eba3707af800","system_id":"levelo_inurba_marseille","lat":43.295373,"lon":5.385531,"is_reserved":false,"is_disabled":true,"rental_uris":{"android":"levelo://app?vid=ccefbdf4-df27-4947-9b01-eba3707af800","ios":"levelo://app?vid=ccefbdf4-df27-4947-9b01-eba3707af800"},"vehicle_type_id":"4","last_reported":1736269699,"current_range_meters":19600,"station_id":"ce4bgih2rcd13ifvqba0","pricing_plan_id":"cebpf4jnsgd1na2vs0mg"},{"bike_id":"dba44cf3-2b0b-4285-bb15-14a9d4f3ac6b","system_id":"levelo_inurba_marseille","lat":43.2955,"lon":5.42282,"is_reserved":false,"is_disabled":false,"rental_uris":{"android":"levelo://app?vid=dba44cf3-2b0b-4285-bb15-14a9d4f3ac6b","ios":"levelo://app?vid=dba44cf3-2b0b-4285-bb15-14a9d4f3ac6b"},"vehicle_type_id":"4","last_reported":1736269699,"current_range_meters":16400,"station_id":"ce4bhph2rcd13ifvqhdg","pricing_plan_id":"cebpf4jnsgd1na2vs0mg"},{"bike_id":"82b0eeb8-d46c-4976-aec4-f6b617fcf1ce","system_id":"levelo_inurba_marseille","lat":43.25594,"lon":5.38241,"is_reserved":false,"is_disabled":false,"rental_uris":{"android":"levelo://app?vid=82b0eeb8-d46c-4976-aec4-f6b617fcf1ce","ios":"levelo://app?vid=82b0eeb8-d46c-4976-aec4-f6b617fcf1ce"},"vehicle_type_id":"4","last_reported":1736269699,"current_range_meters":34800,"station_id":"ce4bhih2rcd13ifvqfs0","pricing_plan_id":"cebpf4jnsgd1na2vs0mg"},{"bike_id":"59388bce-6749-48c2-9b93-edafd98f5189","system_id":"levelo_inurba_marseille","lat":43.28267,"lon":5.35065,"is_reserved":false,"is_disabled":false,"rental_uris":{"android":"levelo://app?vid=59388bce-6749-48c2-9b93-edafd98f5189","ios":"levelo://app?vid=59388bce-6749-48c2-9b93-edafd98f5189"},"vehicle_type_id":"4","last_reported":1736269699,"current_range_meters":31200,"station_id":"ce4bhbp2rcd13ifvqerg","pricing_plan_id":"cebpf4jnsgd1na2vs0mg"},{"bike_id":"5db06cd7-e11b-4943-bc6f-2b9229d20740","system_id":"levelo_inurba_marseille","lat":43.29568,"lon":5.37513,"is_reserved":false,"is_disabled":false,"rental_uris":{"android":"levelo://app?vid=5db06cd7-e11b-4943-bc6f-2b9229d20740","ios":"levelo://app?vid=5db06cd7-e11b-4943-bc6f-2b9229d20740"},"vehicle_type_id":"4","last_reported":1736269699,"current_range_meters":11600,"station_id":"ce4bgh92rcd13ifvqb50","pricing_plan_id":"cebpf4jnsgd1na2vs0mg"},{"bike_id":"ef558494-c72e-4664-8946-84628d7a6418","system_id":"levelo_inurba_marseille","lat":43.27923,"lon":5.41224,"is_reserved":false,"is_disabled":false,"rental_uris":{"android":"levelo://app?vid=ef558494-c72e-4664-8946-84628d7a6418","ios":"levelo://app?vid=ef558494-c72e-4664-8946-84628d7a6418"},"vehicle_type_id":"4","last_reported":1736269699,"current_range_meters":4800,"station_id":"","pricing_plan_id":"cebpf4jnsgd1na2vs0mg"},{"bike_id":"2caa7ff0-56a0-4a66-805c-847ccd11c31b","system_id":"levelo_inurba_marseille","lat":43.31321,"lon":5.39694,"is_reserved":false,"is_disabled":false,"rental_uris":{"android":"levelo://app?vid=2caa7ff0-56a0-4a66-805c-847ccd11c31b","ios":"levelo://app?vid=2caa7ff0-56a0-4a66-805c-847ccd11c31b"},"vehicle_type_id":"4","last_reported":1736269699,"current_range_meters":38800,"station_id":"ce4bgvp2rcd13ifvqcu0","pricing_plan_id":"cebpf4jnsgd1na2vs0mg"},{"bike_id":"85a77a2b-277d-42ee-972c-ff070823fe5a","system_id":"levelo_inurba_marseille","lat":43.27838,"lon":5.39207,"is_reserved":false,"is_disabled":false,"rental_uris":{"android":"levelo://app?vid=85a77a2b-277d-42ee-972c-ff070823fe5a","ios":"levelo://app?vid=85a77a2b-277d-42ee-972c-ff070823fe5a"},"vehicle_type_id":"4","last_reported":1736269699,"current_range_meters":13600,"station_id":"ce4bhjp2rcd13ifvqga0","pricing_plan_id":"cebpf4jnsgd1na2vs0mg"},{"bike_id":"7bddc11b-f269-4325-8231-4727a3a47575","system_id":"levelo_inurba_marseille","lat":43.30782,"lon":5.37652,"is_reserved":false,"is_disabled":false,"rental_uris":{"android":"levelo://app?vid=7bddc11b-f269-4325-8231-4727a3a47575","ios":"levelo://app?vid=7bddc11b-f269-4325-8231-4727a3a47575"},"vehicle_type_id":"4","last_reported":1736269699,"current_range_meters":10000,"station_id":"ce4bgv92rcd13ifvqcq0","pricing_plan_id":"cebpf4jnsgd1na2vs0mg"},{"bike_id":"637c9e25-6ec5-4d5c-9ec9-ed6c73dcb821","system_id":"levelo_inurba_marseille","lat":43.3173,"lon":5.37783,"is_reserved":false,"is_disabled":false,"rental_uris":{"android":"levelo://app?vid=637c9e25-6ec5-4d5c-9ec9-ed6c73dcb821","ios":"levelo://app?vid=637c9e25-6ec5-4d5c-9ec9-ed6c73dcb821"},"vehicle_type_id":"4","last_reported":1736269699,"current_range_meters":35200,"station_id":"ce4bgth2rcd13ifvqch0","pricing_plan_id":"cebpf4jnsgd1na2vs0mg"},{"bike_id":"445cb83e-7203-45e3-ad38-ac7216fb1591","system_id":"levelo_inurba_marseille","lat":43.27174,"lon":5.40998,"is_reserved":false,"is_disabled":false,"rental_uris":{"android":"levelo://app?vid=445cb83e-7203-45e3-ad38-ac7216fb1591","ios":"levelo://app?vid=445cb83e-7203-45e3-ad38-ac7216fb1591"},"vehicle_type_id":"4","last_reported":1736269699,"current_range_meters":32000,"station_id":"ce4bhl12rcd13ifvqgf0","pricing_plan_id":"cebpf4jnsgd1na2vs0mg"},{"bike_id":"b02fab9b-85e2-4691-a949-9c3558950865","system_id":"levelo_inurba_marseille","lat":43.31331,"lon":5.3968,"is_reserved":false,"is_disabled":false,"rental_uris":{"android":"levelo://app?vid=b02fab9b-85e2-4691-a949-9c3558950865","ios":"levelo://app?vid=b02fab9b-85e2-4691-a949-9c3558950865"},"vehicle_type_id":"4","last_reported":1736269699,"current_range_meters":38800,"station_id":"ce4bgvp2rcd13ifvqcu0","pricing_plan_id":"cebpf4jnsgd1na2vs0mg"},{"bike_id":"d96d9b68-d742-4189-b8cb-d3aa71a08fda","system_id":"levelo_inurba_marseille","lat":43.241827,"lon":5.397189,"is_reserved":false,"is_disabled":false,"rental_uris":{"android":"levelo://app?vid=d96d9b68-d742-4189-b8cb-d3aa71a08fda","ios":"levelo://app?vid=d96d9b68-d742-4189-b8cb-d3aa71a08fda"},"vehicle_type_id":"4","last_reported":1736269699,"current_range_meters":38800,"station_id":"ce4bhn12rcd13ifvqgpg","pricing_plan_id":"cebpf4jnsgd1na2vs0mg"},{"bike_id":"5671a7cc-1094-4b46-906d-b97f733ad9e2","system_id":"levelo_inurba_marseille","lat":43.30315,"lon":5.40436,"is_reserved":false,"is_disabled":true,"rental_uris":{"android":"levelo://app?vid=5671a7cc-1094-4b46-906d-b97f733ad9e2","ios":"levelo://app?vid=5671a7cc-1094-4b46-906d-b97f733ad9e2"},"vehicle_type_id":"4","last_reported":1736269699,"current_range_meters":36400,"station_id":"ce4bh012rcd13ifvqd10","pricing_plan_id":"cebpf4jnsgd1na2vs0mg"},{"bike_id":"5922bf93-241a-4935-a97c-43a6d6bef8cc","system_id":"levelo_inurba_marseille","lat":43.29951,"lon":5.36514,"is_reserved":false,"is_disabled":false,"rental_uris":{"android":"levelo://app?vid=5922bf93-241a-4935-a97c-43a6d6bef8cc","ios":"levelo://app?vid=5922bf93-241a-4935-a97c-43a6d6bef8cc"},"vehicle_type_id":"4","last_reported":1736269699,"current_range_meters":8400,"station_id":"ce4bgm92rcd13ifvqbr0","pricing_plan_id":"cebpf4jnsgd1na2vs0mg"},{"bike_id":"3c2251b6-c2a4-4848-ad0b-52a9ae8b7697","system_id":"levelo_inurba_marseille","lat":43.32332,"lon":5.40625,"is_reserved":false,"is_disabled":false,"rental_uris":{"android":"levelo://app?vid=3c2251b6-c2a4-4848-ad0b-52a9ae8b7697","ios":"levelo://app?vid=3c2251b6-c2a4-4848-ad0b-52a9ae8b7697"},"vehicle_type_id":"4","last_reported":1736269699,"current_range_meters":25600,"station_id":"ce4bhq92rcd13ifvqhjg","pricing_plan_id":"cebpf4jnsgd1na2vs0mg"},{"bike_id":"005c2044-0c78-410b-b1cd-e1e9feaa0e05","system_id":"levelo_inurba_marseille","lat":43.23962,"lon":5.36631,"is_reserved":false,"is_disabled":false,"rental_uris":{"android":"levelo://app?vid=005c2044-0c78-410b-b1cd-e1e9feaa0e05","ios":"levelo://app?vid=005c2044-0c78-410b-b1cd-e1e9feaa0e05"},"vehicle_type_id":"4","last_reported":1736269699,"current_range_meters":17600,"station_id":"ce4bhi12rcd13ifvqfp0","pricing_plan_id":"cebpf4jnsgd1na2vs0mg"},{"bike_id":"86f976b5-c537-44c5-8d2d-69c27d0cfae0","system_id":"levelo_inurba_marseille","lat":43.25112,"lon":5.40322,"is_reserved":false,"is_disabled":false,"rental_uris":{"android":"levelo://app?vid=86f976b5-c537-44c5-8d2d-69c27d0cfae0","ios":"levelo://app?vid=86f976b5-c537-44c5-8d2d-69c27d0cfae0"},"vehicle_type_id":"4","last_reported":1736269699,"current_range_meters":21600,"station_id":"ce4bhlh2rcd13ifvqgig","pricing_plan_id":"cebpf4jnsgd1na2vs0mg"},{"bike_id":"ce411bdc-5654-43f6-be62-dbc0deb638b9","system_id":"levelo_inurba_marseille","lat":43.3063,"lon":5.37382,"is_reserved":false,"is_disabled":false,"rental_uris":{"android":"levelo://app?vid=ce411bdc-5654-43f6-be62-dbc0deb638b9","ios":"levelo://app?vid=ce411bdc-5654-43f6-be62-dbc0deb638b9"},"vehicle_type_id":"4","last_reported":1736269699,"current_range_meters":22000,"station_id":"","pricing_plan_id":"cebpf4jnsgd1na2vs0mg"},{"bike_id":"b0f664cb-2757-4491-bb9b-7e3c8155ca32","system_id":"levelo_inurba_marseille","lat":43.26489,"lon":5.39545,"is_reserved":false,"is_disabled":true,"rental_uris":{"android":"levelo://app?vid=b0f664cb-2757-4491-bb9b-7e3c8155ca32","ios":"levelo://app?vid=b0f664cb-2757-4491-bb9b-7e3c8155ca32"},"vehicle_type_id":"4","last_reported":1736269699,"current_range_meters":2000,"station_id":"ce4bhi12rcd13ifvqfq0","pricing_plan_id":"cebpf4jnsgd1na2vs0mg"},{"bike_id":"f978b948-6b87-4400-9603-341a57575ca1","system_id":"levelo_inurba_marseille","lat":43.29866,"lon":5.39735,"is_reserved":false,"is_disabled":true,"rental_uris":{"android":"levelo://app?vid=f978b948-6b87-4400-9603-341a57575ca1","ios":"levelo://app?vid=f978b948-6b87-4400-9603-341a57575ca1"},"vehicle_type_id":"4","last_reported":1736269699,"current_range_meters":400,"station_id":"ce4bh0h2rcd13ifvqd50","pricing_plan_id":"cebpf4jnsgd1na2vs0mg"},{"bike_id":"94ae9d8d-339e-41f5-bf14-1e9df4322647","system_id":"levelo_inurba_marseille","lat":43.27473,"lon":5.42476,"is_reserved":false,"is_disabled":true,"rental_uris":{"android":"levelo://app?vid=94ae9d8d-339e-41f5-bf14-1e9df4322647","ios":"levelo://app?vid=94ae9d8d-339e-41f5-bf14-1e9df4322647"},"vehicle_type_id":"4","last_reported":1736269699,"current_range_meters":36000,"station_id":"ce4bhn92rcd13ifvqgrg","pricing_plan_id":"cebpf4jnsgd1na2vs0mg"},{"bike_id":"6a595de3-0911-46a9-bdbf-4cca5437105e","system_id":"levelo_inurba_marseille","lat":43.232,"lon":5.35546,"is_reserved":false,"is_disabled":false,"rental_uris":{"android":"levelo://app?vid=6a595de3-0911-46a9-bdbf-4cca5437105e","ios":"levelo://app?vid=6a595de3-0911-46a9-bdbf-4cca5437105e"},"vehicle_type_id":"4","last_reported":1736269699,"current_range_meters":15200,"station_id":"ce4bhu92rcd13ifvqi70","pricing_plan_id":"cebpf4jnsgd1na2vs0mg"},{"bike_id":"641d8acc-50b2-4173-ab23-c70f2a11d28e","system_id":"levelo_inurba_marseille","lat":43.28152,"lon":5.42635,"is_reserved":false,"is_disabled":true,"rental_uris":{"android":"levelo://app?vid=641d8acc-50b2-4173-ab23-c70f2a11d28e","ios":"levelo://app?vid=641d8acc-50b2-4173-ab23-c70f2a11d28e"},"vehicle_type_id":"4","last_reported":1736269699,"current_range_meters":23200,"station_id":"ce4bhnh2rcd13ifvqgug","pricing_plan_id":"cebpf4jnsgd1na2vs0mg"},{"bike_id":"15e503f5-1d52-42d6-a98f-33a61fd8b554","system_id":"levelo_inurba_marseille","lat":43.28472,"lon":5.35883,"is_reserved":false,"is_disabled":true,"rental_uris":{"android":"levelo://app?vid=15e503f5-1d52-42d6-a98f-33a61fd8b554","ios":"levelo://app?vid=15e503f5-1d52-42d6-a98f-33a61fd8b554"},"vehicle_type_id":"4","last_reported":1736269699,"current_range_meters":15200,"station_id":"ce4bhah2rcd13ifvqei0","pricing_plan_id":"cebpf4jnsgd1na2vs0mg"},{"bike_id":"e861fa1e-67f0-4052-8e8a-2240f9e373a1","system_id":"levelo_inurba_marseille","lat":43.30796,"lon":5.3815,"is_reserved":false,"is_disabled":false,"rental_uris":{"android":"levelo://app?vid=e861fa1e-67f0-4052-8e8a-2240f9e373a1","ios":"levelo://app?vid=e861fa1e-67f0-4052-8e8a-2240f9e373a1"},"vehicle_type_id":"4","last_reported":1736269699,"current_range_meters":38000,"station_id":"ce4bgt12rcd13ifvqce0","pricing_plan_id":"cebpf4jnsgd1na2vs0mg"},{"bike_id":"2544bbd9-e250-4848-971b-711ef4a2df04","system_id":"levelo_inurba_marseille","lat":43.24179,"lon":5.39734,"is_reserved":false,"is_disabled":false,"rental_uris":{"android":"levelo://app?vid=2544bbd9-e250-4848-971b-711ef4a2df04","ios":"levelo://app?vid=2544bbd9-e250-4848-971b-711ef4a2df04"},"vehicle_type_id":"4","last_reported":1736269699,"current_range_meters":8400,"station_id":"ce4bhn12rcd13ifvqgpg","pricing_plan_id":"cebpf4jnsgd1na2vs0mg"},{"bike_id":"44ab28fa-0b3d-469d-97ff-06319e1159ef","system_id":"levelo_inurba_marseille","lat":43.23965,"lon":5.36636,"is_reserved":false,"is_disabled":false,"rental_uris":{"android":"levelo://app?vid=44ab28fa-0b3d-469d-97ff-06319e1159ef","ios":"levelo://app?vid=44ab28fa-0b3d-469d-97ff-06319e1159ef"},"vehicle_type_id":"4","last_reported":1736269699,"current_range_meters":18800,"station_id":"ce4bhi12rcd13ifvqfp0","pricing_plan_id":"cebpf4jnsgd1na2vs0mg"},{"bike_id":"d073fecc-3902-4820-82c6-6ae8583128b4","system_id":"levelo_inurba_marseille","lat":43.29056,"lon":5.37131,"is_reserved":false,"is_disabled":false,"rental_uris":{"android":"levelo://app?vid=d073fecc-3902-4820-82c6-6ae8583128b4","ios":"levelo://app?vid=d073fecc-3902-4820-82c6-6ae8583128b4"},"vehicle_type_id":"4","last_reported":1736269699,"current_range_meters":35200,"station_id":"ce4bh5p2rcd13ifvqe4g","pricing_plan_id":"cebpf4jnsgd1na2vs0mg"},{"bike_id":"6d88bbf0-f428-4bd4-ab8a-2ee8d5e7c74e","system_id":"levelo_inurba_marseille","lat":43.23059,"lon":5.355,"is_reserved":false,"is_disabled":false,"rental_uris":{"android":"levelo://app?vid=6d88bbf0-f428-4bd4-ab8a-2ee8d5e7c74e","ios":"levelo://app?vid=6d88bbf0-f428-4bd4-ab8a-2ee8d5e7c74e"},"vehicle_type_id":"4","last_reported":1736269699,"current_range_meters":37600,"station_id":"cpo3342slgdg3j2ifvpg","pricing_plan_id":"cebpf4jnsgd1na2vs0mg"},{"bike_id":"fc28be46-23fe-4f09-821c-8a3bd21ca77c","system_id":"levelo_inurba_marseille","lat":43.25581,"lon":5.38232,"is_reserved":false,"is_disabled":false,"rental_uris":{"android":"levelo://app?vid=fc28be46-23fe-4f09-821c-8a3bd21ca77c","ios":"levelo://app?vid=fc28be46-23fe-4f09-821c-8a3bd21ca77c"},"vehicle_type_id":"4","last_reported":1736269699,"current_range_meters":38800,"station_id":"ce4bhih2rcd13ifvqfs0","pricing_plan_id":"cebpf4jnsgd1na2vs0mg"},{"bike_id":"939282dc-4649-4549-b137-425e37167d82","system_id":"levelo_inurba_marseille","lat":43.23178,"lon":5.39991,"is_reserved":false,"is_disabled":false,"rental_uris":{"android":"levelo://app?vid=939282dc-4649-4549-b137-425e37167d82","ios":"levelo://app?vid=939282dc-4649-4549-b137-425e37167d82"},"vehicle_type_id":"4","last_reported":1736269699,"current_range_meters":32400,"station_id":"ce4bhn12rcd13ifvqgqg","pricing_plan_id":"cebpf4jnsgd1na2vs0mg"},{"bike_id":"72445a91-c447-491a-850a-a7bdf01b2c57","system_id":"levelo_inurba_marseille","lat":43.30241,"lon":5.40042,"is_reserved":false,"is_disabled":false,"rental_uris":{"android":"levelo://app?vid=72445a91-c447-491a-850a-a7bdf01b2c57","ios":"levelo://app?vid=72445a91-c447-491a-850a-a7bdf01b2c57"},"vehicle_type_id":"4","last_reported":1736269699,"current_range_meters":38800,"station_id":"ce4bgvh2rcd13ifvqcs0","pricing_plan_id":"cebpf4jnsgd1na2vs0mg"},{"bike_id":"3ab84da7-da56-46bf-8da3-322b9148b838","system_id":"levelo_inurba_marseille","lat":43.29875,"lon":5.39736,"is_reserved":false,"is_disabled":false,"rental_uris":{"android":"levelo://app?vid=3ab84da7-da56-46bf-8da3-322b9148b838","ios":"levelo://app?vid=3ab84da7-da56-46bf-8da3-322b9148b838"},"vehicle_type_id":"4","last_reported":1736269699,"current_range_meters":28800,"station_id":"ce4bh0h2rcd13ifvqd50","pricing_plan_id":"cebpf4jnsgd1na2vs0mg"},{"bike_id":"0be78547-3d45-442c-9aa9-39892a59b56b","system_id":"levelo_inurba_marseille","lat":43.292557,"lon":5.409059,"is_reserved":false,"is_disabled":false,"rental_uris":{"android":"levelo://app?vid=0be78547-3d45-442c-9aa9-39892a59b56b","ios":"levelo://app?vid=0be78547-3d45-442c-9aa9-39892a59b56b"},"vehicle_type_id":"4","last_reported":1736269699,"current_range_meters":38800,"station_id":"ce4bh192rcd13ifvqdc0","pricing_plan_id":"cebpf4jnsgd1na2vs0mg"},{"bike_id":"deb36ac4-7454-4248-a70d-1d87c937e94b","system_id":"levelo_inurba_marseille","lat":43.30891,"lon":5.39656,"is_reserved":false,"is_disabled":false,"rental_uris":{"android":"levelo://app?vid=deb36ac4-7454-4248-a70d-1d87c937e94b","ios":"levelo://app?vid=deb36ac4-7454-4248-a70d-1d87c937e94b"},"vehicle_type_id":"4","last_reported":1736269699,"current_range_meters":38400,"station_id":"ce4bh012rcd13ifvqcv0","pricing_plan_id":"cebpf4jnsgd1na2vs0mg"},{"bike_id":"74e3bbd3-099b-4ac7-89e3-a716c37edf5a","system_id":"levelo_inurba_marseille","lat":43.28462,"lon":5.35887,"is_reserved":false,"is_disabled":false,"rental_uris":{"android":"levelo://app?vid=74e3bbd3-099b-4ac7-89e3-a716c37edf5a","ios":"levelo://app?vid=74e3bbd3-099b-4ac7-89e3-a716c37edf5a"},"vehicle_type_id":"4","last_reported":1736269699,"current_range_meters":20400,"station_id":"ce4bhah2rcd13ifvqei0","pricing_plan_id":"cebpf4jnsgd1na2vs0mg"},{"bike_id":"56534aac-e0cb-46c8-b5db-2f49272a6c11","system_id":"levelo_inurba_marseille","lat":43.29053,"lon":5.37157,"is_reserved":false,"is_disabled":false,"rental_uris":{"android":"levelo://app?vid=56534aac-e0cb-46c8-b5db-2f49272a6c11","ios":"levelo://app?vid=56534aac-e0cb-46c8-b5db-2f49272a6c11"},"vehicle_type_id":"4","last_reported":1736269699,"current_range_meters":36800,"station_id":"ce4bh5p2rcd13ifvqe4g","pricing_plan_id":"cebpf4jnsgd1na2vs0mg"},{"bike_id":"14922106-dd16-4e9a-92da-f6bac073fb80","system_id":"levelo_inurba_marseille","lat":43.2926,"lon":5.40897,"is_reserved":false,"is_disabled":false,"rental_uris":{"android":"levelo://app?vid=14922106-dd16-4e9a-92da-f6bac073fb80","ios":"levelo://app?vid=14922106-dd16-4e9a-92da-f6bac073fb80"},"vehicle_type_id":"4","last_reported":1736269699,"current_range_meters":24000,"station_id":"ce4bh192rcd13ifvqdc0","pricing_plan_id":"cebpf4jnsgd1na2vs0mg"},{"bike_id":"d0f7f7c9-5d11-43e5-ac3d-598fa4404ec8","system_id":"levelo_inurba_marseille","lat":43.23186,"lon":5.39972,"is_reserved":false,"is_disabled":false,"rental_uris":{"android":"levelo://app?vid=d0f7f7c9-5d11-43e5-ac3d-598fa4404ec8","ios":"levelo://app?vid=d0f7f7c9-5d11-43e5-ac3d-598fa4404ec8"},"vehicle_type_id":"4","last_reported":1736269699,"current_range_meters":22000,"station_id":"ce4bhn12rcd13ifvqgqg","pricing_plan_id":"cebpf4jnsgd1na2vs0mg"},{"bike_id":"22aff5ba-aa9a-4941-a8d3-4d2161121597","system_id":"levelo_inurba_marseille","lat":43.29265,"lon":5.38456,"is_reserved":false,"is_disabled":false,"rental_uris":{"android":"levelo://app?vid=22aff5ba-aa9a-4941-a8d3-4d2161121597","ios":"levelo://app?vid=22aff5ba-aa9a-4941-a8d3-4d2161121597"},"vehicle_type_id":"4","last_reported":1736269699,"current_range_meters":30800,"station_id":"ce4bh692rcd13ifvqea0","pricing_plan_id":"cebpf4jnsgd1na2vs0mg"},{"bike_id":"b3da87fe-dfae-4968-9662-5b2e1b38088a","system_id":"levelo_inurba_marseille","lat":43.28077,"lon":5.39661,"is_reserved":false,"is_disabled":false,"rental_uris":{"android":"levelo://app?vid=b3da87fe-dfae-4968-9662-5b2e1b38088a","ios":"levelo://app?vid=b3da87fe-dfae-4968-9662-5b2e1b38088a"},"vehicle_type_id":"4","last_reported":1736269699,"current_range_meters":16800,"station_id":"ce4bho12rcd13ifvqh2g","pricing_plan_id":"cebpf4jnsgd1na2vs0mg"},{"bike_id":"257c7a47-4074-4a91-b13c-b76f6fa570cc","system_id":"levelo_inurba_marseille","lat":43.25564,"lon":5.38261,"is_reserved":false,"is_disabled":false,"rental_uris":{"android":"levelo://app?vid=257c7a47-4074-4a91-b13c-b76f6fa570cc","ios":"levelo://app?vid=257c7a47-4074-4a91-b13c-b76f6fa570cc"},"vehicle_type_id":"4","last_reported":1736269699,"current_range_meters":30000,"station_id":"ce4bhih2rcd13ifvqfs0","pricing_plan_id":"cebpf4jnsgd1na2vs0mg"},{"bike_id":"cdfea266-e5fd-4018-a292-1ba3701f72dd","system_id":"levelo_inurba_marseille","lat":43.25504,"lon":5.37631,"is_reserved":false,"is_disabled":false,"rental_uris":{"android":"levelo://app?vid=cdfea266-e5fd-4018-a292-1ba3701f72dd","ios":"levelo://app?vid=cdfea266-e5fd-4018-a292-1ba3701f72dd"},"vehicle_type_id":"4","last_reported":1736269699,"current_range_meters":30800,"station_id":"ce4bhh12rcd13ifvqff0","pricing_plan_id":"cebpf4jnsgd1na2vs0mg"},{"bike_id":"bb4301b3-0584-47bd-9a64-46e93105fde1","system_id":"levelo_inurba_marseille","lat":43.23186,"lon":5.35567,"is_reserved":false,"is_disabled":false,"rental_uris":{"android":"levelo://app?vid=bb4301b3-0584-47bd-9a64-46e93105fde1","ios":"levelo://app?vid=bb4301b3-0584-47bd-9a64-46e93105fde1"},"vehicle_type_id":"4","last_reported":1736269699,"current_range_meters":27200,"station_id":"ce4bhu92rcd13ifvqi70","pricing_plan_id":"cebpf4jnsgd1na2vs0mg"},{"bike_id":"3c96135c-be1c-48d4-af35-f77f88dd5989","system_id":"levelo_inurba_marseille","lat":43.29219,"lon":5.36053,"is_reserved":false,"is_disabled":true,"rental_uris":{"android":"levelo://app?vid=3c96135c-be1c-48d4-af35-f77f88dd5989","ios":"levelo://app?vid=3c96135c-be1c-48d4-af35-f77f88dd5989"},"vehicle_type_id":"4","last_reported":1736269699,"current_range_meters":29600,"station_id":"ce4bhbh2rcd13ifvqeqg","pricing_plan_id":"cebpf4jnsgd1na2vs0mg"},{"bike_id":"f4ae6a95-c135-4321-bb0a-f43670f735e7","system_id":"levelo_inurba_marseille","lat":43.28421,"lon":5.37521,"is_reserved":false,"is_disabled":false,"rental_uris":{"android":"levelo://app?vid=f4ae6a95-c135-4321-bb0a-f43670f735e7","ios":"levelo://app?vid=f4ae6a95-c135-4321-bb0a-f43670f735e7"},"vehicle_type_id":"4","last_reported":1736269699,"current_range_meters":30000,"station_id":"ce4bh412rcd13ifvqds0","pricing_plan_id":"cebpf4jnsgd1na2vs0mg"},{"bike_id":"3b09c87e-cbc2-4176-bc1b-1b93a39221ad","system_id":"levelo_inurba_marseille","lat":43.3303,"lon":5.39022,"is_reserved":false,"is_disabled":false,"rental_uris":{"android":"levelo://app?vid=3b09c87e-cbc2-4176-bc1b-1b93a39221ad","ios":"levelo://app?vid=3b09c87e-cbc2-4176-bc1b-1b93a39221ad"},"vehicle_type_id":"4","last_reported":1736269699,"current_range_meters":36400,"station_id":"ce4bhr92rcd13ifvqhrg","pricing_plan_id":"cebpf4jnsgd1na2vs0mg"},{"bike_id":"d7a97757-eae4-460f-ac25-5fa6874f0302","system_id":"levelo_inurba_marseille","lat":43.29438,"lon":5.39745,"is_reserved":false,"is_disabled":false,"rental_uris":{"android":"levelo://app?vid=d7a97757-eae4-460f-ac25-5fa6874f0302","ios":"levelo://app?vid=d7a97757-eae4-460f-ac25-5fa6874f0302"},"vehicle_type_id":"4","last_reported":1736269699,"current_range_meters":9200,"station_id":"ce4bh3h2rcd13ifvqdo0","pricing_plan_id":"cebpf4jnsgd1na2vs0mg"},{"bike_id":"07d0a87c-6c83-4a30-95aa-11415b42305b","system_id":"levelo_inurba_marseille","lat":43.30884,"lon":5.39629,"is_reserved":false,"is_disabled":false,"rental_uris":{"android":"levelo://app?vid=07d0a87c-6c83-4a30-95aa-11415b42305b","ios":"levelo://app?vid=07d0a87c-6c83-4a30-95aa-11415b42305b"},"vehicle_type_id":"4","last_reported":1736269699,"current_range_meters":22400,"station_id":"ce4bh012rcd13ifvqcv0","pricing_plan_id":"cebpf4jnsgd1na2vs0mg"},{"bike_id":"e9fd63eb-105d-49d2-9427-6a6693a1ea03","system_id":"levelo_inurba_marseille","lat":43.29418,"lon":5.38618,"is_reserved":false,"is_disabled":false,"rental_uris":{"android":"levelo://app?vid=e9fd63eb-105d-49d2-9427-6a6693a1ea03","ios":"levelo://app?vid=e9fd63eb-105d-49d2-9427-6a6693a1ea03"},"vehicle_type_id":"4","last_reported":1736269699,"current_range_meters":23200,"station_id":"ce4bh2h2rcd13ifvqdh0","pricing_plan_id":"cebpf4jnsgd1na2vs0mg"},{"bike_id":"0713f8e3-c700-4d17-981e-d84889a80c01","system_id":"levelo_inurba_marseille","lat":43.29936,"lon":5.36563,"is_reserved":false,"is_disabled":false,"rental_uris":{"android":"levelo://app?vid=0713f8e3-c700-4d17-981e-d84889a80c01","ios":"levelo://app?vid=0713f8e3-c700-4d17-981e-d84889a80c01"},"vehicle_type_id":"4","last_reported":1736269699,"current_range_meters":30000,"station_id":"ce4bgm92rcd13ifvqbr0","pricing_plan_id":"cebpf4jnsgd1na2vs0mg"},{"bike_id":"a4dec33a-3574-46ab-bf07-5ce5a74a1fd6","system_id":"levelo_inurba_marseille","lat":43.28615,"lon":5.35101,"is_reserved":false,"is_disabled":false,"rental_uris":{"android":"levelo://app?vid=a4dec33a-3574-46ab-bf07-5ce5a74a1fd6","ios":"levelo://app?vid=a4dec33a-3574-46ab-bf07-5ce5a74a1fd6"},"vehicle_type_id":"4","last_reported":1736269699,"current_range_meters":29600,"station_id":"ce4bhch2rcd13ifvqeug","pricing_plan_id":"cebpf4jnsgd1na2vs0mg"},{"bike_id":"1e4693fe-365a-4ddb-85a2-e083627ddaa2","system_id":"levelo_inurba_marseille","lat":43.25508,"lon":5.37636,"is_reserved":false,"is_disabled":false,"rental_uris":{"android":"levelo://app?vid=1e4693fe-365a-4ddb-85a2-e083627ddaa2","ios":"levelo://app?vid=1e4693fe-365a-4ddb-85a2-e083627ddaa2"},"vehicle_type_id":"4","last_reported":1736269699,"current_range_meters":30800,"station_id":"ce4bhh12rcd13ifvqff0","pricing_plan_id":"cebpf4jnsgd1na2vs0mg"},{"bike_id":"f3d1f244-18c3-434d-87c1-4500012e65af","system_id":"levelo_inurba_marseille","lat":43.337444,"lon":5.374475,"is_reserved":false,"is_disabled":false,"rental_uris":{"android":"levelo://app?vid=f3d1f244-18c3-434d-87c1-4500012e65af","ios":"levelo://app?vid=f3d1f244-18c3-434d-87c1-4500012e65af"},"vehicle_type_id":"4","last_reported":1736269699,"current_range_meters":27200,"station_id":"","pricing_plan_id":"cebpf4jnsgd1na2vs0mg"},{"bike_id":"30add41c-1c89-4c0e-8350-e2c7f794d882","system_id":"levelo_inurba_marseille","lat":43.28566,"lon":5.39504,"is_reserved":false,"is_disabled":false,"rental_uris":{"android":"levelo://app?vid=30add41c-1c89-4c0e-8350-e2c7f794d882","ios":"levelo://app?vid=30add41c-1c89-4c0e-8350-e2c7f794d882"},"vehicle_type_id":"4","last_reported":1736269699,"current_range_meters":4400,"station_id":"ce4bh292rcd13ifvqdg0","pricing_plan_id":"cebpf4jnsgd1na2vs0mg"},{"bike_id":"39a66161-6256-4a44-9ff8-9ec79f8478c8","system_id":"levelo_inurba_marseille","lat":43.28625,"lon":5.35096,"is_reserved":false,"is_disabled":false,"rental_uris":{"android":"levelo://app?vid=39a66161-6256-4a44-9ff8-9ec79f8478c8","ios":"levelo://app?vid=39a66161-6256-4a44-9ff8-9ec79f8478c8"},"vehicle_type_id":"4","last_reported":1736269699,"current_range_meters":20800,"station_id":"ce4bhch2rcd13ifvqeug","pricing_plan_id":"cebpf4jnsgd1na2vs0mg"},{"bike_id":"d45d0089-5e8c-41ac-a04c-9866c8dc94cc","system_id":"levelo_inurba_marseille","lat":43.2321,"lon":5.35546,"is_reserved":false,"is_disabled":false,"rental_uris":{"android":"levelo://app?vid=d45d0089-5e8c-41ac-a04c-9866c8dc94cc","ios":"levelo://app?vid=d45d0089-5e8c-41ac-a04c-9866c8dc94cc"},"vehicle_type_id":"4","last_reported":1736269699,"current_range_meters":38800,"station_id":"ce4bhu92rcd13ifvqi70","pricing_plan_id":"cebpf4jnsgd1na2vs0mg"},{"bike_id":"318f78a8-0263-4834-ac39-be164f4831d1","system_id":"levelo_inurba_marseille","lat":43.26214,"lon":5.37432,"is_reserved":false,"is_disabled":false,"rental_uris":{"android":"levelo://app?vid=318f78a8-0263-4834-ac39-be164f4831d1","ios":"levelo://app?vid=318f78a8-0263-4834-ac39-be164f4831d1"},"vehicle_type_id":"4","last_reported":1736269699,"current_range_meters":16400,"station_id":"ce4bhgp2rcd13ifvqfc0","pricing_plan_id":"cebpf4jnsgd1na2vs0mg"},{"bike_id":"6766d880-d456-485c-87e3-9209b87bc73c","system_id":"levelo_inurba_marseille","lat":43.27998,"lon":5.40008,"is_reserved":false,"is_disabled":false,"rental_uris":{"android":"levelo://app?vid=6766d880-d456-485c-87e3-9209b87bc73c","ios":"levelo://app?vid=6766d880-d456-485c-87e3-9209b87bc73c"},"vehicle_type_id":"4","last_reported":1736269699,"current_range_meters":13600,"station_id":"ce4bho92rcd13ifvqh4g","pricing_plan_id":"cebpf4jnsgd1na2vs0mg"},{"bike_id":"aa33a53e-f806-43a8-ad7e-8e2bd9644426","system_id":"levelo_inurba_marseille","lat":43.32345,"lon":5.40629,"is_reserved":false,"is_disabled":true,"rental_uris":{"android":"levelo://app?vid=aa33a53e-f806-43a8-ad7e-8e2bd9644426","ios":"levelo://app?vid=aa33a53e-f806-43a8-ad7e-8e2bd9644426"},"vehicle_type_id":"4","last_reported":1736269699,"current_range_meters":0,"station_id":"ce4bhq92rcd13ifvqhjg","pricing_plan_id":"cebpf4jnsgd1na2vs0mg"},{"bike_id":"1f8297d7-92a8-4f77-9ed5-6e009f0cffcd","system_id":"levelo_inurba_marseille","lat":43.29531,"lon":5.39031,"is_reserved":false,"is_disabled":false,"rental_uris":{"android":"levelo://app?vid=1f8297d7-92a8-4f77-9ed5-6e009f0cffcd","ios":"levelo://app?vid=1f8297d7-92a8-4f77-9ed5-6e009f0cffcd"},"vehicle_type_id":"4","last_reported":1736269699,"current_range_meters":22000,"station_id":"ce4bh3p2rcd13ifvqdp0","pricing_plan_id":"cebpf4jnsgd1na2vs0mg"},{"bike_id":"28706a8a-e4d8-40e9-a34b-f308bb4cb4ca","system_id":"levelo_inurba_marseille","lat":43.313281,"lon":5.396916,"is_reserved":false,"is_disabled":false,"rental_uris":{"android":"levelo://app?vid=28706a8a-e4d8-40e9-a34b-f308bb4cb4ca","ios":"levelo://app?vid=28706a8a-e4d8-40e9-a34b-f308bb4cb4ca"},"vehicle_type_id":"4","last_reported":1736269699,"current_range_meters":38800,"station_id":"ce4bgvp2rcd13ifvqcu0","pricing_plan_id":"cebpf4jnsgd1na2vs0mg"},{"bike_id":"be457d0e-e951-4c20-92b5-c162743063cd","system_id":"levelo_inurba_marseille","lat":43.33026,"lon":5.39046,"is_reserved":false,"is_disabled":false,"rental_uris":{"android":"levelo://app?vid=be457d0e-e951-4c20-92b5-c162743063cd","ios":"levelo://app?vid=be457d0e-e951-4c20-92b5-c162743063cd"},"vehicle_type_id":"4","last_reported":1736269699,"current_range_meters":15200,"station_id":"ce4bhr92rcd13ifvqhrg","pricing_plan_id":"cebpf4jnsgd1na2vs0mg"},{"bike_id":"77177f8a-71d5-4e1a-868f-582664cef4f6","system_id":"levelo_inurba_marseille","lat":43.30179,"lon":5.37361,"is_reserved":false,"is_disabled":true,"rental_uris":{"android":"levelo://app?vid=77177f8a-71d5-4e1a-868f-582664cef4f6","ios":"levelo://app?vid=77177f8a-71d5-4e1a-868f-582664cef4f6"},"vehicle_type_id":"4","last_reported":1736269699,"current_range_meters":38000,"station_id":"","pricing_plan_id":"cebpf4jnsgd1na2vs0mg"},{"bike_id":"5c990a4a-e037-4e8b-85a8-64502868377c","system_id":"levelo_inurba_marseille","lat":43.33022,"lon":5.3904,"is_reserved":false,"is_disabled":false,"rental_uris":{"android":"levelo://app?vid=5c990a4a-e037-4e8b-85a8-64502868377c","ios":"levelo://app?vid=5c990a4a-e037-4e8b-85a8-64502868377c"},"vehicle_type_id":"4","last_reported":1736269699,"current_range_meters":24000,"station_id":"ce4bhr92rcd13ifvqhrg","pricing_plan_id":"cebpf4jnsgd1na2vs0mg"},{"bike_id":"502087b1-18db-427e-9ac7-3d1aa22f63c7","system_id":"levelo_inurba_marseille","lat":43.29843,"lon":5.36257,"is_reserved":false,"is_disabled":false,"rental_uris":{"android":"levelo://app?vid=502087b1-18db-427e-9ac7-3d1aa22f63c7","ios":"levelo://app?vid=502087b1-18db-427e-9ac7-3d1aa22f63c7"},"vehicle_type_id":"4","last_reported":1736269699,"current_range_meters":38800,"station_id":"ce4bgpp2rcd13ifvqc3g","pricing_plan_id":"cebpf4jnsgd1na2vs0mg"},{"bike_id":"d7944184-121c-41a4-b1f0-964097a20a6a","system_id":"levelo_inurba_marseille","lat":43.28912,"lon":5.3841,"is_reserved":false,"is_disabled":false,"rental_uris":{"android":"levelo://app?vid=d7944184-121c-41a4-b1f0-964097a20a6a","ios":"levelo://app?vid=d7944184-121c-41a4-b1f0-964097a20a6a"},"vehicle_type_id":"4","last_reported":1736269699,"current_range_meters":5600,"station_id":"ce4bh612rcd13ifvqe6g","pricing_plan_id":"cebpf4jnsgd1na2vs0mg"},{"bike_id":"9a9b98a3-c084-429a-9727-d3c64f73c7da","system_id":"levelo_inurba_marseille","lat":43.29779,"lon":5.38133,"is_reserved":false,"is_disabled":false,"rental_uris":{"android":"levelo://app?vid=9a9b98a3-c084-429a-9727-d3c64f73c7da","ios":"levelo://app?vid=9a9b98a3-c084-429a-9727-d3c64f73c7da"},"vehicle_type_id":"4","last_reported":1736269699,"current_range_meters":37600,"station_id":"ce4bgip2rcd13ifvqbb0","pricing_plan_id":"cebpf4jnsgd1na2vs0mg"},{"bike_id":"039b29f7-94ed-4721-a8e9-0c1927d58b60","system_id":"levelo_inurba_marseille","lat":43.24674,"lon":5.38158,"is_reserved":false,"is_disabled":false,"rental_uris":{"android":"levelo://app?vid=039b29f7-94ed-4721-a8e9-0c1927d58b60","ios":"levelo://app?vid=039b29f7-94ed-4721-a8e9-0c1927d58b60"},"vehicle_type_id":"4","last_reported":1736269699,"current_range_meters":10000,"station_id":"ce4bhih2rcd13ifvqfr0","pricing_plan_id":"cebpf4jnsgd1na2vs0mg"},{"bike_id":"3f86cc4e-c4fd-40a8-a7f2-03738bc004c2","system_id":"levelo_inurba_marseille","lat":43.28461,"lon":5.35888,"is_reserved":false,"is_disabled":false,"rental_uris":{"android":"levelo://app?vid=3f86cc4e-c4fd-40a8-a7f2-03738bc004c2","ios":"levelo://app?vid=3f86cc4e-c4fd-40a8-a7f2-03738bc004c2"},"vehicle_type_id":"4","last_reported":1736269699,"current_range_meters":39200,"station_id":"ce4bhah2rcd13ifvqei0","pricing_plan_id":"cebpf4jnsgd1na2vs0mg"},{"bike_id":"afa87d4f-3b70-4c1d-afee-514b5c99f90f","system_id":"levelo_inurba_marseille","lat":43.29571,"lon":5.39977,"is_reserved":false,"is_disabled":false,"rental_uris":{"android":"levelo://app?vid=afa87d4f-3b70-4c1d-afee-514b5c99f90f","ios":"levelo://app?vid=afa87d4f-3b70-4c1d-afee-514b5c99f90f"},"vehicle_type_id":"4","last_reported":1736269699,"current_range_meters":24400,"station_id":"ce4bh312rcd13ifvqdj0","pricing_plan_id":"cebpf4jnsgd1na2vs0mg"},{"bike_id":"bbf998ea-d252-4590-8711-16d78ff4b07c","system_id":"levelo_inurba_marseille","lat":43.24651,"lon":5.38889,"is_reserved":false,"is_disabled":false,"rental_uris":{"android":"levelo://app?vid=bbf998ea-d252-4590-8711-16d78ff4b07c","ios":"levelo://app?vid=bbf998ea-d252-4590-8711-16d78ff4b07c"},"vehicle_type_id":"4","last_reported":1736269699,"current_range_meters":25600,"station_id":"ce4bhg12rcd13ifvqf60","pricing_plan_id":"cebpf4jnsgd1na2vs0mg"},{"bike_id":"2c889d84-bd42-411e-9527-b3215cc58e68","system_id":"levelo_inurba_marseille","lat":43.27947,"lon":5.4105,"is_reserved":false,"is_disabled":false,"rental_uris":{"android":"levelo://app?vid=2c889d84-bd42-411e-9527-b3215cc58e68","ios":"levelo://app?vid=2c889d84-bd42-411e-9527-b3215cc58e68"},"vehicle_type_id":"4","last_reported":1736269699,"current_range_meters":18000,"station_id":"ce4bhnp2rcd13ifvqh0g","pricing_plan_id":"cebpf4jnsgd1na2vs0mg"},{"bike_id":"88a5d56b-c33b-4490-b029-7dac920ab5f6","system_id":"levelo_inurba_marseille","lat":43.26567,"lon":5.39016,"is_reserved":false,"is_disabled":false,"rental_uris":{"android":"levelo://app?vid=88a5d56b-c33b-4490-b029-7dac920ab5f6","ios":"levelo://app?vid=88a5d56b-c33b-4490-b029-7dac920ab5f6"},"vehicle_type_id":"4","last_reported":1736269699,"current_range_meters":30800,"station_id":"ce4bhe12rcd13ifvqf30","pricing_plan_id":"cebpf4jnsgd1na2vs0mg"},{"bike_id":"dc7a03ed-21bb-4549-b5e4-9a80411a620b","system_id":"levelo_inurba_marseille","lat":43.26562,"lon":5.37285,"is_reserved":false,"is_disabled":false,"rental_uris":{"android":"levelo://app?vid=dc7a03ed-21bb-4549-b5e4-9a80411a620b","ios":"levelo://app?vid=dc7a03ed-21bb-4549-b5e4-9a80411a620b"},"vehicle_type_id":"4","last_reported":1736269699,"current_range_meters":26800,"station_id":"ce4bhg12rcd13ifvqf70","pricing_plan_id":"cebpf4jnsgd1na2vs0mg"},{"bike_id":"1f3279ad-7688-4d1e-817a-428a5253b908","system_id":"levelo_inurba_marseille","lat":43.3133,"lon":5.397,"is_reserved":false,"is_disabled":false,"rental_uris":{"android":"levelo://app?vid=1f3279ad-7688-4d1e-817a-428a5253b908","ios":"levelo://app?vid=1f3279ad-7688-4d1e-817a-428a5253b908"},"vehicle_type_id":"4","last_reported":1736269699,"current_range_meters":33200,"station_id":"ce4bgvp2rcd13ifvqcu0","pricing_plan_id":"cebpf4jnsgd1na2vs0mg"},{"bike_id":"dfc280fa-a54a-4ed1-93b5-ab961fce5411","system_id":"levelo_inurba_marseille","lat":43.31881,"lon":5.40737,"is_reserved":false,"is_disabled":false,"rental_uris":{"android":"levelo://app?vid=dfc280fa-a54a-4ed1-93b5-ab961fce5411","ios":"levelo://app?vid=dfc280fa-a54a-4ed1-93b5-ab961fce5411"},"vehicle_type_id":"4","last_reported":1736269699,"current_range_meters":18000,"station_id":"ce4bhq12rcd13ifvqhig","pricing_plan_id":"cebpf4jnsgd1na2vs0mg"},{"bike_id":"12d80265-218d-400a-b6c7-b7c4051d39be","system_id":"levelo_inurba_marseille","lat":43.30147,"lon":5.38766,"is_reserved":false,"is_disabled":false,"rental_uris":{"android":"levelo://app?vid=12d80265-218d-400a-b6c7-b7c4051d39be","ios":"levelo://app?vid=12d80265-218d-400a-b6c7-b7c4051d39be"},"vehicle_type_id":"4","last_reported":1736269699,"current_range_meters":3200,"station_id":"ce4bhoh2rcd13ifvqh6g","pricing_plan_id":"cebpf4jnsgd1na2vs0mg"},{"bike_id":"49597cf1-abfa-471b-b4d2-12244bfc9378","system_id":"levelo_inurba_marseille","lat":43.29888,"lon":5.3973,"is_reserved":false,"is_disabled":true,"rental_uris":{"android":"levelo://app?vid=49597cf1-abfa-471b-b4d2-12244bfc9378","ios":"levelo://app?vid=49597cf1-abfa-471b-b4d2-12244bfc9378"},"vehicle_type_id":"4","last_reported":1736269699,"current_range_meters":0,"station_id":"ce4bh0h2rcd13ifvqd50","pricing_plan_id":"cebpf4jnsgd1na2vs0mg"},{"bike_id":"0b9521b2-4a4a-4b15-a356-31ebe979341d","system_id":"levelo_inurba_marseille","lat":43.29901,"lon":5.43663,"is_reserved":false,"is_disabled":false,"rental_uris":{"android":"levelo://app?vid=0b9521b2-4a4a-4b15-a356-31ebe979341d","ios":"levelo://app?vid=0b9521b2-4a4a-4b15-a356-31ebe979341d"},"vehicle_type_id":"4","last_reported":1736269699,"current_range_meters":8400,"station_id":"ce4bhpp2rcd13ifvqhfg","pricing_plan_id":"cebpf4jnsgd1na2vs0mg"},{"bike_id":"7fdb8a30-d664-4f4a-8ef4-74d360ec87d0","system_id":"levelo_inurba_marseille","lat":43.306484,"lon":5.400382,"is_reserved":false,"is_disabled":false,"rental_uris":{"android":"levelo://app?vid=7fdb8a30-d664-4f4a-8ef4-74d360ec87d0","ios":"levelo://app?vid=7fdb8a30-d664-4f4a-8ef4-74d360ec87d0"},"vehicle_type_id":"4","last_reported":1736269699,"current_range_meters":12800,"station_id":"","pricing_plan_id":"cebpf4jnsgd1na2vs0mg"},{"bike_id":"1e297576-65d7-4d7e-82e0-d872b833f39a","system_id":"levelo_inurba_marseille","lat":43.30866,"lon":5.36875,"is_reserved":false,"is_disabled":false,"rental_uris":{"android":"levelo://app?vid=1e297576-65d7-4d7e-82e0-d872b833f39a","ios":"levelo://app?vid=1e297576-65d7-4d7e-82e0-d872b833f39a"},"vehicle_type_id":"4","last_reported":1736269699,"current_range_meters":22800,"station_id":"","pricing_plan_id":"cebpf4jnsgd1na2vs0mg"},{"bike_id":"dc05b672-3694-44a5-80f7-8b52b23fe0ed","system_id":"levelo_inurba_marseille","lat":43.25588,"lon":5.38222,"is_reserved":false,"is_disabled":true,"rental_uris":{"android":"levelo://app?vid=dc05b672-3694-44a5-80f7-8b52b23fe0ed","ios":"levelo://app?vid=dc05b672-3694-44a5-80f7-8b52b23fe0ed"},"vehicle_type_id":"4","last_reported":1736269699,"current_range_meters":0,"station_id":"ce4bhih2rcd13ifvqfs0","pricing_plan_id":"cebpf4jnsgd1na2vs0mg"},{"bike_id":"382c4838-7814-4919-94fb-1b7e94e564ca","system_id":"levelo_inurba_marseille","lat":43.28679,"lon":5.38662,"is_reserved":false,"is_disabled":false,"rental_uris":{"android":"levelo://app?vid=382c4838-7814-4919-94fb-1b7e94e564ca","ios":"levelo://app?vid=382c4838-7814-4919-94fb-1b7e94e564ca"},"vehicle_type_id":"4","last_reported":1736269699,"current_range_meters":39200,"station_id":"ce4bh492rcd13ifvqdug","pricing_plan_id":"cebpf4jnsgd1na2vs0mg"},{"bike_id":"f3068faf-6ea3-45c0-943e-8f5eb9fecb3c","system_id":"levelo_inurba_marseille","lat":43.23966,"lon":5.36632,"is_reserved":false,"is_disabled":false,"rental_uris":{"android":"levelo://app?vid=f3068faf-6ea3-45c0-943e-8f5eb9fecb3c","ios":"levelo://app?vid=f3068faf-6ea3-45c0-943e-8f5eb9fecb3c"},"vehicle_type_id":"4","last_reported":1736269699,"current_range_meters":36800,"station_id":"ce4bhi12rcd13ifvqfp0","pricing_plan_id":"cebpf4jnsgd1na2vs0mg"},{"bike_id":"e99245ba-e1f2-413f-b35e-a4391c44fd31","system_id":"levelo_inurba_marseille","lat":43.28157,"lon":5.42641,"is_reserved":false,"is_disabled":false,"rental_uris":{"android":"levelo://app?vid=e99245ba-e1f2-413f-b35e-a4391c44fd31","ios":"levelo://app?vid=e99245ba-e1f2-413f-b35e-a4391c44fd31"},"vehicle_type_id":"4","last_reported":1736269699,"current_range_meters":8800,"station_id":"ce4bhnh2rcd13ifvqgug","pricing_plan_id":"cebpf4jnsgd1na2vs0mg"},{"bike_id":"2937c8f0-6f06-4c7f-8240-41ad44bc55fa","system_id":"levelo_inurba_marseille","lat":43.23196,"lon":5.39984,"is_reserved":false,"is_disabled":false,"rental_uris":{"android":"levelo://app?vid=2937c8f0-6f06-4c7f-8240-41ad44bc55fa","ios":"levelo://app?vid=2937c8f0-6f06-4c7f-8240-41ad44bc55fa"},"vehicle_type_id":"4","last_reported":1736269699,"current_range_meters":9600,"station_id":"ce4bhn12rcd13ifvqgqg","pricing_plan_id":"cebpf4jnsgd1na2vs0mg"},{"bike_id":"34c643ba-9c32-48fb-b7a4-58a073ebe667","system_id":"levelo_inurba_marseille","lat":43.29632,"lon":5.40624,"is_reserved":false,"is_disabled":true,"rental_uris":{"android":"levelo://app?vid=34c643ba-9c32-48fb-b7a4-58a073ebe667","ios":"levelo://app?vid=34c643ba-9c32-48fb-b7a4-58a073ebe667"},"vehicle_type_id":"4","last_reported":1736269699,"current_range_meters":1600,"station_id":"ce4bh0h2rcd13ifvqd60","pricing_plan_id":"cebpf4jnsgd1na2vs0mg"},{"bike_id":"cbc04811-5b35-4127-b119-df83772b884c","system_id":"levelo_inurba_marseille","lat":43.28855,"lon":5.39308,"is_reserved":false,"is_disabled":false,"rental_uris":{"android":"levelo://app?vid=cbc04811-5b35-4127-b119-df83772b884c","ios":"levelo://app?vid=cbc04811-5b35-4127-b119-df83772b884c"},"vehicle_type_id":"4","last_reported":1736269699,"current_range_meters":16000,"station_id":"ce4bh2p2rcd13ifvqdi0","pricing_plan_id":"cebpf4jnsgd1na2vs0mg"},{"bike_id":"baa11b18-d12e-45ab-8b01-47259f200949","system_id":"levelo_inurba_marseille","lat":43.29876,"lon":5.39741,"is_reserved":false,"is_disabled":false,"rental_uris":{"android":"levelo://app?vid=baa11b18-d12e-45ab-8b01-47259f200949","ios":"levelo://app?vid=baa11b18-d12e-45ab-8b01-47259f200949"},"vehicle_type_id":"4","last_reported":1736269699,"current_range_meters":12000,"station_id":"ce4bh0h2rcd13ifvqd50","pricing_plan_id":"cebpf4jnsgd1na2vs0mg"},{"bike_id":"d9ecf113-6162-4dc0-b7af-6334f983c91c","system_id":"levelo_inurba_marseille","lat":43.29302,"lon":5.37463,"is_reserved":false,"is_disabled":false,"rental_uris":{"android":"levelo://app?vid=d9ecf113-6162-4dc0-b7af-6334f983c91c","ios":"levelo://app?vid=d9ecf113-6162-4dc0-b7af-6334f983c91c"},"vehicle_type_id":"4","last_reported":1736269699,"current_range_meters":38800,"station_id":"ce4bgi12rcd13ifvqb70","pricing_plan_id":"cebpf4jnsgd1na2vs0mg"},{"bike_id":"d014f699-d84d-436b-b3bf-8c059d18ea89","system_id":"levelo_inurba_marseille","lat":43.229249,"lon":5.353832,"is_reserved":false,"is_disabled":false,"rental_uris":{"android":"levelo://app?vid=d014f699-d84d-436b-b3bf-8c059d18ea89","ios":"levelo://app?vid=d014f699-d84d-436b-b3bf-8c059d18ea89"},"vehicle_type_id":"4","last_reported":1736269699,"current_range_meters":7200,"station_id":"cpo3532slgdg3j2ikp40","pricing_plan_id":"cebpf4jnsgd1na2vs0mg"},{"bike_id":"9862cc46-3096-4312-a8fd-b4a6e803a184","system_id":"levelo_inurba_marseille","lat":43.29838,"lon":5.36267,"is_reserved":false,"is_disabled":false,"rental_uris":{"android":"levelo://app?vid=9862cc46-3096-4312-a8fd-b4a6e803a184","ios":"levelo://app?vid=9862cc46-3096-4312-a8fd-b4a6e803a184"},"vehicle_type_id":"4","last_reported":1736269699,"current_range_meters":37600,"station_id":"ce4bgpp2rcd13ifvqc3g","pricing_plan_id":"cebpf4jnsgd1na2vs0mg"},{"bike_id":"8fa8b7f9-1a9a-4b12-8f46-a00de1a280d3","system_id":"levelo_inurba_marseille","lat":43.28422,"lon":5.34985,"is_reserved":false,"is_disabled":false,"rental_uris":{"android":"levelo://app?vid=8fa8b7f9-1a9a-4b12-8f46-a00de1a280d3","ios":"levelo://app?vid=8fa8b7f9-1a9a-4b12-8f46-a00de1a280d3"},"vehicle_type_id":"4","last_reported":1736269699,"current_range_meters":27200,"station_id":"ce4bhbh2rcd13ifvqepg","pricing_plan_id":"cebpf4jnsgd1na2vs0mg"},{"bike_id":"955387a8-4a47-4691-946f-78754c88504b","system_id":"levelo_inurba_marseille","lat":43.23203,"lon":5.35538,"is_reserved":false,"is_disabled":false,"rental_uris":{"android":"levelo://app?vid=955387a8-4a47-4691-946f-78754c88504b","ios":"levelo://app?vid=955387a8-4a47-4691-946f-78754c88504b"},"vehicle_type_id":"4","last_reported":1736269699,"current_range_meters":36400,"station_id":"ce4bhu92rcd13ifvqi70","pricing_plan_id":"cebpf4jnsgd1na2vs0mg"},{"bike_id":"ef72cdb4-465d-4178-b952-49906f159c48","system_id":"levelo_inurba_marseille","lat":43.28169,"lon":5.42611,"is_reserved":false,"is_disabled":false,"rental_uris":{"android":"levelo://app?vid=ef72cdb4-465d-4178-b952-49906f159c48","ios":"levelo://app?vid=ef72cdb4-465d-4178-b952-49906f159c48"},"vehicle_type_id":"4","last_reported":1736269699,"current_range_meters":35600,"station_id":"ce4bhnh2rcd13ifvqgug","pricing_plan_id":"cebpf4jnsgd1na2vs0mg"},{"bike_id":"f949af9a-2683-4ec9-b4bf-168b31b3bcb2","system_id":"levelo_inurba_marseille","lat":43.24662,"lon":5.38888,"is_reserved":false,"is_disabled":false,"rental_uris":{"android":"levelo://app?vid=f949af9a-2683-4ec9-b4bf-168b31b3bcb2","ios":"levelo://app?vid=f949af9a-2683-4ec9-b4bf-168b31b3bcb2"},"vehicle_type_id":"4","last_reported":1736269699,"current_range_meters":17600,"station_id":"ce4bhg12rcd13ifvqf60","pricing_plan_id":"cebpf4jnsgd1na2vs0mg"},{"bike_id":"783a4e6a-b2e5-4bb3-b469-3a64716ba325","system_id":"levelo_inurba_marseille","lat":43.287033,"lon":5.37391,"is_reserved":false,"is_disabled":false,"rental_uris":{"android":"levelo://app?vid=783a4e6a-b2e5-4bb3-b469-3a64716ba325","ios":"levelo://app?vid=783a4e6a-b2e5-4bb3-b469-3a64716ba325"},"vehicle_type_id":"4","last_reported":1736269699,"current_range_meters":36400,"station_id":"ce4bh3p2rcd13ifvqdq0","pricing_plan_id":"cebpf4jnsgd1na2vs0mg"},{"bike_id":"21263f64-163d-4ecc-9bb7-08f30ca04e31","system_id":"levelo_inurba_marseille","lat":43.29696,"lon":5.36598,"is_reserved":false,"is_disabled":false,"rental_uris":{"android":"levelo://app?vid=21263f64-163d-4ecc-9bb7-08f30ca04e31","ios":"levelo://app?vid=21263f64-163d-4ecc-9bb7-08f30ca04e31"},"vehicle_type_id":"4","last_reported":1736269699,"current_range_meters":25600,"station_id":"ce4bgn12rcd13ifvqbt0","pricing_plan_id":"cebpf4jnsgd1na2vs0mg"},{"bike_id":"2cbe44e8-5153-4f16-96d5-c672956deddb","system_id":"levelo_inurba_marseille","lat":43.29377,"lon":5.3785,"is_reserved":false,"is_disabled":false,"rental_uris":{"android":"levelo://app?vid=2cbe44e8-5153-4f16-96d5-c672956deddb","ios":"levelo://app?vid=2cbe44e8-5153-4f16-96d5-c672956deddb"},"vehicle_type_id":"4","last_reported":1736269699,"current_range_meters":13600,"station_id":"ce4bgjh2rcd13ifvqbf0","pricing_plan_id":"cebpf4jnsgd1na2vs0mg"},{"bike_id":"2c06a655-b0bc-4845-8aa9-0712ab02bd52","system_id":"levelo_inurba_marseille","lat":43.25821,"lon":5.39442,"is_reserved":false,"is_disabled":false,"rental_uris":{"android":"levelo://app?vid=2c06a655-b0bc-4845-8aa9-0712ab02bd52","ios":"levelo://app?vid=2c06a655-b0bc-4845-8aa9-0712ab02bd52"},"vehicle_type_id":"4","last_reported":1736269699,"current_range_meters":36000,"station_id":"ce4bhip2rcd13ifvqft0","pricing_plan_id":"cebpf4jnsgd1na2vs0mg"},{"bike_id":"638997bd-d149-4d90-93a6-5df85053fb09","system_id":"levelo_inurba_marseille","lat":43.26207,"lon":5.37927,"is_reserved":false,"is_disabled":false,"rental_uris":{"android":"levelo://app?vid=638997bd-d149-4d90-93a6-5df85053fb09","ios":"levelo://app?vid=638997bd-d149-4d90-93a6-5df85053fb09"},"vehicle_type_id":"4","last_reported":1736269699,"current_range_meters":38000,"station_id":"ce4bhjp2rcd13ifvqg90","pricing_plan_id":"cebpf4jnsgd1na2vs0mg"},{"bike_id":"3d0ed4fc-d747-4ba9-baca-a67f26ed7f1f","system_id":"levelo_inurba_marseille","lat":43.27668,"lon":5.38901,"is_reserved":false,"is_disabled":false,"rental_uris":{"android":"levelo://app?vid=3d0ed4fc-d747-4ba9-baca-a67f26ed7f1f","ios":"levelo://app?vid=3d0ed4fc-d747-4ba9-baca-a67f26ed7f1f"},"vehicle_type_id":"4","last_reported":1736269699,"current_range_meters":29600,"station_id":"ce4bhi12rcd13ifvqfo0","pricing_plan_id":"cebpf4jnsgd1na2vs0mg"},{"bike_id":"7484372f-a89d-49fe-85f4-242902bb3d4d","system_id":"levelo_inurba_marseille","lat":43.29703,"lon":5.36601,"is_reserved":false,"is_disabled":false,"rental_uris":{"android":"levelo://app?vid=7484372f-a89d-49fe-85f4-242902bb3d4d","ios":"levelo://app?vid=7484372f-a89d-49fe-85f4-242902bb3d4d"},"vehicle_type_id":"4","last_reported":1736269699,"current_range_meters":23200,"station_id":"ce4bgn12rcd13ifvqbt0","pricing_plan_id":"cebpf4jnsgd1na2vs0mg"},{"bike_id":"e0123dfe-4087-4179-a8fa-6fe26e306439","system_id":"levelo_inurba_marseille","lat":43.28418,"lon":5.34977,"is_reserved":false,"is_disabled":false,"rental_uris":{"android":"levelo://app?vid=e0123dfe-4087-4179-a8fa-6fe26e306439","ios":"levelo://app?vid=e0123dfe-4087-4179-a8fa-6fe26e306439"},"vehicle_type_id":"4","last_reported":1736269699,"current_range_meters":20000,"station_id":"ce4bhbh2rcd13ifvqepg","pricing_plan_id":"cebpf4jnsgd1na2vs0mg"},{"bike_id":"ebef3c2c-525d-4acb-b33c-022596666309","system_id":"levelo_inurba_marseille","lat":43.30804,"lon":5.43525,"is_reserved":false,"is_disabled":false,"rental_uris":{"android":"levelo://app?vid=ebef3c2c-525d-4acb-b33c-022596666309","ios":"levelo://app?vid=ebef3c2c-525d-4acb-b33c-022596666309"},"vehicle_type_id":"4","last_reported":1736269699,"current_range_meters":2800,"station_id":"ce4bhph2rcd13ifvqheg","pricing_plan_id":"cebpf4jnsgd1na2vs0mg"},{"bike_id":"578dc93c-9cb6-44e9-9674-3bdc3e25afad","system_id":"levelo_inurba_marseille","lat":43.30802,"lon":5.43524,"is_reserved":false,"is_disabled":false,"rental_uris":{"android":"levelo://app?vid=578dc93c-9cb6-44e9-9674-3bdc3e25afad","ios":"levelo://app?vid=578dc93c-9cb6-44e9-9674-3bdc3e25afad"},"vehicle_type_id":"4","last_reported":1736269699,"current_range_meters":22000,"station_id":"ce4bhph2rcd13ifvqheg","pricing_plan_id":"cebpf4jnsgd1na2vs0mg"},{"bike_id":"a0f6036a-5401-4667-beb1-c12911e1f446","system_id":"levelo_inurba_marseille","lat":43.28722,"lon":5.36082,"is_reserved":false,"is_disabled":false,"rental_uris":{"android":"levelo://app?vid=a0f6036a-5401-4667-beb1-c12911e1f446","ios":"levelo://app?vid=a0f6036a-5401-4667-beb1-c12911e1f446"},"vehicle_type_id":"4","last_reported":1736269699,"current_range_meters":22800,"station_id":"cki0cbj6b192h4jlfktg","pricing_plan_id":"cebpf4jnsgd1na2vs0mg"},{"bike_id":"17043c38-4195-403c-82f3-c0e50a040b21","system_id":"levelo_inurba_marseille","lat":43.31112,"lon":5.37768,"is_reserved":false,"is_disabled":false,"rental_uris":{"android":"levelo://app?vid=17043c38-4195-403c-82f3-c0e50a040b21","ios":"levelo://app?vid=17043c38-4195-403c-82f3-c0e50a040b21"},"vehicle_type_id":"4","last_reported":1736269699,"current_range_meters":30400,"station_id":"ce4bgt92rcd13ifvqcg0","pricing_plan_id":"cebpf4jnsgd1na2vs0mg"},{"bike_id":"4349e322-e54f-4a7c-8de9-2ce06a16918d","system_id":"levelo_inurba_marseille","lat":43.27949,"lon":5.41053,"is_reserved":false,"is_disabled":false,"rental_uris":{"android":"levelo://app?vid=4349e322-e54f-4a7c-8de9-2ce06a16918d","ios":"levelo://app?vid=4349e322-e54f-4a7c-8de9-2ce06a16918d"},"vehicle_type_id":"4","last_reported":1736269699,"current_range_meters":38800,"station_id":"ce4bhnp2rcd13ifvqh0g","pricing_plan_id":"cebpf4jnsgd1na2vs0mg"},{"bike_id":"8d601397-a46c-42b4-b4d4-5570414bbfdc","system_id":"levelo_inurba_marseille","lat":43.31713,"lon":5.40434,"is_reserved":false,"is_disabled":true,"rental_uris":{"android":"levelo://app?vid=8d601397-a46c-42b4-b4d4-5570414bbfdc","ios":"levelo://app?vid=8d601397-a46c-42b4-b4d4-5570414bbfdc"},"vehicle_type_id":"4","last_reported":1736269699,"current_range_meters":32000,"station_id":"ce4bh012rcd13ifvqd00","pricing_plan_id":"cebpf4jnsgd1na2vs0mg"},{"bike_id":"23ecf45a-b579-41bc-9e56-c490ed9d407b","system_id":"levelo_inurba_marseille","lat":43.27823,"lon":5.39208,"is_reserved":false,"is_disabled":false,"rental_uris":{"android":"levelo://app?vid=23ecf45a-b579-41bc-9e56-c490ed9d407b","ios":"levelo://app?vid=23ecf45a-b579-41bc-9e56-c490ed9d407b"},"vehicle_type_id":"4","last_reported":1736269699,"current_range_meters":39200,"station_id":"ce4bhjp2rcd13ifvqga0","pricing_plan_id":"cebpf4jnsgd1na2vs0mg"},{"bike_id":"07e6a187-707a-422d-b02c-d2c25576bb8c","system_id":"levelo_inurba_marseille","lat":43.3236,"lon":5.38865,"is_reserved":false,"is_disabled":false,"rental_uris":{"android":"levelo://app?vid=07e6a187-707a-422d-b02c-d2c25576bb8c","ios":"levelo://app?vid=07e6a187-707a-422d-b02c-d2c25576bb8c"},"vehicle_type_id":"4","last_reported":1736269699,"current_range_meters":15200,"station_id":"ce4bhqp2rcd13ifvqhog","pricing_plan_id":"cebpf4jnsgd1na2vs0mg"},{"bike_id":"d26d2a2b-6b23-4fc3-b931-56527ca935bc","system_id":"levelo_inurba_marseille","lat":43.31752,"lon":5.39005,"is_reserved":false,"is_disabled":false,"rental_uris":{"android":"levelo://app?vid=d26d2a2b-6b23-4fc3-b931-56527ca935bc","ios":"levelo://app?vid=d26d2a2b-6b23-4fc3-b931-56527ca935bc"},"vehicle_type_id":"4","last_reported":1736269699,"current_range_meters":18800,"station_id":"ce4bhqp2rcd13ifvqhng","pricing_plan_id":"cebpf4jnsgd1na2vs0mg"},{"bike_id":"51bc5de6-4fe5-4b26-87ea-d151c6fb650f","system_id":"levelo_inurba_marseille","lat":43.313336,"lon":5.396981,"is_reserved":false,"is_disabled":false,"rental_uris":{"android":"levelo://app?vid=51bc5de6-4fe5-4b26-87ea-d151c6fb650f","ios":"levelo://app?vid=51bc5de6-4fe5-4b26-87ea-d151c6fb650f"},"vehicle_type_id":"4","last_reported":1736269699,"current_range_meters":38800,"station_id":"ce4bgvp2rcd13ifvqcu0","pricing_plan_id":"cebpf4jnsgd1na2vs0mg"},{"bike_id":"1ef18e5f-6acf-4c4d-ba3a-8b6e0b65fd2b","system_id":"levelo_inurba_marseille","lat":43.29407,"lon":5.3863,"is_reserved":false,"is_disabled":false,"rental_uris":{"android":"levelo://app?vid=1ef18e5f-6acf-4c4d-ba3a-8b6e0b65fd2b","ios":"levelo://app?vid=1ef18e5f-6acf-4c4d-ba3a-8b6e0b65fd2b"},"vehicle_type_id":"4","last_reported":1736269699,"current_range_meters":38400,"station_id":"ce4bh2h2rcd13ifvqdh0","pricing_plan_id":"cebpf4jnsgd1na2vs0mg"},{"bike_id":"96897842-bf5c-49fd-a1a9-b462c0aebf11","system_id":"levelo_inurba_marseille","lat":43.28725,"lon":5.37947,"is_reserved":false,"is_disabled":false,"rental_uris":{"android":"levelo://app?vid=96897842-bf5c-49fd-a1a9-b462c0aebf11","ios":"levelo://app?vid=96897842-bf5c-49fd-a1a9-b462c0aebf11"},"vehicle_type_id":"4","last_reported":1736269699,"current_range_meters":38800,"station_id":"ce4bh9p2rcd13ifvqec0","pricing_plan_id":"cebpf4jnsgd1na2vs0mg"},{"bike_id":"aad4a535-b699-4598-8dc1-ecd244317ca1","system_id":"levelo_inurba_marseille","lat":43.23192,"lon":5.39983,"is_reserved":false,"is_disabled":false,"rental_uris":{"android":"levelo://app?vid=aad4a535-b699-4598-8dc1-ecd244317ca1","ios":"levelo://app?vid=aad4a535-b699-4598-8dc1-ecd244317ca1"},"vehicle_type_id":"4","last_reported":1736269699,"current_range_meters":8400,"station_id":"ce4bhn12rcd13ifvqgqg","pricing_plan_id":"cebpf4jnsgd1na2vs0mg"},{"bike_id":"c8d85fd6-0574-4450-8d8b-c4f78c874e02","system_id":"levelo_inurba_marseille","lat":43.281021,"lon":5.378293,"is_reserved":false,"is_disabled":false,"rental_uris":{"android":"levelo://app?vid=c8d85fd6-0574-4450-8d8b-c4f78c874e02","ios":"levelo://app?vid=c8d85fd6-0574-4450-8d8b-c4f78c874e02"},"vehicle_type_id":"4","last_reported":1736269699,"current_range_meters":20400,"station_id":"ce4bha12rcd13ifvqee0","pricing_plan_id":"cebpf4jnsgd1na2vs0mg"},{"bike_id":"57166d06-b242-4d35-a344-88f9c38284b2","system_id":"levelo_inurba_marseille","lat":43.30431,"lon":5.39756,"is_reserved":false,"is_disabled":false,"rental_uris":{"android":"levelo://app?vid=57166d06-b242-4d35-a344-88f9c38284b2","ios":"levelo://app?vid=57166d06-b242-4d35-a344-88f9c38284b2"},"vehicle_type_id":"4","last_reported":1736269699,"current_range_meters":3600,"station_id":"ce4bh092rcd13ifvqd20","pricing_plan_id":"cebpf4jnsgd1na2vs0mg"},{"bike_id":"2a75ae41-e300-40b0-b264-03221db0148f","system_id":"levelo_inurba_marseille","lat":43.30877,"lon":5.39656,"is_reserved":false,"is_disabled":false,"rental_uris":{"android":"levelo://app?vid=2a75ae41-e300-40b0-b264-03221db0148f","ios":"levelo://app?vid=2a75ae41-e300-40b0-b264-03221db0148f"},"vehicle_type_id":"4","last_reported":1736269699,"current_range_meters":39200,"station_id":"ce4bh012rcd13ifvqcv0","pricing_plan_id":"cebpf4jnsgd1na2vs0mg"},{"bike_id":"88ea6d16-55f6-45f8-aa66-cd937b5da7f8","system_id":"levelo_inurba_marseille","lat":43.28944,"lon":5.36643,"is_reserved":false,"is_disabled":false,"rental_uris":{"android":"levelo://app?vid=88ea6d16-55f6-45f8-aa66-cd937b5da7f8","ios":"levelo://app?vid=88ea6d16-55f6-45f8-aa66-cd937b5da7f8"},"vehicle_type_id":"4","last_reported":1736269699,"current_range_meters":21600,"station_id":"ce4bhap2rcd13ifvqek0","pricing_plan_id":"cebpf4jnsgd1na2vs0mg"},{"bike_id":"b210e670-04e4-4c2c-8f2a-43a3063e68eb","system_id":"levelo_inurba_marseille","lat":43.24009,"lon":5.37685,"is_reserved":false,"is_disabled":true,"rental_uris":{"android":"levelo://app?vid=b210e670-04e4-4c2c-8f2a-43a3063e68eb","ios":"levelo://app?vid=b210e670-04e4-4c2c-8f2a-43a3063e68eb"},"vehicle_type_id":"4","last_reported":1736269699,"current_range_meters":38000,"station_id":"","pricing_plan_id":"cebpf4jnsgd1na2vs0mg"},{"bike_id":"ecc8374c-b8cb-4853-8d6e-d7257dc123a6","system_id":"levelo_inurba_marseille","lat":43.29633,"lon":5.40599,"is_reserved":false,"is_disabled":true,"rental_uris":{"android":"levelo://app?vid=ecc8374c-b8cb-4853-8d6e-d7257dc123a6","ios":"levelo://app?vid=ecc8374c-b8cb-4853-8d6e-d7257dc123a6"},"vehicle_type_id":"4","last_reported":1736269699,"current_range_meters":0,"station_id":"ce4bh0h2rcd13ifvqd60","pricing_plan_id":"cebpf4jnsgd1na2vs0mg"},{"bike_id":"676aa0ba-bff3-4634-b63b-31e6e47b9530","system_id":"levelo_inurba_marseille","lat":43.27619,"lon":5.36108,"is_reserved":false,"is_disabled":false,"rental_uris":{"android":"levelo://app?vid=676aa0ba-bff3-4634-b63b-31e6e47b9530","ios":"levelo://app?vid=676aa0ba-bff3-4634-b63b-31e6e47b9530"},"vehicle_type_id":"4","last_reported":1736269699,"current_range_meters":38800,"station_id":"ce4bgj92rcd13ifvqbe0","pricing_plan_id":"cebpf4jnsgd1na2vs0mg"},{"bike_id":"a8b6888e-d27e-40ac-990e-440f9348d454","system_id":"levelo_inurba_marseille","lat":43.28617,"lon":5.35088,"is_reserved":false,"is_disabled":true,"rental_uris":{"android":"levelo://app?vid=a8b6888e-d27e-40ac-990e-440f9348d454","ios":"levelo://app?vid=a8b6888e-d27e-40ac-990e-440f9348d454"},"vehicle_type_id":"4","last_reported":1736269699,"current_range_meters":2000,"station_id":"ce4bhch2rcd13ifvqeug","pricing_plan_id":"cebpf4jnsgd1na2vs0mg"},{"bike_id":"53ebdf7f-4b19-4ee9-b461-7c9dc5e58b35","system_id":"levelo_inurba_marseille","lat":43.28371,"lon":5.38629,"is_reserved":false,"is_disabled":false,"rental_uris":{"android":"levelo://app?vid=53ebdf7f-4b19-4ee9-b461-7c9dc5e58b35","ios":"levelo://app?vid=53ebdf7f-4b19-4ee9-b461-7c9dc5e58b35"},"vehicle_type_id":"4","last_reported":1736269699,"current_range_meters":4400,"station_id":"ce4bh492rcd13ifvqdvg","pricing_plan_id":"cebpf4jnsgd1na2vs0mg"},{"bike_id":"b7f193ff-d9fe-43e0-bdc6-aff16c0c1376","system_id":"levelo_inurba_marseille","lat":43.26202,"lon":5.37458,"is_reserved":false,"is_disabled":false,"rental_uris":{"android":"levelo://app?vid=b7f193ff-d9fe-43e0-bdc6-aff16c0c1376","ios":"levelo://app?vid=b7f193ff-d9fe-43e0-bdc6-aff16c0c1376"},"vehicle_type_id":"4","last_reported":1736269699,"current_range_meters":33200,"station_id":"ce4bhgp2rcd13ifvqfc0","pricing_plan_id":"cebpf4jnsgd1na2vs0mg"},{"bike_id":"3f4e3fed-94f9-4b45-abb7-defd68c197ef","system_id":"levelo_inurba_marseille","lat":43.31303,"lon":5.39674,"is_reserved":false,"is_disabled":false,"rental_uris":{"android":"levelo://app?vid=3f4e3fed-94f9-4b45-abb7-defd68c197ef","ios":"levelo://app?vid=3f4e3fed-94f9-4b45-abb7-defd68c197ef"},"vehicle_type_id":"4","last_reported":1736269699,"current_range_meters":32400,"station_id":"ce4bgvp2rcd13ifvqcu0","pricing_plan_id":"cebpf4jnsgd1na2vs0mg"},{"bike_id":"c1b43e9f-cc91-4a6e-ab09-c797dfdc71e9","system_id":"levelo_inurba_marseille","lat":43.32379,"lon":5.38866,"is_reserved":false,"is_disabled":false,"rental_uris":{"android":"levelo://app?vid=c1b43e9f-cc91-4a6e-ab09-c797dfdc71e9","ios":"levelo://app?vid=c1b43e9f-cc91-4a6e-ab09-c797dfdc71e9"},"vehicle_type_id":"4","last_reported":1736269699,"current_range_meters":16000,"station_id":"ce4bhqp2rcd13ifvqhog","pricing_plan_id":"cebpf4jnsgd1na2vs0mg"},{"bike_id":"e5adc888-7c9c-4a28-b7b0-ff6cdc032841","system_id":"levelo_inurba_marseille","lat":43.30189,"lon":5.36631,"is_reserved":false,"is_disabled":false,"rental_uris":{"android":"levelo://app?vid=e5adc888-7c9c-4a28-b7b0-ff6cdc032841","ios":"levelo://app?vid=e5adc888-7c9c-4a28-b7b0-ff6cdc032841"},"vehicle_type_id":"4","last_reported":1736269699,"current_range_meters":24000,"station_id":"ce4bgrh2rcd13ifvqc8g","pricing_plan_id":"cebpf4jnsgd1na2vs0mg"},{"bike_id":"390fabc0-1988-4707-88cb-f7876c15b1ca","system_id":"levelo_inurba_marseille","lat":43.24129,"lon":5.3771,"is_reserved":false,"is_disabled":true,"rental_uris":{"android":"levelo://app?vid=390fabc0-1988-4707-88cb-f7876c15b1ca","ios":"levelo://app?vid=390fabc0-1988-4707-88cb-f7876c15b1ca"},"vehicle_type_id":"4","last_reported":1736269699,"current_range_meters":16000,"station_id":"","pricing_plan_id":"cebpf4jnsgd1na2vs0mg"},{"bike_id":"4a1c45d8-f616-45eb-a892-c93560e96620","system_id":"levelo_inurba_marseille","lat":43.28721,"lon":5.37927,"is_reserved":false,"is_disabled":false,"rental_uris":{"android":"levelo://app?vid=4a1c45d8-f616-45eb-a892-c93560e96620","ios":"levelo://app?vid=4a1c45d8-f616-45eb-a892-c93560e96620"},"vehicle_type_id":"4","last_reported":1736269699,"current_range_meters":8400,"station_id":"ce4bh9p2rcd13ifvqec0","pricing_plan_id":"cebpf4jnsgd1na2vs0mg"},{"bike_id":"18aa2cc8-44e8-4c77-8bab-0f1d110ee821","system_id":"levelo_inurba_marseille","lat":43.28366,"lon":5.38623,"is_reserved":false,"is_disabled":false,"rental_uris":{"android":"levelo://app?vid=18aa2cc8-44e8-4c77-8bab-0f1d110ee821","ios":"levelo://app?vid=18aa2cc8-44e8-4c77-8bab-0f1d110ee821"},"vehicle_type_id":"4","last_reported":1736269699,"current_range_meters":39200,"station_id":"ce4bh492rcd13ifvqdvg","pricing_plan_id":"cebpf4jnsgd1na2vs0mg"},{"bike_id":"8c615104-2c07-4f4c-9dbf-6f4b1bc49b0f","system_id":"levelo_inurba_marseille","lat":43.24069,"lon":5.37763,"is_reserved":false,"is_disabled":false,"rental_uris":{"android":"levelo://app?vid=8c615104-2c07-4f4c-9dbf-6f4b1bc49b0f","ios":"levelo://app?vid=8c615104-2c07-4f4c-9dbf-6f4b1bc49b0f"},"vehicle_type_id":"4","last_reported":1736269699,"current_range_meters":4400,"station_id":"ce4bhnp2rcd13ifvqgvg","pricing_plan_id":"cebpf4jnsgd1na2vs0mg"},{"bike_id":"4827c42a-358c-4f80-bfc7-eb67ef05d66d","system_id":"levelo_inurba_marseille","lat":43.28151,"lon":5.42634,"is_reserved":false,"is_disabled":true,"rental_uris":{"android":"levelo://app?vid=4827c42a-358c-4f80-bfc7-eb67ef05d66d","ios":"levelo://app?vid=4827c42a-358c-4f80-bfc7-eb67ef05d66d"},"vehicle_type_id":"4","last_reported":1736269699,"current_range_meters":0,"station_id":"ce4bhnh2rcd13ifvqgug","pricing_plan_id":"cebpf4jnsgd1na2vs0mg"},{"bike_id":"5fb4055b-eb02-4173-9285-be8fca7a469d","system_id":"levelo_inurba_marseille","lat":43.29524,"lon":5.38539,"is_reserved":false,"is_disabled":false,"rental_uris":{"android":"levelo://app?vid=5fb4055b-eb02-4173-9285-be8fca7a469d","ios":"levelo://app?vid=5fb4055b-eb02-4173-9285-be8fca7a469d"},"vehicle_type_id":"4","last_reported":1736269699,"current_range_meters":28400,"station_id":"ce4bgih2rcd13ifvqba0","pricing_plan_id":"cebpf4jnsgd1na2vs0mg"},{"bike_id":"21c62b1c-c551-4e91-9bb4-a629a9fd0fac","system_id":"levelo_inurba_marseille","lat":43.25856,"lon":5.39929,"is_reserved":false,"is_disabled":false,"rental_uris":{"android":"levelo://app?vid=21c62b1c-c551-4e91-9bb4-a629a9fd0fac","ios":"levelo://app?vid=21c62b1c-c551-4e91-9bb4-a629a9fd0fac"},"vehicle_type_id":"4","last_reported":1736269699,"current_range_meters":38000,"station_id":"ce4bhl92rcd13ifvqghg","pricing_plan_id":"cebpf4jnsgd1na2vs0mg"},{"bike_id":"86cf36f7-3cde-436c-956c-d389352dec21","system_id":"levelo_inurba_marseille","lat":43.2843,"lon":5.34973,"is_reserved":false,"is_disabled":false,"rental_uris":{"android":"levelo://app?vid=86cf36f7-3cde-436c-956c-d389352dec21","ios":"levelo://app?vid=86cf36f7-3cde-436c-956c-d389352dec21"},"vehicle_type_id":"4","last_reported":1736269699,"current_range_meters":38800,"station_id":"ce4bhbh2rcd13ifvqepg","pricing_plan_id":"cebpf4jnsgd1na2vs0mg"},{"bike_id":"aa4ebe27-e59b-4fe6-9d3b-b5c9588fb1f5","system_id":"levelo_inurba_marseille","lat":43.26071,"lon":5.39389,"is_reserved":false,"is_disabled":false,"rental_uris":{"android":"levelo://app?vid=aa4ebe27-e59b-4fe6-9d3b-b5c9588fb1f5","ios":"levelo://app?vid=aa4ebe27-e59b-4fe6-9d3b-b5c9588fb1f5"},"vehicle_type_id":"4","last_reported":1736269699,"current_range_meters":38000,"station_id":"ce4bhh92rcd13ifvqfj0","pricing_plan_id":"cebpf4jnsgd1na2vs0mg"},{"bike_id":"389a9c30-32af-49db-8379-21d9ef1843d4","system_id":"levelo_inurba_marseille","lat":43.2894,"lon":5.36644,"is_reserved":false,"is_disabled":false,"rental_uris":{"android":"levelo://app?vid=389a9c30-32af-49db-8379-21d9ef1843d4","ios":"levelo://app?vid=389a9c30-32af-49db-8379-21d9ef1843d4"},"vehicle_type_id":"4","last_reported":1736269699,"current_range_meters":4400,"station_id":"ce4bhap2rcd13ifvqek0","pricing_plan_id":"cebpf4jnsgd1na2vs0mg"},{"bike_id":"1f386b45-c499-4f11-aa05-5cde7fee3512","system_id":"levelo_inurba_marseille","lat":43.27214,"lon":5.39189,"is_reserved":false,"is_disabled":false,"rental_uris":{"android":"levelo://app?vid=1f386b45-c499-4f11-aa05-5cde7fee3512","ios":"levelo://app?vid=1f386b45-c499-4f11-aa05-5cde7fee3512"},"vehicle_type_id":"4","last_reported":1736269699,"current_range_meters":2800,"station_id":"ce4bhhp2rcd13ifvqfm0","pricing_plan_id":"cebpf4jnsgd1na2vs0mg"},{"bike_id":"5318e8f2-83b0-49a3-8e76-93c11002be4f","system_id":"levelo_inurba_marseille","lat":43.29263,"lon":5.40122,"is_reserved":false,"is_disabled":true,"rental_uris":{"android":"levelo://app?vid=5318e8f2-83b0-49a3-8e76-93c11002be4f","ios":"levelo://app?vid=5318e8f2-83b0-49a3-8e76-93c11002be4f"},"vehicle_type_id":"4","last_reported":1736269699,"current_range_meters":38800,"station_id":"ce4bh312rcd13ifvqdk0","pricing_plan_id":"cebpf4jnsgd1na2vs0mg"},{"bike_id":"9774af7f-1002-4ab0-9462-48fa84b867bc","system_id":"levelo_inurba_marseille","lat":43.268057,"lon":5.402608,"is_reserved":false,"is_disabled":false,"rental_uris":{"android":"levelo://app?vid=9774af7f-1002-4ab0-9462-48fa84b867bc","ios":"levelo://app?vid=9774af7f-1002-4ab0-9462-48fa84b867bc"},"vehicle_type_id":"4","last_reported":1736269699,"current_range_meters":23200,"station_id":"ce501612rcd8frsf0b60","pricing_plan_id":"cebpf4jnsgd1na2vs0mg"},{"bike_id":"89094339-9e29-4fc6-a078-8661bb32adf2","system_id":"levelo_inurba_marseille","lat":43.2558,"lon":5.38242,"is_reserved":false,"is_disabled":false,"rental_uris":{"android":"levelo://app?vid=89094339-9e29-4fc6-a078-8661bb32adf2","ios":"levelo://app?vid=89094339-9e29-4fc6-a078-8661bb32adf2"},"vehicle_type_id":"4","last_reported":1736269699,"current_range_meters":22800,"station_id":"ce4bhih2rcd13ifvqfs0","pricing_plan_id":"cebpf4jnsgd1na2vs0mg"},{"bike_id":"ba1b008c-7986-4493-8ff1-8337d45a4978","system_id":"levelo_inurba_marseille","lat":43.25,"lon":5.38926,"is_reserved":false,"is_disabled":false,"rental_uris":{"android":"levelo://app?vid=ba1b008c-7986-4493-8ff1-8337d45a4978","ios":"levelo://app?vid=ba1b008c-7986-4493-8ff1-8337d45a4978"},"vehicle_type_id":"4","last_reported":1736269699,"current_range_meters":18000,"station_id":"ce4bhgp2rcd13ifvqfd0","pricing_plan_id":"cebpf4jnsgd1na2vs0mg"},{"bike_id":"970641cf-3daf-4b2a-b81b-32761748adbb","system_id":"levelo_inurba_marseille","lat":43.24164,"lon":5.36391,"is_reserved":false,"is_disabled":false,"rental_uris":{"android":"levelo://app?vid=970641cf-3daf-4b2a-b81b-32761748adbb","ios":"levelo://app?vid=970641cf-3daf-4b2a-b81b-32761748adbb"},"vehicle_type_id":"4","last_reported":1736269699,"current_range_meters":27600,"station_id":"cpo36qri1sfpv3e86is0","pricing_plan_id":"cebpf4jnsgd1na2vs0mg"},{"bike_id":"16241549-9c01-49ad-b3ea-d0ca2013c8e7","system_id":"levelo_inurba_marseille","lat":43.24662,"lon":5.38167,"is_reserved":false,"is_disabled":false,"rental_uris":{"android":"levelo://app?vid=16241549-9c01-49ad-b3ea-d0ca2013c8e7","ios":"levelo://app?vid=16241549-9c01-49ad-b3ea-d0ca2013c8e7"},"vehicle_type_id":"4","last_reported":1736269699,"current_range_meters":26000,"station_id":"ce4bhih2rcd13ifvqfr0","pricing_plan_id":"cebpf4jnsgd1na2vs0mg"},{"bike_id":"7cbd1b12-7362-4c7f-bd26-6f356dd5183a","system_id":"levelo_inurba_marseille","lat":43.28089,"lon":5.37857,"is_reserved":false,"is_disabled":false,"rental_uris":{"android":"levelo://app?vid=7cbd1b12-7362-4c7f-bd26-6f356dd5183a","ios":"levelo://app?vid=7cbd1b12-7362-4c7f-bd26-6f356dd5183a"},"vehicle_type_id":"4","last_reported":1736269699,"current_range_meters":12400,"station_id":"ce4bha12rcd13ifvqee0","pricing_plan_id":"cebpf4jnsgd1na2vs0mg"},{"bike_id":"3a3958f8-8655-4cf6-b276-bc6929741bb3","system_id":"levelo_inurba_marseille","lat":43.30638,"lon":5.40082,"is_reserved":false,"is_disabled":false,"rental_uris":{"android":"levelo://app?vid=3a3958f8-8655-4cf6-b276-bc6929741bb3","ios":"levelo://app?vid=3a3958f8-8655-4cf6-b276-bc6929741bb3"},"vehicle_type_id":"4","last_reported":1736269699,"current_range_meters":30400,"station_id":"ce4bh112rcd13ifvqda0","pricing_plan_id":"cebpf4jnsgd1na2vs0mg"},{"bike_id":"87670b8a-b203-4726-8f81-7724df3456a6","system_id":"levelo_inurba_marseille","lat":43.29443,"lon":5.39746,"is_reserved":false,"is_disabled":false,"rental_uris":{"android":"levelo://app?vid=87670b8a-b203-4726-8f81-7724df3456a6","ios":"levelo://app?vid=87670b8a-b203-4726-8f81-7724df3456a6"},"vehicle_type_id":"4","last_reported":1736269699,"current_range_meters":37600,"station_id":"ce4bh3h2rcd13ifvqdo0","pricing_plan_id":"cebpf4jnsgd1na2vs0mg"},{"bike_id":"d16180a6-2346-463f-8c07-0024b5fd36cc","system_id":"levelo_inurba_marseille","lat":43.26557,"lon":5.37321,"is_reserved":false,"is_disabled":false,"rental_uris":{"android":"levelo://app?vid=d16180a6-2346-463f-8c07-0024b5fd36cc","ios":"levelo://app?vid=d16180a6-2346-463f-8c07-0024b5fd36cc"},"vehicle_type_id":"4","last_reported":1736269699,"current_range_meters":6400,"station_id":"ce4bhg12rcd13ifvqf70","pricing_plan_id":"cebpf4jnsgd1na2vs0mg"},{"bike_id":"27b98d1f-2203-481b-8e3e-1ba615938c6e","system_id":"levelo_inurba_marseille","lat":43.31365,"lon":5.38497,"is_reserved":false,"is_disabled":true,"rental_uris":{"android":"levelo://app?vid=27b98d1f-2203-481b-8e3e-1ba615938c6e","ios":"levelo://app?vid=27b98d1f-2203-481b-8e3e-1ba615938c6e"},"vehicle_type_id":"4","last_reported":1736269699,"current_range_meters":2000,"station_id":"ce4bgt92rcd13ifvqcf0","pricing_plan_id":"cebpf4jnsgd1na2vs0mg"},{"bike_id":"a7f254bb-baca-4040-9384-9f30dbda399d","system_id":"levelo_inurba_marseille","lat":43.29532,"lon":5.39028,"is_reserved":false,"is_disabled":false,"rental_uris":{"android":"levelo://app?vid=a7f254bb-baca-4040-9384-9f30dbda399d","ios":"levelo://app?vid=a7f254bb-baca-4040-9384-9f30dbda399d"},"vehicle_type_id":"4","last_reported":1736269699,"current_range_meters":28800,"station_id":"ce4bh3p2rcd13ifvqdp0","pricing_plan_id":"cebpf4jnsgd1na2vs0mg"},{"bike_id":"866702ae-17c1-4a21-9c75-997ac34ac385","system_id":"levelo_inurba_marseille","lat":43.28616,"lon":5.35094,"is_reserved":false,"is_disabled":false,"rental_uris":{"android":"levelo://app?vid=866702ae-17c1-4a21-9c75-997ac34ac385","ios":"levelo://app?vid=866702ae-17c1-4a21-9c75-997ac34ac385"},"vehicle_type_id":"4","last_reported":1736269699,"current_range_meters":38800,"station_id":"ce4bhch2rcd13ifvqeug","pricing_plan_id":"cebpf4jnsgd1na2vs0mg"},{"bike_id":"62899455-3efd-478b-87d3-07a8cc5b2339","system_id":"levelo_inurba_marseille","lat":43.28397,"lon":5.37531,"is_reserved":false,"is_disabled":false,"rental_uris":{"android":"levelo://app?vid=62899455-3efd-478b-87d3-07a8cc5b2339","ios":"levelo://app?vid=62899455-3efd-478b-87d3-07a8cc5b2339"},"vehicle_type_id":"4","last_reported":1736269699,"current_range_meters":38800,"station_id":"ce4bh412rcd13ifvqds0","pricing_plan_id":"cebpf4jnsgd1na2vs0mg"},{"bike_id":"c696961b-679a-421a-9f42-afbc9952083b","system_id":"levelo_inurba_marseille","lat":43.2471,"lon":5.38128,"is_reserved":false,"is_disabled":false,"rental_uris":{"android":"levelo://app?vid=c696961b-679a-421a-9f42-afbc9952083b","ios":"levelo://app?vid=c696961b-679a-421a-9f42-afbc9952083b"},"vehicle_type_id":"4","last_reported":1736269699,"current_range_meters":24000,"station_id":"","pricing_plan_id":"cebpf4jnsgd1na2vs0mg"},{"bike_id":"f3ca5878-803e-45b7-b966-de6e0a3a1c15","system_id":"levelo_inurba_marseille","lat":43.29706,"lon":5.3658,"is_reserved":false,"is_disabled":false,"rental_uris":{"android":"levelo://app?vid=f3ca5878-803e-45b7-b966-de6e0a3a1c15","ios":"levelo://app?vid=f3ca5878-803e-45b7-b966-de6e0a3a1c15"},"vehicle_type_id":"4","last_reported":1736269699,"current_range_meters":9200,"station_id":"ce4bgn12rcd13ifvqbt0","pricing_plan_id":"cebpf4jnsgd1na2vs0mg"},{"bike_id":"7604fc33-0cf9-44b8-be31-000a1d0d9698","system_id":"levelo_inurba_marseille","lat":43.29199,"lon":5.39326,"is_reserved":false,"is_disabled":true,"rental_uris":{"android":"levelo://app?vid=7604fc33-0cf9-44b8-be31-000a1d0d9698","ios":"levelo://app?vid=7604fc33-0cf9-44b8-be31-000a1d0d9698"},"vehicle_type_id":"4","last_reported":1736269699,"current_range_meters":800,"station_id":"ce4bh192rcd13ifvqdd0","pricing_plan_id":"cebpf4jnsgd1na2vs0mg"},{"bike_id":"43a1a421-903d-403d-9cb1-c0b424b4fd29","system_id":"levelo_inurba_marseille","lat":43.24665,"lon":5.38163,"is_reserved":false,"is_disabled":false,"rental_uris":{"android":"levelo://app?vid=43a1a421-903d-403d-9cb1-c0b424b4fd29","ios":"levelo://app?vid=43a1a421-903d-403d-9cb1-c0b424b4fd29"},"vehicle_type_id":"4","last_reported":1736269699,"current_range_meters":7200,"station_id":"ce4bhih2rcd13ifvqfr0","pricing_plan_id":"cebpf4jnsgd1na2vs0mg"},{"bike_id":"d4eaeec0-bbb2-4d4d-b6ee-e4ad85618a29","system_id":"levelo_inurba_marseille","lat":43.2865,"lon":5.36353,"is_reserved":false,"is_disabled":false,"rental_uris":{"android":"levelo://app?vid=d4eaeec0-bbb2-4d4d-b6ee-e4ad85618a29","ios":"levelo://app?vid=d4eaeec0-bbb2-4d4d-b6ee-e4ad85618a29"},"vehicle_type_id":"4","last_reported":1736269699,"current_range_meters":8400,"station_id":"ce4bhah2rcd13ifvqej0","pricing_plan_id":"cebpf4jnsgd1na2vs0mg"},{"bike_id":"4b50253b-26c6-446e-a152-a358a160bf58","system_id":"levelo_inurba_marseille","lat":43.28451,"lon":5.35896,"is_reserved":false,"is_disabled":false,"rental_uris":{"android":"levelo://app?vid=4b50253b-26c6-446e-a152-a358a160bf58","ios":"levelo://app?vid=4b50253b-26c6-446e-a152-a358a160bf58"},"vehicle_type_id":"4","last_reported":1736269699,"current_range_meters":15200,"station_id":"ce4bhah2rcd13ifvqei0","pricing_plan_id":"cebpf4jnsgd1na2vs0mg"},{"bike_id":"4f9e443f-57ce-4add-8fb9-354f3b73bc57","system_id":"levelo_inurba_marseille","lat":43.30531,"lon":5.36554,"is_reserved":false,"is_disabled":true,"rental_uris":{"android":"levelo://app?vid=4f9e443f-57ce-4add-8fb9-354f3b73bc57","ios":"levelo://app?vid=4f9e443f-57ce-4add-8fb9-354f3b73bc57"},"vehicle_type_id":"4","last_reported":1736269699,"current_range_meters":1600,"station_id":"ce4bgs12rcd13ifvqcag","pricing_plan_id":"cebpf4jnsgd1na2vs0mg"},