{"last_updated":1725044804,"ttl":30,"version":"2.2","data":{"bikes":[{"bike_id":"f0a20491-bcc1-434c-912b-572370614630","system_id":"levelo_inurba_marseille","lat":43.313391,"lon":5.36706,"is_reserved":false,"is_disabled":false,"rental_uris":{"android":"levelo://app?vid=f0a20491-bcc1-434c-912b-572370614630","ios":"levelo://app?vid=f0a20491-bcc1-434c-912b-572370614630"},"vehicle_type_id":"4","last_reported":1725044805,"current_range_meters":0,"station_id":"ce4bgr92rcd13ifvqc6g","pricing_plan_id":"cebpf4jnsgd1na2vs0mg"},{"bike_id":"d96ac8fa-9fb6-42ad-a137-bc3bedca0c0e","system_id":"levelo_inurba_marseille","lat":43.312239,"lon":5.368562,"is_reserved":false,"is_disabled":false,"rental_uris":{"android":"levelo://app?vid=d96ac8fa-9fb6-42ad-a137-bc3bedca0c0e","ios":"levelo://app?vid=d96ac8fa-9fb6-42ad-a137-bc3bedca0c0e"},"vehicle_type_id":"4","last_reported":1725044805,"current_range_meters":16400,"station_id":"ce4bgl92rcd13ifvqbq0","pricing_plan_id":"cebpf4jnsgd1na2vs0mg"},{"bike_id":"8e7cb739-5af2-4cd4-bd39-aa63752bcbc7","system_id":"levelo_inurba_marseille","lat":43.312239,"lon":5.368562,"is_reserved":false,"is_disabled":false,"rental_uris":{"android":"levelo://app?vid=8e7cb739-5af2-4cd4-bd39-aa63752bcbc7","ios":"levelo://app?vid=8e7cb739-5af2-4cd4-bd39-aa63752bcbc7"},"vehicle_type_id":"4","last_reported":1725044805,"current_range_meters":27600,"station_id":"ce4bgl92rcd13ifvqbq0","pricing_plan_id":"cebpf4jnsgd1na2vs0mg"},{"bike_id":"fcd370d8-acf6-4a8a-88bc-39c99b9ca03d","system_id":"levelo_inurba_marseille","lat":43.312353,"lon":5.368563,"is_reserved":false,"is_disabled":false,"rental_uris":{"android":"levelo://app?vid=fcd370d8-acf6-4a8a-88bc-39c99b9ca03d","ios":"levelo://app?vid=fcd370d8-acf6-4a8a-88bc-39c99b9ca03d"},"vehicle_type_id":"4","last_reported":1725044805,"current_range_meters":800,"station_id":"ce4bgl92rcd13ifvqbq0","pricing_plan_id":"cebpf4jnsgd1na2vs0mg"},{"bike_id":"02e6efb3-2844-4e2b-85c8-d8e84d1b71b2","system_id":"levelo_inurba_marseille","lat":43.3122,"lon":5.36864,"is_reserved":false,"is_disabled":false,"rental_uris":{"android":"levelo://app?vid=02e6efb3-2844-4e2b-85c8-d8e84d1b71b2","ios":"levelo://app?vid=02e6efb3-2844-4e2b-85c8-d8e84d1b71b2"},"vehicle_type_id":"4","last_reported":1725044805,"current_range_meters":12800,"station_id":"ce4bgl92rcd13ifvqbq0","pricing_plan_id":"cebpf4jnsgd1na2vs0mg"},{"bike_id":"62bd8238-6be8-494a-a2e9-74d1bffbc4a1","system_id":"levelo_inurba_marseille","lat":43.312239,"lon":5.368562,"is_reserved":false,"is_disabled":false,"rental_uris":{"android":"levelo://app?vid=62bd8238-6be8-494a-a2e9-74d1bffbc4a1","ios":"levelo://app?vid=62bd8238-6be8-494a-a2e9-74d1bffbc4a1"},"vehicle_type_id":"4","last_reported":1725044805,"current_range_meters":11600,"station_id":"ce4bgl92rcd13ifvqbq0","pricing_plan_id":"cebpf4jnsgd1na2vs0mg"},{"bike_id":"02c757a9-42a9-4270-b9f1-a82937e415b2","system_id":"levelo_inurba_marseille","lat":43.314811,"lon":5.373103,"is_reserved":false,"is_disabled":false,"rental_uris":{"android":"levelo://app?vid=02c757a9-42a9-4270-b9f1-a82937e415b2","ios":"levelo://app?vid=02c757a9-42a9-4270-b9f1-a82937e415b2"},"vehicle_type_id":"4","last_reported":1725044805,"current_range_meters":20800,"station_id":"ce4bgt12rcd13ifvqcd0","pricing_plan_id":"cebpf4jnsgd1na2vs0mg"},{"bike_id":"d5371659-0c29-4e60-953a-4524716ff612","system_id":"levelo_inurba_marseille","lat":43.314811,"lon":5.373103,"is_reserved":false,"is_disabled":false,"rental_uris":{"android":"levelo://app?vid=d5371659-0c29-4e60-953a-4524716ff612","ios":"levelo://app?vid=d5371659-0c29-4e60-953a-4524716ff612"},"vehicle_type_id":"4","last_reported":1725044805,"current_range_meters":0,"station_id":"ce4bgt12rcd13ifvqcd0","pricing_plan_id":"cebpf4jnsgd1na2vs0mg"},{"bike_id":"ea683309-e8f0-4ac5-a80b-149b052e94ba","system_id":"levelo_inurba_marseille","lat":43.31493,"lon":5.37309,"is_reserved":false,"is_disabled":false,"rental_uris":{"android":"levelo://app?vid=ea683309-e8f0-4ac5-a80b-149b052e94ba","ios":"levelo://app?vid=ea683309-e8f0-4ac5-a80b-149b052e94ba"},"vehicle_type_id":"4","last_reported":1725044805,"current_range_meters":0,"station_id":"ce4bgt12rcd13ifvqcd0","pricing_plan_id":"cebpf4jnsgd1na2vs0mg"},{"bike_id":"e7f9ea1d-5cb1-4eab-a07c-c82ddb04a486","system_id":"levelo_inurba_marseille","lat":43.31494,"lon":5.3731,"is_reserved":false,"is_disabled":false,"rental_uris":{"android":"levelo://app?vid=e7f9ea1d-5cb1-4eab-a07c-c82ddb04a486","ios":"levelo://app?vid=e7f9ea1d-5cb1-4eab-a07c-c82ddb04a486"},"vehicle_type_id":"4","last_reported":1725044805,"current_range_meters":11200,"station_id":"ce4bgt12rcd13ifvqcd0","pricing_plan_id":"cebpf4jnsgd1na2vs0mg"},{"bike_id":"d34ef517-84a3-41ec-9203-4e7caf0586d8","system_id":"levelo_inurba_marseille","lat":43.309034,"lon":5.371783,"is_reserved":false,"is_disabled":false,"rental_uris":{"android":"levelo://app?vid=d34ef517-84a3-41ec-9203-4e7caf0586d8","ios":"levelo://app?vid=d34ef517-84a3-41ec-9203-4e7caf0586d8"},"vehicle_type_id":"4","last_reported":1725044805,"current_range_meters":0,"station_id":"ce4bguh2rcd13ifvqckg","pricing_plan_id":"cebpf4jnsgd1na2vs0mg"},{"bike_id":"fb66dda6-3721-4464-b3a9-2fdd4b8c4175","system_id":"levelo_inurba_marseille","lat":43.309034,"lon":5.371783,"is_reserved":false,"is_disabled":false,"rental_uris":{"android":"levelo://app?vid=fb66dda6-3721-4464-b3a9-2fdd4b8c4175","ios":"levelo://app?vid=fb66dda6-3721-4464-b3a9-2fdd4b8c4175"},"vehicle_type_id":"4","last_reported":1725044805,"current_range_meters":14400,"station_id":"ce4bguh2rcd13ifvqckg","pricing_plan_id":"cebpf4jnsgd1na2vs0mg"},{"bike_id":"c4a51e9b-a18f-4595-815f-bf158e850035","system_id":"levelo_inurba_marseille","lat":43.309039,"lon":5.371797,"is_reserved":false,"is_disabled":false,"rental_uris":{"android":"levelo://app?vid=c4a51e9b-a18f-4595-815f-bf158e850035","ios":"levelo://app?vid=c4a51e9b-a18f-4595-815f-bf158e850035"},"vehicle_type_id":"4","last_reported":1725044805,"current_range_meters":0,"station_id":"ce4bguh2rcd13ifvqckg","pricing_plan_id":"cebpf4jnsgd1na2vs0mg"},{"bike_id":"aa038c47-f36e-4e1c-9dcb-cd3e2085bfe1","system_id":"levelo_inurba_marseille","lat":43.31766,"lon":5.37213,"is_reserved":false,"is_disabled":false,"rental_uris":{"android":"levelo://app?vid=aa038c47-f36e-4e1c-9dcb-cd3e2085bfe1","ios":"levelo://app?vid=aa038c47-f36e-4e1c-9dcb-cd3e2085bfe1"},"vehicle_type_id":"4","last_reported":1725044805,"current_range_meters":18400,"station_id":"","pricing_plan_id":"cebpf4jnsgd1na2vs0mg"},{"bike_id":"07bc7729-9ab6-4b9e-ada4-f85d3afff4bc","system_id":"levelo_inurba_marseille","lat":43.31939,"lon":5.37099,"is_reserved":false,"is_disabled":false,"rental_uris":{"android":"levelo://app?vid=07bc7729-9ab6-4b9e-ada4-f85d3afff4bc","ios":"levelo://app?vid=07bc7729-9ab6-4b9e-ada4-f85d3afff4bc"},"vehicle_type_id":"4","last_reported":1725044805,"current_range_meters":6000,"station_id":"","pricing_plan_id":"cebpf4jnsgd1na2vs0mg"},{"bike_id":"cdbea09b-f131-44fe-bb0b-0061ac804da1","system_id":"levelo_inurba_marseille","lat":43.305714,"lon":5.365633,"is_reserved":false,"is_disabled":false,"rental_uris":{"android":"levelo://app?vid=cdbea09b-f131-44fe-bb0b-0061ac804da1","ios":"levelo://app?vid=cdbea09b-f131-44fe-bb0b-0061ac804da1"},"vehicle_type_id":"4","last_reported":1725044805,"current_range_meters":30800,"station_id":"ce4bgs12rcd13ifvqcag","pricing_plan_id":"cebpf4jnsgd1na2vs0mg"},{"bike_id":"a6b08d8c-d5b1-46a9-b3ff-dc7f8c7adfc4","system_id":"levelo_inurba_marseille","lat":43.305989,"lon":5.37225,"is_reserved":false,"is_disabled":false,"rental_uris":{"android":"levelo://app?vid=a6b08d8c-d5b1-46a9-b3ff-dc7f8c7adfc4","ios":"levelo://app?vid=a6b08d8c-d5b1-46a9-b3ff-dc7f8c7adfc4"},"vehicle_type_id":"4","last_reported":1725044805,"current_range_meters":22000,"station_id":"ce4bgqh2rcd13ifvqc4g","pricing_plan_id":"cebpf4jnsgd1na2vs0mg"},{"bike_id":"ff5a1d49-4f89-4817-972a-ec26da154dcc","system_id":"levelo_inurba_marseille","lat":43.305989,"lon":5.37225,"is_reserved":false,"is_disabled":false,"rental_uris":{"android":"levelo://app?vid=ff5a1d49-4f89-4817-972a-ec26da154dcc","ios":"levelo://app?vid=ff5a1d49-4f89-4817-972a-ec26da154dcc"},"vehicle_type_id":"4","last_reported":1725044805,"current_range_meters":16400,"station_id":"ce4bgqh2rcd13ifvqc4g","pricing_plan_id":"cebpf4jnsgd1na2vs0mg"},{"bike_id":"62a9883c-478e-492b-81ab-1132233e8e37","system_id":"levelo_inurba_marseille","lat":43.307945,"lon":5.376487,"is_reserved":false,"is_disabled":false,"rental_uris":{"android":"levelo://app?vid=62a9883c-478e-492b-81ab-1132233e8e37","ios":"levelo://app?vid=62a9883c-478e-492b-81ab-1132233e8e37"},"vehicle_type_id":"4","last_reported":1725044805,"current_range_meters":1200,"station_id":"ce4bgv92rcd13ifvqcq0","pricing_plan_id":"cebpf4jnsgd1na2vs0mg"},{"bike_id":"3ce3a9f8-f0ed-4b34-9e53-7051b7529b16","system_id":"levelo_inurba_marseille","lat":43.311131,"lon":5.377651,"is_reserved":false,"is_disabled":false,"rental_uris":{"android":"levelo://app?vid=3ce3a9f8-f0ed-4b34-9e53-7051b7529b16","ios":"levelo://app?vid=3ce3a9f8-f0ed-4b34-9e53-7051b7529b16"},"vehicle_type_id":"4","last_reported":1725044805,"current_range_meters":0,"station_id":"ce4bgt92rcd13ifvqcg0","pricing_plan_id":"cebpf4jnsgd1na2vs0mg"},{"bike_id":"116326d3-99b0-42d9-9e17-f6e02b0df00e","system_id":"levelo_inurba_marseille","lat":43.303046,"lon":5.368981,"is_reserved":false,"is_disabled":false,"rental_uris":{"android":"levelo://app?vid=116326d3-99b0-42d9-9e17-f6e02b0df00e","ios":"levelo://app?vid=116326d3-99b0-42d9-9e17-f6e02b0df00e"},"vehicle_type_id":"4","last_reported":1725044805,"current_range_meters":0,"station_id":"ce4bgqh2rcd13ifvqc5g","pricing_plan_id":"cebpf4jnsgd1na2vs0mg"},{"bike_id":"e6d8970a-4a3d-478d-9f07-95fe1153722b","system_id":"levelo_inurba_marseille","lat":43.303046,"lon":5.368981,"is_reserved":false,"is_disabled":false,"rental_uris":{"android":"levelo://app?vid=e6d8970a-4a3d-478d-9f07-95fe1153722b","ios":"levelo://app?vid=e6d8970a-4a3d-478d-9f07-95fe1153722b"},"vehicle_type_id":"4","last_reported":1725044805,"current_range_meters":28800,"station_id":"ce4bgqh2rcd13ifvqc5g","pricing_plan_id":"cebpf4jnsgd1na2vs0mg"},{"bike_id":"5ca4cc43-498b-4654-a118-91e805e7be3b","system_id":"levelo_inurba_marseille","lat":43.315289,"lon":5.380349,"is_reserved":false,"is_disabled":false,"rental_uris":{"android":"levelo://app?vid=5ca4cc43-498b-4654-a118-91e805e7be3b","ios":"levelo://app?vid=5ca4cc43-498b-4654-a118-91e805e7be3b"},"vehicle_type_id":"4","last_reported":1725044805,"current_range_meters":12800,"station_id":"ce4bhsp2rcd13ifvqi50","pricing_plan_id":"cebpf4jnsgd1na2vs0mg"},{"bike_id":"d90d8d67-b003-4c76-994c-5d7041e20d8c","system_id":"levelo_inurba_marseille","lat":43.315289,"lon":5.380349,"is_reserved":false,"is_disabled":false,"rental_uris":{"android":"levelo://app?vid=d90d8d67-b003-4c76-994c-5d7041e20d8c","ios":"levelo://app?vid=d90d8d67-b003-4c76-994c-5d7041e20d8c"},"vehicle_type_id":"4","last_reported":1725044805,"current_range_meters":18400,"station_id":"ce4bhsp2rcd13ifvqi50","pricing_plan_id":"cebpf4jnsgd1na2vs0mg"},{"bike_id":"d903db05-9f9d-41c6-bd24-8e0c49288891","system_id":"levelo_inurba_marseille","lat":43.315289,"lon":5.380349,"is_reserved":false,"is_disabled":false,"rental_uris":{"android":"levelo://app?vid=d903db05-9f9d-41c6-bd24-8e0c49288891","ios":"levelo://app?vid=d903db05-9f9d-41c6-bd24-8e0c49288891"},"vehicle_type_id":"4","last_reported":1725044805,"current_range_meters":400,"station_id":"ce4bhsp2rcd13ifvqi50","pricing_plan_id":"cebpf4jnsgd1na2vs0mg"},{"bike_id":"54945ff4-7e72-41ce-8646-cbb3f6ff9ee1","system_id":"levelo_inurba_marseille","lat":43.315289,"lon":5.380349,"is_reserved":false,"is_disabled":false,"rental_uris":{"android":"levelo://app?vid=54945ff4-7e72-41ce-8646-cbb3f6ff9ee1","ios":"levelo://app?vid=54945ff4-7e72-41ce-8646-cbb3f6ff9ee1"},"vehicle_type_id":"4","last_reported":1725044805,"current_range_meters":1200,"station_id":"ce4bhsp2rcd13ifvqi50","pricing_plan_id":"cebpf4jnsgd1na2vs0mg"},{"bike_id":"5fa3ee5f-b6b3-4d43-b480-f6a366002579","system_id":"levelo_inurba_marseille","lat":43.301939,"lon":5.366286,"is_reserved":false,"is_disabled":false,"rental_uris":{"android":"levelo://app?vid=5fa3ee5f-b6b3-4d43-b480-f6a366002579","ios":"levelo://app?vid=5fa3ee5f-b6b3-4d43-b480-f6a366002579"},"vehicle_type_id":"4","last_reported":1725044805,"current_range_meters":19600,"station_id":"ce4bgrh2rcd13ifvqc8g","pricing_plan_id":"cebpf4jnsgd1na2vs0mg"},{"bike_id":"1d63310c-b69b-4d63-a4dc-09257be83115","system_id":"levelo_inurba_marseille","lat":43.30123,"lon":5.37017,"is_reserved":false,"is_disabled":false,"rental_uris":{"android":"levelo://app?vid=1d63310c-b69b-4d63-a4dc-09257be83115","ios":"levelo://app?vid=1d63310c-b69b-4d63-a4dc-09257be83115"},"vehicle_type_id":"4","last_reported":1725044805,"current_range_meters":0,"station_id":"","pricing_plan_id":"cebpf4jnsgd1na2vs0mg"},{"bike_id":"578cb591-cd29-48bb-a1ab-ad4d04f77e86","system_id":"levelo_inurba_marseille","lat":43.324771,"lon":5.36557,"is_reserved":false,"is_disabled":false,"rental_uris":{"android":"levelo://app?vid=578cb591-cd29-48bb-a1ab-ad4d04f77e86","ios":"levelo://app?vid=578cb591-cd29-48bb-a1ab-ad4d04f77e86"},"vehicle_type_id":"4","last_reported":1725044805,"current_range_meters":2000,"station_id":"ce4bhs12rcd13ifvqhvg","pricing_plan_id":"cebpf4jnsgd1na2vs0mg"},{"bike_id":"f2d73989-7cdf-4ab8-9590-a46aeda56425","system_id":"levelo_inurba_marseille","lat":43.324771,"lon":5.36557,"is_reserved":false,"is_disabled":false,"rental_uris":{"android":"levelo://app?vid=f2d73989-7cdf-4ab8-9590-a46aeda56425","ios":"levelo://app?vid=f2d73989-7cdf-4ab8-9590-a46aeda56425"},"vehicle_type_id":"4","last_reported":1725044805,"current_range_meters":26800,"station_id":"ce4bhs12rcd13ifvqhvg","pricing_plan_id":"cebpf4jnsgd1na2vs0mg"},{"bike_id":"c3651930-ae60-42ab-bc1f-c2354c8a09a6","system_id":"levelo_inurba_marseille","lat":43.324771,"lon":5.36557,"is_reserved":false,"is_disabled":false,"rental_uris":{"android":"levelo://app?vid=c3651930-ae60-42ab-bc1f-c2354c8a09a6","ios":"levelo://app?vid=c3651930-ae60-42ab-bc1f-c2354c8a09a6"},"vehicle_type_id":"4","last_reported":1725044805,"current_range_meters":17600,"station_id":"ce4bhs12rcd13ifvqhvg","pricing_plan_id":"cebpf4jnsgd1na2vs0mg"},{"bike_id":"06008878-b8d0-4a3e-b418-0781aef46bcb","system_id":"levelo_inurba_marseille","lat":43.324771,"lon":5.36557,"is_reserved":false,"is_disabled":false,"rental_uris":{"android":"levelo://app?vid=06008878-b8d0-4a3e-b418-0781aef46bcb","ios":"levelo://app?vid=06008878-b8d0-4a3e-b418-0781aef46bcb"},"vehicle_type_id":"4","last_reported":1725044805,"current_range_meters":14800,"station_id":"ce4bhs12rcd13ifvqhvg","pricing_plan_id":"cebpf4jnsgd1na2vs0mg"},{"bike_id":"d7c3aba0-47c8-4e40-89f2-af327f08efb5","system_id":"levelo_inurba_marseille","lat":43.324771,"lon":5.36557,"is_reserved":false,"is_disabled":false,"rental_uris":{"android":"levelo://app?vid=d7c3aba0-47c8-4e40-89f2-af327f08efb5","ios":"levelo://app?vid=d7c3aba0-47c8-4e40-89f2-af327f08efb5"},"vehicle_type_id":"4","last_reported":1725044805,"current_range_meters":25200,"station_id":"ce4bhs12rcd13ifvqhvg","pricing_plan_id":"cebpf4jnsgd1na2vs0mg"},{"bike_id":"92373f66-917f-48ec-9e13-1b0c3bc2756f","system_id":"levelo_inurba_marseille","lat":43.324771,"lon":5.36557,"is_reserved":false,"is_disabled":false,"rental_uris":{"android":"levelo://app?vid=92373f66-917f-48ec-9e13-1b0c3bc2756f","ios":"levelo://app?vid=92373f66-917f-48ec-9e13-1b0c3bc2756f"},"vehicle_type_id":"4","last_reported":1725044805,"current_range_meters":15600,"station_id":"ce4bhs12rcd13ifvqhvg","pricing_plan_id":"cebpf4jnsgd1na2vs0mg"},{"bike_id":"74ebed37-9786-4dd4-9749-d296717c0e1b","system_id":"levelo_inurba_marseille","lat":43.324771,"lon":5.36557,"is_reserved":false,"is_disabled":false,"rental_uris":{"android":"levelo://app?vid=74ebed37-9786-4dd4-9749-d296717c0e1b","ios":"levelo://app?vid=74ebed37-9786-4dd4-9749-d296717c0e1b"},"vehicle_type_id":"4","last_reported":1725044805,"current_range_meters":28800,"station_id":"ce4bhs12rcd13ifvqhvg","pricing_plan_id":"cebpf4jnsgd1na2vs0mg"},{"bike_id":"074b6f93-784c-408b-8123-782bd891a425","system_id":"levelo_inurba_marseille","lat":43.31688,"lon":5.38269,"is_reserved":false,"is_disabled":false,"rental_uris":{"android":"levelo://app?vid=074b6f93-784c-408b-8123-782bd891a425","ios":"levelo://app?vid=074b6f93-784c-408b-8123-782bd891a425"},"vehicle_type_id":"4","last_reported":1725044805,"current_range_meters":31200,"station_id":"","pricing_plan_id":"cebpf4jnsgd1na2vs0mg"},{"bike_id":"9ccc1b58-acdd-4f6d-8a33-b85588bbab55","system_id":"levelo_inurba_marseille","lat":43.310804,"lon":5.38359,"is_reserved":false,"is_disabled":false,"rental_uris":{"android":"levelo://app?vid=9ccc1b58-acdd-4f6d-8a33-b85588bbab55","ios":"levelo://app?vid=9ccc1b58-acdd-4f6d-8a33-b85588bbab55"},"vehicle_type_id":"4","last_reported":1725044805,"current_range_meters":14800,"station_id":"ce4bgv92rcd13ifvqcr0","pricing_plan_id":"cebpf4jnsgd1na2vs0mg"},{"bike_id":"8b6da060-2876-48a7-9fb1-4d334a1963ea","system_id":"levelo_inurba_marseille","lat":43.310804,"lon":5.38359,"is_reserved":false,"is_disabled":false,"rental_uris":{"android":"levelo://app?vid=8b6da060-2876-48a7-9fb1-4d334a1963ea","ios":"levelo://app?vid=8b6da060-2876-48a7-9fb1-4d334a1963ea"},"vehicle_type_id":"4","last_reported":1725044805,"current_range_meters":9600,"station_id":"ce4bgv92rcd13ifvqcr0","pricing_plan_id":"cebpf4jnsgd1na2vs0mg"},{"bike_id":"fdda7338-126f-4367-bc21-f1f890ddbd8e","system_id":"levelo_inurba_marseille","lat":43.30143,"lon":5.37413,"is_reserved":false,"is_disabled":false,"rental_uris":{"android":"levelo://app?vid=fdda7338-126f-4367-bc21-f1f890ddbd8e","ios":"levelo://app?vid=fdda7338-126f-4367-bc21-f1f890ddbd8e"},"vehicle_type_id":"4","last_reported":1725044805,"current_range_meters":5200,"station_id":"ce4bgs92rcd13ifvqcc0","pricing_plan_id":"cebpf4jnsgd1na2vs0mg"},{"bike_id":"6207c27f-7267-4f69-97f7-714a80cfa293","system_id":"levelo_inurba_marseille","lat":43.31984,"lon":5.38146,"is_reserved":false,"is_disabled":false,"rental_uris":{"android":"levelo://app?vid=6207c27f-7267-4f69-97f7-714a80cfa293","ios":"levelo://app?vid=6207c27f-7267-4f69-97f7-714a80cfa293"},"vehicle_type_id":"4","last_reported":1725044805,"current_range_meters":0,"station_id":"","pricing_plan_id":"cebpf4jnsgd1na2vs0mg"},{"bike_id":"6c900060-3683-4f22-8b97-322efb1f887f","system_id":"levelo_inurba_marseille","lat":43.31993,"lon":5.38162,"is_reserved":false,"is_disabled":false,"rental_uris":{"android":"levelo://app?vid=6c900060-3683-4f22-8b97-322efb1f887f","ios":"levelo://app?vid=6c900060-3683-4f22-8b97-322efb1f887f"},"vehicle_type_id":"4","last_reported":1725044805,"current_range_meters":10000,"station_id":"ce4bhr12rcd13ifvqhpg","pricing_plan_id":"cebpf4jnsgd1na2vs0mg"},{"bike_id":"b3cd9f47-b673-4943-8021-cbb46ea73363","system_id":"levelo_inurba_marseille","lat":43.319935,"lon":5.381699,"is_reserved":false,"is_disabled":false,"rental_uris":{"android":"levelo://app?vid=b3cd9f47-b673-4943-8021-cbb46ea73363","ios":"levelo://app?vid=b3cd9f47-b673-4943-8021-cbb46ea73363"},"vehicle_type_id":"4","last_reported":1725044805,"current_range_meters":27200,"station_id":"ce4bhr12rcd13ifvqhpg","pricing_plan_id":"cebpf4jnsgd1na2vs0mg"},{"bike_id":"d294beca-e427-4c7f-96b0-5ffc91088925","system_id":"levelo_inurba_marseille","lat":43.313571,"lon":5.384829,"is_reserved":false,"is_disabled":false,"rental_uris":{"android":"levelo://app?vid=d294beca-e427-4c7f-96b0-5ffc91088925","ios":"levelo://app?vid=d294beca-e427-4c7f-96b0-5ffc91088925"},"vehicle_type_id":"4","last_reported":1725044805,"current_range_meters":0,"station_id":"ce4bgt92rcd13ifvqcf0","pricing_plan_id":"cebpf4jnsgd1na2vs0mg"},{"bike_id":"dc8fcb9e-0e97-4183-9dc9-a7e3c37e45a4","system_id":"levelo_inurba_marseille","lat":43.313571,"lon":5.384829,"is_reserved":false,"is_disabled":false,"rental_uris":{"android":"levelo://app?vid=dc8fcb9e-0e97-4183-9dc9-a7e3c37e45a4","ios":"levelo://app?vid=dc8fcb9e-0e97-4183-9dc9-a7e3c37e45a4"},"vehicle_type_id":"4","last_reported":1725044805,"current_range_meters":10400,"station_id":"ce4bgt92rcd13ifvqcf0","pricing_plan_id":"cebpf4jnsgd1na2vs0mg"},{"bike_id":"8f311356-f3ff-4a8b-9fc8-e6aa22594af9","system_id":"levelo_inurba_marseille","lat":43.313571,"lon":5.384829,"is_reserved":false,"is_disabled":false,"rental_uris":{"android":"levelo://app?vid=8f311356-f3ff-4a8b-9fc8-e6aa22594af9","ios":"levelo://app?vid=8f311356-f3ff-4a8b-9fc8-e6aa22594af9"},"vehicle_type_id":"4","last_reported":1725044805,"current_range_meters":8000,"station_id":"ce4bgt92rcd13ifvqcf0","pricing_plan_id":"cebpf4jnsgd1na2vs0mg"},{"bike_id":"c3d816c2-ff56-4f21-a0ff-f3dafc57212a","system_id":"levelo_inurba_marseille","lat":43.313571,"lon":5.384829,"is_reserved":false,"is_disabled":false,"rental_uris":{"android":"levelo://app?vid=c3d816c2-ff56-4f21-a0ff-f3dafc57212a","ios":"levelo://app?vid=c3d816c2-ff56-4f21-a0ff-f3dafc57212a"},"vehicle_type_id":"4","last_reported":1725044805,"current_range_meters":4000,"station_id":"ce4bgt92rcd13ifvqcf0","pricing_plan_id":"cebpf4jnsgd1na2vs0mg"},{"bike_id":"fb77b344-3651-483d-819f-72752a47f84b","system_id":"levelo_inurba_marseille","lat":43.313571,"lon":5.384829,"is_reserved":false,"is_disabled":false,"rental_uris":{"android":"levelo://app?vid=fb77b344-3651-483d-819f-72752a47f84b","ios":"levelo://app?vid=fb77b344-3651-483d-819f-72752a47f84b"},"vehicle_type_id":"4","last_reported":1725044805,"current_range_meters":0,"station_id":"ce4bgt92rcd13ifvqcf0","pricing_plan_id":"cebpf4jnsgd1na2vs0mg"},{"bike_id":"a7d27263-fa75-4646-b27c-61fd78b2f8f5","system_id":"levelo_inurba_marseille","lat":43.30299,"lon":5.37924,"is_reserved":false,"is_disabled":false,"rental_uris":{"android":"levelo://app?vid=a7d27263-fa75-4646-b27c-61fd78b2f8f5","ios":"levelo://app?vid=a7d27263-fa75-4646-b27c-61fd78b2f8f5"},"vehicle_type_id":"4","last_reported":1725044805,"current_range_meters":3600,"station_id":"","pricing_plan_id":"cebpf4jnsgd1na2vs0mg"},{"bike_id":"8f4139e3-5d99-419d-9eef-14ef0c9460c8","system_id":"levelo_inurba_marseille","lat":43.299724,"lon":5.371829,"is_reserved":false,"is_disabled":false,"rental_uris":{"android":"levelo://app?vid=8f4139e3-5d99-419d-9eef-14ef0c9460c8","ios":"levelo://app?vid=8f4139e3-5d99-419d-9eef-14ef0c9460c8"},"vehicle_type_id":"4","last_reported":1725044805,"current_range_meters":21600,"station_id":"ce4bgr92rcd13ifvqc7g","pricing_plan_id":"cebpf4jnsgd1na2vs0mg"},{"bike_id":"1216705d-21c1-4a2b-8df6-1a3c78605686","system_id":"levelo_inurba_marseille","lat":43.298433,"lon":5.362774,"is_reserved":false,"is_disabled":false,"rental_uris":{"android":"levelo://app?vid=1216705d-21c1-4a2b-8df6-1a3c78605686","ios":"levelo://app?vid=1216705d-21c1-4a2b-8df6-1a3c78605686"},"vehicle_type_id":"4","last_reported":1725044805,"current_range_meters":6000,"station_id":"ce4bgpp2rcd13ifvqc3g","pricing_plan_id":"cebpf4jnsgd1na2vs0mg"},{"bike_id":"3872f15e-eaa2-4f3f-937f-35d1e340b9a8","system_id":"levelo_inurba_marseille","lat":43.298433,"lon":5.362774,"is_reserved":false,"is_disabled":false,"rental_uris":{"android":"levelo://app?vid=3872f15e-eaa2-4f3f-937f-35d1e340b9a8","ios":"levelo://app?vid=3872f15e-eaa2-4f3f-937f-35d1e340b9a8"},"vehicle_type_id":"4","last_reported":1725044805,"current_range_meters":3200,"station_id":"ce4bgpp2rcd13ifvqc3g","pricing_plan_id":"cebpf4jnsgd1na2vs0mg"},{"bike_id":"253429c0-17eb-4492-839f-21e7533549b8","system_id":"levelo_inurba_marseille","lat":43.305364,"lon":5.384119,"is_reserved":false,"is_disabled":false,"rental_uris":{"android":"levelo://app?vid=253429c0-17eb-4492-839f-21e7533549b8","ios":"levelo://app?vid=253429c0-17eb-4492-839f-21e7533549b8"},"vehicle_type_id":"4","last_reported":1725044805,"current_range_meters":17200,"station_id":"ce4bgg92rcd13ifvqb30","pricing_plan_id":"cebpf4jnsgd1na2vs0mg"},{"bike_id":"c747ec41-c815-41eb-a307-4ac52bdc30a2","system_id":"levelo_inurba_marseille","lat":43.311722,"lon":5.387247,"is_reserved":false,"is_disabled":false,"rental_uris":{"android":"levelo://app?vid=c747ec41-c815-41eb-a307-4ac52bdc30a2","ios":"levelo://app?vid=c747ec41-c815-41eb-a307-4ac52bdc30a2"},"vehicle_type_id":"4","last_reported":1725044805,"current_range_meters":11600,"station_id":"ce4bgv12rcd13ifvqcp0","pricing_plan_id":"cebpf4jnsgd1na2vs0mg"},{"bike_id":"826ad176-e756-4396-b240-9b901ce1e107","system_id":"levelo_inurba_marseille","lat":43.301417,"lon":5.3809,"is_reserved":false,"is_disabled":false,"rental_uris":{"android":"levelo://app?vid=826ad176-e756-4396-b240-9b901ce1e107","ios":"levelo://app?vid=826ad176-e756-4396-b240-9b901ce1e107"},"vehicle_type_id":"4","last_reported":1725044805,"current_range_meters":29600,"station_id":"ce4bgjp2rcd13ifvqbh0","pricing_plan_id":"cebpf4jnsgd1na2vs0mg"},{"bike_id":"f7b70646-9334-47a0-a05b-39aaea6f5303","system_id":"levelo_inurba_marseille","lat":43.30144,"lon":5.38087,"is_reserved":false,"is_disabled":false,"rental_uris":{"android":"levelo://app?vid=f7b70646-9334-47a0-a05b-39aaea6f5303","ios":"levelo://app?vid=f7b70646-9334-47a0-a05b-39aaea6f5303"},"vehicle_type_id":"4","last_reported":1725044805,"current_range_meters":31600,"station_id":"","pricing_plan_id":"cebpf4jnsgd1na2vs0mg"},{"bike_id":"3ba6eb57-e622-4d7d-9b55-e426c584823f","system_id":"levelo_inurba_marseille","lat":43.2988,"lon":5.37527,"is_reserved":false,"is_disabled":false,"rental_uris":{"android":"levelo://app?vid=3ba6eb57-e622-4d7d-9b55-e426c584823f","ios":"levelo://app?vid=3ba6eb57-e622-4d7d-9b55-e426c584823f"},"vehicle_type_id":"4","last_reported":1725044805,"current_range_meters":25600,"station_id":"","pricing_plan_id":"cebpf4jnsgd1na2vs0mg"},{"bike_id":"04423703-3fc3-4ba2-b850-e19c3393cb3c","system_id":"levelo_inurba_marseille","lat":43.301417,"lon":5.3809,"is_reserved":false,"is_disabled":false,"rental_uris":{"android":"levelo://app?vid=04423703-3fc3-4ba2-b850-e19c3393cb3c","ios":"levelo://app?vid=04423703-3fc3-4ba2-b850-e19c3393cb3c"},"vehicle_type_id":"4","last_reported":1725044805,"current_range_meters":31200,"station_id":"ce4bgjp2rcd13ifvqbh0","pricing_plan_id":"cebpf4jnsgd1na2vs0mg"},{"bike_id":"68cf4ae2-ddb0-48a5-a183-ec2960fc8fcd","system_id":"levelo_inurba_marseille","lat":43.301417,"lon":5.3809,"is_reserved":false,"is_disabled":false,"rental_uris":{"android":"levelo://app?vid=68cf4ae2-ddb0-48a5-a183-ec2960fc8fcd","ios":"levelo://app?vid=68cf4ae2-ddb0-48a5-a183-ec2960fc8fcd"},"vehicle_type_id":"4","last_reported":1725044805,"current_range_meters":30400,"station_id":"ce4bgjp2rcd13ifvqbh0","pricing_plan_id":"cebpf4jnsgd1na2vs0mg"},{"bike_id":"cb73b66e-dfa6-4f93-80b9-a70c2f549e78","system_id":"levelo_inurba_marseille","lat":43.3229,"lon":5.38257,"is_reserved":false,"is_disabled":false,"rental_uris":{"android":"levelo://app?vid=cb73b66e-dfa6-4f93-80b9-a70c2f549e78","ios":"levelo://app?vid=cb73b66e-dfa6-4f93-80b9-a70c2f549e78"},"vehicle_type_id":"4","last_reported":1725044805,"current_range_meters":23200,"station_id":"ce4bhr12rcd13ifvqhqg","pricing_plan_id":"cebpf4jnsgd1na2vs0mg"},{"bike_id":"2b682bab-cb26-4556-8611-13edf1d37d78","system_id":"levelo_inurba_marseille","lat":43.297794,"lon":5.370888,"is_reserved":false,"is_disabled":false,"rental_uris":{"android":"levelo://app?vid=2b682bab-cb26-4556-8611-13edf1d37d78","ios":"levelo://app?vid=2b682bab-cb26-4556-8611-13edf1d37d78"},"vehicle_type_id":"4","last_reported":1725044805,"current_range_meters":2400,"station_id":"ce4bgop2rcd13ifvqc1g","pricing_plan_id":"cebpf4jnsgd1na2vs0mg"},{"bike_id":"fd72acb5-83ae-4b8d-9994-b6135f8a1d3e","system_id":"levelo_inurba_marseille","lat":43.3229,"lon":5.38267,"is_reserved":false,"is_disabled":false,"rental_uris":{"android":"levelo://app?vid=fd72acb5-83ae-4b8d-9994-b6135f8a1d3e","ios":"levelo://app?vid=fd72acb5-83ae-4b8d-9994-b6135f8a1d3e"},"vehicle_type_id":"4","last_reported":1725044805,"current_range_meters":20000,"station_id":"ce4bhr12rcd13ifvqhqg","pricing_plan_id":"cebpf4jnsgd1na2vs0mg"},{"bike_id":"1a7a1539-a8a4-46be-9a17-2c31df071044","system_id":"levelo_inurba_marseille","lat":43.322872,"lon":5.382756,"is_reserved":false,"is_disabled":false,"rental_uris":{"android":"levelo://app?vid=1a7a1539-a8a4-46be-9a17-2c31df071044","ios":"levelo://app?vid=1a7a1539-a8a4-46be-9a17-2c31df071044"},"vehicle_type_id":"4","last_reported":1725044805,"current_range_meters":28800,"station_id":"ce4bhr12rcd13ifvqhqg","pricing_plan_id":"cebpf4jnsgd1na2vs0mg"},{"bike_id":"e4e931bb-0e96-4d51-b128-d34334c25756","system_id":"levelo_inurba_marseille","lat":43.32289,"lon":5.38269,"is_reserved":false,"is_disabled":false,"rental_uris":{"android":"levelo://app?vid=e4e931bb-0e96-4d51-b128-d34334c25756","ios":"levelo://app?vid=e4e931bb-0e96-4d51-b128-d34334c25756"},"vehicle_type_id":"4","last_reported":1725044805,"current_range_meters":12000,"station_id":"ce4bhr12rcd13ifvqhqg","pricing_plan_id":"cebpf4jnsgd1na2vs0mg"},{"bike_id":"053fa687-313d-44af-9781-c30bceb81e1a","system_id":"levelo_inurba_marseille","lat":43.2977,"lon":5.3711,"is_reserved":false,"is_disabled":false,"rental_uris":{"android":"levelo://app?vid=053fa687-313d-44af-9781-c30bceb81e1a","ios":"levelo://app?vid=053fa687-313d-44af-9781-c30bceb81e1a"},"vehicle_type_id":"4","last_reported":1725044805,"current_range_meters":0,"station_id":"ce4bgop2rcd13ifvqc1g","pricing_plan_id":"cebpf4jnsgd1na2vs0mg"},{"bike_id":"80f79607-950d-4368-bad6-c2365837a4d3","system_id":"levelo_inurba_marseille","lat":43.322929,"lon":5.382734,"is_reserved":false,"is_disabled":false,"rental_uris":{"android":"levelo://app?vid=80f79607-950d-4368-bad6-c2365837a4d3","ios":"levelo://app?vid=80f79607-950d-4368-bad6-c2365837a4d3"},"vehicle_type_id":"4","last_reported":1725044805,"current_range_meters":2400,"station_id":"ce4bhr12rcd13ifvqhqg","pricing_plan_id":"cebpf4jnsgd1na2vs0mg"},{"bike_id":"c6c3d33b-ccd4-4f52-b68d-9d67712657f6","system_id":"levelo_inurba_marseille","lat":43.297774,"lon":5.370875,"is_reserved":false,"is_disabled":false,"rental_uris":{"android":"levelo://app?vid=c6c3d33b-ccd4-4f52-b68d-9d67712657f6","ios":"levelo://app?vid=c6c3d33b-ccd4-4f52-b68d-9d67712657f6"},"vehicle_type_id":"4","last_reported":1725044805,"current_range_meters":28800,"station_id":"ce4bgop2rcd13ifvqc1g","pricing_plan_id":"cebpf4jnsgd1na2vs0mg"},{"bike_id":"8d7df992-bc0e-4439-9379-ea89d7f73eef","system_id":"levelo_inurba_marseille","lat":43.29723,"lon":5.369505,"is_reserved":false,"is_disabled":false,"rental_uris":{"android":"levelo://app?vid=8d7df992-bc0e-4439-9379-ea89d7f73eef","ios":"levelo://app?vid=8d7df992-bc0e-4439-9379-ea89d7f73eef"},"vehicle_type_id":"4","last_reported":1725044805,"current_range_meters":6800,"station_id":"ce4bgn12rcd13ifvqbt0","pricing_plan_id":"cebpf4jnsgd1na2vs0mg"},{"bike_id":"208e86b0-c533-4723-b4e8-18d52917810b","system_id":"levelo_inurba_marseille","lat":43.297163,"lon":5.365866,"is_reserved":false,"is_disabled":false,"rental_uris":{"android":"levelo://app?vid=208e86b0-c533-4723-b4e8-18d52917810b","ios":"levelo://app?vid=208e86b0-c533-4723-b4e8-18d52917810b"},"vehicle_type_id":"4","last_reported":1725044805,"current_range_meters":16400,"station_id":"ce4bgn12rcd13ifvqbt0","pricing_plan_id":"cebpf4jnsgd1na2vs0mg"},{"bike_id":"eb551180-a503-4ca4-8b62-b93621b5ef3f","system_id":"levelo_inurba_marseille","lat":43.29707,"lon":5.36616,"is_reserved":false,"is_disabled":false,"rental_uris":{"android":"levelo://app?vid=eb551180-a503-4ca4-8b62-b93621b5ef3f","ios":"levelo://app?vid=eb551180-a503-4ca4-8b62-b93621b5ef3f"},"vehicle_type_id":"4","last_reported":1725044805,"current_range_meters":8800,"station_id":"ce4bgn12rcd13ifvqbt0","pricing_plan_id":"cebpf4jnsgd1na2vs0mg"},{"bike_id":"f80cfea7-0989-463e-af6c-8edcb451d63a","system_id":"levelo_inurba_marseille","lat":43.296313,"lon":5.367508,"is_reserved":false,"is_disabled":false,"rental_uris":{"android":"levelo://app?vid=f80cfea7-0989-463e-af6c-8edcb451d63a","ios":"levelo://app?vid=f80cfea7-0989-463e-af6c-8edcb451d63a"},"vehicle_type_id":"4","last_reported":1725044805,"current_range_meters":14400,"station_id":"","pricing_plan_id":"cebpf4jnsgd1na2vs0mg"},{"bike_id":"1b447081-1251-44f2-aa40-03dfb97102b8","system_id":"levelo_inurba_marseille","lat":43.29573,"lon":5.367355,"is_reserved":false,"is_disabled":false,"rental_uris":{"android":"levelo://app?vid=1b447081-1251-44f2-aa40-03dfb97102b8","ios":"levelo://app?vid=1b447081-1251-44f2-aa40-03dfb97102b8"},"vehicle_type_id":"4","last_reported":1725044805,"current_range_meters":30000,"station_id":"ce4bgph2rcd13ifvqc2g","pricing_plan_id":"cebpf4jnsgd1na2vs0mg"},{"bike_id":"fb9a1d12-d010-4fad-b6ec-9c6fcd4f7acb","system_id":"levelo_inurba_marseille","lat":43.29914,"lon":5.38141,"is_reserved":false,"is_disabled":false,"rental_uris":{"android":"levelo://app?vid=fb9a1d12-d010-4fad-b6ec-9c6fcd4f7acb","ios":"levelo://app?vid=fb9a1d12-d010-4fad-b6ec-9c6fcd4f7acb"},"vehicle_type_id":"4","last_reported":1725044805,"current_range_meters":25600,"station_id":"ce4bgj12rcd13ifvqbc0","pricing_plan_id":"cebpf4jnsgd1na2vs0mg"},{"bike_id":"41accdbb-d9bc-4596-8f41-8266ddf74fa8","system_id":"levelo_inurba_marseille","lat":43.296921,"lon":5.376579,"is_reserved":false,"is_disabled":false,"rental_uris":{"android":"levelo://app?vid=41accdbb-d9bc-4596-8f41-8266ddf74fa8","ios":"levelo://app?vid=41accdbb-d9bc-4596-8f41-8266ddf74fa8"},"vehicle_type_id":"4","last_reported":1725044805,"current_range_meters":30000,"station_id":"ce4bgkh2rcd13ifvqbl0","pricing_plan_id":"cebpf4jnsgd1na2vs0mg"},{"bike_id":"472fe1dc-f6b7-46e9-a833-502929e51a25","system_id":"levelo_inurba_marseille","lat":43.296935,"lon":5.376544,"is_reserved":false,"is_disabled":false,"rental_uris":{"android":"levelo://app?vid=472fe1dc-f6b7-46e9-a833-502929e51a25","ios":"levelo://app?vid=472fe1dc-f6b7-46e9-a833-502929e51a25"},"vehicle_type_id":"4","last_reported":1725044805,"current_range_meters":27600,"station_id":"ce4bgkh2rcd13ifvqbl0","pricing_plan_id":"cebpf4jnsgd1na2vs0mg"},{"bike_id":"eafc8e67-da0d-40ab-b06a-43b8c191c154","system_id":"levelo_inurba_marseille","lat":43.296921,"lon":5.376579,"is_reserved":false,"is_disabled":false,"rental_uris":{"android":"levelo://app?vid=eafc8e67-da0d-40ab-b06a-43b8c191c154","ios":"levelo://app?vid=eafc8e67-da0d-40ab-b06a-43b8c191c154"},"vehicle_type_id":"4","last_reported":1725044805,"current_range_meters":2800,"station_id":"ce4bgkh2rcd13ifvqbl0","pricing_plan_id":"cebpf4jnsgd1na2vs0mg"},{"bike_id":"47781880-06f4-4d73-b5f1-744a990ced7e","system_id":"levelo_inurba_marseille","lat":43.309589,"lon":5.390258,"is_reserved":false,"is_disabled":false,"rental_uris":{"android":"levelo://app?vid=47781880-06f4-4d73-b5f1-744a990ced7e","ios":"levelo://app?vid=47781880-06f4-4d73-b5f1-744a990ced7e"},"vehicle_type_id":"4","last_reported":1725044805,"current_range_meters":28800,"station_id":"ce4bgup2rcd13ifvqco0","pricing_plan_id":"cebpf4jnsgd1na2vs0mg"},{"bike_id":"0a233a40-4eff-4aad-a925-d3a15f4be492","system_id":"levelo_inurba_marseille","lat":43.309589,"lon":5.390258,"is_reserved":false,"is_disabled":false,"rental_uris":{"android":"levelo://app?vid=0a233a40-4eff-4aad-a925-d3a15f4be492","ios":"levelo://app?vid=0a233a40-4eff-4aad-a925-d3a15f4be492"},"vehicle_type_id":"4","last_reported":1725044805,"current_range_meters":10800,"station_id":"ce4bgup2rcd13ifvqco0","pricing_plan_id":"cebpf4jnsgd1na2vs0mg"},{"bike_id":"ff6eca23-7a6a-476c-a6f5-540a795932d9","system_id":"levelo_inurba_marseille","lat":43.30962,"lon":5.39032,"is_reserved":false,"is_disabled":false,"rental_uris":{"android":"levelo://app?vid=ff6eca23-7a6a-476c-a6f5-540a795932d9","ios":"levelo://app?vid=ff6eca23-7a6a-476c-a6f5-540a795932d9"},"vehicle_type_id":"4","last_reported":1725044805,"current_range_meters":9600,"station_id":"ce4bgup2rcd13ifvqco0","pricing_plan_id":"cebpf4jnsgd1na2vs0mg"},{"bike_id":"79b31fb9-e4c9-4c70-9bfa-5ea216fddc9b","system_id":"levelo_inurba_marseille","lat":43.309589,"lon":5.390258,"is_reserved":false,"is_disabled":false,"rental_uris":{"android":"levelo://app?vid=79b31fb9-e4c9-4c70-9bfa-5ea216fddc9b","ios":"levelo://app?vid=79b31fb9-e4c9-4c70-9bfa-5ea216fddc9b"},"vehicle_type_id":"4","last_reported":1725044805,"current_range_meters":32000,"station_id":"ce4bgup2rcd13ifvqco0","pricing_plan_id":"cebpf4jnsgd1na2vs0mg"},{"bike_id":"f34bbc84-6f47-4d53-b115-02ce64d12bb2","system_id":"levelo_inurba_marseille","lat":43.309589,"lon":5.390258,"is_reserved":false,"is_disabled":false,"rental_uris":{"android":"levelo://app?vid=f34bbc84-6f47-4d53-b115-02ce64d12bb2","ios":"levelo://app?vid=f34bbc84-6f47-4d53-b115-02ce64d12bb2"},"vehicle_type_id":"4","last_reported":1725044805,"current_range_meters":8800,"station_id":"ce4bgup2rcd13ifvqco0","pricing_plan_id":"cebpf4jnsgd1na2vs0mg"},{"bike_id":"1ce25cf8-3827-41ca-98da-ee19fb0f21b9","system_id":"levelo_inurba_marseille","lat":43.309589,"lon":5.390258,"is_reserved":false,"is_disabled":false,"rental_uris":{"android":"levelo://app?vid=1ce25cf8-3827-41ca-98da-ee19fb0f21b9","ios":"levelo://app?vid=1ce25cf8-3827-41ca-98da-ee19fb0f21b9"},"vehicle_type_id":"4","last_reported":1725044805,"current_range_meters":20800,"station_id":"ce4bgup2rcd13ifvqco0","pricing_plan_id":"cebpf4jnsgd1na2vs0mg"},{"bike_id":"b6fbb8be-6fa8-4dfb-8331-a2168f80c986","system_id":"levelo_inurba_marseille","lat":43.30948,"lon":5.39031,"is_reserved":false,"is_disabled":false,"rental_uris":{"android":"levelo://app?vid=b6fbb8be-6fa8-4dfb-8331-a2168f80c986","ios":"levelo://app?vid=b6fbb8be-6fa8-4dfb-8331-a2168f80c986"},"vehicle_type_id":"4","last_reported":1725044805,"current_range_meters":9600,"station_id":"ce4bgup2rcd13ifvqco0","pricing_plan_id":"cebpf4jnsgd1na2vs0mg"},{"bike_id":"1db51cb2-8d1c-44c3-9fd0-b04c161d65d4","system_id":"levelo_inurba_marseille","lat":43.30958,"lon":5.39034,"is_reserved":false,"is_disabled":false,"rental_uris":{"android":"levelo://app?vid=1db51cb2-8d1c-44c3-9fd0-b04c161d65d4","ios":"levelo://app?vid=1db51cb2-8d1c-44c3-9fd0-b04c161d65d4"},"vehicle_type_id":"4","last_reported":1725044805,"current_range_meters":10400,"station_id":"ce4bgup2rcd13ifvqco0","pricing_plan_id":"cebpf4jnsgd1na2vs0mg"},{"bike_id":"058a8a4b-bc11-4d0a-a50f-ffd62edeac3b","system_id":"levelo_inurba_marseille","lat":43.30949,"lon":5.39032,"is_reserved":false,"is_disabled":false,"rental_uris":{"android":"levelo://app?vid=058a8a4b-bc11-4d0a-a50f-ffd62edeac3b","ios":"levelo://app?vid=058a8a4b-bc11-4d0a-a50f-ffd62edeac3b"},"vehicle_type_id":"4","last_reported":1725044805,"current_range_meters":30800,"station_id":"ce4bgup2rcd13ifvqco0","pricing_plan_id":"cebpf4jnsgd1na2vs0mg"},{"bike_id":"7e5ed1a5-d724-43fe-9583-2cfd960fa61c","system_id":"levelo_inurba_marseille","lat":43.30945,"lon":5.39031,"is_reserved":false,"is_disabled":false,"rental_uris":{"android":"levelo://app?vid=7e5ed1a5-d724-43fe-9583-2cfd960fa61c","ios":"levelo://app?vid=7e5ed1a5-d724-43fe-9583-2cfd960fa61c"},"vehicle_type_id":"4","last_reported":1725044805,"current_range_meters":22000,"station_id":"ce4bgup2rcd13ifvqco0","pricing_plan_id":"cebpf4jnsgd1na2vs0mg"},{"bike_id":"f0e0117f-6af6-4ec5-9f03-e114792be9f7","system_id":"levelo_inurba_marseille","lat":43.30953,"lon":5.39034,"is_reserved":false,"is_disabled":false,"rental_uris":{"android":"levelo://app?vid=f0e0117f-6af6-4ec5-9f03-e114792be9f7","ios":"levelo://app?vid=f0e0117f-6af6-4ec5-9f03-e114792be9f7"},"vehicle_type_id":"4","last_reported":1725044805,"current_range_meters":31200,"station_id":"ce4bgup2rcd13ifvqco0","pricing_plan_id":"cebpf4jnsgd1na2vs0mg"},{"bike_id":"030a55eb-1770-4500-b3c6-84b82210d4e4","system_id":"levelo_inurba_marseille","lat":43.30952,"lon":5.39034,"is_reserved":false,"is_disabled":false,"rental_uris":{"android":"levelo://app?vid=030a55eb-1770-4500-b3c6-84b82210d4e4","ios":"levelo://app?vid=030a55eb-1770-4500-b3c6-84b82210d4e4"},"vehicle_type_id":"4","last_reported":1725044805,"current_range_meters":31200,"station_id":"ce4bgup2rcd13ifvqco0","pricing_plan_id":"cebpf4jnsgd1na2vs0mg"},{"bike_id":"aab7040a-9066-465e-b984-ae09bef56cd6","system_id":"levelo_inurba_marseille","lat":43.309589,"lon":5.390258,"is_reserved":false,"is_disabled":false,"rental_uris":{"android":"levelo://app?vid=aab7040a-9066-465e-b984-ae09bef56cd6","ios":"levelo://app?vid=aab7040a-9066-465e-b984-ae09bef56cd6"},"vehicle_type_id":"4","last_reported":1725044805,"current_range_meters":10000,"station_id":"ce4bgup2rcd13ifvqco0","pricing_plan_id":"cebpf4jnsgd1na2vs0mg"},{"bike_id":"7481e34b-11b5-440d-9006-42feddeacdbc","system_id":"levelo_inurba_marseille","lat":43.309589,"lon":5.390258,"is_reserved":false,"is_disabled":false,"rental_uris":{"android":"levelo://app?vid=7481e34b-11b5-440d-9006-42feddeacdbc","ios":"levelo://app?vid=7481e34b-11b5-440d-9006-42feddeacdbc"},"vehicle_type_id":"4","last_reported":1725044805,"current_range_meters":26800,"station_id":"ce4bgup2rcd13ifvqco0","pricing_plan_id":"cebpf4jnsgd1na2vs0mg"},{"bike_id":"bb0c72b8-8f0c-4124-bcb9-3ee21c73e2d5","system_id":"levelo_inurba_marseille","lat":43.30951,"lon":5.39037,"is_reserved":false,"is_disabled":false,"rental_uris":{"android":"levelo://app?vid=bb0c72b8-8f0c-4124-bcb9-3ee21c73e2d5","ios":"levelo://app?vid=bb0c72b8-8f0c-4124-bcb9-3ee21c73e2d5"},"vehicle_type_id":"4","last_reported":1725044805,"current_range_meters":31200,"station_id":"ce4bgup2rcd13ifvqco0","pricing_plan_id":"cebpf4jnsgd1na2vs0mg"},{"bike_id":"bd7af7a4-5764-4d18-b610-d0e807902a5c","system_id":"levelo_inurba_marseille","lat":43.309589,"lon":5.390258,"is_reserved":false,"is_disabled":false,"rental_uris":{"android":"levelo://app?vid=bd7af7a4-5764-4d18-b610-d0e807902a5c","ios":"levelo://app?vid=bd7af7a4-5764-4d18-b610-d0e807902a5c"},"vehicle_type_id":"4","last_reported":1725044805,"current_range_meters":31200,"station_id":"ce4bgup2rcd13ifvqco0","pricing_plan_id":"cebpf4jnsgd1na2vs0mg"},{"bike_id":"a7c5e805-1d72-42cc-a712-3ba8bd70a0ac","system_id":"levelo_inurba_marseille","lat":43.30951,"lon":5.39039,"is_reserved":false,"is_disabled":false,"rental_uris":{"android":"levelo://app?vid=a7c5e805-1d72-42cc-a712-3ba8bd70a0ac","ios":"levelo://app?vid=a7c5e805-1d72-42cc-a712-3ba8bd70a0ac"},"vehicle_type_id":"4","last_reported":1725044805,"current_range_meters":4400,"station_id":"ce4bgup2rcd13ifvqco0","pricing_plan_id":"cebpf4jnsgd1na2vs0mg"},{"bike_id":"7e58c906-723c-4d83-aec1-d0ae4d05c1d6","system_id":"levelo_inurba_marseille","lat":43.309467,"lon":5.39038,"is_reserved":false,"is_disabled":false,"rental_uris":{"android":"levelo://app?vid=7e58c906-723c-4d83-aec1-d0ae4d05c1d6","ios":"levelo://app?vid=7e58c906-723c-4d83-aec1-d0ae4d05c1d6"},"vehicle_type_id":"4","last_reported":1725044805,"current_range_meters":16000,"station_id":"ce4bgup2rcd13ifvqco0","pricing_plan_id":"cebpf4jnsgd1na2vs0mg"},{"bike_id":"7c730b82-b762-4a4f-8f96-6444ded2ece0","system_id":"levelo_inurba_marseille","lat":43.309589,"lon":5.390258,"is_reserved":false,"is_disabled":false,"rental_uris":{"android":"levelo://app?vid=7c730b82-b762-4a4f-8f96-6444ded2ece0","ios":"levelo://app?vid=7c730b82-b762-4a4f-8f96-6444ded2ece0"},"vehicle_type_id":"4","last_reported":1725044805,"current_range_meters":31200,"station_id":"ce4bgup2rcd13ifvqco0","pricing_plan_id":"cebpf4jnsgd1na2vs0mg"},{"bike_id":"6c3335ea-2712-463f-ac79-5769379d1407","system_id":"levelo_inurba_marseille","lat":43.30937,"lon":5.39053,"is_reserved":false,"is_disabled":false,"rental_uris":{"android":"levelo://app?vid=6c3335ea-2712-463f-ac79-5769379d1407","ios":"levelo://app?vid=6c3335ea-2712-463f-ac79-5769379d1407"},"vehicle_type_id":"4","last_reported":1725044805,"current_range_meters":14400,"station_id":"","pricing_plan_id":"cebpf4jnsgd1na2vs0mg"},{"bike_id":"9dff25ca-1a2f-4639-9594-16acad040bd8","system_id":"levelo_inurba_marseille","lat":43.317557,"lon":5.390173,"is_reserved":false,"is_disabled":false,"rental_uris":{"android":"levelo://app?vid=9dff25ca-1a2f-4639-9594-16acad040bd8","ios":"levelo://app?vid=9dff25ca-1a2f-4639-9594-16acad040bd8"},"vehicle_type_id":"4","last_reported":1725044805,"current_range_meters":8000,"station_id":"ce4bhqp2rcd13ifvqhng","pricing_plan_id":"cebpf4jnsgd1na2vs0mg"},{"bike_id":"14e19fa2-cd7a-4937-9d91-ecdb7a22cef7","system_id":"levelo_inurba_marseille","lat":43.317557,"lon":5.390173,"is_reserved":false,"is_disabled":false,"rental_uris":{"android":"levelo://app?vid=14e19fa2-cd7a-4937-9d91-ecdb7a22cef7","ios":"levelo://app?vid=14e19fa2-cd7a-4937-9d91-ecdb7a22cef7"},"vehicle_type_id":"4","last_reported":1725044805,"current_range_meters":23600,"station_id":"ce4bhqp2rcd13ifvqhng","pricing_plan_id":"cebpf4jnsgd1na2vs0mg"},{"bike_id":"ee63ede9-0650-4fb4-a2eb-334c5c3232fc","system_id":"levelo_inurba_marseille","lat":43.29999,"lon":5.38376,"is_reserved":false,"is_disabled":false,"rental_uris":{"android":"levelo://app?vid=ee63ede9-0650-4fb4-a2eb-334c5c3232fc","ios":"levelo://app?vid=ee63ede9-0650-4fb4-a2eb-334c5c3232fc"},"vehicle_type_id":"4","last_reported":1725044805,"current_range_meters":0,"station_id":"","pricing_plan_id":"cebpf4jnsgd1na2vs0mg"},{"bike_id":"b9bd7e23-f941-459c-88af-248137fc7b1f","system_id":"levelo_inurba_marseille","lat":43.295748,"lon":5.37522,"is_reserved":false,"is_disabled":false,"rental_uris":{"android":"levelo://app?vid=b9bd7e23-f941-459c-88af-248137fc7b1f","ios":"levelo://app?vid=b9bd7e23-f941-459c-88af-248137fc7b1f"},"vehicle_type_id":"4","last_reported":1725044805,"current_range_meters":4800,"station_id":"ce4bgh92rcd13ifvqb50","pricing_plan_id":"cebpf4jnsgd1na2vs0mg"},{"bike_id":"4534fe52-4af6-42d4-b13f-d24917ca9017","system_id":"levelo_inurba_marseille","lat":43.304274,"lon":5.388873,"is_reserved":false,"is_disabled":false,"rental_uris":{"android":"levelo://app?vid=4534fe52-4af6-42d4-b13f-d24917ca9017","ios":"levelo://app?vid=4534fe52-4af6-42d4-b13f-d24917ca9017"},"vehicle_type_id":"4","last_reported":1725044805,"current_range_meters":28800,"station_id":"ce4bgk12rcd13ifvqbi0","pricing_plan_id":"cebpf4jnsgd1na2vs0mg"},{"bike_id":"8a8887de-5c7d-4b1c-91b2-78e9c920b48d","system_id":"levelo_inurba_marseille","lat":43.29566,"lon":5.37519,"is_reserved":false,"is_disabled":false,"rental_uris":{"android":"levelo://app?vid=8a8887de-5c7d-4b1c-91b2-78e9c920b48d","ios":"levelo://app?vid=8a8887de-5c7d-4b1c-91b2-78e9c920b48d"},"vehicle_type_id":"4","last_reported":1725044805,"current_range_meters":28000,"station_id":"","pricing_plan_id":"cebpf4jnsgd1na2vs0mg"},{"bike_id":"0c7f79e6-0942-4e59-8290-e4be57504e46","system_id":"levelo_inurba_marseille","lat":43.29669,"lon":5.37845,"is_reserved":false,"is_disabled":false,"rental_uris":{"android":"levelo://app?vid=0c7f79e6-0942-4e59-8290-e4be57504e46","ios":"levelo://app?vid=0c7f79e6-0942-4e59-8290-e4be57504e46"},"vehicle_type_id":"4","last_reported":1725044805,"current_range_meters":27600,"station_id":"","pricing_plan_id":"cebpf4jnsgd1na2vs0mg"},{"bike_id":"193cda06-8f41-498f-90fc-e4907ee48d47","system_id":"levelo_inurba_marseille","lat":43.296263,"lon":5.377094,"is_reserved":false,"is_disabled":false,"rental_uris":{"android":"levelo://app?vid=193cda06-8f41-498f-90fc-e4907ee48d47","ios":"levelo://app?vid=193cda06-8f41-498f-90fc-e4907ee48d47"},"vehicle_type_id":"4","last_reported":1725044805,"current_range_meters":1200,"station_id":"ce4bgi92rcd13ifvqb90","pricing_plan_id":"cebpf4jnsgd1na2vs0mg"},{"bike_id":"e4c5a1a6-bb47-4a09-9ead-03af8d5c7136","system_id":"levelo_inurba_marseille","lat":43.296263,"lon":5.377094,"is_reserved":false,"is_disabled":false,"rental_uris":{"android":"levelo://app?vid=e4c5a1a6-bb47-4a09-9ead-03af8d5c7136","ios":"levelo://app?vid=e4c5a1a6-bb47-4a09-9ead-03af8d5c7136"},"vehicle_type_id":"4","last_reported":1725044805,"current_range_meters":30400,"station_id":"ce4bgi92rcd13ifvqb90","pricing_plan_id":"cebpf4jnsgd1na2vs0mg"},{"bike_id":"578622f3-1fd7-47fe-ac76-381d19a84656","system_id":"levelo_inurba_marseille","lat":43.296263,"lon":5.377094,"is_reserved":false,"is_disabled":false,"rental_uris":{"android":"levelo://app?vid=578622f3-1fd7-47fe-ac76-381d19a84656","ios":"levelo://app?vid=578622f3-1fd7-47fe-ac76-381d19a84656"},"vehicle_type_id":"4","last_reported":1725044805,"current_range_meters":17200,"station_id":"ce4bgi92rcd13ifvqb90","pricing_plan_id":"cebpf4jnsgd1na2vs0mg"},{"bike_id":"fb20178e-630e-4c14-a34d-3bc0218bf94d","system_id":"levelo_inurba_marseille","lat":43.2962,"lon":5.37724,"is_reserved":false,"is_disabled":false,"rental_uris":{"android":"levelo://app?vid=fb20178e-630e-4c14-a34d-3bc0218bf94d","ios":"levelo://app?vid=fb20178e-630e-4c14-a34d-3bc0218bf94d"},"vehicle_type_id":"4","last_reported":1725044805,"current_range_meters":30800,"station_id":"ce4bgi92rcd13ifvqb90","pricing_plan_id":"cebpf4jnsgd1na2vs0mg"},{"bike_id":"446bc95b-e318-486d-8692-2c5a326a3449","system_id":"levelo_inurba_marseille","lat":43.296277,"lon":5.377108,"is_reserved":false,"is_disabled":false,"rental_uris":{"android":"levelo://app?vid=446bc95b-e318-486d-8692-2c5a326a3449","ios":"levelo://app?vid=446bc95b-e318-486d-8692-2c5a326a3449"},"vehicle_type_id":"4","last_reported":1725044805,"current_range_meters":31600,"station_id":"ce4bgi92rcd13ifvqb90","pricing_plan_id":"cebpf4jnsgd1na2vs0mg"},{"bike_id":"de0353fd-de48-4446-bff0-56e3be1b5adc","system_id":"levelo_inurba_marseille","lat":43.29613,"lon":5.37723,"is_reserved":false,"is_disabled":false,"rental_uris":{"android":"levelo://app?vid=de0353fd-de48-4446-bff0-56e3be1b5adc","ios":"levelo://app?vid=de0353fd-de48-4446-bff0-56e3be1b5adc"},"vehicle_type_id":"4","last_reported":1725044805,"current_range_meters":29200,"station_id":"ce4bgi92rcd13ifvqb90","pricing_plan_id":"cebpf4jnsgd1na2vs0mg"},{"bike_id":"ab59e795-b382-4b62-8d6a-9640a648ec5d","system_id":"levelo_inurba_marseille","lat":43.296277,"lon":5.377108,"is_reserved":false,"is_disabled":false,"rental_uris":{"android":"levelo://app?vid=ab59e795-b382-4b62-8d6a-9640a648ec5d","ios":"levelo://app?vid=ab59e795-b382-4b62-8d6a-9640a648ec5d"},"vehicle_type_id":"4","last_reported":1725044805,"current_range_meters":31600,"station_id":"ce4bgi92rcd13ifvqb90","pricing_plan_id":"cebpf4jnsgd1na2vs0mg"},{"bike_id":"fd97bdec-6386-4b8c-957e-db7d9e6dc2b5","system_id":"levelo_inurba_marseille","lat":43.296263,"lon":5.377094,"is_reserved":false,"is_disabled":false,"rental_uris":{"android":"levelo://app?vid=fd97bdec-6386-4b8c-957e-db7d9e6dc2b5","ios":"levelo://app?vid=fd97bdec-6386-4b8c-957e-db7d9e6dc2b5"},"vehicle_type_id":"4","last_reported":1725044805,"current_range_meters":19200,"station_id":"ce4bgi92rcd13ifvqb90","pricing_plan_id":"cebpf4jnsgd1na2vs0mg"},{"bike_id":"f63918ba-0f68-40a3-832e-c43a30c25c20","system_id":"levelo_inurba_marseille","lat":43.29982,"lon":5.38486,"is_reserved":false,"is_disabled":false,"rental_uris":{"android":"levelo://app?vid=f63918ba-0f68-40a3-832e-c43a30c25c20","ios":"levelo://app?vid=f63918ba-0f68-40a3-832e-c43a30c25c20"},"vehicle_type_id":"4","last_reported":1725044805,"current_range_meters":800,"station_id":"ce4bgj92rcd13ifvqbd0","pricing_plan_id":"cebpf4jnsgd1na2vs0mg"},{"bike_id":"0bb60dbc-c860-47db-a186-a850090a2f5b","system_id":"levelo_inurba_marseille","lat":43.295279,"lon":5.375048,"is_reserved":false,"is_disabled":false,"rental_uris":{"android":"levelo://app?vid=0bb60dbc-c860-47db-a186-a850090a2f5b","ios":"levelo://app?vid=0bb60dbc-c860-47db-a186-a850090a2f5b"},"vehicle_type_id":"4","last_reported":1725044805,"current_range_meters":30000,"station_id":"ce4bgkp2rcd13ifvqbmg","pricing_plan_id":"cebpf4jnsgd1na2vs0mg"},{"bike_id":"bb84210c-f9b2-4daa-877d-df6ab4f03c43","system_id":"levelo_inurba_marseille","lat":43.295279,"lon":5.375048,"is_reserved":false,"is_disabled":false,"rental_uris":{"android":"levelo://app?vid=bb84210c-f9b2-4daa-877d-df6ab4f03c43","ios":"levelo://app?vid=bb84210c-f9b2-4daa-877d-df6ab4f03c43"},"vehicle_type_id":"4","last_reported":1725044805,"current_range_meters":10400,"station_id":"ce4bgkp2rcd13ifvqbmg","pricing_plan_id":"cebpf4jnsgd1na2vs0mg"},{"bike_id":"5e583ae6-b19d-4186-b7f7-515d9f7ebe4f","system_id":"levelo_inurba_marseille","lat":43.295279,"lon":5.375048,"is_reserved":false,"is_disabled":false,"rental_uris":{"android":"levelo://app?vid=5e583ae6-b19d-4186-b7f7-515d9f7ebe4f","ios":"levelo://app?vid=5e583ae6-b19d-4186-b7f7-515d9f7ebe4f"},"vehicle_type_id":"4","last_reported":1725044805,"current_range_meters":0,"station_id":"ce4bgkp2rcd13ifvqbmg","pricing_plan_id":"cebpf4jnsgd1na2vs0mg"},{"bike_id":"09a39a35-e228-496d-9b17-412d90da08d7","system_id":"levelo_inurba_marseille","lat":43.295279,"lon":5.375048,"is_reserved":false,"is_disabled":false,"rental_uris":{"android":"levelo://app?vid=09a39a35-e228-496d-9b17-412d90da08d7","ios":"levelo://app?vid=09a39a35-e228-496d-9b17-412d90da08d7"},"vehicle_type_id":"4","last_reported":1725044805,"current_range_meters":0,"station_id":"ce4bgkp2rcd13ifvqbmg","pricing_plan_id":"cebpf4jnsgd1na2vs0mg"},{"bike_id":"d89febf8-ef74-4878-85a9-2e329b5ecbe0","system_id":"levelo_inurba_marseille","lat":43.299724,"lon":5.384848,"is_reserved":false,"is_disabled":false,"rental_uris":{"android":"levelo://app?vid=d89febf8-ef74-4878-85a9-2e329b5ecbe0","ios":"levelo://app?vid=d89febf8-ef74-4878-85a9-2e329b5ecbe0"},"vehicle_type_id":"4","last_reported":1725044805,"current_range_meters":3600,"station_id":"ce4bgj92rcd13ifvqbd0","pricing_plan_id":"cebpf4jnsgd1na2vs0mg"},{"bike_id":"7366ae9a-a639-4581-8e13-409765f14404","system_id":"levelo_inurba_marseille","lat":43.299724,"lon":5.384848,"is_reserved":false,"is_disabled":false,"rental_uris":{"android":"levelo://app?vid=7366ae9a-a639-4581-8e13-409765f14404","ios":"levelo://app?vid=7366ae9a-a639-4581-8e13-409765f14404"},"vehicle_type_id":"4","last_reported":1725044805,"current_range_meters":800,"station_id":"ce4bgj92rcd13ifvqbd0","pricing_plan_id":"cebpf4jnsgd1na2vs0mg"},{"bike_id":"ceddfc2a-6372-4fb5-ba7b-9615caa62723","system_id":"levelo_inurba_marseille","lat":43.29521,"lon":5.37579,"is_reserved":false,"is_disabled":false,"rental_uris":{"android":"levelo://app?vid=ceddfc2a-6372-4fb5-ba7b-9615caa62723","ios":"levelo://app?vid=ceddfc2a-6372-4fb5-ba7b-9615caa62723"},"vehicle_type_id":"4","last_reported":1725044805,"current_range_meters":5600,"station_id":"","pricing_plan_id":"cebpf4jnsgd1na2vs0mg"},{"bike_id":"382a9fb5-fdf3-4b7b-a0a6-2a70db5210bd","system_id":"levelo_inurba_marseille","lat":43.301396,"lon":5.387812,"is_reserved":false,"is_disabled":false,"rental_uris":{"android":"levelo://app?vid=382a9fb5-fdf3-4b7b-a0a6-2a70db5210bd","ios":"levelo://app?vid=382a9fb5-fdf3-4b7b-a0a6-2a70db5210bd"},"vehicle_type_id":"4","last_reported":1725044805,"current_range_meters":8400,"station_id":"ce4bghh2rcd13ifvqb60","pricing_plan_id":"cebpf4jnsgd1na2vs0mg"},{"bike_id":"c67cf365-523d-4b8d-9907-baff87365c3d","system_id":"levelo_inurba_marseille","lat":43.30136,"lon":5.38786,"is_reserved":false,"is_disabled":false,"rental_uris":{"android":"levelo://app?vid=c67cf365-523d-4b8d-9907-baff87365c3d","ios":"levelo://app?vid=c67cf365-523d-4b8d-9907-baff87365c3d"},"vehicle_type_id":"4","last_reported":1725044805,"current_range_meters":28800,"station_id":"ce4bghh2rcd13ifvqb60","pricing_plan_id":"cebpf4jnsgd1na2vs0mg"},{"bike_id":"dd077ff7-294d-4501-b027-13742ed236da","system_id":"levelo_inurba_marseille","lat":43.301396,"lon":5.387812,"is_reserved":false,"is_disabled":false,"rental_uris":{"android":"levelo://app?vid=dd077ff7-294d-4501-b027-13742ed236da","ios":"levelo://app?vid=dd077ff7-294d-4501-b027-13742ed236da"},"vehicle_type_id":"4","last_reported":1725044805,"current_range_meters":29200,"station_id":"ce4bghh2rcd13ifvqb60","pricing_plan_id":"cebpf4jnsgd1na2vs0mg"},{"bike_id":"7604bbd2-8d1d-4eb6-8ccb-bb2128219760","system_id":"levelo_inurba_marseille","lat":43.29901,"lon":5.38512,"is_reserved":false,"is_disabled":false,"rental_uris":{"android":"levelo://app?vid=7604bbd2-8d1d-4eb6-8ccb-bb2128219760","ios":"levelo://app?vid=7604bbd2-8d1d-4eb6-8ccb-bb2128219760"},"vehicle_type_id":"4","last_reported":1725044805,"current_range_meters":18400,"station_id":"","pricing_plan_id":"cebpf4jnsgd1na2vs0mg"},{"bike_id":"f1fd227b-f21c-4b12-9368-6df37151d28b","system_id":"levelo_inurba_marseille","lat":43.32367,"lon":5.388836,"is_reserved":false,"is_disabled":false,"rental_uris":{"android":"levelo://app?vid=f1fd227b-f21c-4b12-9368-6df37151d28b","ios":"levelo://app?vid=f1fd227b-f21c-4b12-9368-6df37151d28b"},"vehicle_type_id":"4","last_reported":1725044805,"current_range_meters":22800,"station_id":"ce4bhqp2rcd13ifvqhog","pricing_plan_id":"cebpf4jnsgd1na2vs0mg"},{"bike_id":"5eb8a7fc-9bce-4ebc-918a-a15180f74c20","system_id":"levelo_inurba_marseille","lat":43.32367,"lon":5.388836,"is_reserved":false,"is_disabled":false,"rental_uris":{"android":"levelo://app?vid=5eb8a7fc-9bce-4ebc-918a-a15180f74c20","ios":"levelo://app?vid=5eb8a7fc-9bce-4ebc-918a-a15180f74c20"},"vehicle_type_id":"4","last_reported":1725044805,"current_range_meters":12400,"station_id":"ce4bhqp2rcd13ifvqhog","pricing_plan_id":"cebpf4jnsgd1na2vs0mg"},{"bike_id":"f21b735c-cc31-454d-af6b-a44dc41d43eb","system_id":"levelo_inurba_marseille","lat":43.29643,"lon":5.381603,"is_reserved":false,"is_disabled":false,"rental_uris":{"android":"levelo://app?vid=f21b735c-cc31-454d-af6b-a44dc41d43eb","ios":"levelo://app?vid=f21b735c-cc31-454d-af6b-a44dc41d43eb"},"vehicle_type_id":"4","last_reported":1725044805,"current_range_meters":0,"station_id":"","pricing_plan_id":"cebpf4jnsgd1na2vs0mg"},{"bike_id":"593c9e1b-07b1-4c60-8993-6b149f4fa4a7","system_id":"levelo_inurba_marseille","lat":43.311225,"lon":5.393671,"is_reserved":false,"is_disabled":false,"rental_uris":{"android":"levelo://app?vid=593c9e1b-07b1-4c60-8993-6b149f4fa4a7","ios":"levelo://app?vid=593c9e1b-07b1-4c60-8993-6b149f4fa4a7"},"vehicle_type_id":"4","last_reported":1725044805,"current_range_meters":800,"station_id":"","pricing_plan_id":"cebpf4jnsgd1na2vs0mg"},{"bike_id":"4ab5e112-d452-41b2-a66a-9b989fe8c7e5","system_id":"levelo_inurba_marseille","lat":43.31429,"lon":5.39374,"is_reserved":false,"is_disabled":false,"rental_uris":{"android":"levelo://app?vid=4ab5e112-d452-41b2-a66a-9b989fe8c7e5","ios":"levelo://app?vid=4ab5e112-d452-41b2-a66a-9b989fe8c7e5"},"vehicle_type_id":"4","last_reported":1725044805,"current_range_meters":23600,"station_id":"","pricing_plan_id":"cebpf4jnsgd1na2vs0mg"},{"bike_id":"d16920c5-478a-40a7-a19b-ce36eed5724d","system_id":"levelo_inurba_marseille","lat":43.293527,"lon":5.372117,"is_reserved":false,"is_disabled":false,"rental_uris":{"android":"levelo://app?vid=d16920c5-478a-40a7-a19b-ce36eed5724d","ios":"levelo://app?vid=d16920c5-478a-40a7-a19b-ce36eed5724d"},"vehicle_type_id":"4","last_reported":1725044805,"current_range_meters":10000,"station_id":"","pricing_plan_id":"cebpf4jnsgd1na2vs0mg"},{"bike_id":"f1e7725d-f7e6-4a72-b6ad-7d20705991bd","system_id":"levelo_inurba_marseille","lat":43.29601,"lon":5.381084,"is_reserved":false,"is_disabled":false,"rental_uris":{"android":"levelo://app?vid=f1e7725d-f7e6-4a72-b6ad-7d20705991bd","ios":"levelo://app?vid=f1e7725d-f7e6-4a72-b6ad-7d20705991bd"},"vehicle_type_id":"4","last_reported":1725044805,"current_range_meters":14400,"station_id":"ce4bgl12rcd13ifvqbo0","pricing_plan_id":"cebpf4jnsgd1na2vs0mg"},{"bike_id":"6015028a-22ba-4355-8a00-24fa8df58143","system_id":"levelo_inurba_marseille","lat":43.29601,"lon":5.381084,"is_reserved":false,"is_disabled":false,"rental_uris":{"android":"levelo://app?vid=6015028a-22ba-4355-8a00-24fa8df58143","ios":"levelo://app?vid=6015028a-22ba-4355-8a00-24fa8df58143"},"vehicle_type_id":"4","last_reported":1725044805,"current_range_meters":22000,"station_id":"ce4bgl12rcd13ifvqbo0","pricing_plan_id":"cebpf4jnsgd1na2vs0mg"},{"bike_id":"c571bb92-a52e-4775-a2af-f677e58e8f40","system_id":"levelo_inurba_marseille","lat":43.295925,"lon":5.381015,"is_reserved":false,"is_disabled":false,"rental_uris":{"android":"levelo://app?vid=c571bb92-a52e-4775-a2af-f677e58e8f40","ios":"levelo://app?vid=c571bb92-a52e-4775-a2af-f677e58e8f40"},"vehicle_type_id":"4","last_reported":1725044805,"current_range_meters":29600,"station_id":"ce4bgl12rcd13ifvqbo0","pricing_plan_id":"cebpf4jnsgd1na2vs0mg"},{"bike_id":"9bc087ab-701f-48fa-a150-19f37d2da8be","system_id":"levelo_inurba_marseille","lat":43.293125,"lon":5.36939,"is_reserved":false,"is_disabled":false,"rental_uris":{"android":"levelo://app?vid=9bc087ab-701f-48fa-a150-19f37d2da8be","ios":"levelo://app?vid=9bc087ab-701f-48fa-a150-19f37d2da8be"},"vehicle_type_id":"4","last_reported":1725044805,"current_range_meters":9600,"station_id":"","pricing_plan_id":"cebpf4jnsgd1na2vs0mg"},{"bike_id":"d28a9a13-b949-46bb-b061-6e4ebd83d1a0","system_id":"levelo_inurba_marseille","lat":43.29601,"lon":5.381084,"is_reserved":false,"is_disabled":false,"rental_uris":{"android":"levelo://app?vid=d28a9a13-b949-46bb-b061-6e4ebd83d1a0","ios":"levelo://app?vid=d28a9a13-b949-46bb-b061-6e4ebd83d1a0"},"vehicle_type_id":"4","last_reported":1725044805,"current_range_meters":5600,"station_id":"ce4bgl12rcd13ifvqbo0","pricing_plan_id":"cebpf4jnsgd1na2vs0mg"},{"bike_id":"3e4ae414-22a4-4c5d-a6c6-a4292dd0e2a3","system_id":"levelo_inurba_marseille","lat":43.29601,"lon":5.381084,"is_reserved":false,"is_disabled":false,"rental_uris":{"android":"levelo://app?vid=3e4ae414-22a4-4c5d-a6c6-a4292dd0e2a3","ios":"levelo://app?vid=3e4ae414-22a4-4c5d-a6c6-a4292dd0e2a3"},"vehicle_type_id":"4","last_reported":1725044805,"current_range_meters":28800,"station_id":"ce4bgl12rcd13ifvqbo0","pricing_plan_id":"cebpf4jnsgd1na2vs0mg"},{"bike_id":"1fb28c2b-d612-4bd7-9bc6-b8b61594c2ac","system_id":"levelo_inurba_marseille","lat":43.3067,"lon":5.3929,"is_reserved":false,"is_disabled":false,"rental_uris":{"android":"levelo://app?vid=1fb28c2b-d612-4bd7-9bc6-b8b61594c2ac","ios":"levelo://app?vid=1fb28c2b-d612-4bd7-9bc6-b8b61594c2ac"},"vehicle_type_id":"4","last_reported":1725044805,"current_range_meters":4400,"station_id":"","pricing_plan_id":"cebpf4jnsgd1na2vs0mg"},{"bike_id":"c1922546-6f20-41cb-979b-5b534bab03a9","system_id":"levelo_inurba_marseille","lat":43.293249,"lon":5.371578,"is_reserved":false,"is_disabled":false,"rental_uris":{"android":"levelo://app?vid=c1922546-6f20-41cb-979b-5b534bab03a9","ios":"levelo://app?vid=c1922546-6f20-41cb-979b-5b534bab03a9"},"vehicle_type_id":"4","last_reported":1725044805,"current_range_meters":23200,"station_id":"ce4bgh92rcd13ifvqb40","pricing_plan_id":"cebpf4jnsgd1na2vs0mg"},{"bike_id":"f60f3997-256e-48ae-b008-1fe62647770b","system_id":"levelo_inurba_marseille","lat":43.293249,"lon":5.371578,"is_reserved":false,"is_disabled":false,"rental_uris":{"android":"levelo://app?vid=f60f3997-256e-48ae-b008-1fe62647770b","ios":"levelo://app?vid=f60f3997-256e-48ae-b008-1fe62647770b"},"vehicle_type_id":"4","last_reported":1725044805,"current_range_meters":27600,"station_id":"ce4bgh92rcd13ifvqb40","pricing_plan_id":"cebpf4jnsgd1na2vs0mg"},{"bike_id":"daff2dc4-fe88-49f7-8abf-3bb16f51ab79","system_id":"levelo_inurba_marseille","lat":43.293259,"lon":5.371586,"is_reserved":false,"is_disabled":false,"rental_uris":{"android":"levelo://app?vid=daff2dc4-fe88-49f7-8abf-3bb16f51ab79","ios":"levelo://app?vid=daff2dc4-fe88-49f7-8abf-3bb16f51ab79"},"vehicle_type_id":"4","last_reported":1725044805,"current_range_meters":29600,"station_id":"ce4bgh92rcd13ifvqb40","pricing_plan_id":"cebpf4jnsgd1na2vs0mg"},{"bike_id":"8b4aa39c-9633-49ce-861f-e21ad983bb72","system_id":"levelo_inurba_marseille","lat":43.293259,"lon":5.371586,"is_reserved":false,"is_disabled":false,"rental_uris":{"android":"levelo://app?vid=8b4aa39c-9633-49ce-861f-e21ad983bb72","ios":"levelo://app?vid=8b4aa39c-9633-49ce-861f-e21ad983bb72"},"vehicle_type_id":"4","last_reported":1725044805,"current_range_meters":2000,"station_id":"ce4bgh92rcd13ifvqb40","pricing_plan_id":"cebpf4jnsgd1na2vs0mg"},{"bike_id":"b9fd6149-c400-40b4-bf7b-d48fc46fb2b0","system_id":"levelo_inurba_marseille","lat":43.293249,"lon":5.371578,"is_reserved":false,"is_disabled":false,"rental_uris":{"android":"levelo://app?vid=b9fd6149-c400-40b4-bf7b-d48fc46fb2b0","ios":"levelo://app?vid=b9fd6149-c400-40b4-bf7b-d48fc46fb2b0"},"vehicle_type_id":"4","last_reported":1725044805,"current_range_meters":19600,"station_id":"ce4bgh92rcd13ifvqb40","pricing_plan_id":"cebpf4jnsgd1na2vs0mg"},{"bike_id":"93e6166d-cb44-4e75-bada-b45eee02d2c5","system_id":"levelo_inurba_marseille","lat":43.292749,"lon":5.368402,"is_reserved":false,"is_disabled":false,"rental_uris":{"android":"levelo://app?vid=93e6166d-cb44-4e75-bada-b45eee02d2c5","ios":"levelo://app?vid=93e6166d-cb44-4e75-bada-b45eee02d2c5"},"vehicle_type_id":"4","last_reported":1725044805,"current_range_meters":6000,"station_id":"ce4bhbp2rcd13ifvqesg","pricing_plan_id":"cebpf4jnsgd1na2vs0mg"},{"bike_id":"53735a5c-f4e5-4e30-af6c-9a4a3639ab63","system_id":"levelo_inurba_marseille","lat":43.292749,"lon":5.368398,"is_reserved":false,"is_disabled":false,"rental_uris":{"android":"levelo://app?vid=53735a5c-f4e5-4e30-af6c-9a4a3639ab63","ios":"levelo://app?vid=53735a5c-f4e5-4e30-af6c-9a4a3639ab63"},"vehicle_type_id":"4","last_reported":1725044805,"current_range_meters":0,"station_id":"ce4bhbp2rcd13ifvqesg","pricing_plan_id":"cebpf4jnsgd1na2vs0mg"},{"bike_id":"56973a2a-8134-4b16-a57e-15a7a15f3153","system_id":"levelo_inurba_marseille","lat":43.30607,"lon":5.39358,"is_reserved":false,"is_disabled":false,"rental_uris":{"android":"levelo://app?vid=56973a2a-8134-4b16-a57e-15a7a15f3153","ios":"levelo://app?vid=56973a2a-8134-4b16-a57e-15a7a15f3153"},"vehicle_type_id":"4","last_reported":1725044805,"current_range_meters":13200,"station_id":"ce4bh0p2rcd13ifvqd80","pricing_plan_id":"cebpf4jnsgd1na2vs0mg"},{"bike_id":"27974603-1f51-4ff9-92d4-cbe2b1312b18","system_id":"levelo_inurba_marseille","lat":43.293009,"lon":5.374584,"is_reserved":false,"is_disabled":false,"rental_uris":{"android":"levelo://app?vid=27974603-1f51-4ff9-92d4-cbe2b1312b18","ios":"levelo://app?vid=27974603-1f51-4ff9-92d4-cbe2b1312b18"},"vehicle_type_id":"4","last_reported":1725044805,"current_range_meters":24400,"station_id":"ce4bgi12rcd13ifvqb70","pricing_plan_id":"cebpf4jnsgd1na2vs0mg"},{"bike_id":"8251a7fc-6dea-4278-bf4a-3abb042f22c0","system_id":"levelo_inurba_marseille","lat":43.293009,"lon":5.374584,"is_reserved":false,"is_disabled":false,"rental_uris":{"android":"levelo://app?vid=8251a7fc-6dea-4278-bf4a-3abb042f22c0","ios":"levelo://app?vid=8251a7fc-6dea-4278-bf4a-3abb042f22c0"},"vehicle_type_id":"4","last_reported":1725044805,"current_range_meters":30400,"station_id":"ce4bgi12rcd13ifvqb70","pricing_plan_id":"cebpf4jnsgd1na2vs0mg"},{"bike_id":"468b85b0-cda0-42b5-86ce-1421ec192bef","system_id":"levelo_inurba_marseille","lat":43.293009,"lon":5.374584,"is_reserved":false,"is_disabled":false,"rental_uris":{"android":"levelo://app?vid=468b85b0-cda0-42b5-86ce-1421ec192bef","ios":"levelo://app?vid=468b85b0-cda0-42b5-86ce-1421ec192bef"},"vehicle_type_id":"4","last_reported":1725044805,"current_range_meters":0,"station_id":"ce4bgi12rcd13ifvqb70","pricing_plan_id":"cebpf4jnsgd1na2vs0mg"},{"bike_id":"b60b90c1-c2b3-40d9-bf90-d63e3b3a0bd8","system_id":"levelo_inurba_marseille","lat":43.293009,"lon":5.374584,"is_reserved":false,"is_disabled":false,"rental_uris":{"android":"levelo://app?vid=b60b90c1-c2b3-40d9-bf90-d63e3b3a0bd8","ios":"levelo://app?vid=b60b90c1-c2b3-40d9-bf90-d63e3b3a0bd8"},"vehicle_type_id":"4","last_reported":1725044805,"current_range_meters":400,"station_id":"ce4bgi12rcd13ifvqb70","pricing_plan_id":"cebpf4jnsgd1na2vs0mg"},{"bike_id":"cc7bf253-d57f-4345-a901-59688a3aa003","system_id":"levelo_inurba_marseille","lat":43.30595,"lon":5.3936,"is_reserved":false,"is_disabled":false,"rental_uris":{"android":"levelo://app?vid=cc7bf253-d57f-4345-a901-59688a3aa003","ios":"levelo://app?vid=cc7bf253-d57f-4345-a901-59688a3aa003"},"vehicle_type_id":"4","last_reported":1725044805,"current_range_meters":28800,"station_id":"ce4bh0p2rcd13ifvqd80","pricing_plan_id":"cebpf4jnsgd1na2vs0mg"},{"bike_id":"fb54b175-2fdf-4937-95e9-6cfd33ad7ccf","system_id":"levelo_inurba_marseille","lat":43.293009,"lon":5.374584,"is_reserved":false,"is_disabled":false,"rental_uris":{"android":"levelo://app?vid=fb54b175-2fdf-4937-95e9-6cfd33ad7ccf","ios":"levelo://app?vid=fb54b175-2fdf-4937-95e9-6cfd33ad7ccf"},"vehicle_type_id":"4","last_reported":1725044805,"current_range_meters":0,"station_id":"ce4bgi12rcd13ifvqb70","pricing_plan_id":"cebpf4jnsgd1na2vs0mg"},{"bike_id":"7714d44c-9075-46cb-937b-ee9fd4e604a5","system_id":"levelo_inurba_marseille","lat":43.30594,"lon":5.39362,"is_reserved":false,"is_disabled":false,"rental_uris":{"android":"levelo://app?vid=7714d44c-9075-46cb-937b-ee9fd4e604a5","ios":"levelo://app?vid=7714d44c-9075-46cb-937b-ee9fd4e604a5"},"vehicle_type_id":"4","last_reported":1725044805,"current_range_meters":6800,"station_id":"ce4bh0p2rcd13ifvqd80","pricing_plan_id":"cebpf4jnsgd1na2vs0mg"},{"bike_id":"8b706bcd-9a8e-43c2-b17c-7dc8d40ac80b","system_id":"levelo_inurba_marseille","lat":43.305994,"lon":5.393687,"is_reserved":false,"is_disabled":false,"rental_uris":{"android":"levelo://app?vid=8b706bcd-9a8e-43c2-b17c-7dc8d40ac80b","ios":"levelo://app?vid=8b706bcd-9a8e-43c2-b17c-7dc8d40ac80b"},"vehicle_type_id":"4","last_reported":1725044805,"current_range_meters":1600,"station_id":"ce4bh0p2rcd13ifvqd80","pricing_plan_id":"cebpf4jnsgd1na2vs0mg"},{"bike_id":"ca631980-4192-4d1f-8c0c-df9e973c5f8e","system_id":"levelo_inurba_marseille","lat":43.305994,"lon":5.393687,"is_reserved":false,"is_disabled":false,"rental_uris":{"android":"levelo://app?vid=ca631980-4192-4d1f-8c0c-df9e973c5f8e","ios":"levelo://app?vid=ca631980-4192-4d1f-8c0c-df9e973c5f8e"},"vehicle_type_id":"4","last_reported":1725044805,"current_range_meters":9600,"station_id":"ce4bh0p2rcd13ifvqd80","pricing_plan_id":"cebpf4jnsgd1na2vs0mg"},{"bike_id":"e209d373-76f1-491a-a774-59f08eb5fdea","system_id":"levelo_inurba_marseille","lat":43.2936,"lon":5.37835,"is_reserved":false,"is_disabled":false,"rental_uris":{"android":"levelo://app?vid=e209d373-76f1-491a-a774-59f08eb5fdea","ios":"levelo://app?vid=e209d373-76f1-491a-a774-59f08eb5fdea"},"vehicle_type_id":"4","last_reported":1725044805,"current_range_meters":3600,"station_id":"ce4bgjh2rcd13ifvqbf0","pricing_plan_id":"cebpf4jnsgd1na2vs0mg"},{"bike_id":"b1b57797-b285-463a-8160-ec52d38aa7d8","system_id":"levelo_inurba_marseille","lat":43.30299,"lon":5.39218,"is_reserved":false,"is_disabled":false,"rental_uris":{"android":"levelo://app?vid=b1b57797-b285-463a-8160-ec52d38aa7d8","ios":"levelo://app?vid=b1b57797-b285-463a-8160-ec52d38aa7d8"},"vehicle_type_id":"4","last_reported":1725044805,"current_range_meters":0,"station_id":"ce4bgkh2rcd13ifvqbk0","pricing_plan_id":"cebpf4jnsgd1na2vs0mg"},{"bike_id":"6f2ad83f-df66-4928-ae9e-5c60f2e4e3ea","system_id":"levelo_inurba_marseille","lat":43.2936,"lon":5.37835,"is_reserved":false,"is_disabled":false,"rental_uris":{"android":"levelo://app?vid=6f2ad83f-df66-4928-ae9e-5c60f2e4e3ea","ios":"levelo://app?vid=6f2ad83f-df66-4928-ae9e-5c60f2e4e3ea"},"vehicle_type_id":"4","last_reported":1725044805,"current_range_meters":13600,"station_id":"ce4bgjh2rcd13ifvqbf0","pricing_plan_id":"cebpf4jnsgd1na2vs0mg"},{"bike_id":"dbfcd808-6a4f-4474-9f6a-00c892cc3ff1","system_id":"levelo_inurba_marseille","lat":43.2936,"lon":5.37835,"is_reserved":false,"is_disabled":false,"rental_uris":{"android":"levelo://app?vid=dbfcd808-6a4f-4474-9f6a-00c892cc3ff1","ios":"levelo://app?vid=dbfcd808-6a4f-4474-9f6a-00c892cc3ff1"},"vehicle_type_id":"4","last_reported":1725044805,"current_range_meters":5600,"station_id":"ce4bgjh2rcd13ifvqbf0","pricing_plan_id":"cebpf4jnsgd1na2vs0mg"},{"bike_id":"d29c13be-b17f-48eb-aef3-d0663223c142","system_id":"levelo_inurba_marseille","lat":43.2936,"lon":5.37835,"is_reserved":false,"is_disabled":false,"rental_uris":{"android":"levelo://app?vid=d29c13be-b17f-48eb-aef3-d0663223c142","ios":"levelo://app?vid=d29c13be-b17f-48eb-aef3-d0663223c142"},"vehicle_type_id":"4","last_reported":1725044805,"current_range_meters":8400,"station_id":"ce4bgjh2rcd13ifvqbf0","pricing_plan_id":"cebpf4jnsgd1na2vs0mg"},{"bike_id":"ddca04cd-c574-474e-ad7a-a99454cd9736","system_id":"levelo_inurba_marseille","lat":43.29401,"lon":5.37981,"is_reserved":false,"is_disabled":false,"rental_uris":{"android":"levelo://app?vid=ddca04cd-c574-474e-ad7a-a99454cd9736","ios":"levelo://app?vid=ddca04cd-c574-474e-ad7a-a99454cd9736"},"vehicle_type_id":"4","last_reported":1725044805,"current_range_meters":9200,"station_id":"","pricing_plan_id":"cebpf4jnsgd1na2vs0mg"},{"bike_id":"2eed4ff6-4d7f-4567-b816-af444409a925","system_id":"levelo_inurba_marseille","lat":43.29229,"lon":5.36059,"is_reserved":false,"is_disabled":false,"rental_uris":{"android":"levelo://app?vid=2eed4ff6-4d7f-4567-b816-af444409a925","ios":"levelo://app?vid=2eed4ff6-4d7f-4567-b816-af444409a925"},"vehicle_type_id":"4","last_reported":1725044805,"current_range_meters":0,"station_id":"ce4bhbh2rcd13ifvqeqg","pricing_plan_id":"cebpf4jnsgd1na2vs0mg"},{"bike_id":"c9bd3d4f-d72d-4ff3-b538-88dc8d8a51db","system_id":"levelo_inurba_marseille","lat":43.292311,"lon":5.360731,"is_reserved":false,"is_disabled":false,"rental_uris":{"android":"levelo://app?vid=c9bd3d4f-d72d-4ff3-b538-88dc8d8a51db","ios":"levelo://app?vid=c9bd3d4f-d72d-4ff3-b538-88dc8d8a51db"},"vehicle_type_id":"4","last_reported":1725044805,"current_range_meters":0,"station_id":"ce4bhbh2rcd13ifvqeqg","pricing_plan_id":"cebpf4jnsgd1na2vs0mg"},{"bike_id":"fed1ca92-0213-4d38-85f7-f07d97ce404c","system_id":"levelo_inurba_marseille","lat":43.291671,"lon":5.371575,"is_reserved":false,"is_disabled":false,"rental_uris":{"android":"levelo://app?vid=fed1ca92-0213-4d38-85f7-f07d97ce404c","ios":"levelo://app?vid=fed1ca92-0213-4d38-85f7-f07d97ce404c"},"vehicle_type_id":"4","last_reported":1725044805,"current_range_meters":30400,"station_id":"ce4bha92rcd13ifvqeh0","pricing_plan_id":"cebpf4jnsgd1na2vs0mg"},{"bike_id":"4ef7e045-f32f-434b-a49e-d2275f5b55d7","system_id":"levelo_inurba_marseille","lat":43.298764,"lon":5.388973,"is_reserved":false,"is_disabled":false,"rental_uris":{"android":"levelo://app?vid=4ef7e045-f32f-434b-a49e-d2275f5b55d7","ios":"levelo://app?vid=4ef7e045-f32f-434b-a49e-d2275f5b55d7"},"vehicle_type_id":"4","last_reported":1725044805,"current_range_meters":31200,"station_id":"ce4bh392rcd13ifvqdl0","pricing_plan_id":"cebpf4jnsgd1na2vs0mg"},{"bike_id":"8d7469b4-541b-4ff6-9307-6a9eaab022bc","system_id":"levelo_inurba_marseille","lat":43.309047,"lon":5.396551,"is_reserved":false,"is_disabled":false,"rental_uris":{"android":"levelo://app?vid=8d7469b4-541b-4ff6-9307-6a9eaab022bc","ios":"levelo://app?vid=8d7469b4-541b-4ff6-9307-6a9eaab022bc"},"vehicle_type_id":"4","last_reported":1725044805,"current_range_meters":4800,"station_id":"ce4bh012rcd13ifvqcv0","pricing_plan_id":"cebpf4jnsgd1na2vs0mg"},{"bike_id":"2a234251-944c-442b-8ff8-eba01a5fb4c6","system_id":"levelo_inurba_marseille","lat":43.313291,"lon":5.396838,"is_reserved":false,"is_disabled":false,"rental_uris":{"android":"levelo://app?vid=2a234251-944c-442b-8ff8-eba01a5fb4c6","ios":"levelo://app?vid=2a234251-944c-442b-8ff8-eba01a5fb4c6"},"vehicle_type_id":"4","last_reported":1725044805,"current_range_meters":8800,"station_id":"ce4bgvp2rcd13ifvqcu0","pricing_plan_id":"cebpf4jnsgd1na2vs0mg"},{"bike_id":"8839cdba-d55c-4201-870e-09341d1c9e51","system_id":"levelo_inurba_marseille","lat":43.292005,"lon":5.357875,"is_reserved":false,"is_disabled":false,"rental_uris":{"android":"levelo://app?vid=8839cdba-d55c-4201-870e-09341d1c9e51","ios":"levelo://app?vid=8839cdba-d55c-4201-870e-09341d1c9e51"},"vehicle_type_id":"4","last_reported":1725044805,"current_range_meters":0,"station_id":"ce4bhb12rcd13ifvqel0","pricing_plan_id":"cebpf4jnsgd1na2vs0mg"},{"bike_id":"b925721a-b80e-4a24-b3f3-94ded80ac811","system_id":"levelo_inurba_marseille","lat":43.313291,"lon":5.396838,"is_reserved":false,"is_disabled":false,"rental_uris":{"android":"levelo://app?vid=b925721a-b80e-4a24-b3f3-94ded80ac811","ios":"levelo://app?vid=b925721a-b80e-4a24-b3f3-94ded80ac811"},"vehicle_type_id":"4","last_reported":1725044805,"current_range_meters":21600,"station_id":"ce4bgvp2rcd13ifvqcu0","pricing_plan_id":"cebpf4jnsgd1na2vs0mg"},{"bike_id":"356a3af9-8be4-402e-bfa2-5de63cb55808","system_id":"levelo_inurba_marseille","lat":43.31332,"lon":5.39693,"is_reserved":false,"is_disabled":false,"rental_uris":{"android":"levelo://app?vid=356a3af9-8be4-402e-bfa2-5de63cb55808","ios":"levelo://app?vid=356a3af9-8be4-402e-bfa2-5de63cb55808"},"vehicle_type_id":"4","last_reported":1725044805,"current_range_meters":18400,"station_id":"ce4bgvp2rcd13ifvqcu0","pricing_plan_id":"cebpf4jnsgd1na2vs0mg"},{"bike_id":"ca562002-4e2b-4e55-b284-357744652aa3","system_id":"levelo_inurba_marseille","lat":43.313291,"lon":5.396838,"is_reserved":false,"is_disabled":false,"rental_uris":{"android":"levelo://app?vid=ca562002-4e2b-4e55-b284-357744652aa3","ios":"levelo://app?vid=ca562002-4e2b-4e55-b284-357744652aa3"},"vehicle_type_id":"4","last_reported":1725044805,"current_range_meters":0,"station_id":"ce4bgvp2rcd13ifvqcu0","pricing_plan_id":"cebpf4jnsgd1na2vs0mg"},{"bike_id":"da40e254-e753-4b7f-9abc-c70f6c2ac1c8","system_id":"levelo_inurba_marseille","lat":43.31323,"lon":5.39696,"is_reserved":false,"is_disabled":false,"rental_uris":{"android":"levelo://app?vid=da40e254-e753-4b7f-9abc-c70f6c2ac1c8","ios":"levelo://app?vid=da40e254-e753-4b7f-9abc-c70f6c2ac1c8"},"vehicle_type_id":"4","last_reported":1725044805,"current_range_meters":30800,"station_id":"ce4bgvp2rcd13ifvqcu0","pricing_plan_id":"cebpf4jnsgd1na2vs0mg"},{"bike_id":"cea410cb-34cd-4627-aee2-a43e3ff58633","system_id":"levelo_inurba_marseille","lat":43.313291,"lon":5.396838,"is_reserved":false,"is_disabled":false,"rental_uris":{"android":"levelo://app?vid=cea410cb-34cd-4627-aee2-a43e3ff58633","ios":"levelo://app?vid=cea410cb-34cd-4627-aee2-a43e3ff58633"},"vehicle_type_id":"4","last_reported":1725044805,"current_range_meters":7600,"station_id":"ce4bgvp2rcd13ifvqcu0","pricing_plan_id":"cebpf4jnsgd1na2vs0mg"},{"bike_id":"abea910b-2a01-4ada-ab09-bfeff36833a0","system_id":"levelo_inurba_marseille","lat":43.30883,"lon":5.39652,"is_reserved":false,"is_disabled":false,"rental_uris":{"android":"levelo://app?vid=abea910b-2a01-4ada-ab09-bfeff36833a0","ios":"levelo://app?vid=abea910b-2a01-4ada-ab09-bfeff36833a0"},"vehicle_type_id":"4","last_reported":1725044805,"current_range_meters":0,"station_id":"ce4bh012rcd13ifvqcv0","pricing_plan_id":"cebpf4jnsgd1na2vs0mg"},{"bike_id":"df19c31a-2e58-4585-8958-86482562ddbe","system_id":"levelo_inurba_marseille","lat":43.309047,"lon":5.396551,"is_reserved":false,"is_disabled":false,"rental_uris":{"android":"levelo://app?vid=df19c31a-2e58-4585-8958-86482562ddbe","ios":"levelo://app?vid=df19c31a-2e58-4585-8958-86482562ddbe"},"vehicle_type_id":"4","last_reported":1725044805,"current_range_meters":4000,"station_id":"ce4bh012rcd13ifvqcv0","pricing_plan_id":"cebpf4jnsgd1na2vs0mg"},{"bike_id":"522ea4ae-adf1-49c0-a6a6-d3055830f5aa","system_id":"levelo_inurba_marseille","lat":43.309047,"lon":5.396551,"is_reserved":false,"is_disabled":false,"rental_uris":{"android":"levelo://app?vid=522ea4ae-adf1-49c0-a6a6-d3055830f5aa","ios":"levelo://app?vid=522ea4ae-adf1-49c0-a6a6-d3055830f5aa"},"vehicle_type_id":"4","last_reported":1725044805,"current_range_meters":5200,"station_id":"ce4bh012rcd13ifvqcv0","pricing_plan_id":"cebpf4jnsgd1na2vs0mg"},{"bike_id":"db2d0626-912f-43d5-868c-389981d37448","system_id":"levelo_inurba_marseille","lat":43.309047,"lon":5.396551,"is_reserved":false,"is_disabled":false,"rental_uris":{"android":"levelo://app?vid=db2d0626-912f-43d5-868c-389981d37448","ios":"levelo://app?vid=db2d0626-912f-43d5-868c-389981d37448"},"vehicle_type_id":"4","last_reported":1725044805,"current_range_meters":30000,"station_id":"ce4bh012rcd13ifvqcv0","pricing_plan_id":"cebpf4jnsgd1na2vs0mg"},{"bike_id":"0836fa58-4bde-44bd-a5a8-71e9cc6226a2","system_id":"levelo_inurba_marseille","lat":43.309047,"lon":5.396551,"is_reserved":false,"is_disabled":false,"rental_uris":{"android":"levelo://app?vid=0836fa58-4bde-44bd-a5a8-71e9cc6226a2","ios":"levelo://app?vid=0836fa58-4bde-44bd-a5a8-71e9cc6226a2"},"vehicle_type_id":"4","last_reported":1725044805,"current_range_meters":26800,"station_id":"ce4bh012rcd13ifvqcv0","pricing_plan_id":"cebpf4jnsgd1na2vs0mg"},{"bike_id":"866dd1b2-6ae1-40a4-a478-2bd3aabad39f","system_id":"levelo_inurba_marseille","lat":43.29529,"lon":5.385581,"is_reserved":false,"is_disabled":false,"rental_uris":{"android":"levelo://app?vid=866dd1b2-6ae1-40a4-a478-2bd3aabad39f","ios":"levelo://app?vid=866dd1b2-6ae1-40a4-a478-2bd3aabad39f"},"vehicle_type_id":"4","last_reported":1725044805,"current_range_meters":13600,"station_id":"ce4bgih2rcd13ifvqba0","pricing_plan_id":"cebpf4jnsgd1na2vs0mg"},{"bike_id":"99b2a5db-4df6-474e-8a06-6f73f975fcfa","system_id":"levelo_inurba_marseille","lat":43.29529,"lon":5.385581,"is_reserved":false,"is_disabled":false,"rental_uris":{"android":"levelo://app?vid=99b2a5db-4df6-474e-8a06-6f73f975fcfa","ios":"levelo://app?vid=99b2a5db-4df6-474e-8a06-6f73f975fcfa"},"vehicle_type_id":"4","last_reported":1725044805,"current_range_meters":15200,"station_id":"ce4bgih2rcd13ifvqba0","pricing_plan_id":"cebpf4jnsgd1na2vs0mg"},{"bike_id":"e4ed33cd-53a6-4960-9c3b-ad8d56d957fe","system_id":"levelo_inurba_marseille","lat":43.29529,"lon":5.385581,"is_reserved":false,"is_disabled":false,"rental_uris":{"android":"levelo://app?vid=e4ed33cd-53a6-4960-9c3b-ad8d56d957fe","ios":"levelo://app?vid=e4ed33cd-53a6-4960-9c3b-ad8d56d957fe"},"vehicle_type_id":"4","last_reported":1725044805,"current_range_meters":6800,"station_id":"ce4bgih2rcd13ifvqba0","pricing_plan_id":"cebpf4jnsgd1na2vs0mg"},{"bike_id":"3b5ce0ad-32a0-440a-9e0b-4902c9836349","system_id":"levelo_inurba_marseille","lat":43.29529,"lon":5.385581,"is_reserved":false,"is_disabled":false,"rental_uris":{"android":"levelo://app?vid=3b5ce0ad-32a0-440a-9e0b-4902c9836349","ios":"levelo://app?vid=3b5ce0ad-32a0-440a-9e0b-4902c9836349"},"vehicle_type_id":"4","last_reported":1725044805,"current_range_meters":27200,"station_id":"ce4bgih2rcd13ifvqba0","pricing_plan_id":"cebpf4jnsgd1na2vs0mg"},{"bike_id":"7809c8bc-8cd1-4ee8-8a6a-abf01f7b8beb","system_id":"levelo_inurba_marseille","lat":43.29529,"lon":5.385581,"is_reserved":false,"is_disabled":false,"rental_uris":{"android":"levelo://app?vid=7809c8bc-8cd1-4ee8-8a6a-abf01f7b8beb","ios":"levelo://app?vid=7809c8bc-8cd1-4ee8-8a6a-abf01f7b8beb"},"vehicle_type_id":"4","last_reported":1725044805,"current_range_meters":15200,"station_id":"ce4bgih2rcd13ifvqba0","pricing_plan_id":"cebpf4jnsgd1na2vs0mg"},{"bike_id":"91b755ee-b63d-40a6-8dd2-1657894252e2","system_id":"levelo_inurba_marseille","lat":43.29529,"lon":5.385581,"is_reserved":false,"is_disabled":false,"rental_uris":{"android":"levelo://app?vid=91b755ee-b63d-40a6-8dd2-1657894252e2","ios":"levelo://app?vid=91b755ee-b63d-40a6-8dd2-1657894252e2"},"vehicle_type_id":"4","last_reported":1725044805,"current_range_meters":31200,"station_id":"ce4bgih2rcd13ifvqba0","pricing_plan_id":"cebpf4jnsgd1na2vs0mg"},{"bike_id":"263ce7c7-ae1e-45ec-9db0-4d20ffefb075","system_id":"levelo_inurba_marseille","lat":43.290779,"lon":5.371482,"is_reserved":false,"is_disabled":false,"rental_uris":{"android":"levelo://app?vid=263ce7c7-ae1e-45ec-9db0-4d20ffefb075","ios":"levelo://app?vid=263ce7c7-ae1e-45ec-9db0-4d20ffefb075"},"vehicle_type_id":"4","last_reported":1725044805,"current_range_meters":2400,"station_id":"ce4bh5p2rcd13ifvqe4g","pricing_plan_id":"cebpf4jnsgd1na2vs0mg"},{"bike_id":"1c4c7bf1-5aa9-4e65-864e-2b8622fccb59","system_id":"levelo_inurba_marseille","lat":43.290779,"lon":5.371482,"is_reserved":false,"is_disabled":false,"rental_uris":{"android":"levelo://app?vid=1c4c7bf1-5aa9-4e65-864e-2b8622fccb59","ios":"levelo://app?vid=1c4c7bf1-5aa9-4e65-864e-2b8622fccb59"},"vehicle_type_id":"4","last_reported":1725044805,"current_range_meters":24400,"station_id":"ce4bh5p2rcd13ifvqe4g","pricing_plan_id":"cebpf4jnsgd1na2vs0mg"},{"bike_id":"0c26a9e0-c464-4d52-9eae-9d42bc182c0a","system_id":"levelo_inurba_marseille","lat":43.290779,"lon":5.371482,"is_reserved":false,"is_disabled":false,"rental_uris":{"android":"levelo://app?vid=0c26a9e0-c464-4d52-9eae-9d42bc182c0a","ios":"levelo://app?vid=0c26a9e0-c464-4d52-9eae-9d42bc182c0a"},"vehicle_type_id":"4","last_reported":1725044805,"current_range_meters":0,"station_id":"ce4bh5p2rcd13ifvqe4g","pricing_plan_id":"cebpf4jnsgd1na2vs0mg"},{"bike_id":"c5d417cb-d451-45a7-a681-1cacc0c31687","system_id":"levelo_inurba_marseille","lat":43.302008,"lon":5.394694,"is_reserved":false,"is_disabled":false,"rental_uris":{"android":"levelo://app?vid=c5d417cb-d451-45a7-a681-1cacc0c31687","ios":"levelo://app?vid=c5d417cb-d451-45a7-a681-1cacc0c31687"},"vehicle_type_id":"4","last_reported":1725044805,"current_range_meters":22400,"station_id":"ce4bh0p2rcd13ifvqd70","pricing_plan_id":"cebpf4jnsgd1na2vs0mg"},{"bike_id":"270ec54b-b1f2-4905-91a1-e7de42de5b26","system_id":"levelo_inurba_marseille","lat":43.302063,"lon":5.394788,"is_reserved":false,"is_disabled":false,"rental_uris":{"android":"levelo://app?vid=270ec54b-b1f2-4905-91a1-e7de42de5b26","ios":"levelo://app?vid=270ec54b-b1f2-4905-91a1-e7de42de5b26"},"vehicle_type_id":"4","last_reported":1725044805,"current_range_meters":0,"station_id":"ce4bh0p2rcd13ifvqd70","pricing_plan_id":"cebpf4jnsgd1na2vs0mg"},{"bike_id":"4fae9ccd-c6a0-4c33-b4b6-de920b5aac31","system_id":"levelo_inurba_marseille","lat":43.29425,"lon":5.38622,"is_reserved":false,"is_disabled":false,"rental_uris":{"android":"levelo://app?vid=4fae9ccd-c6a0-4c33-b4b6-de920b5aac31","ios":"levelo://app?vid=4fae9ccd-c6a0-4c33-b4b6-de920b5aac31"},"vehicle_type_id":"4","last_reported":1725044805,"current_range_meters":31200,"station_id":"ce4bh2h2rcd13ifvqdh0","pricing_plan_id":"cebpf4jnsgd1na2vs0mg"},{"bike_id":"7defacc1-a8e1-4d7f-a317-db2644ca5fb5","system_id":"levelo_inurba_marseille","lat":43.294153,"lon":5.386305,"is_reserved":false,"is_disabled":false,"rental_uris":{"android":"levelo://app?vid=7defacc1-a8e1-4d7f-a317-db2644ca5fb5","ios":"levelo://app?vid=7defacc1-a8e1-4d7f-a317-db2644ca5fb5"},"vehicle_type_id":"4","last_reported":1725044805,"current_range_meters":21600,"station_id":"ce4bh2h2rcd13ifvqdh0","pricing_plan_id":"cebpf4jnsgd1na2vs0mg"},{"bike_id":"ccda9eac-1269-44ba-9518-ae626fabc4b9","system_id":"levelo_inurba_marseille","lat":43.2942,"lon":5.38621,"is_reserved":false,"is_disabled":false,"rental_uris":{"android":"levelo://app?vid=ccda9eac-1269-44ba-9518-ae626fabc4b9","ios":"levelo://app?vid=ccda9eac-1269-44ba-9518-ae626fabc4b9"},"vehicle_type_id":"4","last_reported":1725044805,"current_range_meters":27600,"station_id":"ce4bh2h2rcd13ifvqdh0","pricing_plan_id":"cebpf4jnsgd1na2vs0mg"},{"bike_id":"b5128168-3ed9-4609-9bc2-efd0088f4ffd","system_id":"levelo_inurba_marseille","lat":43.290327,"lon":5.375711,"is_reserved":false,"is_disabled":false,"rental_uris":{"android":"levelo://app?vid=b5128168-3ed9-4609-9bc2-efd0088f4ffd","ios":"levelo://app?vid=b5128168-3ed9-4609-9bc2-efd0088f4ffd"},"vehicle_type_id":"4","last_reported":1725044805,"current_range_meters":8800,"station_id":"ce4bh692rcd13ifvqe90","pricing_plan_id":"cebpf4jnsgd1na2vs0mg"},{"bike_id":"a9a81ee0-a9d7-414c-aced-74c04caad20e","system_id":"levelo_inurba_marseille","lat":43.29419,"lon":5.38621,"is_reserved":false,"is_disabled":false,"rental_uris":{"android":"levelo://app?vid=a9a81ee0-a9d7-414c-aced-74c04caad20e","ios":"levelo://app?vid=a9a81ee0-a9d7-414c-aced-74c04caad20e"},"vehicle_type_id":"4","last_reported":1725044805,"current_range_meters":8400,"station_id":"ce4bh2h2rcd13ifvqdh0","pricing_plan_id":"cebpf4jnsgd1na2vs0mg"},{"bike_id":"6d9454e8-3a32-48c3-9a47-de2053278066","system_id":"levelo_inurba_marseille","lat":43.29421,"lon":5.38625,"is_reserved":false,"is_disabled":false,"rental_uris":{"android":"levelo://app?vid=6d9454e8-3a32-48c3-9a47-de2053278066","ios":"levelo://app?vid=6d9454e8-3a32-48c3-9a47-de2053278066"},"vehicle_type_id":"4","last_reported":1725044805,"current_range_meters":31200,"station_id":"ce4bh2h2rcd13ifvqdh0","pricing_plan_id":"cebpf4jnsgd1na2vs0mg"},{"bike_id":"8c93f166-7fc2-4f27-a209-b3157f938524","system_id":"levelo_inurba_marseille","lat":43.29037,"lon":5.3757,"is_reserved":false,"is_disabled":false,"rental_uris":{"android":"levelo://app?vid=8c93f166-7fc2-4f27-a209-b3157f938524","ios":"levelo://app?vid=8c93f166-7fc2-4f27-a209-b3157f938524"},"vehicle_type_id":"4","last_reported":1725044805,"current_range_meters":17600,"station_id":"ce4bh692rcd13ifvqe90","pricing_plan_id":"cebpf4jnsgd1na2vs0mg"},{"bike_id":"9468cb37-8690-45ac-9005-2605d32ed6a7","system_id":"levelo_inurba_marseille","lat":43.29419,"lon":5.38623,"is_reserved":false,"is_disabled":false,"rental_uris":{"android":"levelo://app?vid=9468cb37-8690-45ac-9005-2605d32ed6a7","ios":"levelo://app?vid=9468cb37-8690-45ac-9005-2605d32ed6a7"},"vehicle_type_id":"4","last_reported":1725044805,"current_range_meters":31200,"station_id":"ce4bh2h2rcd13ifvqdh0","pricing_plan_id":"cebpf4jnsgd1na2vs0mg"},{"bike_id":"7176895b-c8ac-4f68-b98f-de6b227ae50a","system_id":"levelo_inurba_marseille","lat":43.29037,"lon":5.37576,"is_reserved":false,"is_disabled":false,"rental_uris":{"android":"levelo://app?vid=7176895b-c8ac-4f68-b98f-de6b227ae50a","ios":"levelo://app?vid=7176895b-c8ac-4f68-b98f-de6b227ae50a"},"vehicle_type_id":"4","last_reported":1725044805,"current_range_meters":30800,"station_id":"ce4bh692rcd13ifvqe90","pricing_plan_id":"cebpf4jnsgd1na2vs0mg"},{"bike_id":"4e027405-0f5e-450e-ba3d-17ec7de62fda","system_id":"levelo_inurba_marseille","lat":43.290327,"lon":5.375711,"is_reserved":false,"is_disabled":false,"rental_uris":{"android":"levelo://app?vid=4e027405-0f5e-450e-ba3d-17ec7de62fda","ios":"levelo://app?vid=4e027405-0f5e-450e-ba3d-17ec7de62fda"},"vehicle_type_id":"4","last_reported":1725044805,"current_range_meters":24800,"station_id":"ce4bh692rcd13ifvqe90","pricing_plan_id":"cebpf4jnsgd1na2vs0mg"},{"bike_id":"3af0ebed-21a4-4748-a3b0-3e6ca16ed2e1","system_id":"levelo_inurba_marseille","lat":43.294195,"lon":5.38629,"is_reserved":false,"is_disabled":false,"rental_uris":{"android":"levelo://app?vid=3af0ebed-21a4-4748-a3b0-3e6ca16ed2e1","ios":"levelo://app?vid=3af0ebed-21a4-4748-a3b0-3e6ca16ed2e1"},"vehicle_type_id":"4","last_reported":1725044805,"current_range_meters":31200,"station_id":"ce4bh2h2rcd13ifvqdh0","pricing_plan_id":"cebpf4jnsgd1na2vs0mg"},{"bike_id":"79091f02-ae96-450f-9bab-0e9d0bf6d564","system_id":"levelo_inurba_marseille","lat":43.290327,"lon":5.375711,"is_reserved":false,"is_disabled":false,"rental_uris":{"android":"levelo://app?vid=79091f02-ae96-450f-9bab-0e9d0bf6d564","ios":"levelo://app?vid=79091f02-ae96-450f-9bab-0e9d0bf6d564"},"vehicle_type_id":"4","last_reported":1725044805,"current_range_meters":31200,"station_id":"ce4bh692rcd13ifvqe90","pricing_plan_id":"cebpf4jnsgd1na2vs0mg"},{"bike_id":"4c58d96f-a4ce-4faf-af0a-25aadbb5ae2d","system_id":"levelo_inurba_marseille","lat":43.29419,"lon":5.3863,"is_reserved":false,"is_disabled":false,"rental_uris":{"android":"levelo://app?vid=4c58d96f-a4ce-4faf-af0a-25aadbb5ae2d","ios":"levelo://app?vid=4c58d96f-a4ce-4faf-af0a-25aadbb5ae2d"},"vehicle_type_id":"4","last_reported":1725044805,"current_range_meters":31200,"station_id":"ce4bh2h2rcd13ifvqdh0","pricing_plan_id":"cebpf4jnsgd1na2vs0mg"},{"bike_id":"d4a25eb2-1733-4bf2-8154-dee65fbc3185","system_id":"levelo_inurba_marseille","lat":43.294162,"lon":5.386292,"is_reserved":false,"is_disabled":false,"rental_uris":{"android":"levelo://app?vid=d4a25eb2-1733-4bf2-8154-dee65fbc3185","ios":"levelo://app?vid=d4a25eb2-1733-4bf2-8154-dee65fbc3185"},"vehicle_type_id":"4","last_reported":1725044805,"current_range_meters":29200,"station_id":"ce4bh2h2rcd13ifvqdh0","pricing_plan_id":"cebpf4jnsgd1na2vs0mg"},{"bike_id":"0dd79e35-8b8e-45d6-84c4-77a9d532c56a","system_id":"levelo_inurba_marseille","lat":43.294162,"lon":5.386292,"is_reserved":false,"is_disabled":false,"rental_uris":{"android":"levelo://app?vid=0dd79e35-8b8e-45d6-84c4-77a9d532c56a","ios":"levelo://app?vid=0dd79e35-8b8e-45d6-84c4-77a9d532c56a"},"vehicle_type_id":"4","last_reported":1725044805,"current_range_meters":31200,"station_id":"ce4bh2h2rcd13ifvqdh0","pricing_plan_id":"cebpf4jnsgd1na2vs0mg"},{"bike_id":"2f515c7d-044e-47ca-8885-e65442e32da1","system_id":"levelo_inurba_marseille","lat":43.294162,"lon":5.386292,"is_reserved":false,"is_disabled":false,"rental_uris":{"android":"levelo://app?vid=2f515c7d-044e-47ca-8885-e65442e32da1","ios":"levelo://app?vid=2f515c7d-044e-47ca-8885-e65442e32da1"},"vehicle_type_id":"4","last_reported":1725044805,"current_range_meters":6000,"station_id":"ce4bh2h2rcd13ifvqdh0","pricing_plan_id":"cebpf4jnsgd1na2vs0mg"},{"bike_id":"26efc42b-273b-4e43-8ac2-df52c5351ccc","system_id":"levelo_inurba_marseille","lat":43.294162,"lon":5.386292,"is_reserved":false,"is_disabled":false,"rental_uris":{"android":"levelo://app?vid=26efc42b-273b-4e43-8ac2-df52c5351ccc","ios":"levelo://app?vid=26efc42b-273b-4e43-8ac2-df52c5351ccc"},"vehicle_type_id":"4","last_reported":1725044805,"current_range_meters":31200,"station_id":"ce4bh2h2rcd13ifvqdh0","pricing_plan_id":"cebpf4jnsgd1na2vs0mg"},{"bike_id":"ef2e107f-7ce6-4ebb-9444-e004f730e713","system_id":"levelo_inurba_marseille","lat":43.289184,"lon":5.366408,"is_reserved":false,"is_disabled":false,"rental_uris":{"android":"levelo://app?vid=ef2e107f-7ce6-4ebb-9444-e004f730e713","ios":"levelo://app?vid=ef2e107f-7ce6-4ebb-9444-e004f730e713"},"vehicle_type_id":"4","last_reported":1725044805,"current_range_meters":4400,"station_id":"ce4bhap2rcd13ifvqek0","pricing_plan_id":"cebpf4jnsgd1na2vs0mg"},{"bike_id":"157f3736-a189-4092-b459-39caca28fbd4","system_id":"levelo_inurba_marseille","lat":43.294162,"lon":5.386292,"is_reserved":false,"is_disabled":false,"rental_uris":{"android":"levelo://app?vid=157f3736-a189-4092-b459-39caca28fbd4","ios":"levelo://app?vid=157f3736-a189-4092-b459-39caca28fbd4"},"vehicle_type_id":"4","last_reported":1725044805,"current_range_meters":20800,"station_id":"ce4bh2h2rcd13ifvqdh0","pricing_plan_id":"cebpf4jnsgd1na2vs0mg"},{"bike_id":"34def051-66b5-4174-b0d1-ac391db18986","system_id":"levelo_inurba_marseille","lat":43.294162,"lon":5.386292,"is_reserved":false,"is_disabled":false,"rental_uris":{"android":"levelo://app?vid=34def051-66b5-4174-b0d1-ac391db18986","ios":"levelo://app?vid=34def051-66b5-4174-b0d1-ac391db18986"},"vehicle_type_id":"4","last_reported":1725044805,"current_range_meters":6000,"station_id":"ce4bh2h2rcd13ifvqdh0","pricing_plan_id":"cebpf4jnsgd1na2vs0mg"},{"bike_id":"5864c307-cbb5-4ede-9b03-0b9e4a88f9f9","system_id":"levelo_inurba_marseille","lat":43.29404,"lon":5.3863,"is_reserved":false,"is_disabled":false,"rental_uris":{"android":"levelo://app?vid=5864c307-cbb5-4ede-9b03-0b9e4a88f9f9","ios":"levelo://app?vid=5864c307-cbb5-4ede-9b03-0b9e4a88f9f9"},"vehicle_type_id":"4","last_reported":1725044805,"current_range_meters":31200,"station_id":"ce4bh2h2rcd13ifvqdh0","pricing_plan_id":"cebpf4jnsgd1na2vs0mg"},{"bike_id":"da165a47-bdb8-4ce9-acbc-e1c0c201df72","system_id":"levelo_inurba_marseille","lat":43.289184,"lon":5.366408,"is_reserved":false,"is_disabled":false,"rental_uris":{"android":"levelo://app?vid=da165a47-bdb8-4ce9-acbc-e1c0c201df72","ios":"levelo://app?vid=da165a47-bdb8-4ce9-acbc-e1c0c201df72"},"vehicle_type_id":"4","last_reported":1725044805,"current_range_meters":3200,"station_id":"ce4bhap2rcd13ifvqek0","pricing_plan_id":"cebpf4jnsgd1na2vs0mg"},{"bike_id":"6f9e1dd7-b4cf-46a4-9395-f544a1a9b298","system_id":"levelo_inurba_marseille","lat":43.290631,"lon":5.359244,"is_reserved":false,"is_disabled":false,"rental_uris":{"android":"levelo://app?vid=6f9e1dd7-b4cf-46a4-9395-f544a1a9b298","ios":"levelo://app?vid=6f9e1dd7-b4cf-46a4-9395-f544a1a9b298"},"vehicle_type_id":"4","last_reported":1725044805,"current_range_meters":20000,"station_id":"ce4bha92rcd13ifvqeg0","pricing_plan_id":"cebpf4jnsgd1na2vs0mg"},{"bike_id":"b29c9c93-62ee-44aa-a394-5e0886db3cae","system_id":"levelo_inurba_marseille","lat":43.292644,"lon":5.384257,"is_reserved":false,"is_disabled":false,"rental_uris":{"android":"levelo://app?vid=b29c9c93-62ee-44aa-a394-5e0886db3cae","ios":"levelo://app?vid=b29c9c93-62ee-44aa-a394-5e0886db3cae"},"vehicle_type_id":"4","last_reported":1725044805,"current_range_meters":22800,"station_id":"ce4bh692rcd13ifvqea0","pricing_plan_id":"cebpf4jnsgd1na2vs0mg"},{"bike_id":"e1f02c0d-79a3-4dcd-832f-efa5aacb5f71","system_id":"levelo_inurba_marseille","lat":43.292644,"lon":5.384257,"is_reserved":false,"is_disabled":false,"rental_uris":{"android":"levelo://app?vid=e1f02c0d-79a3-4dcd-832f-efa5aacb5f71","ios":"levelo://app?vid=e1f02c0d-79a3-4dcd-832f-efa5aacb5f71"},"vehicle_type_id":"4","last_reported":1725044805,"current_range_meters":4400,"station_id":"ce4bh692rcd13ifvqea0","pricing_plan_id":"cebpf4jnsgd1na2vs0mg"},{"bike_id":"2256fca3-df68-4c1f-927b-ba9803950692","system_id":"levelo_inurba_marseille","lat":43.292642,"lon":5.384254,"is_reserved":false,"is_disabled":false,"rental_uris":{"android":"levelo://app?vid=2256fca3-df68-4c1f-927b-ba9803950692","ios":"levelo://app?vid=2256fca3-df68-4c1f-927b-ba9803950692"},"vehicle_type_id":"4","last_reported":1725044805,"current_range_meters":400,"station_id":"ce4bh692rcd13ifvqea0","pricing_plan_id":"cebpf4jnsgd1na2vs0mg"},{"bike_id":"c46412ca-102c-4418-b3c6-b0042b25e800","system_id":"levelo_inurba_marseille","lat":43.292644,"lon":5.384257,"is_reserved":false,"is_disabled":false,"rental_uris":{"android":"levelo://app?vid=c46412ca-102c-4418-b3c6-b0042b25e800","ios":"levelo://app?vid=c46412ca-102c-4418-b3c6-b0042b25e800"},"vehicle_type_id":"4","last_reported":1725044805,"current_range_meters":2000,"station_id":"ce4bh692rcd13ifvqea0","pricing_plan_id":"cebpf4jnsgd1na2vs0mg"},{"bike_id":"5209d164-b628-439c-a2c1-104aa9aea133","system_id":"levelo_inurba_marseille","lat":43.292644,"lon":5.384257,"is_reserved":false,"is_disabled":false,"rental_uris":{"android":"levelo://app?vid=5209d164-b628-439c-a2c1-104aa9aea133","ios":"levelo://app?vid=5209d164-b628-439c-a2c1-104aa9aea133"},"vehicle_type_id":"4","last_reported":1725044805,"current_range_meters":12400,"station_id":"ce4bh692rcd13ifvqea0","pricing_plan_id":"cebpf4jnsgd1na2vs0mg"},{"bike_id":"82dc6299-d6a8-442e-a25f-11169ee953a7","system_id":"levelo_inurba_marseille","lat":43.292642,"lon":5.384254,"is_reserved":false,"is_disabled":false,"rental_uris":{"android":"levelo://app?vid=82dc6299-d6a8-442e-a25f-11169ee953a7","ios":"levelo://app?vid=82dc6299-d6a8-442e-a25f-11169ee953a7"},"vehicle_type_id":"4","last_reported":1725044805,"current_range_meters":2000,"station_id":"ce4bh692rcd13ifvqea0","pricing_plan_id":"cebpf4jnsgd1na2vs0mg"},{"bike_id":"45a79904-d5bf-46d6-9f42-cb408d5b22bb","system_id":"levelo_inurba_marseille","lat":43.292644,"lon":5.384257,"is_reserved":false,"is_disabled":false,"rental_uris":{"android":"levelo://app?vid=45a79904-d5bf-46d6-9f42-cb408d5b22bb","ios":"levelo://app?vid=45a79904-d5bf-46d6-9f42-cb408d5b22bb"},"vehicle_type_id":"4","last_reported":1725044805,"current_range_meters":1200,"station_id":"ce4bh692rcd13ifvqea0","pricing_plan_id":"cebpf4jnsgd1na2vs0mg"},{"bike_id":"eaa68a7d-efc3-4fa7-95f7-f8bb8e35840e","system_id":"levelo_inurba_marseille","lat":43.292644,"lon":5.384257,"is_reserved":false,"is_disabled":false,"rental_uris":{"android":"levelo://app?vid=eaa68a7d-efc3-4fa7-95f7-f8bb8e35840e","ios":"levelo://app?vid=eaa68a7d-efc3-4fa7-95f7-f8bb8e35840e"},"vehicle_type_id":"4","last_reported":1725044805,"current_range_meters":24800,"station_id":"ce4bh692rcd13ifvqea0","pricing_plan_id":"cebpf4jnsgd1na2vs0mg"},{"bike_id":"39d5b437-cf8d-4809-a5fc-9fd62dfc6d6b","system_id":"levelo_inurba_marseille","lat":43.29266,"lon":5.3844,"is_reserved":false,"is_disabled":false,"rental_uris":{"android":"levelo://app?vid=39d5b437-cf8d-4809-a5fc-9fd62dfc6d6b","ios":"levelo://app?vid=39d5b437-cf8d-4809-a5fc-9fd62dfc6d6b"},"vehicle_type_id":"4","last_reported":1725044805,"current_range_meters":400,"station_id":"ce4bh692rcd13ifvqea0","pricing_plan_id":"cebpf4jnsgd1na2vs0mg"},{"bike_id":"14332a28-25a2-4c98-952b-170ba533044a","system_id":"levelo_inurba_marseille","lat":43.29272,"lon":5.3846,"is_reserved":false,"is_disabled":false,"rental_uris":{"android":"levelo://app?vid=14332a28-25a2-4c98-952b-170ba533044a","ios":"levelo://app?vid=14332a28-25a2-4c98-952b-170ba533044a"},"vehicle_type_id":"4","last_reported":1725044805,"current_range_meters":28400,"station_id":"ce4bh692rcd13ifvqea0","pricing_plan_id":"cebpf4jnsgd1na2vs0mg"},