{"last_updated":1733951309,"ttl":60,"version":"2.2","data":{"bikes":[{"bike_id":"fb25f55d-a8d3-45ac-bd6b-859bedbb41ea","system_id":"levelo_inurba_marseille","lat":43.28465,"lon":5.35884,"is_reserved":false,"is_disabled":false,"rental_uris":{"android":"levelo://app?vid=fb25f55d-a8d3-45ac-bd6b-859bedbb41ea","ios":"levelo://app?vid=fb25f55d-a8d3-45ac-bd6b-859bedbb41ea"},"vehicle_type_id":"4","last_reported":1733951309,"current_range_meters":38800,"station_id":"ce4bhah2rcd13ifvqei0","pricing_plan_id":"cebpf4jnsgd1na2vs0mg"},{"bike_id":"8953f52f-7365-465e-9097-1952d8fdf9bc","system_id":"levelo_inurba_marseille","lat":43.29846,"lon":5.36278,"is_reserved":false,"is_disabled":false,"rental_uris":{"android":"levelo://app?vid=8953f52f-7365-465e-9097-1952d8fdf9bc","ios":"levelo://app?vid=8953f52f-7365-465e-9097-1952d8fdf9bc"},"vehicle_type_id":"4","last_reported":1733951309,"current_range_meters":38400,"station_id":"ce4bgpp2rcd13ifvqc3g","pricing_plan_id":"cebpf4jnsgd1na2vs0mg"},{"bike_id":"5a1d5db3-014a-4e87-97d8-818e2656f060","system_id":"levelo_inurba_marseille","lat":43.25583,"lon":5.38237,"is_reserved":false,"is_disabled":false,"rental_uris":{"android":"levelo://app?vid=5a1d5db3-014a-4e87-97d8-818e2656f060","ios":"levelo://app?vid=5a1d5db3-014a-4e87-97d8-818e2656f060"},"vehicle_type_id":"4","last_reported":1733951309,"current_range_meters":38800,"station_id":"ce4bhih2rcd13ifvqfs0","pricing_plan_id":"cebpf4jnsgd1na2vs0mg"},{"bike_id":"60e9ed68-c2d5-4fcc-b1fe-df98992a2ea5","system_id":"levelo_inurba_marseille","lat":43.30759,"lon":5.36833,"is_reserved":false,"is_disabled":true,"rental_uris":{"android":"levelo://app?vid=60e9ed68-c2d5-4fcc-b1fe-df98992a2ea5","ios":"levelo://app?vid=60e9ed68-c2d5-4fcc-b1fe-df98992a2ea5"},"vehicle_type_id":"4","last_reported":1733951309,"current_range_meters":0,"station_id":"","pricing_plan_id":"cebpf4jnsgd1na2vs0mg"},{"bike_id":"b266efff-3a14-4d1a-a25a-c68ad062a1f4","system_id":"levelo_inurba_marseille","lat":43.24171,"lon":5.36383,"is_reserved":false,"is_disabled":false,"rental_uris":{"android":"levelo://app?vid=b266efff-3a14-4d1a-a25a-c68ad062a1f4","ios":"levelo://app?vid=b266efff-3a14-4d1a-a25a-c68ad062a1f4"},"vehicle_type_id":"4","last_reported":1733951309,"current_range_meters":8000,"station_id":"cpo36qri1sfpv3e86is0","pricing_plan_id":"cebpf4jnsgd1na2vs0mg"},{"bike_id":"bb9d7253-10c6-4121-a593-4387d3e5acad","system_id":"levelo_inurba_marseille","lat":43.31335,"lon":5.39689,"is_reserved":false,"is_disabled":false,"rental_uris":{"android":"levelo://app?vid=bb9d7253-10c6-4121-a593-4387d3e5acad","ios":"levelo://app?vid=bb9d7253-10c6-4121-a593-4387d3e5acad"},"vehicle_type_id":"4","last_reported":1733951309,"current_range_meters":24400,"station_id":"ce4bgvp2rcd13ifvqcu0","pricing_plan_id":"cebpf4jnsgd1na2vs0mg"},{"bike_id":"693d6243-0cd7-4a50-a67e-23e2a095b5a8","system_id":"levelo_inurba_marseille","lat":43.23152,"lon":5.43712,"is_reserved":false,"is_disabled":false,"rental_uris":{"android":"levelo://app?vid=693d6243-0cd7-4a50-a67e-23e2a095b5a8","ios":"levelo://app?vid=693d6243-0cd7-4a50-a67e-23e2a095b5a8"},"vehicle_type_id":"4","last_reported":1733951309,"current_range_meters":7200,"station_id":"ce4bhmp2rcd13ifvqgog","pricing_plan_id":"cebpf4jnsgd1na2vs0mg"},{"bike_id":"9a419345-c074-4bed-a055-62578d579e76","system_id":"levelo_inurba_marseille","lat":43.28842,"lon":5.35872,"is_reserved":false,"is_disabled":false,"rental_uris":{"android":"levelo://app?vid=9a419345-c074-4bed-a055-62578d579e76","ios":"levelo://app?vid=9a419345-c074-4bed-a055-62578d579e76"},"vehicle_type_id":"4","last_reported":1733951309,"current_range_meters":18800,"station_id":"ce4bhb12rcd13ifvqem0","pricing_plan_id":"cebpf4jnsgd1na2vs0mg"},{"bike_id":"3f5757ec-261c-4569-827f-4e10e7682bac","system_id":"levelo_inurba_marseille","lat":43.30326,"lon":5.40445,"is_reserved":false,"is_disabled":false,"rental_uris":{"android":"levelo://app?vid=3f5757ec-261c-4569-827f-4e10e7682bac","ios":"levelo://app?vid=3f5757ec-261c-4569-827f-4e10e7682bac"},"vehicle_type_id":"4","last_reported":1733951309,"current_range_meters":38000,"station_id":"ce4bh012rcd13ifvqd10","pricing_plan_id":"cebpf4jnsgd1na2vs0mg"},{"bike_id":"980f96eb-32c9-4906-98f6-c44dbf4c84a1","system_id":"levelo_inurba_marseille","lat":43.27455,"lon":5.40073,"is_reserved":false,"is_disabled":true,"rental_uris":{"android":"levelo://app?vid=980f96eb-32c9-4906-98f6-c44dbf4c84a1","ios":"levelo://app?vid=980f96eb-32c9-4906-98f6-c44dbf4c84a1"},"vehicle_type_id":"4","last_reported":1733951309,"current_range_meters":0,"station_id":"","pricing_plan_id":"cebpf4jnsgd1na2vs0mg"},{"bike_id":"25e832b3-718c-4f63-bf6b-446785271ff2","system_id":"levelo_inurba_marseille","lat":43.28084,"lon":5.39663,"is_reserved":false,"is_disabled":false,"rental_uris":{"android":"levelo://app?vid=25e832b3-718c-4f63-bf6b-446785271ff2","ios":"levelo://app?vid=25e832b3-718c-4f63-bf6b-446785271ff2"},"vehicle_type_id":"4","last_reported":1733951309,"current_range_meters":22800,"station_id":"ce4bho12rcd13ifvqh2g","pricing_plan_id":"cebpf4jnsgd1na2vs0mg"},{"bike_id":"2ba08c37-8c9a-4d56-8797-798e12f02f2f","system_id":"levelo_inurba_marseille","lat":43.28104,"lon":5.37837,"is_reserved":false,"is_disabled":false,"rental_uris":{"android":"levelo://app?vid=2ba08c37-8c9a-4d56-8797-798e12f02f2f","ios":"levelo://app?vid=2ba08c37-8c9a-4d56-8797-798e12f02f2f"},"vehicle_type_id":"4","last_reported":1733951309,"current_range_meters":30400,"station_id":"ce4bha12rcd13ifvqee0","pricing_plan_id":"cebpf4jnsgd1na2vs0mg"},{"bike_id":"d5cc55ae-ad80-4db1-a1cd-fc4e6214f527","system_id":"levelo_inurba_marseille","lat":43.28272,"lon":5.35062,"is_reserved":false,"is_disabled":false,"rental_uris":{"android":"levelo://app?vid=d5cc55ae-ad80-4db1-a1cd-fc4e6214f527","ios":"levelo://app?vid=d5cc55ae-ad80-4db1-a1cd-fc4e6214f527"},"vehicle_type_id":"4","last_reported":1733951309,"current_range_meters":32000,"station_id":"ce4bhbp2rcd13ifvqerg","pricing_plan_id":"cebpf4jnsgd1na2vs0mg"},{"bike_id":"69a8b886-46d0-40aa-be2d-8e1c720169cf","system_id":"levelo_inurba_marseille","lat":43.28684,"lon":5.38663,"is_reserved":false,"is_disabled":false,"rental_uris":{"android":"levelo://app?vid=69a8b886-46d0-40aa-be2d-8e1c720169cf","ios":"levelo://app?vid=69a8b886-46d0-40aa-be2d-8e1c720169cf"},"vehicle_type_id":"4","last_reported":1733951309,"current_range_meters":38800,"station_id":"ce4bh492rcd13ifvqdug","pricing_plan_id":"cebpf4jnsgd1na2vs0mg"},{"bike_id":"e77c41ec-01fc-4fd5-a63a-7ada717e028a","system_id":"levelo_inurba_marseille","lat":43.26058,"lon":5.39397,"is_reserved":false,"is_disabled":false,"rental_uris":{"android":"levelo://app?vid=e77c41ec-01fc-4fd5-a63a-7ada717e028a","ios":"levelo://app?vid=e77c41ec-01fc-4fd5-a63a-7ada717e028a"},"vehicle_type_id":"4","last_reported":1733951309,"current_range_meters":39200,"station_id":"ce4bhh92rcd13ifvqfj0","pricing_plan_id":"cebpf4jnsgd1na2vs0mg"},{"bike_id":"0db5aa65-4491-4fa7-b3cd-837cf2eebdd8","system_id":"levelo_inurba_marseille","lat":43.24665,"lon":5.38903,"is_reserved":false,"is_disabled":false,"rental_uris":{"android":"levelo://app?vid=0db5aa65-4491-4fa7-b3cd-837cf2eebdd8","ios":"levelo://app?vid=0db5aa65-4491-4fa7-b3cd-837cf2eebdd8"},"vehicle_type_id":"4","last_reported":1733951309,"current_range_meters":18800,"station_id":"ce4bhg12rcd13ifvqf60","pricing_plan_id":"cebpf4jnsgd1na2vs0mg"},{"bike_id":"e07a9d9b-b9bc-475a-ab32-b71a16c6f1be","system_id":"levelo_inurba_marseille","lat":43.27991,"lon":5.41659,"is_reserved":false,"is_disabled":false,"rental_uris":{"android":"levelo://app?vid=e07a9d9b-b9bc-475a-ab32-b71a16c6f1be","ios":"levelo://app?vid=e07a9d9b-b9bc-475a-ab32-b71a16c6f1be"},"vehicle_type_id":"4","last_reported":1733951309,"current_range_meters":35600,"station_id":"ce4bho12rcd13ifvqh1g","pricing_plan_id":"cebpf4jnsgd1na2vs0mg"},{"bike_id":"eb005499-3c0e-4f41-9831-c070b319130e","system_id":"levelo_inurba_marseille","lat":43.2861,"lon":5.3707,"is_reserved":false,"is_disabled":false,"rental_uris":{"android":"levelo://app?vid=eb005499-3c0e-4f41-9831-c070b319130e","ios":"levelo://app?vid=eb005499-3c0e-4f41-9831-c070b319130e"},"vehicle_type_id":"4","last_reported":1733951309,"current_range_meters":30800,"station_id":"ce4bht12rcd13ifvqi60","pricing_plan_id":"cebpf4jnsgd1na2vs0mg"},{"bike_id":"c30e2927-d1ce-4add-bd99-3834be65c25a","system_id":"levelo_inurba_marseille","lat":43.28844,"lon":5.35879,"is_reserved":false,"is_disabled":false,"rental_uris":{"android":"levelo://app?vid=c30e2927-d1ce-4add-bd99-3834be65c25a","ios":"levelo://app?vid=c30e2927-d1ce-4add-bd99-3834be65c25a"},"vehicle_type_id":"4","last_reported":1733951309,"current_range_meters":38000,"station_id":"ce4bhb12rcd13ifvqem0","pricing_plan_id":"cebpf4jnsgd1na2vs0mg"},{"bike_id":"1c8e784d-8487-413d-9c15-8604706269c0","system_id":"levelo_inurba_marseille","lat":43.28466,"lon":5.38427,"is_reserved":false,"is_disabled":false,"rental_uris":{"android":"levelo://app?vid=1c8e784d-8487-413d-9c15-8604706269c0","ios":"levelo://app?vid=1c8e784d-8487-413d-9c15-8604706269c0"},"vehicle_type_id":"4","last_reported":1733951309,"current_range_meters":29600,"station_id":"ce4bh512rcd13ifvqe3g","pricing_plan_id":"cebpf4jnsgd1na2vs0mg"},{"bike_id":"06f7c043-1116-480e-a2ad-4c9477ce00f6","system_id":"levelo_inurba_marseille","lat":43.28264,"lon":5.3507,"is_reserved":false,"is_disabled":false,"rental_uris":{"android":"levelo://app?vid=06f7c043-1116-480e-a2ad-4c9477ce00f6","ios":"levelo://app?vid=06f7c043-1116-480e-a2ad-4c9477ce00f6"},"vehicle_type_id":"4","last_reported":1733951309,"current_range_meters":8000,"station_id":"ce4bhbp2rcd13ifvqerg","pricing_plan_id":"cebpf4jnsgd1na2vs0mg"},{"bike_id":"60fadf67-4697-426c-bf73-d75c1af833da","system_id":"levelo_inurba_marseille","lat":43.28937,"lon":5.36637,"is_reserved":false,"is_disabled":false,"rental_uris":{"android":"levelo://app?vid=60fadf67-4697-426c-bf73-d75c1af833da","ios":"levelo://app?vid=60fadf67-4697-426c-bf73-d75c1af833da"},"vehicle_type_id":"4","last_reported":1733951309,"current_range_meters":38400,"station_id":"ce4bhap2rcd13ifvqek0","pricing_plan_id":"cebpf4jnsgd1na2vs0mg"},{"bike_id":"7473804e-a759-44ce-8367-4ed62b1c5a88","system_id":"levelo_inurba_marseille","lat":43.28373,"lon":5.38634,"is_reserved":false,"is_disabled":false,"rental_uris":{"android":"levelo://app?vid=7473804e-a759-44ce-8367-4ed62b1c5a88","ios":"levelo://app?vid=7473804e-a759-44ce-8367-4ed62b1c5a88"},"vehicle_type_id":"4","last_reported":1733951309,"current_range_meters":39200,"station_id":"ce4bh492rcd13ifvqdvg","pricing_plan_id":"cebpf4jnsgd1na2vs0mg"},{"bike_id":"6efdfc34-cd17-4eb9-9fd1-46d6c2df85e8","system_id":"levelo_inurba_marseille","lat":43.29303,"lon":5.37182,"is_reserved":false,"is_disabled":false,"rental_uris":{"android":"levelo://app?vid=6efdfc34-cd17-4eb9-9fd1-46d6c2df85e8","ios":"levelo://app?vid=6efdfc34-cd17-4eb9-9fd1-46d6c2df85e8"},"vehicle_type_id":"4","last_reported":1733951309,"current_range_meters":19600,"station_id":"ce4bgh92rcd13ifvqb40","pricing_plan_id":"cebpf4jnsgd1na2vs0mg"},{"bike_id":"95c915fb-ef8e-49eb-8873-2f04c1046c28","system_id":"levelo_inurba_marseille","lat":43.31372,"lon":5.38495,"is_reserved":false,"is_disabled":false,"rental_uris":{"android":"levelo://app?vid=95c915fb-ef8e-49eb-8873-2f04c1046c28","ios":"levelo://app?vid=95c915fb-ef8e-49eb-8873-2f04c1046c28"},"vehicle_type_id":"4","last_reported":1733951309,"current_range_meters":8400,"station_id":"ce4bgt92rcd13ifvqcf0","pricing_plan_id":"cebpf4jnsgd1na2vs0mg"},{"bike_id":"a7afacb6-d403-424e-9514-2512ada0c43a","system_id":"levelo_inurba_marseille","lat":43.31687,"lon":5.40472,"is_reserved":false,"is_disabled":false,"rental_uris":{"android":"levelo://app?vid=a7afacb6-d403-424e-9514-2512ada0c43a","ios":"levelo://app?vid=a7afacb6-d403-424e-9514-2512ada0c43a"},"vehicle_type_id":"4","last_reported":1733951309,"current_range_meters":13600,"station_id":"ce4bh012rcd13ifvqd00","pricing_plan_id":"cebpf4jnsgd1na2vs0mg"},{"bike_id":"36272bbc-2413-4d65-9f8d-f8eaf63041c0","system_id":"levelo_inurba_marseille","lat":43.270612,"lon":5.402547,"is_reserved":false,"is_disabled":true,"rental_uris":{"android":"levelo://app?vid=36272bbc-2413-4d65-9f8d-f8eaf63041c0","ios":"levelo://app?vid=36272bbc-2413-4d65-9f8d-f8eaf63041c0"},"vehicle_type_id":"4","last_reported":1733951309,"current_range_meters":26000,"station_id":"ce4bhk92rcd13ifvqgc0","pricing_plan_id":"cebpf4jnsgd1na2vs0mg"},{"bike_id":"fe4cab58-ba30-4c78-b62f-d4434eea7628","system_id":"levelo_inurba_marseille","lat":43.2943,"lon":5.39769,"is_reserved":false,"is_disabled":true,"rental_uris":{"android":"levelo://app?vid=fe4cab58-ba30-4c78-b62f-d4434eea7628","ios":"levelo://app?vid=fe4cab58-ba30-4c78-b62f-d4434eea7628"},"vehicle_type_id":"4","last_reported":1733951309,"current_range_meters":34000,"station_id":"ce4bh3h2rcd13ifvqdo0","pricing_plan_id":"cebpf4jnsgd1na2vs0mg"},{"bike_id":"ecc110ce-c5e8-44d9-971f-5baa0bdacd3e","system_id":"levelo_inurba_marseille","lat":43.24802,"lon":5.37454,"is_reserved":false,"is_disabled":false,"rental_uris":{"android":"levelo://app?vid=ecc110ce-c5e8-44d9-971f-5baa0bdacd3e","ios":"levelo://app?vid=ecc110ce-c5e8-44d9-971f-5baa0bdacd3e"},"vehicle_type_id":"4","last_reported":1733951309,"current_range_meters":20400,"station_id":"ce4bhgh2rcd13ifvqfb0","pricing_plan_id":"cebpf4jnsgd1na2vs0mg"},{"bike_id":"6eb5c1a9-b331-4dc5-aa95-be408c9bb8fc","system_id":"levelo_inurba_marseille","lat":43.27908,"lon":5.38018,"is_reserved":false,"is_disabled":true,"rental_uris":{"android":"levelo://app?vid=6eb5c1a9-b331-4dc5-aa95-be408c9bb8fc","ios":"levelo://app?vid=6eb5c1a9-b331-4dc5-aa95-be408c9bb8fc"},"vehicle_type_id":"4","last_reported":1733951309,"current_range_meters":400,"station_id":"ce4bhf92rcd13ifvqf50","pricing_plan_id":"cebpf4jnsgd1na2vs0mg"},{"bike_id":"abac76cb-f7f6-48eb-9725-c2660579ae44","system_id":"levelo_inurba_marseille","lat":43.32054,"lon":5.41544,"is_reserved":false,"is_disabled":false,"rental_uris":{"android":"levelo://app?vid=abac76cb-f7f6-48eb-9725-c2660579ae44","ios":"levelo://app?vid=abac76cb-f7f6-48eb-9725-c2660579ae44"},"vehicle_type_id":"4","last_reported":1733951309,"current_range_meters":14400,"station_id":"ce4bhq92rcd13ifvqhkg","pricing_plan_id":"cebpf4jnsgd1na2vs0mg"},{"bike_id":"8979b88b-e0c9-465c-b920-54c929607786","system_id":"levelo_inurba_marseille","lat":43.30428,"lon":5.3677,"is_reserved":false,"is_disabled":false,"rental_uris":{"android":"levelo://app?vid=8979b88b-e0c9-465c-b920-54c929607786","ios":"levelo://app?vid=8979b88b-e0c9-465c-b920-54c929607786"},"vehicle_type_id":"4","last_reported":1733951309,"current_range_meters":17600,"station_id":"","pricing_plan_id":"cebpf4jnsgd1na2vs0mg"},{"bike_id":"3a56946e-b571-4f0a-89c3-228266a44430","system_id":"levelo_inurba_marseille","lat":43.26597,"lon":5.38971,"is_reserved":false,"is_disabled":false,"rental_uris":{"android":"levelo://app?vid=3a56946e-b571-4f0a-89c3-228266a44430","ios":"levelo://app?vid=3a56946e-b571-4f0a-89c3-228266a44430"},"vehicle_type_id":"4","last_reported":1733951309,"current_range_meters":6400,"station_id":"","pricing_plan_id":"cebpf4jnsgd1na2vs0mg"},{"bike_id":"8026ea29-8ab7-49ee-a04b-1bbe578bd836","system_id":"levelo_inurba_marseille","lat":43.30085,"lon":5.39074,"is_reserved":false,"is_disabled":false,"rental_uris":{"android":"levelo://app?vid=8026ea29-8ab7-49ee-a04b-1bbe578bd836","ios":"levelo://app?vid=8026ea29-8ab7-49ee-a04b-1bbe578bd836"},"vehicle_type_id":"4","last_reported":1733951309,"current_range_meters":12000,"station_id":"ce4bh192rcd13ifvqdb0","pricing_plan_id":"cebpf4jnsgd1na2vs0mg"},{"bike_id":"1a57a953-7738-448c-9bad-8fe31e4d9112","system_id":"levelo_inurba_marseille","lat":43.31271,"lon":5.4017,"is_reserved":false,"is_disabled":false,"rental_uris":{"android":"levelo://app?vid=1a57a953-7738-448c-9bad-8fe31e4d9112","ios":"levelo://app?vid=1a57a953-7738-448c-9bad-8fe31e4d9112"},"vehicle_type_id":"4","last_reported":1733951309,"current_range_meters":8800,"station_id":"ce4bh092rcd13ifvqd30","pricing_plan_id":"cebpf4jnsgd1na2vs0mg"},{"bike_id":"83d86471-0b95-4477-9349-a015d55c6b4b","system_id":"levelo_inurba_marseille","lat":43.32012,"lon":5.38141,"is_reserved":false,"is_disabled":true,"rental_uris":{"android":"levelo://app?vid=83d86471-0b95-4477-9349-a015d55c6b4b","ios":"levelo://app?vid=83d86471-0b95-4477-9349-a015d55c6b4b"},"vehicle_type_id":"4","last_reported":1733951309,"current_range_meters":400,"station_id":"ce4bhr12rcd13ifvqhpg","pricing_plan_id":"cebpf4jnsgd1na2vs0mg"},{"bike_id":"538c5820-1da6-405b-97ad-542e7b6c44b3","system_id":"levelo_inurba_marseille","lat":43.23182,"lon":5.39999,"is_reserved":false,"is_disabled":false,"rental_uris":{"android":"levelo://app?vid=538c5820-1da6-405b-97ad-542e7b6c44b3","ios":"levelo://app?vid=538c5820-1da6-405b-97ad-542e7b6c44b3"},"vehicle_type_id":"4","last_reported":1733951309,"current_range_meters":37600,"station_id":"ce4bhn12rcd13ifvqgqg","pricing_plan_id":"cebpf4jnsgd1na2vs0mg"},{"bike_id":"912b9652-d6db-47d7-b69a-ee743e156f59","system_id":"levelo_inurba_marseille","lat":43.28475,"lon":5.35881,"is_reserved":false,"is_disabled":false,"rental_uris":{"android":"levelo://app?vid=912b9652-d6db-47d7-b69a-ee743e156f59","ios":"levelo://app?vid=912b9652-d6db-47d7-b69a-ee743e156f59"},"vehicle_type_id":"4","last_reported":1733951309,"current_range_meters":39200,"station_id":"ce4bhah2rcd13ifvqei0","pricing_plan_id":"cebpf4jnsgd1na2vs0mg"},{"bike_id":"4d48e539-b27f-4ac7-8fc6-6f433aa66ed9","system_id":"levelo_inurba_marseille","lat":43.27424,"lon":5.39418,"is_reserved":false,"is_disabled":false,"rental_uris":{"android":"levelo://app?vid=4d48e539-b27f-4ac7-8fc6-6f433aa66ed9","ios":"levelo://app?vid=4d48e539-b27f-4ac7-8fc6-6f433aa66ed9"},"vehicle_type_id":"4","last_reported":1733951309,"current_range_meters":38800,"station_id":"ce4bhdp2rcd13ifvqf20","pricing_plan_id":"cebpf4jnsgd1na2vs0mg"},{"bike_id":"cf504aa2-7a5b-44a8-9e13-efcb53c1bdd9","system_id":"levelo_inurba_marseille","lat":43.28699,"lon":5.37397,"is_reserved":false,"is_disabled":false,"rental_uris":{"android":"levelo://app?vid=cf504aa2-7a5b-44a8-9e13-efcb53c1bdd9","ios":"levelo://app?vid=cf504aa2-7a5b-44a8-9e13-efcb53c1bdd9"},"vehicle_type_id":"4","last_reported":1733951309,"current_range_meters":38800,"station_id":"ce4bh3p2rcd13ifvqdq0","pricing_plan_id":"cebpf4jnsgd1na2vs0mg"},{"bike_id":"90324b92-2d52-4f43-bd59-91b2038c3497","system_id":"levelo_inurba_marseille","lat":43.28944,"lon":5.36625,"is_reserved":false,"is_disabled":true,"rental_uris":{"android":"levelo://app?vid=90324b92-2d52-4f43-bd59-91b2038c3497","ios":"levelo://app?vid=90324b92-2d52-4f43-bd59-91b2038c3497"},"vehicle_type_id":"4","last_reported":1733951309,"current_range_meters":28800,"station_id":"ce4bhap2rcd13ifvqek0","pricing_plan_id":"cebpf4jnsgd1na2vs0mg"},{"bike_id":"7f878a99-095a-42a9-ab90-5a500a61537b","system_id":"levelo_inurba_marseille","lat":43.30126,"lon":5.39865,"is_reserved":false,"is_disabled":false,"rental_uris":{"android":"levelo://app?vid=7f878a99-095a-42a9-ab90-5a500a61537b","ios":"levelo://app?vid=7f878a99-095a-42a9-ab90-5a500a61537b"},"vehicle_type_id":"4","last_reported":1733951309,"current_range_meters":6800,"station_id":"ce4bh0h2rcd13ifvqd40","pricing_plan_id":"cebpf4jnsgd1na2vs0mg"},{"bike_id":"1686641e-fa25-460d-b830-148d1253ba92","system_id":"levelo_inurba_marseille","lat":43.30886,"lon":5.39645,"is_reserved":false,"is_disabled":false,"rental_uris":{"android":"levelo://app?vid=1686641e-fa25-460d-b830-148d1253ba92","ios":"levelo://app?vid=1686641e-fa25-460d-b830-148d1253ba92"},"vehicle_type_id":"4","last_reported":1733951309,"current_range_meters":20000,"station_id":"ce4bh012rcd13ifvqcv0","pricing_plan_id":"cebpf4jnsgd1na2vs0mg"},{"bike_id":"383f4d16-4911-4d35-a7a5-72caa30c20b8","system_id":"levelo_inurba_marseille","lat":43.26024,"lon":5.37552,"is_reserved":false,"is_disabled":false,"rental_uris":{"android":"levelo://app?vid=383f4d16-4911-4d35-a7a5-72caa30c20b8","ios":"levelo://app?vid=383f4d16-4911-4d35-a7a5-72caa30c20b8"},"vehicle_type_id":"4","last_reported":1733951309,"current_range_meters":28800,"station_id":"ce4bhgh2rcd13ifvqfa0","pricing_plan_id":"cebpf4jnsgd1na2vs0mg"},{"bike_id":"c54c8965-7c23-4ef3-9e71-75e946489602","system_id":"levelo_inurba_marseille","lat":43.2781,"lon":5.40711,"is_reserved":false,"is_disabled":false,"rental_uris":{"android":"levelo://app?vid=c54c8965-7c23-4ef3-9e71-75e946489602","ios":"levelo://app?vid=c54c8965-7c23-4ef3-9e71-75e946489602"},"vehicle_type_id":"4","last_reported":1733951309,"current_range_meters":38800,"station_id":"ce4bhnh2rcd13ifvqgtg","pricing_plan_id":"cebpf4jnsgd1na2vs0mg"},{"bike_id":"6faa6ee7-a588-4286-8e0c-a7deeaae5bab","system_id":"levelo_inurba_marseille","lat":43.27362,"lon":5.3624,"is_reserved":false,"is_disabled":false,"rental_uris":{"android":"levelo://app?vid=6faa6ee7-a588-4286-8e0c-a7deeaae5bab","ios":"levelo://app?vid=6faa6ee7-a588-4286-8e0c-a7deeaae5bab"},"vehicle_type_id":"4","last_reported":1733951309,"current_range_meters":38800,"station_id":"ce4bhbh2rcd13ifvqeo0","pricing_plan_id":"cebpf4jnsgd1na2vs0mg"},{"bike_id":"e0e7ee68-c93a-46d4-a112-a38d643c1ed5","system_id":"levelo_inurba_marseille","lat":43.30419,"lon":5.41296,"is_reserved":false,"is_disabled":false,"rental_uris":{"android":"levelo://app?vid=e0e7ee68-c93a-46d4-a112-a38d643c1ed5","ios":"levelo://app?vid=e0e7ee68-c93a-46d4-a112-a38d643c1ed5"},"vehicle_type_id":"4","last_reported":1733951309,"current_range_meters":38800,"station_id":"ce4bhop2rcd13ifvqh8g","pricing_plan_id":"cebpf4jnsgd1na2vs0mg"},{"bike_id":"6347bfa3-6e15-456a-b2b4-94185362c352","system_id":"levelo_inurba_marseille","lat":43.30883,"lon":5.39642,"is_reserved":false,"is_disabled":false,"rental_uris":{"android":"levelo://app?vid=6347bfa3-6e15-456a-b2b4-94185362c352","ios":"levelo://app?vid=6347bfa3-6e15-456a-b2b4-94185362c352"},"vehicle_type_id":"4","last_reported":1733951309,"current_range_meters":34000,"station_id":"ce4bh012rcd13ifvqcv0","pricing_plan_id":"cebpf4jnsgd1na2vs0mg"},{"bike_id":"716e3651-726d-4797-92a9-2212a7dacea5","system_id":"levelo_inurba_marseille","lat":43.298935,"lon":5.436686,"is_reserved":false,"is_disabled":false,"rental_uris":{"android":"levelo://app?vid=716e3651-726d-4797-92a9-2212a7dacea5","ios":"levelo://app?vid=716e3651-726d-4797-92a9-2212a7dacea5"},"vehicle_type_id":"4","last_reported":1733951309,"current_range_meters":36800,"station_id":"ce4bhpp2rcd13ifvqhfg","pricing_plan_id":"cebpf4jnsgd1na2vs0mg"},{"bike_id":"30b7f7b0-cffb-44e8-9e23-86428fe1183d","system_id":"levelo_inurba_marseille","lat":43.23076,"lon":5.35489,"is_reserved":false,"is_disabled":false,"rental_uris":{"android":"levelo://app?vid=30b7f7b0-cffb-44e8-9e23-86428fe1183d","ios":"levelo://app?vid=30b7f7b0-cffb-44e8-9e23-86428fe1183d"},"vehicle_type_id":"4","last_reported":1733951309,"current_range_meters":12800,"station_id":"cpo3342slgdg3j2ifvpg","pricing_plan_id":"cebpf4jnsgd1na2vs0mg"},{"bike_id":"551f4ede-9e92-4f06-a5b3-6819bc555477","system_id":"levelo_inurba_marseille","lat":43.28461,"lon":5.35902,"is_reserved":false,"is_disabled":false,"rental_uris":{"android":"levelo://app?vid=551f4ede-9e92-4f06-a5b3-6819bc555477","ios":"levelo://app?vid=551f4ede-9e92-4f06-a5b3-6819bc555477"},"vehicle_type_id":"4","last_reported":1733951309,"current_range_meters":14000,"station_id":"ce4bhah2rcd13ifvqei0","pricing_plan_id":"cebpf4jnsgd1na2vs0mg"},{"bike_id":"33f06ed4-c8ad-43f5-b7ff-27c41657a24c","system_id":"levelo_inurba_marseille","lat":43.262096,"lon":5.379231,"is_reserved":false,"is_disabled":true,"rental_uris":{"android":"levelo://app?vid=33f06ed4-c8ad-43f5-b7ff-27c41657a24c","ios":"levelo://app?vid=33f06ed4-c8ad-43f5-b7ff-27c41657a24c"},"vehicle_type_id":"4","last_reported":1733951309,"current_range_meters":400,"station_id":"ce4bhjp2rcd13ifvqg90","pricing_plan_id":"cebpf4jnsgd1na2vs0mg"},{"bike_id":"2acee701-f2d8-4c07-8786-a12053357075","system_id":"levelo_inurba_marseille","lat":43.28048,"lon":5.36942,"is_reserved":false,"is_disabled":false,"rental_uris":{"android":"levelo://app?vid=2acee701-f2d8-4c07-8786-a12053357075","ios":"levelo://app?vid=2acee701-f2d8-4c07-8786-a12053357075"},"vehicle_type_id":"4","last_reported":1733951309,"current_range_meters":9600,"station_id":"ce4bha12rcd13ifvqef0","pricing_plan_id":"cebpf4jnsgd1na2vs0mg"},{"bike_id":"f8b49a8b-76af-4c34-a445-4719a4b98693","system_id":"levelo_inurba_marseille","lat":43.32289,"lon":5.38279,"is_reserved":false,"is_disabled":false,"rental_uris":{"android":"levelo://app?vid=f8b49a8b-76af-4c34-a445-4719a4b98693","ios":"levelo://app?vid=f8b49a8b-76af-4c34-a445-4719a4b98693"},"vehicle_type_id":"4","last_reported":1733951309,"current_range_meters":33600,"station_id":"ce4bhr12rcd13ifvqhqg","pricing_plan_id":"cebpf4jnsgd1na2vs0mg"},{"bike_id":"895a55aa-9568-4ecb-a74e-550fa21a2cb4","system_id":"levelo_inurba_marseille","lat":43.2993,"lon":5.38623,"is_reserved":false,"is_disabled":false,"rental_uris":{"android":"levelo://app?vid=895a55aa-9568-4ecb-a74e-550fa21a2cb4","ios":"levelo://app?vid=895a55aa-9568-4ecb-a74e-550fa21a2cb4"},"vehicle_type_id":"4","last_reported":1733951309,"current_range_meters":35200,"station_id":"","pricing_plan_id":"cebpf4jnsgd1na2vs0mg"},{"bike_id":"440a333b-e7f2-42de-9c19-a417b56de745","system_id":"levelo_inurba_marseille","lat":43.30934,"lon":5.36841,"is_reserved":false,"is_disabled":false,"rental_uris":{"android":"levelo://app?vid=440a333b-e7f2-42de-9c19-a417b56de745","ios":"levelo://app?vid=440a333b-e7f2-42de-9c19-a417b56de745"},"vehicle_type_id":"4","last_reported":1733951309,"current_range_meters":14000,"station_id":"ce4bgn92rcd13ifvqbvg","pricing_plan_id":"cebpf4jnsgd1na2vs0mg"},{"bike_id":"fe838991-c30f-42cc-81bb-ad185edc23dd","system_id":"levelo_inurba_marseille","lat":43.294059,"lon":5.386149,"is_reserved":false,"is_disabled":false,"rental_uris":{"android":"levelo://app?vid=fe838991-c30f-42cc-81bb-ad185edc23dd","ios":"levelo://app?vid=fe838991-c30f-42cc-81bb-ad185edc23dd"},"vehicle_type_id":"4","last_reported":1733951309,"current_range_meters":12800,"station_id":"ce4bh2h2rcd13ifvqdh0","pricing_plan_id":"cebpf4jnsgd1na2vs0mg"},{"bike_id":"d619b683-1a9a-4049-9696-4d1d6e0182e1","system_id":"levelo_inurba_marseille","lat":43.28665,"lon":5.36358,"is_reserved":false,"is_disabled":false,"rental_uris":{"android":"levelo://app?vid=d619b683-1a9a-4049-9696-4d1d6e0182e1","ios":"levelo://app?vid=d619b683-1a9a-4049-9696-4d1d6e0182e1"},"vehicle_type_id":"4","last_reported":1733951309,"current_range_meters":19200,"station_id":"ce4bhah2rcd13ifvqej0","pricing_plan_id":"cebpf4jnsgd1na2vs0mg"},{"bike_id":"e1bdce55-ccd2-417a-8f1d-8c8751ae4b56","system_id":"levelo_inurba_marseille","lat":43.28704,"lon":5.37393,"is_reserved":false,"is_disabled":false,"rental_uris":{"android":"levelo://app?vid=e1bdce55-ccd2-417a-8f1d-8c8751ae4b56","ios":"levelo://app?vid=e1bdce55-ccd2-417a-8f1d-8c8751ae4b56"},"vehicle_type_id":"4","last_reported":1733951309,"current_range_meters":16000,"station_id":"ce4bh3p2rcd13ifvqdq0","pricing_plan_id":"cebpf4jnsgd1na2vs0mg"},{"bike_id":"8c25e51b-d73f-4746-8296-50d822456d52","system_id":"levelo_inurba_marseille","lat":43.26556,"lon":5.37285,"is_reserved":false,"is_disabled":false,"rental_uris":{"android":"levelo://app?vid=8c25e51b-d73f-4746-8296-50d822456d52","ios":"levelo://app?vid=8c25e51b-d73f-4746-8296-50d822456d52"},"vehicle_type_id":"4","last_reported":1733951309,"current_range_meters":24800,"station_id":"ce4bhg12rcd13ifvqf70","pricing_plan_id":"cebpf4jnsgd1na2vs0mg"},{"bike_id":"0f17d2c4-bf96-42e6-978b-f52d4d5288cd","system_id":"levelo_inurba_marseille","lat":43.30314,"lon":5.40438,"is_reserved":false,"is_disabled":true,"rental_uris":{"android":"levelo://app?vid=0f17d2c4-bf96-42e6-978b-f52d4d5288cd","ios":"levelo://app?vid=0f17d2c4-bf96-42e6-978b-f52d4d5288cd"},"vehicle_type_id":"4","last_reported":1733951309,"current_range_meters":9200,"station_id":"ce4bh012rcd13ifvqd10","pricing_plan_id":"cebpf4jnsgd1na2vs0mg"},{"bike_id":"6b727eee-2263-4eaa-9a3a-c925e23e9f78","system_id":"levelo_inurba_marseille","lat":43.27992,"lon":5.41666,"is_reserved":false,"is_disabled":false,"rental_uris":{"android":"levelo://app?vid=6b727eee-2263-4eaa-9a3a-c925e23e9f78","ios":"levelo://app?vid=6b727eee-2263-4eaa-9a3a-c925e23e9f78"},"vehicle_type_id":"4","last_reported":1733951309,"current_range_meters":38800,"station_id":"ce4bho12rcd13ifvqh1g","pricing_plan_id":"cebpf4jnsgd1na2vs0mg"},{"bike_id":"79263867-ab0b-431e-89dc-246e72ff457f","system_id":"levelo_inurba_marseille","lat":43.2864,"lon":5.38669,"is_reserved":false,"is_disabled":true,"rental_uris":{"android":"levelo://app?vid=79263867-ab0b-431e-89dc-246e72ff457f","ios":"levelo://app?vid=79263867-ab0b-431e-89dc-246e72ff457f"},"vehicle_type_id":"4","last_reported":1733951309,"current_range_meters":38800,"station_id":"ce4bh492rcd13ifvqdug","pricing_plan_id":"cebpf4jnsgd1na2vs0mg"},{"bike_id":"4da8f61d-0f2a-4234-a08c-151dfadd6b43","system_id":"levelo_inurba_marseille","lat":43.300373,"lon":5.36408,"is_reserved":false,"is_disabled":true,"rental_uris":{"android":"levelo://app?vid=4da8f61d-0f2a-4234-a08c-151dfadd6b43","ios":"levelo://app?vid=4da8f61d-0f2a-4234-a08c-151dfadd6b43"},"vehicle_type_id":"4","last_reported":1733951309,"current_range_meters":0,"station_id":"","pricing_plan_id":"cebpf4jnsgd1na2vs0mg"},{"bike_id":"f9dd9792-bdcd-4faf-834e-1a4dccdf7802","system_id":"levelo_inurba_marseille","lat":43.30296,"lon":5.39211,"is_reserved":false,"is_disabled":false,"rental_uris":{"android":"levelo://app?vid=f9dd9792-bdcd-4faf-834e-1a4dccdf7802","ios":"levelo://app?vid=f9dd9792-bdcd-4faf-834e-1a4dccdf7802"},"vehicle_type_id":"4","last_reported":1733951309,"current_range_meters":18000,"station_id":"ce4bgkh2rcd13ifvqbk0","pricing_plan_id":"cebpf4jnsgd1na2vs0mg"},{"bike_id":"6b7da9da-7ed8-4376-8377-8274a75ba481","system_id":"levelo_inurba_marseille","lat":43.26621,"lon":5.4031,"is_reserved":false,"is_disabled":false,"rental_uris":{"android":"levelo://app?vid=6b7da9da-7ed8-4376-8377-8274a75ba481","ios":"levelo://app?vid=6b7da9da-7ed8-4376-8377-8274a75ba481"},"vehicle_type_id":"4","last_reported":1733951309,"current_range_meters":38800,"station_id":"","pricing_plan_id":"cebpf4jnsgd1na2vs0mg"},{"bike_id":"e0cdb3b5-4448-4cfe-b12d-06d7ed4960ca","system_id":"levelo_inurba_marseille","lat":43.30653,"lon":5.40082,"is_reserved":false,"is_disabled":false,"rental_uris":{"android":"levelo://app?vid=e0cdb3b5-4448-4cfe-b12d-06d7ed4960ca","ios":"levelo://app?vid=e0cdb3b5-4448-4cfe-b12d-06d7ed4960ca"},"vehicle_type_id":"4","last_reported":1733951309,"current_range_meters":23200,"station_id":"ce4bh112rcd13ifvqda0","pricing_plan_id":"cebpf4jnsgd1na2vs0mg"},{"bike_id":"4f0c1ef8-f41d-45b8-b048-56d2ab124e5f","system_id":"levelo_inurba_marseille","lat":43.27617,"lon":5.36098,"is_reserved":false,"is_disabled":false,"rental_uris":{"android":"levelo://app?vid=4f0c1ef8-f41d-45b8-b048-56d2ab124e5f","ios":"levelo://app?vid=4f0c1ef8-f41d-45b8-b048-56d2ab124e5f"},"vehicle_type_id":"4","last_reported":1733951309,"current_range_meters":24400,"station_id":"ce4bgj92rcd13ifvqbe0","pricing_plan_id":"cebpf4jnsgd1na2vs0mg"},{"bike_id":"af67ac53-ba21-4ff0-8334-95679e9ff2cc","system_id":"levelo_inurba_marseille","lat":43.278805,"lon":5.388003,"is_reserved":false,"is_disabled":true,"rental_uris":{"android":"levelo://app?vid=af67ac53-ba21-4ff0-8334-95679e9ff2cc","ios":"levelo://app?vid=af67ac53-ba21-4ff0-8334-95679e9ff2cc"},"vehicle_type_id":"4","last_reported":1733951309,"current_range_meters":0,"station_id":"","pricing_plan_id":"cebpf4jnsgd1na2vs0mg"},{"bike_id":"ab6bb814-6be0-4a23-8be0-7c219c550454","system_id":"levelo_inurba_marseille","lat":43.29446,"lon":5.39763,"is_reserved":false,"is_disabled":true,"rental_uris":{"android":"levelo://app?vid=ab6bb814-6be0-4a23-8be0-7c219c550454","ios":"levelo://app?vid=ab6bb814-6be0-4a23-8be0-7c219c550454"},"vehicle_type_id":"4","last_reported":1733951309,"current_range_meters":0,"station_id":"ce4bh3h2rcd13ifvqdo0","pricing_plan_id":"cebpf4jnsgd1na2vs0mg"},{"bike_id":"4615db22-8e24-4c0e-bb14-71b2648a6ecf","system_id":"levelo_inurba_marseille","lat":43.24805,"lon":5.37453,"is_reserved":false,"is_disabled":false,"rental_uris":{"android":"levelo://app?vid=4615db22-8e24-4c0e-bb14-71b2648a6ecf","ios":"levelo://app?vid=4615db22-8e24-4c0e-bb14-71b2648a6ecf"},"vehicle_type_id":"4","last_reported":1733951309,"current_range_meters":38800,"station_id":"ce4bhgh2rcd13ifvqfb0","pricing_plan_id":"cebpf4jnsgd1na2vs0mg"},{"bike_id":"f8d16ca8-f75d-4f50-aec4-42bc8a77916e","system_id":"levelo_inurba_marseille","lat":43.28724,"lon":5.36074,"is_reserved":false,"is_disabled":false,"rental_uris":{"android":"levelo://app?vid=f8d16ca8-f75d-4f50-aec4-42bc8a77916e","ios":"levelo://app?vid=f8d16ca8-f75d-4f50-aec4-42bc8a77916e"},"vehicle_type_id":"4","last_reported":1733951309,"current_range_meters":26000,"station_id":"cki0cbj6b192h4jlfktg","pricing_plan_id":"cebpf4jnsgd1na2vs0mg"},{"bike_id":"82c9545d-9d79-429e-b2af-bff9e5a6d0d9","system_id":"levelo_inurba_marseille","lat":43.25865,"lon":5.39901,"is_reserved":false,"is_disabled":false,"rental_uris":{"android":"levelo://app?vid=82c9545d-9d79-429e-b2af-bff9e5a6d0d9","ios":"levelo://app?vid=82c9545d-9d79-429e-b2af-bff9e5a6d0d9"},"vehicle_type_id":"4","last_reported":1733951309,"current_range_meters":32000,"station_id":"ce4bhl92rcd13ifvqghg","pricing_plan_id":"cebpf4jnsgd1na2vs0mg"},{"bike_id":"c3f87c2d-f647-4d71-89d3-fc010d8ba668","system_id":"levelo_inurba_marseille","lat":43.28481,"lon":5.38434,"is_reserved":false,"is_disabled":true,"rental_uris":{"android":"levelo://app?vid=c3f87c2d-f647-4d71-89d3-fc010d8ba668","ios":"levelo://app?vid=c3f87c2d-f647-4d71-89d3-fc010d8ba668"},"vehicle_type_id":"4","last_reported":1733951309,"current_range_meters":0,"station_id":"ce4bh512rcd13ifvqe3g","pricing_plan_id":"cebpf4jnsgd1na2vs0mg"},{"bike_id":"0fa2039c-5ee9-4ac8-bd2f-e5ab82259f0e","system_id":"levelo_inurba_marseille","lat":43.31199,"lon":5.36777,"is_reserved":false,"is_disabled":true,"rental_uris":{"android":"levelo://app?vid=0fa2039c-5ee9-4ac8-bd2f-e5ab82259f0e","ios":"levelo://app?vid=0fa2039c-5ee9-4ac8-bd2f-e5ab82259f0e"},"vehicle_type_id":"4","last_reported":1733951309,"current_range_meters":4000,"station_id":"","pricing_plan_id":"cebpf4jnsgd1na2vs0mg"},{"bike_id":"7d2bf50c-5f62-4bcb-93d6-9d9b8f36813d","system_id":"levelo_inurba_marseille","lat":43.30072,"lon":5.39959,"is_reserved":false,"is_disabled":false,"rental_uris":{"android":"levelo://app?vid=7d2bf50c-5f62-4bcb-93d6-9d9b8f36813d","ios":"levelo://app?vid=7d2bf50c-5f62-4bcb-93d6-9d9b8f36813d"},"vehicle_type_id":"4","last_reported":1733951309,"current_range_meters":18800,"station_id":"","pricing_plan_id":"cebpf4jnsgd1na2vs0mg"},{"bike_id":"e25972b1-1835-4d68-a5d8-171fca414669","system_id":"levelo_inurba_marseille","lat":43.27975,"lon":5.38746,"is_reserved":false,"is_disabled":false,"rental_uris":{"android":"levelo://app?vid=e25972b1-1835-4d68-a5d8-171fca414669","ios":"levelo://app?vid=e25972b1-1835-4d68-a5d8-171fca414669"},"vehicle_type_id":"4","last_reported":1733951309,"current_range_meters":26800,"station_id":"ce4bhg12rcd13ifvqf80","pricing_plan_id":"cebpf4jnsgd1na2vs0mg"},{"bike_id":"d6c6c36b-0cad-45f6-b711-edb7c85a4435","system_id":"levelo_inurba_marseille","lat":43.28104,"lon":5.37851,"is_reserved":false,"is_disabled":false,"rental_uris":{"android":"levelo://app?vid=d6c6c36b-0cad-45f6-b711-edb7c85a4435","ios":"levelo://app?vid=d6c6c36b-0cad-45f6-b711-edb7c85a4435"},"vehicle_type_id":"4","last_reported":1733951309,"current_range_meters":24800,"station_id":"ce4bha12rcd13ifvqee0","pricing_plan_id":"cebpf4jnsgd1na2vs0mg"},{"bike_id":"be0b8c3f-0afb-42d7-82d2-88e533cc17ea","system_id":"levelo_inurba_marseille","lat":43.29104,"lon":5.37223,"is_reserved":false,"is_disabled":true,"rental_uris":{"android":"levelo://app?vid=be0b8c3f-0afb-42d7-82d2-88e533cc17ea","ios":"levelo://app?vid=be0b8c3f-0afb-42d7-82d2-88e533cc17ea"},"vehicle_type_id":"4","last_reported":1733951309,"current_range_meters":25600,"station_id":"","pricing_plan_id":"cebpf4jnsgd1na2vs0mg"},{"bike_id":"f6cd67c9-9d47-4a6f-a19a-661b419f05e0","system_id":"levelo_inurba_marseille","lat":43.3127,"lon":5.40161,"is_reserved":false,"is_disabled":false,"rental_uris":{"android":"levelo://app?vid=f6cd67c9-9d47-4a6f-a19a-661b419f05e0","ios":"levelo://app?vid=f6cd67c9-9d47-4a6f-a19a-661b419f05e0"},"vehicle_type_id":"4","last_reported":1733951309,"current_range_meters":39200,"station_id":"ce4bh092rcd13ifvqd30","pricing_plan_id":"cebpf4jnsgd1na2vs0mg"},{"bike_id":"b5fcaa86-c09e-4c69-8628-53e487fd6934","system_id":"levelo_inurba_marseille","lat":43.29373,"lon":5.37845,"is_reserved":false,"is_disabled":true,"rental_uris":{"android":"levelo://app?vid=b5fcaa86-c09e-4c69-8628-53e487fd6934","ios":"levelo://app?vid=b5fcaa86-c09e-4c69-8628-53e487fd6934"},"vehicle_type_id":"4","last_reported":1733951309,"current_range_meters":38400,"station_id":"ce4bgjh2rcd13ifvqbf0","pricing_plan_id":"cebpf4jnsgd1na2vs0mg"},{"bike_id":"f1a040d7-ef11-4284-bc8f-2062533dd9fc","system_id":"levelo_inurba_marseille","lat":43.28151,"lon":5.42639,"is_reserved":false,"is_disabled":true,"rental_uris":{"android":"levelo://app?vid=f1a040d7-ef11-4284-bc8f-2062533dd9fc","ios":"levelo://app?vid=f1a040d7-ef11-4284-bc8f-2062533dd9fc"},"vehicle_type_id":"4","last_reported":1733951309,"current_range_meters":0,"station_id":"ce4bhnh2rcd13ifvqgug","pricing_plan_id":"cebpf4jnsgd1na2vs0mg"},{"bike_id":"0aaf9b22-f7e1-4e4f-a1a5-7a779d72a1d4","system_id":"levelo_inurba_marseille","lat":43.29836,"lon":5.37746,"is_reserved":false,"is_disabled":true,"rental_uris":{"android":"levelo://app?vid=0aaf9b22-f7e1-4e4f-a1a5-7a779d72a1d4","ios":"levelo://app?vid=0aaf9b22-f7e1-4e4f-a1a5-7a779d72a1d4"},"vehicle_type_id":"4","last_reported":1733951309,"current_range_meters":0,"station_id":"","pricing_plan_id":"cebpf4jnsgd1na2vs0mg"},{"bike_id":"ef3b6362-7aa5-45c6-8ea7-d10ba64fef03","system_id":"levelo_inurba_marseille","lat":43.29819,"lon":5.38774,"is_reserved":false,"is_disabled":false,"rental_uris":{"android":"levelo://app?vid=ef3b6362-7aa5-45c6-8ea7-d10ba64fef03","ios":"levelo://app?vid=ef3b6362-7aa5-45c6-8ea7-d10ba64fef03"},"vehicle_type_id":"4","last_reported":1733951309,"current_range_meters":16400,"station_id":"","pricing_plan_id":"cebpf4jnsgd1na2vs0mg"},{"bike_id":"91c3f92e-5d61-470b-b958-c89d04138b23","system_id":"levelo_inurba_marseille","lat":43.2958,"lon":5.37495,"is_reserved":false,"is_disabled":true,"rental_uris":{"android":"levelo://app?vid=91c3f92e-5d61-470b-b958-c89d04138b23","ios":"levelo://app?vid=91c3f92e-5d61-470b-b958-c89d04138b23"},"vehicle_type_id":"4","last_reported":1733951309,"current_range_meters":4800,"station_id":"ce4bgh92rcd13ifvqb50","pricing_plan_id":"cebpf4jnsgd1na2vs0mg"},{"bike_id":"0c077105-d637-4568-bc4c-f0339898e3bf","system_id":"levelo_inurba_marseille","lat":43.31779,"lon":5.3899,"is_reserved":false,"is_disabled":false,"rental_uris":{"android":"levelo://app?vid=0c077105-d637-4568-bc4c-f0339898e3bf","ios":"levelo://app?vid=0c077105-d637-4568-bc4c-f0339898e3bf"},"vehicle_type_id":"4","last_reported":1733951309,"current_range_meters":39200,"station_id":"ce4bhqp2rcd13ifvqhng","pricing_plan_id":"cebpf4jnsgd1na2vs0mg"},{"bike_id":"a85501a2-1a09-455f-954b-c790a9d4e292","system_id":"levelo_inurba_marseille","lat":43.31094,"lon":5.42408,"is_reserved":false,"is_disabled":false,"rental_uris":{"android":"levelo://app?vid=a85501a2-1a09-455f-954b-c790a9d4e292","ios":"levelo://app?vid=a85501a2-1a09-455f-954b-c790a9d4e292"},"vehicle_type_id":"4","last_reported":1733951309,"current_range_meters":20000,"station_id":"ce4bhp92rcd13ifvqhag","pricing_plan_id":"cebpf4jnsgd1na2vs0mg"},{"bike_id":"b8e3a311-f02b-4399-af7b-1bfb5506fa2a","system_id":"levelo_inurba_marseille","lat":43.24643,"lon":5.38895,"is_reserved":false,"is_disabled":false,"rental_uris":{"android":"levelo://app?vid=b8e3a311-f02b-4399-af7b-1bfb5506fa2a","ios":"levelo://app?vid=b8e3a311-f02b-4399-af7b-1bfb5506fa2a"},"vehicle_type_id":"4","last_reported":1733951309,"current_range_meters":27200,"station_id":"ce4bhg12rcd13ifvqf60","pricing_plan_id":"cebpf4jnsgd1na2vs0mg"},{"bike_id":"88831ab3-d72e-4c6a-9db3-7b2d02e4d6fa","system_id":"levelo_inurba_marseille","lat":43.28365,"lon":5.38625,"is_reserved":false,"is_disabled":false,"rental_uris":{"android":"levelo://app?vid=88831ab3-d72e-4c6a-9db3-7b2d02e4d6fa","ios":"levelo://app?vid=88831ab3-d72e-4c6a-9db3-7b2d02e4d6fa"},"vehicle_type_id":"4","last_reported":1733951309,"current_range_meters":32400,"station_id":"ce4bh492rcd13ifvqdvg","pricing_plan_id":"cebpf4jnsgd1na2vs0mg"},{"bike_id":"89b4f860-6a2b-4432-b0f6-a928797df75e","system_id":"levelo_inurba_marseille","lat":43.30253,"lon":5.40068,"is_reserved":false,"is_disabled":false,"rental_uris":{"android":"levelo://app?vid=89b4f860-6a2b-4432-b0f6-a928797df75e","ios":"levelo://app?vid=89b4f860-6a2b-4432-b0f6-a928797df75e"},"vehicle_type_id":"4","last_reported":1733951309,"current_range_meters":8800,"station_id":"ce4bgvh2rcd13ifvqcs0","pricing_plan_id":"cebpf4jnsgd1na2vs0mg"},{"bike_id":"978fef78-b80f-47f2-a3ca-ace5abd7912d","system_id":"levelo_inurba_marseille","lat":43.29024,"lon":5.38655,"is_reserved":false,"is_disabled":false,"rental_uris":{"android":"levelo://app?vid=978fef78-b80f-47f2-a3ca-ace5abd7912d","ios":"levelo://app?vid=978fef78-b80f-47f2-a3ca-ace5abd7912d"},"vehicle_type_id":"4","last_reported":1733951309,"current_range_meters":8400,"station_id":"ce4bh4p2rcd13ifvqe0g","pricing_plan_id":"cebpf4jnsgd1na2vs0mg"},{"bike_id":"1fce8014-29d7-44e2-9d2c-8d29b03c9734","system_id":"levelo_inurba_marseille","lat":43.28698,"lon":5.39949,"is_reserved":false,"is_disabled":false,"rental_uris":{"android":"levelo://app?vid=1fce8014-29d7-44e2-9d2c-8d29b03c9734","ios":"levelo://app?vid=1fce8014-29d7-44e2-9d2c-8d29b03c9734"},"vehicle_type_id":"4","last_reported":1733951309,"current_range_meters":5600,"station_id":"ce4bho92rcd13ifvqh3g","pricing_plan_id":"cebpf4jnsgd1na2vs0mg"},{"bike_id":"5746a913-59cb-4881-b851-217de753d5a3","system_id":"levelo_inurba_marseille","lat":43.25092,"lon":5.39532,"is_reserved":false,"is_disabled":false,"rental_uris":{"android":"levelo://app?vid=5746a913-59cb-4881-b851-217de753d5a3","ios":"levelo://app?vid=5746a913-59cb-4881-b851-217de753d5a3"},"vehicle_type_id":"4","last_reported":1733951309,"current_range_meters":28000,"station_id":"ce4bhm12rcd13ifvqgkg","pricing_plan_id":"cebpf4jnsgd1na2vs0mg"},{"bike_id":"fc6bce5c-fc82-4c38-916f-35df49872efb","system_id":"levelo_inurba_marseille","lat":43.31989,"lon":5.38158,"is_reserved":false,"is_disabled":false,"rental_uris":{"android":"levelo://app?vid=fc6bce5c-fc82-4c38-916f-35df49872efb","ios":"levelo://app?vid=fc6bce5c-fc82-4c38-916f-35df49872efb"},"vehicle_type_id":"4","last_reported":1733951309,"current_range_meters":38800,"station_id":"ce4bhr12rcd13ifvqhpg","pricing_plan_id":"cebpf4jnsgd1na2vs0mg"},{"bike_id":"fa78bd84-cc9c-420b-aac1-bebf868e59df","system_id":"levelo_inurba_marseille","lat":43.31764,"lon":5.38999,"is_reserved":false,"is_disabled":false,"rental_uris":{"android":"levelo://app?vid=fa78bd84-cc9c-420b-aac1-bebf868e59df","ios":"levelo://app?vid=fa78bd84-cc9c-420b-aac1-bebf868e59df"},"vehicle_type_id":"4","last_reported":1733951309,"current_range_meters":39200,"station_id":"ce4bhqp2rcd13ifvqhng","pricing_plan_id":"cebpf4jnsgd1na2vs0mg"},{"bike_id":"6ff81125-71bf-40cc-a5d6-cc392c4e7a61","system_id":"levelo_inurba_marseille","lat":43.31755,"lon":5.39021,"is_reserved":false,"is_disabled":false,"rental_uris":{"android":"levelo://app?vid=6ff81125-71bf-40cc-a5d6-cc392c4e7a61","ios":"levelo://app?vid=6ff81125-71bf-40cc-a5d6-cc392c4e7a61"},"vehicle_type_id":"4","last_reported":1733951309,"current_range_meters":14400,"station_id":"ce4bhqp2rcd13ifvqhng","pricing_plan_id":"cebpf4jnsgd1na2vs0mg"},{"bike_id":"32081c96-f1c7-433b-932f-7b311ba352c3","system_id":"levelo_inurba_marseille","lat":43.23193,"lon":5.39942,"is_reserved":false,"is_disabled":false,"rental_uris":{"android":"levelo://app?vid=32081c96-f1c7-433b-932f-7b311ba352c3","ios":"levelo://app?vid=32081c96-f1c7-433b-932f-7b311ba352c3"},"vehicle_type_id":"4","last_reported":1733951309,"current_range_meters":39200,"station_id":"ce4bhn12rcd13ifvqgqg","pricing_plan_id":"cebpf4jnsgd1na2vs0mg"},{"bike_id":"a5fca068-4999-4c02-8ca7-03c2a14173d9","system_id":"levelo_inurba_marseille","lat":43.28566,"lon":5.39488,"is_reserved":false,"is_disabled":false,"rental_uris":{"android":"levelo://app?vid=a5fca068-4999-4c02-8ca7-03c2a14173d9","ios":"levelo://app?vid=a5fca068-4999-4c02-8ca7-03c2a14173d9"},"vehicle_type_id":"4","last_reported":1733951309,"current_range_meters":37600,"station_id":"ce4bh292rcd13ifvqdg0","pricing_plan_id":"cebpf4jnsgd1na2vs0mg"},{"bike_id":"76f3328f-e574-457e-a081-a550f776ec21","system_id":"levelo_inurba_marseille","lat":43.24067,"lon":5.37761,"is_reserved":false,"is_disabled":false,"rental_uris":{"android":"levelo://app?vid=76f3328f-e574-457e-a081-a550f776ec21","ios":"levelo://app?vid=76f3328f-e574-457e-a081-a550f776ec21"},"vehicle_type_id":"4","last_reported":1733951309,"current_range_meters":29600,"station_id":"ce4bhnp2rcd13ifvqgvg","pricing_plan_id":"cebpf4jnsgd1na2vs0mg"},{"bike_id":"df8ff157-492c-4b01-b0c7-c54543feba6f","system_id":"levelo_inurba_marseille","lat":43.29908,"lon":5.38152,"is_reserved":false,"is_disabled":false,"rental_uris":{"android":"levelo://app?vid=df8ff157-492c-4b01-b0c7-c54543feba6f","ios":"levelo://app?vid=df8ff157-492c-4b01-b0c7-c54543feba6f"},"vehicle_type_id":"4","last_reported":1733951309,"current_range_meters":30400,"station_id":"ce4bgj12rcd13ifvqbc0","pricing_plan_id":"cebpf4jnsgd1na2vs0mg"},{"bike_id":"ef1675a4-1a15-40b4-af8d-26ca4e4efdd1","system_id":"levelo_inurba_marseille","lat":43.2873,"lon":5.37399,"is_reserved":false,"is_disabled":false,"rental_uris":{"android":"levelo://app?vid=ef1675a4-1a15-40b4-af8d-26ca4e4efdd1","ios":"levelo://app?vid=ef1675a4-1a15-40b4-af8d-26ca4e4efdd1"},"vehicle_type_id":"4","last_reported":1733951309,"current_range_meters":38800,"station_id":"ce4bh3p2rcd13ifvqdq0","pricing_plan_id":"cebpf4jnsgd1na2vs0mg"},{"bike_id":"1ff56872-c50d-4507-836d-6e173078c2a7","system_id":"levelo_inurba_marseille","lat":43.30138,"lon":5.37411,"is_reserved":false,"is_disabled":false,"rental_uris":{"android":"levelo://app?vid=1ff56872-c50d-4507-836d-6e173078c2a7","ios":"levelo://app?vid=1ff56872-c50d-4507-836d-6e173078c2a7"},"vehicle_type_id":"4","last_reported":1733951309,"current_range_meters":17200,"station_id":"ce4bgs92rcd13ifvqcc0","pricing_plan_id":"cebpf4jnsgd1na2vs0mg"},{"bike_id":"440c0882-719b-4b38-aba1-872c74c75218","system_id":"levelo_inurba_marseille","lat":43.32289,"lon":5.38262,"is_reserved":false,"is_disabled":false,"rental_uris":{"android":"levelo://app?vid=440c0882-719b-4b38-aba1-872c74c75218","ios":"levelo://app?vid=440c0882-719b-4b38-aba1-872c74c75218"},"vehicle_type_id":"4","last_reported":1733951309,"current_range_meters":38800,"station_id":"ce4bhr12rcd13ifvqhqg","pricing_plan_id":"cebpf4jnsgd1na2vs0mg"},{"bike_id":"9f4ff309-16c5-4f67-9aac-83afe40d118a","system_id":"levelo_inurba_marseille","lat":43.23963,"lon":5.36636,"is_reserved":false,"is_disabled":false,"rental_uris":{"android":"levelo://app?vid=9f4ff309-16c5-4f67-9aac-83afe40d118a","ios":"levelo://app?vid=9f4ff309-16c5-4f67-9aac-83afe40d118a"},"vehicle_type_id":"4","last_reported":1733951309,"current_range_meters":38800,"station_id":"ce4bhi12rcd13ifvqfp0","pricing_plan_id":"cebpf4jnsgd1na2vs0mg"},{"bike_id":"ac9259c7-5b76-4714-8295-8c5ed3303148","system_id":"levelo_inurba_marseille","lat":43.26553,"lon":5.37284,"is_reserved":false,"is_disabled":false,"rental_uris":{"android":"levelo://app?vid=ac9259c7-5b76-4714-8295-8c5ed3303148","ios":"levelo://app?vid=ac9259c7-5b76-4714-8295-8c5ed3303148"},"vehicle_type_id":"4","last_reported":1733951309,"current_range_meters":37600,"station_id":"ce4bhg12rcd13ifvqf70","pricing_plan_id":"cebpf4jnsgd1na2vs0mg"},{"bike_id":"accc15c2-75c8-4823-a61f-1d4d7e399167","system_id":"levelo_inurba_marseille","lat":43.2942,"lon":5.38615,"is_reserved":false,"is_disabled":true,"rental_uris":{"android":"levelo://app?vid=accc15c2-75c8-4823-a61f-1d4d7e399167","ios":"levelo://app?vid=accc15c2-75c8-4823-a61f-1d4d7e399167"},"vehicle_type_id":"4","last_reported":1733951309,"current_range_meters":9600,"station_id":"ce4bh2h2rcd13ifvqdh0","pricing_plan_id":"cebpf4jnsgd1na2vs0mg"},{"bike_id":"348a5c80-3b1e-4fa4-a2c8-d0287c9ea325","system_id":"levelo_inurba_marseille","lat":43.27995,"lon":5.416647,"is_reserved":false,"is_disabled":false,"rental_uris":{"android":"levelo://app?vid=348a5c80-3b1e-4fa4-a2c8-d0287c9ea325","ios":"levelo://app?vid=348a5c80-3b1e-4fa4-a2c8-d0287c9ea325"},"vehicle_type_id":"4","last_reported":1733951309,"current_range_meters":30400,"station_id":"ce4bho12rcd13ifvqh1g","pricing_plan_id":"cebpf4jnsgd1na2vs0mg"},{"bike_id":"20dec2c9-ca70-4520-b174-a81f4e369962","system_id":"levelo_inurba_marseille","lat":43.29556,"lon":5.42293,"is_reserved":false,"is_disabled":false,"rental_uris":{"android":"levelo://app?vid=20dec2c9-ca70-4520-b174-a81f4e369962","ios":"levelo://app?vid=20dec2c9-ca70-4520-b174-a81f4e369962"},"vehicle_type_id":"4","last_reported":1733951309,"current_range_meters":35600,"station_id":"ce4bhph2rcd13ifvqhdg","pricing_plan_id":"cebpf4jnsgd1na2vs0mg"},{"bike_id":"46291bcc-705c-4063-ad33-c241773f8b73","system_id":"levelo_inurba_marseille","lat":43.30924,"lon":5.36901,"is_reserved":false,"is_disabled":false,"rental_uris":{"android":"levelo://app?vid=46291bcc-705c-4063-ad33-c241773f8b73","ios":"levelo://app?vid=46291bcc-705c-4063-ad33-c241773f8b73"},"vehicle_type_id":"4","last_reported":1733951309,"current_range_meters":39200,"station_id":"ce4bgn92rcd13ifvqbvg","pricing_plan_id":"cebpf4jnsgd1na2vs0mg"},{"bike_id":"2c014ae4-7d58-406f-a0f3-e7beffdd9a3b","system_id":"levelo_inurba_marseille","lat":43.30102,"lon":5.39075,"is_reserved":false,"is_disabled":true,"rental_uris":{"android":"levelo://app?vid=2c014ae4-7d58-406f-a0f3-e7beffdd9a3b","ios":"levelo://app?vid=2c014ae4-7d58-406f-a0f3-e7beffdd9a3b"},"vehicle_type_id":"4","last_reported":1733951309,"current_range_meters":30400,"station_id":"ce4bh192rcd13ifvqdb0","pricing_plan_id":"cebpf4jnsgd1na2vs0mg"},{"bike_id":"845a8a47-b6d6-45fa-a83d-183b1d1221e6","system_id":"levelo_inurba_marseille","lat":43.30912,"lon":5.3686,"is_reserved":false,"is_disabled":false,"rental_uris":{"android":"levelo://app?vid=845a8a47-b6d6-45fa-a83d-183b1d1221e6","ios":"levelo://app?vid=845a8a47-b6d6-45fa-a83d-183b1d1221e6"},"vehicle_type_id":"4","last_reported":1733951309,"current_range_meters":39200,"station_id":"ce4bgn92rcd13ifvqbvg","pricing_plan_id":"cebpf4jnsgd1na2vs0mg"},{"bike_id":"e966d2c7-c9e1-4cb1-9a39-6325607b0be4","system_id":"levelo_inurba_marseille","lat":43.337444,"lon":5.374475,"is_reserved":false,"is_disabled":true,"rental_uris":{"android":"levelo://app?vid=e966d2c7-c9e1-4cb1-9a39-6325607b0be4","ios":"levelo://app?vid=e966d2c7-c9e1-4cb1-9a39-6325607b0be4"},"vehicle_type_id":"4","last_reported":1733951309,"current_range_meters":0,"station_id":"","pricing_plan_id":"cebpf4jnsgd1na2vs0mg"},{"bike_id":"a876a8a8-c6c3-4206-a386-13542b133111","system_id":"levelo_inurba_marseille","lat":43.29262,"lon":5.36857,"is_reserved":false,"is_disabled":false,"rental_uris":{"android":"levelo://app?vid=a876a8a8-c6c3-4206-a386-13542b133111","ios":"levelo://app?vid=a876a8a8-c6c3-4206-a386-13542b133111"},"vehicle_type_id":"4","last_reported":1733951309,"current_range_meters":32000,"station_id":"ce4bhbp2rcd13ifvqesg","pricing_plan_id":"cebpf4jnsgd1na2vs0mg"},{"bike_id":"312bb54d-7981-48b2-bad1-cc0be49295b2","system_id":"levelo_inurba_marseille","lat":43.28847,"lon":5.35862,"is_reserved":false,"is_disabled":false,"rental_uris":{"android":"levelo://app?vid=312bb54d-7981-48b2-bad1-cc0be49295b2","ios":"levelo://app?vid=312bb54d-7981-48b2-bad1-cc0be49295b2"},"vehicle_type_id":"4","last_reported":1733951309,"current_range_meters":35600,"station_id":"ce4bhb12rcd13ifvqem0","pricing_plan_id":"cebpf4jnsgd1na2vs0mg"},{"bike_id":"f0a4f587-2333-4a7a-8819-09121e495e1b","system_id":"levelo_inurba_marseille","lat":43.22936,"lon":5.35383,"is_reserved":false,"is_disabled":false,"rental_uris":{"android":"levelo://app?vid=f0a4f587-2333-4a7a-8819-09121e495e1b","ios":"levelo://app?vid=f0a4f587-2333-4a7a-8819-09121e495e1b"},"vehicle_type_id":"4","last_reported":1733951309,"current_range_meters":11600,"station_id":"cpo3532slgdg3j2ikp40","pricing_plan_id":"cebpf4jnsgd1na2vs0mg"},{"bike_id":"2dc9aa74-69ff-4394-843e-e42cabc0b059","system_id":"levelo_inurba_marseille","lat":43.28697,"lon":5.37387,"is_reserved":false,"is_disabled":false,"rental_uris":{"android":"levelo://app?vid=2dc9aa74-69ff-4394-843e-e42cabc0b059","ios":"levelo://app?vid=2dc9aa74-69ff-4394-843e-e42cabc0b059"},"vehicle_type_id":"4","last_reported":1733951309,"current_range_meters":38800,"station_id":"ce4bh3p2rcd13ifvqdq0","pricing_plan_id":"cebpf4jnsgd1na2vs0mg"},{"bike_id":"81480221-5bd6-4736-a9d5-695a06b94e56","system_id":"levelo_inurba_marseille","lat":43.25083,"lon":5.39524,"is_reserved":false,"is_disabled":false,"rental_uris":{"android":"levelo://app?vid=81480221-5bd6-4736-a9d5-695a06b94e56","ios":"levelo://app?vid=81480221-5bd6-4736-a9d5-695a06b94e56"},"vehicle_type_id":"4","last_reported":1733951309,"current_range_meters":38000,"station_id":"ce4bhm12rcd13ifvqgkg","pricing_plan_id":"cebpf4jnsgd1na2vs0mg"},{"bike_id":"17f59de1-b3ce-4e3a-95ec-402199b35e46","system_id":"levelo_inurba_marseille","lat":43.24646,"lon":5.38889,"is_reserved":false,"is_disabled":false,"rental_uris":{"android":"levelo://app?vid=17f59de1-b3ce-4e3a-95ec-402199b35e46","ios":"levelo://app?vid=17f59de1-b3ce-4e3a-95ec-402199b35e46"},"vehicle_type_id":"4","last_reported":1733951309,"current_range_meters":30000,"station_id":"ce4bhg12rcd13ifvqf60","pricing_plan_id":"cebpf4jnsgd1na2vs0mg"},{"bike_id":"e2b090ff-7c7f-4d4a-8f5b-c317e750043e","system_id":"levelo_inurba_marseille","lat":43.27073,"lon":5.4229,"is_reserved":false,"is_disabled":true,"rental_uris":{"android":"levelo://app?vid=e2b090ff-7c7f-4d4a-8f5b-c317e750043e","ios":"levelo://app?vid=e2b090ff-7c7f-4d4a-8f5b-c317e750043e"},"vehicle_type_id":"4","last_reported":1733951309,"current_range_meters":0,"station_id":"ce4bhk92rcd13ifvqgb0","pricing_plan_id":"cebpf4jnsgd1na2vs0mg"},{"bike_id":"1802c294-deb8-4890-b7ca-3e995fd26543","system_id":"levelo_inurba_marseille","lat":43.27086,"lon":5.42269,"is_reserved":false,"is_disabled":false,"rental_uris":{"android":"levelo://app?vid=1802c294-deb8-4890-b7ca-3e995fd26543","ios":"levelo://app?vid=1802c294-deb8-4890-b7ca-3e995fd26543"},"vehicle_type_id":"4","last_reported":1733951309,"current_range_meters":36800,"station_id":"ce4bhk92rcd13ifvqgb0","pricing_plan_id":"cebpf4jnsgd1na2vs0mg"},{"bike_id":"c07bed49-7bd1-4167-905d-ca3f4558f43f","system_id":"levelo_inurba_marseille","lat":43.27839,"lon":5.39206,"is_reserved":false,"is_disabled":false,"rental_uris":{"android":"levelo://app?vid=c07bed49-7bd1-4167-905d-ca3f4558f43f","ios":"levelo://app?vid=c07bed49-7bd1-4167-905d-ca3f4558f43f"},"vehicle_type_id":"4","last_reported":1733951309,"current_range_meters":34000,"station_id":"ce4bhjp2rcd13ifvqga0","pricing_plan_id":"cebpf4jnsgd1na2vs0mg"},{"bike_id":"58cf3891-dd94-4bdf-8a77-a287a3f2609a","system_id":"levelo_inurba_marseille","lat":43.24405,"lon":5.37039,"is_reserved":false,"is_disabled":false,"rental_uris":{"android":"levelo://app?vid=58cf3891-dd94-4bdf-8a77-a287a3f2609a","ios":"levelo://app?vid=58cf3891-dd94-4bdf-8a77-a287a3f2609a"},"vehicle_type_id":"4","last_reported":1733951309,"current_range_meters":39200,"station_id":"ce4bhhh2rcd13ifvqfk0","pricing_plan_id":"cebpf4jnsgd1na2vs0mg"},{"bike_id":"fe4d47c1-dfb5-4e68-bfe4-126efd20c0c3","system_id":"levelo_inurba_marseille","lat":43.30795,"lon":5.37351,"is_reserved":false,"is_disabled":false,"rental_uris":{"android":"levelo://app?vid=fe4d47c1-dfb5-4e68-bfe4-126efd20c0c3","ios":"levelo://app?vid=fe4d47c1-dfb5-4e68-bfe4-126efd20c0c3"},"vehicle_type_id":"4","last_reported":1733951309,"current_range_meters":24800,"station_id":"","pricing_plan_id":"cebpf4jnsgd1na2vs0mg"},{"bike_id":"47ca1389-a4a0-4b65-a481-87698db823a2","system_id":"levelo_inurba_marseille","lat":43.28074,"lon":5.39664,"is_reserved":false,"is_disabled":false,"rental_uris":{"android":"levelo://app?vid=47ca1389-a4a0-4b65-a481-87698db823a2","ios":"levelo://app?vid=47ca1389-a4a0-4b65-a481-87698db823a2"},"vehicle_type_id":"4","last_reported":1733951309,"current_range_meters":39200,"station_id":"ce4bho12rcd13ifvqh2g","pricing_plan_id":"cebpf4jnsgd1na2vs0mg"},{"bike_id":"0e82dade-8dc2-491d-9db4-3976e18d4a8b","system_id":"levelo_inurba_marseille","lat":43.31183,"lon":5.3869,"is_reserved":false,"is_disabled":false,"rental_uris":{"android":"levelo://app?vid=0e82dade-8dc2-491d-9db4-3976e18d4a8b","ios":"levelo://app?vid=0e82dade-8dc2-491d-9db4-3976e18d4a8b"},"vehicle_type_id":"4","last_reported":1733951309,"current_range_meters":17200,"station_id":"ce4bgv12rcd13ifvqcp0","pricing_plan_id":"cebpf4jnsgd1na2vs0mg"},{"bike_id":"c346be12-582d-42dc-8dce-5e128ded35bf","system_id":"levelo_inurba_marseille","lat":43.32002,"lon":5.38158,"is_reserved":false,"is_disabled":false,"rental_uris":{"android":"levelo://app?vid=c346be12-582d-42dc-8dce-5e128ded35bf","ios":"levelo://app?vid=c346be12-582d-42dc-8dce-5e128ded35bf"},"vehicle_type_id":"4","last_reported":1733951309,"current_range_meters":24400,"station_id":"ce4bhr12rcd13ifvqhpg","pricing_plan_id":"cebpf4jnsgd1na2vs0mg"},{"bike_id":"82f09025-3cfb-4790-b608-4b1833086855","system_id":"levelo_inurba_marseille","lat":43.24388,"lon":5.37058,"is_reserved":false,"is_disabled":false,"rental_uris":{"android":"levelo://app?vid=82f09025-3cfb-4790-b608-4b1833086855","ios":"levelo://app?vid=82f09025-3cfb-4790-b608-4b1833086855"},"vehicle_type_id":"4","last_reported":1733951309,"current_range_meters":9200,"station_id":"ce4bhhh2rcd13ifvqfk0","pricing_plan_id":"cebpf4jnsgd1na2vs0mg"},{"bike_id":"e7e602e9-acc2-4c4d-91ae-aa102ec6165d","system_id":"levelo_inurba_marseille","lat":43.30298,"lon":5.392,"is_reserved":false,"is_disabled":false,"rental_uris":{"android":"levelo://app?vid=e7e602e9-acc2-4c4d-91ae-aa102ec6165d","ios":"levelo://app?vid=e7e602e9-acc2-4c4d-91ae-aa102ec6165d"},"vehicle_type_id":"4","last_reported":1733951309,"current_range_meters":39200,"station_id":"ce4bgkh2rcd13ifvqbk0","pricing_plan_id":"cebpf4jnsgd1na2vs0mg"},{"bike_id":"097a41bf-6635-41a6-b7a7-1173cae29ada","system_id":"levelo_inurba_marseille","lat":43.2292,"lon":5.35384,"is_reserved":false,"is_disabled":false,"rental_uris":{"android":"levelo://app?vid=097a41bf-6635-41a6-b7a7-1173cae29ada","ios":"levelo://app?vid=097a41bf-6635-41a6-b7a7-1173cae29ada"},"vehicle_type_id":"4","last_reported":1733951309,"current_range_meters":39200,"station_id":"cpo3532slgdg3j2ikp40","pricing_plan_id":"cebpf4jnsgd1na2vs0mg"},{"bike_id":"a90ab59e-9775-4bc6-a3e9-285e464122de","system_id":"levelo_inurba_marseille","lat":43.24645,"lon":5.38891,"is_reserved":false,"is_disabled":false,"rental_uris":{"android":"levelo://app?vid=a90ab59e-9775-4bc6-a3e9-285e464122de","ios":"levelo://app?vid=a90ab59e-9775-4bc6-a3e9-285e464122de"},"vehicle_type_id":"4","last_reported":1733951309,"current_range_meters":37600,"station_id":"ce4bhg12rcd13ifvqf60","pricing_plan_id":"cebpf4jnsgd1na2vs0mg"},{"bike_id":"325963e4-6cfb-40ae-a29c-2a445119d90b","system_id":"levelo_inurba_marseille","lat":43.29519,"lon":5.39037,"is_reserved":false,"is_disabled":false,"rental_uris":{"android":"levelo://app?vid=325963e4-6cfb-40ae-a29c-2a445119d90b","ios":"levelo://app?vid=325963e4-6cfb-40ae-a29c-2a445119d90b"},"vehicle_type_id":"4","last_reported":1733951309,"current_range_meters":37600,"station_id":"ce4bh3p2rcd13ifvqdp0","pricing_plan_id":"cebpf4jnsgd1na2vs0mg"},{"bike_id":"e08a3c45-9a07-474f-9717-a27fa81c4ce9","system_id":"levelo_inurba_marseille","lat":43.30796,"lon":5.38766,"is_reserved":false,"is_disabled":true,"rental_uris":{"android":"levelo://app?vid=e08a3c45-9a07-474f-9717-a27fa81c4ce9","ios":"levelo://app?vid=e08a3c45-9a07-474f-9717-a27fa81c4ce9"},"vehicle_type_id":"4","last_reported":1733951309,"current_range_meters":0,"station_id":"","pricing_plan_id":"cebpf4jnsgd1na2vs0mg"},{"bike_id":"cbc61392-dd88-4cd4-b814-ff3a8a1310e2","system_id":"levelo_inurba_marseille","lat":43.315,"lon":5.37291,"is_reserved":false,"is_disabled":false,"rental_uris":{"android":"levelo://app?vid=cbc61392-dd88-4cd4-b814-ff3a8a1310e2","ios":"levelo://app?vid=cbc61392-dd88-4cd4-b814-ff3a8a1310e2"},"vehicle_type_id":"4","last_reported":1733951309,"current_range_meters":4000,"station_id":"ce4bgt12rcd13ifvqcd0","pricing_plan_id":"cebpf4jnsgd1na2vs0mg"},{"bike_id":"6ae7d3b3-ea9a-44d3-a719-5568594a632e","system_id":"levelo_inurba_marseille","lat":43.29513,"lon":5.39412,"is_reserved":false,"is_disabled":false,"rental_uris":{"android":"levelo://app?vid=6ae7d3b3-ea9a-44d3-a719-5568594a632e","ios":"levelo://app?vid=6ae7d3b3-ea9a-44d3-a719-5568594a632e"},"vehicle_type_id":"4","last_reported":1733951309,"current_range_meters":38800,"station_id":"ce4bh292rcd13ifvqdf0","pricing_plan_id":"cebpf4jnsgd1na2vs0mg"},{"bike_id":"da28e2f0-7add-4e98-94c8-64ba50e22469","system_id":"levelo_inurba_marseille","lat":43.28105,"lon":5.37844,"is_reserved":false,"is_disabled":false,"rental_uris":{"android":"levelo://app?vid=da28e2f0-7add-4e98-94c8-64ba50e22469","ios":"levelo://app?vid=da28e2f0-7add-4e98-94c8-64ba50e22469"},"vehicle_type_id":"4","last_reported":1733951309,"current_range_meters":38800,"station_id":"ce4bha12rcd13ifvqee0","pricing_plan_id":"cebpf4jnsgd1na2vs0mg"},{"bike_id":"0d514f68-29b7-4049-844a-493370863f98","system_id":"levelo_inurba_marseille","lat":43.28343,"lon":5.38096,"is_reserved":false,"is_disabled":true,"rental_uris":{"android":"levelo://app?vid=0d514f68-29b7-4049-844a-493370863f98","ios":"levelo://app?vid=0d514f68-29b7-4049-844a-493370863f98"},"vehicle_type_id":"4","last_reported":1733951309,"current_range_meters":24400,"station_id":"ce4bh412rcd13ifvqdr0","pricing_plan_id":"cebpf4jnsgd1na2vs0mg"},{"bike_id":"96bf4cb0-2c8e-4663-a88b-30b55c3084dc","system_id":"levelo_inurba_marseille","lat":43.25572,"lon":5.3824,"is_reserved":false,"is_disabled":false,"rental_uris":{"android":"levelo://app?vid=96bf4cb0-2c8e-4663-a88b-30b55c3084dc","ios":"levelo://app?vid=96bf4cb0-2c8e-4663-a88b-30b55c3084dc"},"vehicle_type_id":"4","last_reported":1733951309,"current_range_meters":36800,"station_id":"ce4bhih2rcd13ifvqfs0","pricing_plan_id":"cebpf4jnsgd1na2vs0mg"},{"bike_id":"e3f5cbcc-c0d9-4ed4-96fa-131656aa7cf7","system_id":"levelo_inurba_marseille","lat":43.29577,"lon":5.37499,"is_reserved":false,"is_disabled":true,"rental_uris":{"android":"levelo://app?vid=e3f5cbcc-c0d9-4ed4-96fa-131656aa7cf7","ios":"levelo://app?vid=e3f5cbcc-c0d9-4ed4-96fa-131656aa7cf7"},"vehicle_type_id":"4","last_reported":1733951309,"current_range_meters":0,"station_id":"ce4bgh92rcd13ifvqb50","pricing_plan_id":"cebpf4jnsgd1na2vs0mg"},{"bike_id":"f3cbe401-3ff3-4bd4-b596-ce8bd49780b2","system_id":"levelo_inurba_marseille","lat":43.29251,"lon":5.40902,"is_reserved":false,"is_disabled":false,"rental_uris":{"android":"levelo://app?vid=f3cbe401-3ff3-4bd4-b596-ce8bd49780b2","ios":"levelo://app?vid=f3cbe401-3ff3-4bd4-b596-ce8bd49780b2"},"vehicle_type_id":"4","last_reported":1733951309,"current_range_meters":18800,"station_id":"ce4bh192rcd13ifvqdc0","pricing_plan_id":"cebpf4jnsgd1na2vs0mg"},{"bike_id":"af77a2c4-4f01-4eac-8bd5-698508bacd7c","system_id":"levelo_inurba_marseille","lat":43.27184,"lon":5.40998,"is_reserved":false,"is_disabled":false,"rental_uris":{"android":"levelo://app?vid=af77a2c4-4f01-4eac-8bd5-698508bacd7c","ios":"levelo://app?vid=af77a2c4-4f01-4eac-8bd5-698508bacd7c"},"vehicle_type_id":"4","last_reported":1733951309,"current_range_meters":23200,"station_id":"ce4bhl12rcd13ifvqgf0","pricing_plan_id":"cebpf4jnsgd1na2vs0mg"},{"bike_id":"e2a77f5d-1d63-4243-bf72-8b9ec30686b1","system_id":"levelo_inurba_marseille","lat":43.28709,"lon":5.37942,"is_reserved":false,"is_disabled":true,"rental_uris":{"android":"levelo://app?vid=e2a77f5d-1d63-4243-bf72-8b9ec30686b1","ios":"levelo://app?vid=e2a77f5d-1d63-4243-bf72-8b9ec30686b1"},"vehicle_type_id":"4","last_reported":1733951309,"current_range_meters":33200,"station_id":"ce4bh9p2rcd13ifvqec0","pricing_plan_id":"cebpf4jnsgd1na2vs0mg"},{"bike_id":"d8ce55ab-aac1-404d-95bf-10c2090f0d52","system_id":"levelo_inurba_marseille","lat":43.31083,"lon":5.38364,"is_reserved":false,"is_disabled":false,"rental_uris":{"android":"levelo://app?vid=d8ce55ab-aac1-404d-95bf-10c2090f0d52","ios":"levelo://app?vid=d8ce55ab-aac1-404d-95bf-10c2090f0d52"},"vehicle_type_id":"4","last_reported":1733951309,"current_range_meters":37600,"station_id":"ce4bgv92rcd13ifvqcr0","pricing_plan_id":"cebpf4jnsgd1na2vs0mg"},{"bike_id":"f82cdecd-f013-4071-a939-6b2e74c75032","system_id":"levelo_inurba_marseille","lat":43.31485,"lon":5.37308,"is_reserved":false,"is_disabled":false,"rental_uris":{"android":"levelo://app?vid=f82cdecd-f013-4071-a939-6b2e74c75032","ios":"levelo://app?vid=f82cdecd-f013-4071-a939-6b2e74c75032"},"vehicle_type_id":"4","last_reported":1733951309,"current_range_meters":24000,"station_id":"ce4bgt12rcd13ifvqcd0","pricing_plan_id":"cebpf4jnsgd1na2vs0mg"},{"bike_id":"66bfd463-6345-4be1-b58b-58a74e66597b","system_id":"levelo_inurba_marseille","lat":43.26818,"lon":5.40215,"is_reserved":false,"is_disabled":false,"rental_uris":{"android":"levelo://app?vid=66bfd463-6345-4be1-b58b-58a74e66597b","ios":"levelo://app?vid=66bfd463-6345-4be1-b58b-58a74e66597b"},"vehicle_type_id":"4","last_reported":1733951309,"current_range_meters":38800,"station_id":"ce501612rcd8frsf0b60","pricing_plan_id":"cebpf4jnsgd1na2vs0mg"},{"bike_id":"719781ef-4cbd-4631-965b-6343c9720e99","system_id":"levelo_inurba_marseille","lat":43.32368,"lon":5.3889,"is_reserved":false,"is_disabled":false,"rental_uris":{"android":"levelo://app?vid=719781ef-4cbd-4631-965b-6343c9720e99","ios":"levelo://app?vid=719781ef-4cbd-4631-965b-6343c9720e99"},"vehicle_type_id":"4","last_reported":1733951309,"current_range_meters":38800,"station_id":"ce4bhqp2rcd13ifvqhog","pricing_plan_id":"cebpf4jnsgd1na2vs0mg"},{"bike_id":"9ab2c2f8-f256-4cfa-a9fc-537597ebaff4","system_id":"levelo_inurba_marseille","lat":43.29897,"lon":5.39751,"is_reserved":false,"is_disabled":false,"rental_uris":{"android":"levelo://app?vid=9ab2c2f8-f256-4cfa-a9fc-537597ebaff4","ios":"levelo://app?vid=9ab2c2f8-f256-4cfa-a9fc-537597ebaff4"},"vehicle_type_id":"4","last_reported":1733951309,"current_range_meters":36400,"station_id":"ce4bh0h2rcd13ifvqd50","pricing_plan_id":"cebpf4jnsgd1na2vs0mg"},{"bike_id":"e51abff1-03e1-4dad-9828-e4dcb8bfd9ca","system_id":"levelo_inurba_marseille","lat":43.32255,"lon":5.36599,"is_reserved":false,"is_disabled":false,"rental_uris":{"android":"levelo://app?vid=e51abff1-03e1-4dad-9828-e4dcb8bfd9ca","ios":"levelo://app?vid=e51abff1-03e1-4dad-9828-e4dcb8bfd9ca"},"vehicle_type_id":"4","last_reported":1733951309,"current_range_meters":8400,"station_id":"ce4bhsh2rcd13ifvqi2g","pricing_plan_id":"cebpf4jnsgd1na2vs0mg"},{"bike_id":"a66c4b95-337e-4b9a-950c-e8c8d8e7a3a1","system_id":"levelo_inurba_marseille","lat":43.324799,"lon":5.365716,"is_reserved":false,"is_disabled":true,"rental_uris":{"android":"levelo://app?vid=a66c4b95-337e-4b9a-950c-e8c8d8e7a3a1","ios":"levelo://app?vid=a66c4b95-337e-4b9a-950c-e8c8d8e7a3a1"},"vehicle_type_id":"4","last_reported":1733951309,"current_range_meters":0,"station_id":"","pricing_plan_id":"cebpf4jnsgd1na2vs0mg"},{"bike_id":"94f7aa8e-5c4b-4307-ad76-00e7b4178128","system_id":"levelo_inurba_marseille","lat":43.31715,"lon":5.37777,"is_reserved":false,"is_disabled":false,"rental_uris":{"android":"levelo://app?vid=94f7aa8e-5c4b-4307-ad76-00e7b4178128","ios":"levelo://app?vid=94f7aa8e-5c4b-4307-ad76-00e7b4178128"},"vehicle_type_id":"4","last_reported":1733951309,"current_range_meters":39200,"station_id":"ce4bgth2rcd13ifvqch0","pricing_plan_id":"cebpf4jnsgd1na2vs0mg"},{"bike_id":"fd68a44b-d7e7-4ac9-9f93-63b59e3318d2","system_id":"levelo_inurba_marseille","lat":43.33723,"lon":5.39188,"is_reserved":false,"is_disabled":false,"rental_uris":{"android":"levelo://app?vid=fd68a44b-d7e7-4ac9-9f93-63b59e3318d2","ios":"levelo://app?vid=fd68a44b-d7e7-4ac9-9f93-63b59e3318d2"},"vehicle_type_id":"4","last_reported":1733951309,"current_range_meters":38000,"station_id":"ce4bhr92rcd13ifvqhsg","pricing_plan_id":"cebpf4jnsgd1na2vs0mg"},{"bike_id":"4b6ab6f2-3731-4710-b5fa-3ba990bb9aca","system_id":"levelo_inurba_marseille","lat":43.29029,"lon":5.38127,"is_reserved":false,"is_disabled":true,"rental_uris":{"android":"levelo://app?vid=4b6ab6f2-3731-4710-b5fa-3ba990bb9aca","ios":"levelo://app?vid=4b6ab6f2-3731-4710-b5fa-3ba990bb9aca"},"vehicle_type_id":"4","last_reported":1733951309,"current_range_meters":37600,"station_id":"ce4bh4p2rcd13ifvqe1g","pricing_plan_id":"cebpf4jnsgd1na2vs0mg"},{"bike_id":"36c22a16-66d2-4f78-a6c0-ae41b756b49e","system_id":"levelo_inurba_marseille","lat":43.30976,"lon":5.39034,"is_reserved":false,"is_disabled":true,"rental_uris":{"android":"levelo://app?vid=36c22a16-66d2-4f78-a6c0-ae41b756b49e","ios":"levelo://app?vid=36c22a16-66d2-4f78-a6c0-ae41b756b49e"},"vehicle_type_id":"4","last_reported":1733951309,"current_range_meters":38800,"station_id":"ce4bgup2rcd13ifvqco0","pricing_plan_id":"cebpf4jnsgd1na2vs0mg"},{"bike_id":"acf1500a-0946-4802-8523-9f4df9f45713","system_id":"levelo_inurba_marseille","lat":43.3122,"lon":5.36857,"is_reserved":false,"is_disabled":false,"rental_uris":{"android":"levelo://app?vid=acf1500a-0946-4802-8523-9f4df9f45713","ios":"levelo://app?vid=acf1500a-0946-4802-8523-9f4df9f45713"},"vehicle_type_id":"4","last_reported":1733951309,"current_range_meters":28800,"station_id":"ce4bgl92rcd13ifvqbq0","pricing_plan_id":"cebpf4jnsgd1na2vs0mg"},{"bike_id":"2175ae3c-739a-49a6-8b88-c695a996a497","system_id":"levelo_inurba_marseille","lat":43.24075,"lon":5.37713,"is_reserved":false,"is_disabled":true,"rental_uris":{"android":"levelo://app?vid=2175ae3c-739a-49a6-8b88-c695a996a497","ios":"levelo://app?vid=2175ae3c-739a-49a6-8b88-c695a996a497"},"vehicle_type_id":"4","last_reported":1733951309,"current_range_meters":35200,"station_id":"ce4bhnp2rcd13ifvqgvg","pricing_plan_id":"cebpf4jnsgd1na2vs0mg"},{"bike_id":"b22583aa-f8ec-44ec-9fe6-7aa6d09b007f","system_id":"levelo_inurba_marseille","lat":43.30583,"lon":5.37237,"is_reserved":false,"is_disabled":false,"rental_uris":{"android":"levelo://app?vid=b22583aa-f8ec-44ec-9fe6-7aa6d09b007f","ios":"levelo://app?vid=b22583aa-f8ec-44ec-9fe6-7aa6d09b007f"},"vehicle_type_id":"4","last_reported":1733951309,"current_range_meters":32000,"station_id":"ce4bgqh2rcd13ifvqc4g","pricing_plan_id":"cebpf4jnsgd1na2vs0mg"},{"bike_id":"8934cfd7-7a30-4578-9b27-97502688e616","system_id":"levelo_inurba_marseille","lat":43.32661,"lon":5.40993,"is_reserved":false,"is_disabled":false,"rental_uris":{"android":"levelo://app?vid=8934cfd7-7a30-4578-9b27-97502688e616","ios":"levelo://app?vid=8934cfd7-7a30-4578-9b27-97502688e616"},"vehicle_type_id":"4","last_reported":1733951309,"current_range_meters":38800,"station_id":"ce4bhpp2rcd13ifvqhgg","pricing_plan_id":"cebpf4jnsgd1na2vs0mg"},{"bike_id":"bbcff5ca-4212-4f97-ad4e-cc9f02df715c","system_id":"levelo_inurba_marseille","lat":43.23185,"lon":5.39993,"is_reserved":false,"is_disabled":false,"rental_uris":{"android":"levelo://app?vid=bbcff5ca-4212-4f97-ad4e-cc9f02df715c","ios":"levelo://app?vid=bbcff5ca-4212-4f97-ad4e-cc9f02df715c"},"vehicle_type_id":"4","last_reported":1733951309,"current_range_meters":38800,"station_id":"ce4bhn12rcd13ifvqgqg","pricing_plan_id":"cebpf4jnsgd1na2vs0mg"},{"bike_id":"024cb6ed-8905-461f-90e9-7b3f966b01d2","system_id":"levelo_inurba_marseille","lat":43.31268,"lon":5.40161,"is_reserved":false,"is_disabled":false,"rental_uris":{"android":"levelo://app?vid=024cb6ed-8905-461f-90e9-7b3f966b01d2","ios":"levelo://app?vid=024cb6ed-8905-461f-90e9-7b3f966b01d2"},"vehicle_type_id":"4","last_reported":1733951309,"current_range_meters":24800,"station_id":"ce4bh092rcd13ifvqd30","pricing_plan_id":"cebpf4jnsgd1na2vs0mg"},{"bike_id":"94d24d12-981d-4c28-b9a7-c4bd686eb9f2","system_id":"levelo_inurba_marseille","lat":43.24893,"lon":5.396971,"is_reserved":false,"is_disabled":false,"rental_uris":{"android":"levelo://app?vid=94d24d12-981d-4c28-b9a7-c4bd686eb9f2","ios":"levelo://app?vid=94d24d12-981d-4c28-b9a7-c4bd686eb9f2"},"vehicle_type_id":"4","last_reported":1733951309,"current_range_meters":32800,"station_id":"ce4bhkp2rcd13ifvqgd0","pricing_plan_id":"cebpf4jnsgd1na2vs0mg"},{"bike_id":"d036b19e-8df6-4187-a6d9-9a0849ac833c","system_id":"levelo_inurba_marseille","lat":43.27997,"lon":5.41652,"is_reserved":false,"is_disabled":false,"rental_uris":{"android":"levelo://app?vid=d036b19e-8df6-4187-a6d9-9a0849ac833c","ios":"levelo://app?vid=d036b19e-8df6-4187-a6d9-9a0849ac833c"},"vehicle_type_id":"4","last_reported":1733951309,"current_range_meters":28000,"station_id":"ce4bho12rcd13ifvqh1g","pricing_plan_id":"cebpf4jnsgd1na2vs0mg"},{"bike_id":"62dc3d6f-14e9-4572-8025-9eaf9b53e0fb","system_id":"levelo_inurba_marseille","lat":43.28612,"lon":5.37062,"is_reserved":false,"is_disabled":false,"rental_uris":{"android":"levelo://app?vid=62dc3d6f-14e9-4572-8025-9eaf9b53e0fb","ios":"levelo://app?vid=62dc3d6f-14e9-4572-8025-9eaf9b53e0fb"},"vehicle_type_id":"4","last_reported":1733951309,"current_range_meters":38800,"station_id":"ce4bht12rcd13ifvqi60","pricing_plan_id":"cebpf4jnsgd1na2vs0mg"},{"bike_id":"a7f53bbb-ccf6-4480-bdbd-62551e7753c7","system_id":"levelo_inurba_marseille","lat":43.30448,"lon":5.38901,"is_reserved":false,"is_disabled":false,"rental_uris":{"android":"levelo://app?vid=a7f53bbb-ccf6-4480-bdbd-62551e7753c7","ios":"levelo://app?vid=a7f53bbb-ccf6-4480-bdbd-62551e7753c7"},"vehicle_type_id":"4","last_reported":1733951309,"current_range_meters":29600,"station_id":"ce4bgk12rcd13ifvqbi0","pricing_plan_id":"cebpf4jnsgd1na2vs0mg"},{"bike_id":"641eb096-e721-46eb-bf32-5a88fb8b48a1","system_id":"levelo_inurba_marseille","lat":43.28917,"lon":5.3663,"is_reserved":false,"is_disabled":false,"rental_uris":{"android":"levelo://app?vid=641eb096-e721-46eb-bf32-5a88fb8b48a1","ios":"levelo://app?vid=641eb096-e721-46eb-bf32-5a88fb8b48a1"},"vehicle_type_id":"4","last_reported":1733951309,"current_range_meters":26800,"station_id":"ce4bhap2rcd13ifvqek0","pricing_plan_id":"cebpf4jnsgd1na2vs0mg"},{"bike_id":"6a525d44-9575-46d2-9ab4-e0df0d7218dd","system_id":"levelo_inurba_marseille","lat":43.29001,"lon":5.356,"is_reserved":false,"is_disabled":false,"rental_uris":{"android":"levelo://app?vid=6a525d44-9575-46d2-9ab4-e0df0d7218dd","ios":"levelo://app?vid=6a525d44-9575-46d2-9ab4-e0df0d7218dd"},"vehicle_type_id":"4","last_reported":1733951309,"current_range_meters":37600,"station_id":"ce4bhb92rcd13ifvqen0","pricing_plan_id":"cebpf4jnsgd1na2vs0mg"},{"bike_id":"ab1c6a12-19ac-4afb-af5f-776c48efacd2","system_id":"levelo_inurba_marseille","lat":43.23194,"lon":5.35549,"is_reserved":false,"is_disabled":false,"rental_uris":{"android":"levelo://app?vid=ab1c6a12-19ac-4afb-af5f-776c48efacd2","ios":"levelo://app?vid=ab1c6a12-19ac-4afb-af5f-776c48efacd2"},"vehicle_type_id":"4","last_reported":1733951309,"current_range_meters":18800,"station_id":"ce4bhu92rcd13ifvqi70","pricing_plan_id":"cebpf4jnsgd1na2vs0mg"},{"bike_id":"6ad17f79-35a5-426a-a40c-9a0fe7420dde","system_id":"levelo_inurba_marseille","lat":43.32032,"lon":5.41563,"is_reserved":false,"is_disabled":false,"rental_uris":{"android":"levelo://app?vid=6ad17f79-35a5-426a-a40c-9a0fe7420dde","ios":"levelo://app?vid=6ad17f79-35a5-426a-a40c-9a0fe7420dde"},"vehicle_type_id":"4","last_reported":1733951309,"current_range_meters":11200,"station_id":"ce4bhq92rcd13ifvqhkg","pricing_plan_id":"cebpf4jnsgd1na2vs0mg"},{"bike_id":"8bcc3dd1-8d17-4a74-baa2-dfcbd71043e9","system_id":"levelo_inurba_marseille","lat":43.29617,"lon":5.39355,"is_reserved":false,"is_disabled":false,"rental_uris":{"android":"levelo://app?vid=8bcc3dd1-8d17-4a74-baa2-dfcbd71043e9","ios":"levelo://app?vid=8bcc3dd1-8d17-4a74-baa2-dfcbd71043e9"},"vehicle_type_id":"4","last_reported":1733951309,"current_range_meters":28800,"station_id":"chh1huq6cuj3fo74tm60","pricing_plan_id":"cebpf4jnsgd1na2vs0mg"},{"bike_id":"034afd89-7884-46aa-947a-c5f301e52728","system_id":"levelo_inurba_marseille","lat":43.30895,"lon":5.39651,"is_reserved":false,"is_disabled":true,"rental_uris":{"android":"levelo://app?vid=034afd89-7884-46aa-947a-c5f301e52728","ios":"levelo://app?vid=034afd89-7884-46aa-947a-c5f301e52728"},"vehicle_type_id":"4","last_reported":1733951309,"current_range_meters":22400,"station_id":"ce4bh012rcd13ifvqcv0","pricing_plan_id":"cebpf4jnsgd1na2vs0mg"},{"bike_id":"77aa3771-e39f-4270-8eb7-dc0a17d3893e","system_id":"levelo_inurba_marseille","lat":43.260318,"lon":5.375442,"is_reserved":false,"is_disabled":false,"rental_uris":{"android":"levelo://app?vid=77aa3771-e39f-4270-8eb7-dc0a17d3893e","ios":"levelo://app?vid=77aa3771-e39f-4270-8eb7-dc0a17d3893e"},"vehicle_type_id":"4","last_reported":1733951309,"current_range_meters":38000,"station_id":"ce4bhgh2rcd13ifvqfa0","pricing_plan_id":"cebpf4jnsgd1na2vs0mg"},{"bike_id":"213afb77-84e7-4c2e-b114-a284474b3b4e","system_id":"levelo_inurba_marseille","lat":43.29907,"lon":5.38137,"is_reserved":false,"is_disabled":false,"rental_uris":{"android":"levelo://app?vid=213afb77-84e7-4c2e-b114-a284474b3b4e","ios":"levelo://app?vid=213afb77-84e7-4c2e-b114-a284474b3b4e"},"vehicle_type_id":"4","last_reported":1733951309,"current_range_meters":29600,"station_id":"ce4bgj12rcd13ifvqbc0","pricing_plan_id":"cebpf4jnsgd1na2vs0mg"},{"bike_id":"4645a953-338c-484b-ab9d-d0fa6b08fa81","system_id":"levelo_inurba_marseille","lat":43.28695,"lon":5.37411,"is_reserved":false,"is_disabled":false,"rental_uris":{"android":"levelo://app?vid=4645a953-338c-484b-ab9d-d0fa6b08fa81","ios":"levelo://app?vid=4645a953-338c-484b-ab9d-d0fa6b08fa81"},"vehicle_type_id":"4","last_reported":1733951309,"current_range_meters":28800,"station_id":"ce4bh3p2rcd13ifvqdq0","pricing_plan_id":"cebpf4jnsgd1na2vs0mg"},{"bike_id":"ef9c5f0a-5bc9-4c23-bd0f-ba27102c93b5","system_id":"levelo_inurba_marseille","lat":43.30434,"lon":5.38877,"is_reserved":false,"is_disabled":false,"rental_uris":{"android":"levelo://app?vid=ef9c5f0a-5bc9-4c23-bd0f-ba27102c93b5","ios":"levelo://app?vid=ef9c5f0a-5bc9-4c23-bd0f-ba27102c93b5"},"vehicle_type_id":"4","last_reported":1733951309,"current_range_meters":35200,"station_id":"ce4bgk12rcd13ifvqbi0","pricing_plan_id":"cebpf4jnsgd1na2vs0mg"},{"bike_id":"3125d0ae-884f-4a3e-823a-ed0e3cad176b","system_id":"levelo_inurba_marseille","lat":43.2439,"lon":5.37062,"is_reserved":false,"is_disabled":false,"rental_uris":{"android":"levelo://app?vid=3125d0ae-884f-4a3e-823a-ed0e3cad176b","ios":"levelo://app?vid=3125d0ae-884f-4a3e-823a-ed0e3cad176b"},"vehicle_type_id":"4","last_reported":1733951309,"current_range_meters":38000,"station_id":"ce4bhhh2rcd13ifvqfk0","pricing_plan_id":"cebpf4jnsgd1na2vs0mg"},{"bike_id":"06bd7f7a-8306-4c22-820f-171f3fdd236d","system_id":"levelo_inurba_marseille","lat":43.28838,"lon":5.39317,"is_reserved":false,"is_disabled":false,"rental_uris":{"android":"levelo://app?vid=06bd7f7a-8306-4c22-820f-171f3fdd236d","ios":"levelo://app?vid=06bd7f7a-8306-4c22-820f-171f3fdd236d"},"vehicle_type_id":"4","last_reported":1733951309,"current_range_meters":38800,"station_id":"ce4bh2p2rcd13ifvqdi0","pricing_plan_id":"cebpf4jnsgd1na2vs0mg"},{"bike_id":"1b9459f5-dcc2-4e43-84c1-999b14f8e0bb","system_id":"levelo_inurba_marseille","lat":43.25584,"lon":5.38243,"is_reserved":false,"is_disabled":false,"rental_uris":{"android":"levelo://app?vid=1b9459f5-dcc2-4e43-84c1-999b14f8e0bb","ios":"levelo://app?vid=1b9459f5-dcc2-4e43-84c1-999b14f8e0bb"},"vehicle_type_id":"4","last_reported":1733951309,"current_range_meters":17600,"station_id":"ce4bhih2rcd13ifvqfs0","pricing_plan_id":"cebpf4jnsgd1na2vs0mg"},{"bike_id":"83a5e861-8381-4dcd-8908-0469d605e9e7","system_id":"levelo_inurba_marseille","lat":43.2866,"lon":5.36362,"is_reserved":false,"is_disabled":false,"rental_uris":{"android":"levelo://app?vid=83a5e861-8381-4dcd-8908-0469d605e9e7","ios":"levelo://app?vid=83a5e861-8381-4dcd-8908-0469d605e9e7"},"vehicle_type_id":"4","last_reported":1733951309,"current_range_meters":37600,"station_id":"ce4bhah2rcd13ifvqej0","pricing_plan_id":"cebpf4jnsgd1na2vs0mg"},{"bike_id":"8fad2941-6932-4f23-b9f1-058ba7290ff8","system_id":"levelo_inurba_marseille","lat":43.29002,"lon":5.35616,"is_reserved":false,"is_disabled":false,"rental_uris":{"android":"levelo://app?vid=8fad2941-6932-4f23-b9f1-058ba7290ff8","ios":"levelo://app?vid=8fad2941-6932-4f23-b9f1-058ba7290ff8"},"vehicle_type_id":"4","last_reported":1733951309,"current_range_meters":25600,"station_id":"ce4bhb92rcd13ifvqen0","pricing_plan_id":"cebpf4jnsgd1na2vs0mg"},{"bike_id":"06aea6f3-562f-4337-98eb-2f1af629b649","system_id":"levelo_inurba_marseille","lat":43.29359,"lon":5.37429,"is_reserved":false,"is_disabled":false,"rental_uris":{"android":"levelo://app?vid=06aea6f3-562f-4337-98eb-2f1af629b649","ios":"levelo://app?vid=06aea6f3-562f-4337-98eb-2f1af629b649"},"vehicle_type_id":"4","last_reported":1733951309,"current_range_meters":27200,"station_id":"","pricing_plan_id":"cebpf4jnsgd1na2vs0mg"},{"bike_id":"d99919b6-e630-4b49-8eb6-b51d35326fff","system_id":"levelo_inurba_marseille","lat":43.29521,"lon":5.39033,"is_reserved":false,"is_disabled":false,"rental_uris":{"android":"levelo://app?vid=d99919b6-e630-4b49-8eb6-b51d35326fff","ios":"levelo://app?vid=d99919b6-e630-4b49-8eb6-b51d35326fff"},"vehicle_type_id":"4","last_reported":1733951309,"current_range_meters":27600,"station_id":"ce4bh3p2rcd13ifvqdp0","pricing_plan_id":"cebpf4jnsgd1na2vs0mg"},{"bike_id":"ee0186ce-5ee6-443a-aa7c-853a1e294ff2","system_id":"levelo_inurba_marseille","lat":43.29614,"lon":5.37716,"is_reserved":false,"is_disabled":true,"rental_uris":{"android":"levelo://app?vid=ee0186ce-5ee6-443a-aa7c-853a1e294ff2","ios":"levelo://app?vid=ee0186ce-5ee6-443a-aa7c-853a1e294ff2"},"vehicle_type_id":"4","last_reported":1733951309,"current_range_meters":8400,"station_id":"ce4bgi92rcd13ifvqb90","pricing_plan_id":"cebpf4jnsgd1na2vs0mg"},{"bike_id":"3d3cc1fc-0629-437a-a117-76049fee6dbb","system_id":"levelo_inurba_marseille","lat":43.3233,"lon":5.40613,"is_reserved":false,"is_disabled":false,"rental_uris":{"android":"levelo://app?vid=3d3cc1fc-0629-437a-a117-76049fee6dbb","ios":"levelo://app?vid=3d3cc1fc-0629-437a-a117-76049fee6dbb"},"vehicle_type_id":"4","last_reported":1733951309,"current_range_meters":37600,"station_id":"ce4bhq92rcd13ifvqhjg","pricing_plan_id":"cebpf4jnsgd1na2vs0mg"},{"bike_id":"5a235967-5719-4424-a67c-4a133852dbd0","system_id":"levelo_inurba_marseille","lat":43.329562,"lon":5.364974,"is_reserved":false,"is_disabled":false,"rental_uris":{"android":"levelo://app?vid=5a235967-5719-4424-a67c-4a133852dbd0","ios":"levelo://app?vid=5a235967-5719-4424-a67c-4a133852dbd0"},"vehicle_type_id":"4","last_reported":1733951309,"current_range_meters":28400,"station_id":"","pricing_plan_id":"cebpf4jnsgd1na2vs0mg"},{"bike_id":"6bdee74d-e5c2-42e5-a6fd-8f401afd7419","system_id":"levelo_inurba_marseille","lat":43.24383,"lon":5.37061,"is_reserved":false,"is_disabled":false,"rental_uris":{"android":"levelo://app?vid=6bdee74d-e5c2-42e5-a6fd-8f401afd7419","ios":"levelo://app?vid=6bdee74d-e5c2-42e5-a6fd-8f401afd7419"},"vehicle_type_id":"4","last_reported":1733951309,"current_range_meters":12000,"station_id":"ce4bhhh2rcd13ifvqfk0","pricing_plan_id":"cebpf4jnsgd1na2vs0mg"},{"bike_id":"38c1f477-54b0-487d-9e9c-970db0f0bad4","system_id":"levelo_inurba_marseille","lat":43.25492,"lon":5.37647,"is_reserved":false,"is_disabled":false,"rental_uris":{"android":"levelo://app?vid=38c1f477-54b0-487d-9e9c-970db0f0bad4","ios":"levelo://app?vid=38c1f477-54b0-487d-9e9c-970db0f0bad4"},"vehicle_type_id":"4","last_reported":1733951309,"current_range_meters":6000,"station_id":"ce4bhh12rcd13ifvqff0","pricing_plan_id":"cebpf4jnsgd1na2vs0mg"},{"bike_id":"ca0d40de-b71f-4146-b2fa-859b113bf074","system_id":"levelo_inurba_marseille","lat":43.31991,"lon":5.38117,"is_reserved":false,"is_disabled":false,"rental_uris":{"android":"levelo://app?vid=ca0d40de-b71f-4146-b2fa-859b113bf074","ios":"levelo://app?vid=ca0d40de-b71f-4146-b2fa-859b113bf074"},"vehicle_type_id":"4","last_reported":1733951309,"current_range_meters":16400,"station_id":"ce4bhr12rcd13ifvqhpg","pricing_plan_id":"cebpf4jnsgd1na2vs0mg"},{"bike_id":"aeee7448-02e6-45b0-b0ac-d55c99806503","system_id":"levelo_inurba_marseille","lat":43.25577,"lon":5.3824,"is_reserved":false,"is_disabled":true,"rental_uris":{"android":"levelo://app?vid=aeee7448-02e6-45b0-b0ac-d55c99806503","ios":"levelo://app?vid=aeee7448-02e6-45b0-b0ac-d55c99806503"},"vehicle_type_id":"4","last_reported":1733951309,"current_range_meters":4800,"station_id":"ce4bhih2rcd13ifvqfs0","pricing_plan_id":"cebpf4jnsgd1na2vs0mg"},{"bike_id":"21338742-b694-4754-b28f-54713baa8797","system_id":"levelo_inurba_marseille","lat":43.29208,"lon":5.39352,"is_reserved":false,"is_disabled":false,"rental_uris":{"android":"levelo://app?vid=21338742-b694-4754-b28f-54713baa8797","ios":"levelo://app?vid=21338742-b694-4754-b28f-54713baa8797"},"vehicle_type_id":"4","last_reported":1733951309,"current_range_meters":38800,"station_id":"ce4bh192rcd13ifvqdd0","pricing_plan_id":"cebpf4jnsgd1na2vs0mg"},{"bike_id":"fc434179-c2b4-4ef3-8bd2-18bf25c73820","system_id":"levelo_inurba_marseille","lat":43.31178,"lon":5.38704,"is_reserved":false,"is_disabled":false,"rental_uris":{"android":"levelo://app?vid=fc434179-c2b4-4ef3-8bd2-18bf25c73820","ios":"levelo://app?vid=fc434179-c2b4-4ef3-8bd2-18bf25c73820"},"vehicle_type_id":"4","last_reported":1733951309,"current_range_meters":38000,"station_id":"ce4bgv12rcd13ifvqcp0","pricing_plan_id":"cebpf4jnsgd1na2vs0mg"},{"bike_id":"e038995b-6880-49ec-a5b6-6a5b3c935364","system_id":"levelo_inurba_marseille","lat":43.29785,"lon":5.39342,"is_reserved":false,"is_disabled":false,"rental_uris":{"android":"levelo://app?vid=e038995b-6880-49ec-a5b6-6a5b3c935364","ios":"levelo://app?vid=e038995b-6880-49ec-a5b6-6a5b3c935364"},"vehicle_type_id":"4","last_reported":1733951309,"current_range_meters":38000,"station_id":"chh1huq6cuj3fo74tm60","pricing_plan_id":"cebpf4jnsgd1na2vs0mg"},{"bike_id":"e67212d1-7ebb-428f-96ff-4a419c8d4f94","system_id":"levelo_inurba_marseille","lat":43.28157,"lon":5.42623,"is_reserved":false,"is_disabled":false,"rental_uris":{"android":"levelo://app?vid=e67212d1-7ebb-428f-96ff-4a419c8d4f94","ios":"levelo://app?vid=e67212d1-7ebb-428f-96ff-4a419c8d4f94"},"vehicle_type_id":"4","last_reported":1733951309,"current_range_meters":36000,"station_id":"ce4bhnh2rcd13ifvqgug","pricing_plan_id":"cebpf4jnsgd1na2vs0mg"},{"bike_id":"23c74843-ac34-4d55-ae3d-bd90fa93fff4","system_id":"levelo_inurba_marseille","lat":43.28262,"lon":5.3507,"is_reserved":false,"is_disabled":false,"rental_uris":{"android":"levelo://app?vid=23c74843-ac34-4d55-ae3d-bd90fa93fff4","ios":"levelo://app?vid=23c74843-ac34-4d55-ae3d-bd90fa93fff4"},"vehicle_type_id":"4","last_reported":1733951309,"current_range_meters":10800,"station_id":"ce4bhbp2rcd13ifvqerg","pricing_plan_id":"cebpf4jnsgd1na2vs0mg"},{"bike_id":"3b58220a-25f8-48eb-b647-f6f0ede5a9e3","system_id":"levelo_inurba_marseille","lat":43.2799,"lon":5.41632,"is_reserved":false,"is_disabled":false,"rental_uris":{"android":"levelo://app?vid=3b58220a-25f8-48eb-b647-f6f0ede5a9e3","ios":"levelo://app?vid=3b58220a-25f8-48eb-b647-f6f0ede5a9e3"},"vehicle_type_id":"4","last_reported":1733951309,"current_range_meters":24800,"station_id":"ce4bho12rcd13ifvqh1g","pricing_plan_id":"cebpf4jnsgd1na2vs0mg"},{"bike_id":"64a6efea-3d8d-4a39-8e3f-d4afdd90970d","system_id":"levelo_inurba_marseille","lat":43.24804,"lon":5.37458,"is_reserved":false,"is_disabled":false,"rental_uris":{"android":"levelo://app?vid=64a6efea-3d8d-4a39-8e3f-d4afdd90970d","ios":"levelo://app?vid=64a6efea-3d8d-4a39-8e3f-d4afdd90970d"},"vehicle_type_id":"4","last_reported":1733951309,"current_range_meters":38800,"station_id":"ce4bhgh2rcd13ifvqfb0","pricing_plan_id":"cebpf4jnsgd1na2vs0mg"},{"bike_id":"467a8ed9-8f9d-4f9c-a7a2-b2a4bc21bd4a","system_id":"levelo_inurba_marseille","lat":43.24649,"lon":5.38892,"is_reserved":false,"is_disabled":false,"rental_uris":{"android":"levelo://app?vid=467a8ed9-8f9d-4f9c-a7a2-b2a4bc21bd4a","ios":"levelo://app?vid=467a8ed9-8f9d-4f9c-a7a2-b2a4bc21bd4a"},"vehicle_type_id":"4","last_reported":1733951309,"current_range_meters":38000,"station_id":"ce4bhg12rcd13ifvqf60","pricing_plan_id":"cebpf4jnsgd1na2vs0mg"},{"bike_id":"16492b5b-37d8-452f-8923-009b71c8397d","system_id":"levelo_inurba_marseille","lat":43.25579,"lon":5.38244,"is_reserved":false,"is_disabled":false,"rental_uris":{"android":"levelo://app?vid=16492b5b-37d8-452f-8923-009b71c8397d","ios":"levelo://app?vid=16492b5b-37d8-452f-8923-009b71c8397d"},"vehicle_type_id":"4","last_reported":1733951309,"current_range_meters":28800,"station_id":"ce4bhih2rcd13ifvqfs0","pricing_plan_id":"cebpf4jnsgd1na2vs0mg"},{"bike_id":"33099d93-ce10-45ff-bd7c-95104a3498a9","system_id":"levelo_inurba_marseille","lat":43.27995,"lon":5.41663,"is_reserved":false,"is_disabled":false,"rental_uris":{"android":"levelo://app?vid=33099d93-ce10-45ff-bd7c-95104a3498a9","ios":"levelo://app?vid=33099d93-ce10-45ff-bd7c-95104a3498a9"},"vehicle_type_id":"4","last_reported":1733951309,"current_range_meters":38400,"station_id":"ce4bho12rcd13ifvqh1g","pricing_plan_id":"cebpf4jnsgd1na2vs0mg"},{"bike_id":"4d9975b2-8caf-4dfe-9202-9f11fbd0b727","system_id":"levelo_inurba_marseille","lat":43.29522,"lon":5.37501,"is_reserved":false,"is_disabled":true,"rental_uris":{"android":"levelo://app?vid=4d9975b2-8caf-4dfe-9202-9f11fbd0b727","ios":"levelo://app?vid=4d9975b2-8caf-4dfe-9202-9f11fbd0b727"},"vehicle_type_id":"4","last_reported":1733951309,"current_range_meters":20000,"station_id":"ce4bgkp2rcd13ifvqbmg","pricing_plan_id":"cebpf4jnsgd1na2vs0mg"},{"bike_id":"a5589391-a7e4-412b-9a87-f917b2322580","system_id":"levelo_inurba_marseille","lat":43.230667,"lon":5.354822,"is_reserved":false,"is_disabled":false,"rental_uris":{"android":"levelo://app?vid=a5589391-a7e4-412b-9a87-f917b2322580","ios":"levelo://app?vid=a5589391-a7e4-412b-9a87-f917b2322580"},"vehicle_type_id":"4","last_reported":1733951309,"current_range_meters":19600,"station_id":"cpo3342slgdg3j2ifvpg","pricing_plan_id":"cebpf4jnsgd1na2vs0mg"},{"bike_id":"3e8e43ef-e426-4eb0-a4d7-3859a0f0b46a","system_id":"levelo_inurba_marseille","lat":43.243835,"lon":5.370586,"is_reserved":false,"is_disabled":false,"rental_uris":{"android":"levelo://app?vid=3e8e43ef-e426-4eb0-a4d7-3859a0f0b46a","ios":"levelo://app?vid=3e8e43ef-e426-4eb0-a4d7-3859a0f0b46a"},"vehicle_type_id":"4","last_reported":1733951309,"current_range_meters":9200,"station_id":"ce4bgj92rcd13ifvqbe0","pricing_plan_id":"cebpf4jnsgd1na2vs0mg"},{"bike_id":"9ec434bf-ed24-40e8-a1ba-464c29049ca6","system_id":"levelo_inurba_marseille","lat":43.31357,"lon":5.38502,"is_reserved":false,"is_disabled":false,"rental_uris":{"android":"levelo://app?vid=9ec434bf-ed24-40e8-a1ba-464c29049ca6","ios":"levelo://app?vid=9ec434bf-ed24-40e8-a1ba-464c29049ca6"},"vehicle_type_id":"4","last_reported":1733951309,"current_range_meters":32000,"station_id":"ce4bgt92rcd13ifvqcf0","pricing_plan_id":"cebpf4jnsgd1na2vs0mg"},{"bike_id":"5d45934d-d05c-4f24-8f37-3eea3f951ebe","system_id":"levelo_inurba_marseille","lat":43.30549,"lon":5.4047,"is_reserved":false,"is_disabled":false,"rental_uris":{"android":"levelo://app?vid=5d45934d-d05c-4f24-8f37-3eea3f951ebe","ios":"levelo://app?vid=5d45934d-d05c-4f24-8f37-3eea3f951ebe"},"vehicle_type_id":"4","last_reported":1733951309,"current_range_meters":28800,"station_id":"","pricing_plan_id":"cebpf4jnsgd1na2vs0mg"},{"bike_id":"eb73ff74-a0a2-4501-b2f9-ea363ee16409","system_id":"levelo_inurba_marseille","lat":43.29209,"lon":5.3581,"is_reserved":false,"is_disabled":false,"rental_uris":{"android":"levelo://app?vid=eb73ff74-a0a2-4501-b2f9-ea363ee16409","ios":"levelo://app?vid=eb73ff74-a0a2-4501-b2f9-ea363ee16409"},"vehicle_type_id":"4","last_reported":1733951309,"current_range_meters":39200,"station_id":"ce4bhb12rcd13ifvqel0","pricing_plan_id":"cebpf4jnsgd1na2vs0mg"},{"bike_id":"837ea001-3dca-43b1-bf44-3c63cdc8ec4f","system_id":"levelo_inurba_marseille","lat":43.24075,"lon":5.37755,"is_reserved":false,"is_disabled":false,"rental_uris":{"android":"levelo://app?vid=837ea001-3dca-43b1-bf44-3c63cdc8ec4f","ios":"levelo://app?vid=837ea001-3dca-43b1-bf44-3c63cdc8ec4f"},"vehicle_type_id":"4","last_reported":1733951309,"current_range_meters":38000,"station_id":"ce4bhnp2rcd13ifvqgvg","pricing_plan_id":"cebpf4jnsgd1na2vs0mg"},{"bike_id":"666ffc11-09a1-4aa3-a091-0b6fa3af6380","system_id":"levelo_inurba_marseille","lat":43.27819,"lon":5.40732,"is_reserved":false,"is_disabled":false,"rental_uris":{"android":"levelo://app?vid=666ffc11-09a1-4aa3-a091-0b6fa3af6380","ios":"levelo://app?vid=666ffc11-09a1-4aa3-a091-0b6fa3af6380"},"vehicle_type_id":"4","last_reported":1733951309,"current_range_meters":19600,"station_id":"ce4bhnh2rcd13ifvqgtg","pricing_plan_id":"cebpf4jnsgd1na2vs0mg"},{"bike_id":"601be6a3-7bfd-494d-b348-f04fef169fde","system_id":"levelo_inurba_marseille","lat":43.29024,"lon":5.3865,"is_reserved":false,"is_disabled":false,"rental_uris":{"android":"levelo://app?vid=601be6a3-7bfd-494d-b348-f04fef169fde","ios":"levelo://app?vid=601be6a3-7bfd-494d-b348-f04fef169fde"},"vehicle_type_id":"4","last_reported":1733951309,"current_range_meters":32400,"station_id":"ce4bh4p2rcd13ifvqe0g","pricing_plan_id":"cebpf4jnsgd1na2vs0mg"},{"bike_id":"5ac272c3-4ee8-49c9-8d91-b330be82bc5f","system_id":"levelo_inurba_marseille","lat":43.28695,"lon":5.37402,"is_reserved":false,"is_disabled":false,"rental_uris":{"android":"levelo://app?vid=5ac272c3-4ee8-49c9-8d91-b330be82bc5f","ios":"levelo://app?vid=5ac272c3-4ee8-49c9-8d91-b330be82bc5f"},"vehicle_type_id":"4","last_reported":1733951309,"current_range_meters":30800,"station_id":"ce4bh3p2rcd13ifvqdq0","pricing_plan_id":"cebpf4jnsgd1na2vs0mg"},{"bike_id":"19c60c8b-c2ae-4e8e-bde8-11503928fd48","system_id":"levelo_inurba_marseille","lat":43.24392,"lon":5.37051,"is_reserved":false,"is_disabled":false,"rental_uris":{"android":"levelo://app?vid=19c60c8b-c2ae-4e8e-bde8-11503928fd48","ios":"levelo://app?vid=19c60c8b-c2ae-4e8e-bde8-11503928fd48"},"vehicle_type_id":"4","last_reported":1733951309,"current_range_meters":38800,"station_id":"ce4bhhh2rcd13ifvqfk0","pricing_plan_id":"cebpf4jnsgd1na2vs0mg"},{"bike_id":"61df4582-7c9f-489e-b7da-d6a0cfdcd7c7","system_id":"levelo_inurba_marseille","lat":43.2866,"lon":5.36356,"is_reserved":false,"is_disabled":true,"rental_uris":{"android":"levelo://app?vid=61df4582-7c9f-489e-b7da-d6a0cfdcd7c7","ios":"levelo://app?vid=61df4582-7c9f-489e-b7da-d6a0cfdcd7c7"},"vehicle_type_id":"4","last_reported":1733951309,"current_range_meters":0,"station_id":"ce4bhah2rcd13ifvqej0","pricing_plan_id":"cebpf4jnsgd1na2vs0mg"},{"bike_id":"c235fe65-5699-4b1b-ae79-8b6529e0e0c6","system_id":"levelo_inurba_marseille","lat":43.25714,"lon":5.41124,"is_reserved":false,"is_disabled":false,"rental_uris":{"android":"levelo://app?vid=c235fe65-5699-4b1b-ae79-8b6529e0e0c6","ios":"levelo://app?vid=c235fe65-5699-4b1b-ae79-8b6529e0e0c6"},"vehicle_type_id":"4","last_reported":1733951309,"current_range_meters":39200,"station_id":"ce4bhkp2rcd13ifvqgd0","pricing_plan_id":"cebpf4jnsgd1na2vs0mg"},{"bike_id":"e8412108-842b-4522-b8c9-76f6a7add12d","system_id":"levelo_inurba_marseille","lat":43.25829,"lon":5.39441,"is_reserved":false,"is_disabled":false,"rental_uris":{"android":"levelo://app?vid=e8412108-842b-4522-b8c9-76f6a7add12d","ios":"levelo://app?vid=e8412108-842b-4522-b8c9-76f6a7add12d"},"vehicle_type_id":"4","last_reported":1733951309,"current_range_meters":13600,"station_id":"ce4bhip2rcd13ifvqft0","pricing_plan_id":"cebpf4jnsgd1na2vs0mg"},{"bike_id":"02fefbfe-2280-4030-91ba-3e7b2cc2d426","system_id":"levelo_inurba_marseille","lat":43.28453,"lon":5.35885,"is_reserved":false,"is_disabled":false,"rental_uris":{"android":"levelo://app?vid=02fefbfe-2280-4030-91ba-3e7b2cc2d426","ios":"levelo://app?vid=02fefbfe-2280-4030-91ba-3e7b2cc2d426"},"vehicle_type_id":"4","last_reported":1733951309,"current_range_meters":8400,"station_id":"ce4bhah2rcd13ifvqei0","pricing_plan_id":"cebpf4jnsgd1na2vs0mg"},{"bike_id":"ca3bf6a0-806c-4046-b219-bbea4c2ba646","system_id":"levelo_inurba_marseille","lat":43.23194,"lon":5.35547,"is_reserved":false,"is_disabled":false,"rental_uris":{"android":"levelo://app?vid=ca3bf6a0-806c-4046-b219-bbea4c2ba646","ios":"levelo://app?vid=ca3bf6a0-806c-4046-b219-bbea4c2ba646"},"vehicle_type_id":"4","last_reported":1733951309,"current_range_meters":39200,"station_id":"ce4bhu92rcd13ifvqi70","pricing_plan_id":"cebpf4jnsgd1na2vs0mg"},{"bike_id":"0313e597-350b-4402-bd10-22e8442a9595","system_id":"levelo_inurba_marseille","lat":43.28078,"lon":5.39661,"is_reserved":false,"is_disabled":false,"rental_uris":{"android":"levelo://app?vid=0313e597-350b-4402-bd10-22e8442a9595","ios":"levelo://app?vid=0313e597-350b-4402-bd10-22e8442a9595"},"vehicle_type_id":"4","last_reported":1733951309,"current_range_meters":8800,"station_id":"ce4bho12rcd13ifvqh2g","pricing_plan_id":"cebpf4jnsgd1na2vs0mg"},{"bike_id":"258db6e7-49a1-416d-a5ae-bdc13ef04788","system_id":"levelo_inurba_marseille","lat":43.29195,"lon":5.3581,"is_reserved":false,"is_disabled":false,"rental_uris":{"android":"levelo://app?vid=258db6e7-49a1-416d-a5ae-bdc13ef04788","ios":"levelo://app?vid=258db6e7-49a1-416d-a5ae-bdc13ef04788"},"vehicle_type_id":"4","last_reported":1733951309,"current_range_meters":20800,"station_id":"ce4bhb12rcd13ifvqel0","pricing_plan_id":"cebpf4jnsgd1na2vs0mg"},{"bike_id":"46b2fdec-0870-4ae2-84dc-b1f57512351e","system_id":"levelo_inurba_marseille","lat":43.337444,"lon":5.374475,"is_reserved":false,"is_disabled":true,"rental_uris":{"android":"levelo://app?vid=46b2fdec-0870-4ae2-84dc-b1f57512351e","ios":"levelo://app?vid=46b2fdec-0870-4ae2-84dc-b1f57512351e"},"vehicle_type_id":"4","last_reported":1733951309,"current_range_meters":0,"station_id":"","pricing_plan_id":"cebpf4jnsgd1na2vs0mg"},{"bike_id":"779aff15-11ba-463d-8391-fb934e57cdae","system_id":"levelo_inurba_marseille","lat":43.31074,"lon":5.38357,"is_reserved":false,"is_disabled":false,"rental_uris":{"android":"levelo://app?vid=779aff15-11ba-463d-8391-fb934e57cdae","ios":"levelo://app?vid=779aff15-11ba-463d-8391-fb934e57cdae"},"vehicle_type_id":"4","last_reported":1733951309,"current_range_meters":18800,"station_id":"ce4bgv92rcd13ifvqcr0","pricing_plan_id":"cebpf4jnsgd1na2vs0mg"},{"bike_id":"aee8806e-ffbc-4230-9d3c-9c691460a867","system_id":"levelo_inurba_marseille","lat":43.26683,"lon":5.38271,"is_reserved":false,"is_disabled":false,"rental_uris":{"android":"levelo://app?vid=aee8806e-ffbc-4230-9d3c-9c691460a867","ios":"levelo://app?vid=aee8806e-ffbc-4230-9d3c-9c691460a867"},"vehicle_type_id":"4","last_reported":1733951309,"current_range_meters":36800,"station_id":"ce4bhg92rcd13ifvqf90","pricing_plan_id":"cebpf4jnsgd1na2vs0mg"},{"bike_id":"7842c3a8-b040-413d-838c-93a301a5b9f2","system_id":"levelo_inurba_marseille","lat":43.30141,"lon":5.39881,"is_reserved":false,"is_disabled":true,"rental_uris":{"android":"levelo://app?vid=7842c3a8-b040-413d-838c-93a301a5b9f2","ios":"levelo://app?vid=7842c3a8-b040-413d-838c-93a301a5b9f2"},"vehicle_type_id":"4","last_reported":1733951309,"current_range_meters":0,"station_id":"ce4bh0h2rcd13ifvqd40","pricing_plan_id":"cebpf4jnsgd1na2vs0mg"},{"bike_id":"ba0ac5ec-2eb3-4fd9-8534-278c3612b8fc","system_id":"levelo_inurba_marseille","lat":43.24806,"lon":5.37455,"is_reserved":false,"is_disabled":false,"rental_uris":{"android":"levelo://app?vid=ba0ac5ec-2eb3-4fd9-8534-278c3612b8fc","ios":"levelo://app?vid=ba0ac5ec-2eb3-4fd9-8534-278c3612b8fc"},"vehicle_type_id":"4","last_reported":1733951309,"current_range_meters":23200,"station_id":"ce4bhgh2rcd13ifvqfb0","pricing_plan_id":"cebpf4jnsgd1na2vs0mg"},{"bike_id":"7c933dc8-d47e-443d-bc7a-a66e3f85a816","system_id":"levelo_inurba_marseille","lat":43.271819,"lon":5.409945,"is_reserved":false,"is_disabled":false,"rental_uris":{"android":"levelo://app?vid=7c933dc8-d47e-443d-bc7a-a66e3f85a816","ios":"levelo://app?vid=7c933dc8-d47e-443d-bc7a-a66e3f85a816"},