{"last_updated":1731013663,"ttl":60,"version":"2.2","data":{"bikes":[{"bike_id":"00048a72-5d2d-44ae-a2d5-16f2da0de039","system_id":"levelo_inurba_marseille","lat":43.29416,"lon":5.3862,"is_reserved":false,"is_disabled":false,"rental_uris":{"android":"levelo://app?vid=00048a72-5d2d-44ae-a2d5-16f2da0de039","ios":"levelo://app?vid=00048a72-5d2d-44ae-a2d5-16f2da0de039"},"vehicle_type_id":"4","last_reported":1731013663,"current_range_meters":32000,"station_id":"ce4bh2h2rcd13ifvqdh0","pricing_plan_id":"cebpf4jnsgd1na2vs0mg"},{"bike_id":"a35bc0f5-e1de-4780-9c30-3d5f9603529a","system_id":"levelo_inurba_marseille","lat":43.23963,"lon":5.36626,"is_reserved":false,"is_disabled":false,"rental_uris":{"android":"levelo://app?vid=a35bc0f5-e1de-4780-9c30-3d5f9603529a","ios":"levelo://app?vid=a35bc0f5-e1de-4780-9c30-3d5f9603529a"},"vehicle_type_id":"4","last_reported":1731013663,"current_range_meters":39200,"station_id":"ce4bhi12rcd13ifvqfp0","pricing_plan_id":"cebpf4jnsgd1na2vs0mg"},{"bike_id":"1731574c-8698-47d2-ade4-b51e89c300c7","system_id":"levelo_inurba_marseille","lat":43.29197,"lon":5.35807,"is_reserved":false,"is_disabled":false,"rental_uris":{"android":"levelo://app?vid=1731574c-8698-47d2-ade4-b51e89c300c7","ios":"levelo://app?vid=1731574c-8698-47d2-ade4-b51e89c300c7"},"vehicle_type_id":"4","last_reported":1731013663,"current_range_meters":22000,"station_id":"ce4bhb12rcd13ifvqel0","pricing_plan_id":"cebpf4jnsgd1na2vs0mg"},{"bike_id":"7fd115e1-6635-4759-b24b-0ed36d47da10","system_id":"levelo_inurba_marseille","lat":43.28462,"lon":5.35884,"is_reserved":false,"is_disabled":false,"rental_uris":{"android":"levelo://app?vid=7fd115e1-6635-4759-b24b-0ed36d47da10","ios":"levelo://app?vid=7fd115e1-6635-4759-b24b-0ed36d47da10"},"vehicle_type_id":"4","last_reported":1731013663,"current_range_meters":36400,"station_id":"ce4bhah2rcd13ifvqei0","pricing_plan_id":"cebpf4jnsgd1na2vs0mg"},{"bike_id":"55cb1b5c-d167-4240-a3b1-5feec9b1b11f","system_id":"levelo_inurba_marseille","lat":43.30951,"lon":5.38991,"is_reserved":false,"is_disabled":false,"rental_uris":{"android":"levelo://app?vid=55cb1b5c-d167-4240-a3b1-5feec9b1b11f","ios":"levelo://app?vid=55cb1b5c-d167-4240-a3b1-5feec9b1b11f"},"vehicle_type_id":"4","last_reported":1731013663,"current_range_meters":35600,"station_id":"ce4bgup2rcd13ifvqco0","pricing_plan_id":"cebpf4jnsgd1na2vs0mg"},{"bike_id":"7f774ae5-6cb7-4c53-91e0-4e9519e7a5f3","system_id":"levelo_inurba_marseille","lat":43.31719,"lon":5.42396,"is_reserved":false,"is_disabled":false,"rental_uris":{"android":"levelo://app?vid=7f774ae5-6cb7-4c53-91e0-4e9519e7a5f3","ios":"levelo://app?vid=7f774ae5-6cb7-4c53-91e0-4e9519e7a5f3"},"vehicle_type_id":"4","last_reported":1731013663,"current_range_meters":34000,"station_id":"ce4bhp92rcd13ifvqhbg","pricing_plan_id":"cebpf4jnsgd1na2vs0mg"},{"bike_id":"d4947291-c9b6-4852-93dd-ff304d3405ed","system_id":"levelo_inurba_marseille","lat":43.28976,"lon":5.37836,"is_reserved":false,"is_disabled":false,"rental_uris":{"android":"levelo://app?vid=d4947291-c9b6-4852-93dd-ff304d3405ed","ios":"levelo://app?vid=d4947291-c9b6-4852-93dd-ff304d3405ed"},"vehicle_type_id":"4","last_reported":1731013663,"current_range_meters":38800,"station_id":"ce4bh9p2rcd13ifvqed0","pricing_plan_id":"cebpf4jnsgd1na2vs0mg"},{"bike_id":"5648f010-86c7-4ae4-bbb3-fc2fa2c2ca2d","system_id":"levelo_inurba_marseille","lat":43.30207,"lon":5.39467,"is_reserved":false,"is_disabled":false,"rental_uris":{"android":"levelo://app?vid=5648f010-86c7-4ae4-bbb3-fc2fa2c2ca2d","ios":"levelo://app?vid=5648f010-86c7-4ae4-bbb3-fc2fa2c2ca2d"},"vehicle_type_id":"4","last_reported":1731013663,"current_range_meters":39200,"station_id":"ce4bh0p2rcd13ifvqd70","pricing_plan_id":"cebpf4jnsgd1na2vs0mg"},{"bike_id":"4e2bf624-3094-4a12-982c-9efedbfe7b6e","system_id":"levelo_inurba_marseille","lat":43.31163,"lon":5.38715,"is_reserved":false,"is_disabled":false,"rental_uris":{"android":"levelo://app?vid=4e2bf624-3094-4a12-982c-9efedbfe7b6e","ios":"levelo://app?vid=4e2bf624-3094-4a12-982c-9efedbfe7b6e"},"vehicle_type_id":"4","last_reported":1731013663,"current_range_meters":12400,"station_id":"ce4bgv12rcd13ifvqcp0","pricing_plan_id":"cebpf4jnsgd1na2vs0mg"},{"bike_id":"23e65921-100e-4ead-8eb4-cf14e6ed6f70","system_id":"levelo_inurba_marseille","lat":43.31114,"lon":5.37755,"is_reserved":false,"is_disabled":false,"rental_uris":{"android":"levelo://app?vid=23e65921-100e-4ead-8eb4-cf14e6ed6f70","ios":"levelo://app?vid=23e65921-100e-4ead-8eb4-cf14e6ed6f70"},"vehicle_type_id":"4","last_reported":1731013663,"current_range_meters":29600,"station_id":"ce4bgt92rcd13ifvqcg0","pricing_plan_id":"cebpf4jnsgd1na2vs0mg"},{"bike_id":"40dd4257-d6e7-454b-ba60-8d003c5e1cfc","system_id":"levelo_inurba_marseille","lat":43.30879,"lon":5.3964,"is_reserved":false,"is_disabled":false,"rental_uris":{"android":"levelo://app?vid=40dd4257-d6e7-454b-ba60-8d003c5e1cfc","ios":"levelo://app?vid=40dd4257-d6e7-454b-ba60-8d003c5e1cfc"},"vehicle_type_id":"4","last_reported":1731013663,"current_range_meters":22000,"station_id":"ce4bh012rcd13ifvqcv0","pricing_plan_id":"cebpf4jnsgd1na2vs0mg"},{"bike_id":"3558dfa7-0f15-4ac0-9dca-43de45c82b18","system_id":"levelo_inurba_marseille","lat":43.28265,"lon":5.3506,"is_reserved":false,"is_disabled":false,"rental_uris":{"android":"levelo://app?vid=3558dfa7-0f15-4ac0-9dca-43de45c82b18","ios":"levelo://app?vid=3558dfa7-0f15-4ac0-9dca-43de45c82b18"},"vehicle_type_id":"4","last_reported":1731013663,"current_range_meters":16400,"station_id":"ce4bhbp2rcd13ifvqerg","pricing_plan_id":"cebpf4jnsgd1na2vs0mg"},{"bike_id":"9cfbbf35-57e6-44b8-bdb5-b4feb1f5b4ce","system_id":"levelo_inurba_marseille","lat":43.3302,"lon":5.3904,"is_reserved":false,"is_disabled":false,"rental_uris":{"android":"levelo://app?vid=9cfbbf35-57e6-44b8-bdb5-b4feb1f5b4ce","ios":"levelo://app?vid=9cfbbf35-57e6-44b8-bdb5-b4feb1f5b4ce"},"vehicle_type_id":"4","last_reported":1731013663,"current_range_meters":6000,"station_id":"ce4bhr92rcd13ifvqhrg","pricing_plan_id":"cebpf4jnsgd1na2vs0mg"},{"bike_id":"3ab58a9b-5648-4df9-a708-4584b19e4f27","system_id":"levelo_inurba_marseille","lat":43.30299,"lon":5.3921,"is_reserved":false,"is_disabled":false,"rental_uris":{"android":"levelo://app?vid=3ab58a9b-5648-4df9-a708-4584b19e4f27","ios":"levelo://app?vid=3ab58a9b-5648-4df9-a708-4584b19e4f27"},"vehicle_type_id":"4","last_reported":1731013663,"current_range_meters":39200,"station_id":"ce4bgkh2rcd13ifvqbk0","pricing_plan_id":"cebpf4jnsgd1na2vs0mg"},{"bike_id":"73d83c23-c667-4be8-ae0e-3b8c78cb9bc6","system_id":"levelo_inurba_marseille","lat":43.27831,"lon":5.39206,"is_reserved":false,"is_disabled":false,"rental_uris":{"android":"levelo://app?vid=73d83c23-c667-4be8-ae0e-3b8c78cb9bc6","ios":"levelo://app?vid=73d83c23-c667-4be8-ae0e-3b8c78cb9bc6"},"vehicle_type_id":"4","last_reported":1731013663,"current_range_meters":8000,"station_id":"ce4bhjp2rcd13ifvqga0","pricing_plan_id":"cebpf4jnsgd1na2vs0mg"},{"bike_id":"ba404d58-2711-4d7d-9e8a-cbdf57a44815","system_id":"levelo_inurba_marseille","lat":43.29003,"lon":5.35611,"is_reserved":false,"is_disabled":false,"rental_uris":{"android":"levelo://app?vid=ba404d58-2711-4d7d-9e8a-cbdf57a44815","ios":"levelo://app?vid=ba404d58-2711-4d7d-9e8a-cbdf57a44815"},"vehicle_type_id":"4","last_reported":1731013663,"current_range_meters":38400,"station_id":"ce4bhb92rcd13ifvqen0","pricing_plan_id":"cebpf4jnsgd1na2vs0mg"},{"bike_id":"46b542d9-5320-440c-9b7f-612fb146a6a5","system_id":"levelo_inurba_marseille","lat":43.31161,"lon":5.38716,"is_reserved":false,"is_disabled":false,"rental_uris":{"android":"levelo://app?vid=46b542d9-5320-440c-9b7f-612fb146a6a5","ios":"levelo://app?vid=46b542d9-5320-440c-9b7f-612fb146a6a5"},"vehicle_type_id":"4","last_reported":1731013663,"current_range_meters":6800,"station_id":"ce4bgv12rcd13ifvqcp0","pricing_plan_id":"cebpf4jnsgd1na2vs0mg"},{"bike_id":"c929586b-2c81-4dc1-ab6b-0154037f2a45","system_id":"levelo_inurba_marseille","lat":43.29188,"lon":5.3931,"is_reserved":false,"is_disabled":false,"rental_uris":{"android":"levelo://app?vid=c929586b-2c81-4dc1-ab6b-0154037f2a45","ios":"levelo://app?vid=c929586b-2c81-4dc1-ab6b-0154037f2a45"},"vehicle_type_id":"4","last_reported":1731013663,"current_range_meters":38800,"station_id":"ce4bh192rcd13ifvqdd0","pricing_plan_id":"cebpf4jnsgd1na2vs0mg"},{"bike_id":"bcf5dad1-721a-4f4e-82b2-15a9cc44926f","system_id":"levelo_inurba_marseille","lat":43.33776,"lon":5.37438,"is_reserved":false,"is_disabled":false,"rental_uris":{"android":"levelo://app?vid=bcf5dad1-721a-4f4e-82b2-15a9cc44926f","ios":"levelo://app?vid=bcf5dad1-721a-4f4e-82b2-15a9cc44926f"},"vehicle_type_id":"4","last_reported":1731013663,"current_range_meters":34000,"station_id":"","pricing_plan_id":"cebpf4jnsgd1na2vs0mg"},{"bike_id":"00cbf6d0-0b9c-4198-9ba9-38e2e5f72e1d","system_id":"levelo_inurba_marseille","lat":43.28081,"lon":5.39661,"is_reserved":false,"is_disabled":false,"rental_uris":{"android":"levelo://app?vid=00cbf6d0-0b9c-4198-9ba9-38e2e5f72e1d","ios":"levelo://app?vid=00cbf6d0-0b9c-4198-9ba9-38e2e5f72e1d"},"vehicle_type_id":"4","last_reported":1731013663,"current_range_meters":40000,"station_id":"ce4bho12rcd13ifvqh2g","pricing_plan_id":"cebpf4jnsgd1na2vs0mg"},{"bike_id":"81dce56b-40e9-4e10-bb78-70218a423fa0","system_id":"levelo_inurba_marseille","lat":43.28353,"lon":5.38097,"is_reserved":false,"is_disabled":false,"rental_uris":{"android":"levelo://app?vid=81dce56b-40e9-4e10-bb78-70218a423fa0","ios":"levelo://app?vid=81dce56b-40e9-4e10-bb78-70218a423fa0"},"vehicle_type_id":"4","last_reported":1731013663,"current_range_meters":22800,"station_id":"ce4bh412rcd13ifvqdr0","pricing_plan_id":"cebpf4jnsgd1na2vs0mg"},{"bike_id":"4ffd7f0a-b868-4731-b904-af0385132753","system_id":"levelo_inurba_marseille","lat":43.26554,"lon":5.37284,"is_reserved":false,"is_disabled":false,"rental_uris":{"android":"levelo://app?vid=4ffd7f0a-b868-4731-b904-af0385132753","ios":"levelo://app?vid=4ffd7f0a-b868-4731-b904-af0385132753"},"vehicle_type_id":"4","last_reported":1731013663,"current_range_meters":8000,"station_id":"ce4bhg12rcd13ifvqf70","pricing_plan_id":"cebpf4jnsgd1na2vs0mg"},{"bike_id":"6622a163-3b9f-4330-86ce-54423cf94cdf","system_id":"levelo_inurba_marseille","lat":43.28098,"lon":5.37828,"is_reserved":false,"is_disabled":false,"rental_uris":{"android":"levelo://app?vid=6622a163-3b9f-4330-86ce-54423cf94cdf","ios":"levelo://app?vid=6622a163-3b9f-4330-86ce-54423cf94cdf"},"vehicle_type_id":"4","last_reported":1731013663,"current_range_meters":27200,"station_id":"ce4bha12rcd13ifvqee0","pricing_plan_id":"cebpf4jnsgd1na2vs0mg"},{"bike_id":"4f4cb251-4386-488a-80a0-885bf6e81c6d","system_id":"levelo_inurba_marseille","lat":43.27915,"lon":5.380094,"is_reserved":false,"is_disabled":false,"rental_uris":{"android":"levelo://app?vid=4f4cb251-4386-488a-80a0-885bf6e81c6d","ios":"levelo://app?vid=4f4cb251-4386-488a-80a0-885bf6e81c6d"},"vehicle_type_id":"4","last_reported":1731013663,"current_range_meters":38800,"station_id":"ce4bhf92rcd13ifvqf50","pricing_plan_id":"cebpf4jnsgd1na2vs0mg"},{"bike_id":"f00b8b7a-20f1-40a7-8dce-634caae61508","system_id":"levelo_inurba_marseille","lat":43.30342,"lon":5.41866,"is_reserved":false,"is_disabled":false,"rental_uris":{"android":"levelo://app?vid=f00b8b7a-20f1-40a7-8dce-634caae61508","ios":"levelo://app?vid=f00b8b7a-20f1-40a7-8dce-634caae61508"},"vehicle_type_id":"4","last_reported":1731013663,"current_range_meters":27600,"station_id":"ce4bhop2rcd13ifvqh7g","pricing_plan_id":"cebpf4jnsgd1na2vs0mg"},{"bike_id":"b74473f5-57f9-4ea1-874e-21d18f9be1c2","system_id":"levelo_inurba_marseille","lat":43.29191,"lon":5.39321,"is_reserved":false,"is_disabled":false,"rental_uris":{"android":"levelo://app?vid=b74473f5-57f9-4ea1-874e-21d18f9be1c2","ios":"levelo://app?vid=b74473f5-57f9-4ea1-874e-21d18f9be1c2"},"vehicle_type_id":"4","last_reported":1731013663,"current_range_meters":25600,"station_id":"ce4bh192rcd13ifvqdd0","pricing_plan_id":"cebpf4jnsgd1na2vs0mg"},{"bike_id":"123f6207-e5f7-4a86-815d-3aa76283c5cb","system_id":"levelo_inurba_marseille","lat":43.28016,"lon":5.44227,"is_reserved":false,"is_disabled":false,"rental_uris":{"android":"levelo://app?vid=123f6207-e5f7-4a86-815d-3aa76283c5cb","ios":"levelo://app?vid=123f6207-e5f7-4a86-815d-3aa76283c5cb"},"vehicle_type_id":"4","last_reported":1731013663,"current_range_meters":11200,"station_id":"","pricing_plan_id":"cebpf4jnsgd1na2vs0mg"},{"bike_id":"e6e17729-cfe6-425c-920e-5c3e9a8c2687","system_id":"levelo_inurba_marseille","lat":43.27997,"lon":5.4001,"is_reserved":false,"is_disabled":false,"rental_uris":{"android":"levelo://app?vid=e6e17729-cfe6-425c-920e-5c3e9a8c2687","ios":"levelo://app?vid=e6e17729-cfe6-425c-920e-5c3e9a8c2687"},"vehicle_type_id":"4","last_reported":1731013663,"current_range_meters":6000,"station_id":"ce4bho92rcd13ifvqh4g","pricing_plan_id":"cebpf4jnsgd1na2vs0mg"},{"bike_id":"432bbf64-b771-45b8-b6b3-670087835b0e","system_id":"levelo_inurba_marseille","lat":43.28926,"lon":5.36632,"is_reserved":false,"is_disabled":false,"rental_uris":{"android":"levelo://app?vid=432bbf64-b771-45b8-b6b3-670087835b0e","ios":"levelo://app?vid=432bbf64-b771-45b8-b6b3-670087835b0e"},"vehicle_type_id":"4","last_reported":1731013663,"current_range_meters":1600,"station_id":"","pricing_plan_id":"cebpf4jnsgd1na2vs0mg"},{"bike_id":"4654c5d8-752f-4f4b-bf52-6ada77a502e7","system_id":"levelo_inurba_marseille","lat":43.24548,"lon":5.39517,"is_reserved":false,"is_disabled":false,"rental_uris":{"android":"levelo://app?vid=4654c5d8-752f-4f4b-bf52-6ada77a502e7","ios":"levelo://app?vid=4654c5d8-752f-4f4b-bf52-6ada77a502e7"},"vehicle_type_id":"4","last_reported":1731013663,"current_range_meters":27600,"station_id":"ce4bhlp2rcd13ifvqgjg","pricing_plan_id":"cebpf4jnsgd1na2vs0mg"},{"bike_id":"2249b50d-7f02-4a87-b5cd-9ab1aa9b8244","system_id":"levelo_inurba_marseille","lat":43.304906,"lon":5.393251,"is_reserved":false,"is_disabled":false,"rental_uris":{"android":"levelo://app?vid=2249b50d-7f02-4a87-b5cd-9ab1aa9b8244","ios":"levelo://app?vid=2249b50d-7f02-4a87-b5cd-9ab1aa9b8244"},"vehicle_type_id":"4","last_reported":1731013663,"current_range_meters":38400,"station_id":"ce4bh3h2rcd13ifvqdo0","pricing_plan_id":"cebpf4jnsgd1na2vs0mg"},{"bike_id":"ff3d86de-5c8f-44df-8c76-d883f8fa9ba1","system_id":"levelo_inurba_marseille","lat":43.23179,"lon":5.39988,"is_reserved":false,"is_disabled":false,"rental_uris":{"android":"levelo://app?vid=ff3d86de-5c8f-44df-8c76-d883f8fa9ba1","ios":"levelo://app?vid=ff3d86de-5c8f-44df-8c76-d883f8fa9ba1"},"vehicle_type_id":"4","last_reported":1731013663,"current_range_meters":19600,"station_id":"ce4bhn12rcd13ifvqgqg","pricing_plan_id":"cebpf4jnsgd1na2vs0mg"},{"bike_id":"3232343b-b00a-47b1-9de8-95cc6580cbfa","system_id":"levelo_inurba_marseille","lat":43.2293,"lon":5.35376,"is_reserved":false,"is_disabled":false,"rental_uris":{"android":"levelo://app?vid=3232343b-b00a-47b1-9de8-95cc6580cbfa","ios":"levelo://app?vid=3232343b-b00a-47b1-9de8-95cc6580cbfa"},"vehicle_type_id":"4","last_reported":1731013663,"current_range_meters":29600,"station_id":"cpo3532slgdg3j2ikp40","pricing_plan_id":"cebpf4jnsgd1na2vs0mg"},{"bike_id":"a2833841-ad6d-4483-8085-f24a1a72f45c","system_id":"levelo_inurba_marseille","lat":43.28042,"lon":5.42042,"is_reserved":false,"is_disabled":false,"rental_uris":{"android":"levelo://app?vid=a2833841-ad6d-4483-8085-f24a1a72f45c","ios":"levelo://app?vid=a2833841-ad6d-4483-8085-f24a1a72f45c"},"vehicle_type_id":"4","last_reported":1731013663,"current_range_meters":6400,"station_id":"ce4bhnh2rcd13ifvqgug","pricing_plan_id":"cebpf4jnsgd1na2vs0mg"},{"bike_id":"7f2ef3eb-fed6-46a6-9bea-a4328d6ca1d4","system_id":"levelo_inurba_marseille","lat":43.28667,"lon":5.38677,"is_reserved":false,"is_disabled":false,"rental_uris":{"android":"levelo://app?vid=7f2ef3eb-fed6-46a6-9bea-a4328d6ca1d4","ios":"levelo://app?vid=7f2ef3eb-fed6-46a6-9bea-a4328d6ca1d4"},"vehicle_type_id":"4","last_reported":1731013663,"current_range_meters":6800,"station_id":"ce4bh492rcd13ifvqdug","pricing_plan_id":"cebpf4jnsgd1na2vs0mg"},{"bike_id":"8838674c-71ef-4915-9d5e-517d54e399ba","system_id":"levelo_inurba_marseille","lat":43.31709,"lon":5.37778,"is_reserved":false,"is_disabled":false,"rental_uris":{"android":"levelo://app?vid=8838674c-71ef-4915-9d5e-517d54e399ba","ios":"levelo://app?vid=8838674c-71ef-4915-9d5e-517d54e399ba"},"vehicle_type_id":"4","last_reported":1731013663,"current_range_meters":10000,"station_id":"ce4bgth2rcd13ifvqch0","pricing_plan_id":"cebpf4jnsgd1na2vs0mg"},{"bike_id":"30c122d9-3c8b-4500-b013-ed517a07df34","system_id":"levelo_inurba_marseille","lat":43.27918,"lon":5.39584,"is_reserved":false,"is_disabled":false,"rental_uris":{"android":"levelo://app?vid=30c122d9-3c8b-4500-b013-ed517a07df34","ios":"levelo://app?vid=30c122d9-3c8b-4500-b013-ed517a07df34"},"vehicle_type_id":"4","last_reported":1731013663,"current_range_meters":29600,"station_id":"ce4bhf92rcd13ifvqf40","pricing_plan_id":"cebpf4jnsgd1na2vs0mg"},{"bike_id":"d46fc949-017c-4337-a007-b5f9f19a0bfa","system_id":"levelo_inurba_marseille","lat":43.337444,"lon":5.374475,"is_reserved":false,"is_disabled":false,"rental_uris":{"android":"levelo://app?vid=d46fc949-017c-4337-a007-b5f9f19a0bfa","ios":"levelo://app?vid=d46fc949-017c-4337-a007-b5f9f19a0bfa"},"vehicle_type_id":"4","last_reported":1731013663,"current_range_meters":33200,"station_id":"","pricing_plan_id":"cebpf4jnsgd1na2vs0mg"},{"bike_id":"54e2b98b-369a-433b-9ae9-c001e48cdf14","system_id":"levelo_inurba_marseille","lat":43.29259,"lon":5.38448,"is_reserved":false,"is_disabled":false,"rental_uris":{"android":"levelo://app?vid=54e2b98b-369a-433b-9ae9-c001e48cdf14","ios":"levelo://app?vid=54e2b98b-369a-433b-9ae9-c001e48cdf14"},"vehicle_type_id":"4","last_reported":1731013663,"current_range_meters":33200,"station_id":"ce4bhah2rcd13ifvqei0","pricing_plan_id":"cebpf4jnsgd1na2vs0mg"},{"bike_id":"b856fee3-5c8e-425e-8bbb-320e2cda8238","system_id":"levelo_inurba_marseille","lat":43.31325,"lon":5.39685,"is_reserved":false,"is_disabled":false,"rental_uris":{"android":"levelo://app?vid=b856fee3-5c8e-425e-8bbb-320e2cda8238","ios":"levelo://app?vid=b856fee3-5c8e-425e-8bbb-320e2cda8238"},"vehicle_type_id":"4","last_reported":1731013663,"current_range_meters":38800,"station_id":"ce4bgvp2rcd13ifvqcu0","pricing_plan_id":"cebpf4jnsgd1na2vs0mg"},{"bike_id":"055ee07f-9744-4502-8bb1-b6708cfbb0cd","system_id":"levelo_inurba_marseille","lat":43.2871,"lon":5.37932,"is_reserved":false,"is_disabled":false,"rental_uris":{"android":"levelo://app?vid=055ee07f-9744-4502-8bb1-b6708cfbb0cd","ios":"levelo://app?vid=055ee07f-9744-4502-8bb1-b6708cfbb0cd"},"vehicle_type_id":"4","last_reported":1731013663,"current_range_meters":8000,"station_id":"ce4bh9p2rcd13ifvqec0","pricing_plan_id":"cebpf4jnsgd1na2vs0mg"},{"bike_id":"972a825f-2ac8-4916-9b84-764cdccca6ef","system_id":"levelo_inurba_marseille","lat":43.295687,"lon":5.375161,"is_reserved":false,"is_disabled":false,"rental_uris":{"android":"levelo://app?vid=972a825f-2ac8-4916-9b84-764cdccca6ef","ios":"levelo://app?vid=972a825f-2ac8-4916-9b84-764cdccca6ef"},"vehicle_type_id":"4","last_reported":1731013663,"current_range_meters":25200,"station_id":"ce4bgh92rcd13ifvqb50","pricing_plan_id":"cebpf4jnsgd1na2vs0mg"},{"bike_id":"d22a5075-cb9d-43bb-84a0-2513ed243a9c","system_id":"levelo_inurba_marseille","lat":43.27803,"lon":5.40707,"is_reserved":false,"is_disabled":false,"rental_uris":{"android":"levelo://app?vid=d22a5075-cb9d-43bb-84a0-2513ed243a9c","ios":"levelo://app?vid=d22a5075-cb9d-43bb-84a0-2513ed243a9c"},"vehicle_type_id":"4","last_reported":1731013663,"current_range_meters":35200,"station_id":"ce4bhnh2rcd13ifvqgtg","pricing_plan_id":"cebpf4jnsgd1na2vs0mg"},{"bike_id":"8c3c94e4-9b16-480e-b141-ec41486459d1","system_id":"levelo_inurba_marseille","lat":43.29281,"lon":5.40115,"is_reserved":false,"is_disabled":false,"rental_uris":{"android":"levelo://app?vid=8c3c94e4-9b16-480e-b141-ec41486459d1","ios":"levelo://app?vid=8c3c94e4-9b16-480e-b141-ec41486459d1"},"vehicle_type_id":"4","last_reported":1731013663,"current_range_meters":8000,"station_id":"ce4bh312rcd13ifvqdk0","pricing_plan_id":"cebpf4jnsgd1na2vs0mg"},{"bike_id":"7feae80f-14fc-4d7f-8d58-76f4309c7e1f","system_id":"levelo_inurba_marseille","lat":43.29564,"lon":5.39958,"is_reserved":false,"is_disabled":false,"rental_uris":{"android":"levelo://app?vid=7feae80f-14fc-4d7f-8d58-76f4309c7e1f","ios":"levelo://app?vid=7feae80f-14fc-4d7f-8d58-76f4309c7e1f"},"vehicle_type_id":"4","last_reported":1731013663,"current_range_meters":38800,"station_id":"ce4bh312rcd13ifvqdj0","pricing_plan_id":"cebpf4jnsgd1na2vs0mg"},{"bike_id":"fb9a4917-24cd-45ae-967d-97aed9b41d4d","system_id":"levelo_inurba_marseille","lat":43.31986,"lon":5.38136,"is_reserved":false,"is_disabled":false,"rental_uris":{"android":"levelo://app?vid=fb9a4917-24cd-45ae-967d-97aed9b41d4d","ios":"levelo://app?vid=fb9a4917-24cd-45ae-967d-97aed9b41d4d"},"vehicle_type_id":"4","last_reported":1731013663,"current_range_meters":29600,"station_id":"ce4bhr12rcd13ifvqhpg","pricing_plan_id":"cebpf4jnsgd1na2vs0mg"},{"bike_id":"b8fdd341-0697-41ca-82c9-e4253415f4e6","system_id":"levelo_inurba_marseille","lat":43.2749,"lon":5.42465,"is_reserved":false,"is_disabled":false,"rental_uris":{"android":"levelo://app?vid=b8fdd341-0697-41ca-82c9-e4253415f4e6","ios":"levelo://app?vid=b8fdd341-0697-41ca-82c9-e4253415f4e6"},"vehicle_type_id":"4","last_reported":1731013663,"current_range_meters":38800,"station_id":"ce4bhn92rcd13ifvqgrg","pricing_plan_id":"cebpf4jnsgd1na2vs0mg"},{"bike_id":"9b96d1a7-1bb0-4837-8ce5-5f6325109a7b","system_id":"levelo_inurba_marseille","lat":43.2318,"lon":5.39987,"is_reserved":false,"is_disabled":false,"rental_uris":{"android":"levelo://app?vid=9b96d1a7-1bb0-4837-8ce5-5f6325109a7b","ios":"levelo://app?vid=9b96d1a7-1bb0-4837-8ce5-5f6325109a7b"},"vehicle_type_id":"4","last_reported":1731013663,"current_range_meters":9200,"station_id":"ce4bhn12rcd13ifvqgqg","pricing_plan_id":"cebpf4jnsgd1na2vs0mg"},{"bike_id":"7148e5a3-e345-4df8-9602-6c428d6f2779","system_id":"levelo_inurba_marseille","lat":43.2667,"lon":5.40289,"is_reserved":false,"is_disabled":false,"rental_uris":{"android":"levelo://app?vid=7148e5a3-e345-4df8-9602-6c428d6f2779","ios":"levelo://app?vid=7148e5a3-e345-4df8-9602-6c428d6f2779"},"vehicle_type_id":"4","last_reported":1731013663,"current_range_meters":14400,"station_id":"","pricing_plan_id":"cebpf4jnsgd1na2vs0mg"},{"bike_id":"5c32520f-a252-4a5e-9f27-6555093e843d","system_id":"levelo_inurba_marseille","lat":43.27863,"lon":5.38039,"is_reserved":false,"is_disabled":false,"rental_uris":{"android":"levelo://app?vid=5c32520f-a252-4a5e-9f27-6555093e843d","ios":"levelo://app?vid=5c32520f-a252-4a5e-9f27-6555093e843d"},"vehicle_type_id":"4","last_reported":1731013663,"current_range_meters":2000,"station_id":"","pricing_plan_id":"cebpf4jnsgd1na2vs0mg"},{"bike_id":"14a66910-2e94-4fbc-860a-5889a2a2ac9a","system_id":"levelo_inurba_marseille","lat":43.27176,"lon":5.40982,"is_reserved":false,"is_disabled":false,"rental_uris":{"android":"levelo://app?vid=14a66910-2e94-4fbc-860a-5889a2a2ac9a","ios":"levelo://app?vid=14a66910-2e94-4fbc-860a-5889a2a2ac9a"},"vehicle_type_id":"4","last_reported":1731013663,"current_range_meters":38800,"station_id":"ce4bhl12rcd13ifvqgf0","pricing_plan_id":"cebpf4jnsgd1na2vs0mg"},{"bike_id":"ffa6a709-cf7b-41fd-acb6-77573eab6973","system_id":"levelo_inurba_marseille","lat":43.32485,"lon":5.36551,"is_reserved":false,"is_disabled":false,"rental_uris":{"android":"levelo://app?vid=ffa6a709-cf7b-41fd-acb6-77573eab6973","ios":"levelo://app?vid=ffa6a709-cf7b-41fd-acb6-77573eab6973"},"vehicle_type_id":"4","last_reported":1731013663,"current_range_meters":18000,"station_id":"ce4bhs12rcd13ifvqhvg","pricing_plan_id":"cebpf4jnsgd1na2vs0mg"},{"bike_id":"626d816a-b880-408d-9a28-2a996c6d7a02","system_id":"levelo_inurba_marseille","lat":43.27379,"lon":5.36268,"is_reserved":false,"is_disabled":false,"rental_uris":{"android":"levelo://app?vid=626d816a-b880-408d-9a28-2a996c6d7a02","ios":"levelo://app?vid=626d816a-b880-408d-9a28-2a996c6d7a02"},"vehicle_type_id":"4","last_reported":1731013663,"current_range_meters":38800,"station_id":"ce4bhbh2rcd13ifvqeo0","pricing_plan_id":"cebpf4jnsgd1na2vs0mg"},{"bike_id":"bd89dc39-d623-4cde-8dd2-b741d1515fb2","system_id":"levelo_inurba_marseille","lat":43.23961,"lon":5.36629,"is_reserved":false,"is_disabled":false,"rental_uris":{"android":"levelo://app?vid=bd89dc39-d623-4cde-8dd2-b741d1515fb2","ios":"levelo://app?vid=bd89dc39-d623-4cde-8dd2-b741d1515fb2"},"vehicle_type_id":"4","last_reported":1731013663,"current_range_meters":17200,"station_id":"ce4bhi12rcd13ifvqfp0","pricing_plan_id":"cebpf4jnsgd1na2vs0mg"},{"bike_id":"a8be57c5-7aae-481b-9d75-71ce988d27a1","system_id":"levelo_inurba_marseille","lat":43.27806,"lon":5.40708,"is_reserved":false,"is_disabled":false,"rental_uris":{"android":"levelo://app?vid=a8be57c5-7aae-481b-9d75-71ce988d27a1","ios":"levelo://app?vid=a8be57c5-7aae-481b-9d75-71ce988d27a1"},"vehicle_type_id":"4","last_reported":1731013663,"current_range_meters":37600,"station_id":"ce4bhnh2rcd13ifvqgtg","pricing_plan_id":"cebpf4jnsgd1na2vs0mg"},{"bike_id":"dc1b2743-31f5-4beb-badc-27599fab1a00","system_id":"levelo_inurba_marseille","lat":43.31073,"lon":5.38341,"is_reserved":false,"is_disabled":false,"rental_uris":{"android":"levelo://app?vid=dc1b2743-31f5-4beb-badc-27599fab1a00","ios":"levelo://app?vid=dc1b2743-31f5-4beb-badc-27599fab1a00"},"vehicle_type_id":"4","last_reported":1731013663,"current_range_meters":27200,"station_id":"ce4bgv92rcd13ifvqcr0","pricing_plan_id":"cebpf4jnsgd1na2vs0mg"},{"bike_id":"42758877-c4e6-4f54-b67e-2527e84c4894","system_id":"levelo_inurba_marseille","lat":43.23182,"lon":5.39983,"is_reserved":false,"is_disabled":false,"rental_uris":{"android":"levelo://app?vid=42758877-c4e6-4f54-b67e-2527e84c4894","ios":"levelo://app?vid=42758877-c4e6-4f54-b67e-2527e84c4894"},"vehicle_type_id":"4","last_reported":1731013663,"current_range_meters":19600,"station_id":"ce4bhn12rcd13ifvqgqg","pricing_plan_id":"cebpf4jnsgd1na2vs0mg"},{"bike_id":"266a6614-712c-4a52-8d97-3bae2f2ceaa5","system_id":"levelo_inurba_marseille","lat":43.28437,"lon":5.39179,"is_reserved":false,"is_disabled":false,"rental_uris":{"android":"levelo://app?vid=266a6614-712c-4a52-8d97-3bae2f2ceaa5","ios":"levelo://app?vid=266a6614-712c-4a52-8d97-3bae2f2ceaa5"},"vehicle_type_id":"4","last_reported":1731013663,"current_range_meters":38800,"station_id":"ce4bhoh2rcd13ifvqh5g","pricing_plan_id":"cebpf4jnsgd1na2vs0mg"},{"bike_id":"ccf89f02-beda-4bcd-a2c3-04346b41d3f1","system_id":"levelo_inurba_marseille","lat":43.31225,"lon":5.36859,"is_reserved":false,"is_disabled":false,"rental_uris":{"android":"levelo://app?vid=ccf89f02-beda-4bcd-a2c3-04346b41d3f1","ios":"levelo://app?vid=ccf89f02-beda-4bcd-a2c3-04346b41d3f1"},"vehicle_type_id":"4","last_reported":1731013663,"current_range_meters":10000,"station_id":"ce4bgl92rcd13ifvqbq0","pricing_plan_id":"cebpf4jnsgd1na2vs0mg"},{"bike_id":"fdfd241a-c072-455a-b437-9c60e4545d9c","system_id":"levelo_inurba_marseille","lat":43.29097,"lon":5.38135,"is_reserved":false,"is_disabled":false,"rental_uris":{"android":"levelo://app?vid=fdfd241a-c072-455a-b437-9c60e4545d9c","ios":"levelo://app?vid=fdfd241a-c072-455a-b437-9c60e4545d9c"},"vehicle_type_id":"4","last_reported":1731013663,"current_range_meters":9200,"station_id":"ce4bh512rcd13ifvqe2g","pricing_plan_id":"cebpf4jnsgd1na2vs0mg"},{"bike_id":"07f6b6de-3584-42f4-b9e8-d2e68e38ed12","system_id":"levelo_inurba_marseille","lat":43.29193,"lon":5.39317,"is_reserved":false,"is_disabled":false,"rental_uris":{"android":"levelo://app?vid=07f6b6de-3584-42f4-b9e8-d2e68e38ed12","ios":"levelo://app?vid=07f6b6de-3584-42f4-b9e8-d2e68e38ed12"},"vehicle_type_id":"4","last_reported":1731013663,"current_range_meters":38800,"station_id":"ce4bh192rcd13ifvqdd0","pricing_plan_id":"cebpf4jnsgd1na2vs0mg"},{"bike_id":"a85f285b-8c19-4ed6-af81-44b5ac43acf9","system_id":"levelo_inurba_marseille","lat":43.31237,"lon":5.36876,"is_reserved":false,"is_disabled":false,"rental_uris":{"android":"levelo://app?vid=a85f285b-8c19-4ed6-af81-44b5ac43acf9","ios":"levelo://app?vid=a85f285b-8c19-4ed6-af81-44b5ac43acf9"},"vehicle_type_id":"4","last_reported":1731013663,"current_range_meters":32000,"station_id":"ce4bgl92rcd13ifvqbq0","pricing_plan_id":"cebpf4jnsgd1na2vs0mg"},{"bike_id":"96af24a7-9c6e-4e43-9718-e21c9845789c","system_id":"levelo_inurba_marseille","lat":43.28411,"lon":5.37507,"is_reserved":false,"is_disabled":false,"rental_uris":{"android":"levelo://app?vid=96af24a7-9c6e-4e43-9718-e21c9845789c","ios":"levelo://app?vid=96af24a7-9c6e-4e43-9718-e21c9845789c"},"vehicle_type_id":"4","last_reported":1731013663,"current_range_meters":38800,"station_id":"ce4bh412rcd13ifvqds0","pricing_plan_id":"cebpf4jnsgd1na2vs0mg"},{"bike_id":"d7f0dd70-cbef-4074-bf61-e8efe44f43f5","system_id":"levelo_inurba_marseille","lat":43.30352,"lon":5.41881,"is_reserved":false,"is_disabled":false,"rental_uris":{"android":"levelo://app?vid=d7f0dd70-cbef-4074-bf61-e8efe44f43f5","ios":"levelo://app?vid=d7f0dd70-cbef-4074-bf61-e8efe44f43f5"},"vehicle_type_id":"4","last_reported":1731013663,"current_range_meters":22400,"station_id":"ce4bhop2rcd13ifvqh7g","pricing_plan_id":"cebpf4jnsgd1na2vs0mg"},{"bike_id":"e921d78d-d0c9-4040-a6b5-1647df6be8ed","system_id":"levelo_inurba_marseille","lat":43.32366,"lon":5.38882,"is_reserved":false,"is_disabled":false,"rental_uris":{"android":"levelo://app?vid=e921d78d-d0c9-4040-a6b5-1647df6be8ed","ios":"levelo://app?vid=e921d78d-d0c9-4040-a6b5-1647df6be8ed"},"vehicle_type_id":"4","last_reported":1731013663,"current_range_meters":26000,"station_id":"ce4bhqp2rcd13ifvqhog","pricing_plan_id":"cebpf4jnsgd1na2vs0mg"},{"bike_id":"6ee84fef-bc76-4b47-88f3-3c4344293f4b","system_id":"levelo_inurba_marseille","lat":43.31334,"lon":5.39698,"is_reserved":false,"is_disabled":false,"rental_uris":{"android":"levelo://app?vid=6ee84fef-bc76-4b47-88f3-3c4344293f4b","ios":"levelo://app?vid=6ee84fef-bc76-4b47-88f3-3c4344293f4b"},"vehicle_type_id":"4","last_reported":1731013663,"current_range_meters":22000,"station_id":"ce4bgvp2rcd13ifvqcu0","pricing_plan_id":"cebpf4jnsgd1na2vs0mg"},{"bike_id":"c54d8938-bd66-4746-8397-6468d0e45158","system_id":"levelo_inurba_marseille","lat":43.30798,"lon":5.43521,"is_reserved":false,"is_disabled":false,"rental_uris":{"android":"levelo://app?vid=c54d8938-bd66-4746-8397-6468d0e45158","ios":"levelo://app?vid=c54d8938-bd66-4746-8397-6468d0e45158"},"vehicle_type_id":"4","last_reported":1731013663,"current_range_meters":38800,"station_id":"ce4bhph2rcd13ifvqheg","pricing_plan_id":"cebpf4jnsgd1na2vs0mg"},{"bike_id":"95ac8b55-d461-4c79-bf07-3deece0b5544","system_id":"levelo_inurba_marseille","lat":43.337444,"lon":5.374475,"is_reserved":false,"is_disabled":false,"rental_uris":{"android":"levelo://app?vid=95ac8b55-d461-4c79-bf07-3deece0b5544","ios":"levelo://app?vid=95ac8b55-d461-4c79-bf07-3deece0b5544"},"vehicle_type_id":"4","last_reported":1731013663,"current_range_meters":35600,"station_id":"","pricing_plan_id":"cebpf4jnsgd1na2vs0mg"},{"bike_id":"d9d86081-4757-4d76-b44e-b08bd2a8fbc6","system_id":"levelo_inurba_marseille","lat":43.28616,"lon":5.35101,"is_reserved":false,"is_disabled":false,"rental_uris":{"android":"levelo://app?vid=d9d86081-4757-4d76-b44e-b08bd2a8fbc6","ios":"levelo://app?vid=d9d86081-4757-4d76-b44e-b08bd2a8fbc6"},"vehicle_type_id":"4","last_reported":1731013663,"current_range_meters":38800,"station_id":"ce4bhch2rcd13ifvqeug","pricing_plan_id":"cebpf4jnsgd1na2vs0mg"},{"bike_id":"a988717f-43a5-4b62-9c05-0c27b63c2b26","system_id":"levelo_inurba_marseille","lat":43.31364,"lon":5.38493,"is_reserved":false,"is_disabled":false,"rental_uris":{"android":"levelo://app?vid=a988717f-43a5-4b62-9c05-0c27b63c2b26","ios":"levelo://app?vid=a988717f-43a5-4b62-9c05-0c27b63c2b26"},"vehicle_type_id":"4","last_reported":1731013663,"current_range_meters":19600,"station_id":"ce4bgt92rcd13ifvqcf0","pricing_plan_id":"cebpf4jnsgd1na2vs0mg"},{"bike_id":"9018ccae-0e59-46b6-a202-788f930b8dda","system_id":"levelo_inurba_marseille","lat":43.28925,"lon":5.38397,"is_reserved":false,"is_disabled":false,"rental_uris":{"android":"levelo://app?vid=9018ccae-0e59-46b6-a202-788f930b8dda","ios":"levelo://app?vid=9018ccae-0e59-46b6-a202-788f930b8dda"},"vehicle_type_id":"4","last_reported":1731013663,"current_range_meters":28000,"station_id":"ce4bh612rcd13ifvqe6g","pricing_plan_id":"cebpf4jnsgd1na2vs0mg"},{"bike_id":"2e20f2a1-b564-48ea-877a-8fba77b4c953","system_id":"levelo_inurba_marseille","lat":43.22935,"lon":5.35378,"is_reserved":false,"is_disabled":false,"rental_uris":{"android":"levelo://app?vid=2e20f2a1-b564-48ea-877a-8fba77b4c953","ios":"levelo://app?vid=2e20f2a1-b564-48ea-877a-8fba77b4c953"},"vehicle_type_id":"4","last_reported":1731013663,"current_range_meters":35200,"station_id":"cpo3532slgdg3j2ikp40","pricing_plan_id":"cebpf4jnsgd1na2vs0mg"},{"bike_id":"5dae8da9-34fd-43f0-886d-9017bc04ac44","system_id":"levelo_inurba_marseille","lat":43.28346,"lon":5.38095,"is_reserved":false,"is_disabled":false,"rental_uris":{"android":"levelo://app?vid=5dae8da9-34fd-43f0-886d-9017bc04ac44","ios":"levelo://app?vid=5dae8da9-34fd-43f0-886d-9017bc04ac44"},"vehicle_type_id":"4","last_reported":1731013663,"current_range_meters":30400,"station_id":"ce4bh412rcd13ifvqdr0","pricing_plan_id":"cebpf4jnsgd1na2vs0mg"},{"bike_id":"4911e318-f646-46d7-ad22-fa7d0be1d7e1","system_id":"levelo_inurba_marseille","lat":43.2979,"lon":5.40407,"is_reserved":false,"is_disabled":false,"rental_uris":{"android":"levelo://app?vid=4911e318-f646-46d7-ad22-fa7d0be1d7e1","ios":"levelo://app?vid=4911e318-f646-46d7-ad22-fa7d0be1d7e1"},"vehicle_type_id":"4","last_reported":1731013663,"current_range_meters":34800,"station_id":"ce4bh112rcd13ifvqd90","pricing_plan_id":"cebpf4jnsgd1na2vs0mg"},{"bike_id":"21cd2f46-7e50-4832-8919-1d871df023a1","system_id":"levelo_inurba_marseille","lat":43.28456,"lon":5.35882,"is_reserved":false,"is_disabled":false,"rental_uris":{"android":"levelo://app?vid=21cd2f46-7e50-4832-8919-1d871df023a1","ios":"levelo://app?vid=21cd2f46-7e50-4832-8919-1d871df023a1"},"vehicle_type_id":"4","last_reported":1731013663,"current_range_meters":38000,"station_id":"ce4bhah2rcd13ifvqei0","pricing_plan_id":"cebpf4jnsgd1na2vs0mg"},{"bike_id":"a5317aa5-9b24-4e08-b792-49a9aabb2f94","system_id":"levelo_inurba_marseille","lat":43.28425,"lon":5.39178,"is_reserved":false,"is_disabled":false,"rental_uris":{"android":"levelo://app?vid=a5317aa5-9b24-4e08-b792-49a9aabb2f94","ios":"levelo://app?vid=a5317aa5-9b24-4e08-b792-49a9aabb2f94"},"vehicle_type_id":"4","last_reported":1731013663,"current_range_meters":12000,"station_id":"ce4bhoh2rcd13ifvqh5g","pricing_plan_id":"cebpf4jnsgd1na2vs0mg"},{"bike_id":"f139c0b7-52a7-4153-bf41-ccb9fdb0faad","system_id":"levelo_inurba_marseille","lat":43.28722,"lon":5.36078,"is_reserved":false,"is_disabled":false,"rental_uris":{"android":"levelo://app?vid=f139c0b7-52a7-4153-bf41-ccb9fdb0faad","ios":"levelo://app?vid=f139c0b7-52a7-4153-bf41-ccb9fdb0faad"},"vehicle_type_id":"4","last_reported":1731013663,"current_range_meters":38800,"station_id":"cki0cbj6b192h4jlfktg","pricing_plan_id":"cebpf4jnsgd1na2vs0mg"},{"bike_id":"60561bf6-633d-4bfd-a6b3-0ae91722b73d","system_id":"levelo_inurba_marseille","lat":43.30133,"lon":5.38778,"is_reserved":false,"is_disabled":false,"rental_uris":{"android":"levelo://app?vid=60561bf6-633d-4bfd-a6b3-0ae91722b73d","ios":"levelo://app?vid=60561bf6-633d-4bfd-a6b3-0ae91722b73d"},"vehicle_type_id":"4","last_reported":1731013663,"current_range_meters":28400,"station_id":"ce4bghh2rcd13ifvqb60","pricing_plan_id":"cebpf4jnsgd1na2vs0mg"},{"bike_id":"6bc09035-4ae6-4ea3-8cab-2911c056632e","system_id":"levelo_inurba_marseille","lat":43.27069,"lon":5.42271,"is_reserved":false,"is_disabled":false,"rental_uris":{"android":"levelo://app?vid=6bc09035-4ae6-4ea3-8cab-2911c056632e","ios":"levelo://app?vid=6bc09035-4ae6-4ea3-8cab-2911c056632e"},"vehicle_type_id":"4","last_reported":1731013663,"current_range_meters":38800,"station_id":"ce4bhk92rcd13ifvqgb0","pricing_plan_id":"cebpf4jnsgd1na2vs0mg"},{"bike_id":"3d65a636-faeb-4cdc-870e-c146404fe702","system_id":"levelo_inurba_marseille","lat":43.27373,"lon":5.36264,"is_reserved":false,"is_disabled":false,"rental_uris":{"android":"levelo://app?vid=3d65a636-faeb-4cdc-870e-c146404fe702","ios":"levelo://app?vid=3d65a636-faeb-4cdc-870e-c146404fe702"},"vehicle_type_id":"4","last_reported":1731013663,"current_range_meters":30400,"station_id":"ce4bhbh2rcd13ifvqeo0","pricing_plan_id":"cebpf4jnsgd1na2vs0mg"},{"bike_id":"03aac47a-870f-474f-98b2-53c038d2acf5","system_id":"levelo_inurba_marseille","lat":43.31763,"lon":5.39014,"is_reserved":false,"is_disabled":false,"rental_uris":{"android":"levelo://app?vid=03aac47a-870f-474f-98b2-53c038d2acf5","ios":"levelo://app?vid=03aac47a-870f-474f-98b2-53c038d2acf5"},"vehicle_type_id":"4","last_reported":1731013663,"current_range_meters":15200,"station_id":"ce4bhqp2rcd13ifvqhng","pricing_plan_id":"cebpf4jnsgd1na2vs0mg"},{"bike_id":"7146b002-4033-4a45-b8b4-85ce2a8aa783","system_id":"levelo_inurba_marseille","lat":43.29869,"lon":5.39722,"is_reserved":false,"is_disabled":false,"rental_uris":{"android":"levelo://app?vid=7146b002-4033-4a45-b8b4-85ce2a8aa783","ios":"levelo://app?vid=7146b002-4033-4a45-b8b4-85ce2a8aa783"},"vehicle_type_id":"4","last_reported":1731013663,"current_range_meters":10800,"station_id":"ce4bh0h2rcd13ifvqd50","pricing_plan_id":"cebpf4jnsgd1na2vs0mg"},{"bike_id":"746f8df5-cd38-4c92-9c55-a49257706bc6","system_id":"levelo_inurba_marseille","lat":43.31325,"lon":5.39694,"is_reserved":false,"is_disabled":false,"rental_uris":{"android":"levelo://app?vid=746f8df5-cd38-4c92-9c55-a49257706bc6","ios":"levelo://app?vid=746f8df5-cd38-4c92-9c55-a49257706bc6"},"vehicle_type_id":"4","last_reported":1731013663,"current_range_meters":38800,"station_id":"ce4bgvp2rcd13ifvqcu0","pricing_plan_id":"cebpf4jnsgd1na2vs0mg"},{"bike_id":"14c2cfcb-36ec-4d11-a5e1-0c7de3eeedfa","system_id":"levelo_inurba_marseille","lat":43.31167,"lon":5.38717,"is_reserved":false,"is_disabled":false,"rental_uris":{"android":"levelo://app?vid=14c2cfcb-36ec-4d11-a5e1-0c7de3eeedfa","ios":"levelo://app?vid=14c2cfcb-36ec-4d11-a5e1-0c7de3eeedfa"},"vehicle_type_id":"4","last_reported":1731013663,"current_range_meters":20800,"station_id":"ce4bgv12rcd13ifvqcp0","pricing_plan_id":"cebpf4jnsgd1na2vs0mg"},{"bike_id":"80d5c89e-745d-46d6-9ab9-4f5ea40b6def","system_id":"levelo_inurba_marseille","lat":43.27177,"lon":5.40992,"is_reserved":false,"is_disabled":false,"rental_uris":{"android":"levelo://app?vid=80d5c89e-745d-46d6-9ab9-4f5ea40b6def","ios":"levelo://app?vid=80d5c89e-745d-46d6-9ab9-4f5ea40b6def"},"vehicle_type_id":"4","last_reported":1731013663,"current_range_meters":14000,"station_id":"ce4bhl12rcd13ifvqgf0","pricing_plan_id":"cebpf4jnsgd1na2vs0mg"},{"bike_id":"ef288286-229d-4b9a-a189-8d61840dcffb","system_id":"levelo_inurba_marseille","lat":43.23197,"lon":5.35538,"is_reserved":false,"is_disabled":false,"rental_uris":{"android":"levelo://app?vid=ef288286-229d-4b9a-a189-8d61840dcffb","ios":"levelo://app?vid=ef288286-229d-4b9a-a189-8d61840dcffb"},"vehicle_type_id":"4","last_reported":1731013663,"current_range_meters":8400,"station_id":"ce4bhu92rcd13ifvqi70","pricing_plan_id":"cebpf4jnsgd1na2vs0mg"},{"bike_id":"9044ed43-de46-4645-b2ad-5e136647239a","system_id":"levelo_inurba_marseille","lat":43.337444,"lon":5.374475,"is_reserved":false,"is_disabled":false,"rental_uris":{"android":"levelo://app?vid=9044ed43-de46-4645-b2ad-5e136647239a","ios":"levelo://app?vid=9044ed43-de46-4645-b2ad-5e136647239a"},"vehicle_type_id":"4","last_reported":1731013663,"current_range_meters":35600,"station_id":"","pricing_plan_id":"cebpf4jnsgd1na2vs0mg"},{"bike_id":"0e2b7fe2-e116-40cc-a675-ef2c386223b4","system_id":"levelo_inurba_marseille","lat":43.26805,"lon":5.4026,"is_reserved":false,"is_disabled":false,"rental_uris":{"android":"levelo://app?vid=0e2b7fe2-e116-40cc-a675-ef2c386223b4","ios":"levelo://app?vid=0e2b7fe2-e116-40cc-a675-ef2c386223b4"},"vehicle_type_id":"4","last_reported":1731013663,"current_range_meters":8800,"station_id":"ce501612rcd8frsf0b60","pricing_plan_id":"cebpf4jnsgd1na2vs0mg"},{"bike_id":"cde33d01-4fdf-4588-9993-50576e545d63","system_id":"levelo_inurba_marseille","lat":43.29899,"lon":5.4365,"is_reserved":false,"is_disabled":false,"rental_uris":{"android":"levelo://app?vid=cde33d01-4fdf-4588-9993-50576e545d63","ios":"levelo://app?vid=cde33d01-4fdf-4588-9993-50576e545d63"},"vehicle_type_id":"4","last_reported":1731013663,"current_range_meters":32000,"station_id":"ce4bhpp2rcd13ifvqhfg","pricing_plan_id":"cebpf4jnsgd1na2vs0mg"},{"bike_id":"b4c52ca2-a0b3-468a-8831-acdb1b623697","system_id":"levelo_inurba_marseille","lat":43.2762,"lon":5.36114,"is_reserved":false,"is_disabled":false,"rental_uris":{"android":"levelo://app?vid=b4c52ca2-a0b3-468a-8831-acdb1b623697","ios":"levelo://app?vid=b4c52ca2-a0b3-468a-8831-acdb1b623697"},"vehicle_type_id":"4","last_reported":1731013663,"current_range_meters":8000,"station_id":"ce4bgj92rcd13ifvqbe0","pricing_plan_id":"cebpf4jnsgd1na2vs0mg"},{"bike_id":"84d60574-e97d-416a-bb69-40e9fb469182","system_id":"levelo_inurba_marseille","lat":43.22928,"lon":5.35377,"is_reserved":false,"is_disabled":false,"rental_uris":{"android":"levelo://app?vid=84d60574-e97d-416a-bb69-40e9fb469182","ios":"levelo://app?vid=84d60574-e97d-416a-bb69-40e9fb469182"},"vehicle_type_id":"4","last_reported":1731013663,"current_range_meters":39200,"station_id":"cpo3532slgdg3j2ikp40","pricing_plan_id":"cebpf4jnsgd1na2vs0mg"},{"bike_id":"500662de-b496-4d79-81fb-4de9303325e1","system_id":"levelo_inurba_marseille","lat":43.25868,"lon":5.39908,"is_reserved":false,"is_disabled":false,"rental_uris":{"android":"levelo://app?vid=500662de-b496-4d79-81fb-4de9303325e1","ios":"levelo://app?vid=500662de-b496-4d79-81fb-4de9303325e1"},"vehicle_type_id":"4","last_reported":1731013663,"current_range_meters":39200,"station_id":"ce4bhl92rcd13ifvqghg","pricing_plan_id":"cebpf4jnsgd1na2vs0mg"},{"bike_id":"55106918-c43e-4f94-9771-9d01b3b33b93","system_id":"levelo_inurba_marseille","lat":43.25724,"lon":5.41105,"is_reserved":false,"is_disabled":false,"rental_uris":{"android":"levelo://app?vid=55106918-c43e-4f94-9771-9d01b3b33b93","ios":"levelo://app?vid=55106918-c43e-4f94-9771-9d01b3b33b93"},"vehicle_type_id":"4","last_reported":1731013663,"current_range_meters":38800,"station_id":"ce4bhkp2rcd13ifvqgd0","pricing_plan_id":"cebpf4jnsgd1na2vs0mg"},{"bike_id":"fb73cd44-9a21-438c-bdb2-68c9153ec44b","system_id":"levelo_inurba_marseille","lat":43.29005,"lon":5.3561,"is_reserved":false,"is_disabled":false,"rental_uris":{"android":"levelo://app?vid=fb73cd44-9a21-438c-bdb2-68c9153ec44b","ios":"levelo://app?vid=fb73cd44-9a21-438c-bdb2-68c9153ec44b"},"vehicle_type_id":"4","last_reported":1731013663,"current_range_meters":7200,"station_id":"ce4bhb92rcd13ifvqen0","pricing_plan_id":"cebpf4jnsgd1na2vs0mg"},{"bike_id":"6b7e2e59-c0c2-4c3d-a7d2-6f94508486b9","system_id":"levelo_inurba_marseille","lat":43.29514,"lon":5.39402,"is_reserved":false,"is_disabled":false,"rental_uris":{"android":"levelo://app?vid=6b7e2e59-c0c2-4c3d-a7d2-6f94508486b9","ios":"levelo://app?vid=6b7e2e59-c0c2-4c3d-a7d2-6f94508486b9"},"vehicle_type_id":"4","last_reported":1731013663,"current_range_meters":38800,"station_id":"ce4bh292rcd13ifvqdf0","pricing_plan_id":"cebpf4jnsgd1na2vs0mg"},{"bike_id":"38c9c563-2dc8-4ec3-94f6-fd20caf6397c","system_id":"levelo_inurba_marseille","lat":43.2857,"lon":5.39488,"is_reserved":false,"is_disabled":false,"rental_uris":{"android":"levelo://app?vid=38c9c563-2dc8-4ec3-94f6-fd20caf6397c","ios":"levelo://app?vid=38c9c563-2dc8-4ec3-94f6-fd20caf6397c"},"vehicle_type_id":"4","last_reported":1731013663,"current_range_meters":38800,"station_id":"ce4bh292rcd13ifvqdg0","pricing_plan_id":"cebpf4jnsgd1na2vs0mg"},{"bike_id":"4eecdf01-2312-4036-b477-5b5650016af3","system_id":"levelo_inurba_marseille","lat":43.28347,"lon":5.38098,"is_reserved":false,"is_disabled":false,"rental_uris":{"android":"levelo://app?vid=4eecdf01-2312-4036-b477-5b5650016af3","ios":"levelo://app?vid=4eecdf01-2312-4036-b477-5b5650016af3"},"vehicle_type_id":"4","last_reported":1731013663,"current_range_meters":34000,"station_id":"ce4bh412rcd13ifvqdr0","pricing_plan_id":"cebpf4jnsgd1na2vs0mg"},{"bike_id":"a0b2c6a8-478f-4627-940b-49dabaf233e2","system_id":"levelo_inurba_marseille","lat":43.29199,"lon":5.39313,"is_reserved":false,"is_disabled":false,"rental_uris":{"android":"levelo://app?vid=a0b2c6a8-478f-4627-940b-49dabaf233e2","ios":"levelo://app?vid=a0b2c6a8-478f-4627-940b-49dabaf233e2"},"vehicle_type_id":"4","last_reported":1731013663,"current_range_meters":14000,"station_id":"ce4bh192rcd13ifvqdd0","pricing_plan_id":"cebpf4jnsgd1na2vs0mg"},{"bike_id":"09cfd608-0b86-44c5-9610-2386498bbed1","system_id":"levelo_inurba_marseille","lat":43.30202,"lon":5.39471,"is_reserved":false,"is_disabled":false,"rental_uris":{"android":"levelo://app?vid=09cfd608-0b86-44c5-9610-2386498bbed1","ios":"levelo://app?vid=09cfd608-0b86-44c5-9610-2386498bbed1"},"vehicle_type_id":"4","last_reported":1731013663,"current_range_meters":38800,"station_id":"ce4bh0p2rcd13ifvqd70","pricing_plan_id":"cebpf4jnsgd1na2vs0mg"},{"bike_id":"e7cd005d-d362-4c36-a955-3c59f122a64d","system_id":"levelo_inurba_marseille","lat":43.28152,"lon":5.42639,"is_reserved":false,"is_disabled":false,"rental_uris":{"android":"levelo://app?vid=e7cd005d-d362-4c36-a955-3c59f122a64d","ios":"levelo://app?vid=e7cd005d-d362-4c36-a955-3c59f122a64d"},"vehicle_type_id":"4","last_reported":1731013663,"current_range_meters":26800,"station_id":"ce4bhnh2rcd13ifvqgug","pricing_plan_id":"cebpf4jnsgd1na2vs0mg"},{"bike_id":"b4de523d-1629-41ac-93e4-af25e6966b9a","system_id":"levelo_inurba_marseille","lat":43.267871,"lon":5.394093,"is_reserved":false,"is_disabled":false,"rental_uris":{"android":"levelo://app?vid=b4de523d-1629-41ac-93e4-af25e6966b9a","ios":"levelo://app?vid=b4de523d-1629-41ac-93e4-af25e6966b9a"},"vehicle_type_id":"4","last_reported":1731013663,"current_range_meters":16000,"station_id":"ce4bgph2rcd13ifvqc2g","pricing_plan_id":"cebpf4jnsgd1na2vs0mg"},{"bike_id":"86df6946-1e8b-4481-962b-4975b4baf575","system_id":"levelo_inurba_marseille","lat":43.27913,"lon":5.39589,"is_reserved":false,"is_disabled":false,"rental_uris":{"android":"levelo://app?vid=86df6946-1e8b-4481-962b-4975b4baf575","ios":"levelo://app?vid=86df6946-1e8b-4481-962b-4975b4baf575"},"vehicle_type_id":"4","last_reported":1731013663,"current_range_meters":25200,"station_id":"ce4bhf92rcd13ifvqf40","pricing_plan_id":"cebpf4jnsgd1na2vs0mg"},{"bike_id":"ca962693-2895-4340-9047-baf52dc420f0","system_id":"levelo_inurba_marseille","lat":43.29805,"lon":5.40411,"is_reserved":false,"is_disabled":false,"rental_uris":{"android":"levelo://app?vid=ca962693-2895-4340-9047-baf52dc420f0","ios":"levelo://app?vid=ca962693-2895-4340-9047-baf52dc420f0"},"vehicle_type_id":"4","last_reported":1731013663,"current_range_meters":38800,"station_id":"ce4bh112rcd13ifvqd90","pricing_plan_id":"cebpf4jnsgd1na2vs0mg"},{"bike_id":"2af4d7fc-833a-4671-98d0-4457f1167b1d","system_id":"levelo_inurba_marseille","lat":43.30809,"lon":5.38175,"is_reserved":false,"is_disabled":false,"rental_uris":{"android":"levelo://app?vid=2af4d7fc-833a-4671-98d0-4457f1167b1d","ios":"levelo://app?vid=2af4d7fc-833a-4671-98d0-4457f1167b1d"},"vehicle_type_id":"4","last_reported":1731013663,"current_range_meters":7200,"station_id":"ce4bgt12rcd13ifvqce0","pricing_plan_id":"cebpf4jnsgd1na2vs0mg"},{"bike_id":"ecde584f-5379-4d17-af3f-ba7114b2c649","system_id":"levelo_inurba_marseille","lat":43.26055,"lon":5.39408,"is_reserved":false,"is_disabled":false,"rental_uris":{"android":"levelo://app?vid=ecde584f-5379-4d17-af3f-ba7114b2c649","ios":"levelo://app?vid=ecde584f-5379-4d17-af3f-ba7114b2c649"},"vehicle_type_id":"4","last_reported":1731013663,"current_range_meters":38800,"station_id":"ce4bhh92rcd13ifvqfj0","pricing_plan_id":"cebpf4jnsgd1na2vs0mg"},{"bike_id":"d9f62232-bf1d-4648-a44d-0d8f902be5a7","system_id":"levelo_inurba_marseille","lat":43.27626,"lon":5.42641,"is_reserved":false,"is_disabled":false,"rental_uris":{"android":"levelo://app?vid=d9f62232-bf1d-4648-a44d-0d8f902be5a7","ios":"levelo://app?vid=d9f62232-bf1d-4648-a44d-0d8f902be5a7"},"vehicle_type_id":"4","last_reported":1731013663,"current_range_meters":8000,"station_id":"","pricing_plan_id":"cebpf4jnsgd1na2vs0mg"},{"bike_id":"5f5fed70-1a16-4a51-9daa-ef868c6df0d0","system_id":"levelo_inurba_marseille","lat":43.23961,"lon":5.36642,"is_reserved":false,"is_disabled":false,"rental_uris":{"android":"levelo://app?vid=5f5fed70-1a16-4a51-9daa-ef868c6df0d0","ios":"levelo://app?vid=5f5fed70-1a16-4a51-9daa-ef868c6df0d0"},"vehicle_type_id":"4","last_reported":1731013663,"current_range_meters":17600,"station_id":"ce4bhi12rcd13ifvqfp0","pricing_plan_id":"cebpf4jnsgd1na2vs0mg"},{"bike_id":"6c04de54-8dbd-4e1b-8912-9143e705093a","system_id":"levelo_inurba_marseille","lat":43.28311,"lon":5.36087,"is_reserved":false,"is_disabled":false,"rental_uris":{"android":"levelo://app?vid=6c04de54-8dbd-4e1b-8912-9143e705093a","ios":"levelo://app?vid=6c04de54-8dbd-4e1b-8912-9143e705093a"},"vehicle_type_id":"4","last_reported":1731013663,"current_range_meters":22400,"station_id":"","pricing_plan_id":"cebpf4jnsgd1na2vs0mg"},{"bike_id":"67678471-8900-40c3-b5bb-806b24feb686","system_id":"levelo_inurba_marseille","lat":43.31327,"lon":5.39688,"is_reserved":false,"is_disabled":false,"rental_uris":{"android":"levelo://app?vid=67678471-8900-40c3-b5bb-806b24feb686","ios":"levelo://app?vid=67678471-8900-40c3-b5bb-806b24feb686"},"vehicle_type_id":"4","last_reported":1731013663,"current_range_meters":26800,"station_id":"ce4bgvp2rcd13ifvqcu0","pricing_plan_id":"cebpf4jnsgd1na2vs0mg"},{"bike_id":"56f25a01-e9b4-4614-888c-cf6de6b16e2a","system_id":"levelo_inurba_marseille","lat":43.31714,"lon":5.37759,"is_reserved":false,"is_disabled":false,"rental_uris":{"android":"levelo://app?vid=56f25a01-e9b4-4614-888c-cf6de6b16e2a","ios":"levelo://app?vid=56f25a01-e9b4-4614-888c-cf6de6b16e2a"},"vehicle_type_id":"4","last_reported":1731013663,"current_range_meters":22400,"station_id":"ce4bgth2rcd13ifvqch0","pricing_plan_id":"cebpf4jnsgd1na2vs0mg"},{"bike_id":"65eea0cd-2ca5-4855-b964-b026702e1d71","system_id":"levelo_inurba_marseille","lat":43.27922,"lon":5.39583,"is_reserved":false,"is_disabled":false,"rental_uris":{"android":"levelo://app?vid=65eea0cd-2ca5-4855-b964-b026702e1d71","ios":"levelo://app?vid=65eea0cd-2ca5-4855-b964-b026702e1d71"},"vehicle_type_id":"4","last_reported":1731013663,"current_range_meters":22400,"station_id":"ce4bhf92rcd13ifvqf40","pricing_plan_id":"cebpf4jnsgd1na2vs0mg"},{"bike_id":"c70f3a51-3c77-47f4-afdc-c467e625745f","system_id":"levelo_inurba_marseille","lat":43.28115,"lon":5.38222,"is_reserved":false,"is_disabled":false,"rental_uris":{"android":"levelo://app?vid=c70f3a51-3c77-47f4-afdc-c467e625745f","ios":"levelo://app?vid=c70f3a51-3c77-47f4-afdc-c467e625745f"},"vehicle_type_id":"4","last_reported":1731013663,"current_range_meters":26000,"station_id":"","pricing_plan_id":"cebpf4jnsgd1na2vs0mg"},{"bike_id":"d6fdae69-642e-4d84-a8fd-edeb75ed0ef4","system_id":"levelo_inurba_marseille","lat":43.22925,"lon":5.35377,"is_reserved":false,"is_disabled":false,"rental_uris":{"android":"levelo://app?vid=d6fdae69-642e-4d84-a8fd-edeb75ed0ef4","ios":"levelo://app?vid=d6fdae69-642e-4d84-a8fd-edeb75ed0ef4"},"vehicle_type_id":"4","last_reported":1731013663,"current_range_meters":26800,"station_id":"cpo3532slgdg3j2ikp40","pricing_plan_id":"cebpf4jnsgd1na2vs0mg"},{"bike_id":"750e93d0-01f1-496d-93b1-920137237eef","system_id":"levelo_inurba_marseille","lat":43.31167,"lon":5.38712,"is_reserved":false,"is_disabled":false,"rental_uris":{"android":"levelo://app?vid=750e93d0-01f1-496d-93b1-920137237eef","ios":"levelo://app?vid=750e93d0-01f1-496d-93b1-920137237eef"},"vehicle_type_id":"4","last_reported":1731013663,"current_range_meters":38800,"station_id":"ce4bgv12rcd13ifvqcp0","pricing_plan_id":"cebpf4jnsgd1na2vs0mg"},{"bike_id":"b6f0aee3-ea07-4a39-96df-0eabe4095941","system_id":"levelo_inurba_marseille","lat":43.31217,"lon":5.36846,"is_reserved":false,"is_disabled":false,"rental_uris":{"android":"levelo://app?vid=b6f0aee3-ea07-4a39-96df-0eabe4095941","ios":"levelo://app?vid=b6f0aee3-ea07-4a39-96df-0eabe4095941"},"vehicle_type_id":"4","last_reported":1731013663,"current_range_meters":37600,"station_id":"ce4bgl92rcd13ifvqbq0","pricing_plan_id":"cebpf4jnsgd1na2vs0mg"},{"bike_id":"3101ccf7-3ae3-4719-bf1f-42c4da8ff01c","system_id":"levelo_inurba_marseille","lat":43.292877,"lon":5.371815,"is_reserved":false,"is_disabled":false,"rental_uris":{"android":"levelo://app?vid=3101ccf7-3ae3-4719-bf1f-42c4da8ff01c","ios":"levelo://app?vid=3101ccf7-3ae3-4719-bf1f-42c4da8ff01c"},"vehicle_type_id":"4","last_reported":1731013663,"current_range_meters":9200,"station_id":"ce4bgh92rcd13ifvqb40","pricing_plan_id":"cebpf4jnsgd1na2vs0mg"},{"bike_id":"f514e9d2-622e-4f9c-8674-304ce0e33a58","system_id":"levelo_inurba_marseille","lat":43.28096,"lon":5.37843,"is_reserved":false,"is_disabled":false,"rental_uris":{"android":"levelo://app?vid=f514e9d2-622e-4f9c-8674-304ce0e33a58","ios":"levelo://app?vid=f514e9d2-622e-4f9c-8674-304ce0e33a58"},"vehicle_type_id":"4","last_reported":1731013663,"current_range_meters":38800,"station_id":"ce4bha12rcd13ifvqee0","pricing_plan_id":"cebpf4jnsgd1na2vs0mg"},{"bike_id":"001b7c42-40a7-47a9-927f-6c03197892aa","system_id":"levelo_inurba_marseille","lat":43.33721,"lon":5.39175,"is_reserved":false,"is_disabled":false,"rental_uris":{"android":"levelo://app?vid=001b7c42-40a7-47a9-927f-6c03197892aa","ios":"levelo://app?vid=001b7c42-40a7-47a9-927f-6c03197892aa"},"vehicle_type_id":"4","last_reported":1731013663,"current_range_meters":39200,"station_id":"ce4bhr92rcd13ifvqhsg","pricing_plan_id":"cebpf4jnsgd1na2vs0mg"},{"bike_id":"987f7a1b-1dfa-440c-b1f7-6f66490e4626","system_id":"levelo_inurba_marseille","lat":43.29021,"lon":5.38635,"is_reserved":false,"is_disabled":false,"rental_uris":{"android":"levelo://app?vid=987f7a1b-1dfa-440c-b1f7-6f66490e4626","ios":"levelo://app?vid=987f7a1b-1dfa-440c-b1f7-6f66490e4626"},"vehicle_type_id":"4","last_reported":1731013663,"current_range_meters":38000,"station_id":"ce4bh4p2rcd13ifvqe0g","pricing_plan_id":"cebpf4jnsgd1na2vs0mg"},{"bike_id":"3a7eca15-79d9-4b5b-afad-24a4270e5e92","system_id":"levelo_inurba_marseille","lat":43.27884,"lon":5.39608,"is_reserved":false,"is_disabled":false,"rental_uris":{"android":"levelo://app?vid=3a7eca15-79d9-4b5b-afad-24a4270e5e92","ios":"levelo://app?vid=3a7eca15-79d9-4b5b-afad-24a4270e5e92"},"vehicle_type_id":"4","last_reported":1731013663,"current_range_meters":36000,"station_id":"ce4bhf92rcd13ifvqf40","pricing_plan_id":"cebpf4jnsgd1na2vs0mg"},{"bike_id":"80f88f91-d648-453a-88b2-cfa7d57ba25b","system_id":"levelo_inurba_marseille","lat":43.26505,"lon":5.40905,"is_reserved":false,"is_disabled":false,"rental_uris":{"android":"levelo://app?vid=80f88f91-d648-453a-88b2-cfa7d57ba25b","ios":"levelo://app?vid=80f88f91-d648-453a-88b2-cfa7d57ba25b"},"vehicle_type_id":"4","last_reported":1731013663,"current_range_meters":36800,"station_id":"ce4bhn12rcd13ifvqgqg","pricing_plan_id":"cebpf4jnsgd1na2vs0mg"},{"bike_id":"f9b12aa7-d700-457f-93a4-fe584104c38a","system_id":"levelo_inurba_marseille","lat":43.29428,"lon":5.39752,"is_reserved":false,"is_disabled":false,"rental_uris":{"android":"levelo://app?vid=f9b12aa7-d700-457f-93a4-fe584104c38a","ios":"levelo://app?vid=f9b12aa7-d700-457f-93a4-fe584104c38a"},"vehicle_type_id":"4","last_reported":1731013663,"current_range_meters":24400,"station_id":"ce4bh3h2rcd13ifvqdo0","pricing_plan_id":"cebpf4jnsgd1na2vs0mg"},{"bike_id":"f9624399-06e2-4a31-9f73-131d487cda27","system_id":"levelo_inurba_marseille","lat":43.28356,"lon":5.38635,"is_reserved":false,"is_disabled":false,"rental_uris":{"android":"levelo://app?vid=f9624399-06e2-4a31-9f73-131d487cda27","ios":"levelo://app?vid=f9624399-06e2-4a31-9f73-131d487cda27"},"vehicle_type_id":"4","last_reported":1731013663,"current_range_meters":27600,"station_id":"ce4bh492rcd13ifvqdvg","pricing_plan_id":"cebpf4jnsgd1na2vs0mg"},{"bike_id":"6a6b0b60-4365-44c3-a412-98e6224e649e","system_id":"levelo_inurba_marseille","lat":43.28854,"lon":5.35852,"is_reserved":false,"is_disabled":false,"rental_uris":{"android":"levelo://app?vid=6a6b0b60-4365-44c3-a412-98e6224e649e","ios":"levelo://app?vid=6a6b0b60-4365-44c3-a412-98e6224e649e"},"vehicle_type_id":"4","last_reported":1731013663,"current_range_meters":39200,"station_id":"ce4bhb12rcd13ifvqem0","pricing_plan_id":"cebpf4jnsgd1na2vs0mg"},{"bike_id":"9178d598-d5de-4d5c-85ae-0efa9377149a","system_id":"levelo_inurba_marseille","lat":43.23173,"lon":5.3998,"is_reserved":false,"is_disabled":false,"rental_uris":{"android":"levelo://app?vid=9178d598-d5de-4d5c-85ae-0efa9377149a","ios":"levelo://app?vid=9178d598-d5de-4d5c-85ae-0efa9377149a"},"vehicle_type_id":"4","last_reported":1731013663,"current_range_meters":19200,"station_id":"ce4bhn12rcd13ifvqgqg","pricing_plan_id":"cebpf4jnsgd1na2vs0mg"},{"bike_id":"20a66008-1ee5-4d69-999d-739f4ad0de21","system_id":"levelo_inurba_marseille","lat":43.3078,"lon":5.3765,"is_reserved":false,"is_disabled":false,"rental_uris":{"android":"levelo://app?vid=20a66008-1ee5-4d69-999d-739f4ad0de21","ios":"levelo://app?vid=20a66008-1ee5-4d69-999d-739f4ad0de21"},"vehicle_type_id":"4","last_reported":1731013663,"current_range_meters":36400,"station_id":"ce4bgv92rcd13ifvqcq0","pricing_plan_id":"cebpf4jnsgd1na2vs0mg"},{"bike_id":"0f6720d0-0074-4d75-8954-368ef2125385","system_id":"levelo_inurba_marseille","lat":43.31725,"lon":5.37742,"is_reserved":false,"is_disabled":false,"rental_uris":{"android":"levelo://app?vid=0f6720d0-0074-4d75-8954-368ef2125385","ios":"levelo://app?vid=0f6720d0-0074-4d75-8954-368ef2125385"},"vehicle_type_id":"4","last_reported":1731013663,"current_range_meters":34800,"station_id":"ce4bgth2rcd13ifvqch0","pricing_plan_id":"cebpf4jnsgd1na2vs0mg"},{"bike_id":"fdf26527-6c0f-4b2a-b565-d41399ed3242","system_id":"levelo_inurba_marseille","lat":43.31539,"lon":5.38023,"is_reserved":false,"is_disabled":false,"rental_uris":{"android":"levelo://app?vid=fdf26527-6c0f-4b2a-b565-d41399ed3242","ios":"levelo://app?vid=fdf26527-6c0f-4b2a-b565-d41399ed3242"},"vehicle_type_id":"4","last_reported":1731013663,"current_range_meters":3600,"station_id":"ce4bhsp2rcd13ifvqi50","pricing_plan_id":"cebpf4jnsgd1na2vs0mg"},{"bike_id":"27f16ac2-2c07-499d-adc3-3f9f5a63e8e7","system_id":"levelo_inurba_marseille","lat":43.29421,"lon":5.38611,"is_reserved":false,"is_disabled":false,"rental_uris":{"android":"levelo://app?vid=27f16ac2-2c07-499d-adc3-3f9f5a63e8e7","ios":"levelo://app?vid=27f16ac2-2c07-499d-adc3-3f9f5a63e8e7"},"vehicle_type_id":"4","last_reported":1731013663,"current_range_meters":23200,"station_id":"ce4bh2h2rcd13ifvqdh0","pricing_plan_id":"cebpf4jnsgd1na2vs0mg"},{"bike_id":"61c2e5eb-d7cc-46d2-bd4f-f803061d8cb6","system_id":"levelo_inurba_marseille","lat":43.30879,"lon":5.3963,"is_reserved":false,"is_disabled":false,"rental_uris":{"android":"levelo://app?vid=61c2e5eb-d7cc-46d2-bd4f-f803061d8cb6","ios":"levelo://app?vid=61c2e5eb-d7cc-46d2-bd4f-f803061d8cb6"},"vehicle_type_id":"4","last_reported":1731013663,"current_range_meters":24400,"station_id":"ce4bh012rcd13ifvqcv0","pricing_plan_id":"cebpf4jnsgd1na2vs0mg"},{"bike_id":"c9e13d95-f398-4116-bddd-1e4a516b34dd","system_id":"levelo_inurba_marseille","lat":43.29002,"lon":5.35611,"is_reserved":false,"is_disabled":false,"rental_uris":{"android":"levelo://app?vid=c9e13d95-f398-4116-bddd-1e4a516b34dd","ios":"levelo://app?vid=c9e13d95-f398-4116-bddd-1e4a516b34dd"},"vehicle_type_id":"4","last_reported":1731013663,"current_range_meters":38800,"station_id":"ce4bhb92rcd13ifvqen0","pricing_plan_id":"cebpf4jnsgd1na2vs0mg"},{"bike_id":"0993ae53-b33b-4ec0-8420-6942bdb9eb84","system_id":"levelo_inurba_marseille","lat":43.30797,"lon":5.43519,"is_reserved":false,"is_disabled":false,"rental_uris":{"android":"levelo://app?vid=0993ae53-b33b-4ec0-8420-6942bdb9eb84","ios":"levelo://app?vid=0993ae53-b33b-4ec0-8420-6942bdb9eb84"},"vehicle_type_id":"4","last_reported":1731013663,"current_range_meters":39200,"station_id":"ce4bhph2rcd13ifvqheg","pricing_plan_id":"cebpf4jnsgd1na2vs0mg"},{"bike_id":"f4675348-4353-44d2-9731-5d9ce4545678","system_id":"levelo_inurba_marseille","lat":43.30952,"lon":5.39052,"is_reserved":false,"is_disabled":false,"rental_uris":{"android":"levelo://app?vid=f4675348-4353-44d2-9731-5d9ce4545678","ios":"levelo://app?vid=f4675348-4353-44d2-9731-5d9ce4545678"},"vehicle_type_id":"4","last_reported":1731013663,"current_range_meters":38800,"station_id":"ce4bgup2rcd13ifvqco0","pricing_plan_id":"cebpf4jnsgd1na2vs0mg"},{"bike_id":"4cf99b37-d8c9-402b-a95f-c6baac4f233e","system_id":"levelo_inurba_marseille","lat":43.25115,"lon":5.40317,"is_reserved":false,"is_disabled":false,"rental_uris":{"android":"levelo://app?vid=4cf99b37-d8c9-402b-a95f-c6baac4f233e","ios":"levelo://app?vid=4cf99b37-d8c9-402b-a95f-c6baac4f233e"},"vehicle_type_id":"4","last_reported":1731013663,"current_range_meters":8400,"station_id":"ce4bhlh2rcd13ifvqgig","pricing_plan_id":"cebpf4jnsgd1na2vs0mg"},{"bike_id":"d269ed79-363c-4650-a131-5c80cfb4586c","system_id":"levelo_inurba_marseille","lat":43.23193,"lon":5.35548,"is_reserved":false,"is_disabled":false,"rental_uris":{"android":"levelo://app?vid=d269ed79-363c-4650-a131-5c80cfb4586c","ios":"levelo://app?vid=d269ed79-363c-4650-a131-5c80cfb4586c"},"vehicle_type_id":"4","last_reported":1731013663,"current_range_meters":28800,"station_id":"ce4bhu92rcd13ifvqi70","pricing_plan_id":"cebpf4jnsgd1na2vs0mg"},{"bike_id":"650f5835-bc4e-42c7-b5d8-20d584cdd8af","system_id":"levelo_inurba_marseille","lat":43.32486,"lon":5.36546,"is_reserved":false,"is_disabled":false,"rental_uris":{"android":"levelo://app?vid=650f5835-bc4e-42c7-b5d8-20d584cdd8af","ios":"levelo://app?vid=650f5835-bc4e-42c7-b5d8-20d584cdd8af"},"vehicle_type_id":"4","last_reported":1731013663,"current_range_meters":38000,"station_id":"ce4bhs12rcd13ifvqhvg","pricing_plan_id":"cebpf4jnsgd1na2vs0mg"},{"bike_id":"f2272917-66e4-42ae-84cc-f15f7f5dbf3b","system_id":"levelo_inurba_marseille","lat":43.31166,"lon":5.38706,"is_reserved":false,"is_disabled":false,"rental_uris":{"android":"levelo://app?vid=f2272917-66e4-42ae-84cc-f15f7f5dbf3b","ios":"levelo://app?vid=f2272917-66e4-42ae-84cc-f15f7f5dbf3b"},"vehicle_type_id":"4","last_reported":1731013663,"current_range_meters":24400,"station_id":"ce4bgv12rcd13ifvqcp0","pricing_plan_id":"cebpf4jnsgd1na2vs0mg"},{"bike_id":"a1fe4a3e-258e-43f3-80a4-0a0ef769f4ea","system_id":"levelo_inurba_marseille","lat":43.31365,"lon":5.38489,"is_reserved":false,"is_disabled":false,"rental_uris":{"android":"levelo://app?vid=a1fe4a3e-258e-43f3-80a4-0a0ef769f4ea","ios":"levelo://app?vid=a1fe4a3e-258e-43f3-80a4-0a0ef769f4ea"},"vehicle_type_id":"4","last_reported":1731013663,"current_range_meters":35600,"station_id":"ce4bgt92rcd13ifvqcf0","pricing_plan_id":"cebpf4jnsgd1na2vs0mg"},{"bike_id":"fb563f76-8c09-4d9a-bb8a-dc9e22bf7717","system_id":"levelo_inurba_marseille","lat":43.28356,"lon":5.38104,"is_reserved":false,"is_disabled":false,"rental_uris":{"android":"levelo://app?vid=fb563f76-8c09-4d9a-bb8a-dc9e22bf7717","ios":"levelo://app?vid=fb563f76-8c09-4d9a-bb8a-dc9e22bf7717"},"vehicle_type_id":"4","last_reported":1731013663,"current_range_meters":31200,"station_id":"ce4bh412rcd13ifvqdr0","pricing_plan_id":"cebpf4jnsgd1na2vs0mg"},{"bike_id":"928945a9-829e-4eae-a34b-7dbc357fb10c","system_id":"levelo_inurba_marseille","lat":43.28939,"lon":5.36386,"is_reserved":false,"is_disabled":false,"rental_uris":{"android":"levelo://app?vid=928945a9-829e-4eae-a34b-7dbc357fb10c","ios":"levelo://app?vid=928945a9-829e-4eae-a34b-7dbc357fb10c"},"vehicle_type_id":"4","last_reported":1731013663,"current_range_meters":28800,"station_id":"ce4bhc92rcd13ifvqetg","pricing_plan_id":"cebpf4jnsgd1na2vs0mg"},{"bike_id":"5696a768-8ebb-41d4-b38e-53f658e9f6ac","system_id":"levelo_inurba_marseille","lat":43.2655,"lon":5.37285,"is_reserved":false,"is_disabled":false,"rental_uris":{"android":"levelo://app?vid=5696a768-8ebb-41d4-b38e-53f658e9f6ac","ios":"levelo://app?vid=5696a768-8ebb-41d4-b38e-53f658e9f6ac"},"vehicle_type_id":"4","last_reported":1731013663,"current_range_meters":38800,"station_id":"ce4bhg12rcd13ifvqf70","pricing_plan_id":"cebpf4jnsgd1na2vs0mg"},{"bike_id":"4aaf6f1e-6fb3-42ca-b792-aa07d9924fbd","system_id":"levelo_inurba_marseille","lat":43.27811,"lon":5.40703,"is_reserved":false,"is_disabled":false,"rental_uris":{"android":"levelo://app?vid=4aaf6f1e-6fb3-42ca-b792-aa07d9924fbd","ios":"levelo://app?vid=4aaf6f1e-6fb3-42ca-b792-aa07d9924fbd"},"vehicle_type_id":"4","last_reported":1731013663,"current_range_meters":27600,"station_id":"ce4bhnh2rcd13ifvqgtg","pricing_plan_id":"cebpf4jnsgd1na2vs0mg"},{"bike_id":"92bbe5af-b5d9-48fc-afb8-3b15fc8d3190","system_id":"levelo_inurba_marseille","lat":43.31718,"lon":5.42401,"is_reserved":false,"is_disabled":false,"rental_uris":{"android":"levelo://app?vid=92bbe5af-b5d9-48fc-afb8-3b15fc8d3190","ios":"levelo://app?vid=92bbe5af-b5d9-48fc-afb8-3b15fc8d3190"},"vehicle_type_id":"4","last_reported":1731013663,"current_range_meters":32000,"station_id":"ce4bhp92rcd13ifvqhbg","pricing_plan_id":"cebpf4jnsgd1na2vs0mg"},{"bike_id":"b89da140-c3b6-426f-a346-4fa42ea03fdf","system_id":"levelo_inurba_marseille","lat":43.28566,"lon":5.39499,"is_reserved":false,"is_disabled":false,"rental_uris":{"android":"levelo://app?vid=b89da140-c3b6-426f-a346-4fa42ea03fdf","ios":"levelo://app?vid=b89da140-c3b6-426f-a346-4fa42ea03fdf"},"vehicle_type_id":"4","last_reported":1731013663,"current_range_meters":39200,"station_id":"ce4bh292rcd13ifvqdg0","pricing_plan_id":"cebpf4jnsgd1na2vs0mg"},{"bike_id":"71fecc78-133c-41a7-9eac-78b344aa188a","system_id":"levelo_inurba_marseille","lat":43.3112,"lon":5.37766,"is_reserved":false,"is_disabled":false,"rental_uris":{"android":"levelo://app?vid=71fecc78-133c-41a7-9eac-78b344aa188a","ios":"levelo://app?vid=71fecc78-133c-41a7-9eac-78b344aa188a"},"vehicle_type_id":"4","last_reported":1731013663,"current_range_meters":38800,"station_id":"ce4bgt92rcd13ifvqcg0","pricing_plan_id":"cebpf4jnsgd1na2vs0mg"},{"bike_id":"db4059ee-174a-4962-90c0-f1ac67f084a4","system_id":"levelo_inurba_marseille","lat":43.25933,"lon":5.40895,"is_reserved":false,"is_disabled":false,"rental_uris":{"android":"levelo://app?vid=db4059ee-174a-4962-90c0-f1ac67f084a4","ios":"levelo://app?vid=db4059ee-174a-4962-90c0-f1ac67f084a4"},"vehicle_type_id":"4","last_reported":1731013663,"current_range_meters":38800,"station_id":"ce4bhm92rcd13ifvqglg","pricing_plan_id":"cebpf4jnsgd1na2vs0mg"},{"bike_id":"d90730ab-2c2c-498c-aa2e-9b76d87b86cb","system_id":"levelo_inurba_marseille","lat":43.31287,"lon":5.40172,"is_reserved":false,"is_disabled":false,"rental_uris":{"android":"levelo://app?vid=d90730ab-2c2c-498c-aa2e-9b76d87b86cb","ios":"levelo://app?vid=d90730ab-2c2c-498c-aa2e-9b76d87b86cb"},"vehicle_type_id":"4","last_reported":1731013663,"current_range_meters":33600,"station_id":"ce4bh092rcd13ifvqd30","pricing_plan_id":"cebpf4jnsgd1na2vs0mg"},{"bike_id":"71ed2f20-f876-4297-99ba-4e251415358b","system_id":"levelo_inurba_marseille","lat":43.31165,"lon":5.38709,"is_reserved":false,"is_disabled":false,"rental_uris":{"android":"levelo://app?vid=71ed2f20-f876-4297-99ba-4e251415358b","ios":"levelo://app?vid=71ed2f20-f876-4297-99ba-4e251415358b"},"vehicle_type_id":"4","last_reported":1731013663,"current_range_meters":26800,"station_id":"ce4bgv12rcd13ifvqcp0","pricing_plan_id":"cebpf4jnsgd1na2vs0mg"},{"bike_id":"6b793bbd-5954-4f81-bfef-fd4d8b2129e3","system_id":"levelo_inurba_marseille","lat":43.33714,"lon":5.39176,"is_reserved":false,"is_disabled":false,"rental_uris":{"android":"levelo://app?vid=6b793bbd-5954-4f81-bfef-fd4d8b2129e3","ios":"levelo://app?vid=6b793bbd-5954-4f81-bfef-fd4d8b2129e3"},"vehicle_type_id":"4","last_reported":1731013663,"current_range_meters":37600,"station_id":"ce4bhr92rcd13ifvqhsg","pricing_plan_id":"cebpf4jnsgd1na2vs0mg"},{"bike_id":"0366bdb5-16ac-4a75-93d2-d1f7e545a0e7","system_id":"levelo_inurba_marseille","lat":43.24668,"lon":5.38171,"is_reserved":false,"is_disabled":false,"rental_uris":{"android":"levelo://app?vid=0366bdb5-16ac-4a75-93d2-d1f7e545a0e7","ios":"levelo://app?vid=0366bdb5-16ac-4a75-93d2-d1f7e545a0e7"},"vehicle_type_id":"4","last_reported":1731013663,"current_range_meters":18800,"station_id":"ce4bhih2rcd13ifvqfr0","pricing_plan_id":"cebpf4jnsgd1na2vs0mg"},{"bike_id":"09c86380-1120-43ba-9262-09634e62988f","system_id":"levelo_inurba_marseille","lat":43.298768,"lon":5.366476,"is_reserved":false,"is_disabled":false,"rental_uris":{"android":"levelo://app?vid=09c86380-1120-43ba-9262-09634e62988f","ios":"levelo://app?vid=09c86380-1120-43ba-9262-09634e62988f"},"vehicle_type_id":"4","last_reported":1731013663,"current_range_meters":16000,"station_id":"ce4bgn12rcd13ifvqbt0","pricing_plan_id":"cebpf4jnsgd1na2vs0mg"},{"bike_id":"6e6e001a-2d4b-4e63-8f57-413c2cf4540c","system_id":"levelo_inurba_marseille","lat":43.27914,"lon":5.3958,"is_reserved":false,"is_disabled":false,"rental_uris":{"android":"levelo://app?vid=6e6e001a-2d4b-4e63-8f57-413c2cf4540c","ios":"levelo://app?vid=6e6e001a-2d4b-4e63-8f57-413c2cf4540c"},"vehicle_type_id":"4","last_reported":1731013663,"current_range_meters":28800,"station_id":"ce4bhf92rcd13ifvqf40","pricing_plan_id":"cebpf4jnsgd1na2vs0mg"},{"bike_id":"102201e4-ae03-426f-9d76-30c6796fee42","system_id":"levelo_inurba_marseille","lat":43.31687,"lon":5.40476,"is_reserved":false,"is_disabled":false,"rental_uris":{"android":"levelo://app?vid=102201e4-ae03-426f-9d76-30c6796fee42","ios":"levelo://app?vid=102201e4-ae03-426f-9d76-30c6796fee42"},"vehicle_type_id":"4","last_reported":1731013663,"current_range_meters":29600,"station_id":"ce4bh012rcd13ifvqd00","pricing_plan_id":"cebpf4jnsgd1na2vs0mg"},{"bike_id":"72b49cdd-0fcb-488d-b3bf-b71acf18d5ce","system_id":"levelo_inurba_marseille","lat":43.28027,"lon":5.3695,"is_reserved":false,"is_disabled":false,"rental_uris":{"android":"levelo://app?vid=72b49cdd-0fcb-488d-b3bf-b71acf18d5ce","ios":"levelo://app?vid=72b49cdd-0fcb-488d-b3bf-b71acf18d5ce"},"vehicle_type_id":"4","last_reported":1731013663,"current_range_meters":12000,"station_id":"ce4bha12rcd13ifvqef0","pricing_plan_id":"cebpf4jnsgd1na2vs0mg"},{"bike_id":"399025e6-7f35-4342-9d98-3c2224090b18","system_id":"levelo_inurba_marseille","lat":43.28567,"lon":5.39493,"is_reserved":false,"is_disabled":false,"rental_uris":{"android":"levelo://app?vid=399025e6-7f35-4342-9d98-3c2224090b18","ios":"levelo://app?vid=399025e6-7f35-4342-9d98-3c2224090b18"},"vehicle_type_id":"4","last_reported":1731013663,"current_range_meters":38800,"station_id":"ce4bh292rcd13ifvqdg0","pricing_plan_id":"cebpf4jnsgd1na2vs0mg"},{"bike_id":"4f06c335-c884-4bb5-837a-40a292ca5381","system_id":"levelo_inurba_marseille","lat":43.27916,"lon":5.39576,"is_reserved":false,"is_disabled":false,"rental_uris":{"android":"levelo://app?vid=4f06c335-c884-4bb5-837a-40a292ca5381","ios":"levelo://app?vid=4f06c335-c884-4bb5-837a-40a292ca5381"},"vehicle_type_id":"4","last_reported":1731013663,"current_range_meters":31200,"station_id":"ce4bhf92rcd13ifvqf40","pricing_plan_id":"cebpf4jnsgd1na2vs0mg"},{"bike_id":"26ee007d-c521-4271-a726-fe0c9aeca07e","system_id":"levelo_inurba_marseille","lat":43.33113,"lon":5.3822,"is_reserved":false,"is_disabled":false,"rental_uris":{"android":"levelo://app?vid=26ee007d-c521-4271-a726-fe0c9aeca07e","ios":"levelo://app?vid=26ee007d-c521-4271-a726-fe0c9aeca07e"},"vehicle_type_id":"4","last_reported":1731013663,"current_range_meters":6800,"station_id":"","pricing_plan_id":"cebpf4jnsgd1na2vs0mg"},{"bike_id":"55832718-3048-4754-b6c7-735f796a1db1","system_id":"levelo_inurba_marseille","lat":43.24801,"lon":5.37451,"is_reserved":false,"is_disabled":false,"rental_uris":{"android":"levelo://app?vid=55832718-3048-4754-b6c7-735f796a1db1","ios":"levelo://app?vid=55832718-3048-4754-b6c7-735f796a1db1"},"vehicle_type_id":"4","last_reported":1731013663,"current_range_meters":35600,"station_id":"ce4bhgh2rcd13ifvqfb0","pricing_plan_id":"cebpf4jnsgd1na2vs0mg"},{"bike_id":"7e02be68-6753-41d9-adcd-443fd738b253","system_id":"levelo_inurba_marseille","lat":43.24664,"lon":5.38152,"is_reserved":false,"is_disabled":false,"rental_uris":{"android":"levelo://app?vid=7e02be68-6753-41d9-adcd-443fd738b253","ios":"levelo://app?vid=7e02be68-6753-41d9-adcd-443fd738b253"},"vehicle_type_id":"4","last_reported":1731013663,"current_range_meters":30800,"station_id":"ce4bhih2rcd13ifvqfr0","pricing_plan_id":"cebpf4jnsgd1na2vs0mg"},{"bike_id":"6f7cb342-b848-4891-9997-c1683d70a93b","system_id":"levelo_inurba_marseille","lat":43.28565,"lon":5.39489,"is_reserved":false,"is_disabled":false,"rental_uris":{"android":"levelo://app?vid=6f7cb342-b848-4891-9997-c1683d70a93b","ios":"levelo://app?vid=6f7cb342-b848-4891-9997-c1683d70a93b"},"vehicle_type_id":"4","last_reported":1731013663,"current_range_meters":38800,"station_id":"ce4bh292rcd13ifvqdg0","pricing_plan_id":"cebpf4jnsgd1na2vs0mg"},{"bike_id":"bdc8e4c9-31ee-4bbb-9adc-6c132582d3e5","system_id":"levelo_inurba_marseille","lat":43.3237,"lon":5.3887,"is_reserved":false,"is_disabled":false,"rental_uris":{"android":"levelo://app?vid=bdc8e4c9-31ee-4bbb-9adc-6c132582d3e5","ios":"levelo://app?vid=bdc8e4c9-31ee-4bbb-9adc-6c132582d3e5"},"vehicle_type_id":"4","last_reported":1731013663,"current_range_meters":20400,"station_id":"ce4bhqp2rcd13ifvqhog","pricing_plan_id":"cebpf4jnsgd1na2vs0mg"},{"bike_id":"ed1950b8-ad71-419c-86f1-823759e2f846","system_id":"levelo_inurba_marseille","lat":43.30958,"lon":5.3903,"is_reserved":false,"is_disabled":false,"rental_uris":{"android":"levelo://app?vid=ed1950b8-ad71-419c-86f1-823759e2f846","ios":"levelo://app?vid=ed1950b8-ad71-419c-86f1-823759e2f846"},"vehicle_type_id":"4","last_reported":1731013663,"current_range_meters":19600,"station_id":"ce4bgup2rcd13ifvqco0","pricing_plan_id":"cebpf4jnsgd1na2vs0mg"},{"bike_id":"86c3e7ef-4c08-4580-8ffb-ccc5e823b050","system_id":"levelo_inurba_marseille","lat":43.28562,"lon":5.39487,"is_reserved":false,"is_disabled":false,"rental_uris":{"android":"levelo://app?vid=86c3e7ef-4c08-4580-8ffb-ccc5e823b050","ios":"levelo://app?vid=86c3e7ef-4c08-4580-8ffb-ccc5e823b050"},"vehicle_type_id":"4","last_reported":1731013663,"current_range_meters":38800,"station_id":"ce4bh292rcd13ifvqdg0","pricing_plan_id":"cebpf4jnsgd1na2vs0mg"},{"bike_id":"dfcf3015-64e1-4c73-9065-23a58d1a316f","system_id":"levelo_inurba_marseille","lat":43.337444,"lon":5.374475,"is_reserved":false,"is_disabled":false,"rental_uris":{"android":"levelo://app?vid=dfcf3015-64e1-4c73-9065-23a58d1a316f","ios":"levelo://app?vid=dfcf3015-64e1-4c73-9065-23a58d1a316f"},"vehicle_type_id":"4","last_reported":1731013663,"current_range_meters":33200,"station_id":"","pricing_plan_id":"cebpf4jnsgd1na2vs0mg"},{"bike_id":"1e803bdd-3770-48c7-9e72-71ce7c6ba7a7","system_id":"levelo_inurba_marseille","lat":43.24664,"lon":5.38157,"is_reserved":false,"is_disabled":false,"rental_uris":{"android":"levelo://app?vid=1e803bdd-3770-48c7-9e72-71ce7c6ba7a7","ios":"levelo://app?vid=1e803bdd-3770-48c7-9e72-71ce7c6ba7a7"},"vehicle_type_id":"4","last_reported":1731013663,"current_range_meters":19200,"station_id":"ce4bhih2rcd13ifvqfr0","pricing_plan_id":"cebpf4jnsgd1na2vs0mg"},{"bike_id":"f965597c-9582-4c92-afac-ab60bb6522ed","system_id":"levelo_inurba_marseille","lat":43.2861,"lon":5.3706,"is_reserved":false,"is_disabled":false,"rental_uris":{"android":"levelo://app?vid=f965597c-9582-4c92-afac-ab60bb6522ed","ios":"levelo://app?vid=f965597c-9582-4c92-afac-ab60bb6522ed"},"vehicle_type_id":"4","last_reported":1731013663,"current_range_meters":4800,"station_id":"ce4bht12rcd13ifvqi60","pricing_plan_id":"cebpf4jnsgd1na2vs0mg"},{"bike_id":"ddb1fa80-a035-4c5d-be6d-239b3f4d71ff","system_id":"levelo_inurba_marseille","lat":43.29258,"lon":5.38447,"is_reserved":false,"is_disabled":false,"rental_uris":{"android":"levelo://app?vid=ddb1fa80-a035-4c5d-be6d-239b3f4d71ff","ios":"levelo://app?vid=ddb1fa80-a035-4c5d-be6d-239b3f4d71ff"},"vehicle_type_id":"4","last_reported":1731013663,"current_range_meters":4800,"station_id":"ce4bh692rcd13ifvqea0","pricing_plan_id":"cebpf4jnsgd1na2vs0mg"},{"bike_id":"74fd6152-e3be-45fe-8d9b-0e9706c1b1e2","system_id":"levelo_inurba_marseille","lat":43.30881,"lon":5.39634,"is_reserved":false,"is_disabled":false,"rental_uris":{"android":"levelo://app?vid=74fd6152-e3be-45fe-8d9b-0e9706c1b1e2","ios":"levelo://app?vid=74fd6152-e3be-45fe-8d9b-0e9706c1b1e2"},"vehicle_type_id":"4","last_reported":1731013663,"current_range_meters":6000,"station_id":"ce4bh012rcd13ifvqcv0","pricing_plan_id":"cebpf4jnsgd1na2vs0mg"},{"bike_id":"04ad94f5-c26a-4991-9e8a-fa77cb4c1657","system_id":"levelo_inurba_marseille","lat":43.30208,"lon":5.39473,"is_reserved":false,"is_disabled":false,"rental_uris":{"android":"levelo://app?vid=04ad94f5-c26a-4991-9e8a-fa77cb4c1657","ios":"levelo://app?vid=04ad94f5-c26a-4991-9e8a-fa77cb4c1657"},"vehicle_type_id":"4","last_reported":1731013663,"current_range_meters":33600,"station_id":"ce4bh0p2rcd13ifvqd70","pricing_plan_id":"cebpf4jnsgd1na2vs0mg"},{"bike_id":"e9c8a630-2d73-4117-9bf7-aca5570a0743","system_id":"levelo_inurba_marseille","lat":43.23179,"lon":5.39983,"is_reserved":false,"is_disabled":false,"rental_uris":{"android":"levelo://app?vid=e9c8a630-2d73-4117-9bf7-aca5570a0743","ios":"levelo://app?vid=e9c8a630-2d73-4117-9bf7-aca5570a0743"},"vehicle_type_id":"4","last_reported":1731013663,"current_range_meters":38800,"station_id":"ce4bhn12rcd13ifvqgqg","pricing_plan_id":"cebpf4jnsgd1na2vs0mg"},{"bike_id":"7e601f14-3759-41c5-ae4b-ce56a97b99b6","system_id":"levelo_inurba_marseille","lat":43.279421,"lon":5.410413,"is_reserved":false,"is_disabled":false,"rental_uris":{"android":"levelo://app?vid=7e601f14-3759-41c5-ae4b-ce56a97b99b6","ios":"levelo://app?vid=7e601f14-3759-41c5-ae4b-ce56a97b99b6"},"vehicle_type_id":"4","last_reported":1731013663,"current_range_meters":11200,"station_id":"ce4bhnp2rcd13ifvqh0g","pricing_plan_id":"cebpf4jnsgd1na2vs0mg"},{"bike_id":"ff58b15d-8525-4fbb-8f5c-c9819aec9b24","system_id":"levelo_inurba_marseille","lat":43.28944,"lon":5.36391,"is_reserved":false,"is_disabled":false,"rental_uris":{"android":"levelo://app?vid=ff58b15d-8525-4fbb-8f5c-c9819aec9b24","ios":"levelo://app?vid=ff58b15d-8525-4fbb-8f5c-c9819aec9b24"},"vehicle_type_id":"4","last_reported":1731013663,"current_range_meters":19200,"station_id":"ce4bhc92rcd13ifvqetg","pricing_plan_id":"cebpf4jnsgd1na2vs0mg"},{"bike_id":"1d9abeb4-69da-4ca0-93af-039fe0ce5bb5","system_id":"levelo_inurba_marseille","lat":43.28465,"lon":5.35893,"is_reserved":false,"is_disabled":false,"rental_uris":{"android":"levelo://app?vid=1d9abeb4-69da-4ca0-93af-039fe0ce5bb5","ios":"levelo://app?vid=1d9abeb4-69da-4ca0-93af-039fe0ce5bb5"},"vehicle_type_id":"4","last_reported":1731013663,"current_range_meters":9600,"station_id":"ce4bhah2rcd13ifvqei0","pricing_plan_id":"cebpf4jnsgd1na2vs0mg"},{"bike_id":"15eb5c15-45e3-4c55-a0e0-085cc6f65e11","system_id":"levelo_inurba_marseille","lat":43.30545,"lon":5.38467,"is_reserved":false,"is_disabled":false,"rental_uris":{"android":"levelo://app?vid=15eb5c15-45e3-4c55-a0e0-085cc6f65e11","ios":"levelo://app?vid=15eb5c15-45e3-4c55-a0e0-085cc6f65e11"},"vehicle_type_id":"4","last_reported":1731013663,"current_range_meters":38800,"station_id":"ce4bgg92rcd13ifvqb30","pricing_plan_id":"cebpf4jnsgd1na2vs0mg"},{"bike_id":"6ca029db-655d-4d11-9eb8-584d76bc27d6","system_id":"levelo_inurba_marseille","lat":43.31107,"lon":5.37777,"is_reserved":false,"is_disabled":false,"rental_uris":{"android":"levelo://app?vid=6ca029db-655d-4d11-9eb8-584d76bc27d6","ios":"levelo://app?vid=6ca029db-655d-4d11-9eb8-584d76bc27d6"},"vehicle_type_id":"4","last_reported":1731013663,"current_range_meters":10800,"station_id":"ce4bgt92rcd13ifvqcg0","pricing_plan_id":"cebpf4jnsgd1na2vs0mg"},{"bike_id":"88454638-28a0-4e63-81dc-90114f528ab6","system_id":"levelo_inurba_marseille","lat":43.25118,"lon":5.40313,"is_reserved":false,"is_disabled":false,"rental_uris":{"android":"levelo://app?vid=88454638-28a0-4e63-81dc-90114f528ab6","ios":"levelo://app?vid=88454638-28a0-4e63-81dc-90114f528ab6"},"vehicle_type_id":"4","last_reported":1731013663,"current_range_meters":7200,"station_id":"ce4bhlh2rcd13ifvqgig","pricing_plan_id":"cebpf4jnsgd1na2vs0mg"},{"bike_id":"16a2024b-c57f-4080-b7b4-672bc091b699","system_id":"levelo_inurba_marseille","lat":43.28459,"lon":5.35879,"is_reserved":false,"is_disabled":false,"rental_uris":{"android":"levelo://app?vid=16a2024b-c57f-4080-b7b4-672bc091b699","ios":"levelo://app?vid=16a2024b-c57f-4080-b7b4-672bc091b699"},"vehicle_type_id":"4","last_reported":1731013663,"current_range_meters":3200,"station_id":"ce4bhah2rcd13ifvqei0","pricing_plan_id":"cebpf4jnsgd1na2vs0mg"},{"bike_id":"8be228a2-3b45-46f3-a76b-feb94522fe12","system_id":"levelo_inurba_marseille","lat":43.33022,"lon":5.3904,"is_reserved":false,"is_disabled":false,"rental_uris":{"android":"levelo://app?vid=8be228a2-3b45-46f3-a76b-feb94522fe12","ios":"levelo://app?vid=8be228a2-3b45-46f3-a76b-feb94522fe12"},"vehicle_type_id":"4","last_reported":1731013663,"current_range_meters":22400,"station_id":"ce4bhr92rcd13ifvqhrg","pricing_plan_id":"cebpf4jnsgd1na2vs0mg"},{"bike_id":"28d61b07-bac3-46d5-900a-bf141ced3879","system_id":"levelo_inurba_marseille","lat":43.28696,"lon":5.39977,"is_reserved":false,"is_disabled":false,"rental_uris":{"android":"levelo://app?vid=28d61b07-bac3-46d5-900a-bf141ced3879","ios":"levelo://app?vid=28d61b07-bac3-46d5-900a-bf141ced3879"},"vehicle_type_id":"4","last_reported":1731013663,"current_range_meters":37600,"station_id":"ce4bho92rcd13ifvqh3g","pricing_plan_id":"cebpf4jnsgd1na2vs0mg"},{"bike_id":"1a13e48d-9e87-4b3b-b77f-ae545157d698","system_id":"levelo_inurba_marseille","lat":43.29035,"lon":5.3996,"is_reserved":false,"is_disabled":false,"rental_uris":{"android":"levelo://app?vid=1a13e48d-9e87-4b3b-b77f-ae545157d698","ios":"levelo://app?vid=1a13e48d-9e87-4b3b-b77f-ae545157d698"},"vehicle_type_id":"4","last_reported":1731013663,"current_range_meters":37600,"station_id":"ce4bh392rcd13ifvqdm0","pricing_plan_id":"cebpf4jnsgd1na2vs0mg"},{"bike_id":"875b5b0b-c19d-4dd8-878c-ff683684389c","system_id":"levelo_inurba_marseille","lat":43.27955,"lon":5.39187,"is_reserved":false,"is_disabled":false,"rental_uris":{"android":"levelo://app?vid=875b5b0b-c19d-4dd8-878c-ff683684389c","ios":"levelo://app?vid=875b5b0b-c19d-4dd8-878c-ff683684389c"},"vehicle_type_id":"4","last_reported":1731013663,"current_range_meters":25600,"station_id":"ce4bhf92rcd13ifvqf40","pricing_plan_id":"cebpf4jnsgd1na2vs0mg"},{"bike_id":"a49229f6-a47b-402a-a188-f54c6cfafa9d","system_id":"levelo_inurba_marseille","lat":43.31902,"lon":5.3792,"is_reserved":false,"is_disabled":false,"rental_uris":{"android":"levelo://app?vid=a49229f6-a47b-402a-a188-f54c6cfafa9d","ios":"levelo://app?vid=a49229f6-a47b-402a-a188-f54c6cfafa9d"},"vehicle_type_id":"4","last_reported":1731013663,"current_range_meters":36800,"station_id":"","pricing_plan_id":"cebpf4jnsgd1na2vs0mg"},{"bike_id":"3323f172-1c8e-43ab-a198-6daf5e7ddeeb","system_id":"levelo_inurba_marseille","lat":43.27176,"lon":5.40993,"is_reserved":false,"is_disabled":false,"rental_uris":{"android":"levelo://app?vid=3323f172-1c8e-43ab-a198-6daf5e7ddeeb","ios":"levelo://app?vid=3323f172-1c8e-43ab-a198-6daf5e7ddeeb"},"vehicle_type_id":"4","last_reported":1731013663,"current_range_meters":28000,"station_id":"ce4bhl12rcd13ifvqgf0","pricing_plan_id":"cebpf4jnsgd1na2vs0mg"},{"bike_id":"25a74856-3a6d-4391-aaa7-12afd90c3294","system_id":"levelo_inurba_marseille","lat":43.24998,"lon":5.3893,"is_reserved":false,"is_disabled":false,"rental_uris":{"android":"levelo://app?vid=25a74856-3a6d-4391-aaa7-12afd90c3294","ios":"levelo://app?vid=25a74856-3a6d-4391-aaa7-12afd90c3294"},"vehicle_type_id":"4","last_reported":1731013663,"current_range_meters":37600,"station_id":"ce4bhgp2rcd13ifvqfd0","pricing_plan_id":"cebpf4jnsgd1na2vs0mg"},{"bike_id":"92fd9898-f18a-42e3-8191-1cca942bab3d","system_id":"levelo_inurba_marseille","lat":43.30806,"lon":5.38143,"is_reserved":false,"is_disabled":false,"rental_uris":{"android":"levelo://app?vid=92fd9898-f18a-42e3-8191-1cca942bab3d","ios":"levelo://app?vid=92fd9898-f18a-42e3-8191-1cca942bab3d"},"vehicle_type_id":"4","last_reported":1731013663,"current_range_meters":28400,"station_id":"ce4bgt12rcd13ifvqce0","pricing_plan_id":"cebpf4jnsgd1na2vs0mg"},{"bike_id":"354ed884-7d44-4c83-91f4-78abb30e4bc1","system_id":"levelo_inurba_marseille","lat":43.24674,"lon":5.38155,"is_reserved":false,"is_disabled":false,"rental_uris":{"android":"levelo://app?vid=354ed884-7d44-4c83-91f4-78abb30e4bc1","ios":"levelo://app?vid=354ed884-7d44-4c83-91f4-78abb30e4bc1"},"vehicle_type_id":"4","last_reported":1731013663,"current_range_meters":38800,"station_id":"ce4bhih2rcd13ifvqfr0","pricing_plan_id":"cebpf4jnsgd1na2vs0mg"},{"bike_id":"e8df229a-6042-49f1-86ad-5cf127673ddf","system_id":"levelo_inurba_marseille","lat":43.28927,"lon":5.38394,"is_reserved":false,"is_disabled":false,"rental_uris":{"android":"levelo://app?vid=e8df229a-6042-49f1-86ad-5cf127673ddf","ios":"levelo://app?vid=e8df229a-6042-49f1-86ad-5cf127673ddf"},"vehicle_type_id":"4","last_reported":1731013663,"current_range_meters":30800,"station_id":"ce4bh612rcd13ifvqe6g","pricing_plan_id":"cebpf4jnsgd1na2vs0mg"},{"bike_id":"2a941a5e-af72-412c-a0c9-ca1913dc4558","system_id":"levelo_inurba_marseille","lat":43.30095,"lon":5.39087,"is_reserved":false,"is_disabled":false,"rental_uris":{"android":"levelo://app?vid=2a941a5e-af72-412c-a0c9-ca1913dc4558","ios":"levelo://app?vid=2a941a5e-af72-412c-a0c9-ca1913dc4558"},"vehicle_type_id":"4","last_reported":1731013663,"current_range_meters":38800,"station_id":"ce4bh192rcd13ifvqdb0","pricing_plan_id":"cebpf4jnsgd1na2vs0mg"},{"bike_id":"5d64fa0b-5b20-497a-9f00-8043b4f14e12","system_id":"levelo_inurba_marseille","lat":43.29513,"lon":5.39404,"is_reserved":false,"is_disabled":false,"rental_uris":{"android":"levelo://app?vid=5d64fa0b-5b20-497a-9f00-8043b4f14e12","ios":"levelo://app?vid=5d64fa0b-5b20-497a-9f00-8043b4f14e12"},"vehicle_type_id":"4","last_reported":1731013663,"current_range_meters":38000,"station_id":"ce4bh292rcd13ifvqdf0","pricing_plan_id":"cebpf4jnsgd1na2vs0mg"},{"bike_id":"7aa89ab7-bfe4-4c30-8344-300c7d69ac3f","system_id":"levelo_inurba_marseille","lat":43.28944,"lon":5.36404,"is_reserved":false,"is_disabled":false,"rental_uris":{"android":"levelo://app?vid=7aa89ab7-bfe4-4c30-8344-300c7d69ac3f","ios":"levelo://app?vid=7aa89ab7-bfe4-4c30-8344-300c7d69ac3f"},"vehicle_type_id":"4","last_reported":1731013663,"current_range_meters":16800,"station_id":"ce4bhc92rcd13ifvqetg","pricing_plan_id":"cebpf4jnsgd1na2vs0mg"},{"bike_id":"d3e54780-ddfb-432e-bfd3-55d19e8c43c8","system_id":"levelo_inurba_marseille","lat":43.31752,"lon":5.39029,"is_reserved":false,"is_disabled":false,"rental_uris":{"android":"levelo://app?vid=d3e54780-ddfb-432e-bfd3-55d19e8c43c8","ios":"levelo://app?vid=d3e54780-ddfb-432e-bfd3-55d19e8c43c8"},"vehicle_type_id":"4","last_reported":1731013663,"current_range_meters":28800,"station_id":"ce4bhqp2rcd13ifvqhng","pricing_plan_id":"cebpf4jnsgd1na2vs0mg"},{"bike_id":"7520e933-4513-4a68-b7cd-b7a0e7eeeee7","system_id":"levelo_inurba_marseille","lat":43.289235,"lon":5.383865,"is_reserved":false,"is_disabled":false,"rental_uris":{"android":"levelo://app?vid=7520e933-4513-4a68-b7cd-b7a0e7eeeee7","ios":"levelo://app?vid=7520e933-4513-4a68-b7cd-b7a0e7eeeee7"},"vehicle_type_id":"4","last_reported":1731013663,"current_range_meters":8400,"station_id":"ce4bh612rcd13ifvqe6g","pricing_plan_id":"cebpf4jnsgd1na2vs0mg"},{"bike_id":"9b50d14a-856e-4a18-9687-4360874e7e60","system_id":"levelo_inurba_marseille","lat":43.31487,"lon":5.37296,"is_reserved":false,"is_disabled":false,"rental_uris":{"android":"levelo://app?vid=9b50d14a-856e-4a18-9687-4360874e7e60","ios":"levelo://app?vid=9b50d14a-856e-4a18-9687-4360874e7e60"},"vehicle_type_id":"4","last_reported":1731013663,"current_range_meters":10800,"station_id":"ce4bgt12rcd13ifvqcd0","pricing_plan_id":"cebpf4jnsgd1na2vs0mg"},{"bike_id":"94d87277-5681-476d-94e5-7784610b1cd5","system_id":"levelo_inurba_marseille","lat":43.2988,"lon":5.38915,"is_reserved":false,"is_disabled":false,"rental_uris":{"android":"levelo://app?vid=94d87277-5681-476d-94e5-7784610b1cd5","ios":"levelo://app?vid=94d87277-5681-476d-94e5-7784610b1cd5"},"vehicle_type_id":"4","last_reported":1731013663,"current_range_meters":17200,"station_id":"ce4bh392rcd13ifvqdl0","pricing_plan_id":"cebpf4jnsgd1na2vs0mg"},{"bike_id":"f6240ba0-900a-4bbb-b767-16165ed8fd4d","system_id":"levelo_inurba_marseille","lat":43.31328,"lon":5.3969,"is_reserved":false,"is_disabled":false,"rental_uris":{"android":"levelo://app?vid=f6240ba0-900a-4bbb-b767-16165ed8fd4d","ios":"levelo://app?vid=f6240ba0-900a-4bbb-b767-16165ed8fd4d"},"vehicle_type_id":"4","last_reported":1731013663,"current_range_meters":16400,"station_id":"ce4bgvp2rcd13ifvqcu0","pricing_plan_id":"cebpf4jnsgd1na2vs0mg"},{"bike_id":"82b97aae-830e-4430-ae99-7cef8ad2c993","system_id":"levelo_inurba_marseille","lat":43.337444,"lon":5.374475,"is_reserved":false,"is_disabled":false,"rental_uris":{"android":"levelo://app?vid=82b97aae-830e-4430-ae99-7cef8ad2c993","ios":"levelo://app?vid=82b97aae-830e-4430-ae99-7cef8ad2c993"},"vehicle_type_id":"4","last_reported":1731013663,"current_range_meters":35200,"station_id":"","pricing_plan_id":"cebpf4jnsgd1na2vs0mg"},{"bike_id":"3971fa10-e036-45be-b0a3-d36e00cbd28b","system_id":"levelo_inurba_marseille","lat":43.31079,"lon":5.38359,"is_reserved":false,"is_disabled":false,"rental_uris":{"android":"levelo://app?vid=3971fa10-e036-45be-b0a3-d36e00cbd28b","ios":"levelo://app?vid=3971fa10-e036-45be-b0a3-d36e00cbd28b"},"vehicle_type_id":"4","last_reported":1731013663,"current_range_meters":27600,"station_id":"ce4bgv92rcd13ifvqcr0","pricing_plan_id":"cebpf4jnsgd1na2vs0mg"},{"bike_id":"e11f2957-c866-431f-b50b-d0178644b09f","system_id":"levelo_inurba_marseille","lat":43.23181,"lon":5.39984,"is_reserved":false,"is_disabled":false,"rental_uris":{"android":"levelo://app?vid=e11f2957-c866-431f-b50b-d0178644b09f","ios":"levelo://app?vid=e11f2957-c866-431f-b50b-d0178644b09f"},"vehicle_type_id":"4","last_reported":1731013663,"current_range_meters":39200,"station_id":"ce4bhn12rcd13ifvqgqg","pricing_plan_id":"cebpf4jnsgd1na2vs0mg"},{"bike_id":"48c18888-aaa5-45d6-b2c1-5a1d973cf9ad","system_id":"levelo_inurba_marseille","lat":43.28462,"lon":5.35893,"is_reserved":false,"is_disabled":false,"rental_uris":{"android":"levelo://app?vid=48c18888-aaa5-45d6-b2c1-5a1d973cf9ad","ios":"levelo://app?vid=48c18888-aaa5-45d6-b2c1-5a1d973cf9ad"},"vehicle_type_id":"4","last_reported":1731013663,"current_range_meters":26800,"station_id":"ce4bhah2rcd13ifvqei0","pricing_plan_id":"cebpf4jnsgd1na2vs0mg"},{"bike_id":"7279b2d5-600b-48b3-aeb2-5d622301a09f","system_id":"levelo_inurba_marseille","lat":43.30169,"lon":5.381605,"is_reserved":false,"is_disabled":false,"rental_uris":{"android":"levelo://app?vid=7279b2d5-600b-48b3-aeb2-5d622301a09f","ios":"levelo://app?vid=7279b2d5-600b-48b3-aeb2-5d622301a09f"},"vehicle_type_id":"4","last_reported":1731013663,"current_range_meters":33200,"station_id":"ce4bgjp2rcd13ifvqbh0","pricing_plan_id":"cebpf4jnsgd1na2vs0mg"},{"bike_id":"6832c828-43ab-4ed5-ab7f-9c42be522e99","system_id":"levelo_inurba_marseille","lat":43.31272,"lon":5.40166,"is_reserved":false,"is_disabled":false,"rental_uris":{"android":"levelo://app?vid=6832c828-43ab-4ed5-ab7f-9c42be522e99","ios":"levelo://app?vid=6832c828-43ab-4ed5-ab7f-9c42be522e99"},"vehicle_type_id":"4","last_reported":1731013663,"current_range_meters":9600,"station_id":"ce4bh092rcd13ifvqd30","pricing_plan_id":"cebpf4jnsgd1na2vs0mg"},{"bike_id":"8befa393-3872-493a-9a5d-6005d6827670","system_id":"levelo_inurba_marseille","lat":43.33708,"lon":5.39173,"is_reserved":false,"is_disabled":false,"rental_uris":{"android":"levelo://app?vid=8befa393-3872-493a-9a5d-6005d6827670","ios":"levelo://app?vid=8befa393-3872-493a-9a5d-6005d6827670"},"vehicle_type_id":"4","last_reported":1731013663,"current_range_meters":38800,"station_id":"ce4bhr92rcd13ifvqhsg","pricing_plan_id":"cebpf4jnsgd1na2vs0mg"},{"bike_id":"134fb352-6a02-4417-8109-ee2f6cea7fda","system_id":"levelo_inurba_marseille","lat":43.292206,"lon":5.373867,"is_reserved":false,"is_disabled":false,"rental_uris":{"android":"levelo://app?vid=134fb352-6a02-4417-8109-ee2f6cea7fda","ios":"levelo://app?vid=134fb352-6a02-4417-8109-ee2f6cea7fda"},"vehicle_type_id":"4","last_reported":1731013663,"current_range_meters":4000,"station_id":"ce4bhah2rcd13ifvqej0","pricing_plan_id":"cebpf4jnsgd1na2vs0mg"},{"bike_id":"75b94260-785a-4b7b-b7ac-a6131b897a7e","system_id":"levelo_inurba_marseille","lat":43.24075,"lon":5.37762,"is_reserved":false,"is_disabled":false,"rental_uris":{"android":"levelo://app?vid=75b94260-785a-4b7b-b7ac-a6131b897a7e","ios":"levelo://app?vid=75b94260-785a-4b7b-b7ac-a6131b897a7e"},"vehicle_type_id":"4","last_reported":1731013663,"current_range_meters":22000,"station_id":"ce4bhnp2rcd13ifvqgvg","pricing_plan_id":"cebpf4jnsgd1na2vs0mg"},{"bike_id":"036cf29c-d272-47a5-8b81-8230618d2cb8","system_id":"levelo_inurba_marseille","lat":43.29224,"lon":5.36051,"is_reserved":false,"is_disabled":false,"rental_uris":{"android":"levelo://app?vid=036cf29c-d272-47a5-8b81-8230618d2cb8","ios":"levelo://app?vid=036cf29c-d272-47a5-8b81-8230618d2cb8"},"vehicle_type_id":"4","last_reported":1731013663,"current_range_meters":14800,"station_id":"ce4bhbh2rcd13ifvqeqg","pricing_plan_id":"cebpf4jnsgd1na2vs0mg"},{"bike_id":"e648c48d-edb2-4902-b157-96fb25254653","system_id":"levelo_inurba_marseille","lat":43.28428,"lon":5.39186,"is_reserved":false,"is_disabled":false,"rental_uris":{"android":"levelo://app?vid=e648c48d-edb2-4902-b157-96fb25254653","ios":"levelo://app?vid=e648c48d-edb2-4902-b157-96fb25254653"},"vehicle_type_id":"4","last_reported":1731013663,"current_range_meters":38800,"station_id":"ce4bhoh2rcd13ifvqh5g","pricing_plan_id":"cebpf4jnsgd1na2vs0mg"},{"bike_id":"a139ad76-ca7f-458e-a30e-a008b671ca8b","system_id":"levelo_inurba_marseille","lat":43.30932,"lon":5.40145,"is_reserved":false,"is_disabled":false,"rental_uris":{"android":"levelo://app?vid=a139ad76-ca7f-458e-a30e-a008b671ca8b","ios":"levelo://app?vid=a139ad76-ca7f-458e-a30e-a008b671ca8b"},"vehicle_type_id":"4","last_reported":1731013663,"current_range_meters":8400,"station_id":"ce4bgvp2rcd13ifvqct0","pricing_plan_id":"cebpf4jnsgd1na2vs0mg"},{"bike_id":"386cdbcf-2bf6-43f2-a1e3-41031f979ca3","system_id":"levelo_inurba_marseille","lat":43.23151,"lon":5.43717,"is_reserved":false,"is_disabled":false,"rental_uris":{"android":"levelo://app?vid=386cdbcf-2bf6-43f2-a1e3-41031f979ca3","ios":"levelo://app?vid=386cdbcf-2bf6-43f2-a1e3-41031f979ca3"},"vehicle_type_id":"4","last_reported":1731013663,"current_range_meters":21600,"station_id":"ce4bhmp2rcd13ifvqgog","pricing_plan_id":"cebpf4jnsgd1na2vs0mg"},{"bike_id":"aae6ba34-a7fe-45ef-bf2b-96d33e3b2fae","system_id":"levelo_inurba_marseille","lat":43.30086,"lon":5.39081,"is_reserved":false,"is_disabled":false,"rental_uris":{"android":"levelo://app?vid=aae6ba34-a7fe-45ef-bf2b-96d33e3b2fae","ios":"levelo://app?vid=aae6ba34-a7fe-45ef-bf2b-96d33e3b2fae"},"vehicle_type_id":"4","last_reported":1731013663,"current_range_meters":38800,"station_id":"ce4bh192rcd13ifvqdb0","pricing_plan_id":"cebpf4jnsgd1na2vs0mg"},{"bike_id":"2e045a49-f64a-448b-8f2e-a85459f911d0","system_id":"levelo_inurba_marseille","lat":43.29524,"lon":5.39042,"is_reserved":false,"is_disabled":false,"rental_uris":{"android":"levelo://app?vid=2e045a49-f64a-448b-8f2e-a85459f911d0","ios":"levelo://app?vid=2e045a49-f64a-448b-8f2e-a85459f911d0"},"vehicle_type_id":"4","last_reported":1731013663,"current_range_meters":36400,"station_id":"ce4bh3p2rcd13ifvqdp0","pricing_plan_id":"cebpf4jnsgd1na2vs0mg"},{"bike_id":"4154d8ba-1ea3-4b1d-accf-e24995be1de0","system_id":"levelo_inurba_marseille","lat":43.28846,"lon":5.39318,"is_reserved":false,"is_disabled":false,"rental_uris":{"android":"levelo://app?vid=4154d8ba-1ea3-4b1d-accf-e24995be1de0","ios":"levelo://app?vid=4154d8ba-1ea3-4b1d-accf-e24995be1de0"},"vehicle_type_id":"4","last_reported":1731013663,"current_range_meters":38000,"station_id":"ce4bh2p2rcd13ifvqdi0","pricing_plan_id":"cebpf4jnsgd1na2vs0mg"},{"bike_id":"3eed74ec-5ee1-477b-898a-c3253f2b3602","system_id":"levelo_inurba_marseille","lat":43.28463,"lon":5.35887,"is_reserved":false,"is_disabled":false,"rental_uris":{"android":"levelo://app?vid=3eed74ec-5ee1-477b-898a-c3253f2b3602","ios":"levelo://app?vid=3eed74ec-5ee1-477b-898a-c3253f2b3602"},"vehicle_type_id":"4","last_reported":1731013663,"current_range_meters":16400,"station_id":"ce4bhah2rcd13ifvqei0","pricing_plan_id":"cebpf4jnsgd1na2vs0mg"},{"bike_id":"8e9b3a44-4399-49ec-bffa-8f89ac49faff","system_id":"levelo_inurba_marseille","lat":43.28355,"lon":5.38102,"is_reserved":false,"is_disabled":false,"rental_uris":{"android":"levelo://app?vid=8e9b3a44-4399-49ec-bffa-8f89ac49faff","ios":"levelo://app?vid=8e9b3a44-4399-49ec-bffa-8f89ac49faff"},"vehicle_type_id":"4","last_reported":1731013663,"current_range_meters":30000,"station_id":"ce4bh412rcd13ifvqdr0","pricing_plan_id":"cebpf4jnsgd1na2vs0mg"},{"bike_id":"e5a8b440-9f02-4b6e-ae37-8ae4e6c1edd5","system_id":"levelo_inurba_marseille","lat":43.2872,"lon":5.36084,"is_reserved":false,"is_disabled":false,"rental_uris":{"android":"levelo://app?vid=e5a8b440-9f02-4b6e-ae37-8ae4e6c1edd5","ios":"levelo://app?vid=e5a8b440-9f02-4b6e-ae37-8ae4e6c1edd5"},"vehicle_type_id":"4","last_reported":1731013663,"current_range_meters":28000,"station_id":"cki0cbj6b192h4jlfktg","pricing_plan_id":"cebpf4jnsgd1na2vs0mg"},{"bike_id":"24fa278d-80be-41f1-9e0f-a8845643dd3a","system_id":"levelo_inurba_marseille","lat":43.30129,"lon":5.38791,"is_reserved":false,"is_disabled":false,"rental_uris":{"android":"levelo://app?vid=24fa278d-80be-41f1-9e0f-a8845643dd3a","ios":"levelo://app?vid=24fa278d-80be-41f1-9e0f-a8845643dd3a"},"vehicle_type_id":"4","last_reported":1731013663,"current_range_meters":38800,"station_id":"ce4bghh2rcd13ifvqb60","pricing_plan_id":"cebpf4jnsgd1na2vs0mg"},{"bike_id":"fe7e3579-a119-400b-8f17-3c2acef46518","system_id":"levelo_inurba_marseille","lat":43.24806,"lon":5.37451,"is_reserved":false,"is_disabled":false,"rental_uris":{"android":"levelo://app?vid=fe7e3579-a119-400b-8f17-3c2acef46518","ios":"levelo://app?vid=fe7e3579-a119-400b-8f17-3c2acef46518"},"vehicle_type_id":"4","last_reported":1731013663,"current_range_meters":18000,"station_id":"ce4bhgh2rcd13ifvqfb0","pricing_plan_id":"cebpf4jnsgd1na2vs0mg"},{"bike_id":"0f89cdb3-bbc9-47d7-83ea-d3b2dd056129","system_id":"levelo_inurba_marseille","lat":43.30134,"lon":5.39869,"is_reserved":false,"is_disabled":false,"rental_uris":{"android":"levelo://app?vid=0f89cdb3-bbc9-47d7-83ea-d3b2dd056129","ios":"levelo://app?vid=0f89cdb3-bbc9-47d7-83ea-d3b2dd056129"},"vehicle_type_id":"4","last_reported":1731013663,"current_range_meters":38800,"station_id":"ce4bh0h2rcd13ifvqd40","pricing_plan_id":"cebpf4jnsgd1na2vs0mg"},{"bike_id":"236b5957-69df-4384-af69-db9ea71494dd","system_id":"levelo_inurba_marseille","lat":43.28104,"lon":5.37832,"is_reserved":false,"is_disabled":false,"rental_uris":{"android":"levelo://app?vid=236b5957-69df-4384-af69-db9ea71494dd","ios":"levelo://app?vid=236b5957-69df-4384-af69-db9ea71494dd"},"vehicle_type_id":"4","last_reported":1731013663,"current_range_meters":16800,"station_id":"ce4bha12rcd13ifvqee0","pricing_plan_id":"cebpf4jnsgd1na2vs0mg"},{"bike_id":"e2daa7b1-81cc-414a-bbfb-30c48b6e9247","system_id":"levelo_inurba_marseille","lat":43.278011,"lon":5.407106,"is_reserved":false,"is_disabled":false,"rental_uris":{"android":"levelo://app?vid=e2daa7b1-81cc-414a-bbfb-30c48b6e9247","ios":"levelo://app?vid=e2daa7b1-81cc-414a-bbfb-30c48b6e9247"},"vehicle_type_id":"4","last_reported":1731013663,"current_range_meters":30400,"station_id":"ce4bhnh2rcd13ifvqgtg","pricing_plan_id":"cebpf4jnsgd1na2vs0mg"},