{"last_updated":1741460832,"ttl":60,"version":"2.2","data":{"bikes":[{"bike_id":"0f637d6f-79f8-4f82-9beb-659c54ae18b4","system_id":"levelo_inurba_marseille","lat":43.26229,"lon":5.4046,"is_reserved":false,"is_disabled":false,"rental_uris":{"android":"levelo://app?vid=0f637d6f-79f8-4f82-9beb-659c54ae18b4","ios":"levelo://app?vid=0f637d6f-79f8-4f82-9beb-659c54ae18b4"},"vehicle_type_id":"4","last_reported":1741460832,"current_range_meters":2800,"station_id":"ce4bhmh2rcd13ifvqgmg","pricing_plan_id":"cebpf4jnsgd1na2vs0mg"},{"bike_id":"929f74c6-32c7-499e-8149-0c3f9a84eba6","system_id":"levelo_inurba_marseille","lat":43.27427,"lon":5.39409,"is_reserved":false,"is_disabled":false,"rental_uris":{"android":"levelo://app?vid=929f74c6-32c7-499e-8149-0c3f9a84eba6","ios":"levelo://app?vid=929f74c6-32c7-499e-8149-0c3f9a84eba6"},"vehicle_type_id":"4","last_reported":1741460832,"current_range_meters":2800,"station_id":"ce4bhdp2rcd13ifvqf20","pricing_plan_id":"cebpf4jnsgd1na2vs0mg"},{"bike_id":"25305dbe-974d-481a-8296-0926ee678627","system_id":"levelo_inurba_marseille","lat":43.24079,"lon":5.37757,"is_reserved":false,"is_disabled":false,"rental_uris":{"android":"levelo://app?vid=25305dbe-974d-481a-8296-0926ee678627","ios":"levelo://app?vid=25305dbe-974d-481a-8296-0926ee678627"},"vehicle_type_id":"4","last_reported":1741460832,"current_range_meters":2800,"station_id":"ce4bhnp2rcd13ifvqgvg","pricing_plan_id":"cebpf4jnsgd1na2vs0mg"},{"bike_id":"d9395f0b-f59e-438e-a2a7-b5eee31b0ba9","system_id":"levelo_inurba_marseille","lat":43.25017,"lon":5.38915,"is_reserved":false,"is_disabled":false,"rental_uris":{"android":"levelo://app?vid=d9395f0b-f59e-438e-a2a7-b5eee31b0ba9","ios":"levelo://app?vid=d9395f0b-f59e-438e-a2a7-b5eee31b0ba9"},"vehicle_type_id":"4","last_reported":1741460832,"current_range_meters":2800,"station_id":"ce4bhgp2rcd13ifvqfd0","pricing_plan_id":"cebpf4jnsgd1na2vs0mg"},{"bike_id":"daae548d-8aa9-4e8a-9811-1bbde31541e9","system_id":"levelo_inurba_marseille","lat":43.26804,"lon":5.40285,"is_reserved":false,"is_disabled":false,"rental_uris":{"android":"levelo://app?vid=daae548d-8aa9-4e8a-9811-1bbde31541e9","ios":"levelo://app?vid=daae548d-8aa9-4e8a-9811-1bbde31541e9"},"vehicle_type_id":"4","last_reported":1741460832,"current_range_meters":2800,"station_id":"ce501612rcd8frsf0b60","pricing_plan_id":"cebpf4jnsgd1na2vs0mg"},{"bike_id":"4c2dd2de-3435-41b1-8d8d-ff7dac806908","system_id":"levelo_inurba_marseille","lat":43.29532,"lon":5.38529,"is_reserved":false,"is_disabled":false,"rental_uris":{"android":"levelo://app?vid=4c2dd2de-3435-41b1-8d8d-ff7dac806908","ios":"levelo://app?vid=4c2dd2de-3435-41b1-8d8d-ff7dac806908"},"vehicle_type_id":"4","last_reported":1741460832,"current_range_meters":2800,"station_id":"ce4bgih2rcd13ifvqba0","pricing_plan_id":"cebpf4jnsgd1na2vs0mg"},{"bike_id":"605b43d3-d9ee-48bc-a8f6-393622b47687","system_id":"levelo_inurba_marseille","lat":43.27429,"lon":5.39414,"is_reserved":false,"is_disabled":false,"rental_uris":{"android":"levelo://app?vid=605b43d3-d9ee-48bc-a8f6-393622b47687","ios":"levelo://app?vid=605b43d3-d9ee-48bc-a8f6-393622b47687"},"vehicle_type_id":"4","last_reported":1741460832,"current_range_meters":2800,"station_id":"ce4bhdp2rcd13ifvqf20","pricing_plan_id":"cebpf4jnsgd1na2vs0mg"},{"bike_id":"53ba06d6-3b6c-4f49-bc80-8f7e1937ded3","system_id":"levelo_inurba_marseille","lat":43.27905,"lon":5.41244,"is_reserved":false,"is_disabled":false,"rental_uris":{"android":"levelo://app?vid=53ba06d6-3b6c-4f49-bc80-8f7e1937ded3","ios":"levelo://app?vid=53ba06d6-3b6c-4f49-bc80-8f7e1937ded3"},"vehicle_type_id":"4","last_reported":1741460832,"current_range_meters":2800,"station_id":"","pricing_plan_id":"cebpf4jnsgd1na2vs0mg"},{"bike_id":"2879cde9-ec6e-43f7-b2ce-9e0c8390be7d","system_id":"levelo_inurba_marseille","lat":43.31119,"lon":5.37772,"is_reserved":false,"is_disabled":false,"rental_uris":{"android":"levelo://app?vid=2879cde9-ec6e-43f7-b2ce-9e0c8390be7d","ios":"levelo://app?vid=2879cde9-ec6e-43f7-b2ce-9e0c8390be7d"},"vehicle_type_id":"4","last_reported":1741460832,"current_range_meters":3200,"station_id":"ce4bgt92rcd13ifvqcg0","pricing_plan_id":"cebpf4jnsgd1na2vs0mg"},{"bike_id":"5ddae395-b053-4a6b-9bb4-000d4957af9c","system_id":"levelo_inurba_marseille","lat":43.25726,"lon":5.4111,"is_reserved":false,"is_disabled":false,"rental_uris":{"android":"levelo://app?vid=5ddae395-b053-4a6b-9bb4-000d4957af9c","ios":"levelo://app?vid=5ddae395-b053-4a6b-9bb4-000d4957af9c"},"vehicle_type_id":"4","last_reported":1741460832,"current_range_meters":3200,"station_id":"ce4bhkp2rcd13ifvqgd0","pricing_plan_id":"cebpf4jnsgd1na2vs0mg"},{"bike_id":"388aeda0-7343-4b07-859e-dc7d3a8bef2c","system_id":"levelo_inurba_marseille","lat":43.3015,"lon":5.39862,"is_reserved":false,"is_disabled":false,"rental_uris":{"android":"levelo://app?vid=388aeda0-7343-4b07-859e-dc7d3a8bef2c","ios":"levelo://app?vid=388aeda0-7343-4b07-859e-dc7d3a8bef2c"},"vehicle_type_id":"4","last_reported":1741460832,"current_range_meters":3200,"station_id":"ce4bh0h2rcd13ifvqd40","pricing_plan_id":"cebpf4jnsgd1na2vs0mg"},{"bike_id":"c40c13ce-fdbb-4f52-b2d8-1005d4c9277b","system_id":"levelo_inurba_marseille","lat":43.25369,"lon":5.419,"is_reserved":false,"is_disabled":false,"rental_uris":{"android":"levelo://app?vid=c40c13ce-fdbb-4f52-b2d8-1005d4c9277b","ios":"levelo://app?vid=c40c13ce-fdbb-4f52-b2d8-1005d4c9277b"},"vehicle_type_id":"4","last_reported":1741460832,"current_range_meters":3200,"station_id":"","pricing_plan_id":"cebpf4jnsgd1na2vs0mg"},{"bike_id":"8d3d1b7e-b05f-48a7-bb51-f0669cab2c23","system_id":"levelo_inurba_marseille","lat":43.27815,"lon":5.40721,"is_reserved":false,"is_disabled":false,"rental_uris":{"android":"levelo://app?vid=8d3d1b7e-b05f-48a7-bb51-f0669cab2c23","ios":"levelo://app?vid=8d3d1b7e-b05f-48a7-bb51-f0669cab2c23"},"vehicle_type_id":"4","last_reported":1741460832,"current_range_meters":3200,"station_id":"ce4bhnh2rcd13ifvqgtg","pricing_plan_id":"cebpf4jnsgd1na2vs0mg"},{"bike_id":"4395a81e-c2ff-44f2-b12f-36df6bbd7e21","system_id":"levelo_inurba_marseille","lat":43.26813,"lon":5.39405,"is_reserved":false,"is_disabled":false,"rental_uris":{"android":"levelo://app?vid=4395a81e-c2ff-44f2-b12f-36df6bbd7e21","ios":"levelo://app?vid=4395a81e-c2ff-44f2-b12f-36df6bbd7e21"},"vehicle_type_id":"4","last_reported":1741460832,"current_range_meters":3200,"station_id":"ce4bhh12rcd13ifvqfg0","pricing_plan_id":"cebpf4jnsgd1na2vs0mg"},{"bike_id":"0f93cf53-391f-4ca4-9977-cc67a84df8fa","system_id":"levelo_inurba_marseille","lat":43.30882,"lon":5.39651,"is_reserved":false,"is_disabled":false,"rental_uris":{"android":"levelo://app?vid=0f93cf53-391f-4ca4-9977-cc67a84df8fa","ios":"levelo://app?vid=0f93cf53-391f-4ca4-9977-cc67a84df8fa"},"vehicle_type_id":"4","last_reported":1741460832,"current_range_meters":3200,"station_id":"ce4bh012rcd13ifvqcv0","pricing_plan_id":"cebpf4jnsgd1na2vs0mg"},{"bike_id":"b62ea986-8668-4c36-adca-39f402bff4b5","system_id":"levelo_inurba_marseille","lat":43.2769,"lon":5.38902,"is_reserved":false,"is_disabled":false,"rental_uris":{"android":"levelo://app?vid=b62ea986-8668-4c36-adca-39f402bff4b5","ios":"levelo://app?vid=b62ea986-8668-4c36-adca-39f402bff4b5"},"vehicle_type_id":"4","last_reported":1741460832,"current_range_meters":3200,"station_id":"ce4bhi12rcd13ifvqfo0","pricing_plan_id":"cebpf4jnsgd1na2vs0mg"},{"bike_id":"b0536440-bff7-4ed2-9670-ade85e1610d0","system_id":"levelo_inurba_marseille","lat":43.30213,"lon":5.39466,"is_reserved":false,"is_disabled":false,"rental_uris":{"android":"levelo://app?vid=b0536440-bff7-4ed2-9670-ade85e1610d0","ios":"levelo://app?vid=b0536440-bff7-4ed2-9670-ade85e1610d0"},"vehicle_type_id":"4","last_reported":1741460832,"current_range_meters":3200,"station_id":"ce4bh0p2rcd13ifvqd70","pricing_plan_id":"cebpf4jnsgd1na2vs0mg"},{"bike_id":"d0a76768-0bb0-4e00-b757-23fcfe57ff81","system_id":"levelo_inurba_marseille","lat":43.26923,"lon":5.38934,"is_reserved":false,"is_disabled":false,"rental_uris":{"android":"levelo://app?vid=d0a76768-0bb0-4e00-b757-23fcfe57ff81","ios":"levelo://app?vid=d0a76768-0bb0-4e00-b757-23fcfe57ff81"},"vehicle_type_id":"4","last_reported":1741460832,"current_range_meters":3200,"station_id":"ce4bhhh2rcd13ifvqfl0","pricing_plan_id":"cebpf4jnsgd1na2vs0mg"},{"bike_id":"247ca783-105e-4b58-8e3a-9ea15bf56917","system_id":"levelo_inurba_marseille","lat":43.30912,"lon":5.36847,"is_reserved":false,"is_disabled":false,"rental_uris":{"android":"levelo://app?vid=247ca783-105e-4b58-8e3a-9ea15bf56917","ios":"levelo://app?vid=247ca783-105e-4b58-8e3a-9ea15bf56917"},"vehicle_type_id":"4","last_reported":1741460832,"current_range_meters":3600,"station_id":"ce4bgn92rcd13ifvqbvg","pricing_plan_id":"cebpf4jnsgd1na2vs0mg"},{"bike_id":"a7fd6af6-c9ff-4416-b40d-fed955598cec","system_id":"levelo_inurba_marseille","lat":43.267483,"lon":5.397882,"is_reserved":false,"is_disabled":false,"rental_uris":{"android":"levelo://app?vid=a7fd6af6-c9ff-4416-b40d-fed955598cec","ios":"levelo://app?vid=a7fd6af6-c9ff-4416-b40d-fed955598cec"},"vehicle_type_id":"4","last_reported":1741460832,"current_range_meters":3600,"station_id":"ce4bhh12rcd13ifvqfg0","pricing_plan_id":"cebpf4jnsgd1na2vs0mg"},{"bike_id":"71b97289-d517-49a1-8c55-539e5a8554d3","system_id":"levelo_inurba_marseille","lat":43.26225,"lon":5.40445,"is_reserved":false,"is_disabled":false,"rental_uris":{"android":"levelo://app?vid=71b97289-d517-49a1-8c55-539e5a8554d3","ios":"levelo://app?vid=71b97289-d517-49a1-8c55-539e5a8554d3"},"vehicle_type_id":"4","last_reported":1741460832,"current_range_meters":3600,"station_id":"ce4bhmh2rcd13ifvqgmg","pricing_plan_id":"cebpf4jnsgd1na2vs0mg"},{"bike_id":"444f1027-4a3d-448b-9c66-01acd4dd14df","system_id":"levelo_inurba_marseille","lat":43.27974,"lon":5.3874,"is_reserved":false,"is_disabled":false,"rental_uris":{"android":"levelo://app?vid=444f1027-4a3d-448b-9c66-01acd4dd14df","ios":"levelo://app?vid=444f1027-4a3d-448b-9c66-01acd4dd14df"},"vehicle_type_id":"4","last_reported":1741460832,"current_range_meters":3600,"station_id":"ce4bhg12rcd13ifvqf80","pricing_plan_id":"cebpf4jnsgd1na2vs0mg"},{"bike_id":"8f60d7d0-7cdc-48b3-a763-4552a7d55ea3","system_id":"levelo_inurba_marseille","lat":43.2681,"lon":5.40273,"is_reserved":false,"is_disabled":false,"rental_uris":{"android":"levelo://app?vid=8f60d7d0-7cdc-48b3-a763-4552a7d55ea3","ios":"levelo://app?vid=8f60d7d0-7cdc-48b3-a763-4552a7d55ea3"},"vehicle_type_id":"4","last_reported":1741460832,"current_range_meters":3600,"station_id":"ce501612rcd8frsf0b60","pricing_plan_id":"cebpf4jnsgd1na2vs0mg"},{"bike_id":"1748c6f2-1033-4893-9c2c-4d522e870ca6","system_id":"levelo_inurba_marseille","lat":43.27688,"lon":5.38895,"is_reserved":false,"is_disabled":false,"rental_uris":{"android":"levelo://app?vid=1748c6f2-1033-4893-9c2c-4d522e870ca6","ios":"levelo://app?vid=1748c6f2-1033-4893-9c2c-4d522e870ca6"},"vehicle_type_id":"4","last_reported":1741460832,"current_range_meters":3600,"station_id":"ce4bhi12rcd13ifvqfo0","pricing_plan_id":"cebpf4jnsgd1na2vs0mg"},{"bike_id":"c989a96a-6e31-4ce3-9fe3-c9add618e27c","system_id":"levelo_inurba_marseille","lat":43.28509,"lon":5.39184,"is_reserved":false,"is_disabled":true,"rental_uris":{"android":"levelo://app?vid=c989a96a-6e31-4ce3-9fe3-c9add618e27c","ios":"levelo://app?vid=c989a96a-6e31-4ce3-9fe3-c9add618e27c"},"vehicle_type_id":"4","last_reported":1741460832,"current_range_meters":3600,"station_id":"ce4bhoh2rcd13ifvqh5g","pricing_plan_id":"cebpf4jnsgd1na2vs0mg"},{"bike_id":"3236490d-652a-45d8-9907-850a2660f1c7","system_id":"levelo_inurba_marseille","lat":43.29874,"lon":5.37659,"is_reserved":false,"is_disabled":false,"rental_uris":{"android":"levelo://app?vid=3236490d-652a-45d8-9907-850a2660f1c7","ios":"levelo://app?vid=3236490d-652a-45d8-9907-850a2660f1c7"},"vehicle_type_id":"4","last_reported":1741460832,"current_range_meters":3600,"station_id":"","pricing_plan_id":"cebpf4jnsgd1na2vs0mg"},{"bike_id":"89b9b55a-1392-498d-b8a5-8520a39c9a74","system_id":"levelo_inurba_marseille","lat":43.29261,"lon":5.40117,"is_reserved":false,"is_disabled":true,"rental_uris":{"android":"levelo://app?vid=89b9b55a-1392-498d-b8a5-8520a39c9a74","ios":"levelo://app?vid=89b9b55a-1392-498d-b8a5-8520a39c9a74"},"vehicle_type_id":"4","last_reported":1741460832,"current_range_meters":4000,"station_id":"ce4bh312rcd13ifvqdk0","pricing_plan_id":"cebpf4jnsgd1na2vs0mg"},{"bike_id":"2d333629-56c1-4152-9882-38fae1dcef18","system_id":"levelo_inurba_marseille","lat":43.29499,"lon":5.3905,"is_reserved":false,"is_disabled":false,"rental_uris":{"android":"levelo://app?vid=2d333629-56c1-4152-9882-38fae1dcef18","ios":"levelo://app?vid=2d333629-56c1-4152-9882-38fae1dcef18"},"vehicle_type_id":"4","last_reported":1741460832,"current_range_meters":4000,"station_id":"ce4bh3p2rcd13ifvqdp0","pricing_plan_id":"cebpf4jnsgd1na2vs0mg"},{"bike_id":"5ee1373b-0d5e-4b4f-b4ac-2c11b2ace620","system_id":"levelo_inurba_marseille","lat":43.29881,"lon":5.38906,"is_reserved":false,"is_disabled":false,"rental_uris":{"android":"levelo://app?vid=5ee1373b-0d5e-4b4f-b4ac-2c11b2ace620","ios":"levelo://app?vid=5ee1373b-0d5e-4b4f-b4ac-2c11b2ace620"},"vehicle_type_id":"4","last_reported":1741460832,"current_range_meters":4000,"station_id":"ce4bh392rcd13ifvqdl0","pricing_plan_id":"cebpf4jnsgd1na2vs0mg"},{"bike_id":"0f8ced4b-8898-4331-9edd-7dd3582bb18a","system_id":"levelo_inurba_marseille","lat":43.26943,"lon":5.40252,"is_reserved":false,"is_disabled":false,"rental_uris":{"android":"levelo://app?vid=0f8ced4b-8898-4331-9edd-7dd3582bb18a","ios":"levelo://app?vid=0f8ced4b-8898-4331-9edd-7dd3582bb18a"},"vehicle_type_id":"4","last_reported":1741460832,"current_range_meters":4000,"station_id":"cjm6bp8fraef2m0cb0m0","pricing_plan_id":"cebpf4jnsgd1na2vs0mg"},{"bike_id":"c3ace0f1-258a-473f-bbca-705d4d023f18","system_id":"levelo_inurba_marseille","lat":43.25727,"lon":5.41115,"is_reserved":false,"is_disabled":false,"rental_uris":{"android":"levelo://app?vid=c3ace0f1-258a-473f-bbca-705d4d023f18","ios":"levelo://app?vid=c3ace0f1-258a-473f-bbca-705d4d023f18"},"vehicle_type_id":"4","last_reported":1741460832,"current_range_meters":4000,"station_id":"ce4bhkp2rcd13ifvqgd0","pricing_plan_id":"cebpf4jnsgd1na2vs0mg"},{"bike_id":"04cac416-f980-4f10-a1db-76cb911255b8","system_id":"levelo_inurba_marseille","lat":43.323623,"lon":5.36756,"is_reserved":false,"is_disabled":false,"rental_uris":{"android":"levelo://app?vid=04cac416-f980-4f10-a1db-76cb911255b8","ios":"levelo://app?vid=04cac416-f980-4f10-a1db-76cb911255b8"},"vehicle_type_id":"4","last_reported":1741460832,"current_range_meters":4000,"station_id":"ce4bhsh2rcd13ifvqi2g","pricing_plan_id":"cebpf4jnsgd1na2vs0mg"},{"bike_id":"30af4b38-17f9-4eae-85ca-9d0045cd4d6d","system_id":"levelo_inurba_marseille","lat":43.25721,"lon":5.41097,"is_reserved":false,"is_disabled":false,"rental_uris":{"android":"levelo://app?vid=30af4b38-17f9-4eae-85ca-9d0045cd4d6d","ios":"levelo://app?vid=30af4b38-17f9-4eae-85ca-9d0045cd4d6d"},"vehicle_type_id":"4","last_reported":1741460832,"current_range_meters":4000,"station_id":"ce4bhkp2rcd13ifvqgd0","pricing_plan_id":"cebpf4jnsgd1na2vs0mg"},{"bike_id":"e2a0dfb6-de77-48ac-a121-9e8d5f8a97a8","system_id":"levelo_inurba_marseille","lat":43.29032,"lon":5.37564,"is_reserved":false,"is_disabled":false,"rental_uris":{"android":"levelo://app?vid=e2a0dfb6-de77-48ac-a121-9e8d5f8a97a8","ios":"levelo://app?vid=e2a0dfb6-de77-48ac-a121-9e8d5f8a97a8"},"vehicle_type_id":"4","last_reported":1741460832,"current_range_meters":4000,"station_id":"ce4bh692rcd13ifvqe90","pricing_plan_id":"cebpf4jnsgd1na2vs0mg"},{"bike_id":"7d295ec4-9c0e-4850-9c53-dd65645b97b2","system_id":"levelo_inurba_marseille","lat":43.2604,"lon":5.39366,"is_reserved":false,"is_disabled":false,"rental_uris":{"android":"levelo://app?vid=7d295ec4-9c0e-4850-9c53-dd65645b97b2","ios":"levelo://app?vid=7d295ec4-9c0e-4850-9c53-dd65645b97b2"},"vehicle_type_id":"4","last_reported":1741460832,"current_range_meters":4400,"station_id":"ce4bhh92rcd13ifvqfj0","pricing_plan_id":"cebpf4jnsgd1na2vs0mg"},{"bike_id":"4ed10b44-88a8-4dec-99db-545daad23c1c","system_id":"levelo_inurba_marseille","lat":43.23969,"lon":5.36628,"is_reserved":false,"is_disabled":false,"rental_uris":{"android":"levelo://app?vid=4ed10b44-88a8-4dec-99db-545daad23c1c","ios":"levelo://app?vid=4ed10b44-88a8-4dec-99db-545daad23c1c"},"vehicle_type_id":"4","last_reported":1741460832,"current_range_meters":4400,"station_id":"ce4bhi12rcd13ifvqfp0","pricing_plan_id":"cebpf4jnsgd1na2vs0mg"},{"bike_id":"ef841903-cdc0-4227-af7f-cb9f26dc3c9b","system_id":"levelo_inurba_marseille","lat":43.31422,"lon":5.39283,"is_reserved":false,"is_disabled":false,"rental_uris":{"android":"levelo://app?vid=ef841903-cdc0-4227-af7f-cb9f26dc3c9b","ios":"levelo://app?vid=ef841903-cdc0-4227-af7f-cb9f26dc3c9b"},"vehicle_type_id":"4","last_reported":1741460832,"current_range_meters":4400,"station_id":"","pricing_plan_id":"cebpf4jnsgd1na2vs0mg"},{"bike_id":"60aa7a7a-7665-4397-9ddc-1a9a8377a5ca","system_id":"levelo_inurba_marseille","lat":43.27822,"lon":5.40701,"is_reserved":false,"is_disabled":false,"rental_uris":{"android":"levelo://app?vid=60aa7a7a-7665-4397-9ddc-1a9a8377a5ca","ios":"levelo://app?vid=60aa7a7a-7665-4397-9ddc-1a9a8377a5ca"},"vehicle_type_id":"4","last_reported":1741460832,"current_range_meters":4400,"station_id":"ce4bhnh2rcd13ifvqgtg","pricing_plan_id":"cebpf4jnsgd1na2vs0mg"},{"bike_id":"774b895a-3ae0-4f14-ba61-fc1cce37423d","system_id":"levelo_inurba_marseille","lat":43.29292,"lon":5.37463,"is_reserved":false,"is_disabled":false,"rental_uris":{"android":"levelo://app?vid=774b895a-3ae0-4f14-ba61-fc1cce37423d","ios":"levelo://app?vid=774b895a-3ae0-4f14-ba61-fc1cce37423d"},"vehicle_type_id":"4","last_reported":1741460832,"current_range_meters":4400,"station_id":"ce4bgi12rcd13ifvqb70","pricing_plan_id":"cebpf4jnsgd1na2vs0mg"},{"bike_id":"6e5c1ec0-55c7-428f-ab14-fe8ef478e880","system_id":"levelo_inurba_marseille","lat":43.32082,"lon":5.40118,"is_reserved":false,"is_disabled":false,"rental_uris":{"android":"levelo://app?vid=6e5c1ec0-55c7-428f-ab14-fe8ef478e880","ios":"levelo://app?vid=6e5c1ec0-55c7-428f-ab14-fe8ef478e880"},"vehicle_type_id":"4","last_reported":1741460832,"current_range_meters":4400,"station_id":"","pricing_plan_id":"cebpf4jnsgd1na2vs0mg"},{"bike_id":"2e8f1325-a2a2-406f-a961-9045d1bc7761","system_id":"levelo_inurba_marseille","lat":43.30917,"lon":5.36844,"is_reserved":false,"is_disabled":false,"rental_uris":{"android":"levelo://app?vid=2e8f1325-a2a2-406f-a961-9045d1bc7761","ios":"levelo://app?vid=2e8f1325-a2a2-406f-a961-9045d1bc7761"},"vehicle_type_id":"4","last_reported":1741460832,"current_range_meters":4400,"station_id":"ce4bgn92rcd13ifvqbvg","pricing_plan_id":"cebpf4jnsgd1na2vs0mg"},{"bike_id":"66376fd2-0916-4852-b171-31027280571a","system_id":"levelo_inurba_marseille","lat":43.29766,"lon":5.37106,"is_reserved":false,"is_disabled":false,"rental_uris":{"android":"levelo://app?vid=66376fd2-0916-4852-b171-31027280571a","ios":"levelo://app?vid=66376fd2-0916-4852-b171-31027280571a"},"vehicle_type_id":"4","last_reported":1741460832,"current_range_meters":4400,"station_id":"ce4bgop2rcd13ifvqc1g","pricing_plan_id":"cebpf4jnsgd1na2vs0mg"},{"bike_id":"dd1c84ef-6515-40ee-a8aa-f7c8dabca8a5","system_id":"levelo_inurba_marseille","lat":43.306,"lon":5.37211,"is_reserved":false,"is_disabled":false,"rental_uris":{"android":"levelo://app?vid=dd1c84ef-6515-40ee-a8aa-f7c8dabca8a5","ios":"levelo://app?vid=dd1c84ef-6515-40ee-a8aa-f7c8dabca8a5"},"vehicle_type_id":"4","last_reported":1741460832,"current_range_meters":4400,"station_id":"ce4bgqh2rcd13ifvqc4g","pricing_plan_id":"cebpf4jnsgd1na2vs0mg"},{"bike_id":"52d1fa7e-c661-47b7-9f49-e469131dc27f","system_id":"levelo_inurba_marseille","lat":43.30034,"lon":5.38891,"is_reserved":false,"is_disabled":false,"rental_uris":{"android":"levelo://app?vid=52d1fa7e-c661-47b7-9f49-e469131dc27f","ios":"levelo://app?vid=52d1fa7e-c661-47b7-9f49-e469131dc27f"},"vehicle_type_id":"4","last_reported":1741460832,"current_range_meters":4800,"station_id":"ce4bh192rcd13ifvqdb0","pricing_plan_id":"cebpf4jnsgd1na2vs0mg"},{"bike_id":"19011e37-e4f4-45dc-8d9a-b444e97e2e96","system_id":"levelo_inurba_marseille","lat":43.27321,"lon":5.39088,"is_reserved":false,"is_disabled":false,"rental_uris":{"android":"levelo://app?vid=19011e37-e4f4-45dc-8d9a-b444e97e2e96","ios":"levelo://app?vid=19011e37-e4f4-45dc-8d9a-b444e97e2e96"},"vehicle_type_id":"4","last_reported":1741460832,"current_range_meters":4800,"station_id":"ce4bhgp2rcd13ifvqfe0","pricing_plan_id":"cebpf4jnsgd1na2vs0mg"},{"bike_id":"e3224017-8a88-4688-aa71-011a2e963be5","system_id":"levelo_inurba_marseille","lat":43.29611,"lon":5.38096,"is_reserved":false,"is_disabled":false,"rental_uris":{"android":"levelo://app?vid=e3224017-8a88-4688-aa71-011a2e963be5","ios":"levelo://app?vid=e3224017-8a88-4688-aa71-011a2e963be5"},"vehicle_type_id":"4","last_reported":1741460832,"current_range_meters":4800,"station_id":"ce4bgl12rcd13ifvqbo0","pricing_plan_id":"cebpf4jnsgd1na2vs0mg"},{"bike_id":"db361612-8186-4e1c-a8a1-a778740c3e27","system_id":"levelo_inurba_marseille","lat":43.26068,"lon":5.39395,"is_reserved":false,"is_disabled":false,"rental_uris":{"android":"levelo://app?vid=db361612-8186-4e1c-a8a1-a778740c3e27","ios":"levelo://app?vid=db361612-8186-4e1c-a8a1-a778740c3e27"},"vehicle_type_id":"4","last_reported":1741460832,"current_range_meters":4800,"station_id":"ce4bhh92rcd13ifvqfj0","pricing_plan_id":"cebpf4jnsgd1na2vs0mg"},{"bike_id":"7b9018c1-ce1f-45cf-b47b-06c4f7c7f8ac","system_id":"levelo_inurba_marseille","lat":43.23192,"lon":5.39975,"is_reserved":false,"is_disabled":false,"rental_uris":{"android":"levelo://app?vid=7b9018c1-ce1f-45cf-b47b-06c4f7c7f8ac","ios":"levelo://app?vid=7b9018c1-ce1f-45cf-b47b-06c4f7c7f8ac"},"vehicle_type_id":"4","last_reported":1741460832,"current_range_meters":4800,"station_id":"ce4bhn12rcd13ifvqgqg","pricing_plan_id":"cebpf4jnsgd1na2vs0mg"},{"bike_id":"140fdb18-08fb-49ca-bf93-a39bd2bbc7b4","system_id":"levelo_inurba_marseille","lat":43.30653,"lon":5.40096,"is_reserved":false,"is_disabled":false,"rental_uris":{"android":"levelo://app?vid=140fdb18-08fb-49ca-bf93-a39bd2bbc7b4","ios":"levelo://app?vid=140fdb18-08fb-49ca-bf93-a39bd2bbc7b4"},"vehicle_type_id":"4","last_reported":1741460832,"current_range_meters":4800,"station_id":"ce4bh112rcd13ifvqda0","pricing_plan_id":"cebpf4jnsgd1na2vs0mg"},{"bike_id":"a206b171-32a9-417b-9185-ce04849e4aca","system_id":"levelo_inurba_marseille","lat":43.30206,"lon":5.39471,"is_reserved":false,"is_disabled":false,"rental_uris":{"android":"levelo://app?vid=a206b171-32a9-417b-9185-ce04849e4aca","ios":"levelo://app?vid=a206b171-32a9-417b-9185-ce04849e4aca"},"vehicle_type_id":"4","last_reported":1741460832,"current_range_meters":4800,"station_id":"ce4bh0p2rcd13ifvqd70","pricing_plan_id":"cebpf4jnsgd1na2vs0mg"},{"bike_id":"6dc6a376-2d07-4693-8343-4e2c46120c7a","system_id":"levelo_inurba_marseille","lat":43.26792,"lon":5.39416,"is_reserved":false,"is_disabled":false,"rental_uris":{"android":"levelo://app?vid=6dc6a376-2d07-4693-8343-4e2c46120c7a","ios":"levelo://app?vid=6dc6a376-2d07-4693-8343-4e2c46120c7a"},"vehicle_type_id":"4","last_reported":1741460832,"current_range_meters":4800,"station_id":"ce4bhh12rcd13ifvqfg0","pricing_plan_id":"cebpf4jnsgd1na2vs0mg"},{"bike_id":"60e1fe0f-c1dd-449c-85d9-a3dd616d061a","system_id":"levelo_inurba_marseille","lat":43.23201,"lon":5.35557,"is_reserved":false,"is_disabled":false,"rental_uris":{"android":"levelo://app?vid=60e1fe0f-c1dd-449c-85d9-a3dd616d061a","ios":"levelo://app?vid=60e1fe0f-c1dd-449c-85d9-a3dd616d061a"},"vehicle_type_id":"4","last_reported":1741460832,"current_range_meters":5600,"station_id":"ce4bhu92rcd13ifvqi70","pricing_plan_id":"cebpf4jnsgd1na2vs0mg"},{"bike_id":"1eac0188-5fce-4be3-9261-134ba2709e69","system_id":"levelo_inurba_marseille","lat":43.30433,"lon":5.39747,"is_reserved":false,"is_disabled":false,"rental_uris":{"android":"levelo://app?vid=1eac0188-5fce-4be3-9261-134ba2709e69","ios":"levelo://app?vid=1eac0188-5fce-4be3-9261-134ba2709e69"},"vehicle_type_id":"4","last_reported":1741460832,"current_range_meters":5600,"station_id":"ce4bh092rcd13ifvqd20","pricing_plan_id":"cebpf4jnsgd1na2vs0mg"},{"bike_id":"9a60e1e8-63f7-404b-ae3b-040e6f3b24d4","system_id":"levelo_inurba_marseille","lat":43.27317,"lon":5.391,"is_reserved":false,"is_disabled":false,"rental_uris":{"android":"levelo://app?vid=9a60e1e8-63f7-404b-ae3b-040e6f3b24d4","ios":"levelo://app?vid=9a60e1e8-63f7-404b-ae3b-040e6f3b24d4"},"vehicle_type_id":"4","last_reported":1741460832,"current_range_meters":5600,"station_id":"ce4bhgp2rcd13ifvqfe0","pricing_plan_id":"cebpf4jnsgd1na2vs0mg"},{"bike_id":"9d47b0d3-4f69-44b5-a82d-a36a43637504","system_id":"levelo_inurba_marseille","lat":43.28673,"lon":5.38669,"is_reserved":false,"is_disabled":false,"rental_uris":{"android":"levelo://app?vid=9d47b0d3-4f69-44b5-a82d-a36a43637504","ios":"levelo://app?vid=9d47b0d3-4f69-44b5-a82d-a36a43637504"},"vehicle_type_id":"4","last_reported":1741460832,"current_range_meters":5600,"station_id":"ce4bh492rcd13ifvqdug","pricing_plan_id":"cebpf4jnsgd1na2vs0mg"},{"bike_id":"b669e817-ef32-4039-ab16-43717d73cf7c","system_id":"levelo_inurba_marseille","lat":43.29419,"lon":5.38635,"is_reserved":false,"is_disabled":false,"rental_uris":{"android":"levelo://app?vid=b669e817-ef32-4039-ab16-43717d73cf7c","ios":"levelo://app?vid=b669e817-ef32-4039-ab16-43717d73cf7c"},"vehicle_type_id":"4","last_reported":1741460832,"current_range_meters":5600,"station_id":"ce4bh2h2rcd13ifvqdh0","pricing_plan_id":"cebpf4jnsgd1na2vs0mg"},{"bike_id":"6c36b7de-2a96-4f9e-8440-7e18a6772d38","system_id":"levelo_inurba_marseille","lat":43.27812,"lon":5.40713,"is_reserved":false,"is_disabled":false,"rental_uris":{"android":"levelo://app?vid=6c36b7de-2a96-4f9e-8440-7e18a6772d38","ios":"levelo://app?vid=6c36b7de-2a96-4f9e-8440-7e18a6772d38"},"vehicle_type_id":"4","last_reported":1741460832,"current_range_meters":5600,"station_id":"ce4bhnh2rcd13ifvqgtg","pricing_plan_id":"cebpf4jnsgd1na2vs0mg"},{"bike_id":"36918ee5-1ab7-4df8-96db-60d75df271ea","system_id":"levelo_inurba_marseille","lat":43.27928,"lon":5.3958,"is_reserved":false,"is_disabled":false,"rental_uris":{"android":"levelo://app?vid=36918ee5-1ab7-4df8-96db-60d75df271ea","ios":"levelo://app?vid=36918ee5-1ab7-4df8-96db-60d75df271ea"},"vehicle_type_id":"4","last_reported":1741460832,"current_range_meters":5600,"station_id":"ce4bhf92rcd13ifvqf40","pricing_plan_id":"cebpf4jnsgd1na2vs0mg"},{"bike_id":"6b937baf-8fc2-4105-ab81-d2e048a9a93c","system_id":"levelo_inurba_marseille","lat":43.29415,"lon":5.38615,"is_reserved":false,"is_disabled":false,"rental_uris":{"android":"levelo://app?vid=6b937baf-8fc2-4105-ab81-d2e048a9a93c","ios":"levelo://app?vid=6b937baf-8fc2-4105-ab81-d2e048a9a93c"},"vehicle_type_id":"4","last_reported":1741460832,"current_range_meters":5600,"station_id":"ce4bh2h2rcd13ifvqdh0","pricing_plan_id":"cebpf4jnsgd1na2vs0mg"},{"bike_id":"f726e063-372d-4b40-aa54-8085e22568dc","system_id":"levelo_inurba_marseille","lat":43.30938,"lon":5.40144,"is_reserved":false,"is_disabled":false,"rental_uris":{"android":"levelo://app?vid=f726e063-372d-4b40-aa54-8085e22568dc","ios":"levelo://app?vid=f726e063-372d-4b40-aa54-8085e22568dc"},"vehicle_type_id":"4","last_reported":1741460832,"current_range_meters":5600,"station_id":"ce4bgvp2rcd13ifvqct0","pricing_plan_id":"cebpf4jnsgd1na2vs0mg"},{"bike_id":"5d4e4574-6498-4372-afcd-f02df8652fd1","system_id":"levelo_inurba_marseille","lat":43.25722,"lon":5.411066,"is_reserved":false,"is_disabled":false,"rental_uris":{"android":"levelo://app?vid=5d4e4574-6498-4372-afcd-f02df8652fd1","ios":"levelo://app?vid=5d4e4574-6498-4372-afcd-f02df8652fd1"},"vehicle_type_id":"4","last_reported":1741460832,"current_range_meters":5600,"station_id":"ce4bhkp2rcd13ifvqgd0","pricing_plan_id":"cebpf4jnsgd1na2vs0mg"},{"bike_id":"6dfc0e33-74d7-4d06-b6c9-c996b6877cad","system_id":"levelo_inurba_marseille","lat":43.29252,"lon":5.38452,"is_reserved":false,"is_disabled":false,"rental_uris":{"android":"levelo://app?vid=6dfc0e33-74d7-4d06-b6c9-c996b6877cad","ios":"levelo://app?vid=6dfc0e33-74d7-4d06-b6c9-c996b6877cad"},"vehicle_type_id":"4","last_reported":1741460832,"current_range_meters":6000,"station_id":"ce4bh692rcd13ifvqea0","pricing_plan_id":"cebpf4jnsgd1na2vs0mg"},{"bike_id":"8310cde6-c1e7-4f34-9185-55193707cf9d","system_id":"levelo_inurba_marseille","lat":43.27825,"lon":5.40701,"is_reserved":false,"is_disabled":false,"rental_uris":{"android":"levelo://app?vid=8310cde6-c1e7-4f34-9185-55193707cf9d","ios":"levelo://app?vid=8310cde6-c1e7-4f34-9185-55193707cf9d"},"vehicle_type_id":"4","last_reported":1741460832,"current_range_meters":6000,"station_id":"ce4bhnh2rcd13ifvqgtg","pricing_plan_id":"cebpf4jnsgd1na2vs0mg"},{"bike_id":"b6d4299b-4fdb-4612-927d-2e81bbe91b45","system_id":"levelo_inurba_marseille","lat":43.32107,"lon":5.36798,"is_reserved":false,"is_disabled":false,"rental_uris":{"android":"levelo://app?vid=b6d4299b-4fdb-4612-927d-2e81bbe91b45","ios":"levelo://app?vid=b6d4299b-4fdb-4612-927d-2e81bbe91b45"},"vehicle_type_id":"4","last_reported":1741460832,"current_range_meters":4400,"station_id":"ce4bhrh2rcd13ifvqhug","pricing_plan_id":"cebpf4jnsgd1na2vs0mg"},{"bike_id":"2279e2ee-051e-40ba-b0f4-efde21e23b42","system_id":"levelo_inurba_marseille","lat":43.295245,"lon":5.39034,"is_reserved":false,"is_disabled":false,"rental_uris":{"android":"levelo://app?vid=2279e2ee-051e-40ba-b0f4-efde21e23b42","ios":"levelo://app?vid=2279e2ee-051e-40ba-b0f4-efde21e23b42"},"vehicle_type_id":"4","last_reported":1741460832,"current_range_meters":6000,"station_id":"ce4bh3p2rcd13ifvqdp0","pricing_plan_id":"cebpf4jnsgd1na2vs0mg"},{"bike_id":"90b8db64-bbd7-44bb-b7ee-15ff858ae528","system_id":"levelo_inurba_marseille","lat":43.2765,"lon":5.39909,"is_reserved":false,"is_disabled":false,"rental_uris":{"android":"levelo://app?vid=90b8db64-bbd7-44bb-b7ee-15ff858ae528","ios":"levelo://app?vid=90b8db64-bbd7-44bb-b7ee-15ff858ae528"},"vehicle_type_id":"4","last_reported":1741460832,"current_range_meters":6000,"station_id":"","pricing_plan_id":"cebpf4jnsgd1na2vs0mg"},{"bike_id":"28948f8c-5b28-44c2-a925-218e5098d46f","system_id":"levelo_inurba_marseille","lat":43.30149,"lon":5.37409,"is_reserved":false,"is_disabled":false,"rental_uris":{"android":"levelo://app?vid=28948f8c-5b28-44c2-a925-218e5098d46f","ios":"levelo://app?vid=28948f8c-5b28-44c2-a925-218e5098d46f"},"vehicle_type_id":"4","last_reported":1741460832,"current_range_meters":6000,"station_id":"ce4bgs92rcd13ifvqcc0","pricing_plan_id":"cebpf4jnsgd1na2vs0mg"},{"bike_id":"4e383679-03a9-49d4-883a-2942dc8469b4","system_id":"levelo_inurba_marseille","lat":43.29581,"lon":5.37518,"is_reserved":false,"is_disabled":false,"rental_uris":{"android":"levelo://app?vid=4e383679-03a9-49d4-883a-2942dc8469b4","ios":"levelo://app?vid=4e383679-03a9-49d4-883a-2942dc8469b4"},"vehicle_type_id":"4","last_reported":1741460832,"current_range_meters":6400,"station_id":"ce4bgh92rcd13ifvqb50","pricing_plan_id":"cebpf4jnsgd1na2vs0mg"},{"bike_id":"ba3590f9-aac8-4360-8d28-af5845d87b27","system_id":"levelo_inurba_marseille","lat":43.30936,"lon":5.40156,"is_reserved":false,"is_disabled":false,"rental_uris":{"android":"levelo://app?vid=ba3590f9-aac8-4360-8d28-af5845d87b27","ios":"levelo://app?vid=ba3590f9-aac8-4360-8d28-af5845d87b27"},"vehicle_type_id":"4","last_reported":1741460832,"current_range_meters":6000,"station_id":"ce4bgvp2rcd13ifvqct0","pricing_plan_id":"cebpf4jnsgd1na2vs0mg"},{"bike_id":"6dd79254-ce3c-4b61-b59d-3a7c16a14014","system_id":"levelo_inurba_marseille","lat":43.28,"lon":5.40017,"is_reserved":false,"is_disabled":false,"rental_uris":{"android":"levelo://app?vid=6dd79254-ce3c-4b61-b59d-3a7c16a14014","ios":"levelo://app?vid=6dd79254-ce3c-4b61-b59d-3a7c16a14014"},"vehicle_type_id":"4","last_reported":1741460832,"current_range_meters":6400,"station_id":"ce4bho92rcd13ifvqh4g","pricing_plan_id":"cebpf4jnsgd1na2vs0mg"},{"bike_id":"e5c2f9a0-d065-4e10-9bff-a9a02c7dbc80","system_id":"levelo_inurba_marseille","lat":43.29894,"lon":5.43666,"is_reserved":false,"is_disabled":false,"rental_uris":{"android":"levelo://app?vid=e5c2f9a0-d065-4e10-9bff-a9a02c7dbc80","ios":"levelo://app?vid=e5c2f9a0-d065-4e10-9bff-a9a02c7dbc80"},"vehicle_type_id":"4","last_reported":1741460832,"current_range_meters":6400,"station_id":"ce4bhpp2rcd13ifvqhfg","pricing_plan_id":"cebpf4jnsgd1na2vs0mg"},{"bike_id":"dc6c7740-c717-4975-ba3c-fb09bec6f176","system_id":"levelo_inurba_marseille","lat":43.301,"lon":5.39075,"is_reserved":false,"is_disabled":false,"rental_uris":{"android":"levelo://app?vid=dc6c7740-c717-4975-ba3c-fb09bec6f176","ios":"levelo://app?vid=dc6c7740-c717-4975-ba3c-fb09bec6f176"},"vehicle_type_id":"4","last_reported":1741460832,"current_range_meters":6400,"station_id":"ce4bh192rcd13ifvqdb0","pricing_plan_id":"cebpf4jnsgd1na2vs0mg"},{"bike_id":"11baeae5-2ab4-4b58-b44e-32e3ee1cb5ce","system_id":"levelo_inurba_marseille","lat":43.28725,"lon":5.37936,"is_reserved":false,"is_disabled":false,"rental_uris":{"android":"levelo://app?vid=11baeae5-2ab4-4b58-b44e-32e3ee1cb5ce","ios":"levelo://app?vid=11baeae5-2ab4-4b58-b44e-32e3ee1cb5ce"},"vehicle_type_id":"4","last_reported":1741460832,"current_range_meters":6400,"station_id":"ce4bh9p2rcd13ifvqec0","pricing_plan_id":"cebpf4jnsgd1na2vs0mg"},{"bike_id":"bcdda9c5-2f8a-4c6c-90ee-df85e5e8a862","system_id":"levelo_inurba_marseille","lat":43.299607,"lon":5.384833,"is_reserved":false,"is_disabled":false,"rental_uris":{"android":"levelo://app?vid=bcdda9c5-2f8a-4c6c-90ee-df85e5e8a862","ios":"levelo://app?vid=bcdda9c5-2f8a-4c6c-90ee-df85e5e8a862"},"vehicle_type_id":"4","last_reported":1741460832,"current_range_meters":6000,"station_id":"ce4bh512rcd13ifvqe2g","pricing_plan_id":"cebpf4jnsgd1na2vs0mg"},{"bike_id":"e2c09260-44ec-42f6-b44b-67a49a32e6a8","system_id":"levelo_inurba_marseille","lat":43.25007,"lon":5.38922,"is_reserved":false,"is_disabled":false,"rental_uris":{"android":"levelo://app?vid=e2c09260-44ec-42f6-b44b-67a49a32e6a8","ios":"levelo://app?vid=e2c09260-44ec-42f6-b44b-67a49a32e6a8"},"vehicle_type_id":"4","last_reported":1741460832,"current_range_meters":6400,"station_id":"ce4bhgp2rcd13ifvqfd0","pricing_plan_id":"cebpf4jnsgd1na2vs0mg"},{"bike_id":"886cd959-3e51-4c8e-a86b-37636f423ca5","system_id":"levelo_inurba_marseille","lat":43.30302,"lon":5.39213,"is_reserved":false,"is_disabled":false,"rental_uris":{"android":"levelo://app?vid=886cd959-3e51-4c8e-a86b-37636f423ca5","ios":"levelo://app?vid=886cd959-3e51-4c8e-a86b-37636f423ca5"},"vehicle_type_id":"4","last_reported":1741460832,"current_range_meters":6400,"station_id":"ce4bgkh2rcd13ifvqbk0","pricing_plan_id":"cebpf4jnsgd1na2vs0mg"},{"bike_id":"abfef553-177d-4a18-8c6b-22c4ea0c85dc","system_id":"levelo_inurba_marseille","lat":43.29208,"lon":5.39316,"is_reserved":false,"is_disabled":false,"rental_uris":{"android":"levelo://app?vid=abfef553-177d-4a18-8c6b-22c4ea0c85dc","ios":"levelo://app?vid=abfef553-177d-4a18-8c6b-22c4ea0c85dc"},"vehicle_type_id":"4","last_reported":1741460832,"current_range_meters":6400,"station_id":"ce4bh192rcd13ifvqdd0","pricing_plan_id":"cebpf4jnsgd1na2vs0mg"},{"bike_id":"c376f348-26f0-4200-9c2f-feb3bc15e9b2","system_id":"levelo_inurba_marseille","lat":43.27944,"lon":5.41044,"is_reserved":false,"is_disabled":false,"rental_uris":{"android":"levelo://app?vid=c376f348-26f0-4200-9c2f-feb3bc15e9b2","ios":"levelo://app?vid=c376f348-26f0-4200-9c2f-feb3bc15e9b2"},"vehicle_type_id":"4","last_reported":1741460832,"current_range_meters":6400,"station_id":"ce4bhnp2rcd13ifvqh0g","pricing_plan_id":"cebpf4jnsgd1na2vs0mg"},{"bike_id":"c8460655-34ac-40a9-907d-70a13013ba6d","system_id":"levelo_inurba_marseille","lat":43.30599,"lon":5.3723,"is_reserved":false,"is_disabled":false,"rental_uris":{"android":"levelo://app?vid=c8460655-34ac-40a9-907d-70a13013ba6d","ios":"levelo://app?vid=c8460655-34ac-40a9-907d-70a13013ba6d"},"vehicle_type_id":"4","last_reported":1741460832,"current_range_meters":6400,"station_id":"ce4bgqh2rcd13ifvqc4g","pricing_plan_id":"cebpf4jnsgd1na2vs0mg"},{"bike_id":"f7dd592a-e81c-42eb-8709-efa02de12f9f","system_id":"levelo_inurba_marseille","lat":43.27213,"lon":5.39174,"is_reserved":false,"is_disabled":false,"rental_uris":{"android":"levelo://app?vid=f7dd592a-e81c-42eb-8709-efa02de12f9f","ios":"levelo://app?vid=f7dd592a-e81c-42eb-8709-efa02de12f9f"},"vehicle_type_id":"4","last_reported":1741460832,"current_range_meters":6400,"station_id":"ce4bhhp2rcd13ifvqfm0","pricing_plan_id":"cebpf4jnsgd1na2vs0mg"},{"bike_id":"a97779ef-58e6-4110-bd62-9e9a676d75bc","system_id":"levelo_inurba_marseille","lat":43.292585,"lon":5.38451,"is_reserved":false,"is_disabled":false,"rental_uris":{"android":"levelo://app?vid=a97779ef-58e6-4110-bd62-9e9a676d75bc","ios":"levelo://app?vid=a97779ef-58e6-4110-bd62-9e9a676d75bc"},"vehicle_type_id":"4","last_reported":1741460832,"current_range_meters":6400,"station_id":"ce4bh692rcd13ifvqea0","pricing_plan_id":"cebpf4jnsgd1na2vs0mg"},{"bike_id":"27305ad5-3fc8-47a3-9c3d-1a17f119d9fa","system_id":"levelo_inurba_marseille","lat":43.2509,"lon":5.39518,"is_reserved":false,"is_disabled":false,"rental_uris":{"android":"levelo://app?vid=27305ad5-3fc8-47a3-9c3d-1a17f119d9fa","ios":"levelo://app?vid=27305ad5-3fc8-47a3-9c3d-1a17f119d9fa"},"vehicle_type_id":"4","last_reported":1741460832,"current_range_meters":6800,"station_id":"ce4bhm12rcd13ifvqgkg","pricing_plan_id":"cebpf4jnsgd1na2vs0mg"},{"bike_id":"445f5ccc-731a-484d-b373-ff618ed50dbb","system_id":"levelo_inurba_marseille","lat":43.269897,"lon":5.386732,"is_reserved":false,"is_disabled":false,"rental_uris":{"android":"levelo://app?vid=445f5ccc-731a-484d-b373-ff618ed50dbb","ios":"levelo://app?vid=445f5ccc-731a-484d-b373-ff618ed50dbb"},"vehicle_type_id":"4","last_reported":1741460832,"current_range_meters":6800,"station_id":"ce4bhh92rcd13ifvqfh0","pricing_plan_id":"cebpf4jnsgd1na2vs0mg"},{"bike_id":"e319fdb7-8ee3-4582-843c-5078956813a9","system_id":"levelo_inurba_marseille","lat":43.31499,"lon":5.37318,"is_reserved":false,"is_disabled":false,"rental_uris":{"android":"levelo://app?vid=e319fdb7-8ee3-4582-843c-5078956813a9","ios":"levelo://app?vid=e319fdb7-8ee3-4582-843c-5078956813a9"},"vehicle_type_id":"4","last_reported":1741460832,"current_range_meters":6800,"station_id":"ce4bgt12rcd13ifvqcd0","pricing_plan_id":"cebpf4jnsgd1na2vs0mg"},{"bike_id":"ae353e94-7e4c-4b6b-9baa-27cbf5d6202d","system_id":"levelo_inurba_marseille","lat":43.29263,"lon":5.38437,"is_reserved":false,"is_disabled":false,"rental_uris":{"android":"levelo://app?vid=ae353e94-7e4c-4b6b-9baa-27cbf5d6202d","ios":"levelo://app?vid=ae353e94-7e4c-4b6b-9baa-27cbf5d6202d"},"vehicle_type_id":"4","last_reported":1741460832,"current_range_meters":6800,"station_id":"ce4bh692rcd13ifvqea0","pricing_plan_id":"cebpf4jnsgd1na2vs0mg"},{"bike_id":"ff69b590-8439-4948-a50c-f9b899fda469","system_id":"levelo_inurba_marseille","lat":43.23963,"lon":5.36629,"is_reserved":false,"is_disabled":false,"rental_uris":{"android":"levelo://app?vid=ff69b590-8439-4948-a50c-f9b899fda469","ios":"levelo://app?vid=ff69b590-8439-4948-a50c-f9b899fda469"},"vehicle_type_id":"4","last_reported":1741460832,"current_range_meters":6800,"station_id":"ce4bhi12rcd13ifvqfp0","pricing_plan_id":"cebpf4jnsgd1na2vs0mg"},{"bike_id":"45e74ffc-2cca-4755-99a2-a317bcba5976","system_id":"levelo_inurba_marseille","lat":43.25011,"lon":5.38915,"is_reserved":false,"is_disabled":false,"rental_uris":{"android":"levelo://app?vid=45e74ffc-2cca-4755-99a2-a317bcba5976","ios":"levelo://app?vid=45e74ffc-2cca-4755-99a2-a317bcba5976"},"vehicle_type_id":"4","last_reported":1741460832,"current_range_meters":6800,"station_id":"ce4bhgp2rcd13ifvqfd0","pricing_plan_id":"cebpf4jnsgd1na2vs0mg"},{"bike_id":"04f01095-728f-4b5d-bfff-096539c368f8","system_id":"levelo_inurba_marseille","lat":43.32661,"lon":5.40994,"is_reserved":false,"is_disabled":false,"rental_uris":{"android":"levelo://app?vid=04f01095-728f-4b5d-bfff-096539c368f8","ios":"levelo://app?vid=04f01095-728f-4b5d-bfff-096539c368f8"},"vehicle_type_id":"4","last_reported":1741460832,"current_range_meters":7200,"station_id":"ce4bhpp2rcd13ifvqhgg","pricing_plan_id":"cebpf4jnsgd1na2vs0mg"},{"bike_id":"2b4cafcb-1a4e-43d9-b5e9-e6d1181d4d42","system_id":"levelo_inurba_marseille","lat":43.24811,"lon":5.37459,"is_reserved":false,"is_disabled":false,"rental_uris":{"android":"levelo://app?vid=2b4cafcb-1a4e-43d9-b5e9-e6d1181d4d42","ios":"levelo://app?vid=2b4cafcb-1a4e-43d9-b5e9-e6d1181d4d42"},"vehicle_type_id":"4","last_reported":1741460832,"current_range_meters":7200,"station_id":"ce4bhgh2rcd13ifvqfb0","pricing_plan_id":"cebpf4jnsgd1na2vs0mg"},{"bike_id":"6e2925bf-8875-4fff-a415-293325b374e2","system_id":"levelo_inurba_marseille","lat":43.29417,"lon":5.3863,"is_reserved":false,"is_disabled":false,"rental_uris":{"android":"levelo://app?vid=6e2925bf-8875-4fff-a415-293325b374e2","ios":"levelo://app?vid=6e2925bf-8875-4fff-a415-293325b374e2"},"vehicle_type_id":"4","last_reported":1741460832,"current_range_meters":7200,"station_id":"ce4bh2h2rcd13ifvqdh0","pricing_plan_id":"cebpf4jnsgd1na2vs0mg"},{"bike_id":"60fba7df-4520-4d63-9c5b-9a7a002cedfb","system_id":"levelo_inurba_marseille","lat":43.28043,"lon":5.3913,"is_reserved":false,"is_disabled":false,"rental_uris":{"android":"levelo://app?vid=60fba7df-4520-4d63-9c5b-9a7a002cedfb","ios":"levelo://app?vid=60fba7df-4520-4d63-9c5b-9a7a002cedfb"},"vehicle_type_id":"4","last_reported":1741460832,"current_range_meters":7200,"station_id":"","pricing_plan_id":"cebpf4jnsgd1na2vs0mg"},{"bike_id":"e73fb96e-0764-498c-88ac-adb20e0dd955","system_id":"levelo_inurba_marseille","lat":43.26053,"lon":5.39396,"is_reserved":false,"is_disabled":false,"rental_uris":{"android":"levelo://app?vid=e73fb96e-0764-498c-88ac-adb20e0dd955","ios":"levelo://app?vid=e73fb96e-0764-498c-88ac-adb20e0dd955"},"vehicle_type_id":"4","last_reported":1741460832,"current_range_meters":7200,"station_id":"ce4bhh92rcd13ifvqfj0","pricing_plan_id":"cebpf4jnsgd1na2vs0mg"},{"bike_id":"5288f7d5-930d-45a8-bab2-bb08912ffd7d","system_id":"levelo_inurba_marseille","lat":43.26958,"lon":5.3863,"is_reserved":false,"is_disabled":false,"rental_uris":{"android":"levelo://app?vid=5288f7d5-930d-45a8-bab2-bb08912ffd7d","ios":"levelo://app?vid=5288f7d5-930d-45a8-bab2-bb08912ffd7d"},"vehicle_type_id":"4","last_reported":1741460832,"current_range_meters":7200,"station_id":"ce4bhh92rcd13ifvqfh0","pricing_plan_id":"cebpf4jnsgd1na2vs0mg"},{"bike_id":"24b53cf3-dec6-4be7-9d68-c6045db11a62","system_id":"levelo_inurba_marseille","lat":43.298788,"lon":5.397443,"is_reserved":false,"is_disabled":false,"rental_uris":{"android":"levelo://app?vid=24b53cf3-dec6-4be7-9d68-c6045db11a62","ios":"levelo://app?vid=24b53cf3-dec6-4be7-9d68-c6045db11a62"},"vehicle_type_id":"4","last_reported":1741460832,"current_range_meters":7200,"station_id":"ce4bh0h2rcd13ifvqd50","pricing_plan_id":"cebpf4jnsgd1na2vs0mg"},{"bike_id":"c2d7cf82-a65b-4810-b14b-84214f9badfe","system_id":"levelo_inurba_marseille","lat":43.29031,"lon":5.37574,"is_reserved":false,"is_disabled":false,"rental_uris":{"android":"levelo://app?vid=c2d7cf82-a65b-4810-b14b-84214f9badfe","ios":"levelo://app?vid=c2d7cf82-a65b-4810-b14b-84214f9badfe"},"vehicle_type_id":"4","last_reported":1741460832,"current_range_meters":8000,"station_id":"ce4bh692rcd13ifvqe90","pricing_plan_id":"cebpf4jnsgd1na2vs0mg"},{"bike_id":"07ff8967-2edc-4b77-b35f-831549c5f375","system_id":"levelo_inurba_marseille","lat":43.32048,"lon":5.41542,"is_reserved":false,"is_disabled":false,"rental_uris":{"android":"levelo://app?vid=07ff8967-2edc-4b77-b35f-831549c5f375","ios":"levelo://app?vid=07ff8967-2edc-4b77-b35f-831549c5f375"},"vehicle_type_id":"4","last_reported":1741460832,"current_range_meters":7200,"station_id":"ce4bhq92rcd13ifvqhkg","pricing_plan_id":"cebpf4jnsgd1na2vs0mg"},{"bike_id":"7b62c62b-d961-49e1-afe1-b0b21a291801","system_id":"levelo_inurba_marseille","lat":43.27875,"lon":5.41746,"is_reserved":false,"is_disabled":false,"rental_uris":{"android":"levelo://app?vid=7b62c62b-d961-49e1-afe1-b0b21a291801","ios":"levelo://app?vid=7b62c62b-d961-49e1-afe1-b0b21a291801"},"vehicle_type_id":"4","last_reported":1741460832,"current_range_meters":8000,"station_id":"","pricing_plan_id":"cebpf4jnsgd1na2vs0mg"},{"bike_id":"4c614ad4-749d-4071-8bfd-9a0872a5ea8c","system_id":"levelo_inurba_marseille","lat":43.30183,"lon":5.39495,"is_reserved":false,"is_disabled":false,"rental_uris":{"android":"levelo://app?vid=4c614ad4-749d-4071-8bfd-9a0872a5ea8c","ios":"levelo://app?vid=4c614ad4-749d-4071-8bfd-9a0872a5ea8c"},"vehicle_type_id":"4","last_reported":1741460832,"current_range_meters":8000,"station_id":"ce4bh0p2rcd13ifvqd70","pricing_plan_id":"cebpf4jnsgd1na2vs0mg"},{"bike_id":"9effefb9-02e3-4c25-ab75-e3a5ac01515f","system_id":"levelo_inurba_marseille","lat":43.26548,"lon":5.37292,"is_reserved":false,"is_disabled":true,"rental_uris":{"android":"levelo://app?vid=9effefb9-02e3-4c25-ab75-e3a5ac01515f","ios":"levelo://app?vid=9effefb9-02e3-4c25-ab75-e3a5ac01515f"},"vehicle_type_id":"4","last_reported":1741460832,"current_range_meters":8000,"station_id":"ce4bhg12rcd13ifvqf70","pricing_plan_id":"cebpf4jnsgd1na2vs0mg"},{"bike_id":"3b7138a1-4cf4-4373-af08-db36dd25fd4e","system_id":"levelo_inurba_marseille","lat":43.3031,"lon":5.39207,"is_reserved":false,"is_disabled":false,"rental_uris":{"android":"levelo://app?vid=3b7138a1-4cf4-4373-af08-db36dd25fd4e","ios":"levelo://app?vid=3b7138a1-4cf4-4373-af08-db36dd25fd4e"},"vehicle_type_id":"4","last_reported":1741460832,"current_range_meters":8000,"station_id":"ce4bgkh2rcd13ifvqbk0","pricing_plan_id":"cebpf4jnsgd1na2vs0mg"},{"bike_id":"42aedb88-473c-4518-8d54-dc991a6234b1","system_id":"levelo_inurba_marseille","lat":43.27826,"lon":5.40696,"is_reserved":false,"is_disabled":false,"rental_uris":{"android":"levelo://app?vid=42aedb88-473c-4518-8d54-dc991a6234b1","ios":"levelo://app?vid=42aedb88-473c-4518-8d54-dc991a6234b1"},"vehicle_type_id":"4","last_reported":1741460832,"current_range_meters":8000,"station_id":"ce4bhnh2rcd13ifvqgtg","pricing_plan_id":"cebpf4jnsgd1na2vs0mg"},{"bike_id":"f4fef931-b4a2-4ebe-bec3-6b00147f7cb2","system_id":"levelo_inurba_marseille","lat":43.27324,"lon":5.3909,"is_reserved":false,"is_disabled":false,"rental_uris":{"android":"levelo://app?vid=f4fef931-b4a2-4ebe-bec3-6b00147f7cb2","ios":"levelo://app?vid=f4fef931-b4a2-4ebe-bec3-6b00147f7cb2"},"vehicle_type_id":"4","last_reported":1741460832,"current_range_meters":8000,"station_id":"ce4bhgp2rcd13ifvqfe0","pricing_plan_id":"cebpf4jnsgd1na2vs0mg"},{"bike_id":"0c6259f4-740e-4254-91f2-ae3bce4cfffe","system_id":"levelo_inurba_marseille","lat":43.29787,"lon":5.38105,"is_reserved":false,"is_disabled":false,"rental_uris":{"android":"levelo://app?vid=0c6259f4-740e-4254-91f2-ae3bce4cfffe","ios":"levelo://app?vid=0c6259f4-740e-4254-91f2-ae3bce4cfffe"},"vehicle_type_id":"4","last_reported":1741460832,"current_range_meters":8000,"station_id":"ce4bgip2rcd13ifvqbb0","pricing_plan_id":"cebpf4jnsgd1na2vs0mg"},{"bike_id":"23f525ce-b6ee-4ce5-83ac-8f0a46e989ce","system_id":"levelo_inurba_marseille","lat":43.3061,"lon":5.37245,"is_reserved":false,"is_disabled":false,"rental_uris":{"android":"levelo://app?vid=23f525ce-b6ee-4ce5-83ac-8f0a46e989ce","ios":"levelo://app?vid=23f525ce-b6ee-4ce5-83ac-8f0a46e989ce"},"vehicle_type_id":"4","last_reported":1741460832,"current_range_meters":8400,"station_id":"ce4bgqh2rcd13ifvqc4g","pricing_plan_id":"cebpf4jnsgd1na2vs0mg"},{"bike_id":"cb7e618a-093b-4757-8263-4076ceaa0e8a","system_id":"levelo_inurba_marseille","lat":43.25091,"lon":5.39506,"is_reserved":false,"is_disabled":false,"rental_uris":{"android":"levelo://app?vid=cb7e618a-093b-4757-8263-4076ceaa0e8a","ios":"levelo://app?vid=cb7e618a-093b-4757-8263-4076ceaa0e8a"},"vehicle_type_id":"4","last_reported":1741460832,"current_range_meters":8400,"station_id":"ce4bhm12rcd13ifvqgkg","pricing_plan_id":"cebpf4jnsgd1na2vs0mg"},{"bike_id":"8968ebf0-976e-4199-a05d-0b5eb90e8fa7","system_id":"levelo_inurba_marseille","lat":43.2572,"lon":5.41112,"is_reserved":false,"is_disabled":false,"rental_uris":{"android":"levelo://app?vid=8968ebf0-976e-4199-a05d-0b5eb90e8fa7","ios":"levelo://app?vid=8968ebf0-976e-4199-a05d-0b5eb90e8fa7"},"vehicle_type_id":"4","last_reported":1741460832,"current_range_meters":8400,"station_id":"ce4bhkp2rcd13ifvqgd0","pricing_plan_id":"cebpf4jnsgd1na2vs0mg"},{"bike_id":"e524bcef-a391-41b2-bad2-673eae53ea51","system_id":"levelo_inurba_marseille","lat":43.31715,"lon":5.43709,"is_reserved":false,"is_disabled":false,"rental_uris":{"android":"levelo://app?vid=e524bcef-a391-41b2-bad2-673eae53ea51","ios":"levelo://app?vid=e524bcef-a391-41b2-bad2-673eae53ea51"},"vehicle_type_id":"4","last_reported":1741460832,"current_range_meters":8400,"station_id":"ce4bhp92rcd13ifvqhcg","pricing_plan_id":"cebpf4jnsgd1na2vs0mg"},{"bike_id":"6f46e430-3990-4530-b0f2-2d4583660ccd","system_id":"levelo_inurba_marseille","lat":43.27427,"lon":5.3941,"is_reserved":false,"is_disabled":false,"rental_uris":{"android":"levelo://app?vid=6f46e430-3990-4530-b0f2-2d4583660ccd","ios":"levelo://app?vid=6f46e430-3990-4530-b0f2-2d4583660ccd"},"vehicle_type_id":"4","last_reported":1741460832,"current_range_meters":8400,"station_id":"ce4bhdp2rcd13ifvqf20","pricing_plan_id":"cebpf4jnsgd1na2vs0mg"},{"bike_id":"ebc33aa2-29a0-4f8c-a4f4-0dd693269e2f","system_id":"levelo_inurba_marseille","lat":43.2743,"lon":5.3942,"is_reserved":false,"is_disabled":false,"rental_uris":{"android":"levelo://app?vid=ebc33aa2-29a0-4f8c-a4f4-0dd693269e2f","ios":"levelo://app?vid=ebc33aa2-29a0-4f8c-a4f4-0dd693269e2f"},"vehicle_type_id":"4","last_reported":1741460832,"current_range_meters":8400,"station_id":"ce4bhdp2rcd13ifvqf20","pricing_plan_id":"cebpf4jnsgd1na2vs0mg"},{"bike_id":"99121d6d-76c3-4940-bf6e-13375dbd5bf4","system_id":"levelo_inurba_marseille","lat":43.23964,"lon":5.36632,"is_reserved":false,"is_disabled":false,"rental_uris":{"android":"levelo://app?vid=99121d6d-76c3-4940-bf6e-13375dbd5bf4","ios":"levelo://app?vid=99121d6d-76c3-4940-bf6e-13375dbd5bf4"},"vehicle_type_id":"4","last_reported":1741460832,"current_range_meters":8400,"station_id":"ce4bhi12rcd13ifvqfp0","pricing_plan_id":"cebpf4jnsgd1na2vs0mg"},{"bike_id":"603e7930-ec9e-4dbc-b79e-c05aaea573ce","system_id":"levelo_inurba_marseille","lat":43.30807,"lon":5.43527,"is_reserved":false,"is_disabled":false,"rental_uris":{"android":"levelo://app?vid=603e7930-ec9e-4dbc-b79e-c05aaea573ce","ios":"levelo://app?vid=603e7930-ec9e-4dbc-b79e-c05aaea573ce"},"vehicle_type_id":"4","last_reported":1741460832,"current_range_meters":8400,"station_id":"ce4bhph2rcd13ifvqheg","pricing_plan_id":"cebpf4jnsgd1na2vs0mg"},{"bike_id":"337c7133-4453-4ec5-96be-f7249c2ffaf8","system_id":"levelo_inurba_marseille","lat":43.24652,"lon":5.38895,"is_reserved":false,"is_disabled":false,"rental_uris":{"android":"levelo://app?vid=337c7133-4453-4ec5-96be-f7249c2ffaf8","ios":"levelo://app?vid=337c7133-4453-4ec5-96be-f7249c2ffaf8"},"vehicle_type_id":"4","last_reported":1741460832,"current_range_meters":8400,"station_id":"ce4bhg12rcd13ifvqf60","pricing_plan_id":"cebpf4jnsgd1na2vs0mg"},{"bike_id":"dde3b35e-c918-4c26-adb4-81959aaf158a","system_id":"levelo_inurba_marseille","lat":43.30599,"lon":5.39351,"is_reserved":false,"is_disabled":false,"rental_uris":{"android":"levelo://app?vid=dde3b35e-c918-4c26-adb4-81959aaf158a","ios":"levelo://app?vid=dde3b35e-c918-4c26-adb4-81959aaf158a"},"vehicle_type_id":"4","last_reported":1741460832,"current_range_meters":8400,"station_id":"ce4bh0p2rcd13ifvqd80","pricing_plan_id":"cebpf4jnsgd1na2vs0mg"},{"bike_id":"52879805-308b-4b69-ae96-68177df49146","system_id":"levelo_inurba_marseille","lat":43.28673,"lon":5.38664,"is_reserved":false,"is_disabled":false,"rental_uris":{"android":"levelo://app?vid=52879805-308b-4b69-ae96-68177df49146","ios":"levelo://app?vid=52879805-308b-4b69-ae96-68177df49146"},"vehicle_type_id":"4","last_reported":1741460832,"current_range_meters":8400,"station_id":"ce4bh492rcd13ifvqdug","pricing_plan_id":"cebpf4jnsgd1na2vs0mg"},{"bike_id":"903ca8fb-a01f-48af-9d7f-844151e9f785","system_id":"levelo_inurba_marseille","lat":43.279514,"lon":5.410523,"is_reserved":false,"is_disabled":true,"rental_uris":{"android":"levelo://app?vid=903ca8fb-a01f-48af-9d7f-844151e9f785","ios":"levelo://app?vid=903ca8fb-a01f-48af-9d7f-844151e9f785"},"vehicle_type_id":"4","last_reported":1741460832,"current_range_meters":8400,"station_id":"ce4bhnp2rcd13ifvqh0g","pricing_plan_id":"cebpf4jnsgd1na2vs0mg"},{"bike_id":"1ffe0839-d6b0-49e0-a58b-164465fcccd9","system_id":"levelo_inurba_marseille","lat":43.24656,"lon":5.38892,"is_reserved":false,"is_disabled":false,"rental_uris":{"android":"levelo://app?vid=1ffe0839-d6b0-49e0-a58b-164465fcccd9","ios":"levelo://app?vid=1ffe0839-d6b0-49e0-a58b-164465fcccd9"},"vehicle_type_id":"4","last_reported":1741460832,"current_range_meters":8400,"station_id":"ce4bhg12rcd13ifvqf60","pricing_plan_id":"cebpf4jnsgd1na2vs0mg"},{"bike_id":"cb0d4d15-0ce0-4061-8a04-93bcbe80bd0f","system_id":"levelo_inurba_marseille","lat":43.25951,"lon":5.40893,"is_reserved":false,"is_disabled":false,"rental_uris":{"android":"levelo://app?vid=cb0d4d15-0ce0-4061-8a04-93bcbe80bd0f","ios":"levelo://app?vid=cb0d4d15-0ce0-4061-8a04-93bcbe80bd0f"},"vehicle_type_id":"4","last_reported":1741460832,"current_range_meters":8400,"station_id":"ce4bhm92rcd13ifvqglg","pricing_plan_id":"cebpf4jnsgd1na2vs0mg"},{"bike_id":"4c63458e-2db0-4cb3-bfc1-7ab137c5f028","system_id":"levelo_inurba_marseille","lat":43.2693,"lon":5.40267,"is_reserved":false,"is_disabled":false,"rental_uris":{"android":"levelo://app?vid=4c63458e-2db0-4cb3-bfc1-7ab137c5f028","ios":"levelo://app?vid=4c63458e-2db0-4cb3-bfc1-7ab137c5f028"},"vehicle_type_id":"4","last_reported":1741460832,"current_range_meters":8400,"station_id":"cjm6bp8fraef2m0cb0m0","pricing_plan_id":"cebpf4jnsgd1na2vs0mg"},{"bike_id":"d67c613e-76e3-40bf-a6c8-10e3ac49cc59","system_id":"levelo_inurba_marseille","lat":43.2901,"lon":5.38656,"is_reserved":false,"is_disabled":false,"rental_uris":{"android":"levelo://app?vid=d67c613e-76e3-40bf-a6c8-10e3ac49cc59","ios":"levelo://app?vid=d67c613e-76e3-40bf-a6c8-10e3ac49cc59"},"vehicle_type_id":"4","last_reported":1741460832,"current_range_meters":8400,"station_id":"ce4bh4p2rcd13ifvqe0g","pricing_plan_id":"cebpf4jnsgd1na2vs0mg"},{"bike_id":"53bd1732-d8ff-41a5-8f1b-42274afdde26","system_id":"levelo_inurba_marseille","lat":43.29376,"lon":5.42905,"is_reserved":false,"is_disabled":false,"rental_uris":{"android":"levelo://app?vid=53bd1732-d8ff-41a5-8f1b-42274afdde26","ios":"levelo://app?vid=53bd1732-d8ff-41a5-8f1b-42274afdde26"},"vehicle_type_id":"4","last_reported":1741460832,"current_range_meters":8400,"station_id":"","pricing_plan_id":"cebpf4jnsgd1na2vs0mg"},{"bike_id":"ceba9718-ab60-4cb9-96ce-4a71468fdec5","system_id":"levelo_inurba_marseille","lat":43.29422,"lon":5.38618,"is_reserved":false,"is_disabled":false,"rental_uris":{"android":"levelo://app?vid=ceba9718-ab60-4cb9-96ce-4a71468fdec5","ios":"levelo://app?vid=ceba9718-ab60-4cb9-96ce-4a71468fdec5"},"vehicle_type_id":"4","last_reported":1741460832,"current_range_meters":8800,"station_id":"ce4bh2h2rcd13ifvqdh0","pricing_plan_id":"cebpf4jnsgd1na2vs0mg"},{"bike_id":"8ad1c85e-42d0-42ae-81b4-010da6f6c5f4","system_id":"levelo_inurba_marseille","lat":43.30143,"lon":5.37416,"is_reserved":false,"is_disabled":false,"rental_uris":{"android":"levelo://app?vid=8ad1c85e-42d0-42ae-81b4-010da6f6c5f4","ios":"levelo://app?vid=8ad1c85e-42d0-42ae-81b4-010da6f6c5f4"},"vehicle_type_id":"4","last_reported":1741460832,"current_range_meters":8800,"station_id":"ce4bgs92rcd13ifvqcc0","pricing_plan_id":"cebpf4jnsgd1na2vs0mg"},{"bike_id":"4f508b50-1e3d-40c5-be77-1e6495edbe07","system_id":"levelo_inurba_marseille","lat":43.25728,"lon":5.41059,"is_reserved":false,"is_disabled":false,"rental_uris":{"android":"levelo://app?vid=4f508b50-1e3d-40c5-be77-1e6495edbe07","ios":"levelo://app?vid=4f508b50-1e3d-40c5-be77-1e6495edbe07"},"vehicle_type_id":"4","last_reported":1741460832,"current_range_meters":8800,"station_id":"ce4bhkp2rcd13ifvqgd0","pricing_plan_id":"cebpf4jnsgd1na2vs0mg"},{"bike_id":"2d9c3a6b-f6bb-4391-9e28-855c0dc23819","system_id":"levelo_inurba_marseille","lat":43.26784,"lon":5.39415,"is_reserved":false,"is_disabled":false,"rental_uris":{"android":"levelo://app?vid=2d9c3a6b-f6bb-4391-9e28-855c0dc23819","ios":"levelo://app?vid=2d9c3a6b-f6bb-4391-9e28-855c0dc23819"},"vehicle_type_id":"4","last_reported":1741460832,"current_range_meters":8800,"station_id":"ce4bhh12rcd13ifvqfg0","pricing_plan_id":"cebpf4jnsgd1na2vs0mg"},{"bike_id":"847f160f-ba2e-4169-989a-81b1b01f0868","system_id":"levelo_inurba_marseille","lat":43.29797,"lon":5.38105,"is_reserved":false,"is_disabled":false,"rental_uris":{"android":"levelo://app?vid=847f160f-ba2e-4169-989a-81b1b01f0868","ios":"levelo://app?vid=847f160f-ba2e-4169-989a-81b1b01f0868"},"vehicle_type_id":"4","last_reported":1741460832,"current_range_meters":8800,"station_id":"ce4bgip2rcd13ifvqbb0","pricing_plan_id":"cebpf4jnsgd1na2vs0mg"},{"bike_id":"a6c74a05-39e7-4da6-8b71-1ba187fc5bae","system_id":"levelo_inurba_marseille","lat":43.305517,"lon":5.365244,"is_reserved":false,"is_disabled":true,"rental_uris":{"android":"levelo://app?vid=a6c74a05-39e7-4da6-8b71-1ba187fc5bae","ios":"levelo://app?vid=a6c74a05-39e7-4da6-8b71-1ba187fc5bae"},"vehicle_type_id":"4","last_reported":1741460832,"current_range_meters":8800,"station_id":"ce4bgs12rcd13ifvqcag","pricing_plan_id":"cebpf4jnsgd1na2vs0mg"},{"bike_id":"bd747c40-d689-4519-a59a-8567d2d93e10","system_id":"levelo_inurba_marseille","lat":43.28987,"lon":5.37825,"is_reserved":false,"is_disabled":false,"rental_uris":{"android":"levelo://app?vid=bd747c40-d689-4519-a59a-8567d2d93e10","ios":"levelo://app?vid=bd747c40-d689-4519-a59a-8567d2d93e10"},"vehicle_type_id":"4","last_reported":1741460832,"current_range_meters":8800,"station_id":"ce4bh9p2rcd13ifvqed0","pricing_plan_id":"cebpf4jnsgd1na2vs0mg"},{"bike_id":"5eb3e19d-5fe8-405a-b293-e7f496095f66","system_id":"levelo_inurba_marseille","lat":43.30298,"lon":5.39213,"is_reserved":false,"is_disabled":false,"rental_uris":{"android":"levelo://app?vid=5eb3e19d-5fe8-405a-b293-e7f496095f66","ios":"levelo://app?vid=5eb3e19d-5fe8-405a-b293-e7f496095f66"},"vehicle_type_id":"4","last_reported":1741460832,"current_range_meters":8800,"station_id":"ce4bgkh2rcd13ifvqbk0","pricing_plan_id":"cebpf4jnsgd1na2vs0mg"},{"bike_id":"42155170-f769-480e-b54a-7297d54b5579","system_id":"levelo_inurba_marseille","lat":43.273213,"lon":5.390735,"is_reserved":false,"is_disabled":false,"rental_uris":{"android":"levelo://app?vid=42155170-f769-480e-b54a-7297d54b5579","ios":"levelo://app?vid=42155170-f769-480e-b54a-7297d54b5579"},"vehicle_type_id":"4","last_reported":1741460832,"current_range_meters":8800,"station_id":"ce4bhgp2rcd13ifvqfe0","pricing_plan_id":"cebpf4jnsgd1na2vs0mg"},{"bike_id":"16ceefdd-2bae-459c-8b32-f1c943adcfc6","system_id":"levelo_inurba_marseille","lat":43.26194,"lon":5.37451,"is_reserved":false,"is_disabled":false,"rental_uris":{"android":"levelo://app?vid=16ceefdd-2bae-459c-8b32-f1c943adcfc6","ios":"levelo://app?vid=16ceefdd-2bae-459c-8b32-f1c943adcfc6"},"vehicle_type_id":"4","last_reported":1741460832,"current_range_meters":8800,"station_id":"ce4bhgp2rcd13ifvqfc0","pricing_plan_id":"cebpf4jnsgd1na2vs0mg"},{"bike_id":"3c77d28d-ef5d-43f9-afd5-3b629025e592","system_id":"levelo_inurba_marseille","lat":43.294198,"lon":5.386218,"is_reserved":false,"is_disabled":false,"rental_uris":{"android":"levelo://app?vid=3c77d28d-ef5d-43f9-afd5-3b629025e592","ios":"levelo://app?vid=3c77d28d-ef5d-43f9-afd5-3b629025e592"},"vehicle_type_id":"4","last_reported":1741460832,"current_range_meters":8800,"station_id":"ce4bh2h2rcd13ifvqdh0","pricing_plan_id":"cebpf4jnsgd1na2vs0mg"},{"bike_id":"6ad015c5-1cf7-4c27-b88e-d2bbffd80407","system_id":"levelo_inurba_marseille","lat":43.29269,"lon":5.38422,"is_reserved":false,"is_disabled":false,"rental_uris":{"android":"levelo://app?vid=6ad015c5-1cf7-4c27-b88e-d2bbffd80407","ios":"levelo://app?vid=6ad015c5-1cf7-4c27-b88e-d2bbffd80407"},"vehicle_type_id":"4","last_reported":1741460832,"current_range_meters":8800,"station_id":"ce4bh692rcd13ifvqea0","pricing_plan_id":"cebpf4jnsgd1na2vs0mg"},{"bike_id":"c54e76cd-efcc-47c2-b5e1-593386ffe01e","system_id":"levelo_inurba_marseille","lat":43.28947,"lon":5.37846,"is_reserved":false,"is_disabled":false,"rental_uris":{"android":"levelo://app?vid=c54e76cd-efcc-47c2-b5e1-593386ffe01e","ios":"levelo://app?vid=c54e76cd-efcc-47c2-b5e1-593386ffe01e"},"vehicle_type_id":"4","last_reported":1741460832,"current_range_meters":8800,"station_id":"ce4bh9p2rcd13ifvqed0","pricing_plan_id":"cebpf4jnsgd1na2vs0mg"},{"bike_id":"29a2dc41-176e-4ce3-9704-1e0c81ed4573","system_id":"levelo_inurba_marseille","lat":43.260623,"lon":5.39394,"is_reserved":false,"is_disabled":false,"rental_uris":{"android":"levelo://app?vid=29a2dc41-176e-4ce3-9704-1e0c81ed4573","ios":"levelo://app?vid=29a2dc41-176e-4ce3-9704-1e0c81ed4573"},"vehicle_type_id":"4","last_reported":1741460832,"current_range_meters":8800,"station_id":"ce4bhh92rcd13ifvqfj0","pricing_plan_id":"cebpf4jnsgd1na2vs0mg"},{"bike_id":"aa24b71a-a996-43c8-9750-f1c4e483536c","system_id":"levelo_inurba_marseille","lat":43.29638,"lon":5.4059,"is_reserved":false,"is_disabled":false,"rental_uris":{"android":"levelo://app?vid=aa24b71a-a996-43c8-9750-f1c4e483536c","ios":"levelo://app?vid=aa24b71a-a996-43c8-9750-f1c4e483536c"},"vehicle_type_id":"4","last_reported":1741460832,"current_range_meters":8800,"station_id":"ce4bh0h2rcd13ifvqd60","pricing_plan_id":"cebpf4jnsgd1na2vs0mg"},{"bike_id":"e9f854e3-f5bf-4619-9aaa-7ed52a05ad65","system_id":"levelo_inurba_marseille","lat":43.29476,"lon":5.37775,"is_reserved":false,"is_disabled":false,"rental_uris":{"android":"levelo://app?vid=e9f854e3-f5bf-4619-9aaa-7ed52a05ad65","ios":"levelo://app?vid=e9f854e3-f5bf-4619-9aaa-7ed52a05ad65"},"vehicle_type_id":"4","last_reported":1741460832,"current_range_meters":9200,"station_id":"ce4bh312rcd13ifvqdj0","pricing_plan_id":"cebpf4jnsgd1na2vs0mg"},{"bike_id":"44c0f9a1-99ba-41cb-8f36-0e033c5e16cc","system_id":"levelo_inurba_marseille","lat":43.26177,"lon":5.37461,"is_reserved":false,"is_disabled":false,"rental_uris":{"android":"levelo://app?vid=44c0f9a1-99ba-41cb-8f36-0e033c5e16cc","ios":"levelo://app?vid=44c0f9a1-99ba-41cb-8f36-0e033c5e16cc"},"vehicle_type_id":"4","last_reported":1741460832,"current_range_meters":9200,"station_id":"ce4bhgp2rcd13ifvqfc0","pricing_plan_id":"cebpf4jnsgd1na2vs0mg"},{"bike_id":"7f139a44-4c68-459f-8c97-99f9bb18d82b","system_id":"levelo_inurba_marseille","lat":43.29931,"lon":5.37485,"is_reserved":false,"is_disabled":false,"rental_uris":{"android":"levelo://app?vid=7f139a44-4c68-459f-8c97-99f9bb18d82b","ios":"levelo://app?vid=7f139a44-4c68-459f-8c97-99f9bb18d82b"},"vehicle_type_id":"4","last_reported":1741460832,"current_range_meters":9200,"station_id":"ce4bgjh2rcd13ifvqbg0","pricing_plan_id":"cebpf4jnsgd1na2vs0mg"},{"bike_id":"c787a0ef-03a5-4d36-b53c-60238e9036da","system_id":"levelo_inurba_marseille","lat":43.23202,"lon":5.39995,"is_reserved":false,"is_disabled":false,"rental_uris":{"android":"levelo://app?vid=c787a0ef-03a5-4d36-b53c-60238e9036da","ios":"levelo://app?vid=c787a0ef-03a5-4d36-b53c-60238e9036da"},"vehicle_type_id":"4","last_reported":1741460832,"current_range_meters":9200,"station_id":"ce4bhn12rcd13ifvqgqg","pricing_plan_id":"cebpf4jnsgd1na2vs0mg"},{"bike_id":"272320a7-ce58-4874-99c0-192e4319c543","system_id":"levelo_inurba_marseille","lat":43.29881,"lon":5.3973,"is_reserved":false,"is_disabled":false,"rental_uris":{"android":"levelo://app?vid=272320a7-ce58-4874-99c0-192e4319c543","ios":"levelo://app?vid=272320a7-ce58-4874-99c0-192e4319c543"},"vehicle_type_id":"4","last_reported":1741460832,"current_range_meters":9200,"station_id":"ce4bh0h2rcd13ifvqd50","pricing_plan_id":"cebpf4jnsgd1na2vs0mg"},{"bike_id":"b1f7cf29-7408-4d87-9cb8-baf70db34fac","system_id":"levelo_inurba_marseille","lat":43.2927,"lon":5.38434,"is_reserved":false,"is_disabled":false,"rental_uris":{"android":"levelo://app?vid=b1f7cf29-7408-4d87-9cb8-baf70db34fac","ios":"levelo://app?vid=b1f7cf29-7408-4d87-9cb8-baf70db34fac"},"vehicle_type_id":"4","last_reported":1741460832,"current_range_meters":9200,"station_id":"ce4bh692rcd13ifvqea0","pricing_plan_id":"cebpf4jnsgd1na2vs0mg"},{"bike_id":"bdce6986-86c4-4404-aa26-b17249768109","system_id":"levelo_inurba_marseille","lat":43.27816,"lon":5.40714,"is_reserved":false,"is_disabled":false,"rental_uris":{"android":"levelo://app?vid=bdce6986-86c4-4404-aa26-b17249768109","ios":"levelo://app?vid=bdce6986-86c4-4404-aa26-b17249768109"},"vehicle_type_id":"4","last_reported":1741460832,"current_range_meters":9200,"station_id":"ce4bhnh2rcd13ifvqgtg","pricing_plan_id":"cebpf4jnsgd1na2vs0mg"},{"bike_id":"46c4231f-7385-4d40-9ad3-8b5e57378081","system_id":"levelo_inurba_marseille","lat":43.29535,"lon":5.38547,"is_reserved":false,"is_disabled":false,"rental_uris":{"android":"levelo://app?vid=46c4231f-7385-4d40-9ad3-8b5e57378081","ios":"levelo://app?vid=46c4231f-7385-4d40-9ad3-8b5e57378081"},"vehicle_type_id":"4","last_reported":1741460832,"current_range_meters":9200,"station_id":"ce4bgih2rcd13ifvqba0","pricing_plan_id":"cebpf4jnsgd1na2vs0mg"},{"bike_id":"4953df91-06bc-47e0-82b0-3bd3da4be66b","system_id":"levelo_inurba_marseille","lat":43.29536,"lon":5.38544,"is_reserved":false,"is_disabled":true,"rental_uris":{"android":"levelo://app?vid=4953df91-06bc-47e0-82b0-3bd3da4be66b","ios":"levelo://app?vid=4953df91-06bc-47e0-82b0-3bd3da4be66b"},"vehicle_type_id":"4","last_reported":1741460832,"current_range_meters":9200,"station_id":"ce4bgih2rcd13ifvqba0","pricing_plan_id":"cebpf4jnsgd1na2vs0mg"},{"bike_id":"f6e1e86e-e447-4b55-8b4d-2cdeebccd18b","system_id":"levelo_inurba_marseille","lat":43.307944,"lon":5.381674,"is_reserved":false,"is_disabled":false,"rental_uris":{"android":"levelo://app?vid=f6e1e86e-e447-4b55-8b4d-2cdeebccd18b","ios":"levelo://app?vid=f6e1e86e-e447-4b55-8b4d-2cdeebccd18b"},"vehicle_type_id":"4","last_reported":1741460832,"current_range_meters":9200,"station_id":"ce4bgt12rcd13ifvqce0","pricing_plan_id":"cebpf4jnsgd1na2vs0mg"},{"bike_id":"22102663-9d96-4c0c-8389-e16e73b1b3dc","system_id":"levelo_inurba_marseille","lat":43.27808,"lon":5.40716,"is_reserved":false,"is_disabled":false,"rental_uris":{"android":"levelo://app?vid=22102663-9d96-4c0c-8389-e16e73b1b3dc","ios":"levelo://app?vid=22102663-9d96-4c0c-8389-e16e73b1b3dc"},"vehicle_type_id":"4","last_reported":1741460832,"current_range_meters":9200,"station_id":"ce4bhnh2rcd13ifvqgtg","pricing_plan_id":"cebpf4jnsgd1na2vs0mg"},{"bike_id":"fdf45df4-47d5-41e8-a6c7-03ee85585140","system_id":"levelo_inurba_marseille","lat":43.26796,"lon":5.39421,"is_reserved":false,"is_disabled":true,"rental_uris":{"android":"levelo://app?vid=fdf45df4-47d5-41e8-a6c7-03ee85585140","ios":"levelo://app?vid=fdf45df4-47d5-41e8-a6c7-03ee85585140"},"vehicle_type_id":"4","last_reported":1741460832,"current_range_meters":10000,"station_id":"ce4bhh12rcd13ifvqfg0","pricing_plan_id":"cebpf4jnsgd1na2vs0mg"},{"bike_id":"3b32b7ae-055d-4265-832d-e3baa73f849b","system_id":"levelo_inurba_marseille","lat":43.3232,"lon":5.38251,"is_reserved":false,"is_disabled":false,"rental_uris":{"android":"levelo://app?vid=3b32b7ae-055d-4265-832d-e3baa73f849b","ios":"levelo://app?vid=3b32b7ae-055d-4265-832d-e3baa73f849b"},"vehicle_type_id":"4","last_reported":1741460832,"current_range_meters":9600,"station_id":"ce4bhr12rcd13ifvqhqg","pricing_plan_id":"cebpf4jnsgd1na2vs0mg"},{"bike_id":"d34e6e7d-5d48-4f04-9323-5eee5749d26b","system_id":"levelo_inurba_marseille","lat":43.280373,"lon":5.369471,"is_reserved":false,"is_disabled":false,"rental_uris":{"android":"levelo://app?vid=d34e6e7d-5d48-4f04-9323-5eee5749d26b","ios":"levelo://app?vid=d34e6e7d-5d48-4f04-9323-5eee5749d26b"},"vehicle_type_id":"4","last_reported":1741460832,"current_range_meters":9600,"station_id":"ce4bha12rcd13ifvqef0","pricing_plan_id":"cebpf4jnsgd1na2vs0mg"},{"bike_id":"692c3fd1-e388-4c38-bc5f-023f56dd0104","system_id":"levelo_inurba_marseille","lat":43.25734,"lon":5.41106,"is_reserved":false,"is_disabled":false,"rental_uris":{"android":"levelo://app?vid=692c3fd1-e388-4c38-bc5f-023f56dd0104","ios":"levelo://app?vid=692c3fd1-e388-4c38-bc5f-023f56dd0104"},"vehicle_type_id":"4","last_reported":1741460832,"current_range_meters":9600,"station_id":"ce4bhkp2rcd13ifvqgd0","pricing_plan_id":"cebpf4jnsgd1na2vs0mg"},{"bike_id":"7ccf354e-d9c3-453e-9d8c-ff76790a4a22","system_id":"levelo_inurba_marseille","lat":43.29529,"lon":5.38536,"is_reserved":false,"is_disabled":false,"rental_uris":{"android":"levelo://app?vid=7ccf354e-d9c3-453e-9d8c-ff76790a4a22","ios":"levelo://app?vid=7ccf354e-d9c3-453e-9d8c-ff76790a4a22"},"vehicle_type_id":"4","last_reported":1741460832,"current_range_meters":9600,"station_id":"ce4bgih2rcd13ifvqba0","pricing_plan_id":"cebpf4jnsgd1na2vs0mg"},{"bike_id":"1eae27e7-b16c-402d-88a7-74119068df4b","system_id":"levelo_inurba_marseille","lat":43.26785,"lon":5.39418,"is_reserved":false,"is_disabled":false,"rental_uris":{"android":"levelo://app?vid=1eae27e7-b16c-402d-88a7-74119068df4b","ios":"levelo://app?vid=1eae27e7-b16c-402d-88a7-74119068df4b"},"vehicle_type_id":"4","last_reported":1741460832,"current_range_meters":9600,"station_id":"ce4bhh12rcd13ifvqfg0","pricing_plan_id":"cebpf4jnsgd1na2vs0mg"},{"bike_id":"d399c68f-4683-4187-95d7-e32ffde3c66c","system_id":"levelo_inurba_marseille","lat":43.25091,"lon":5.39516,"is_reserved":false,"is_disabled":false,"rental_uris":{"android":"levelo://app?vid=d399c68f-4683-4187-95d7-e32ffde3c66c","ios":"levelo://app?vid=d399c68f-4683-4187-95d7-e32ffde3c66c"},"vehicle_type_id":"4","last_reported":1741460832,"current_range_meters":9600,"station_id":"ce4bhm12rcd13ifvqgkg","pricing_plan_id":"cebpf4jnsgd1na2vs0mg"},{"bike_id":"49dd8217-f670-470c-956d-99a7db91b235","system_id":"levelo_inurba_marseille","lat":43.2884,"lon":5.39329,"is_reserved":false,"is_disabled":false,"rental_uris":{"android":"levelo://app?vid=49dd8217-f670-470c-956d-99a7db91b235","ios":"levelo://app?vid=49dd8217-f670-470c-956d-99a7db91b235"},"vehicle_type_id":"4","last_reported":1741460832,"current_range_meters":9200,"station_id":"ce4bh2p2rcd13ifvqdi0","pricing_plan_id":"cebpf4jnsgd1na2vs0mg"},{"bike_id":"ee4ea2ef-1433-4b15-ba5a-93decf17183b","system_id":"levelo_inurba_marseille","lat":43.27425,"lon":5.39419,"is_reserved":false,"is_disabled":false,"rental_uris":{"android":"levelo://app?vid=ee4ea2ef-1433-4b15-ba5a-93decf17183b","ios":"levelo://app?vid=ee4ea2ef-1433-4b15-ba5a-93decf17183b"},"vehicle_type_id":"4","last_reported":1741460832,"current_range_meters":9600,"station_id":"ce4bhdp2rcd13ifvqf20","pricing_plan_id":"cebpf4jnsgd1na2vs0mg"},{"bike_id":"b533f38f-df9a-4e01-86fb-08f4b9bfcdfb","system_id":"levelo_inurba_marseille","lat":43.26227,"lon":5.42147,"is_reserved":false,"is_disabled":false,"rental_uris":{"android":"levelo://app?vid=b533f38f-df9a-4e01-86fb-08f4b9bfcdfb","ios":"levelo://app?vid=b533f38f-df9a-4e01-86fb-08f4b9bfcdfb"},"vehicle_type_id":"4","last_reported":1741460832,"current_range_meters":9600,"station_id":"","pricing_plan_id":"cebpf4jnsgd1na2vs0mg"},{"bike_id":"2e3c60b3-f5fc-40b6-b347-86b0b4f3ee6e","system_id":"levelo_inurba_marseille","lat":43.23182,"lon":5.39994,"is_reserved":false,"is_disabled":false,"rental_uris":{"android":"levelo://app?vid=2e3c60b3-f5fc-40b6-b347-86b0b4f3ee6e","ios":"levelo://app?vid=2e3c60b3-f5fc-40b6-b347-86b0b4f3ee6e"},"vehicle_type_id":"4","last_reported":1741460832,"current_range_meters":9600,"station_id":"ce4bhn12rcd13ifvqgqg","pricing_plan_id":"cebpf4jnsgd1na2vs0mg"},{"bike_id":"a3254120-3f80-4656-aa30-cfcf9608df23","system_id":"levelo_inurba_marseille","lat":43.29925,"lon":5.38146,"is_reserved":false,"is_disabled":false,"rental_uris":{"android":"levelo://app?vid=a3254120-3f80-4656-aa30-cfcf9608df23","ios":"levelo://app?vid=a3254120-3f80-4656-aa30-cfcf9608df23"},"vehicle_type_id":"4","last_reported":1741460832,"current_range_meters":9600,"station_id":"ce4bgj12rcd13ifvqbc0","pricing_plan_id":"cebpf4jnsgd1na2vs0mg"},{"bike_id":"8a918602-9ac4-47c1-baf8-d4080cced523","system_id":"levelo_inurba_marseille","lat":43.29424,"lon":5.3863,"is_reserved":false,"is_disabled":false,"rental_uris":{"android":"levelo://app?vid=8a918602-9ac4-47c1-baf8-d4080cced523","ios":"levelo://app?vid=8a918602-9ac4-47c1-baf8-d4080cced523"},"vehicle_type_id":"4","last_reported":1741460832,"current_range_meters":9600,"station_id":"ce4bh2h2rcd13ifvqdh0","pricing_plan_id":"cebpf4jnsgd1na2vs0mg"},{"bike_id":"f8782c23-6432-46a7-a253-8a2fc3674f64","system_id":"levelo_inurba_marseille","lat":43.28048,"lon":5.36956,"is_reserved":false,"is_disabled":false,"rental_uris":{"android":"levelo://app?vid=f8782c23-6432-46a7-a253-8a2fc3674f64","ios":"levelo://app?vid=f8782c23-6432-46a7-a253-8a2fc3674f64"},"vehicle_type_id":"4","last_reported":1741460832,"current_range_meters":9600,"station_id":"ce4bha12rcd13ifvqef0","pricing_plan_id":"cebpf4jnsgd1na2vs0mg"},{"bike_id":"4535af30-838a-436f-9c39-afb86353063f","system_id":"levelo_inurba_marseille","lat":43.30199,"lon":5.39961,"is_reserved":false,"is_disabled":false,"rental_uris":{"android":"levelo://app?vid=4535af30-838a-436f-9c39-afb86353063f","ios":"levelo://app?vid=4535af30-838a-436f-9c39-afb86353063f"},"vehicle_type_id":"4","last_reported":1741460832,"current_range_meters":9600,"station_id":"","pricing_plan_id":"cebpf4jnsgd1na2vs0mg"},{"bike_id":"7fc6c6c9-6918-49e4-8c87-f4f91a3c3706","system_id":"levelo_inurba_marseille","lat":43.31282,"lon":5.40163,"is_reserved":false,"is_disabled":false,"rental_uris":{"android":"levelo://app?vid=7fc6c6c9-6918-49e4-8c87-f4f91a3c3706","ios":"levelo://app?vid=7fc6c6c9-6918-49e4-8c87-f4f91a3c3706"},"vehicle_type_id":"4","last_reported":1741460832,"current_range_meters":9600,"station_id":"ce4bh092rcd13ifvqd30","pricing_plan_id":"cebpf4jnsgd1na2vs0mg"},{"bike_id":"f99326d0-73eb-43fe-9c8b-ba4690879103","system_id":"levelo_inurba_marseille","lat":43.27816,"lon":5.40719,"is_reserved":false,"is_disabled":false,"rental_uris":{"android":"levelo://app?vid=f99326d0-73eb-43fe-9c8b-ba4690879103","ios":"levelo://app?vid=f99326d0-73eb-43fe-9c8b-ba4690879103"},"vehicle_type_id":"4","last_reported":1741460832,"current_range_meters":9600,"station_id":"ce4bhnh2rcd13ifvqgtg","pricing_plan_id":"cebpf4jnsgd1na2vs0mg"},{"bike_id":"36e48bf6-5f85-4b62-96be-97be38e72e0e","system_id":"levelo_inurba_marseille","lat":43.26931,"lon":5.38919,"is_reserved":false,"is_disabled":false,"rental_uris":{"android":"levelo://app?vid=36e48bf6-5f85-4b62-96be-97be38e72e0e","ios":"levelo://app?vid=36e48bf6-5f85-4b62-96be-97be38e72e0e"},"vehicle_type_id":"4","last_reported":1741460832,"current_range_meters":9600,"station_id":"ce4bhhh2rcd13ifvqfl0","pricing_plan_id":"cebpf4jnsgd1na2vs0mg"},{"bike_id":"1452ae63-28da-4f20-b7f5-70be9a5e2093","system_id":"levelo_inurba_marseille","lat":43.27687,"lon":5.38868,"is_reserved":false,"is_disabled":false,"rental_uris":{"android":"levelo://app?vid=1452ae63-28da-4f20-b7f5-70be9a5e2093","ios":"levelo://app?vid=1452ae63-28da-4f20-b7f5-70be9a5e2093"},"vehicle_type_id":"4","last_reported":1741460832,"current_range_meters":10000,"station_id":"ce4bhi12rcd13ifvqfo0","pricing_plan_id":"cebpf4jnsgd1na2vs0mg"},{"bike_id":"b2c2514d-58df-4080-9acc-0a3325c87525","system_id":"levelo_inurba_marseille","lat":43.323691,"lon":5.367564,"is_reserved":false,"is_disabled":false,"rental_uris":{"android":"levelo://app?vid=b2c2514d-58df-4080-9acc-0a3325c87525","ios":"levelo://app?vid=b2c2514d-58df-4080-9acc-0a3325c87525"},"vehicle_type_id":"4","last_reported":1741460832,"current_range_meters":10000,"station_id":"ce4bhsh2rcd13ifvqi2g","pricing_plan_id":"cebpf4jnsgd1na2vs0mg"},{"bike_id":"b02da179-953e-462c-bee2-3d4f994615a2","system_id":"levelo_inurba_marseille","lat":43.28478,"lon":5.38423,"is_reserved":false,"is_disabled":false,"rental_uris":{"android":"levelo://app?vid=b02da179-953e-462c-bee2-3d4f994615a2","ios":"levelo://app?vid=b02da179-953e-462c-bee2-3d4f994615a2"},"vehicle_type_id":"4","last_reported":1741460832,"current_range_meters":9600,"station_id":"ce4bh512rcd13ifvqe3g","pricing_plan_id":"cebpf4jnsgd1na2vs0mg"},{"bike_id":"2cd62b5d-cb55-4130-8b4a-c96f5828ffcd","system_id":"levelo_inurba_marseille","lat":43.27305,"lon":5.39094,"is_reserved":false,"is_disabled":false,"rental_uris":{"android":"levelo://app?vid=2cd62b5d-cb55-4130-8b4a-c96f5828ffcd","ios":"levelo://app?vid=2cd62b5d-cb55-4130-8b4a-c96f5828ffcd"},"vehicle_type_id":"4","last_reported":1741460832,"current_range_meters":10000,"station_id":"ce4bhgp2rcd13ifvqfe0","pricing_plan_id":"cebpf4jnsgd1na2vs0mg"},{"bike_id":"f5bd6fd0-9a91-44c5-89ca-b9733e401914","system_id":"levelo_inurba_marseille","lat":43.28676,"lon":5.3866,"is_reserved":false,"is_disabled":false,"rental_uris":{"android":"levelo://app?vid=f5bd6fd0-9a91-44c5-89ca-b9733e401914","ios":"levelo://app?vid=f5bd6fd0-9a91-44c5-89ca-b9733e401914"},"vehicle_type_id":"4","last_reported":1741460832,"current_range_meters":10000,"station_id":"ce4bh492rcd13ifvqdug","pricing_plan_id":"cebpf4jnsgd1na2vs0mg"},{"bike_id":"d0694434-f35c-480f-819c-80617dafdd04","system_id":"levelo_inurba_marseille","lat":43.31118,"lon":5.37776,"is_reserved":false,"is_disabled":false,"rental_uris":{"android":"levelo://app?vid=d0694434-f35c-480f-819c-80617dafdd04","ios":"levelo://app?vid=d0694434-f35c-480f-819c-80617dafdd04"},"vehicle_type_id":"4","last_reported":1741460832,"current_range_meters":10000,"station_id":"ce4bgt92rcd13ifvqcg0","pricing_plan_id":"cebpf4jnsgd1na2vs0mg"},{"bike_id":"7d4cc756-9c8b-4502-ad8d-d022cadf052f","system_id":"levelo_inurba_marseille","lat":43.27329,"lon":5.39063,"is_reserved":false,"is_disabled":false,"rental_uris":{"android":"levelo://app?vid=7d4cc756-9c8b-4502-ad8d-d022cadf052f","ios":"levelo://app?vid=7d4cc756-9c8b-4502-ad8d-d022cadf052f"},"vehicle_type_id":"4","last_reported":1741460832,"current_range_meters":10000,"station_id":"ce4bhgp2rcd13ifvqfe0","pricing_plan_id":"cebpf4jnsgd1na2vs0mg"},{"bike_id":"187c3141-4191-44ad-af60-fbfdacd36da8","system_id":"levelo_inurba_marseille","lat":43.23185,"lon":5.39984,"is_reserved":false,"is_disabled":false,"rental_uris":{"android":"levelo://app?vid=187c3141-4191-44ad-af60-fbfdacd36da8","ios":"levelo://app?vid=187c3141-4191-44ad-af60-fbfdacd36da8"},"vehicle_type_id":"4","last_reported":1741460832,"current_range_meters":9600,"station_id":"ce4bhn12rcd13ifvqgqg","pricing_plan_id":"cebpf4jnsgd1na2vs0mg"},{"bike_id":"ac086f2b-7874-450a-8443-7e4673baea6c","system_id":"levelo_inurba_marseille","lat":43.29874,"lon":5.39746,"is_reserved":false,"is_disabled":false,"rental_uris":{"android":"levelo://app?vid=ac086f2b-7874-450a-8443-7e4673baea6c","ios":"levelo://app?vid=ac086f2b-7874-450a-8443-7e4673baea6c"},"vehicle_type_id":"4","last_reported":1741460832,"current_range_meters":10000,"station_id":"ce4bh0h2rcd13ifvqd50","pricing_plan_id":"cebpf4jnsgd1na2vs0mg"},{"bike_id":"b790f147-be57-4438-84ff-0e9489f79cb4","system_id":"levelo_inurba_marseille","lat":43.28946,"lon":5.36639,"is_reserved":false,"is_disabled":false,"rental_uris":{"android":"levelo://app?vid=b790f147-be57-4438-84ff-0e9489f79cb4","ios":"levelo://app?vid=b790f147-be57-4438-84ff-0e9489f79cb4"},"vehicle_type_id":"4","last_reported":1741460832,"current_range_meters":10000,"station_id":"ce4bhap2rcd13ifvqek0","pricing_plan_id":"cebpf4jnsgd1na2vs0mg"},{"bike_id":"436bcdbb-61d6-407c-bb12-7dc81cb26c80","system_id":"levelo_inurba_marseille","lat":43.29283,"lon":5.376,"is_reserved":false,"is_disabled":false,"rental_uris":{"android":"levelo://app?vid=436bcdbb-61d6-407c-bb12-7dc81cb26c80","ios":"levelo://app?vid=436bcdbb-61d6-407c-bb12-7dc81cb26c80"},"vehicle_type_id":"4","last_reported":1741460832,"current_range_meters":10000,"station_id":"ce4bgi12rcd13ifvqb80","pricing_plan_id":"cebpf4jnsgd1na2vs0mg"},{"bike_id":"680f50b0-bd88-46fa-8b64-7606994c73f2","system_id":"levelo_inurba_marseille","lat":43.29624,"lon":5.37144,"is_reserved":false,"is_disabled":true,"rental_uris":{"android":"levelo://app?vid=680f50b0-bd88-46fa-8b64-7606994c73f2","ios":"levelo://app?vid=680f50b0-bd88-46fa-8b64-7606994c73f2"},"vehicle_type_id":"4","last_reported":1741460832,"current_range_meters":10800,"station_id":"ce4bgnh2rcd13ifvqc0g","pricing_plan_id":"cebpf4jnsgd1na2vs0mg"},{"bike_id":"348fa841-def4-46af-b6d4-ac13d688944e","system_id":"levelo_inurba_marseille","lat":43.31709,"lon":5.377445,"is_reserved":false,"is_disabled":false,"rental_uris":{"android":"levelo://app?vid=348fa841-def4-46af-b6d4-ac13d688944e","ios":"levelo://app?vid=348fa841-def4-46af-b6d4-ac13d688944e"},"vehicle_type_id":"4","last_reported":1741460832,"current_range_meters":10800,"station_id":"ce4bgt92rcd13ifvqcg0","pricing_plan_id":"cebpf4jnsgd1na2vs0mg"},{"bike_id":"ad284fdb-e6f9-4c5a-9e2c-c44130087410","system_id":"levelo_inurba_marseille","lat":43.23181,"lon":5.39986,"is_reserved":false,"is_disabled":false,"rental_uris":{"android":"levelo://app?vid=ad284fdb-e6f9-4c5a-9e2c-c44130087410","ios":"levelo://app?vid=ad284fdb-e6f9-4c5a-9e2c-c44130087410"},"vehicle_type_id":"4","last_reported":1741460832,"current_range_meters":10800,"station_id":"ce4bhn12rcd13ifvqgqg","pricing_plan_id":"cebpf4jnsgd1na2vs0mg"},{"bike_id":"0ee34a75-da67-4fcc-bde2-63a3210d095a","system_id":"levelo_inurba_marseille","lat":43.29419,"lon":5.38625,"is_reserved":false,"is_disabled":false,"rental_uris":{"android":"levelo://app?vid=0ee34a75-da67-4fcc-bde2-63a3210d095a","ios":"levelo://app?vid=0ee34a75-da67-4fcc-bde2-63a3210d095a"},"vehicle_type_id":"4","last_reported":1741460832,"current_range_meters":10800,"station_id":"ce4bh2h2rcd13ifvqdh0","pricing_plan_id":"cebpf4jnsgd1na2vs0mg"},{"bike_id":"388ea826-f5fa-4632-a530-45d13cc0a769","system_id":"levelo_inurba_marseille","lat":43.23191,"lon":5.39984,"is_reserved":false,"is_disabled":false,"rental_uris":{"android":"levelo://app?vid=388ea826-f5fa-4632-a530-45d13cc0a769","ios":"levelo://app?vid=388ea826-f5fa-4632-a530-45d13cc0a769"},"vehicle_type_id":"4","last_reported":1741460832,"current_range_meters":10800,"station_id":"ce4bhn12rcd13ifvqgqg","pricing_plan_id":"cebpf4jnsgd1na2vs0mg"},{"bike_id":"467f24b0-1c2c-41bb-9acf-4644c163c18c","system_id":"levelo_inurba_marseille","lat":43.27321,"lon":5.39086,"is_reserved":false,"is_disabled":false,"rental_uris":{"android":"levelo://app?vid=467f24b0-1c2c-41bb-9acf-4644c163c18c","ios":"levelo://app?vid=467f24b0-1c2c-41bb-9acf-4644c163c18c"},"vehicle_type_id":"4","last_reported":1741460832,"current_range_meters":10800,"station_id":"ce4bhgp2rcd13ifvqfe0","pricing_plan_id":"cebpf4jnsgd1na2vs0mg"},{"bike_id":"2c8962c5-521a-4922-9b04-a40fdbebaa58","system_id":"levelo_inurba_marseille","lat":43.30608,"lon":5.37232,"is_reserved":false,"is_disabled":false,"rental_uris":{"android":"levelo://app?vid=2c8962c5-521a-4922-9b04-a40fdbebaa58","ios":"levelo://app?vid=2c8962c5-521a-4922-9b04-a40fdbebaa58"},"vehicle_type_id":"4","last_reported":1741460832,"current_range_meters":10800,"station_id":"ce4bgqh2rcd13ifvqc4g","pricing_plan_id":"cebpf4jnsgd1na2vs0mg"},{"bike_id":"58912913-070d-4f68-94ac-282dc0181e33","system_id":"levelo_inurba_marseille","lat":43.29714,"lon":5.37891,"is_reserved":false,"is_disabled":false,"rental_uris":{"android":"levelo://app?vid=58912913-070d-4f68-94ac-282dc0181e33","ios":"levelo://app?vid=58912913-070d-4f68-94ac-282dc0181e33"},"vehicle_type_id":"4","last_reported":1741460832,"current_range_meters":11200,"station_id":"","pricing_plan_id":"cebpf4jnsgd1na2vs0mg"},{"bike_id":"49924e07-0db1-40a6-b83d-a7a5be5354bf","system_id":"levelo_inurba_marseille","lat":43.30798,"lon":5.38175,"is_reserved":false,"is_disabled":false,"rental_uris":{"android":"levelo://app?vid=49924e07-0db1-40a6-b83d-a7a5be5354bf","ios":"levelo://app?vid=49924e07-0db1-40a6-b83d-a7a5be5354bf"},"vehicle_type_id":"4","last_reported":1741460832,"current_range_meters":11200,"station_id":"ce4bgt12rcd13ifvqce0","pricing_plan_id":"cebpf4jnsgd1na2vs0mg"},{"bike_id":"4d724d78-bed5-4ad6-a0eb-7b5097a9b379","system_id":"levelo_inurba_marseille","lat":43.25099,"lon":5.39514,"is_reserved":false,"is_disabled":false,"rental_uris":{"android":"levelo://app?vid=4d724d78-bed5-4ad6-a0eb-7b5097a9b379","ios":"levelo://app?vid=4d724d78-bed5-4ad6-a0eb-7b5097a9b379"},"vehicle_type_id":"4","last_reported":1741460832,"current_range_meters":11200,"station_id":"ce4bhm12rcd13ifvqgkg","pricing_plan_id":"cebpf4jnsgd1na2vs0mg"},{"bike_id":"041d04e0-5199-4a84-941f-c0dd50f87149","system_id":"levelo_inurba_marseille","lat":43.27215,"lon":5.39175,"is_reserved":false,"is_disabled":false,"rental_uris":{"android":"levelo://app?vid=041d04e0-5199-4a84-941f-c0dd50f87149","ios":"levelo://app?vid=041d04e0-5199-4a84-941f-c0dd50f87149"},"vehicle_type_id":"4","last_reported":1741460832,"current_range_meters":11200,"station_id":"ce4bhhp2rcd13ifvqfm0","pricing_plan_id":"cebpf4jnsgd1na2vs0mg"},{"bike_id":"3c4ddcc6-5d22-4da2-9f13-60caa97d57b0","system_id":"levelo_inurba_marseille","lat":43.27812,"lon":5.40711,"is_reserved":false,"is_disabled":false,"rental_uris":{"android":"levelo://app?vid=3c4ddcc6-5d22-4da2-9f13-60caa97d57b0","ios":"levelo://app?vid=3c4ddcc6-5d22-4da2-9f13-60caa97d57b0"},"vehicle_type_id":"4","last_reported":1741460832,"current_range_meters":11200,"station_id":"ce4bhnh2rcd13ifvqgtg","pricing_plan_id":"cebpf4jnsgd1na2vs0mg"},{"bike_id":"379b9a83-f2ed-4bf1-b834-9863f1e2b8f9","system_id":"levelo_inurba_marseille","lat":43.31225,"lon":5.36859,"is_reserved":false,"is_disabled":false,"rental_uris":{"android":"levelo://app?vid=379b9a83-f2ed-4bf1-b834-9863f1e2b8f9","ios":"levelo://app?vid=379b9a83-f2ed-4bf1-b834-9863f1e2b8f9"},"vehicle_type_id":"4","last_reported":1741460832,"current_range_meters":11200,"station_id":"ce4bgl92rcd13ifvqbq0","pricing_plan_id":"cebpf4jnsgd1na2vs0mg"},{"bike_id":"cdc6fa71-b8c0-46e7-902c-4e18b52385d2","system_id":"levelo_inurba_marseille","lat":43.28844,"lon":5.40023,"is_reserved":false,"is_disabled":false,"rental_uris":{"android":"levelo://app?vid=cdc6fa71-b8c0-46e7-902c-4e18b52385d2","ios":"levelo://app?vid=cdc6fa71-b8c0-46e7-902c-4e18b52385d2"},"vehicle_type_id":"4","last_reported":1741460832,"current_range_meters":11200,"station_id":"","pricing_plan_id":"cebpf4jnsgd1na2vs0mg"},{"bike_id":"f3a51d33-8829-48fc-bce3-a6758bed5a15","system_id":"levelo_inurba_marseille","lat":43.28941,"lon":5.3841,"is_reserved":false,"is_disabled":false,"rental_uris":{"android":"levelo://app?vid=f3a51d33-8829-48fc-bce3-a6758bed5a15","ios":"levelo://app?vid=f3a51d33-8829-48fc-bce3-a6758bed5a15"},"vehicle_type_id":"4","last_reported":1741460832,"current_range_meters":11200,"station_id":"ce4bh612rcd13ifvqe6g","pricing_plan_id":"cebpf4jnsgd1na2vs0mg"},{"bike_id":"ce8e0952-bd72-46a8-9481-a4de30a0a55a","system_id":"levelo_inurba_marseille","lat":43.29251,"lon":5.38454,"is_reserved":false,"is_disabled":false,"rental_uris":{"android":"levelo://app?vid=ce8e0952-bd72-46a8-9481-a4de30a0a55a","ios":"levelo://app?vid=ce8e0952-bd72-46a8-9481-a4de30a0a55a"},"vehicle_type_id":"4","last_reported":1741460832,"current_range_meters":11200,"station_id":"ce4bh692rcd13ifvqea0","pricing_plan_id":"cebpf4jnsgd1na2vs0mg"},{"bike_id":"ccba082c-4942-45f9-9417-55e704974493","system_id":"levelo_inurba_marseille","lat":43.27817,"lon":5.40714,"is_reserved":false,"is_disabled":false,"rental_uris":{"android":"levelo://app?vid=ccba082c-4942-45f9-9417-55e704974493","ios":"levelo://app?vid=ccba082c-4942-45f9-9417-55e704974493"},"vehicle_type_id":"4","last_reported":1741460832,"current_range_meters":11200,"station_id":"ce4bhnh2rcd13ifvqgtg","pricing_plan_id":"cebpf4jnsgd1na2vs0mg"},{"bike_id":"93b65028-e8a4-4c8f-876a-ae246ea8ac90","system_id":"levelo_inurba_marseille","lat":43.31361,"lon":5.38499,"is_reserved":false,"is_disabled":true,"rental_uris":{"android":"levelo://app?vid=93b65028-e8a4-4c8f-876a-ae246ea8ac90","ios":"levelo://app?vid=93b65028-e8a4-4c8f-876a-ae246ea8ac90"},"vehicle_type_id":"4","last_reported":1741460832,"current_range_meters":11600,"station_id":"ce4bgt92rcd13ifvqcf0","pricing_plan_id":"cebpf4jnsgd1na2vs0mg"},{"bike_id":"30ca0a12-56c0-4feb-9059-10680035a6ae","system_id":"levelo_inurba_marseille","lat":43.28681,"lon":5.37415,"is_reserved":false,"is_disabled":true,"rental_uris":{"android":"levelo://app?vid=30ca0a12-56c0-4feb-9059-10680035a6ae","ios":"levelo://app?vid=30ca0a12-56c0-4feb-9059-10680035a6ae"},"vehicle_type_id":"4","last_reported":1741460832,"current_range_meters":11600,"station_id":"ce4bh3p2rcd13ifvqdq0","pricing_plan_id":"cebpf4jnsgd1na2vs0mg"},{"bike_id":"009bd070-1093-4b80-b958-d330534501e5","system_id":"levelo_inurba_marseille","lat":43.29223,"lon":5.3931,"is_reserved":false,"is_disabled":false,"rental_uris":{"android":"levelo://app?vid=009bd070-1093-4b80-b958-d330534501e5","ios":"levelo://app?vid=009bd070-1093-4b80-b958-d330534501e5"},"vehicle_type_id":"4","last_reported":1741460832,"current_range_meters":11600,"station_id":"ce4bh192rcd13ifvqdd0","pricing_plan_id":"cebpf4jnsgd1na2vs0mg"},{"bike_id":"9bf9fb6d-6967-429c-b115-c866ca2bd825","system_id":"levelo_inurba_marseille","lat":43.30148,"lon":5.37417,"is_reserved":false,"is_disabled":false,"rental_uris":{"android":"levelo://app?vid=9bf9fb6d-6967-429c-b115-c866ca2bd825","ios":"levelo://app?vid=9bf9fb6d-6967-429c-b115-c866ca2bd825"},"vehicle_type_id":"4","last_reported":1741460832,"current_range_meters":11600,"station_id":"ce4bgs92rcd13ifvqcc0","pricing_plan_id":"cebpf4jnsgd1na2vs0mg"},{"bike_id":"0d09594a-59fa-44e0-a776-e1c2c48660b9","system_id":"levelo_inurba_marseille","lat":43.27839,"lon":5.3922,"is_reserved":false,"is_disabled":false,"rental_uris":{"android":"levelo://app?vid=0d09594a-59fa-44e0-a776-e1c2c48660b9","ios":"levelo://app?vid=0d09594a-59fa-44e0-a776-e1c2c48660b9"},"vehicle_type_id":"4","last_reported":1741460832,"current_range_meters":11600,"station_id":"ce4bhjp2rcd13ifvqga0","pricing_plan_id":"cebpf4jnsgd1na2vs0mg"},{"bike_id":"67b9db9a-c3fa-425a-9fe6-cc5e607865fb","system_id":"levelo_inurba_marseille","lat":43.30445,"lon":5.38891,"is_reserved":false,"is_disabled":false,"rental_uris":{"android":"levelo://app?vid=67b9db9a-c3fa-425a-9fe6-cc5e607865fb","ios":"levelo://app?vid=67b9db9a-c3fa-425a-9fe6-cc5e607865fb"},"vehicle_type_id":"4","last_reported":1741460832,"current_range_meters":11200,"station_id":"ce4bgk12rcd13ifvqbi0","pricing_plan_id":"cebpf4jnsgd1na2vs0mg"},{"bike_id":"74921a3d-81fd-4139-a16d-7c498eb42c3c","system_id":"levelo_inurba_marseille","lat":43.28668,"lon":5.38666,"is_reserved":false,"is_disabled":false,"rental_uris":{"android":"levelo://app?vid=74921a3d-81fd-4139-a16d-7c498eb42c3c","ios":"levelo://app?vid=74921a3d-81fd-4139-a16d-7c498eb42c3c"},"vehicle_type_id":"4","last_reported":1741460832,"current_range_meters":12000,"station_id":"ce4bh492rcd13ifvqdug","pricing_plan_id":"cebpf4jnsgd1na2vs0mg"},{"bike_id":"19bbe8da-d7df-496e-a677-cbaab925cf5e","system_id":"levelo_inurba_marseille","lat":43.24863,"lon":5.42505,"is_reserved":false,"is_disabled":false,"rental_uris":{"android":"levelo://app?vid=19bbe8da-d7df-496e-a677-cbaab925cf5e","ios":"levelo://app?vid=19bbe8da-d7df-496e-a677-cbaab925cf5e"},"vehicle_type_id":"4","last_reported":1741460832,"current_range_meters":12000,"station_id":"","pricing_plan_id":"cebpf4jnsgd1na2vs0mg"},{"bike_id":"3c0e4035-a221-4175-9c1f-5404a2e80550","system_id":"levelo_inurba_marseille","lat":43.26938,"lon":5.40248,"is_reserved":false,"is_disabled":false,"rental_uris":{"android":"levelo://app?vid=3c0e4035-a221-4175-9c1f-5404a2e80550","ios":"levelo://app?vid=3c0e4035-a221-4175-9c1f-5404a2e80550"},"vehicle_type_id":"4","last_reported":1741460832,"current_range_meters":12000,"station_id":"cjm6bp8fraef2m0cb0m0","pricing_plan_id":"cebpf4jnsgd1na2vs0mg"},{"bike_id":"f768c843-4cbf-4829-952f-d73a2c4dc840","system_id":"levelo_inurba_marseille","lat":43.29805,"lon":5.39334,"is_reserved":false,"is_disabled":false,"rental_uris":{"android":"levelo://app?vid=f768c843-4cbf-4829-952f-d73a2c4dc840","ios":"levelo://app?vid=f768c843-4cbf-4829-952f-d73a2c4dc840"},"vehicle_type_id":"4","last_reported":1741460832,"current_range_meters":12000,"station_id":"chh1huq6cuj3fo74tm60","pricing_plan_id":"cebpf4jnsgd1na2vs0mg"},{"bike_id":"1255397c-ce62-4d3c-b34c-42b1e892168c","system_id":"levelo_inurba_marseille","lat":43.25719,"lon":5.41118,"is_reserved":false,"is_disabled":false,"rental_uris":{"android":"levelo://app?vid=1255397c-ce62-4d3c-b34c-42b1e892168c","ios":"levelo://app?vid=1255397c-ce62-4d3c-b34c-42b1e892168c"},"vehicle_type_id":"4","last_reported":1741460832,"current_range_meters":12000,"station_id":"ce4bhkp2rcd13ifvqgd0","pricing_plan_id":"cebpf4jnsgd1na2vs0mg"},{"bike_id":"ccc04523-0b7c-41c1-8af3-6d80d4f2f8e1","system_id":"levelo_inurba_marseille","lat":43.27998,"lon":5.41664,"is_reserved":false,"is_disabled":false,"rental_uris":{"android":"levelo://app?vid=ccc04523-0b7c-41c1-8af3-6d80d4f2f8e1","ios":"levelo://app?vid=ccc04523-0b7c-41c1-8af3-6d80d4f2f8e1"},"vehicle_type_id":"4","last_reported":1741460832,"current_range_meters":12000,"station_id":"ce4bho12rcd13ifvqh1g","pricing_plan_id":"cebpf4jnsgd1na2vs0mg"},{"bike_id":"49b4d2a3-7491-4ab0-b942-41a3d5b8d4cd","system_id":"levelo_inurba_marseille","lat":43.29052,"lon":5.37171,"is_reserved":false,"is_disabled":false,"rental_uris":{"android":"levelo://app?vid=49b4d2a3-7491-4ab0-b942-41a3d5b8d4cd","ios":"levelo://app?vid=49b4d2a3-7491-4ab0-b942-41a3d5b8d4cd"},"vehicle_type_id":"4","last_reported":1741460832,"current_range_meters":12000,"station_id":"ce4bh5p2rcd13ifvqe4g","pricing_plan_id":"cebpf4jnsgd1na2vs0mg"},{"bike_id":"0e698c9d-47bc-4045-944d-ecfd6b2414bc","system_id":"levelo_inurba_marseille","lat":43.31084,"lon":5.42417,"is_reserved":false,"is_disabled":false,"rental_uris":{"android":"levelo://app?vid=0e698c9d-47bc-4045-944d-ecfd6b2414bc","ios":"levelo://app?vid=0e698c9d-47bc-4045-944d-ecfd6b2414bc"},"vehicle_type_id":"4","last_reported":1741460832,"current_range_meters":12000,"station_id":"ce4bhp92rcd13ifvqhag","pricing_plan_id":"cebpf4jnsgd1na2vs0mg"},{"bike_id":"54378b71-439b-4977-8e0c-80dfb44877f5","system_id":"levelo_inurba_marseille","lat":43.293972,"lon":5.382668,"is_reserved":false,"is_disabled":false,"rental_uris":{"android":"levelo://app?vid=54378b71-439b-4977-8e0c-80dfb44877f5","ios":"levelo://app?vid=54378b71-439b-4977-8e0c-80dfb44877f5"},"vehicle_type_id":"4","last_reported":1741460832,"current_range_meters":12000,"station_id":"ce4bgih2rcd13ifvqba0","pricing_plan_id":"cebpf4jnsgd1na2vs0mg"},{"bike_id":"716ad52e-6276-401a-9565-37b068cf8f1c","system_id":"levelo_inurba_marseille","lat":43.24816,"lon":5.37457,"is_reserved":false,"is_disabled":false,"rental_uris":{"android":"levelo://app?vid=716ad52e-6276-401a-9565-37b068cf8f1c","ios":"levelo://app?vid=716ad52e-6276-401a-9565-37b068cf8f1c"},"vehicle_type_id":"4","last_reported":1741460832,"current_range_meters":12400,"station_id":"ce4bhgh2rcd13ifvqfb0","pricing_plan_id":"cebpf4jnsgd1na2vs0mg"},{"bike_id":"93642628-15f9-4b6a-a4f1-41e403b96a9c","system_id":"levelo_inurba_marseille","lat":43.29781,"lon":5.39339,"is_reserved":false,"is_disabled":false,"rental_uris":{"android":"levelo://app?vid=93642628-15f9-4b6a-a4f1-41e403b96a9c","ios":"levelo://app?vid=93642628-15f9-4b6a-a4f1-41e403b96a9c"},"vehicle_type_id":"4","last_reported":1741460832,"current_range_meters":12800,"station_id":"chh1huq6cuj3fo74tm60","pricing_plan_id":"cebpf4jnsgd1na2vs0mg"},{"bike_id":"a2d3aead-05bf-4923-9e02-2a150db0b855","system_id":"levelo_inurba_marseille","lat":43.30788,"lon":5.37646,"is_reserved":false,"is_disabled":false,"rental_uris":{"android":"levelo://app?vid=a2d3aead-05bf-4923-9e02-2a150db0b855","ios":"levelo://app?vid=a2d3aead-05bf-4923-9e02-2a150db0b855"},"vehicle_type_id":"4","last_reported":1741460832,"current_range_meters":12400,"station_id":"ce4bgv92rcd13ifvqcq0","pricing_plan_id":"cebpf4jnsgd1na2vs0mg"},{"bike_id":"6cfa6918-9998-41e2-be7e-8892614f1312","system_id":"levelo_inurba_marseille","lat":43.23962,"lon":5.36638,"is_reserved":false,"is_disabled":false,"rental_uris":{"android":"levelo://app?vid=6cfa6918-9998-41e2-be7e-8892614f1312","ios":"levelo://app?vid=6cfa6918-9998-41e2-be7e-8892614f1312"},"vehicle_type_id":"4","last_reported":1741460832,"current_range_meters":12400,"station_id":"ce4bhi12rcd13ifvqfp0","pricing_plan_id":"cebpf4jnsgd1na2vs0mg"},{"bike_id":"2921a9de-6f65-4022-9e71-0fa0e0f3494d","system_id":"levelo_inurba_marseille","lat":43.29558,"lon":5.38547,"is_reserved":false,"is_disabled":false,"rental_uris":{"android":"levelo://app?vid=2921a9de-6f65-4022-9e71-0fa0e0f3494d","ios":"levelo://app?vid=2921a9de-6f65-4022-9e71-0fa0e0f3494d"},"vehicle_type_id":"4","last_reported":1741460832,"current_range_meters":12800,"station_id":"ce4bgih2rcd13ifvqba0","pricing_plan_id":"cebpf4jnsgd1na2vs0mg"},{"bike_id":"66382a6a-cd9a-472d-8898-c4876ddc7c1b","system_id":"levelo_inurba_marseille","lat":43.29371,"lon":5.37844,"is_reserved":false,"is_disabled":false,"rental_uris":{"android":"levelo://app?vid=66382a6a-cd9a-472d-8898-c4876ddc7c1b","ios":"levelo://app?vid=66382a6a-cd9a-472d-8898-c4876ddc7c1b"},"vehicle_type_id":"4","last_reported":1741460832,"current_range_meters":12800,"station_id":"ce4bgjh2rcd13ifvqbf0","pricing_plan_id":"cebpf4jnsgd1na2vs0mg"},{"bike_id":"128c6e9a-f050-4340-a828-773721c0287d","system_id":"levelo_inurba_marseille","lat":43.26946,"lon":5.40247,"is_reserved":false,"is_disabled":false,"rental_uris":{"android":"levelo://app?vid=128c6e9a-f050-4340-a828-773721c0287d","ios":"levelo://app?vid=128c6e9a-f050-4340-a828-773721c0287d"},"vehicle_type_id":"4","last_reported":1741460832,"current_range_meters":12800,"station_id":"cjm6bp8fraef2m0cb0m0","pricing_plan_id":"cebpf4jnsgd1na2vs0mg"},{"bike_id":"eaa3cf00-9ae8-4c97-9bea-c424ccd5e353","system_id":"levelo_inurba_marseille","lat":43.29422,"lon":5.3862,"is_reserved":false,"is_disabled":false,"rental_uris":{"android":"levelo://app?vid=eaa3cf00-9ae8-4c97-9bea-c424ccd5e353","ios":"levelo://app?vid=eaa3cf00-9ae8-4c97-9bea-c424ccd5e353"},"vehicle_type_id":"4","last_reported":1741460832,"current_range_meters":13600,"station_id":"ce4bh2h2rcd13ifvqdh0","pricing_plan_id":"cebpf4jnsgd1na2vs0mg"},{"bike_id":"0c669048-a92a-44c9-abc4-e7ca0d7971d7","system_id":"levelo_inurba_marseille","lat":43.26935,"lon":5.38929,"is_reserved":false,"is_disabled":false,"rental_uris":{"android":"levelo://app?vid=0c669048-a92a-44c9-abc4-e7ca0d7971d7","ios":"levelo://app?vid=0c669048-a92a-44c9-abc4-e7ca0d7971d7"},"vehicle_type_id":"4","last_reported":1741460832,"current_range_meters":13600,"station_id":"ce4bhhh2rcd13ifvqfl0","pricing_plan_id":"cebpf4jnsgd1na2vs0mg"},{"bike_id":"1fb366b2-40cc-4ca6-9695-04b662123b6f","system_id":"levelo_inurba_marseille","lat":43.28352,"lon":5.38116,"is_reserved":false,"is_disabled":false,"rental_uris":{"android":"levelo://app?vid=1fb366b2-40cc-4ca6-9695-04b662123b6f","ios":"levelo://app?vid=1fb366b2-40cc-4ca6-9695-04b662123b6f"},"vehicle_type_id":"4","last_reported":1741460832,"current_range_meters":13600,"station_id":"ce4bh412rcd13ifvqdr0","pricing_plan_id":"cebpf4jnsgd1na2vs0mg"},{"bike_id":"173dfca7-6ca3-4280-a6f5-d1590153c6d8","system_id":"levelo_inurba_marseille","lat":43.28479,"lon":5.38413,"is_reserved":false,"is_disabled":false,"rental_uris":{"android":"levelo://app?vid=173dfca7-6ca3-4280-a6f5-d1590153c6d8","ios":"levelo://app?vid=173dfca7-6ca3-4280-a6f5-d1590153c6d8"},"vehicle_type_id":"4","last_reported":1741460832,"current_range_meters":13600,"station_id":"ce4bh512rcd13ifvqe3g","pricing_plan_id":"cebpf4jnsgd1na2vs0mg"},{"bike_id":"d0f9dfdd-ba64-4058-9ac8-dcd8120d991c","system_id":"levelo_inurba_marseille","lat":43.27915,"lon":5.39576,"is_reserved":false,"is_disabled":false,"rental_uris":{"android":"levelo://app?vid=d0f9dfdd-ba64-4058-9ac8-dcd8120d991c","ios":"levelo://app?vid=d0f9dfdd-ba64-4058-9ac8-dcd8120d991c"},"vehicle_type_id":"4","last_reported":1741460832,"current_range_meters":13600,"station_id":"ce4bhf92rcd13ifvqf40","pricing_plan_id":"cebpf4jnsgd1na2vs0mg"},{"bike_id":"5bc5e6b1-41e4-436c-8101-e22bf3160d4c","system_id":"levelo_inurba_marseille","lat":43.29509,"lon":5.394,"is_reserved":false,"is_disabled":false,"rental_uris":{"android":"levelo://app?vid=5bc5e6b1-41e4-436c-8101-e22bf3160d4c","ios":"levelo://app?vid=5bc5e6b1-41e4-436c-8101-e22bf3160d4c"},