{"last_updated":1731117945,"ttl":60,"version":"2.2","data":{"bikes":[{"bike_id":"059dfedc-a94c-409c-b213-35a738d8da32","system_id":"levelo_inurba_marseille","lat":43.2992,"lon":5.3748,"is_reserved":false,"is_disabled":false,"rental_uris":{"android":"levelo://app?vid=059dfedc-a94c-409c-b213-35a738d8da32","ios":"levelo://app?vid=059dfedc-a94c-409c-b213-35a738d8da32"},"vehicle_type_id":"4","last_reported":1731117945,"current_range_meters":37600,"station_id":"ce4bgjh2rcd13ifvqbg0","pricing_plan_id":"cebpf4jnsgd1na2vs0mg"},{"bike_id":"9d0487f6-516f-402b-821a-be6ce3faef3e","system_id":"levelo_inurba_marseille","lat":43.28367,"lon":5.38631,"is_reserved":false,"is_disabled":false,"rental_uris":{"android":"levelo://app?vid=9d0487f6-516f-402b-821a-be6ce3faef3e","ios":"levelo://app?vid=9d0487f6-516f-402b-821a-be6ce3faef3e"},"vehicle_type_id":"4","last_reported":1731117945,"current_range_meters":38800,"station_id":"ce4bh492rcd13ifvqdvg","pricing_plan_id":"cebpf4jnsgd1na2vs0mg"},{"bike_id":"37b18ebd-4aa0-4ca2-bfbb-ac9479701cc7","system_id":"levelo_inurba_marseille","lat":43.280738,"lon":5.396504,"is_reserved":false,"is_disabled":false,"rental_uris":{"android":"levelo://app?vid=37b18ebd-4aa0-4ca2-bfbb-ac9479701cc7","ios":"levelo://app?vid=37b18ebd-4aa0-4ca2-bfbb-ac9479701cc7"},"vehicle_type_id":"4","last_reported":1731117945,"current_range_meters":38800,"station_id":"ce4bho12rcd13ifvqh2g","pricing_plan_id":"cebpf4jnsgd1na2vs0mg"},{"bike_id":"834e2ca1-93b9-4cda-9f7d-73c8ade8e79a","system_id":"levelo_inurba_marseille","lat":43.29923,"lon":5.36522,"is_reserved":false,"is_disabled":false,"rental_uris":{"android":"levelo://app?vid=834e2ca1-93b9-4cda-9f7d-73c8ade8e79a","ios":"levelo://app?vid=834e2ca1-93b9-4cda-9f7d-73c8ade8e79a"},"vehicle_type_id":"4","last_reported":1731117945,"current_range_meters":21600,"station_id":"ce4bgm92rcd13ifvqbr0","pricing_plan_id":"cebpf4jnsgd1na2vs0mg"},{"bike_id":"89b8a685-fac9-450e-a70e-342515d21cbe","system_id":"levelo_inurba_marseille","lat":43.27636,"lon":5.42643,"is_reserved":false,"is_disabled":false,"rental_uris":{"android":"levelo://app?vid=89b8a685-fac9-450e-a70e-342515d21cbe","ios":"levelo://app?vid=89b8a685-fac9-450e-a70e-342515d21cbe"},"vehicle_type_id":"4","last_reported":1731117945,"current_range_meters":17200,"station_id":"","pricing_plan_id":"cebpf4jnsgd1na2vs0mg"},{"bike_id":"06bb3e06-6dfc-4c7a-bbfb-aaacb082969f","system_id":"levelo_inurba_marseille","lat":43.25097,"lon":5.40316,"is_reserved":false,"is_disabled":false,"rental_uris":{"android":"levelo://app?vid=06bb3e06-6dfc-4c7a-bbfb-aaacb082969f","ios":"levelo://app?vid=06bb3e06-6dfc-4c7a-bbfb-aaacb082969f"},"vehicle_type_id":"4","last_reported":1731117945,"current_range_meters":36000,"station_id":"ce4bhlh2rcd13ifvqgig","pricing_plan_id":"cebpf4jnsgd1na2vs0mg"},{"bike_id":"68bb9078-c705-4e4c-81de-7ae7c7d86c43","system_id":"levelo_inurba_marseille","lat":43.31662,"lon":5.37714,"is_reserved":false,"is_disabled":false,"rental_uris":{"android":"levelo://app?vid=68bb9078-c705-4e4c-81de-7ae7c7d86c43","ios":"levelo://app?vid=68bb9078-c705-4e4c-81de-7ae7c7d86c43"},"vehicle_type_id":"4","last_reported":1731117945,"current_range_meters":30800,"station_id":"ce4bgth2rcd13ifvqch0","pricing_plan_id":"cebpf4jnsgd1na2vs0mg"},{"bike_id":"c5ccda0c-9017-4217-9246-ab0a2f97c5c4","system_id":"levelo_inurba_marseille","lat":43.30126,"lon":5.39847,"is_reserved":false,"is_disabled":false,"rental_uris":{"android":"levelo://app?vid=c5ccda0c-9017-4217-9246-ab0a2f97c5c4","ios":"levelo://app?vid=c5ccda0c-9017-4217-9246-ab0a2f97c5c4"},"vehicle_type_id":"4","last_reported":1731117945,"current_range_meters":28000,"station_id":"ce4bh0h2rcd13ifvqd40","pricing_plan_id":"cebpf4jnsgd1na2vs0mg"},{"bike_id":"0ff4e3e5-5144-4fdb-9afd-d988e88ae58e","system_id":"levelo_inurba_marseille","lat":43.337444,"lon":5.374475,"is_reserved":false,"is_disabled":false,"rental_uris":{"android":"levelo://app?vid=0ff4e3e5-5144-4fdb-9afd-d988e88ae58e","ios":"levelo://app?vid=0ff4e3e5-5144-4fdb-9afd-d988e88ae58e"},"vehicle_type_id":"4","last_reported":1731117945,"current_range_meters":19200,"station_id":"","pricing_plan_id":"cebpf4jnsgd1na2vs0mg"},{"bike_id":"f71092d4-38f3-4962-831d-db8d47051567","system_id":"levelo_inurba_marseille","lat":43.24069,"lon":5.37751,"is_reserved":false,"is_disabled":false,"rental_uris":{"android":"levelo://app?vid=f71092d4-38f3-4962-831d-db8d47051567","ios":"levelo://app?vid=f71092d4-38f3-4962-831d-db8d47051567"},"vehicle_type_id":"4","last_reported":1731117945,"current_range_meters":9200,"station_id":"ce4bhnp2rcd13ifvqgvg","pricing_plan_id":"cebpf4jnsgd1na2vs0mg"},{"bike_id":"e189bbac-dc5a-45e5-bc66-2f9813becece","system_id":"levelo_inurba_marseille","lat":43.30252,"lon":5.40058,"is_reserved":false,"is_disabled":false,"rental_uris":{"android":"levelo://app?vid=e189bbac-dc5a-45e5-bc66-2f9813becece","ios":"levelo://app?vid=e189bbac-dc5a-45e5-bc66-2f9813becece"},"vehicle_type_id":"4","last_reported":1731117945,"current_range_meters":32000,"station_id":"ce4bgvh2rcd13ifvqcs0","pricing_plan_id":"cebpf4jnsgd1na2vs0mg"},{"bike_id":"b5ebdb16-bb62-4216-95a5-9133d9c41403","system_id":"levelo_inurba_marseille","lat":43.29802,"lon":5.4041,"is_reserved":false,"is_disabled":false,"rental_uris":{"android":"levelo://app?vid=b5ebdb16-bb62-4216-95a5-9133d9c41403","ios":"levelo://app?vid=b5ebdb16-bb62-4216-95a5-9133d9c41403"},"vehicle_type_id":"4","last_reported":1731117945,"current_range_meters":21600,"station_id":"ce4bh112rcd13ifvqd90","pricing_plan_id":"cebpf4jnsgd1na2vs0mg"},{"bike_id":"7a636c65-a00f-4211-8190-f94784703ffa","system_id":"levelo_inurba_marseille","lat":43.30582,"lon":5.39347,"is_reserved":false,"is_disabled":false,"rental_uris":{"android":"levelo://app?vid=7a636c65-a00f-4211-8190-f94784703ffa","ios":"levelo://app?vid=7a636c65-a00f-4211-8190-f94784703ffa"},"vehicle_type_id":"4","last_reported":1731117945,"current_range_meters":29600,"station_id":"ce4bh0p2rcd13ifvqd80","pricing_plan_id":"cebpf4jnsgd1na2vs0mg"},{"bike_id":"e899eac6-4691-43b6-92e8-21ecece2b174","system_id":"levelo_inurba_marseille","lat":43.31074,"lon":5.38341,"is_reserved":false,"is_disabled":false,"rental_uris":{"android":"levelo://app?vid=e899eac6-4691-43b6-92e8-21ecece2b174","ios":"levelo://app?vid=e899eac6-4691-43b6-92e8-21ecece2b174"},"vehicle_type_id":"4","last_reported":1731117945,"current_range_meters":25200,"station_id":"ce4bgv92rcd13ifvqcr0","pricing_plan_id":"cebpf4jnsgd1na2vs0mg"},{"bike_id":"d5dcc0a1-8c32-4a4e-9764-6e9a045ad10c","system_id":"levelo_inurba_marseille","lat":43.32073,"lon":5.41598,"is_reserved":false,"is_disabled":false,"rental_uris":{"android":"levelo://app?vid=d5dcc0a1-8c32-4a4e-9764-6e9a045ad10c","ios":"levelo://app?vid=d5dcc0a1-8c32-4a4e-9764-6e9a045ad10c"},"vehicle_type_id":"4","last_reported":1731117945,"current_range_meters":38800,"station_id":"ce4bhq92rcd13ifvqhkg","pricing_plan_id":"cebpf4jnsgd1na2vs0mg"},{"bike_id":"c06d1949-aba5-4f23-959b-3c05a40c3614","system_id":"levelo_inurba_marseille","lat":43.23193,"lon":5.3997,"is_reserved":false,"is_disabled":false,"rental_uris":{"android":"levelo://app?vid=c06d1949-aba5-4f23-959b-3c05a40c3614","ios":"levelo://app?vid=c06d1949-aba5-4f23-959b-3c05a40c3614"},"vehicle_type_id":"4","last_reported":1731117945,"current_range_meters":29600,"station_id":"ce4bhn12rcd13ifvqgqg","pricing_plan_id":"cebpf4jnsgd1na2vs0mg"},{"bike_id":"7a61aa54-4124-4dcd-858b-db846d80c8c4","system_id":"levelo_inurba_marseille","lat":43.27617,"lon":5.36112,"is_reserved":false,"is_disabled":false,"rental_uris":{"android":"levelo://app?vid=7a61aa54-4124-4dcd-858b-db846d80c8c4","ios":"levelo://app?vid=7a61aa54-4124-4dcd-858b-db846d80c8c4"},"vehicle_type_id":"4","last_reported":1731117945,"current_range_meters":16400,"station_id":"ce4bgj92rcd13ifvqbe0","pricing_plan_id":"cebpf4jnsgd1na2vs0mg"},{"bike_id":"702dc037-3c0a-4b1c-8e72-d61256d25f59","system_id":"levelo_inurba_marseille","lat":43.31123,"lon":5.37774,"is_reserved":false,"is_disabled":false,"rental_uris":{"android":"levelo://app?vid=702dc037-3c0a-4b1c-8e72-d61256d25f59","ios":"levelo://app?vid=702dc037-3c0a-4b1c-8e72-d61256d25f59"},"vehicle_type_id":"4","last_reported":1731117945,"current_range_meters":22800,"station_id":"ce4bgt92rcd13ifvqcg0","pricing_plan_id":"cebpf4jnsgd1na2vs0mg"},{"bike_id":"ba1c9f38-f669-486e-a9b0-c17e8b452755","system_id":"levelo_inurba_marseille","lat":43.32283,"lon":5.3829,"is_reserved":false,"is_disabled":false,"rental_uris":{"android":"levelo://app?vid=ba1c9f38-f669-486e-a9b0-c17e8b452755","ios":"levelo://app?vid=ba1c9f38-f669-486e-a9b0-c17e8b452755"},"vehicle_type_id":"4","last_reported":1731117945,"current_range_meters":38800,"station_id":"ce4bhr12rcd13ifvqhqg","pricing_plan_id":"cebpf4jnsgd1na2vs0mg"},{"bike_id":"83abb7ab-2714-420b-bea8-2448ad0249f3","system_id":"levelo_inurba_marseille","lat":43.31122,"lon":5.37787,"is_reserved":false,"is_disabled":false,"rental_uris":{"android":"levelo://app?vid=83abb7ab-2714-420b-bea8-2448ad0249f3","ios":"levelo://app?vid=83abb7ab-2714-420b-bea8-2448ad0249f3"},"vehicle_type_id":"4","last_reported":1731117945,"current_range_meters":36800,"station_id":"ce4bgt92rcd13ifvqcg0","pricing_plan_id":"cebpf4jnsgd1na2vs0mg"},{"bike_id":"8633134c-958c-4f7d-b9db-bd51e61b5e12","system_id":"levelo_inurba_marseille","lat":43.30956,"lon":5.3905,"is_reserved":false,"is_disabled":false,"rental_uris":{"android":"levelo://app?vid=8633134c-958c-4f7d-b9db-bd51e61b5e12","ios":"levelo://app?vid=8633134c-958c-4f7d-b9db-bd51e61b5e12"},"vehicle_type_id":"4","last_reported":1731117945,"current_range_meters":29600,"station_id":"ce4bgup2rcd13ifvqco0","pricing_plan_id":"cebpf4jnsgd1na2vs0mg"},{"bike_id":"da6f561c-ca5f-4a49-b08f-ff4f3e8e4c5a","system_id":"levelo_inurba_marseille","lat":43.30594,"lon":5.37234,"is_reserved":false,"is_disabled":false,"rental_uris":{"android":"levelo://app?vid=da6f561c-ca5f-4a49-b08f-ff4f3e8e4c5a","ios":"levelo://app?vid=da6f561c-ca5f-4a49-b08f-ff4f3e8e4c5a"},"vehicle_type_id":"4","last_reported":1731117945,"current_range_meters":35200,"station_id":"ce4bgqh2rcd13ifvqc4g","pricing_plan_id":"cebpf4jnsgd1na2vs0mg"},{"bike_id":"2fd6dc22-dc4f-436f-8f09-ea747d8c2aa2","system_id":"levelo_inurba_marseille","lat":43.23957,"lon":5.3663,"is_reserved":false,"is_disabled":false,"rental_uris":{"android":"levelo://app?vid=2fd6dc22-dc4f-436f-8f09-ea747d8c2aa2","ios":"levelo://app?vid=2fd6dc22-dc4f-436f-8f09-ea747d8c2aa2"},"vehicle_type_id":"4","last_reported":1731117945,"current_range_meters":38800,"station_id":"ce4bhi12rcd13ifvqfp0","pricing_plan_id":"cebpf4jnsgd1na2vs0mg"},{"bike_id":"33a29131-b6cf-4df3-9895-321466b2d2ed","system_id":"levelo_inurba_marseille","lat":43.29637,"lon":5.36587,"is_reserved":false,"is_disabled":false,"rental_uris":{"android":"levelo://app?vid=33a29131-b6cf-4df3-9895-321466b2d2ed","ios":"levelo://app?vid=33a29131-b6cf-4df3-9895-321466b2d2ed"},"vehicle_type_id":"4","last_reported":1731117945,"current_range_meters":38800,"station_id":"ce4bgn12rcd13ifvqbt0","pricing_plan_id":"cebpf4jnsgd1na2vs0mg"},{"bike_id":"85b52cc9-1b8b-4a8a-b935-27ec549119c5","system_id":"levelo_inurba_marseille","lat":43.31081,"lon":5.38363,"is_reserved":false,"is_disabled":false,"rental_uris":{"android":"levelo://app?vid=85b52cc9-1b8b-4a8a-b935-27ec549119c5","ios":"levelo://app?vid=85b52cc9-1b8b-4a8a-b935-27ec549119c5"},"vehicle_type_id":"4","last_reported":1731117945,"current_range_meters":38800,"station_id":"ce4bgv92rcd13ifvqcr0","pricing_plan_id":"cebpf4jnsgd1na2vs0mg"},{"bike_id":"c42a69fe-20ee-45a7-9f50-2554fa199afb","system_id":"levelo_inurba_marseille","lat":43.29262,"lon":5.40899,"is_reserved":false,"is_disabled":false,"rental_uris":{"android":"levelo://app?vid=c42a69fe-20ee-45a7-9f50-2554fa199afb","ios":"levelo://app?vid=c42a69fe-20ee-45a7-9f50-2554fa199afb"},"vehicle_type_id":"4","last_reported":1731117945,"current_range_meters":18800,"station_id":"ce4bh192rcd13ifvqdc0","pricing_plan_id":"cebpf4jnsgd1na2vs0mg"},{"bike_id":"41a3c5f1-221a-4b57-8e6a-888d541e1a20","system_id":"levelo_inurba_marseille","lat":43.24073,"lon":5.37755,"is_reserved":false,"is_disabled":false,"rental_uris":{"android":"levelo://app?vid=41a3c5f1-221a-4b57-8e6a-888d541e1a20","ios":"levelo://app?vid=41a3c5f1-221a-4b57-8e6a-888d541e1a20"},"vehicle_type_id":"4","last_reported":1731117945,"current_range_meters":12400,"station_id":"ce4bhnp2rcd13ifvqgvg","pricing_plan_id":"cebpf4jnsgd1na2vs0mg"},{"bike_id":"b9059161-bc2a-4853-8231-de961bd5f1e7","system_id":"levelo_inurba_marseille","lat":43.33716,"lon":5.39188,"is_reserved":false,"is_disabled":false,"rental_uris":{"android":"levelo://app?vid=b9059161-bc2a-4853-8231-de961bd5f1e7","ios":"levelo://app?vid=b9059161-bc2a-4853-8231-de961bd5f1e7"},"vehicle_type_id":"4","last_reported":1731117945,"current_range_meters":24400,"station_id":"ce4bhr92rcd13ifvqhsg","pricing_plan_id":"cebpf4jnsgd1na2vs0mg"},{"bike_id":"d2763854-cb26-443b-a45b-c72ed6e5657c","system_id":"levelo_inurba_marseille","lat":43.28403,"lon":5.37516,"is_reserved":false,"is_disabled":false,"rental_uris":{"android":"levelo://app?vid=d2763854-cb26-443b-a45b-c72ed6e5657c","ios":"levelo://app?vid=d2763854-cb26-443b-a45b-c72ed6e5657c"},"vehicle_type_id":"4","last_reported":1731117945,"current_range_meters":38800,"station_id":"ce4bh412rcd13ifvqds0","pricing_plan_id":"cebpf4jnsgd1na2vs0mg"},{"bike_id":"b92b2145-74d4-429c-ae35-ace41084fe31","system_id":"levelo_inurba_marseille","lat":43.29781,"lon":5.37103,"is_reserved":false,"is_disabled":false,"rental_uris":{"android":"levelo://app?vid=b92b2145-74d4-429c-ae35-ace41084fe31","ios":"levelo://app?vid=b92b2145-74d4-429c-ae35-ace41084fe31"},"vehicle_type_id":"4","last_reported":1731117945,"current_range_meters":39200,"station_id":"ce4bgop2rcd13ifvqc1g","pricing_plan_id":"cebpf4jnsgd1na2vs0mg"},{"bike_id":"1f43d9a3-fc36-4881-af25-2c38a14b4533","system_id":"levelo_inurba_marseille","lat":43.28573,"lon":5.3949,"is_reserved":false,"is_disabled":false,"rental_uris":{"android":"levelo://app?vid=1f43d9a3-fc36-4881-af25-2c38a14b4533","ios":"levelo://app?vid=1f43d9a3-fc36-4881-af25-2c38a14b4533"},"vehicle_type_id":"4","last_reported":1731117945,"current_range_meters":16000,"station_id":"ce4bh292rcd13ifvqdg0","pricing_plan_id":"cebpf4jnsgd1na2vs0mg"},{"bike_id":"3702cf73-3983-4d19-ad47-06b4ccda60b7","system_id":"levelo_inurba_marseille","lat":43.29901,"lon":5.39732,"is_reserved":false,"is_disabled":false,"rental_uris":{"android":"levelo://app?vid=3702cf73-3983-4d19-ad47-06b4ccda60b7","ios":"levelo://app?vid=3702cf73-3983-4d19-ad47-06b4ccda60b7"},"vehicle_type_id":"4","last_reported":1731117945,"current_range_meters":38800,"station_id":"ce4bh0h2rcd13ifvqd50","pricing_plan_id":"cebpf4jnsgd1na2vs0mg"},{"bike_id":"ad97f328-01a3-4ebf-95e7-0cbaf2811fa2","system_id":"levelo_inurba_marseille","lat":43.288,"lon":5.37331,"is_reserved":false,"is_disabled":false,"rental_uris":{"android":"levelo://app?vid=ad97f328-01a3-4ebf-95e7-0cbaf2811fa2","ios":"levelo://app?vid=ad97f328-01a3-4ebf-95e7-0cbaf2811fa2"},"vehicle_type_id":"4","last_reported":1731117945,"current_range_meters":17200,"station_id":"","pricing_plan_id":"cebpf4jnsgd1na2vs0mg"},{"bike_id":"57fe26b5-ad7a-49c6-92b5-a51d7d925e90","system_id":"levelo_inurba_marseille","lat":43.30523,"lon":5.36518,"is_reserved":false,"is_disabled":false,"rental_uris":{"android":"levelo://app?vid=57fe26b5-ad7a-49c6-92b5-a51d7d925e90","ios":"levelo://app?vid=57fe26b5-ad7a-49c6-92b5-a51d7d925e90"},"vehicle_type_id":"4","last_reported":1731117945,"current_range_meters":13600,"station_id":"ce4bgs12rcd13ifvqcag","pricing_plan_id":"cebpf4jnsgd1na2vs0mg"},{"bike_id":"08c41f7d-2e28-482b-9605-355983efbf39","system_id":"levelo_inurba_marseille","lat":43.32356,"lon":5.38911,"is_reserved":false,"is_disabled":false,"rental_uris":{"android":"levelo://app?vid=08c41f7d-2e28-482b-9605-355983efbf39","ios":"levelo://app?vid=08c41f7d-2e28-482b-9605-355983efbf39"},"vehicle_type_id":"4","last_reported":1731117945,"current_range_meters":36800,"station_id":"ce4bhqp2rcd13ifvqhog","pricing_plan_id":"cebpf4jnsgd1na2vs0mg"},{"bike_id":"d0548986-c389-4527-9d88-0be922484fbf","system_id":"levelo_inurba_marseille","lat":43.30673,"lon":5.40082,"is_reserved":false,"is_disabled":false,"rental_uris":{"android":"levelo://app?vid=d0548986-c389-4527-9d88-0be922484fbf","ios":"levelo://app?vid=d0548986-c389-4527-9d88-0be922484fbf"},"vehicle_type_id":"4","last_reported":1731117945,"current_range_meters":18000,"station_id":"ce4bh112rcd13ifvqda0","pricing_plan_id":"cebpf4jnsgd1na2vs0mg"},{"bike_id":"91628a43-65ab-40f6-86ee-9ed6104d49d8","system_id":"levelo_inurba_marseille","lat":43.25111,"lon":5.40324,"is_reserved":false,"is_disabled":false,"rental_uris":{"android":"levelo://app?vid=91628a43-65ab-40f6-86ee-9ed6104d49d8","ios":"levelo://app?vid=91628a43-65ab-40f6-86ee-9ed6104d49d8"},"vehicle_type_id":"4","last_reported":1731117945,"current_range_meters":26000,"station_id":"ce4bhlh2rcd13ifvqgig","pricing_plan_id":"cebpf4jnsgd1na2vs0mg"},{"bike_id":"57b2c5ea-aefb-4caa-81dd-58a201e82514","system_id":"levelo_inurba_marseille","lat":43.24657,"lon":5.38163,"is_reserved":false,"is_disabled":false,"rental_uris":{"android":"levelo://app?vid=57b2c5ea-aefb-4caa-81dd-58a201e82514","ios":"levelo://app?vid=57b2c5ea-aefb-4caa-81dd-58a201e82514"},"vehicle_type_id":"4","last_reported":1731117945,"current_range_meters":8400,"station_id":"ce4bhih2rcd13ifvqfr0","pricing_plan_id":"cebpf4jnsgd1na2vs0mg"},{"bike_id":"846e8e3e-afde-43fe-b51d-5e0e0db57b83","system_id":"levelo_inurba_marseille","lat":43.265282,"lon":5.395009,"is_reserved":false,"is_disabled":false,"rental_uris":{"android":"levelo://app?vid=846e8e3e-afde-43fe-b51d-5e0e0db57b83","ios":"levelo://app?vid=846e8e3e-afde-43fe-b51d-5e0e0db57b83"},"vehicle_type_id":"4","last_reported":1731117945,"current_range_meters":29600,"station_id":"","pricing_plan_id":"cebpf4jnsgd1na2vs0mg"},{"bike_id":"f4ef053d-e709-4411-bdd9-de1d0f41e46f","system_id":"levelo_inurba_marseille","lat":43.22934,"lon":5.35375,"is_reserved":false,"is_disabled":false,"rental_uris":{"android":"levelo://app?vid=f4ef053d-e709-4411-bdd9-de1d0f41e46f","ios":"levelo://app?vid=f4ef053d-e709-4411-bdd9-de1d0f41e46f"},"vehicle_type_id":"4","last_reported":1731117945,"current_range_meters":39200,"station_id":"cpo3532slgdg3j2ikp40","pricing_plan_id":"cebpf4jnsgd1na2vs0mg"},{"bike_id":"ec9689df-8e91-41d0-84ae-cc0402da5065","system_id":"levelo_inurba_marseille","lat":43.29637,"lon":5.40598,"is_reserved":false,"is_disabled":false,"rental_uris":{"android":"levelo://app?vid=ec9689df-8e91-41d0-84ae-cc0402da5065","ios":"levelo://app?vid=ec9689df-8e91-41d0-84ae-cc0402da5065"},"vehicle_type_id":"4","last_reported":1731117945,"current_range_meters":38400,"station_id":"ce4bh0h2rcd13ifvqd60","pricing_plan_id":"cebpf4jnsgd1na2vs0mg"},{"bike_id":"ee0833dd-48fa-4d78-acec-e17df35dd4ca","system_id":"levelo_inurba_marseille","lat":43.29715,"lon":5.36617,"is_reserved":false,"is_disabled":false,"rental_uris":{"android":"levelo://app?vid=ee0833dd-48fa-4d78-acec-e17df35dd4ca","ios":"levelo://app?vid=ee0833dd-48fa-4d78-acec-e17df35dd4ca"},"vehicle_type_id":"4","last_reported":1731117945,"current_range_meters":18800,"station_id":"ce4bgn12rcd13ifvqbt0","pricing_plan_id":"cebpf4jnsgd1na2vs0mg"},{"bike_id":"02c1728f-997e-4c50-9b06-6e6eb4b32dbf","system_id":"levelo_inurba_marseille","lat":43.280121,"lon":5.400278,"is_reserved":false,"is_disabled":false,"rental_uris":{"android":"levelo://app?vid=02c1728f-997e-4c50-9b06-6e6eb4b32dbf","ios":"levelo://app?vid=02c1728f-997e-4c50-9b06-6e6eb4b32dbf"},"vehicle_type_id":"4","last_reported":1731117945,"current_range_meters":38000,"station_id":"ce4bho92rcd13ifvqh4g","pricing_plan_id":"cebpf4jnsgd1na2vs0mg"},{"bike_id":"02c732dc-ef4d-456f-901f-be9168ef42be","system_id":"levelo_inurba_marseille","lat":43.24803,"lon":5.37454,"is_reserved":false,"is_disabled":false,"rental_uris":{"android":"levelo://app?vid=02c732dc-ef4d-456f-901f-be9168ef42be","ios":"levelo://app?vid=02c732dc-ef4d-456f-901f-be9168ef42be"},"vehicle_type_id":"4","last_reported":1731117945,"current_range_meters":33200,"station_id":"ce4bhgh2rcd13ifvqfb0","pricing_plan_id":"cebpf4jnsgd1na2vs0mg"},{"bike_id":"4e0bce32-7432-4c5e-b651-7a4c54f77f75","system_id":"levelo_inurba_marseille","lat":43.3133,"lon":5.39702,"is_reserved":false,"is_disabled":false,"rental_uris":{"android":"levelo://app?vid=4e0bce32-7432-4c5e-b651-7a4c54f77f75","ios":"levelo://app?vid=4e0bce32-7432-4c5e-b651-7a4c54f77f75"},"vehicle_type_id":"4","last_reported":1731117945,"current_range_meters":38800,"station_id":"ce4bgvp2rcd13ifvqcu0","pricing_plan_id":"cebpf4jnsgd1na2vs0mg"},{"bike_id":"87400346-7dad-4540-98eb-d38a31c15ad0","system_id":"levelo_inurba_marseille","lat":43.25883,"lon":5.39898,"is_reserved":false,"is_disabled":false,"rental_uris":{"android":"levelo://app?vid=87400346-7dad-4540-98eb-d38a31c15ad0","ios":"levelo://app?vid=87400346-7dad-4540-98eb-d38a31c15ad0"},"vehicle_type_id":"4","last_reported":1731117945,"current_range_meters":39200,"station_id":"ce4bhl92rcd13ifvqghg","pricing_plan_id":"cebpf4jnsgd1na2vs0mg"},{"bike_id":"82f750ef-4c11-46df-bf3f-eb1ee954f51e","system_id":"levelo_inurba_marseille","lat":43.30879,"lon":5.39605,"is_reserved":false,"is_disabled":false,"rental_uris":{"android":"levelo://app?vid=82f750ef-4c11-46df-bf3f-eb1ee954f51e","ios":"levelo://app?vid=82f750ef-4c11-46df-bf3f-eb1ee954f51e"},"vehicle_type_id":"4","last_reported":1731117945,"current_range_meters":27200,"station_id":"ce4bh012rcd13ifvqcv0","pricing_plan_id":"cebpf4jnsgd1na2vs0mg"},{"bike_id":"dc1aa6bd-18ce-4c8d-ae20-86c1802d6606","system_id":"levelo_inurba_marseille","lat":43.31362,"lon":5.385,"is_reserved":false,"is_disabled":false,"rental_uris":{"android":"levelo://app?vid=dc1aa6bd-18ce-4c8d-ae20-86c1802d6606","ios":"levelo://app?vid=dc1aa6bd-18ce-4c8d-ae20-86c1802d6606"},"vehicle_type_id":"4","last_reported":1731117945,"current_range_meters":9600,"station_id":"ce4bgt92rcd13ifvqcf0","pricing_plan_id":"cebpf4jnsgd1na2vs0mg"},{"bike_id":"ac59b398-a03f-4409-8d13-c4e12f526cfa","system_id":"levelo_inurba_marseille","lat":43.28456,"lon":5.35867,"is_reserved":false,"is_disabled":false,"rental_uris":{"android":"levelo://app?vid=ac59b398-a03f-4409-8d13-c4e12f526cfa","ios":"levelo://app?vid=ac59b398-a03f-4409-8d13-c4e12f526cfa"},"vehicle_type_id":"4","last_reported":1731117945,"current_range_meters":20400,"station_id":"ce4bhah2rcd13ifvqei0","pricing_plan_id":"cebpf4jnsgd1na2vs0mg"},{"bike_id":"1ed0057e-34ff-43b0-a5d5-59551d0bd293","system_id":"levelo_inurba_marseille","lat":43.32662,"lon":5.40993,"is_reserved":false,"is_disabled":false,"rental_uris":{"android":"levelo://app?vid=1ed0057e-34ff-43b0-a5d5-59551d0bd293","ios":"levelo://app?vid=1ed0057e-34ff-43b0-a5d5-59551d0bd293"},"vehicle_type_id":"4","last_reported":1731117945,"current_range_meters":9600,"station_id":"ce4bhpp2rcd13ifvqhgg","pricing_plan_id":"cebpf4jnsgd1na2vs0mg"},{"bike_id":"7074fed1-606e-4226-b17d-209974e7b717","system_id":"levelo_inurba_marseille","lat":43.29263,"lon":5.40901,"is_reserved":false,"is_disabled":false,"rental_uris":{"android":"levelo://app?vid=7074fed1-606e-4226-b17d-209974e7b717","ios":"levelo://app?vid=7074fed1-606e-4226-b17d-209974e7b717"},"vehicle_type_id":"4","last_reported":1731117945,"current_range_meters":24400,"station_id":"ce4bh192rcd13ifvqdc0","pricing_plan_id":"cebpf4jnsgd1na2vs0mg"},{"bike_id":"7243fcc8-e91d-49aa-a78b-3d82c9cf3c65","system_id":"levelo_inurba_marseille","lat":43.28585,"lon":5.35074,"is_reserved":false,"is_disabled":false,"rental_uris":{"android":"levelo://app?vid=7243fcc8-e91d-49aa-a78b-3d82c9cf3c65","ios":"levelo://app?vid=7243fcc8-e91d-49aa-a78b-3d82c9cf3c65"},"vehicle_type_id":"4","last_reported":1731117945,"current_range_meters":36800,"station_id":"","pricing_plan_id":"cebpf4jnsgd1na2vs0mg"},{"bike_id":"fe968521-02e8-4a58-8cea-ea8883a148ca","system_id":"levelo_inurba_marseille","lat":43.27975,"lon":5.38703,"is_reserved":false,"is_disabled":false,"rental_uris":{"android":"levelo://app?vid=fe968521-02e8-4a58-8cea-ea8883a148ca","ios":"levelo://app?vid=fe968521-02e8-4a58-8cea-ea8883a148ca"},"vehicle_type_id":"4","last_reported":1731117945,"current_range_meters":16800,"station_id":"ce4bhg12rcd13ifvqf80","pricing_plan_id":"cebpf4jnsgd1na2vs0mg"},{"bike_id":"b4d6962c-48f0-4bf0-8d16-4194c14b4356","system_id":"levelo_inurba_marseille","lat":43.26208,"lon":5.37436,"is_reserved":false,"is_disabled":false,"rental_uris":{"android":"levelo://app?vid=b4d6962c-48f0-4bf0-8d16-4194c14b4356","ios":"levelo://app?vid=b4d6962c-48f0-4bf0-8d16-4194c14b4356"},"vehicle_type_id":"4","last_reported":1731117945,"current_range_meters":20400,"station_id":"ce4bhgp2rcd13ifvqfc0","pricing_plan_id":"cebpf4jnsgd1na2vs0mg"},{"bike_id":"71bb50a1-6cdb-4a6f-b24c-1cbd7c603ad3","system_id":"levelo_inurba_marseille","lat":43.31433,"lon":5.37393,"is_reserved":false,"is_disabled":false,"rental_uris":{"android":"levelo://app?vid=71bb50a1-6cdb-4a6f-b24c-1cbd7c603ad3","ios":"levelo://app?vid=71bb50a1-6cdb-4a6f-b24c-1cbd7c603ad3"},"vehicle_type_id":"4","last_reported":1731117945,"current_range_meters":30400,"station_id":"","pricing_plan_id":"cebpf4jnsgd1na2vs0mg"},{"bike_id":"895c1bd2-e384-4f22-a95e-ca5003f9b176","system_id":"levelo_inurba_marseille","lat":43.29268,"lon":5.40918,"is_reserved":false,"is_disabled":false,"rental_uris":{"android":"levelo://app?vid=895c1bd2-e384-4f22-a95e-ca5003f9b176","ios":"levelo://app?vid=895c1bd2-e384-4f22-a95e-ca5003f9b176"},"vehicle_type_id":"4","last_reported":1731117945,"current_range_meters":32800,"station_id":"ce4bh192rcd13ifvqdc0","pricing_plan_id":"cebpf4jnsgd1na2vs0mg"},{"bike_id":"c50d863f-ac88-48d7-aaf9-ac94fab87630","system_id":"levelo_inurba_marseille","lat":43.2465,"lon":5.38163,"is_reserved":false,"is_disabled":false,"rental_uris":{"android":"levelo://app?vid=c50d863f-ac88-48d7-aaf9-ac94fab87630","ios":"levelo://app?vid=c50d863f-ac88-48d7-aaf9-ac94fab87630"},"vehicle_type_id":"4","last_reported":1731117945,"current_range_meters":25600,"station_id":"ce4bhih2rcd13ifvqfr0","pricing_plan_id":"cebpf4jnsgd1na2vs0mg"},{"bike_id":"b8fdd341-0697-41ca-82c9-e4253415f4e6","system_id":"levelo_inurba_marseille","lat":43.23055,"lon":5.35493,"is_reserved":false,"is_disabled":false,"rental_uris":{"android":"levelo://app?vid=b8fdd341-0697-41ca-82c9-e4253415f4e6","ios":"levelo://app?vid=b8fdd341-0697-41ca-82c9-e4253415f4e6"},"vehicle_type_id":"4","last_reported":1731117945,"current_range_meters":34800,"station_id":"cpo3342slgdg3j2ifvpg","pricing_plan_id":"cebpf4jnsgd1na2vs0mg"},{"bike_id":"b71727a4-f10a-44b4-b2bc-a37b46d694ea","system_id":"levelo_inurba_marseille","lat":43.29262,"lon":5.40904,"is_reserved":false,"is_disabled":false,"rental_uris":{"android":"levelo://app?vid=b71727a4-f10a-44b4-b2bc-a37b46d694ea","ios":"levelo://app?vid=b71727a4-f10a-44b4-b2bc-a37b46d694ea"},"vehicle_type_id":"4","last_reported":1731117945,"current_range_meters":38800,"station_id":"ce4bh192rcd13ifvqdc0","pricing_plan_id":"cebpf4jnsgd1na2vs0mg"},{"bike_id":"32de3e3d-abee-4e70-b60a-941560de9b93","system_id":"levelo_inurba_marseille","lat":43.28285,"lon":5.35073,"is_reserved":false,"is_disabled":false,"rental_uris":{"android":"levelo://app?vid=32de3e3d-abee-4e70-b60a-941560de9b93","ios":"levelo://app?vid=32de3e3d-abee-4e70-b60a-941560de9b93"},"vehicle_type_id":"4","last_reported":1731117945,"current_range_meters":40000,"station_id":"ce4bhbp2rcd13ifvqerg","pricing_plan_id":"cebpf4jnsgd1na2vs0mg"},{"bike_id":"926e5658-bbc8-42ae-8145-6443e99af1b7","system_id":"levelo_inurba_marseille","lat":43.27838,"lon":5.39201,"is_reserved":false,"is_disabled":false,"rental_uris":{"android":"levelo://app?vid=926e5658-bbc8-42ae-8145-6443e99af1b7","ios":"levelo://app?vid=926e5658-bbc8-42ae-8145-6443e99af1b7"},"vehicle_type_id":"4","last_reported":1731117945,"current_range_meters":30000,"station_id":"ce4bhjp2rcd13ifvqga0","pricing_plan_id":"cebpf4jnsgd1na2vs0mg"},{"bike_id":"f2b5f9e9-1d9f-497a-867e-8fbb12956e3b","system_id":"levelo_inurba_marseille","lat":43.28712,"lon":5.37401,"is_reserved":false,"is_disabled":false,"rental_uris":{"android":"levelo://app?vid=f2b5f9e9-1d9f-497a-867e-8fbb12956e3b","ios":"levelo://app?vid=f2b5f9e9-1d9f-497a-867e-8fbb12956e3b"},"vehicle_type_id":"4","last_reported":1731117945,"current_range_meters":33200,"station_id":"ce4bh3p2rcd13ifvqdq0","pricing_plan_id":"cebpf4jnsgd1na2vs0mg"},{"bike_id":"f5d2b441-54fd-4ea8-9ee3-1ca1bc0387aa","system_id":"levelo_inurba_marseille","lat":43.30498,"lon":5.37906,"is_reserved":false,"is_disabled":false,"rental_uris":{"android":"levelo://app?vid=f5d2b441-54fd-4ea8-9ee3-1ca1bc0387aa","ios":"levelo://app?vid=f5d2b441-54fd-4ea8-9ee3-1ca1bc0387aa"},"vehicle_type_id":"4","last_reported":1731117945,"current_range_meters":34000,"station_id":"ce4bgup2rcd13ifvqcn0","pricing_plan_id":"cebpf4jnsgd1na2vs0mg"},{"bike_id":"40ee6ccf-83ab-47b3-b114-c5896f48c598","system_id":"levelo_inurba_marseille","lat":43.31176,"lon":5.38714,"is_reserved":false,"is_disabled":false,"rental_uris":{"android":"levelo://app?vid=40ee6ccf-83ab-47b3-b114-c5896f48c598","ios":"levelo://app?vid=40ee6ccf-83ab-47b3-b114-c5896f48c598"},"vehicle_type_id":"4","last_reported":1731117945,"current_range_meters":32800,"station_id":"ce4bgv12rcd13ifvqcp0","pricing_plan_id":"cebpf4jnsgd1na2vs0mg"},{"bike_id":"e2a5e296-45f3-49c6-8566-635a21ef7917","system_id":"levelo_inurba_marseille","lat":43.31182,"lon":5.38713,"is_reserved":false,"is_disabled":false,"rental_uris":{"android":"levelo://app?vid=e2a5e296-45f3-49c6-8566-635a21ef7917","ios":"levelo://app?vid=e2a5e296-45f3-49c6-8566-635a21ef7917"},"vehicle_type_id":"4","last_reported":1731117945,"current_range_meters":36400,"station_id":"ce4bgv12rcd13ifvqcp0","pricing_plan_id":"cebpf4jnsgd1na2vs0mg"},{"bike_id":"27dfd9be-7ef0-4ba2-940f-b5f29bc4f3ad","system_id":"levelo_inurba_marseille","lat":43.27837,"lon":5.40717,"is_reserved":false,"is_disabled":false,"rental_uris":{"android":"levelo://app?vid=27dfd9be-7ef0-4ba2-940f-b5f29bc4f3ad","ios":"levelo://app?vid=27dfd9be-7ef0-4ba2-940f-b5f29bc4f3ad"},"vehicle_type_id":"4","last_reported":1731117945,"current_range_meters":34000,"station_id":"ce4bhnh2rcd13ifvqgtg","pricing_plan_id":"cebpf4jnsgd1na2vs0mg"},{"bike_id":"588ae2e7-ceb1-4b50-897b-b0e068e930a7","system_id":"levelo_inurba_marseille","lat":43.24668,"lon":5.38165,"is_reserved":false,"is_disabled":false,"rental_uris":{"android":"levelo://app?vid=588ae2e7-ceb1-4b50-897b-b0e068e930a7","ios":"levelo://app?vid=588ae2e7-ceb1-4b50-897b-b0e068e930a7"},"vehicle_type_id":"4","last_reported":1731117945,"current_range_meters":17600,"station_id":"ce4bhih2rcd13ifvqfr0","pricing_plan_id":"cebpf4jnsgd1na2vs0mg"},{"bike_id":"8137f581-2393-41d8-a932-f12bb5e1d13d","system_id":"levelo_inurba_marseille","lat":43.29223,"lon":5.36075,"is_reserved":false,"is_disabled":false,"rental_uris":{"android":"levelo://app?vid=8137f581-2393-41d8-a932-f12bb5e1d13d","ios":"levelo://app?vid=8137f581-2393-41d8-a932-f12bb5e1d13d"},"vehicle_type_id":"4","last_reported":1731117945,"current_range_meters":36000,"station_id":"ce4bhbh2rcd13ifvqeqg","pricing_plan_id":"cebpf4jnsgd1na2vs0mg"},{"bike_id":"bc9e5d4d-ed87-459e-9d6b-75e21cc6343f","system_id":"levelo_inurba_marseille","lat":43.30417,"lon":5.41284,"is_reserved":false,"is_disabled":false,"rental_uris":{"android":"levelo://app?vid=bc9e5d4d-ed87-459e-9d6b-75e21cc6343f","ios":"levelo://app?vid=bc9e5d4d-ed87-459e-9d6b-75e21cc6343f"},"vehicle_type_id":"4","last_reported":1731117945,"current_range_meters":39200,"station_id":"ce4bhop2rcd13ifvqh8g","pricing_plan_id":"cebpf4jnsgd1na2vs0mg"},{"bike_id":"ca066bf9-c1cf-41c8-ad68-6c7236949b25","system_id":"levelo_inurba_marseille","lat":43.31276,"lon":5.40163,"is_reserved":false,"is_disabled":false,"rental_uris":{"android":"levelo://app?vid=ca066bf9-c1cf-41c8-ad68-6c7236949b25","ios":"levelo://app?vid=ca066bf9-c1cf-41c8-ad68-6c7236949b25"},"vehicle_type_id":"4","last_reported":1731117945,"current_range_meters":24400,"station_id":"ce4bh092rcd13ifvqd30","pricing_plan_id":"cebpf4jnsgd1na2vs0mg"},{"bike_id":"818293fa-7bab-4548-8e6d-ceefdd2acfe4","system_id":"levelo_inurba_marseille","lat":43.30618,"lon":5.40089,"is_reserved":false,"is_disabled":false,"rental_uris":{"android":"levelo://app?vid=818293fa-7bab-4548-8e6d-ceefdd2acfe4","ios":"levelo://app?vid=818293fa-7bab-4548-8e6d-ceefdd2acfe4"},"vehicle_type_id":"4","last_reported":1731117945,"current_range_meters":19600,"station_id":"ce4bh112rcd13ifvqda0","pricing_plan_id":"cebpf4jnsgd1na2vs0mg"},{"bike_id":"83e58c9a-13a0-474f-9072-9b7376165a15","system_id":"levelo_inurba_marseille","lat":43.30428,"lon":5.41291,"is_reserved":false,"is_disabled":false,"rental_uris":{"android":"levelo://app?vid=83e58c9a-13a0-474f-9072-9b7376165a15","ios":"levelo://app?vid=83e58c9a-13a0-474f-9072-9b7376165a15"},"vehicle_type_id":"4","last_reported":1731117945,"current_range_meters":29600,"station_id":"ce4bhop2rcd13ifvqh8g","pricing_plan_id":"cebpf4jnsgd1na2vs0mg"},{"bike_id":"dbe1ee58-77eb-4a4b-b965-2fa3fdb48b3f","system_id":"levelo_inurba_marseille","lat":43.31299,"lon":5.4019,"is_reserved":false,"is_disabled":false,"rental_uris":{"android":"levelo://app?vid=dbe1ee58-77eb-4a4b-b965-2fa3fdb48b3f","ios":"levelo://app?vid=dbe1ee58-77eb-4a4b-b965-2fa3fdb48b3f"},"vehicle_type_id":"4","last_reported":1731117945,"current_range_meters":25600,"station_id":"ce4bh092rcd13ifvqd30","pricing_plan_id":"cebpf4jnsgd1na2vs0mg"},{"bike_id":"930c9f9f-1d20-487a-9036-b3af651efe84","system_id":"levelo_inurba_marseille","lat":43.2867,"lon":5.36351,"is_reserved":false,"is_disabled":false,"rental_uris":{"android":"levelo://app?vid=930c9f9f-1d20-487a-9036-b3af651efe84","ios":"levelo://app?vid=930c9f9f-1d20-487a-9036-b3af651efe84"},"vehicle_type_id":"4","last_reported":1731117945,"current_range_meters":22800,"station_id":"ce4bhah2rcd13ifvqej0","pricing_plan_id":"cebpf4jnsgd1na2vs0mg"},{"bike_id":"a3f7b401-8d8b-4d83-b804-7d4da729a8d8","system_id":"levelo_inurba_marseille","lat":43.26924,"lon":5.40251,"is_reserved":false,"is_disabled":false,"rental_uris":{"android":"levelo://app?vid=a3f7b401-8d8b-4d83-b804-7d4da729a8d8","ios":"levelo://app?vid=a3f7b401-8d8b-4d83-b804-7d4da729a8d8"},"vehicle_type_id":"4","last_reported":1731117945,"current_range_meters":7200,"station_id":"cjm6bp8fraef2m0cb0m0","pricing_plan_id":"cebpf4jnsgd1na2vs0mg"},{"bike_id":"147bd886-7f1d-4afd-8f60-09568215101c","system_id":"levelo_inurba_marseille","lat":43.2719,"lon":5.40986,"is_reserved":false,"is_disabled":false,"rental_uris":{"android":"levelo://app?vid=147bd886-7f1d-4afd-8f60-09568215101c","ios":"levelo://app?vid=147bd886-7f1d-4afd-8f60-09568215101c"},"vehicle_type_id":"4","last_reported":1731117945,"current_range_meters":26000,"station_id":"ce4bhl12rcd13ifvqgf0","pricing_plan_id":"cebpf4jnsgd1na2vs0mg"},{"bike_id":"33e8e856-7f81-40f7-a392-a9fedce07fce","system_id":"levelo_inurba_marseille","lat":43.30881,"lon":5.39632,"is_reserved":false,"is_disabled":false,"rental_uris":{"android":"levelo://app?vid=33e8e856-7f81-40f7-a392-a9fedce07fce","ios":"levelo://app?vid=33e8e856-7f81-40f7-a392-a9fedce07fce"},"vehicle_type_id":"4","last_reported":1731117945,"current_range_meters":38800,"station_id":"ce4bh012rcd13ifvqcv0","pricing_plan_id":"cebpf4jnsgd1na2vs0mg"},{"bike_id":"7f11ba46-2bea-4ad5-9bd6-5a8d133d1bb2","system_id":"levelo_inurba_marseille","lat":43.30876,"lon":5.39643,"is_reserved":false,"is_disabled":false,"rental_uris":{"android":"levelo://app?vid=7f11ba46-2bea-4ad5-9bd6-5a8d133d1bb2","ios":"levelo://app?vid=7f11ba46-2bea-4ad5-9bd6-5a8d133d1bb2"},"vehicle_type_id":"4","last_reported":1731117945,"current_range_meters":26800,"station_id":"ce4bh012rcd13ifvqcv0","pricing_plan_id":"cebpf4jnsgd1na2vs0mg"},{"bike_id":"cb3e8083-1a52-4c3a-8ce1-d539167291a9","system_id":"levelo_inurba_marseille","lat":43.25124,"lon":5.40338,"is_reserved":false,"is_disabled":false,"rental_uris":{"android":"levelo://app?vid=cb3e8083-1a52-4c3a-8ce1-d539167291a9","ios":"levelo://app?vid=cb3e8083-1a52-4c3a-8ce1-d539167291a9"},"vehicle_type_id":"4","last_reported":1731117945,"current_range_meters":23200,"station_id":"ce4bhlh2rcd13ifvqgig","pricing_plan_id":"cebpf4jnsgd1na2vs0mg"},{"bike_id":"1f1becf7-322b-43ac-89ad-1780eea48740","system_id":"levelo_inurba_marseille","lat":43.25817,"lon":5.39401,"is_reserved":false,"is_disabled":false,"rental_uris":{"android":"levelo://app?vid=1f1becf7-322b-43ac-89ad-1780eea48740","ios":"levelo://app?vid=1f1becf7-322b-43ac-89ad-1780eea48740"},"vehicle_type_id":"4","last_reported":1731117945,"current_range_meters":7200,"station_id":"ce4bhip2rcd13ifvqft0","pricing_plan_id":"cebpf4jnsgd1na2vs0mg"},{"bike_id":"a43a2873-0eab-4410-a7ec-10187ae188cc","system_id":"levelo_inurba_marseille","lat":43.28482,"lon":5.35852,"is_reserved":false,"is_disabled":false,"rental_uris":{"android":"levelo://app?vid=a43a2873-0eab-4410-a7ec-10187ae188cc","ios":"levelo://app?vid=a43a2873-0eab-4410-a7ec-10187ae188cc"},"vehicle_type_id":"4","last_reported":1731117945,"current_range_meters":28400,"station_id":"ce4bhah2rcd13ifvqei0","pricing_plan_id":"cebpf4jnsgd1na2vs0mg"},{"bike_id":"5f46771b-d401-423e-a39f-4c02dc84927d","system_id":"levelo_inurba_marseille","lat":43.28268,"lon":5.35058,"is_reserved":false,"is_disabled":false,"rental_uris":{"android":"levelo://app?vid=5f46771b-d401-423e-a39f-4c02dc84927d","ios":"levelo://app?vid=5f46771b-d401-423e-a39f-4c02dc84927d"},"vehicle_type_id":"4","last_reported":1731117945,"current_range_meters":30800,"station_id":"ce4bhbp2rcd13ifvqerg","pricing_plan_id":"cebpf4jnsgd1na2vs0mg"},{"bike_id":"d39c8278-f1e4-41c6-b2c6-0323b764da94","system_id":"levelo_inurba_marseille","lat":43.29804,"lon":5.40406,"is_reserved":false,"is_disabled":false,"rental_uris":{"android":"levelo://app?vid=d39c8278-f1e4-41c6-b2c6-0323b764da94","ios":"levelo://app?vid=d39c8278-f1e4-41c6-b2c6-0323b764da94"},"vehicle_type_id":"4","last_reported":1731117945,"current_range_meters":39200,"station_id":"ce4bh112rcd13ifvqd90","pricing_plan_id":"cebpf4jnsgd1na2vs0mg"},{"bike_id":"7b17c7e2-e1a6-4a1c-8685-fec4587aebcd","system_id":"levelo_inurba_marseille","lat":43.30885,"lon":5.37194,"is_reserved":false,"is_disabled":false,"rental_uris":{"android":"levelo://app?vid=7b17c7e2-e1a6-4a1c-8685-fec4587aebcd","ios":"levelo://app?vid=7b17c7e2-e1a6-4a1c-8685-fec4587aebcd"},"vehicle_type_id":"4","last_reported":1731117945,"current_range_meters":37600,"station_id":"ce4bguh2rcd13ifvqckg","pricing_plan_id":"cebpf4jnsgd1na2vs0mg"},{"bike_id":"2015a957-ead6-4c85-93f3-8e74dc7d21da","system_id":"levelo_inurba_marseille","lat":43.3206,"lon":5.41538,"is_reserved":false,"is_disabled":false,"rental_uris":{"android":"levelo://app?vid=2015a957-ead6-4c85-93f3-8e74dc7d21da","ios":"levelo://app?vid=2015a957-ead6-4c85-93f3-8e74dc7d21da"},"vehicle_type_id":"4","last_reported":1731117945,"current_range_meters":37600,"station_id":"ce4bhq92rcd13ifvqhkg","pricing_plan_id":"cebpf4jnsgd1na2vs0mg"},{"bike_id":"1ff114fe-1175-49f4-a8f1-df7024e3305d","system_id":"levelo_inurba_marseille","lat":43.23149,"lon":5.43724,"is_reserved":false,"is_disabled":false,"rental_uris":{"android":"levelo://app?vid=1ff114fe-1175-49f4-a8f1-df7024e3305d","ios":"levelo://app?vid=1ff114fe-1175-49f4-a8f1-df7024e3305d"},"vehicle_type_id":"4","last_reported":1731117945,"current_range_meters":33600,"station_id":"ce4bhmp2rcd13ifvqgog","pricing_plan_id":"cebpf4jnsgd1na2vs0mg"},{"bike_id":"0f263d54-092a-4721-b68e-bffe8b305afb","system_id":"levelo_inurba_marseille","lat":43.30796,"lon":5.38146,"is_reserved":false,"is_disabled":false,"rental_uris":{"android":"levelo://app?vid=0f263d54-092a-4721-b68e-bffe8b305afb","ios":"levelo://app?vid=0f263d54-092a-4721-b68e-bffe8b305afb"},"vehicle_type_id":"4","last_reported":1731117945,"current_range_meters":38000,"station_id":"ce4bgt12rcd13ifvqce0","pricing_plan_id":"cebpf4jnsgd1na2vs0mg"},{"bike_id":"f2b88fdd-2e0b-4b5e-888c-35155555732c","system_id":"levelo_inurba_marseille","lat":43.32023,"lon":5.38157,"is_reserved":false,"is_disabled":false,"rental_uris":{"android":"levelo://app?vid=f2b88fdd-2e0b-4b5e-888c-35155555732c","ios":"levelo://app?vid=f2b88fdd-2e0b-4b5e-888c-35155555732c"},"vehicle_type_id":"4","last_reported":1731117945,"current_range_meters":39200,"station_id":"ce4bhr12rcd13ifvqhpg","pricing_plan_id":"cebpf4jnsgd1na2vs0mg"},{"bike_id":"04eefbe1-65bb-49a8-b99d-d11409a13d66","system_id":"levelo_inurba_marseille","lat":43.292572,"lon":5.384349,"is_reserved":false,"is_disabled":false,"rental_uris":{"android":"levelo://app?vid=04eefbe1-65bb-49a8-b99d-d11409a13d66","ios":"levelo://app?vid=04eefbe1-65bb-49a8-b99d-d11409a13d66"},"vehicle_type_id":"4","last_reported":1731117945,"current_range_meters":31200,"station_id":"ce4bh692rcd13ifvqea0","pricing_plan_id":"cebpf4jnsgd1na2vs0mg"},{"bike_id":"b9478b1d-79e3-44c9-ae60-496dd5151f62","system_id":"levelo_inurba_marseille","lat":43.29156,"lon":5.37146,"is_reserved":false,"is_disabled":false,"rental_uris":{"android":"levelo://app?vid=b9478b1d-79e3-44c9-ae60-496dd5151f62","ios":"levelo://app?vid=b9478b1d-79e3-44c9-ae60-496dd5151f62"},"vehicle_type_id":"4","last_reported":1731117945,"current_range_meters":38400,"station_id":"ce4bha92rcd13ifvqeh0","pricing_plan_id":"cebpf4jnsgd1na2vs0mg"},{"bike_id":"f8c226d8-35a2-4261-836f-61591036d28d","system_id":"levelo_inurba_marseille","lat":43.27223,"lon":5.39183,"is_reserved":false,"is_disabled":false,"rental_uris":{"android":"levelo://app?vid=f8c226d8-35a2-4261-836f-61591036d28d","ios":"levelo://app?vid=f8c226d8-35a2-4261-836f-61591036d28d"},"vehicle_type_id":"4","last_reported":1731117945,"current_range_meters":12000,"station_id":"ce4bhhp2rcd13ifvqfm0","pricing_plan_id":"cebpf4jnsgd1na2vs0mg"},{"bike_id":"adb13a41-e996-4b47-a2f6-e5e80d27b4e6","system_id":"levelo_inurba_marseille","lat":43.3233,"lon":5.40611,"is_reserved":false,"is_disabled":false,"rental_uris":{"android":"levelo://app?vid=adb13a41-e996-4b47-a2f6-e5e80d27b4e6","ios":"levelo://app?vid=adb13a41-e996-4b47-a2f6-e5e80d27b4e6"},"vehicle_type_id":"4","last_reported":1731117945,"current_range_meters":39200,"station_id":"ce4bhq92rcd13ifvqhjg","pricing_plan_id":"cebpf4jnsgd1na2vs0mg"},{"bike_id":"1e25f627-e559-4c90-8e40-cc02cc85ba7e","system_id":"levelo_inurba_marseille","lat":43.30537,"lon":5.36687,"is_reserved":false,"is_disabled":false,"rental_uris":{"android":"levelo://app?vid=1e25f627-e559-4c90-8e40-cc02cc85ba7e","ios":"levelo://app?vid=1e25f627-e559-4c90-8e40-cc02cc85ba7e"},"vehicle_type_id":"4","last_reported":1731117945,"current_range_meters":38000,"station_id":"ce4bgrp2rcd13ifvqc9g","pricing_plan_id":"cebpf4jnsgd1na2vs0mg"},{"bike_id":"1981261a-4fe8-4031-bc3d-ba57ea8967a2","system_id":"levelo_inurba_marseille","lat":43.29638,"lon":5.40597,"is_reserved":false,"is_disabled":false,"rental_uris":{"android":"levelo://app?vid=1981261a-4fe8-4031-bc3d-ba57ea8967a2","ios":"levelo://app?vid=1981261a-4fe8-4031-bc3d-ba57ea8967a2"},"vehicle_type_id":"4","last_reported":1731117945,"current_range_meters":37600,"station_id":"ce4bh0h2rcd13ifvqd60","pricing_plan_id":"cebpf4jnsgd1na2vs0mg"},{"bike_id":"2d57f628-619f-420a-b65c-8f44a7ace640","system_id":"levelo_inurba_marseille","lat":43.28399,"lon":5.37521,"is_reserved":false,"is_disabled":false,"rental_uris":{"android":"levelo://app?vid=2d57f628-619f-420a-b65c-8f44a7ace640","ios":"levelo://app?vid=2d57f628-619f-420a-b65c-8f44a7ace640"},"vehicle_type_id":"4","last_reported":1731117945,"current_range_meters":32800,"station_id":"ce4bh412rcd13ifvqds0","pricing_plan_id":"cebpf4jnsgd1na2vs0mg"},{"bike_id":"4cd24ee8-666e-4ce7-8f48-946488c6487e","system_id":"levelo_inurba_marseille","lat":43.23189,"lon":5.39967,"is_reserved":false,"is_disabled":false,"rental_uris":{"android":"levelo://app?vid=4cd24ee8-666e-4ce7-8f48-946488c6487e","ios":"levelo://app?vid=4cd24ee8-666e-4ce7-8f48-946488c6487e"},"vehicle_type_id":"4","last_reported":1731117945,"current_range_meters":12000,"station_id":"ce4bhn12rcd13ifvqgqg","pricing_plan_id":"cebpf4jnsgd1na2vs0mg"},{"bike_id":"1f7ea6ab-6e3d-4109-9c83-36eadc7f2aeb","system_id":"levelo_inurba_marseille","lat":43.31323,"lon":5.39709,"is_reserved":false,"is_disabled":false,"rental_uris":{"android":"levelo://app?vid=1f7ea6ab-6e3d-4109-9c83-36eadc7f2aeb","ios":"levelo://app?vid=1f7ea6ab-6e3d-4109-9c83-36eadc7f2aeb"},"vehicle_type_id":"4","last_reported":1731117945,"current_range_meters":39200,"station_id":"ce4bgvp2rcd13ifvqcu0","pricing_plan_id":"cebpf4jnsgd1na2vs0mg"},{"bike_id":"d070148f-8ecc-4c75-8cb1-c8bc85f50390","system_id":"levelo_inurba_marseille","lat":43.33015,"lon":5.3904,"is_reserved":false,"is_disabled":false,"rental_uris":{"android":"levelo://app?vid=d070148f-8ecc-4c75-8cb1-c8bc85f50390","ios":"levelo://app?vid=d070148f-8ecc-4c75-8cb1-c8bc85f50390"},"vehicle_type_id":"4","last_reported":1731117945,"current_range_meters":11600,"station_id":"ce4bhr92rcd13ifvqhrg","pricing_plan_id":"cebpf4jnsgd1na2vs0mg"},{"bike_id":"49802e5d-6e7d-4d65-ade0-af9d690a65b9","system_id":"levelo_inurba_marseille","lat":43.27812,"lon":5.40705,"is_reserved":false,"is_disabled":false,"rental_uris":{"android":"levelo://app?vid=49802e5d-6e7d-4d65-ade0-af9d690a65b9","ios":"levelo://app?vid=49802e5d-6e7d-4d65-ade0-af9d690a65b9"},"vehicle_type_id":"4","last_reported":1731117945,"current_range_meters":19600,"station_id":"ce4bhnh2rcd13ifvqgtg","pricing_plan_id":"cebpf4jnsgd1na2vs0mg"},{"bike_id":"29824cde-4cdc-4355-9b22-a5922a403deb","system_id":"levelo_inurba_marseille","lat":43.337444,"lon":5.374475,"is_reserved":false,"is_disabled":false,"rental_uris":{"android":"levelo://app?vid=29824cde-4cdc-4355-9b22-a5922a403deb","ios":"levelo://app?vid=29824cde-4cdc-4355-9b22-a5922a403deb"},"vehicle_type_id":"4","last_reported":1731117945,"current_range_meters":35600,"station_id":"","pricing_plan_id":"cebpf4jnsgd1na2vs0mg"},{"bike_id":"d8e526d2-cabd-4260-b3f3-381a19f33459","system_id":"levelo_inurba_marseille","lat":43.3088,"lon":5.39618,"is_reserved":false,"is_disabled":false,"rental_uris":{"android":"levelo://app?vid=d8e526d2-cabd-4260-b3f3-381a19f33459","ios":"levelo://app?vid=d8e526d2-cabd-4260-b3f3-381a19f33459"},"vehicle_type_id":"4","last_reported":1731117945,"current_range_meters":8800,"station_id":"ce4bh012rcd13ifvqcv0","pricing_plan_id":"cebpf4jnsgd1na2vs0mg"},{"bike_id":"481ece74-0bad-47a2-bc95-82b14e647537","system_id":"levelo_inurba_marseille","lat":43.28342,"lon":5.38105,"is_reserved":false,"is_disabled":false,"rental_uris":{"android":"levelo://app?vid=481ece74-0bad-47a2-bc95-82b14e647537","ios":"levelo://app?vid=481ece74-0bad-47a2-bc95-82b14e647537"},"vehicle_type_id":"4","last_reported":1731117945,"current_range_meters":39200,"station_id":"ce4bh412rcd13ifvqdr0","pricing_plan_id":"cebpf4jnsgd1na2vs0mg"},{"bike_id":"67e17654-368e-4b56-a0c7-552a55a43533","system_id":"levelo_inurba_marseille","lat":43.27572,"lon":5.38408,"is_reserved":false,"is_disabled":false,"rental_uris":{"android":"levelo://app?vid=67e17654-368e-4b56-a0c7-552a55a43533","ios":"levelo://app?vid=67e17654-368e-4b56-a0c7-552a55a43533"},"vehicle_type_id":"4","last_reported":1731117945,"current_range_meters":28800,"station_id":"ce4bhh92rcd13ifvqfi0","pricing_plan_id":"cebpf4jnsgd1na2vs0mg"},{"bike_id":"eccb9bf1-4a0c-4df5-8229-bf46f21c4329","system_id":"levelo_inurba_marseille","lat":43.31712,"lon":5.4241,"is_reserved":false,"is_disabled":false,"rental_uris":{"android":"levelo://app?vid=eccb9bf1-4a0c-4df5-8229-bf46f21c4329","ios":"levelo://app?vid=eccb9bf1-4a0c-4df5-8229-bf46f21c4329"},"vehicle_type_id":"4","last_reported":1731117945,"current_range_meters":35600,"station_id":"ce4bhp92rcd13ifvqhbg","pricing_plan_id":"cebpf4jnsgd1na2vs0mg"},{"bike_id":"ef288286-229d-4b9a-a189-8d61840dcffb","system_id":"levelo_inurba_marseille","lat":43.23189,"lon":5.3555,"is_reserved":false,"is_disabled":false,"rental_uris":{"android":"levelo://app?vid=ef288286-229d-4b9a-a189-8d61840dcffb","ios":"levelo://app?vid=ef288286-229d-4b9a-a189-8d61840dcffb"},"vehicle_type_id":"4","last_reported":1731117945,"current_range_meters":36400,"station_id":"ce4bhu92rcd13ifvqi70","pricing_plan_id":"cebpf4jnsgd1na2vs0mg"},{"bike_id":"aba30376-3325-4424-8e51-cfe3da497d72","system_id":"levelo_inurba_marseille","lat":43.30954,"lon":5.39051,"is_reserved":false,"is_disabled":false,"rental_uris":{"android":"levelo://app?vid=aba30376-3325-4424-8e51-cfe3da497d72","ios":"levelo://app?vid=aba30376-3325-4424-8e51-cfe3da497d72"},"vehicle_type_id":"4","last_reported":1731117945,"current_range_meters":38000,"station_id":"ce4bgup2rcd13ifvqco0","pricing_plan_id":"cebpf4jnsgd1na2vs0mg"},{"bike_id":"06fe70f1-1c7e-436c-824f-93f4a759022c","system_id":"levelo_inurba_marseille","lat":43.33602,"lon":5.41025,"is_reserved":false,"is_disabled":false,"rental_uris":{"android":"levelo://app?vid=06fe70f1-1c7e-436c-824f-93f4a759022c","ios":"levelo://app?vid=06fe70f1-1c7e-436c-824f-93f4a759022c"},"vehicle_type_id":"4","last_reported":1731117945,"current_range_meters":11200,"station_id":"ce4bhqh2rcd13ifvqhmg","pricing_plan_id":"cebpf4jnsgd1na2vs0mg"},{"bike_id":"9ff3a2bc-2d09-4f82-92c7-15589532de81","system_id":"levelo_inurba_marseille","lat":43.33606,"lon":5.41011,"is_reserved":false,"is_disabled":false,"rental_uris":{"android":"levelo://app?vid=9ff3a2bc-2d09-4f82-92c7-15589532de81","ios":"levelo://app?vid=9ff3a2bc-2d09-4f82-92c7-15589532de81"},"vehicle_type_id":"4","last_reported":1731117945,"current_range_meters":18000,"station_id":"ce4bhqh2rcd13ifvqhmg","pricing_plan_id":"cebpf4jnsgd1na2vs0mg"},{"bike_id":"43dbcf2e-3b20-4e0f-ac09-64b0f1ef49b7","system_id":"levelo_inurba_marseille","lat":43.25722,"lon":5.41103,"is_reserved":false,"is_disabled":false,"rental_uris":{"android":"levelo://app?vid=43dbcf2e-3b20-4e0f-ac09-64b0f1ef49b7","ios":"levelo://app?vid=43dbcf2e-3b20-4e0f-ac09-64b0f1ef49b7"},"vehicle_type_id":"4","last_reported":1731117945,"current_range_meters":36400,"station_id":"ce4bhkp2rcd13ifvqgd0","pricing_plan_id":"cebpf4jnsgd1na2vs0mg"},{"bike_id":"5e278857-ff25-429b-a53d-03827cae2638","system_id":"levelo_inurba_marseille","lat":43.24815,"lon":5.3745,"is_reserved":false,"is_disabled":false,"rental_uris":{"android":"levelo://app?vid=5e278857-ff25-429b-a53d-03827cae2638","ios":"levelo://app?vid=5e278857-ff25-429b-a53d-03827cae2638"},"vehicle_type_id":"4","last_reported":1731117945,"current_range_meters":22000,"station_id":"ce4bhgh2rcd13ifvqfb0","pricing_plan_id":"cebpf4jnsgd1na2vs0mg"},{"bike_id":"c5ac0297-7c32-4fa8-90a0-78eafcc097af","system_id":"levelo_inurba_marseille","lat":43.308,"lon":5.39994,"is_reserved":false,"is_disabled":false,"rental_uris":{"android":"levelo://app?vid=c5ac0297-7c32-4fa8-90a0-78eafcc097af","ios":"levelo://app?vid=c5ac0297-7c32-4fa8-90a0-78eafcc097af"},"vehicle_type_id":"4","last_reported":1731117945,"current_range_meters":9200,"station_id":"","pricing_plan_id":"cebpf4jnsgd1na2vs0mg"},{"bike_id":"5c2e91b0-db21-4162-85e8-dbe374504ee6","system_id":"levelo_inurba_marseille","lat":43.27824,"lon":5.40717,"is_reserved":false,"is_disabled":false,"rental_uris":{"android":"levelo://app?vid=5c2e91b0-db21-4162-85e8-dbe374504ee6","ios":"levelo://app?vid=5c2e91b0-db21-4162-85e8-dbe374504ee6"},"vehicle_type_id":"4","last_reported":1731117945,"current_range_meters":38000,"station_id":"ce4bhnh2rcd13ifvqgtg","pricing_plan_id":"cebpf4jnsgd1na2vs0mg"},{"bike_id":"10ee6f64-d75c-4e2f-8ed0-6ee62c2a4643","system_id":"levelo_inurba_marseille","lat":43.24656,"lon":5.38893,"is_reserved":false,"is_disabled":false,"rental_uris":{"android":"levelo://app?vid=10ee6f64-d75c-4e2f-8ed0-6ee62c2a4643","ios":"levelo://app?vid=10ee6f64-d75c-4e2f-8ed0-6ee62c2a4643"},"vehicle_type_id":"4","last_reported":1731117945,"current_range_meters":18000,"station_id":"ce4bhg12rcd13ifvqf60","pricing_plan_id":"cebpf4jnsgd1na2vs0mg"},{"bike_id":"c4ceb15a-5c5b-4500-b281-24d33897ea9b","system_id":"levelo_inurba_marseille","lat":43.29828,"lon":5.40412,"is_reserved":false,"is_disabled":false,"rental_uris":{"android":"levelo://app?vid=c4ceb15a-5c5b-4500-b281-24d33897ea9b","ios":"levelo://app?vid=c4ceb15a-5c5b-4500-b281-24d33897ea9b"},"vehicle_type_id":"4","last_reported":1731117945,"current_range_meters":34000,"station_id":"ce4bh112rcd13ifvqd90","pricing_plan_id":"cebpf4jnsgd1na2vs0mg"},{"bike_id":"17af4bea-b3de-4c83-bdca-1950a356db9a","system_id":"levelo_inurba_marseille","lat":43.31292,"lon":5.40174,"is_reserved":false,"is_disabled":false,"rental_uris":{"android":"levelo://app?vid=17af4bea-b3de-4c83-bdca-1950a356db9a","ios":"levelo://app?vid=17af4bea-b3de-4c83-bdca-1950a356db9a"},"vehicle_type_id":"4","last_reported":1731117945,"current_range_meters":36800,"station_id":"ce4bh092rcd13ifvqd30","pricing_plan_id":"cebpf4jnsgd1na2vs0mg"},{"bike_id":"27647bcf-c132-4bcf-a5f5-82ad5aeb2175","system_id":"levelo_inurba_marseille","lat":43.31127,"lon":5.37771,"is_reserved":false,"is_disabled":false,"rental_uris":{"android":"levelo://app?vid=27647bcf-c132-4bcf-a5f5-82ad5aeb2175","ios":"levelo://app?vid=27647bcf-c132-4bcf-a5f5-82ad5aeb2175"},"vehicle_type_id":"4","last_reported":1731117945,"current_range_meters":39200,"station_id":"ce4bgt92rcd13ifvqcg0","pricing_plan_id":"cebpf4jnsgd1na2vs0mg"},{"bike_id":"ac963c09-022d-4dbd-82ec-d4fdab6c93b8","system_id":"levelo_inurba_marseille","lat":43.30924,"lon":5.40149,"is_reserved":false,"is_disabled":false,"rental_uris":{"android":"levelo://app?vid=ac963c09-022d-4dbd-82ec-d4fdab6c93b8","ios":"levelo://app?vid=ac963c09-022d-4dbd-82ec-d4fdab6c93b8"},"vehicle_type_id":"4","last_reported":1731117945,"current_range_meters":38800,"station_id":"ce4bgvp2rcd13ifvqct0","pricing_plan_id":"cebpf4jnsgd1na2vs0mg"},{"bike_id":"860b2cf0-4aed-4b29-846c-c972dd8f24a5","system_id":"levelo_inurba_marseille","lat":43.2872,"lon":5.36091,"is_reserved":false,"is_disabled":false,"rental_uris":{"android":"levelo://app?vid=860b2cf0-4aed-4b29-846c-c972dd8f24a5","ios":"levelo://app?vid=860b2cf0-4aed-4b29-846c-c972dd8f24a5"},"vehicle_type_id":"4","last_reported":1731117945,"current_range_meters":28800,"station_id":"cki0cbj6b192h4jlfktg","pricing_plan_id":"cebpf4jnsgd1na2vs0mg"},{"bike_id":"183998b6-17d7-4eea-bdb6-b39e58a7063e","system_id":"levelo_inurba_marseille","lat":43.31706,"lon":5.43696,"is_reserved":false,"is_disabled":false,"rental_uris":{"android":"levelo://app?vid=183998b6-17d7-4eea-bdb6-b39e58a7063e","ios":"levelo://app?vid=183998b6-17d7-4eea-bdb6-b39e58a7063e"},"vehicle_type_id":"4","last_reported":1731117945,"current_range_meters":18800,"station_id":"ce4bhp92rcd13ifvqhcg","pricing_plan_id":"cebpf4jnsgd1na2vs0mg"},{"bike_id":"8faa22dc-5f3c-4af6-b84b-f554e09d6313","system_id":"levelo_inurba_marseille","lat":43.337444,"lon":5.374475,"is_reserved":false,"is_disabled":false,"rental_uris":{"android":"levelo://app?vid=8faa22dc-5f3c-4af6-b84b-f554e09d6313","ios":"levelo://app?vid=8faa22dc-5f3c-4af6-b84b-f554e09d6313"},"vehicle_type_id":"4","last_reported":1731117945,"current_range_meters":35600,"station_id":"","pricing_plan_id":"cebpf4jnsgd1na2vs0mg"},{"bike_id":"0143ddc9-1b2c-46be-8cd1-0fd9e4c9532e","system_id":"levelo_inurba_marseille","lat":43.2904,"lon":5.37592,"is_reserved":false,"is_disabled":false,"rental_uris":{"android":"levelo://app?vid=0143ddc9-1b2c-46be-8cd1-0fd9e4c9532e","ios":"levelo://app?vid=0143ddc9-1b2c-46be-8cd1-0fd9e4c9532e"},"vehicle_type_id":"4","last_reported":1731117945,"current_range_meters":30400,"station_id":"ce4bh692rcd13ifvqe90","pricing_plan_id":"cebpf4jnsgd1na2vs0mg"},{"bike_id":"8a3bb193-e44a-4dda-9ac1-86b1ecd75412","system_id":"levelo_inurba_marseille","lat":43.31892,"lon":5.40743,"is_reserved":false,"is_disabled":false,"rental_uris":{"android":"levelo://app?vid=8a3bb193-e44a-4dda-9ac1-86b1ecd75412","ios":"levelo://app?vid=8a3bb193-e44a-4dda-9ac1-86b1ecd75412"},"vehicle_type_id":"4","last_reported":1731117945,"current_range_meters":38800,"station_id":"ce4bhq12rcd13ifvqhig","pricing_plan_id":"cebpf4jnsgd1na2vs0mg"},{"bike_id":"da56df38-eab2-459f-8f90-922696119db1","system_id":"levelo_inurba_marseille","lat":43.3033,"lon":5.40431,"is_reserved":false,"is_disabled":false,"rental_uris":{"android":"levelo://app?vid=da56df38-eab2-459f-8f90-922696119db1","ios":"levelo://app?vid=da56df38-eab2-459f-8f90-922696119db1"},"vehicle_type_id":"4","last_reported":1731117945,"current_range_meters":38800,"station_id":"ce4bh012rcd13ifvqd10","pricing_plan_id":"cebpf4jnsgd1na2vs0mg"},{"bike_id":"9cf54a58-2c37-48cf-a40d-e37e14d46ee5","system_id":"levelo_inurba_marseille","lat":43.3033,"lon":5.40442,"is_reserved":false,"is_disabled":false,"rental_uris":{"android":"levelo://app?vid=9cf54a58-2c37-48cf-a40d-e37e14d46ee5","ios":"levelo://app?vid=9cf54a58-2c37-48cf-a40d-e37e14d46ee5"},"vehicle_type_id":"4","last_reported":1731117945,"current_range_meters":22000,"station_id":"ce4bh012rcd13ifvqd10","pricing_plan_id":"cebpf4jnsgd1na2vs0mg"},{"bike_id":"c7a601e3-837f-43df-885f-82aca8c8aba7","system_id":"levelo_inurba_marseille","lat":43.29445,"lon":5.38456,"is_reserved":false,"is_disabled":false,"rental_uris":{"android":"levelo://app?vid=c7a601e3-837f-43df-885f-82aca8c8aba7","ios":"levelo://app?vid=c7a601e3-837f-43df-885f-82aca8c8aba7"},"vehicle_type_id":"4","last_reported":1731117945,"current_range_meters":15200,"station_id":"","pricing_plan_id":"cebpf4jnsgd1na2vs0mg"},{"bike_id":"34e88b95-8ebf-45cd-ba93-72e13ad50ff3","system_id":"levelo_inurba_marseille","lat":43.29716,"lon":5.36609,"is_reserved":false,"is_disabled":false,"rental_uris":{"android":"levelo://app?vid=34e88b95-8ebf-45cd-ba93-72e13ad50ff3","ios":"levelo://app?vid=34e88b95-8ebf-45cd-ba93-72e13ad50ff3"},"vehicle_type_id":"4","last_reported":1731117945,"current_range_meters":38800,"station_id":"ce4bgn12rcd13ifvqbt0","pricing_plan_id":"cebpf4jnsgd1na2vs0mg"},{"bike_id":"53e176ca-3a96-45e2-b9c1-f258ec8a7a25","system_id":"levelo_inurba_marseille","lat":43.23148,"lon":5.43716,"is_reserved":false,"is_disabled":false,"rental_uris":{"android":"levelo://app?vid=53e176ca-3a96-45e2-b9c1-f258ec8a7a25","ios":"levelo://app?vid=53e176ca-3a96-45e2-b9c1-f258ec8a7a25"},"vehicle_type_id":"4","last_reported":1731117945,"current_range_meters":16000,"station_id":"ce4bhmp2rcd13ifvqgog","pricing_plan_id":"cebpf4jnsgd1na2vs0mg"},{"bike_id":"8ee7b9d5-9f1d-49f2-870d-69c8b74d6a1f","system_id":"levelo_inurba_marseille","lat":43.24649,"lon":5.38172,"is_reserved":false,"is_disabled":false,"rental_uris":{"android":"levelo://app?vid=8ee7b9d5-9f1d-49f2-870d-69c8b74d6a1f","ios":"levelo://app?vid=8ee7b9d5-9f1d-49f2-870d-69c8b74d6a1f"},"vehicle_type_id":"4","last_reported":1731117945,"current_range_meters":23200,"station_id":"ce4bhih2rcd13ifvqfr0","pricing_plan_id":"cebpf4jnsgd1na2vs0mg"},{"bike_id":"5fcac8d1-3460-4de9-8166-83a29fe1bc75","system_id":"levelo_inurba_marseille","lat":43.30927,"lon":5.40154,"is_reserved":false,"is_disabled":false,"rental_uris":{"android":"levelo://app?vid=5fcac8d1-3460-4de9-8166-83a29fe1bc75","ios":"levelo://app?vid=5fcac8d1-3460-4de9-8166-83a29fe1bc75"},"vehicle_type_id":"4","last_reported":1731117945,"current_range_meters":25600,"station_id":"ce4bgvp2rcd13ifvqct0","pricing_plan_id":"cebpf4jnsgd1na2vs0mg"},{"bike_id":"df1343a1-745d-42d9-a439-b7e1d8aba950","system_id":"levelo_inurba_marseille","lat":43.33607,"lon":5.41033,"is_reserved":false,"is_disabled":false,"rental_uris":{"android":"levelo://app?vid=df1343a1-745d-42d9-a439-b7e1d8aba950","ios":"levelo://app?vid=df1343a1-745d-42d9-a439-b7e1d8aba950"},"vehicle_type_id":"4","last_reported":1731117945,"current_range_meters":19200,"station_id":"ce4bhqh2rcd13ifvqhmg","pricing_plan_id":"cebpf4jnsgd1na2vs0mg"},{"bike_id":"f71f3d24-e3fa-489a-bd82-3a7b3caecc0b","system_id":"levelo_inurba_marseille","lat":43.3122,"lon":5.36879,"is_reserved":false,"is_disabled":false,"rental_uris":{"android":"levelo://app?vid=f71f3d24-e3fa-489a-bd82-3a7b3caecc0b","ios":"levelo://app?vid=f71f3d24-e3fa-489a-bd82-3a7b3caecc0b"},"vehicle_type_id":"4","last_reported":1731117945,"current_range_meters":36800,"station_id":"ce4bgl92rcd13ifvqbq0","pricing_plan_id":"cebpf4jnsgd1na2vs0mg"},{"bike_id":"4de16669-81af-4d13-ab5a-fb82eb47fa93","system_id":"levelo_inurba_marseille","lat":43.308,"lon":5.38146,"is_reserved":false,"is_disabled":false,"rental_uris":{"android":"levelo://app?vid=4de16669-81af-4d13-ab5a-fb82eb47fa93","ios":"levelo://app?vid=4de16669-81af-4d13-ab5a-fb82eb47fa93"},"vehicle_type_id":"4","last_reported":1731117945,"current_range_meters":30800,"station_id":"ce4bgt12rcd13ifvqce0","pricing_plan_id":"cebpf4jnsgd1na2vs0mg"},{"bike_id":"1b450d59-faab-45ad-b0ac-cf903559a458","system_id":"levelo_inurba_marseille","lat":43.29511,"lon":5.37502,"is_reserved":false,"is_disabled":false,"rental_uris":{"android":"levelo://app?vid=1b450d59-faab-45ad-b0ac-cf903559a458","ios":"levelo://app?vid=1b450d59-faab-45ad-b0ac-cf903559a458"},"vehicle_type_id":"4","last_reported":1731117945,"current_range_meters":28400,"station_id":"ce4bgkp2rcd13ifvqbmg","pricing_plan_id":"cebpf4jnsgd1na2vs0mg"},{"bike_id":"96216fca-520a-43f8-97bd-ea3488829150","system_id":"levelo_inurba_marseille","lat":43.28552,"lon":5.39488,"is_reserved":false,"is_disabled":false,"rental_uris":{"android":"levelo://app?vid=96216fca-520a-43f8-97bd-ea3488829150","ios":"levelo://app?vid=96216fca-520a-43f8-97bd-ea3488829150"},"vehicle_type_id":"4","last_reported":1731117945,"current_range_meters":33600,"station_id":"ce4bh292rcd13ifvqdg0","pricing_plan_id":"cebpf4jnsgd1na2vs0mg"},{"bike_id":"b2cf47e7-e7b3-4554-bd94-55ed8ee90da9","system_id":"levelo_inurba_marseille","lat":43.3093,"lon":5.40153,"is_reserved":false,"is_disabled":false,"rental_uris":{"android":"levelo://app?vid=b2cf47e7-e7b3-4554-bd94-55ed8ee90da9","ios":"levelo://app?vid=b2cf47e7-e7b3-4554-bd94-55ed8ee90da9"},"vehicle_type_id":"4","last_reported":1731117945,"current_range_meters":36400,"station_id":"ce4bgvp2rcd13ifvqct0","pricing_plan_id":"cebpf4jnsgd1na2vs0mg"},{"bike_id":"174b8d7c-6848-4016-b24b-870b68ed4eb7","system_id":"levelo_inurba_marseille","lat":43.28557,"lon":5.39486,"is_reserved":false,"is_disabled":false,"rental_uris":{"android":"levelo://app?vid=174b8d7c-6848-4016-b24b-870b68ed4eb7","ios":"levelo://app?vid=174b8d7c-6848-4016-b24b-870b68ed4eb7"},"vehicle_type_id":"4","last_reported":1731117945,"current_range_meters":38800,"station_id":"ce4bh292rcd13ifvqdg0","pricing_plan_id":"cebpf4jnsgd1na2vs0mg"},{"bike_id":"f0d7759e-43d0-4993-b917-20451c5c7e86","system_id":"levelo_inurba_marseille","lat":43.28102,"lon":5.37847,"is_reserved":false,"is_disabled":false,"rental_uris":{"android":"levelo://app?vid=f0d7759e-43d0-4993-b917-20451c5c7e86","ios":"levelo://app?vid=f0d7759e-43d0-4993-b917-20451c5c7e86"},"vehicle_type_id":"4","last_reported":1731117945,"current_range_meters":33200,"station_id":"ce4bha12rcd13ifvqee0","pricing_plan_id":"cebpf4jnsgd1na2vs0mg"},{"bike_id":"4c23aa4c-424f-4eb7-8027-50b92db4b055","system_id":"levelo_inurba_marseille","lat":43.27807,"lon":5.40709,"is_reserved":false,"is_disabled":false,"rental_uris":{"android":"levelo://app?vid=4c23aa4c-424f-4eb7-8027-50b92db4b055","ios":"levelo://app?vid=4c23aa4c-424f-4eb7-8027-50b92db4b055"},"vehicle_type_id":"4","last_reported":1731117945,"current_range_meters":22800,"station_id":"ce4bhnh2rcd13ifvqgtg","pricing_plan_id":"cebpf4jnsgd1na2vs0mg"},{"bike_id":"eb8ae82e-b5af-4e43-8b69-b135e11d1ed6","system_id":"levelo_inurba_marseille","lat":43.29904,"lon":5.43658,"is_reserved":false,"is_disabled":false,"rental_uris":{"android":"levelo://app?vid=eb8ae82e-b5af-4e43-8b69-b135e11d1ed6","ios":"levelo://app?vid=eb8ae82e-b5af-4e43-8b69-b135e11d1ed6"},"vehicle_type_id":"4","last_reported":1731117945,"current_range_meters":8800,"station_id":"ce4bhpp2rcd13ifvqhfg","pricing_plan_id":"cebpf4jnsgd1na2vs0mg"},{"bike_id":"9c276022-10a6-41c4-88a1-027e02835a1f","system_id":"levelo_inurba_marseille","lat":43.27832,"lon":5.40714,"is_reserved":false,"is_disabled":false,"rental_uris":{"android":"levelo://app?vid=9c276022-10a6-41c4-88a1-027e02835a1f","ios":"levelo://app?vid=9c276022-10a6-41c4-88a1-027e02835a1f"},"vehicle_type_id":"4","last_reported":1731117945,"current_range_meters":26800,"station_id":"ce4bhnh2rcd13ifvqgtg","pricing_plan_id":"cebpf4jnsgd1na2vs0mg"},{"bike_id":"51c449e6-190d-4603-b45a-70481b36fc79","system_id":"levelo_inurba_marseille","lat":43.27825,"lon":5.40716,"is_reserved":false,"is_disabled":false,"rental_uris":{"android":"levelo://app?vid=51c449e6-190d-4603-b45a-70481b36fc79","ios":"levelo://app?vid=51c449e6-190d-4603-b45a-70481b36fc79"},"vehicle_type_id":"4","last_reported":1731117945,"current_range_meters":9200,"station_id":"ce4bhnh2rcd13ifvqgtg","pricing_plan_id":"cebpf4jnsgd1na2vs0mg"},{"bike_id":"d6fdae69-642e-4d84-a8fd-edeb75ed0ef4","system_id":"levelo_inurba_marseille","lat":43.22932,"lon":5.35376,"is_reserved":false,"is_disabled":false,"rental_uris":{"android":"levelo://app?vid=d6fdae69-642e-4d84-a8fd-edeb75ed0ef4","ios":"levelo://app?vid=d6fdae69-642e-4d84-a8fd-edeb75ed0ef4"},"vehicle_type_id":"4","last_reported":1731117945,"current_range_meters":38800,"station_id":"cpo3532slgdg3j2ikp40","pricing_plan_id":"cebpf4jnsgd1na2vs0mg"},{"bike_id":"5cc66348-f056-4771-be0a-d998fca017be","system_id":"levelo_inurba_marseille","lat":43.25083,"lon":5.39507,"is_reserved":false,"is_disabled":false,"rental_uris":{"android":"levelo://app?vid=5cc66348-f056-4771-be0a-d998fca017be","ios":"levelo://app?vid=5cc66348-f056-4771-be0a-d998fca017be"},"vehicle_type_id":"4","last_reported":1731117945,"current_range_meters":20400,"station_id":"ce4bhm12rcd13ifvqgkg","pricing_plan_id":"cebpf4jnsgd1na2vs0mg"},{"bike_id":"f197336e-c908-4dad-86da-60febe6fb5b2","system_id":"levelo_inurba_marseille","lat":43.27623,"lon":5.36094,"is_reserved":false,"is_disabled":false,"rental_uris":{"android":"levelo://app?vid=f197336e-c908-4dad-86da-60febe6fb5b2","ios":"levelo://app?vid=f197336e-c908-4dad-86da-60febe6fb5b2"},"vehicle_type_id":"4","last_reported":1731117945,"current_range_meters":27600,"station_id":"ce4bgj92rcd13ifvqbe0","pricing_plan_id":"cebpf4jnsgd1na2vs0mg"},{"bike_id":"e1f0feec-c9e1-4322-9a21-d4cfff11939d","system_id":"levelo_inurba_marseille","lat":43.31894,"lon":5.40731,"is_reserved":false,"is_disabled":false,"rental_uris":{"android":"levelo://app?vid=e1f0feec-c9e1-4322-9a21-d4cfff11939d","ios":"levelo://app?vid=e1f0feec-c9e1-4322-9a21-d4cfff11939d"},"vehicle_type_id":"4","last_reported":1731117945,"current_range_meters":38800,"station_id":"ce4bhq12rcd13ifvqhig","pricing_plan_id":"cebpf4jnsgd1na2vs0mg"},{"bike_id":"ae54d96d-70f5-4347-8dd4-86d634a169dd","system_id":"levelo_inurba_marseille","lat":43.25114,"lon":5.40323,"is_reserved":false,"is_disabled":false,"rental_uris":{"android":"levelo://app?vid=ae54d96d-70f5-4347-8dd4-86d634a169dd","ios":"levelo://app?vid=ae54d96d-70f5-4347-8dd4-86d634a169dd"},"vehicle_type_id":"4","last_reported":1731117945,"current_range_meters":36400,"station_id":"ce4bhlh2rcd13ifvqgig","pricing_plan_id":"cebpf4jnsgd1na2vs0mg"},{"bike_id":"86d64521-d332-4842-b4fb-5fa4820d8c81","system_id":"levelo_inurba_marseille","lat":43.337444,"lon":5.374475,"is_reserved":false,"is_disabled":false,"rental_uris":{"android":"levelo://app?vid=86d64521-d332-4842-b4fb-5fa4820d8c81","ios":"levelo://app?vid=86d64521-d332-4842-b4fb-5fa4820d8c81"},"vehicle_type_id":"4","last_reported":1731117945,"current_range_meters":35200,"station_id":"","pricing_plan_id":"cebpf4jnsgd1na2vs0mg"},{"bike_id":"103c2739-9638-42bd-b635-1966b37a8e3e","system_id":"levelo_inurba_marseille","lat":43.27822,"lon":5.40712,"is_reserved":false,"is_disabled":false,"rental_uris":{"android":"levelo://app?vid=103c2739-9638-42bd-b635-1966b37a8e3e","ios":"levelo://app?vid=103c2739-9638-42bd-b635-1966b37a8e3e"},"vehicle_type_id":"4","last_reported":1731117945,"current_range_meters":17600,"station_id":"ce4bhnh2rcd13ifvqgtg","pricing_plan_id":"cebpf4jnsgd1na2vs0mg"},{"bike_id":"c44d52b4-c18b-45ad-99d7-0c974d7006cb","system_id":"levelo_inurba_marseille","lat":43.28273,"lon":5.35046,"is_reserved":false,"is_disabled":false,"rental_uris":{"android":"levelo://app?vid=c44d52b4-c18b-45ad-99d7-0c974d7006cb","ios":"levelo://app?vid=c44d52b4-c18b-45ad-99d7-0c974d7006cb"},"vehicle_type_id":"4","last_reported":1731117945,"current_range_meters":19200,"station_id":"ce4bhbp2rcd13ifvqerg","pricing_plan_id":"cebpf4jnsgd1na2vs0mg"},{"bike_id":"e99d247a-1ce0-4c71-944b-d68cc3c2ab92","system_id":"levelo_inurba_marseille","lat":43.3069,"lon":5.40072,"is_reserved":false,"is_disabled":false,"rental_uris":{"android":"levelo://app?vid=e99d247a-1ce0-4c71-944b-d68cc3c2ab92","ios":"levelo://app?vid=e99d247a-1ce0-4c71-944b-d68cc3c2ab92"},"vehicle_type_id":"4","last_reported":1731117945,"current_range_meters":26000,"station_id":"ce4bh112rcd13ifvqda0","pricing_plan_id":"cebpf4jnsgd1na2vs0mg"},{"bike_id":"715888ca-4fe0-496e-bee7-d7095e7543ea","system_id":"levelo_inurba_marseille","lat":43.27058,"lon":5.4026,"is_reserved":false,"is_disabled":false,"rental_uris":{"android":"levelo://app?vid=715888ca-4fe0-496e-bee7-d7095e7543ea","ios":"levelo://app?vid=715888ca-4fe0-496e-bee7-d7095e7543ea"},"vehicle_type_id":"4","last_reported":1731117945,"current_range_meters":11600,"station_id":"ce4bhk92rcd13ifvqgc0","pricing_plan_id":"cebpf4jnsgd1na2vs0mg"},{"bike_id":"448d3bf9-78cb-439a-a23b-0e48f1b89013","system_id":"levelo_inurba_marseille","lat":43.32372,"lon":5.38865,"is_reserved":false,"is_disabled":false,"rental_uris":{"android":"levelo://app?vid=448d3bf9-78cb-439a-a23b-0e48f1b89013","ios":"levelo://app?vid=448d3bf9-78cb-439a-a23b-0e48f1b89013"},"vehicle_type_id":"4","last_reported":1731117945,"current_range_meters":14000,"station_id":"ce4bhqp2rcd13ifvqhog","pricing_plan_id":"cebpf4jnsgd1na2vs0mg"},{"bike_id":"08c87c74-8ce5-4912-ab68-fb06a199a47b","system_id":"levelo_inurba_marseille","lat":43.23189,"lon":5.39984,"is_reserved":false,"is_disabled":false,"rental_uris":{"android":"levelo://app?vid=08c87c74-8ce5-4912-ab68-fb06a199a47b","ios":"levelo://app?vid=08c87c74-8ce5-4912-ab68-fb06a199a47b"},"vehicle_type_id":"4","last_reported":1731117945,"current_range_meters":39200,"station_id":"ce4bhn12rcd13ifvqgqg","pricing_plan_id":"cebpf4jnsgd1na2vs0mg"},{"bike_id":"0b53fb54-f6fa-45c1-b912-5bc81e2b4ac7","system_id":"levelo_inurba_marseille","lat":43.3048,"lon":5.37908,"is_reserved":false,"is_disabled":false,"rental_uris":{"android":"levelo://app?vid=0b53fb54-f6fa-45c1-b912-5bc81e2b4ac7","ios":"levelo://app?vid=0b53fb54-f6fa-45c1-b912-5bc81e2b4ac7"},"vehicle_type_id":"4","last_reported":1731117945,"current_range_meters":18000,"station_id":"ce4bgup2rcd13ifvqcn0","pricing_plan_id":"cebpf4jnsgd1na2vs0mg"},{"bike_id":"1dfd26b6-6ae9-4d29-8c2c-fd7385bb843a","system_id":"levelo_inurba_marseille","lat":43.30654,"lon":5.40065,"is_reserved":false,"is_disabled":false,"rental_uris":{"android":"levelo://app?vid=1dfd26b6-6ae9-4d29-8c2c-fd7385bb843a","ios":"levelo://app?vid=1dfd26b6-6ae9-4d29-8c2c-fd7385bb843a"},"vehicle_type_id":"4","last_reported":1731117945,"current_range_meters":36800,"station_id":"ce4bh112rcd13ifvqda0","pricing_plan_id":"cebpf4jnsgd1na2vs0mg"},{"bike_id":"3a1b2dee-3aac-4d59-8987-200b89692033","system_id":"levelo_inurba_marseille","lat":43.28403,"lon":5.37517,"is_reserved":false,"is_disabled":false,"rental_uris":{"android":"levelo://app?vid=3a1b2dee-3aac-4d59-8987-200b89692033","ios":"levelo://app?vid=3a1b2dee-3aac-4d59-8987-200b89692033"},"vehicle_type_id":"4","last_reported":1731117945,"current_range_meters":34800,"station_id":"ce4bh412rcd13ifvqds0","pricing_plan_id":"cebpf4jnsgd1na2vs0mg"},{"bike_id":"d4e2615a-83f7-44f4-94b2-ee4cf6b17fb3","system_id":"levelo_inurba_marseille","lat":43.25093,"lon":5.39521,"is_reserved":false,"is_disabled":false,"rental_uris":{"android":"levelo://app?vid=d4e2615a-83f7-44f4-94b2-ee4cf6b17fb3","ios":"levelo://app?vid=d4e2615a-83f7-44f4-94b2-ee4cf6b17fb3"},"vehicle_type_id":"4","last_reported":1731117945,"current_range_meters":21600,"station_id":"ce4bhm12rcd13ifvqgkg","pricing_plan_id":"cebpf4jnsgd1na2vs0mg"},{"bike_id":"bb357536-e9fc-453b-9696-acb893fcc304","system_id":"levelo_inurba_marseille","lat":43.27618,"lon":5.36109,"is_reserved":false,"is_disabled":false,"rental_uris":{"android":"levelo://app?vid=bb357536-e9fc-453b-9696-acb893fcc304","ios":"levelo://app?vid=bb357536-e9fc-453b-9696-acb893fcc304"},"vehicle_type_id":"4","last_reported":1731117945,"current_range_meters":29600,"station_id":"ce4bgj92rcd13ifvqbe0","pricing_plan_id":"cebpf4jnsgd1na2vs0mg"},{"bike_id":"1e3dea22-7fac-4f4b-b600-c929631fbbdf","system_id":"levelo_inurba_marseille","lat":43.31725,"lon":5.42399,"is_reserved":false,"is_disabled":false,"rental_uris":{"android":"levelo://app?vid=1e3dea22-7fac-4f4b-b600-c929631fbbdf","ios":"levelo://app?vid=1e3dea22-7fac-4f4b-b600-c929631fbbdf"},"vehicle_type_id":"4","last_reported":1731117945,"current_range_meters":38800,"station_id":"ce4bhp92rcd13ifvqhbg","pricing_plan_id":"cebpf4jnsgd1na2vs0mg"},{"bike_id":"73f1ea5e-61a3-470f-a393-df09eabadcf2","system_id":"levelo_inurba_marseille","lat":43.30802,"lon":5.37644,"is_reserved":false,"is_disabled":false,"rental_uris":{"android":"levelo://app?vid=73f1ea5e-61a3-470f-a393-df09eabadcf2","ios":"levelo://app?vid=73f1ea5e-61a3-470f-a393-df09eabadcf2"},"vehicle_type_id":"4","last_reported":1731117945,"current_range_meters":14800,"station_id":"ce4bgv92rcd13ifvqcq0","pricing_plan_id":"cebpf4jnsgd1na2vs0mg"},{"bike_id":"8f870f83-fd9e-42de-8cdb-a421eef47b08","system_id":"levelo_inurba_marseille","lat":43.26942,"lon":5.40238,"is_reserved":false,"is_disabled":false,"rental_uris":{"android":"levelo://app?vid=8f870f83-fd9e-42de-8cdb-a421eef47b08","ios":"levelo://app?vid=8f870f83-fd9e-42de-8cdb-a421eef47b08"},"vehicle_type_id":"4","last_reported":1731117945,"current_range_meters":16400,"station_id":"cjm6bp8fraef2m0cb0m0","pricing_plan_id":"cebpf4jnsgd1na2vs0mg"},{"bike_id":"8864522f-df38-4b28-8ef8-dd87d89715ec","system_id":"levelo_inurba_marseille","lat":43.30431,"lon":5.39755,"is_reserved":false,"is_disabled":false,"rental_uris":{"android":"levelo://app?vid=8864522f-df38-4b28-8ef8-dd87d89715ec","ios":"levelo://app?vid=8864522f-df38-4b28-8ef8-dd87d89715ec"},"vehicle_type_id":"4","last_reported":1731117945,"current_range_meters":39200,"station_id":"ce4bh092rcd13ifvqd20","pricing_plan_id":"cebpf4jnsgd1na2vs0mg"},{"bike_id":"842e7854-f33a-43ee-9363-9f48b0cce9a2","system_id":"levelo_inurba_marseille","lat":43.30955,"lon":5.39038,"is_reserved":false,"is_disabled":false,"rental_uris":{"android":"levelo://app?vid=842e7854-f33a-43ee-9363-9f48b0cce9a2","ios":"levelo://app?vid=842e7854-f33a-43ee-9363-9f48b0cce9a2"},"vehicle_type_id":"4","last_reported":1731117945,"current_range_meters":37600,"station_id":"ce4bgup2rcd13ifvqco0","pricing_plan_id":"cebpf4jnsgd1na2vs0mg"},{"bike_id":"bbc4f13b-cc27-45c8-9657-03eb08fa0f07","system_id":"levelo_inurba_marseille","lat":43.25114,"lon":5.40327,"is_reserved":false,"is_disabled":false,"rental_uris":{"android":"levelo://app?vid=bbc4f13b-cc27-45c8-9657-03eb08fa0f07","ios":"levelo://app?vid=bbc4f13b-cc27-45c8-9657-03eb08fa0f07"},"vehicle_type_id":"4","last_reported":1731117945,"current_range_meters":25600,"station_id":"ce4bhlh2rcd13ifvqgig","pricing_plan_id":"cebpf4jnsgd1na2vs0mg"},{"bike_id":"a0d9d5ae-de17-4341-bed9-edfa4e4e8139","system_id":"levelo_inurba_marseille","lat":43.3044,"lon":5.3664,"is_reserved":false,"is_disabled":false,"rental_uris":{"android":"levelo://app?vid=a0d9d5ae-de17-4341-bed9-edfa4e4e8139","ios":"levelo://app?vid=a0d9d5ae-de17-4341-bed9-edfa4e4e8139"},"vehicle_type_id":"4","last_reported":1731117945,"current_range_meters":4000,"station_id":"","pricing_plan_id":"cebpf4jnsgd1na2vs0mg"},{"bike_id":"240fac95-469b-4ec1-a905-bc2e3ab6eab7","system_id":"levelo_inurba_marseille","lat":43.24808,"lon":5.37444,"is_reserved":false,"is_disabled":false,"rental_uris":{"android":"levelo://app?vid=240fac95-469b-4ec1-a905-bc2e3ab6eab7","ios":"levelo://app?vid=240fac95-469b-4ec1-a905-bc2e3ab6eab7"},"vehicle_type_id":"4","last_reported":1731117945,"current_range_meters":38400,"station_id":"ce4bhgh2rcd13ifvqfb0","pricing_plan_id":"cebpf4jnsgd1na2vs0mg"},{"bike_id":"7ee5e9c9-c9de-4184-be15-04dcbb3ea74c","system_id":"levelo_inurba_marseille","lat":43.32282,"lon":5.38251,"is_reserved":false,"is_disabled":false,"rental_uris":{"android":"levelo://app?vid=7ee5e9c9-c9de-4184-be15-04dcbb3ea74c","ios":"levelo://app?vid=7ee5e9c9-c9de-4184-be15-04dcbb3ea74c"},"vehicle_type_id":"4","last_reported":1731117945,"current_range_meters":9200,"station_id":"ce4bhr12rcd13ifvqhqg","pricing_plan_id":"cebpf4jnsgd1na2vs0mg"},{"bike_id":"daa40397-b935-43a1-8b04-4eb5a237eb7f","system_id":"levelo_inurba_marseille","lat":43.30789,"lon":5.38149,"is_reserved":false,"is_disabled":false,"rental_uris":{"android":"levelo://app?vid=daa40397-b935-43a1-8b04-4eb5a237eb7f","ios":"levelo://app?vid=daa40397-b935-43a1-8b04-4eb5a237eb7f"},"vehicle_type_id":"4","last_reported":1731117945,"current_range_meters":38400,"station_id":"ce4bgt12rcd13ifvqce0","pricing_plan_id":"cebpf4jnsgd1na2vs0mg"},{"bike_id":"cfbc5f4a-02d5-44b0-b064-243db6db2988","system_id":"levelo_inurba_marseille","lat":43.25121,"lon":5.40315,"is_reserved":false,"is_disabled":false,"rental_uris":{"android":"levelo://app?vid=cfbc5f4a-02d5-44b0-b064-243db6db2988","ios":"levelo://app?vid=cfbc5f4a-02d5-44b0-b064-243db6db2988"},"vehicle_type_id":"4","last_reported":1731117945,"current_range_meters":22800,"station_id":"ce4bhlh2rcd13ifvqgig","pricing_plan_id":"cebpf4jnsgd1na2vs0mg"},{"bike_id":"c7bbeaf1-9143-4605-9dd2-31eea73940ee","system_id":"levelo_inurba_marseille","lat":43.29904,"lon":5.39723,"is_reserved":false,"is_disabled":false,"rental_uris":{"android":"levelo://app?vid=c7bbeaf1-9143-4605-9dd2-31eea73940ee","ios":"levelo://app?vid=c7bbeaf1-9143-4605-9dd2-31eea73940ee"},"vehicle_type_id":"4","last_reported":1731117945,"current_range_meters":4400,"station_id":"ce4bh0h2rcd13ifvqd50","pricing_plan_id":"cebpf4jnsgd1na2vs0mg"},{"bike_id":"92d70b13-e3e5-4474-a1bf-7bc985d7b097","system_id":"levelo_inurba_marseille","lat":43.25826,"lon":5.39439,"is_reserved":false,"is_disabled":false,"rental_uris":{"android":"levelo://app?vid=92d70b13-e3e5-4474-a1bf-7bc985d7b097","ios":"levelo://app?vid=92d70b13-e3e5-4474-a1bf-7bc985d7b097"},"vehicle_type_id":"4","last_reported":1731117945,"current_range_meters":14800,"station_id":"ce4bhip2rcd13ifvqft0","pricing_plan_id":"cebpf4jnsgd1na2vs0mg"},{"bike_id":"e0352fab-c635-4c7a-87d9-f615c078509d","system_id":"levelo_inurba_marseille","lat":43.32485,"lon":5.3659,"is_reserved":false,"is_disabled":false,"rental_uris":{"android":"levelo://app?vid=e0352fab-c635-4c7a-87d9-f615c078509d","ios":"levelo://app?vid=e0352fab-c635-4c7a-87d9-f615c078509d"},"vehicle_type_id":"4","last_reported":1731117945,"current_range_meters":37600,"station_id":"ce4bhs12rcd13ifvqhvg","pricing_plan_id":"cebpf4jnsgd1na2vs0mg"},{"bike_id":"6d8ffd32-9177-4bf0-b405-c7745031eca0","system_id":"levelo_inurba_marseille","lat":43.29028,"lon":5.37566,"is_reserved":false,"is_disabled":false,"rental_uris":{"android":"levelo://app?vid=6d8ffd32-9177-4bf0-b405-c7745031eca0","ios":"levelo://app?vid=6d8ffd32-9177-4bf0-b405-c7745031eca0"},"vehicle_type_id":"4","last_reported":1731117945,"current_range_meters":32400,"station_id":"ce4bh692rcd13ifvqe90","pricing_plan_id":"cebpf4jnsgd1na2vs0mg"},{"bike_id":"e927137b-b561-43dc-8682-c3e2f40d1308","system_id":"levelo_inurba_marseille","lat":43.29258,"lon":5.40903,"is_reserved":false,"is_disabled":false,"rental_uris":{"android":"levelo://app?vid=e927137b-b561-43dc-8682-c3e2f40d1308","ios":"levelo://app?vid=e927137b-b561-43dc-8682-c3e2f40d1308"},"vehicle_type_id":"4","last_reported":1731117945,"current_range_meters":10000,"station_id":"ce4bh192rcd13ifvqdc0","pricing_plan_id":"cebpf4jnsgd1na2vs0mg"},{"bike_id":"c07f4fd7-44c8-4ca9-8cdd-edc38807fe9c","system_id":"levelo_inurba_marseille","lat":43.26579,"lon":5.37317,"is_reserved":false,"is_disabled":false,"rental_uris":{"android":"levelo://app?vid=c07f4fd7-44c8-4ca9-8cdd-edc38807fe9c","ios":"levelo://app?vid=c07f4fd7-44c8-4ca9-8cdd-edc38807fe9c"},"vehicle_type_id":"4","last_reported":1731117945,"current_range_meters":22400,"station_id":"ce4bhg12rcd13ifvqf70","pricing_plan_id":"cebpf4jnsgd1na2vs0mg"},{"bike_id":"a83d7f20-58d7-4bb1-9968-7dfc2f34eae0","system_id":"levelo_inurba_marseille","lat":43.28967,"lon":5.40111,"is_reserved":false,"is_disabled":false,"rental_uris":{"android":"levelo://app?vid=a83d7f20-58d7-4bb1-9968-7dfc2f34eae0","ios":"levelo://app?vid=a83d7f20-58d7-4bb1-9968-7dfc2f34eae0"},"vehicle_type_id":"4","last_reported":1731117945,"current_range_meters":27600,"station_id":"ce4bh392rcd13ifvqdm0","pricing_plan_id":"cebpf4jnsgd1na2vs0mg"},{"bike_id":"83aa1b31-0fcf-4067-8a65-66bea7449e24","system_id":"levelo_inurba_marseille","lat":43.28675,"lon":5.40033,"is_reserved":false,"is_disabled":false,"rental_uris":{"android":"levelo://app?vid=83aa1b31-0fcf-4067-8a65-66bea7449e24","ios":"levelo://app?vid=83aa1b31-0fcf-4067-8a65-66bea7449e24"},"vehicle_type_id":"4","last_reported":1731117945,"current_range_meters":8400,"station_id":"","pricing_plan_id":"cebpf4jnsgd1na2vs0mg"},{"bike_id":"774649b8-3eb5-4e5a-bdc0-8cf43dfb86a6","system_id":"levelo_inurba_marseille","lat":43.24656,"lon":5.38894,"is_reserved":false,"is_disabled":false,"rental_uris":{"android":"levelo://app?vid=774649b8-3eb5-4e5a-bdc0-8cf43dfb86a6","ios":"levelo://app?vid=774649b8-3eb5-4e5a-bdc0-8cf43dfb86a6"},"vehicle_type_id":"4","last_reported":1731117945,"current_range_meters":35200,"station_id":"ce4bhg12rcd13ifvqf60","pricing_plan_id":"cebpf4jnsgd1na2vs0mg"},{"bike_id":"9d291c5d-07c9-471b-b1f2-df5c113ecdb3","system_id":"levelo_inurba_marseille","lat":43.30652,"lon":5.40062,"is_reserved":false,"is_disabled":false,"rental_uris":{"android":"levelo://app?vid=9d291c5d-07c9-471b-b1f2-df5c113ecdb3","ios":"levelo://app?vid=9d291c5d-07c9-471b-b1f2-df5c113ecdb3"},"vehicle_type_id":"4","last_reported":1731117945,"current_range_meters":39200,"station_id":"ce4bh112rcd13ifvqda0","pricing_plan_id":"cebpf4jnsgd1na2vs0mg"},{"bike_id":"ca1a0c25-19e1-458d-b5bc-b31285306a41","system_id":"levelo_inurba_marseille","lat":43.30099,"lon":5.39097,"is_reserved":false,"is_disabled":false,"rental_uris":{"android":"levelo://app?vid=ca1a0c25-19e1-458d-b5bc-b31285306a41","ios":"levelo://app?vid=ca1a0c25-19e1-458d-b5bc-b31285306a41"},"vehicle_type_id":"4","last_reported":1731117945,"current_range_meters":36400,"station_id":"ce4bh192rcd13ifvqdb0","pricing_plan_id":"cebpf4jnsgd1na2vs0mg"},{"bike_id":"71729ca1-f787-41f5-bfe3-f732b80dfddc","system_id":"levelo_inurba_marseille","lat":43.23154,"lon":5.43698,"is_reserved":false,"is_disabled":false,"rental_uris":{"android":"levelo://app?vid=71729ca1-f787-41f5-bfe3-f732b80dfddc","ios":"levelo://app?vid=71729ca1-f787-41f5-bfe3-f732b80dfddc"},"vehicle_type_id":"4","last_reported":1731117945,"current_range_meters":16800,"station_id":"ce4bhmp2rcd13ifvqgog","pricing_plan_id":"cebpf4jnsgd1na2vs0mg"},{"bike_id":"b0aea497-88ab-43ef-a893-9e1635af4d71","system_id":"levelo_inurba_marseille","lat":43.23953,"lon":5.36638,"is_reserved":false,"is_disabled":false,"rental_uris":{"android":"levelo://app?vid=b0aea497-88ab-43ef-a893-9e1635af4d71","ios":"levelo://app?vid=b0aea497-88ab-43ef-a893-9e1635af4d71"},"vehicle_type_id":"4","last_reported":1731117945,"current_range_meters":34800,"station_id":"ce4bhi12rcd13ifvqfp0","pricing_plan_id":"cebpf4jnsgd1na2vs0mg"},{"bike_id":"5cb403b7-6bf8-4f37-a57f-47fe40c64a5e","system_id":"levelo_inurba_marseille","lat":43.298,"lon":5.40407,"is_reserved":false,"is_disabled":false,"rental_uris":{"android":"levelo://app?vid=5cb403b7-6bf8-4f37-a57f-47fe40c64a5e","ios":"levelo://app?vid=5cb403b7-6bf8-4f37-a57f-47fe40c64a5e"},"vehicle_type_id":"4","last_reported":1731117945,"current_range_meters":39200,"station_id":"ce4bh112rcd13ifvqd90","pricing_plan_id":"cebpf4jnsgd1na2vs0mg"},{"bike_id":"07835292-7937-4f59-ba35-84137dd9e889","system_id":"levelo_inurba_marseille","lat":43.28847,"lon":5.35853,"is_reserved":false,"is_disabled":false,"rental_uris":{"android":"levelo://app?vid=07835292-7937-4f59-ba35-84137dd9e889","ios":"levelo://app?vid=07835292-7937-4f59-ba35-84137dd9e889"},"vehicle_type_id":"4","last_reported":1731117945,"current_range_meters":38800,"station_id":"ce4bhb12rcd13ifvqem0","pricing_plan_id":"cebpf4jnsgd1na2vs0mg"},{"bike_id":"aae46c90-7dfb-4093-af21-440ae4c50861","system_id":"levelo_inurba_marseille","lat":43.27977,"lon":5.38725,"is_reserved":false,"is_disabled":false,"rental_uris":{"android":"levelo://app?vid=aae46c90-7dfb-4093-af21-440ae4c50861","ios":"levelo://app?vid=aae46c90-7dfb-4093-af21-440ae4c50861"},"vehicle_type_id":"4","last_reported":1731117945,"current_range_meters":26000,"station_id":"ce4bhg12rcd13ifvqf80","pricing_plan_id":"cebpf4jnsgd1na2vs0mg"},{"bike_id":"b2cbe124-e9e9-4203-8080-c24b9a55d574","system_id":"levelo_inurba_marseille","lat":43.24071,"lon":5.37756,"is_reserved":false,"is_disabled":false,"rental_uris":{"android":"levelo://app?vid=b2cbe124-e9e9-4203-8080-c24b9a55d574","ios":"levelo://app?vid=b2cbe124-e9e9-4203-8080-c24b9a55d574"},"vehicle_type_id":"4","last_reported":1731117945,"current_range_meters":36400,"station_id":"ce4bhnp2rcd13ifvqgvg","pricing_plan_id":"cebpf4jnsgd1na2vs0mg"},{"bike_id":"4adc051b-cab2-444f-a4c6-933d4708baf0","system_id":"levelo_inurba_marseille","lat":43.31721,"lon":5.42399,"is_reserved":false,"is_disabled":false,"rental_uris":{"android":"levelo://app?vid=4adc051b-cab2-444f-a4c6-933d4708baf0","ios":"levelo://app?vid=4adc051b-cab2-444f-a4c6-933d4708baf0"},"vehicle_type_id":"4","last_reported":1731117945,"current_range_meters":10000,"station_id":"ce4bhp92rcd13ifvqhbg","pricing_plan_id":"cebpf4jnsgd1na2vs0mg"},{"bike_id":"bc14f84f-871d-4faa-a3e8-565342d8fc32","system_id":"levelo_inurba_marseille","lat":43.33607,"lon":5.41027,"is_reserved":false,"is_disabled":false,"rental_uris":{"android":"levelo://app?vid=bc14f84f-871d-4faa-a3e8-565342d8fc32","ios":"levelo://app?vid=bc14f84f-871d-4faa-a3e8-565342d8fc32"},"vehicle_type_id":"4","last_reported":1731117945,"current_range_meters":20000,"station_id":"ce4bhqh2rcd13ifvqhmg","pricing_plan_id":"cebpf4jnsgd1na2vs0mg"},{"bike_id":"e034c0f4-5dc8-4c6c-b7ef-4724ee9bfb9e","system_id":"levelo_inurba_marseille","lat":43.29055,"lon":5.37147,"is_reserved":false,"is_disabled":false,"rental_uris":{"android":"levelo://app?vid=e034c0f4-5dc8-4c6c-b7ef-4724ee9bfb9e","ios":"levelo://app?vid=e034c0f4-5dc8-4c6c-b7ef-4724ee9bfb9e"},"vehicle_type_id":"4","last_reported":1731117945,"current_range_meters":24400,"station_id":"ce4bh5p2rcd13ifvqe4g","pricing_plan_id":"cebpf4jnsgd1na2vs0mg"},{"bike_id":"9ea02c74-0e7b-4b3a-9a70-2bd3db7e5bc4","system_id":"levelo_inurba_marseille","lat":43.27989,"lon":5.40016,"is_reserved":false,"is_disabled":false,"rental_uris":{"android":"levelo://app?vid=9ea02c74-0e7b-4b3a-9a70-2bd3db7e5bc4","ios":"levelo://app?vid=9ea02c74-0e7b-4b3a-9a70-2bd3db7e5bc4"},"vehicle_type_id":"4","last_reported":1731117945,"current_range_meters":14000,"station_id":"ce4bho92rcd13ifvqh4g","pricing_plan_id":"cebpf4jnsgd1na2vs0mg"},{"bike_id":"26a444b4-50a5-485a-afd3-f28f60030918","system_id":"levelo_inurba_marseille","lat":43.28454,"lon":5.35874,"is_reserved":false,"is_disabled":false,"rental_uris":{"android":"levelo://app?vid=26a444b4-50a5-485a-afd3-f28f60030918","ios":"levelo://app?vid=26a444b4-50a5-485a-afd3-f28f60030918"},"vehicle_type_id":"4","last_reported":1731117945,"current_range_meters":27600,"station_id":"ce4bhah2rcd13ifvqei0","pricing_plan_id":"cebpf4jnsgd1na2vs0mg"},{"bike_id":"610c2ed4-7ebd-4e84-9e47-c51c9aca3591","system_id":"levelo_inurba_marseille","lat":43.28404,"lon":5.3751,"is_reserved":false,"is_disabled":false,"rental_uris":{"android":"levelo://app?vid=610c2ed4-7ebd-4e84-9e47-c51c9aca3591","ios":"levelo://app?vid=610c2ed4-7ebd-4e84-9e47-c51c9aca3591"},"vehicle_type_id":"4","last_reported":1731117945,"current_range_meters":38800,"station_id":"ce4bh412rcd13ifvqds0","pricing_plan_id":"cebpf4jnsgd1na2vs0mg"},{"bike_id":"6bf91cee-36bc-4259-a139-82597856edff","system_id":"levelo_inurba_marseille","lat":43.31712,"lon":5.37716,"is_reserved":false,"is_disabled":false,"rental_uris":{"android":"levelo://app?vid=6bf91cee-36bc-4259-a139-82597856edff","ios":"levelo://app?vid=6bf91cee-36bc-4259-a139-82597856edff"},"vehicle_type_id":"4","last_reported":1731117945,"current_range_meters":38800,"station_id":"ce4bgth2rcd13ifvqch0","pricing_plan_id":"cebpf4jnsgd1na2vs0mg"},{"bike_id":"e9905918-adc2-4706-b5fc-2354901773c8","system_id":"levelo_inurba_marseille","lat":43.27821,"lon":5.40714,"is_reserved":false,"is_disabled":false,"rental_uris":{"android":"levelo://app?vid=e9905918-adc2-4706-b5fc-2354901773c8","ios":"levelo://app?vid=e9905918-adc2-4706-b5fc-2354901773c8"},"vehicle_type_id":"4","last_reported":1731117945,"current_range_meters":31200,"station_id":"ce4bhnh2rcd13ifvqgtg","pricing_plan_id":"cebpf4jnsgd1na2vs0mg"},{"bike_id":"ebd313ff-00e1-44f2-b2be-f0d356160fd2","system_id":"levelo_inurba_marseille","lat":43.31355,"lon":5.38486,"is_reserved":false,"is_disabled":false,"rental_uris":{"android":"levelo://app?vid=ebd313ff-00e1-44f2-b2be-f0d356160fd2","ios":"levelo://app?vid=ebd313ff-00e1-44f2-b2be-f0d356160fd2"},"vehicle_type_id":"4","last_reported":1731117945,"current_range_meters":36800,"station_id":"ce4bgt92rcd13ifvqcf0","pricing_plan_id":"cebpf4jnsgd1na2vs0mg"},{"bike_id":"2ac22f94-2156-4d86-9178-897393a16283","system_id":"levelo_inurba_marseille","lat":43.28451,"lon":5.39192,"is_reserved":false,"is_disabled":false,"rental_uris":{"android":"levelo://app?vid=2ac22f94-2156-4d86-9178-897393a16283","ios":"levelo://app?vid=2ac22f94-2156-4d86-9178-897393a16283"},"vehicle_type_id":"4","last_reported":1731117945,"current_range_meters":23200,"station_id":"ce4bhoh2rcd13ifvqh5g","pricing_plan_id":"cebpf4jnsgd1na2vs0mg"},{"bike_id":"b7c7f930-0b3a-45ca-affb-92f424666226","system_id":"levelo_inurba_marseille","lat":43.30329,"lon":5.40441,"is_reserved":false,"is_disabled":false,"rental_uris":{"android":"levelo://app?vid=b7c7f930-0b3a-45ca-affb-92f424666226","ios":"levelo://app?vid=b7c7f930-0b3a-45ca-affb-92f424666226"},"vehicle_type_id":"4","last_reported":1731117945,"current_range_meters":36400,"station_id":"ce4bh012rcd13ifvqd10","pricing_plan_id":"cebpf4jnsgd1na2vs0mg"},{"bike_id":"0b74ce83-e6b1-4485-8ca6-3897f29a426e","system_id":"levelo_inurba_marseille","lat":43.23958,"lon":5.36627,"is_reserved":false,"is_disabled":false,"rental_uris":{"android":"levelo://app?vid=0b74ce83-e6b1-4485-8ca6-3897f29a426e","ios":"levelo://app?vid=0b74ce83-e6b1-4485-8ca6-3897f29a426e"},"vehicle_type_id":"4","last_reported":1731117945,"current_range_meters":18800,"station_id":"ce4bhi12rcd13ifvqfp0","pricing_plan_id":"cebpf4jnsgd1na2vs0mg"},{"bike_id":"a2a9a46e-b652-452f-95c5-2d0638f3da28","system_id":"levelo_inurba_marseille","lat":43.31328,"lon":5.39706,"is_reserved":false,"is_disabled":false,"rental_uris":{"android":"levelo://app?vid=a2a9a46e-b652-452f-95c5-2d0638f3da28","ios":"levelo://app?vid=a2a9a46e-b652-452f-95c5-2d0638f3da28"},"vehicle_type_id":"4","last_reported":1731117945,"current_range_meters":39200,"station_id":"ce4bgvp2rcd13ifvqcu0","pricing_plan_id":"cebpf4jnsgd1na2vs0mg"},{"bike_id":"d099d761-42d5-4a0a-9ac3-8d15d51838b3","system_id":"levelo_inurba_marseille","lat":43.30936,"lon":5.40146,"is_reserved":false,"is_disabled":false,"rental_uris":{"android":"levelo://app?vid=d099d761-42d5-4a0a-9ac3-8d15d51838b3","ios":"levelo://app?vid=d099d761-42d5-4a0a-9ac3-8d15d51838b3"},"vehicle_type_id":"4","last_reported":1731117945,"current_range_meters":27600,"station_id":"ce4bgvp2rcd13ifvqct0","pricing_plan_id":"cebpf4jnsgd1na2vs0mg"},{"bike_id":"772a512b-73a9-423b-afed-b467380e7300","system_id":"levelo_inurba_marseille","lat":43.28254,"lon":5.35062,"is_reserved":false,"is_disabled":false,"rental_uris":{"android":"levelo://app?vid=772a512b-73a9-423b-afed-b467380e7300","ios":"levelo://app?vid=772a512b-73a9-423b-afed-b467380e7300"},"vehicle_type_id":"4","last_reported":1731117945,"current_range_meters":39200,"station_id":"ce4bhbp2rcd13ifvqerg","pricing_plan_id":"cebpf4jnsgd1na2vs0mg"},{"bike_id":"f94bdcbe-9a46-4c5f-879c-d5fc8c43084c","system_id":"levelo_inurba_marseille","lat":43.3303,"lon":5.39038,"is_reserved":false,"is_disabled":false,"rental_uris":{"android":"levelo://app?vid=f94bdcbe-9a46-4c5f-879c-d5fc8c43084c","ios":"levelo://app?vid=f94bdcbe-9a46-4c5f-879c-d5fc8c43084c"},"vehicle_type_id":"4","last_reported":1731117945,"current_range_meters":38000,"station_id":"ce4bhr92rcd13ifvqhrg","pricing_plan_id":"cebpf4jnsgd1na2vs0mg"},{"bike_id":"61a5848e-8f88-40fa-9847-787c5c2c0b1c","system_id":"levelo_inurba_marseille","lat":43.30145,"lon":5.39868,"is_reserved":false,"is_disabled":false,"rental_uris":{"android":"levelo://app?vid=61a5848e-8f88-40fa-9847-787c5c2c0b1c","ios":"levelo://app?vid=61a5848e-8f88-40fa-9847-787c5c2c0b1c"},"vehicle_type_id":"4","last_reported":1731117945,"current_range_meters":38800,"station_id":"ce4bh0h2rcd13ifvqd40","pricing_plan_id":"cebpf4jnsgd1na2vs0mg"},{"bike_id":"ae0c29bf-c7f0-480e-9829-9eff05ac2f9b","system_id":"levelo_inurba_marseille","lat":43.2511,"lon":5.4033,"is_reserved":false,"is_disabled":false,"rental_uris":{"android":"levelo://app?vid=ae0c29bf-c7f0-480e-9829-9eff05ac2f9b","ios":"levelo://app?vid=ae0c29bf-c7f0-480e-9829-9eff05ac2f9b"},"vehicle_type_id":"4","last_reported":1731117945,"current_range_meters":31200,"station_id":"ce4bhlh2rcd13ifvqgig","pricing_plan_id":"cebpf4jnsgd1na2vs0mg"},{"bike_id":"d25711f1-63b8-44c2-b28d-f6b1fc0e37f5","system_id":"levelo_inurba_marseille","lat":43.28607,"lon":5.37065,"is_reserved":false,"is_disabled":false,"rental_uris":{"android":"levelo://app?vid=d25711f1-63b8-44c2-b28d-f6b1fc0e37f5","ios":"levelo://app?vid=d25711f1-63b8-44c2-b28d-f6b1fc0e37f5"},"vehicle_type_id":"4","last_reported":1731117945,"current_range_meters":38800,"station_id":"ce4bht12rcd13ifvqi60","pricing_plan_id":"cebpf4jnsgd1na2vs0mg"},{"bike_id":"340ae725-6f84-48a7-ab25-ad128cac57c2","system_id":"levelo_inurba_marseille","lat":43.31499,"lon":5.37297,"is_reserved":false,"is_disabled":false,"rental_uris":{"android":"levelo://app?vid=340ae725-6f84-48a7-ab25-ad128cac57c2","ios":"levelo://app?vid=340ae725-6f84-48a7-ab25-ad128cac57c2"},"vehicle_type_id":"4","last_reported":1731117945,"current_range_meters":39200,"station_id":"ce4bgt12rcd13ifvqcd0","pricing_plan_id":"cebpf4jnsgd1na2vs0mg"},{"bike_id":"a5281f76-05ba-4514-a0b1-45f67845510f","system_id":"levelo_inurba_marseille","lat":43.31319,"lon":5.39708,"is_reserved":false,"is_disabled":false,"rental_uris":{"android":"levelo://app?vid=a5281f76-05ba-4514-a0b1-45f67845510f","ios":"levelo://app?vid=a5281f76-05ba-4514-a0b1-45f67845510f"},"vehicle_type_id":"4","last_reported":1731117945,"current_range_meters":34800,"station_id":"ce4bgvp2rcd13ifvqcu0","pricing_plan_id":"cebpf4jnsgd1na2vs0mg"},{"bike_id":"71684031-bf95-4fd4-bc38-0f4a696a2564","system_id":"levelo_inurba_marseille","lat":43.28456,"lon":5.35881,"is_reserved":false,"is_disabled":false,"rental_uris":{"android":"levelo://app?vid=71684031-bf95-4fd4-bc38-0f4a696a2564","ios":"levelo://app?vid=71684031-bf95-4fd4-bc38-0f4a696a2564"},"vehicle_type_id":"4","last_reported":1731117945,"current_range_meters":38000,"station_id":"ce4bhah2rcd13ifvqei0","pricing_plan_id":"cebpf4jnsgd1na2vs0mg"},{"bike_id":"2a6caaf6-34f1-4e12-8c9d-153fd774cf91","system_id":"levelo_inurba_marseille","lat":43.24802,"lon":5.37461,"is_reserved":false,"is_disabled":false,"rental_uris":{"android":"levelo://app?vid=2a6caaf6-34f1-4e12-8c9d-153fd774cf91","ios":"levelo://app?vid=2a6caaf6-34f1-4e12-8c9d-153fd774cf91"},"vehicle_type_id":"4","last_reported":1731117945,"current_range_meters":28000,"station_id":"ce4bhgh2rcd13ifvqfb0","pricing_plan_id":"cebpf4jnsgd1na2vs0mg"},{"bike_id":"3275280f-1547-4f01-8f57-070777919301","system_id":"levelo_inurba_marseille","lat":43.2987,"lon":5.3976,"is_reserved":false,"is_disabled":false,"rental_uris":{"android":"levelo://app?vid=3275280f-1547-4f01-8f57-070777919301","ios":"levelo://app?vid=3275280f-1547-4f01-8f57-070777919301"},"vehicle_type_id":"4","last_reported":1731117945,"current_range_meters":32800,"station_id":"ce4bh0h2rcd13ifvqd50","pricing_plan_id":"cebpf4jnsgd1na2vs0mg"},{"bike_id":"ba7b1b74-58fc-4a34-b006-140ab320be7e","system_id":"levelo_inurba_marseille","lat":43.28109,"lon":5.37843,"is_reserved":false,"is_disabled":false,"rental_uris":{"android":"levelo://app?vid=ba7b1b74-58fc-4a34-b006-140ab320be7e","ios":"levelo://app?vid=ba7b1b74-58fc-4a34-b006-140ab320be7e"},"vehicle_type_id":"4","last_reported":1731117945,"current_range_meters":38800,"station_id":"ce4bha12rcd13ifvqee0","pricing_plan_id":"cebpf4jnsgd1na2vs0mg"},{"bike_id":"32ef2c30-65d9-4f77-b4e2-158ddb858ce7","system_id":"levelo_inurba_marseille","lat":43.31341,"lon":5.36708,"is_reserved":false,"is_disabled":false,"rental_uris":{"android":"levelo://app?vid=32ef2c30-65d9-4f77-b4e2-158ddb858ce7","ios":"levelo://app?vid=32ef2c30-65d9-4f77-b4e2-158ddb858ce7"},"vehicle_type_id":"4","last_reported":1731117945,"current_range_meters":33200,"station_id":"ce4bgr92rcd13ifvqc6g","pricing_plan_id":"cebpf4jnsgd1na2vs0mg"},{"bike_id":"81d1e180-d523-4ef7-ae98-f9077f858825","system_id":"levelo_inurba_marseille","lat":43.24673,"lon":5.38147,"is_reserved":false,"is_disabled":false,"rental_uris":{"android":"levelo://app?vid=81d1e180-d523-4ef7-ae98-f9077f858825","ios":"levelo://app?vid=81d1e180-d523-4ef7-ae98-f9077f858825"},"vehicle_type_id":"4","last_reported":1731117945,"current_range_meters":8400,"station_id":"ce4bhih2rcd13ifvqfr0","pricing_plan_id":"cebpf4jnsgd1na2vs0mg"},{"bike_id":"69031755-3dc6-4e5b-815f-bde22843852a","system_id":"levelo_inurba_marseille","lat":43.30793,"lon":5.37649,"is_reserved":false,"is_disabled":false,"rental_uris":{"android":"levelo://app?vid=69031755-3dc6-4e5b-815f-bde22843852a","ios":"levelo://app?vid=69031755-3dc6-4e5b-815f-bde22843852a"},"vehicle_type_id":"4","last_reported":1731117945,"current_range_meters":39200,"station_id":"ce4bgv92rcd13ifvqcq0","pricing_plan_id":"cebpf4jnsgd1na2vs0mg"},{"bike_id":"35dde5e6-86e4-4508-8edb-ab7330bb801c","system_id":"levelo_inurba_marseille","lat":43.25083,"lon":5.39506,"is_reserved":false,"is_disabled":false,"rental_uris":{"android":"levelo://app?vid=35dde5e6-86e4-4508-8edb-ab7330bb801c","ios":"levelo://app?vid=35dde5e6-86e4-4508-8edb-ab7330bb801c"},"vehicle_type_id":"4","last_reported":1731117945,"current_range_meters":38800,"station_id":"ce4bhm12rcd13ifvqgkg","pricing_plan_id":"cebpf4jnsgd1na2vs0mg"},{"bike_id":"ff989801-f59b-46d1-867b-7c2b6eab1cca","system_id":"levelo_inurba_marseille","lat":43.337444,"lon":5.374475,"is_reserved":false,"is_disabled":false,"rental_uris":{"android":"levelo://app?vid=ff989801-f59b-46d1-867b-7c2b6eab1cca","ios":"levelo://app?vid=ff989801-f59b-46d1-867b-7c2b6eab1cca"},"vehicle_type_id":"4","last_reported":1731117945,"current_range_meters":35600,"station_id":"","pricing_plan_id":"cebpf4jnsgd1na2vs0mg"},{"bike_id":"09744509-3cc6-40b0-ae0d-dfe064ebadda","system_id":"levelo_inurba_marseille","lat":43.24682,"lon":5.38153,"is_reserved":false,"is_disabled":false,"rental_uris":{"android":"levelo://app?vid=09744509-3cc6-40b0-ae0d-dfe064ebadda","ios":"levelo://app?vid=09744509-3cc6-40b0-ae0d-dfe064ebadda"},"vehicle_type_id":"4","last_reported":1731117945,"current_range_meters":24800,"station_id":"ce4bhih2rcd13ifvqfr0","pricing_plan_id":"cebpf4jnsgd1na2vs0mg"},{"bike_id":"5c19d456-298c-4a20-9f50-0620b9fcbeb9","system_id":"levelo_inurba_marseille","lat":43.31363,"lon":5.38489,"is_reserved":false,"is_disabled":false,"rental_uris":{"android":"levelo://app?vid=5c19d456-298c-4a20-9f50-0620b9fcbeb9","ios":"levelo://app?vid=5c19d456-298c-4a20-9f50-0620b9fcbeb9"},"vehicle_type_id":"4","last_reported":1731117945,"current_range_meters":9200,"station_id":"ce4bgt92rcd13ifvqcf0","pricing_plan_id":"cebpf4jnsgd1na2vs0mg"},{"bike_id":"7a028137-2c10-4b28-a4b7-39b6416508f0","system_id":"levelo_inurba_marseille","lat":43.23141,"lon":5.43699,"is_reserved":false,"is_disabled":false,"rental_uris":{"android":"levelo://app?vid=7a028137-2c10-4b28-a4b7-39b6416508f0","ios":"levelo://app?vid=7a028137-2c10-4b28-a4b7-39b6416508f0"},"vehicle_type_id":"4","last_reported":1731117945,"current_range_meters":39200,"station_id":"ce4bhmp2rcd13ifvqgog","pricing_plan_id":"cebpf4jnsgd1na2vs0mg"},