{"last_updated":1727392167,"ttl":60,"version":"2.2","data":{"bikes":[{"bike_id":"16e9955f-f777-4290-b31c-761b801f08e2","system_id":"levelo_inurba_marseille","lat":43.28079,"lon":5.39651,"is_reserved":false,"is_disabled":false,"rental_uris":{"android":"levelo://app?vid=16e9955f-f777-4290-b31c-761b801f08e2","ios":"levelo://app?vid=16e9955f-f777-4290-b31c-761b801f08e2"},"vehicle_type_id":"4","last_reported":1727392167,"current_range_meters":40000,"station_id":"ce4bho12rcd13ifvqh2g","pricing_plan_id":"cebpf4jnsgd1na2vs0mg"},{"bike_id":"1949bde6-d10c-40a9-8005-655941700167","system_id":"levelo_inurba_marseille","lat":43.30797,"lon":5.43513,"is_reserved":false,"is_disabled":false,"rental_uris":{"android":"levelo://app?vid=1949bde6-d10c-40a9-8005-655941700167","ios":"levelo://app?vid=1949bde6-d10c-40a9-8005-655941700167"},"vehicle_type_id":"4","last_reported":1727392167,"current_range_meters":7200,"station_id":"ce4bhph2rcd13ifvqheg","pricing_plan_id":"cebpf4jnsgd1na2vs0mg"},{"bike_id":"93c10044-bcdf-4266-89ba-84eadf39418b","system_id":"levelo_inurba_marseille","lat":43.28153,"lon":5.42645,"is_reserved":false,"is_disabled":false,"rental_uris":{"android":"levelo://app?vid=93c10044-bcdf-4266-89ba-84eadf39418b","ios":"levelo://app?vid=93c10044-bcdf-4266-89ba-84eadf39418b"},"vehicle_type_id":"4","last_reported":1727392167,"current_range_meters":39200,"station_id":"ce4bhnh2rcd13ifvqgug","pricing_plan_id":"cebpf4jnsgd1na2vs0mg"},{"bike_id":"81dbb0ed-79b3-41ef-9e55-2856c58c2866","system_id":"levelo_inurba_marseille","lat":43.30892,"lon":5.3964,"is_reserved":false,"is_disabled":false,"rental_uris":{"android":"levelo://app?vid=81dbb0ed-79b3-41ef-9e55-2856c58c2866","ios":"levelo://app?vid=81dbb0ed-79b3-41ef-9e55-2856c58c2866"},"vehicle_type_id":"4","last_reported":1727392167,"current_range_meters":30400,"station_id":"ce4bh012rcd13ifvqcv0","pricing_plan_id":"cebpf4jnsgd1na2vs0mg"},{"bike_id":"277315c8-09c7-4a88-b11e-3e6fd7509a8c","system_id":"levelo_inurba_marseille","lat":43.31334,"lon":5.39703,"is_reserved":false,"is_disabled":false,"rental_uris":{"android":"levelo://app?vid=277315c8-09c7-4a88-b11e-3e6fd7509a8c","ios":"levelo://app?vid=277315c8-09c7-4a88-b11e-3e6fd7509a8c"},"vehicle_type_id":"4","last_reported":1727392167,"current_range_meters":38400,"station_id":"ce4bgvp2rcd13ifvqcu0","pricing_plan_id":"cebpf4jnsgd1na2vs0mg"},{"bike_id":"b69c96a1-387a-4925-871d-30ba44f2d3ea","system_id":"levelo_inurba_marseille","lat":43.29941,"lon":5.36547,"is_reserved":false,"is_disabled":false,"rental_uris":{"android":"levelo://app?vid=b69c96a1-387a-4925-871d-30ba44f2d3ea","ios":"levelo://app?vid=b69c96a1-387a-4925-871d-30ba44f2d3ea"},"vehicle_type_id":"4","last_reported":1727392167,"current_range_meters":16400,"station_id":"ce4bgm92rcd13ifvqbr0","pricing_plan_id":"cebpf4jnsgd1na2vs0mg"},{"bike_id":"319a95fd-4cb6-4140-b1df-59a1aab23798","system_id":"levelo_inurba_marseille","lat":43.23151,"lon":5.4369,"is_reserved":false,"is_disabled":false,"rental_uris":{"android":"levelo://app?vid=319a95fd-4cb6-4140-b1df-59a1aab23798","ios":"levelo://app?vid=319a95fd-4cb6-4140-b1df-59a1aab23798"},"vehicle_type_id":"4","last_reported":1727392167,"current_range_meters":16800,"station_id":"ce4bhmp2rcd13ifvqgog","pricing_plan_id":"cebpf4jnsgd1na2vs0mg"},{"bike_id":"40ca6141-dc8d-4f7a-93c1-9a56b6952c59","system_id":"levelo_inurba_marseille","lat":43.27373,"lon":5.36263,"is_reserved":false,"is_disabled":false,"rental_uris":{"android":"levelo://app?vid=40ca6141-dc8d-4f7a-93c1-9a56b6952c59","ios":"levelo://app?vid=40ca6141-dc8d-4f7a-93c1-9a56b6952c59"},"vehicle_type_id":"4","last_reported":1727392167,"current_range_meters":27600,"station_id":"ce4bhbh2rcd13ifvqeo0","pricing_plan_id":"cebpf4jnsgd1na2vs0mg"},{"bike_id":"9e51a86b-724f-44c9-abf7-9261d4a2b22f","system_id":"levelo_inurba_marseille","lat":43.30579,"lon":5.37185,"is_reserved":false,"is_disabled":false,"rental_uris":{"android":"levelo://app?vid=9e51a86b-724f-44c9-abf7-9261d4a2b22f","ios":"levelo://app?vid=9e51a86b-724f-44c9-abf7-9261d4a2b22f"},"vehicle_type_id":"4","last_reported":1727392167,"current_range_meters":38800,"station_id":"ce4bgqh2rcd13ifvqc4g","pricing_plan_id":"cebpf4jnsgd1na2vs0mg"},{"bike_id":"9a593db0-19bc-4883-bc8e-f35d82d51490","system_id":"levelo_inurba_marseille","lat":43.31083,"lon":5.42431,"is_reserved":false,"is_disabled":false,"rental_uris":{"android":"levelo://app?vid=9a593db0-19bc-4883-bc8e-f35d82d51490","ios":"levelo://app?vid=9a593db0-19bc-4883-bc8e-f35d82d51490"},"vehicle_type_id":"4","last_reported":1727392167,"current_range_meters":10000,"station_id":"ce4bhp92rcd13ifvqhag","pricing_plan_id":"cebpf4jnsgd1na2vs0mg"},{"bike_id":"80beb2a2-9023-4056-91ac-c1c09428b0e7","system_id":"levelo_inurba_marseille","lat":43.27559,"lon":5.38419,"is_reserved":false,"is_disabled":false,"rental_uris":{"android":"levelo://app?vid=80beb2a2-9023-4056-91ac-c1c09428b0e7","ios":"levelo://app?vid=80beb2a2-9023-4056-91ac-c1c09428b0e7"},"vehicle_type_id":"4","last_reported":1727392167,"current_range_meters":28400,"station_id":"ce4bhh92rcd13ifvqfi0","pricing_plan_id":"cebpf4jnsgd1na2vs0mg"},{"bike_id":"5ba9f6a4-ddc2-4dcb-9c8b-a8b882fc82ec","system_id":"levelo_inurba_marseille","lat":43.31712,"lon":5.37727,"is_reserved":false,"is_disabled":false,"rental_uris":{"android":"levelo://app?vid=5ba9f6a4-ddc2-4dcb-9c8b-a8b882fc82ec","ios":"levelo://app?vid=5ba9f6a4-ddc2-4dcb-9c8b-a8b882fc82ec"},"vehicle_type_id":"4","last_reported":1727392167,"current_range_meters":40000,"station_id":"ce4bgth2rcd13ifvqch0","pricing_plan_id":"cebpf4jnsgd1na2vs0mg"},{"bike_id":"a9669d3a-c989-4bbf-988b-b787f6909497","system_id":"levelo_inurba_marseille","lat":43.32663,"lon":5.40987,"is_reserved":false,"is_disabled":false,"rental_uris":{"android":"levelo://app?vid=a9669d3a-c989-4bbf-988b-b787f6909497","ios":"levelo://app?vid=a9669d3a-c989-4bbf-988b-b787f6909497"},"vehicle_type_id":"4","last_reported":1727392167,"current_range_meters":38000,"station_id":"ce4bhpp2rcd13ifvqhgg","pricing_plan_id":"cebpf4jnsgd1na2vs0mg"},{"bike_id":"e2f592b0-6f4b-4172-9f9a-9f3769951069","system_id":"levelo_inurba_marseille","lat":43.28153,"lon":5.42644,"is_reserved":false,"is_disabled":false,"rental_uris":{"android":"levelo://app?vid=e2f592b0-6f4b-4172-9f9a-9f3769951069","ios":"levelo://app?vid=e2f592b0-6f4b-4172-9f9a-9f3769951069"},"vehicle_type_id":"4","last_reported":1727392167,"current_range_meters":6000,"station_id":"ce4bhnh2rcd13ifvqgug","pricing_plan_id":"cebpf4jnsgd1na2vs0mg"},{"bike_id":"9d22a46c-7421-45b7-a510-326a2aa08b40","system_id":"levelo_inurba_marseille","lat":43.288526,"lon":5.393026,"is_reserved":false,"is_disabled":false,"rental_uris":{"android":"levelo://app?vid=9d22a46c-7421-45b7-a510-326a2aa08b40","ios":"levelo://app?vid=9d22a46c-7421-45b7-a510-326a2aa08b40"},"vehicle_type_id":"4","last_reported":1727392167,"current_range_meters":19200,"station_id":"ce4bh2p2rcd13ifvqdi0","pricing_plan_id":"cebpf4jnsgd1na2vs0mg"},{"bike_id":"4580dcc6-10a0-4217-9574-66a5120cc51b","system_id":"levelo_inurba_marseille","lat":43.25121,"lon":5.40314,"is_reserved":false,"is_disabled":false,"rental_uris":{"android":"levelo://app?vid=4580dcc6-10a0-4217-9574-66a5120cc51b","ios":"levelo://app?vid=4580dcc6-10a0-4217-9574-66a5120cc51b"},"vehicle_type_id":"4","last_reported":1727392167,"current_range_meters":32800,"station_id":"ce4bhlh2rcd13ifvqgig","pricing_plan_id":"cebpf4jnsgd1na2vs0mg"},{"bike_id":"9075d410-e9f9-47e1-bd3d-b2c4f81dae8e","system_id":"levelo_inurba_marseille","lat":43.29248,"lon":5.40908,"is_reserved":false,"is_disabled":false,"rental_uris":{"android":"levelo://app?vid=9075d410-e9f9-47e1-bd3d-b2c4f81dae8e","ios":"levelo://app?vid=9075d410-e9f9-47e1-bd3d-b2c4f81dae8e"},"vehicle_type_id":"4","last_reported":1727392167,"current_range_meters":20400,"station_id":"ce4bh192rcd13ifvqdc0","pricing_plan_id":"cebpf4jnsgd1na2vs0mg"},{"bike_id":"a17cc833-34e0-49cd-aed6-aafc54d2e30a","system_id":"levelo_inurba_marseille","lat":43.28936,"lon":5.36403,"is_reserved":false,"is_disabled":false,"rental_uris":{"android":"levelo://app?vid=a17cc833-34e0-49cd-aed6-aafc54d2e30a","ios":"levelo://app?vid=a17cc833-34e0-49cd-aed6-aafc54d2e30a"},"vehicle_type_id":"4","last_reported":1727392167,"current_range_meters":39200,"station_id":"ce4bhc92rcd13ifvqetg","pricing_plan_id":"cebpf4jnsgd1na2vs0mg"},{"bike_id":"55f4f50b-d6dd-4e12-86b3-1486da4af7d9","system_id":"levelo_inurba_marseille","lat":43.22933,"lon":5.35372,"is_reserved":false,"is_disabled":false,"rental_uris":{"android":"levelo://app?vid=55f4f50b-d6dd-4e12-86b3-1486da4af7d9","ios":"levelo://app?vid=55f4f50b-d6dd-4e12-86b3-1486da4af7d9"},"vehicle_type_id":"4","last_reported":1727392167,"current_range_meters":38000,"station_id":"cpo3532slgdg3j2ikp40","pricing_plan_id":"cebpf4jnsgd1na2vs0mg"},{"bike_id":"9543f299-8819-449a-8b9a-ba8ef7ad8034","system_id":"levelo_inurba_marseille","lat":43.29528,"lon":5.39402,"is_reserved":false,"is_disabled":false,"rental_uris":{"android":"levelo://app?vid=9543f299-8819-449a-8b9a-ba8ef7ad8034","ios":"levelo://app?vid=9543f299-8819-449a-8b9a-ba8ef7ad8034"},"vehicle_type_id":"4","last_reported":1727392167,"current_range_meters":38000,"station_id":"ce4bh292rcd13ifvqdf0","pricing_plan_id":"cebpf4jnsgd1na2vs0mg"},{"bike_id":"05d742b4-d6be-44a9-beca-ea36008943f7","system_id":"levelo_inurba_marseille","lat":43.24667,"lon":5.38165,"is_reserved":false,"is_disabled":false,"rental_uris":{"android":"levelo://app?vid=05d742b4-d6be-44a9-beca-ea36008943f7","ios":"levelo://app?vid=05d742b4-d6be-44a9-beca-ea36008943f7"},"vehicle_type_id":"4","last_reported":1727392167,"current_range_meters":37600,"station_id":"ce4bhih2rcd13ifvqfr0","pricing_plan_id":"cebpf4jnsgd1na2vs0mg"},{"bike_id":"46518533-a3f0-468c-a3d9-f7b8392f6bb8","system_id":"levelo_inurba_marseille","lat":43.28667,"lon":5.36356,"is_reserved":false,"is_disabled":false,"rental_uris":{"android":"levelo://app?vid=46518533-a3f0-468c-a3d9-f7b8392f6bb8","ios":"levelo://app?vid=46518533-a3f0-468c-a3d9-f7b8392f6bb8"},"vehicle_type_id":"4","last_reported":1727392167,"current_range_meters":39200,"station_id":"ce4bhah2rcd13ifvqej0","pricing_plan_id":"cebpf4jnsgd1na2vs0mg"},{"bike_id":"fb03f466-f4f6-4c35-aae7-01f35455322d","system_id":"levelo_inurba_marseille","lat":43.24391,"lon":5.37055,"is_reserved":false,"is_disabled":false,"rental_uris":{"android":"levelo://app?vid=fb03f466-f4f6-4c35-aae7-01f35455322d","ios":"levelo://app?vid=fb03f466-f4f6-4c35-aae7-01f35455322d"},"vehicle_type_id":"4","last_reported":1727392167,"current_range_meters":39200,"station_id":"ce4bhhh2rcd13ifvqfk0","pricing_plan_id":"cebpf4jnsgd1na2vs0mg"},{"bike_id":"5bbc05df-e752-4adb-ab91-31c5181b953a","system_id":"levelo_inurba_marseille","lat":43.306427,"lon":5.400799,"is_reserved":false,"is_disabled":false,"rental_uris":{"android":"levelo://app?vid=5bbc05df-e752-4adb-ab91-31c5181b953a","ios":"levelo://app?vid=5bbc05df-e752-4adb-ab91-31c5181b953a"},"vehicle_type_id":"4","last_reported":1727392167,"current_range_meters":30000,"station_id":"ce4bh112rcd13ifvqda0","pricing_plan_id":"cebpf4jnsgd1na2vs0mg"},{"bike_id":"3150806f-1e87-436f-8d31-00d2d9bd9596","system_id":"levelo_inurba_marseille","lat":43.27816,"lon":5.40704,"is_reserved":false,"is_disabled":false,"rental_uris":{"android":"levelo://app?vid=3150806f-1e87-436f-8d31-00d2d9bd9596","ios":"levelo://app?vid=3150806f-1e87-436f-8d31-00d2d9bd9596"},"vehicle_type_id":"4","last_reported":1727392167,"current_range_meters":40000,"station_id":"ce4bhnh2rcd13ifvqgtg","pricing_plan_id":"cebpf4jnsgd1na2vs0mg"},{"bike_id":"f77a12cf-d6d0-4e7f-b91f-61f27993928c","system_id":"levelo_inurba_marseille","lat":43.23154,"lon":5.43703,"is_reserved":false,"is_disabled":false,"rental_uris":{"android":"levelo://app?vid=f77a12cf-d6d0-4e7f-b91f-61f27993928c","ios":"levelo://app?vid=f77a12cf-d6d0-4e7f-b91f-61f27993928c"},"vehicle_type_id":"4","last_reported":1727392167,"current_range_meters":4400,"station_id":"ce4bhmp2rcd13ifvqgog","pricing_plan_id":"cebpf4jnsgd1na2vs0mg"},{"bike_id":"475c416e-e3c5-4768-8966-95e64202a3d2","system_id":"levelo_inurba_marseille","lat":43.25498,"lon":5.37651,"is_reserved":false,"is_disabled":false,"rental_uris":{"android":"levelo://app?vid=475c416e-e3c5-4768-8966-95e64202a3d2","ios":"levelo://app?vid=475c416e-e3c5-4768-8966-95e64202a3d2"},"vehicle_type_id":"4","last_reported":1727392167,"current_range_meters":18800,"station_id":"ce4bhh12rcd13ifvqff0","pricing_plan_id":"cebpf4jnsgd1na2vs0mg"},{"bike_id":"161f50c7-3de2-4116-a91e-3d856209631f","system_id":"levelo_inurba_marseille","lat":43.2846,"lon":5.35888,"is_reserved":false,"is_disabled":false,"rental_uris":{"android":"levelo://app?vid=161f50c7-3de2-4116-a91e-3d856209631f","ios":"levelo://app?vid=161f50c7-3de2-4116-a91e-3d856209631f"},"vehicle_type_id":"4","last_reported":1727392167,"current_range_meters":40000,"station_id":"ce4bhah2rcd13ifvqei0","pricing_plan_id":"cebpf4jnsgd1na2vs0mg"},{"bike_id":"e7ea6f9c-f063-4e14-8091-5448034bffac","system_id":"levelo_inurba_marseille","lat":43.27841,"lon":5.39208,"is_reserved":false,"is_disabled":false,"rental_uris":{"android":"levelo://app?vid=e7ea6f9c-f063-4e14-8091-5448034bffac","ios":"levelo://app?vid=e7ea6f9c-f063-4e14-8091-5448034bffac"},"vehicle_type_id":"4","last_reported":1727392167,"current_range_meters":36400,"station_id":"ce4bhjp2rcd13ifvqga0","pricing_plan_id":"cebpf4jnsgd1na2vs0mg"},{"bike_id":"b335ca42-7350-4c4c-856e-f46e906ad72e","system_id":"levelo_inurba_marseille","lat":43.32288,"lon":5.38277,"is_reserved":false,"is_disabled":false,"rental_uris":{"android":"levelo://app?vid=b335ca42-7350-4c4c-856e-f46e906ad72e","ios":"levelo://app?vid=b335ca42-7350-4c4c-856e-f46e906ad72e"},"vehicle_type_id":"4","last_reported":1727392167,"current_range_meters":12800,"station_id":"ce4bhr12rcd13ifvqhqg","pricing_plan_id":"cebpf4jnsgd1na2vs0mg"},{"bike_id":"23d16986-3e98-4f85-aa5e-c3a3b39f0859","system_id":"levelo_inurba_marseille","lat":43.30651,"lon":5.40083,"is_reserved":false,"is_disabled":false,"rental_uris":{"android":"levelo://app?vid=23d16986-3e98-4f85-aa5e-c3a3b39f0859","ios":"levelo://app?vid=23d16986-3e98-4f85-aa5e-c3a3b39f0859"},"vehicle_type_id":"4","last_reported":1727392167,"current_range_meters":39200,"station_id":"ce4bh112rcd13ifvqda0","pricing_plan_id":"cebpf4jnsgd1na2vs0mg"},{"bike_id":"a62cd0a2-8122-4a2d-b667-7ce490f68216","system_id":"levelo_inurba_marseille","lat":43.30933,"lon":5.40137,"is_reserved":false,"is_disabled":false,"rental_uris":{"android":"levelo://app?vid=a62cd0a2-8122-4a2d-b667-7ce490f68216","ios":"levelo://app?vid=a62cd0a2-8122-4a2d-b667-7ce490f68216"},"vehicle_type_id":"4","last_reported":1727392167,"current_range_meters":38800,"station_id":"ce4bgvp2rcd13ifvqct0","pricing_plan_id":"cebpf4jnsgd1na2vs0mg"},{"bike_id":"4a4903c7-ffbe-40b4-8008-c3ffec982396","system_id":"levelo_inurba_marseille","lat":43.31529,"lon":5.38026,"is_reserved":false,"is_disabled":false,"rental_uris":{"android":"levelo://app?vid=4a4903c7-ffbe-40b4-8008-c3ffec982396","ios":"levelo://app?vid=4a4903c7-ffbe-40b4-8008-c3ffec982396"},"vehicle_type_id":"4","last_reported":1727392167,"current_range_meters":22000,"station_id":"ce4bhsp2rcd13ifvqi50","pricing_plan_id":"cebpf4jnsgd1na2vs0mg"},{"bike_id":"bea6db5e-059c-49ef-9ccc-86c0e3423fd7","system_id":"levelo_inurba_marseille","lat":43.28101,"lon":5.3784,"is_reserved":false,"is_disabled":false,"rental_uris":{"android":"levelo://app?vid=bea6db5e-059c-49ef-9ccc-86c0e3423fd7","ios":"levelo://app?vid=bea6db5e-059c-49ef-9ccc-86c0e3423fd7"},"vehicle_type_id":"4","last_reported":1727392167,"current_range_meters":37600,"station_id":"ce4bha12rcd13ifvqee0","pricing_plan_id":"cebpf4jnsgd1na2vs0mg"},{"bike_id":"6b18d179-f0b4-41fe-ac47-f38619f1fe44","system_id":"levelo_inurba_marseille","lat":43.27953,"lon":5.41046,"is_reserved":false,"is_disabled":false,"rental_uris":{"android":"levelo://app?vid=6b18d179-f0b4-41fe-ac47-f38619f1fe44","ios":"levelo://app?vid=6b18d179-f0b4-41fe-ac47-f38619f1fe44"},"vehicle_type_id":"4","last_reported":1727392167,"current_range_meters":35600,"station_id":"ce4bhnp2rcd13ifvqh0g","pricing_plan_id":"cebpf4jnsgd1na2vs0mg"},{"bike_id":"9145a769-947f-4ef7-b971-08c191f83f09","system_id":"levelo_inurba_marseille","lat":43.32534,"lon":5.41444,"is_reserved":false,"is_disabled":false,"rental_uris":{"android":"levelo://app?vid=9145a769-947f-4ef7-b971-08c191f83f09","ios":"levelo://app?vid=9145a769-947f-4ef7-b971-08c191f83f09"},"vehicle_type_id":"4","last_reported":1727392167,"current_range_meters":38800,"station_id":"ce4bhq12rcd13ifvqhhg","pricing_plan_id":"cebpf4jnsgd1na2vs0mg"},{"bike_id":"b6daf4df-7c90-4c5e-b397-06a87d15013f","system_id":"levelo_inurba_marseille","lat":43.33752,"lon":5.37361,"is_reserved":false,"is_disabled":false,"rental_uris":{"android":"levelo://app?vid=b6daf4df-7c90-4c5e-b397-06a87d15013f","ios":"levelo://app?vid=b6daf4df-7c90-4c5e-b397-06a87d15013f"},"vehicle_type_id":"4","last_reported":1727392167,"current_range_meters":29600,"station_id":"","pricing_plan_id":"cebpf4jnsgd1na2vs0mg"},{"bike_id":"dfcb01f2-8bcd-4a11-a117-8e37aacbfac4","system_id":"levelo_inurba_marseille","lat":43.28111,"lon":5.37841,"is_reserved":false,"is_disabled":false,"rental_uris":{"android":"levelo://app?vid=dfcb01f2-8bcd-4a11-a117-8e37aacbfac4","ios":"levelo://app?vid=dfcb01f2-8bcd-4a11-a117-8e37aacbfac4"},"vehicle_type_id":"4","last_reported":1727392167,"current_range_meters":40000,"station_id":"ce4bha12rcd13ifvqee0","pricing_plan_id":"cebpf4jnsgd1na2vs0mg"},{"bike_id":"75e060f8-bd0a-4c6b-aa75-706df1e78573","system_id":"levelo_inurba_marseille","lat":43.28111,"lon":5.3785,"is_reserved":false,"is_disabled":false,"rental_uris":{"android":"levelo://app?vid=75e060f8-bd0a-4c6b-aa75-706df1e78573","ios":"levelo://app?vid=75e060f8-bd0a-4c6b-aa75-706df1e78573"},"vehicle_type_id":"4","last_reported":1727392167,"current_range_meters":35600,"station_id":"ce4bha12rcd13ifvqee0","pricing_plan_id":"cebpf4jnsgd1na2vs0mg"},{"bike_id":"eab9bd57-4c0c-4a28-9faf-e70e1ddbf8f4","system_id":"levelo_inurba_marseille","lat":43.23179,"lon":5.39986,"is_reserved":false,"is_disabled":false,"rental_uris":{"android":"levelo://app?vid=eab9bd57-4c0c-4a28-9faf-e70e1ddbf8f4","ios":"levelo://app?vid=eab9bd57-4c0c-4a28-9faf-e70e1ddbf8f4"},"vehicle_type_id":"4","last_reported":1727392167,"current_range_meters":39200,"station_id":"ce4bhn12rcd13ifvqgqg","pricing_plan_id":"cebpf4jnsgd1na2vs0mg"},{"bike_id":"01958bcc-1114-44e7-a1de-ed0825d11990","system_id":"levelo_inurba_marseille","lat":43.33606,"lon":5.41035,"is_reserved":false,"is_disabled":false,"rental_uris":{"android":"levelo://app?vid=01958bcc-1114-44e7-a1de-ed0825d11990","ios":"levelo://app?vid=01958bcc-1114-44e7-a1de-ed0825d11990"},"vehicle_type_id":"4","last_reported":1727392167,"current_range_meters":24000,"station_id":"ce4bhqh2rcd13ifvqhmg","pricing_plan_id":"cebpf4jnsgd1na2vs0mg"},{"bike_id":"c5bf6e12-eb35-43be-8d44-be50f0e6d2df","system_id":"levelo_inurba_marseille","lat":43.25119,"lon":5.40313,"is_reserved":false,"is_disabled":false,"rental_uris":{"android":"levelo://app?vid=c5bf6e12-eb35-43be-8d44-be50f0e6d2df","ios":"levelo://app?vid=c5bf6e12-eb35-43be-8d44-be50f0e6d2df"},"vehicle_type_id":"4","last_reported":1727392167,"current_range_meters":28800,"station_id":"ce4bhlh2rcd13ifvqgig","pricing_plan_id":"cebpf4jnsgd1na2vs0mg"},{"bike_id":"e3c5fbbf-73cf-4f2d-b2d6-f67ffdb80c53","system_id":"levelo_inurba_marseille","lat":43.33023,"lon":5.39039,"is_reserved":false,"is_disabled":false,"rental_uris":{"android":"levelo://app?vid=e3c5fbbf-73cf-4f2d-b2d6-f67ffdb80c53","ios":"levelo://app?vid=e3c5fbbf-73cf-4f2d-b2d6-f67ffdb80c53"},"vehicle_type_id":"4","last_reported":1727392167,"current_range_meters":38400,"station_id":"ce4bhr92rcd13ifvqhrg","pricing_plan_id":"cebpf4jnsgd1na2vs0mg"},{"bike_id":"2311e18a-8887-48c9-9a5b-a1742844af67","system_id":"levelo_inurba_marseille","lat":43.31757,"lon":5.39018,"is_reserved":false,"is_disabled":false,"rental_uris":{"android":"levelo://app?vid=2311e18a-8887-48c9-9a5b-a1742844af67","ios":"levelo://app?vid=2311e18a-8887-48c9-9a5b-a1742844af67"},"vehicle_type_id":"4","last_reported":1727392167,"current_range_meters":38400,"station_id":"ce4bhqp2rcd13ifvqhng","pricing_plan_id":"cebpf4jnsgd1na2vs0mg"},{"bike_id":"57bc1e84-e83e-4198-85b5-3e7f9c3f0b0b","system_id":"levelo_inurba_marseille","lat":43.24167,"lon":5.36392,"is_reserved":false,"is_disabled":false,"rental_uris":{"android":"levelo://app?vid=57bc1e84-e83e-4198-85b5-3e7f9c3f0b0b","ios":"levelo://app?vid=57bc1e84-e83e-4198-85b5-3e7f9c3f0b0b"},"vehicle_type_id":"4","last_reported":1727392167,"current_range_meters":25600,"station_id":"cpo36qri1sfpv3e86is0","pricing_plan_id":"cebpf4jnsgd1na2vs0mg"},{"bike_id":"7a8458d5-44ac-4f2e-abef-3f01eb31f7ca","system_id":"levelo_inurba_marseille","lat":43.337444,"lon":5.374475,"is_reserved":false,"is_disabled":false,"rental_uris":{"android":"levelo://app?vid=7a8458d5-44ac-4f2e-abef-3f01eb31f7ca","ios":"levelo://app?vid=7a8458d5-44ac-4f2e-abef-3f01eb31f7ca"},"vehicle_type_id":"4","last_reported":1727392167,"current_range_meters":19200,"station_id":"","pricing_plan_id":"cebpf4jnsgd1na2vs0mg"},{"bike_id":"19833e16-252f-4f35-9267-dcb2bf9e8d53","system_id":"levelo_inurba_marseille","lat":43.31116,"lon":5.37759,"is_reserved":false,"is_disabled":false,"rental_uris":{"android":"levelo://app?vid=19833e16-252f-4f35-9267-dcb2bf9e8d53","ios":"levelo://app?vid=19833e16-252f-4f35-9267-dcb2bf9e8d53"},"vehicle_type_id":"4","last_reported":1727392167,"current_range_meters":38800,"station_id":"ce4bgt92rcd13ifvqcg0","pricing_plan_id":"cebpf4jnsgd1na2vs0mg"},{"bike_id":"245322ad-98ce-4a03-920e-f8861ea4255a","system_id":"levelo_inurba_marseille","lat":43.2306,"lon":5.35498,"is_reserved":false,"is_disabled":false,"rental_uris":{"android":"levelo://app?vid=245322ad-98ce-4a03-920e-f8861ea4255a","ios":"levelo://app?vid=245322ad-98ce-4a03-920e-f8861ea4255a"},"vehicle_type_id":"4","last_reported":1727392167,"current_range_meters":38800,"station_id":"cpo3342slgdg3j2ifvpg","pricing_plan_id":"cebpf4jnsgd1na2vs0mg"},{"bike_id":"eaf1ea95-d4ff-4f18-916d-35f7b176d41c","system_id":"levelo_inurba_marseille","lat":43.30784,"lon":5.37651,"is_reserved":false,"is_disabled":false,"rental_uris":{"android":"levelo://app?vid=eaf1ea95-d4ff-4f18-916d-35f7b176d41c","ios":"levelo://app?vid=eaf1ea95-d4ff-4f18-916d-35f7b176d41c"},"vehicle_type_id":"4","last_reported":1727392167,"current_range_meters":16400,"station_id":"ce4bgv92rcd13ifvqcq0","pricing_plan_id":"cebpf4jnsgd1na2vs0mg"},{"bike_id":"14753c26-020c-4fdf-a910-6bbc6904ea08","system_id":"levelo_inurba_marseille","lat":43.3089,"lon":5.39639,"is_reserved":false,"is_disabled":false,"rental_uris":{"android":"levelo://app?vid=14753c26-020c-4fdf-a910-6bbc6904ea08","ios":"levelo://app?vid=14753c26-020c-4fdf-a910-6bbc6904ea08"},"vehicle_type_id":"4","last_reported":1727392167,"current_range_meters":38400,"station_id":"ce4bh012rcd13ifvqcv0","pricing_plan_id":"cebpf4jnsgd1na2vs0mg"},{"bike_id":"0a4d8f7d-0721-4d62-8eee-660d53a737ff","system_id":"levelo_inurba_marseille","lat":43.29812,"lon":5.40402,"is_reserved":false,"is_disabled":false,"rental_uris":{"android":"levelo://app?vid=0a4d8f7d-0721-4d62-8eee-660d53a737ff","ios":"levelo://app?vid=0a4d8f7d-0721-4d62-8eee-660d53a737ff"},"vehicle_type_id":"4","last_reported":1727392167,"current_range_meters":35200,"station_id":"ce4bh112rcd13ifvqd90","pricing_plan_id":"cebpf4jnsgd1na2vs0mg"},{"bike_id":"45c5bef9-e0eb-4078-9008-643ccbce3e3d","system_id":"levelo_inurba_marseille","lat":43.23187,"lon":5.4,"is_reserved":false,"is_disabled":false,"rental_uris":{"android":"levelo://app?vid=45c5bef9-e0eb-4078-9008-643ccbce3e3d","ios":"levelo://app?vid=45c5bef9-e0eb-4078-9008-643ccbce3e3d"},"vehicle_type_id":"4","last_reported":1727392167,"current_range_meters":37600,"station_id":"ce4bhn12rcd13ifvqgqg","pricing_plan_id":"cebpf4jnsgd1na2vs0mg"},{"bike_id":"e7dda3a1-01d6-44cd-a598-0858b2812c33","system_id":"levelo_inurba_marseille","lat":43.31881,"lon":5.40737,"is_reserved":false,"is_disabled":false,"rental_uris":{"android":"levelo://app?vid=e7dda3a1-01d6-44cd-a598-0858b2812c33","ios":"levelo://app?vid=e7dda3a1-01d6-44cd-a598-0858b2812c33"},"vehicle_type_id":"4","last_reported":1727392167,"current_range_meters":6400,"station_id":"ce4bhq12rcd13ifvqhig","pricing_plan_id":"cebpf4jnsgd1na2vs0mg"},{"bike_id":"dfcecf59-0ff2-4ae4-a646-4b133ae29c1f","system_id":"levelo_inurba_marseille","lat":43.24546,"lon":5.39523,"is_reserved":false,"is_disabled":false,"rental_uris":{"android":"levelo://app?vid=dfcecf59-0ff2-4ae4-a646-4b133ae29c1f","ios":"levelo://app?vid=dfcecf59-0ff2-4ae4-a646-4b133ae29c1f"},"vehicle_type_id":"4","last_reported":1727392167,"current_range_meters":28000,"station_id":"ce4bhlp2rcd13ifvqgjg","pricing_plan_id":"cebpf4jnsgd1na2vs0mg"},{"bike_id":"50d4ec58-a42a-4450-844b-4e946465e51d","system_id":"levelo_inurba_marseille","lat":43.30794,"lon":5.4352,"is_reserved":false,"is_disabled":false,"rental_uris":{"android":"levelo://app?vid=50d4ec58-a42a-4450-844b-4e946465e51d","ios":"levelo://app?vid=50d4ec58-a42a-4450-844b-4e946465e51d"},"vehicle_type_id":"4","last_reported":1727392167,"current_range_meters":37600,"station_id":"ce4bhph2rcd13ifvqheg","pricing_plan_id":"cebpf4jnsgd1na2vs0mg"},{"bike_id":"d8a7229e-3af1-41a1-a20c-ec6cc6d9368d","system_id":"levelo_inurba_marseille","lat":43.32662,"lon":5.40996,"is_reserved":false,"is_disabled":false,"rental_uris":{"android":"levelo://app?vid=d8a7229e-3af1-41a1-a20c-ec6cc6d9368d","ios":"levelo://app?vid=d8a7229e-3af1-41a1-a20c-ec6cc6d9368d"},"vehicle_type_id":"4","last_reported":1727392167,"current_range_meters":38800,"station_id":"ce4bhpp2rcd13ifvqhgg","pricing_plan_id":"cebpf4jnsgd1na2vs0mg"},{"bike_id":"90974cf1-2726-41b1-b9b7-d7601e00a449","system_id":"levelo_inurba_marseille","lat":43.27175,"lon":5.40997,"is_reserved":false,"is_disabled":false,"rental_uris":{"android":"levelo://app?vid=90974cf1-2726-41b1-b9b7-d7601e00a449","ios":"levelo://app?vid=90974cf1-2726-41b1-b9b7-d7601e00a449"},"vehicle_type_id":"4","last_reported":1727392167,"current_range_meters":38000,"station_id":"","pricing_plan_id":"cebpf4jnsgd1na2vs0mg"},{"bike_id":"8d17f10b-cb18-4a62-9a7c-043318106e2d","system_id":"levelo_inurba_marseille","lat":43.30252,"lon":5.36625,"is_reserved":false,"is_disabled":false,"rental_uris":{"android":"levelo://app?vid=8d17f10b-cb18-4a62-9a7c-043318106e2d","ios":"levelo://app?vid=8d17f10b-cb18-4a62-9a7c-043318106e2d"},"vehicle_type_id":"4","last_reported":1727392167,"current_range_meters":5600,"station_id":"","pricing_plan_id":"cebpf4jnsgd1na2vs0mg"},{"bike_id":"790588e4-e173-42a4-84fc-bcca8ef506d6","system_id":"levelo_inurba_marseille","lat":43.28043,"lon":5.36955,"is_reserved":false,"is_disabled":false,"rental_uris":{"android":"levelo://app?vid=790588e4-e173-42a4-84fc-bcca8ef506d6","ios":"levelo://app?vid=790588e4-e173-42a4-84fc-bcca8ef506d6"},"vehicle_type_id":"4","last_reported":1727392167,"current_range_meters":11200,"station_id":"ce4bha12rcd13ifvqef0","pricing_plan_id":"cebpf4jnsgd1na2vs0mg"},{"bike_id":"7d0bb662-1cf1-4e8b-a94e-79c10ff51f4a","system_id":"levelo_inurba_marseille","lat":43.28413,"lon":5.34982,"is_reserved":false,"is_disabled":false,"rental_uris":{"android":"levelo://app?vid=7d0bb662-1cf1-4e8b-a94e-79c10ff51f4a","ios":"levelo://app?vid=7d0bb662-1cf1-4e8b-a94e-79c10ff51f4a"},"vehicle_type_id":"4","last_reported":1727392167,"current_range_meters":39200,"station_id":"ce4bhbh2rcd13ifvqepg","pricing_plan_id":"cebpf4jnsgd1na2vs0mg"},{"bike_id":"ac1d0b4c-4ca4-4728-a0d2-fd8f74f174ed","system_id":"levelo_inurba_marseille","lat":43.31117,"lon":5.37764,"is_reserved":false,"is_disabled":false,"rental_uris":{"android":"levelo://app?vid=ac1d0b4c-4ca4-4728-a0d2-fd8f74f174ed","ios":"levelo://app?vid=ac1d0b4c-4ca4-4728-a0d2-fd8f74f174ed"},"vehicle_type_id":"4","last_reported":1727392167,"current_range_meters":30400,"station_id":"ce4bgt92rcd13ifvqcg0","pricing_plan_id":"cebpf4jnsgd1na2vs0mg"},{"bike_id":"e2f9684d-a97f-413e-86e0-d05b49a9977a","system_id":"levelo_inurba_marseille","lat":43.30948,"lon":5.39039,"is_reserved":false,"is_disabled":false,"rental_uris":{"android":"levelo://app?vid=e2f9684d-a97f-413e-86e0-d05b49a9977a","ios":"levelo://app?vid=e2f9684d-a97f-413e-86e0-d05b49a9977a"},"vehicle_type_id":"4","last_reported":1727392167,"current_range_meters":38800,"station_id":"ce4bgup2rcd13ifvqco0","pricing_plan_id":"cebpf4jnsgd1na2vs0mg"},{"bike_id":"55c46dca-e7be-41e8-a69d-9f094ff0f9f1","system_id":"levelo_inurba_marseille","lat":43.26692,"lon":5.38284,"is_reserved":false,"is_disabled":false,"rental_uris":{"android":"levelo://app?vid=55c46dca-e7be-41e8-a69d-9f094ff0f9f1","ios":"levelo://app?vid=55c46dca-e7be-41e8-a69d-9f094ff0f9f1"},"vehicle_type_id":"4","last_reported":1727392167,"current_range_meters":37600,"station_id":"ce4bhg92rcd13ifvqf90","pricing_plan_id":"cebpf4jnsgd1na2vs0mg"},{"bike_id":"ef333548-5b42-4805-a9c0-dab49a7bfdc3","system_id":"levelo_inurba_marseille","lat":43.32486,"lon":5.36555,"is_reserved":false,"is_disabled":false,"rental_uris":{"android":"levelo://app?vid=ef333548-5b42-4805-a9c0-dab49a7bfdc3","ios":"levelo://app?vid=ef333548-5b42-4805-a9c0-dab49a7bfdc3"},"vehicle_type_id":"4","last_reported":1727392167,"current_range_meters":39200,"station_id":"ce4bhs12rcd13ifvqhvg","pricing_plan_id":"cebpf4jnsgd1na2vs0mg"},{"bike_id":"783c8a70-2c1a-4092-a5dc-19654f2dfca0","system_id":"levelo_inurba_marseille","lat":43.31178,"lon":5.38711,"is_reserved":false,"is_disabled":false,"rental_uris":{"android":"levelo://app?vid=783c8a70-2c1a-4092-a5dc-19654f2dfca0","ios":"levelo://app?vid=783c8a70-2c1a-4092-a5dc-19654f2dfca0"},"vehicle_type_id":"4","last_reported":1727392167,"current_range_meters":40000,"station_id":"ce4bgv12rcd13ifvqcp0","pricing_plan_id":"cebpf4jnsgd1na2vs0mg"},{"bike_id":"875c2740-75ad-4355-a457-7bdcf5e2451d","system_id":"levelo_inurba_marseille","lat":43.308,"lon":5.43527,"is_reserved":false,"is_disabled":false,"rental_uris":{"android":"levelo://app?vid=875c2740-75ad-4355-a457-7bdcf5e2451d","ios":"levelo://app?vid=875c2740-75ad-4355-a457-7bdcf5e2451d"},"vehicle_type_id":"4","last_reported":1727392167,"current_range_meters":29600,"station_id":"ce4bhph2rcd13ifvqheg","pricing_plan_id":"cebpf4jnsgd1na2vs0mg"},{"bike_id":"7839d94e-e4d7-4769-af14-bba2f3463149","system_id":"levelo_inurba_marseille","lat":43.29876,"lon":5.39735,"is_reserved":false,"is_disabled":false,"rental_uris":{"android":"levelo://app?vid=7839d94e-e4d7-4769-af14-bba2f3463149","ios":"levelo://app?vid=7839d94e-e4d7-4769-af14-bba2f3463149"},"vehicle_type_id":"4","last_reported":1727392167,"current_range_meters":38400,"station_id":"ce4bh0h2rcd13ifvqd50","pricing_plan_id":"cebpf4jnsgd1na2vs0mg"},{"bike_id":"73931516-475d-410c-b64f-05fd7ddb9f36","system_id":"levelo_inurba_marseille","lat":43.28357,"lon":5.38102,"is_reserved":false,"is_disabled":false,"rental_uris":{"android":"levelo://app?vid=73931516-475d-410c-b64f-05fd7ddb9f36","ios":"levelo://app?vid=73931516-475d-410c-b64f-05fd7ddb9f36"},"vehicle_type_id":"4","last_reported":1727392167,"current_range_meters":36000,"station_id":"ce4bh412rcd13ifvqdr0","pricing_plan_id":"cebpf4jnsgd1na2vs0mg"},{"bike_id":"d5bbef54-0e76-4d64-bc8a-a1819238d1a7","system_id":"levelo_inurba_marseille","lat":43.2396,"lon":5.36637,"is_reserved":false,"is_disabled":false,"rental_uris":{"android":"levelo://app?vid=d5bbef54-0e76-4d64-bc8a-a1819238d1a7","ios":"levelo://app?vid=d5bbef54-0e76-4d64-bc8a-a1819238d1a7"},"vehicle_type_id":"4","last_reported":1727392167,"current_range_meters":38400,"station_id":"ce4bhi12rcd13ifvqfp0","pricing_plan_id":"cebpf4jnsgd1na2vs0mg"},{"bike_id":"989c9541-c232-414c-8fbf-ce820e685590","system_id":"levelo_inurba_marseille","lat":43.32335,"lon":5.40623,"is_reserved":false,"is_disabled":false,"rental_uris":{"android":"levelo://app?vid=989c9541-c232-414c-8fbf-ce820e685590","ios":"levelo://app?vid=989c9541-c232-414c-8fbf-ce820e685590"},"vehicle_type_id":"4","last_reported":1727392167,"current_range_meters":24800,"station_id":"ce4bhq92rcd13ifvqhjg","pricing_plan_id":"cebpf4jnsgd1na2vs0mg"},{"bike_id":"dccbfc76-4115-43c0-872c-f0bc0c725123","system_id":"levelo_inurba_marseille","lat":43.30891,"lon":5.37198,"is_reserved":false,"is_disabled":false,"rental_uris":{"android":"levelo://app?vid=dccbfc76-4115-43c0-872c-f0bc0c725123","ios":"levelo://app?vid=dccbfc76-4115-43c0-872c-f0bc0c725123"},"vehicle_type_id":"4","last_reported":1727392167,"current_range_meters":26000,"station_id":"ce4bguh2rcd13ifvqckg","pricing_plan_id":"cebpf4jnsgd1na2vs0mg"},{"bike_id":"e2de1e21-c5c9-4fe7-9c5c-e8f814571c9e","system_id":"levelo_inurba_marseille","lat":43.32356,"lon":5.38883,"is_reserved":false,"is_disabled":false,"rental_uris":{"android":"levelo://app?vid=e2de1e21-c5c9-4fe7-9c5c-e8f814571c9e","ios":"levelo://app?vid=e2de1e21-c5c9-4fe7-9c5c-e8f814571c9e"},"vehicle_type_id":"4","last_reported":1727392167,"current_range_meters":38800,"station_id":"ce4bhqp2rcd13ifvqhog","pricing_plan_id":"cebpf4jnsgd1na2vs0mg"},{"bike_id":"5999d788-6f9f-40f8-928b-b24eb7567b47","system_id":"levelo_inurba_marseille","lat":43.30805,"lon":5.3815,"is_reserved":false,"is_disabled":false,"rental_uris":{"android":"levelo://app?vid=5999d788-6f9f-40f8-928b-b24eb7567b47","ios":"levelo://app?vid=5999d788-6f9f-40f8-928b-b24eb7567b47"},"vehicle_type_id":"4","last_reported":1727392167,"current_range_meters":19600,"station_id":"ce4bgt12rcd13ifvqce0","pricing_plan_id":"cebpf4jnsgd1na2vs0mg"},{"bike_id":"69986219-7e86-4b5b-97c9-1c5b0a9f3476","system_id":"levelo_inurba_marseille","lat":43.28024,"lon":5.3693,"is_reserved":false,"is_disabled":false,"rental_uris":{"android":"levelo://app?vid=69986219-7e86-4b5b-97c9-1c5b0a9f3476","ios":"levelo://app?vid=69986219-7e86-4b5b-97c9-1c5b0a9f3476"},"vehicle_type_id":"4","last_reported":1727392167,"current_range_meters":25600,"station_id":"ce4bha12rcd13ifvqef0","pricing_plan_id":"cebpf4jnsgd1na2vs0mg"},{"bike_id":"11c1daf3-59cf-492f-a898-cef19b04c703","system_id":"levelo_inurba_marseille","lat":43.28579,"lon":5.39504,"is_reserved":false,"is_disabled":false,"rental_uris":{"android":"levelo://app?vid=11c1daf3-59cf-492f-a898-cef19b04c703","ios":"levelo://app?vid=11c1daf3-59cf-492f-a898-cef19b04c703"},"vehicle_type_id":"4","last_reported":1727392167,"current_range_meters":36400,"station_id":"ce4bh292rcd13ifvqdg0","pricing_plan_id":"cebpf4jnsgd1na2vs0mg"},{"bike_id":"4522e805-401d-4c28-8dc9-f95997a8e94f","system_id":"levelo_inurba_marseille","lat":43.31172,"lon":5.38715,"is_reserved":false,"is_disabled":false,"rental_uris":{"android":"levelo://app?vid=4522e805-401d-4c28-8dc9-f95997a8e94f","ios":"levelo://app?vid=4522e805-401d-4c28-8dc9-f95997a8e94f"},"vehicle_type_id":"4","last_reported":1727392167,"current_range_meters":38000,"station_id":"ce4bgv12rcd13ifvqcp0","pricing_plan_id":"cebpf4jnsgd1na2vs0mg"},{"bike_id":"61176cf3-9a8f-4cd2-9048-ae1d9683f6f8","system_id":"levelo_inurba_marseille","lat":43.24074,"lon":5.3776,"is_reserved":false,"is_disabled":false,"rental_uris":{"android":"levelo://app?vid=61176cf3-9a8f-4cd2-9048-ae1d9683f6f8","ios":"levelo://app?vid=61176cf3-9a8f-4cd2-9048-ae1d9683f6f8"},"vehicle_type_id":"4","last_reported":1727392167,"current_range_meters":36800,"station_id":"ce4bhnp2rcd13ifvqgvg","pricing_plan_id":"cebpf4jnsgd1na2vs0mg"},{"bike_id":"ff229d4e-f48e-43c1-988e-83441b7cf4be","system_id":"levelo_inurba_marseille","lat":43.31176,"lon":5.3871,"is_reserved":false,"is_disabled":false,"rental_uris":{"android":"levelo://app?vid=ff229d4e-f48e-43c1-988e-83441b7cf4be","ios":"levelo://app?vid=ff229d4e-f48e-43c1-988e-83441b7cf4be"},"vehicle_type_id":"4","last_reported":1727392167,"current_range_meters":32800,"station_id":"ce4bgv12rcd13ifvqcp0","pricing_plan_id":"cebpf4jnsgd1na2vs0mg"},{"bike_id":"a49c9dc3-d8c0-47c3-96bb-45b69d9f632a","system_id":"levelo_inurba_marseille","lat":43.31171,"lon":5.3872,"is_reserved":false,"is_disabled":false,"rental_uris":{"android":"levelo://app?vid=a49c9dc3-d8c0-47c3-96bb-45b69d9f632a","ios":"levelo://app?vid=a49c9dc3-d8c0-47c3-96bb-45b69d9f632a"},"vehicle_type_id":"4","last_reported":1727392167,"current_range_meters":29600,"station_id":"ce4bgv12rcd13ifvqcp0","pricing_plan_id":"cebpf4jnsgd1na2vs0mg"},{"bike_id":"8b8bc4ef-69bf-4b84-aa37-5bbfca53e4ac","system_id":"levelo_inurba_marseille","lat":43.323166,"lon":5.40636,"is_reserved":false,"is_disabled":false,"rental_uris":{"android":"levelo://app?vid=8b8bc4ef-69bf-4b84-aa37-5bbfca53e4ac","ios":"levelo://app?vid=8b8bc4ef-69bf-4b84-aa37-5bbfca53e4ac"},"vehicle_type_id":"4","last_reported":1727392167,"current_range_meters":38000,"station_id":"ce4bhq92rcd13ifvqhjg","pricing_plan_id":"cebpf4jnsgd1na2vs0mg"},{"bike_id":"775c0eac-3311-4b5d-b3dd-9831934d3a9c","system_id":"levelo_inurba_marseille","lat":43.30525,"lon":5.38417,"is_reserved":false,"is_disabled":false,"rental_uris":{"android":"levelo://app?vid=775c0eac-3311-4b5d-b3dd-9831934d3a9c","ios":"levelo://app?vid=775c0eac-3311-4b5d-b3dd-9831934d3a9c"},"vehicle_type_id":"4","last_reported":1727392167,"current_range_meters":38000,"station_id":"ce4bgg92rcd13ifvqb30","pricing_plan_id":"cebpf4jnsgd1na2vs0mg"},{"bike_id":"b6d64c9d-8e91-4c23-9491-b31c5c47973f","system_id":"levelo_inurba_marseille","lat":43.32106,"lon":5.36764,"is_reserved":false,"is_disabled":false,"rental_uris":{"android":"levelo://app?vid=b6d64c9d-8e91-4c23-9491-b31c5c47973f","ios":"levelo://app?vid=b6d64c9d-8e91-4c23-9491-b31c5c47973f"},"vehicle_type_id":"4","last_reported":1727392167,"current_range_meters":30400,"station_id":"ce4bhrh2rcd13ifvqhug","pricing_plan_id":"cebpf4jnsgd1na2vs0mg"},{"bike_id":"3a2e2f3b-dc35-4a59-a736-8c191770979e","system_id":"levelo_inurba_marseille","lat":43.25106,"lon":5.4032,"is_reserved":false,"is_disabled":false,"rental_uris":{"android":"levelo://app?vid=3a2e2f3b-dc35-4a59-a736-8c191770979e","ios":"levelo://app?vid=3a2e2f3b-dc35-4a59-a736-8c191770979e"},"vehicle_type_id":"4","last_reported":1727392167,"current_range_meters":36800,"station_id":"ce4bhlh2rcd13ifvqgig","pricing_plan_id":"cebpf4jnsgd1na2vs0mg"},{"bike_id":"9a211abb-3160-4eab-927b-007cb6c7d47b","system_id":"levelo_inurba_marseille","lat":43.24662,"lon":5.38164,"is_reserved":false,"is_disabled":false,"rental_uris":{"android":"levelo://app?vid=9a211abb-3160-4eab-927b-007cb6c7d47b","ios":"levelo://app?vid=9a211abb-3160-4eab-927b-007cb6c7d47b"},"vehicle_type_id":"4","last_reported":1727392167,"current_range_meters":35600,"station_id":"ce4bhih2rcd13ifvqfr0","pricing_plan_id":"cebpf4jnsgd1na2vs0mg"},{"bike_id":"338ea1ba-c26b-44df-911d-79fc0d46d231","system_id":"levelo_inurba_marseille","lat":43.30262,"lon":5.40078,"is_reserved":false,"is_disabled":false,"rental_uris":{"android":"levelo://app?vid=338ea1ba-c26b-44df-911d-79fc0d46d231","ios":"levelo://app?vid=338ea1ba-c26b-44df-911d-79fc0d46d231"},"vehicle_type_id":"4","last_reported":1727392167,"current_range_meters":22000,"station_id":"ce4bgvh2rcd13ifvqcs0","pricing_plan_id":"cebpf4jnsgd1na2vs0mg"},{"bike_id":"05737aab-0a00-4407-9f72-b297aa08b8c4","system_id":"levelo_inurba_marseille","lat":43.30932,"lon":5.40159,"is_reserved":false,"is_disabled":false,"rental_uris":{"android":"levelo://app?vid=05737aab-0a00-4407-9f72-b297aa08b8c4","ios":"levelo://app?vid=05737aab-0a00-4407-9f72-b297aa08b8c4"},"vehicle_type_id":"4","last_reported":1727392167,"current_range_meters":30800,"station_id":"ce4bgvp2rcd13ifvqct0","pricing_plan_id":"cebpf4jnsgd1na2vs0mg"},{"bike_id":"f94b22c3-c9c2-49bf-92c5-06c4a88322e5","system_id":"levelo_inurba_marseille","lat":43.27565,"lon":5.38411,"is_reserved":false,"is_disabled":false,"rental_uris":{"android":"levelo://app?vid=f94b22c3-c9c2-49bf-92c5-06c4a88322e5","ios":"levelo://app?vid=f94b22c3-c9c2-49bf-92c5-06c4a88322e5"},"vehicle_type_id":"4","last_reported":1727392167,"current_range_meters":33200,"station_id":"ce4bhh92rcd13ifvqfi0","pricing_plan_id":"cebpf4jnsgd1na2vs0mg"},{"bike_id":"8ea19e1d-542e-4c36-8ef4-1214facb9816","system_id":"levelo_inurba_marseille","lat":43.23959,"lon":5.36633,"is_reserved":false,"is_disabled":false,"rental_uris":{"android":"levelo://app?vid=8ea19e1d-542e-4c36-8ef4-1214facb9816","ios":"levelo://app?vid=8ea19e1d-542e-4c36-8ef4-1214facb9816"},"vehicle_type_id":"4","last_reported":1727392167,"current_range_meters":38400,"station_id":"ce4bhi12rcd13ifvqfp0","pricing_plan_id":"cebpf4jnsgd1na2vs0mg"},{"bike_id":"60cf332a-73c9-4f4d-9a77-061aca019e76","system_id":"levelo_inurba_marseille","lat":43.30779,"lon":5.37652,"is_reserved":false,"is_disabled":false,"rental_uris":{"android":"levelo://app?vid=60cf332a-73c9-4f4d-9a77-061aca019e76","ios":"levelo://app?vid=60cf332a-73c9-4f4d-9a77-061aca019e76"},"vehicle_type_id":"4","last_reported":1727392167,"current_range_meters":28400,"station_id":"ce4bgv92rcd13ifvqcq0","pricing_plan_id":"cebpf4jnsgd1na2vs0mg"},{"bike_id":"ef2985a4-45df-474f-9ca1-5820caae9549","system_id":"levelo_inurba_marseille","lat":43.2811,"lon":5.37847,"is_reserved":false,"is_disabled":false,"rental_uris":{"android":"levelo://app?vid=ef2985a4-45df-474f-9ca1-5820caae9549","ios":"levelo://app?vid=ef2985a4-45df-474f-9ca1-5820caae9549"},"vehicle_type_id":"4","last_reported":1727392167,"current_range_meters":38800,"station_id":"ce4bha12rcd13ifvqee0","pricing_plan_id":"cebpf4jnsgd1na2vs0mg"},{"bike_id":"d8628fe6-939d-48d9-81f9-cf0922851ea0","system_id":"levelo_inurba_marseille","lat":43.2795,"lon":5.41047,"is_reserved":false,"is_disabled":false,"rental_uris":{"android":"levelo://app?vid=d8628fe6-939d-48d9-81f9-cf0922851ea0","ios":"levelo://app?vid=d8628fe6-939d-48d9-81f9-cf0922851ea0"},"vehicle_type_id":"4","last_reported":1727392167,"current_range_meters":20000,"station_id":"ce4bhnp2rcd13ifvqh0g","pricing_plan_id":"cebpf4jnsgd1na2vs0mg"},{"bike_id":"ed0a6e61-f285-4766-93fb-661760204361","system_id":"levelo_inurba_marseille","lat":43.32331,"lon":5.40613,"is_reserved":false,"is_disabled":false,"rental_uris":{"android":"levelo://app?vid=ed0a6e61-f285-4766-93fb-661760204361","ios":"levelo://app?vid=ed0a6e61-f285-4766-93fb-661760204361"},"vehicle_type_id":"4","last_reported":1727392167,"current_range_meters":39200,"station_id":"ce4bhq92rcd13ifvqhjg","pricing_plan_id":"cebpf4jnsgd1na2vs0mg"},{"bike_id":"f3bf7448-e739-4978-bd33-4a56cc415f41","system_id":"levelo_inurba_marseille","lat":43.37171,"lon":5.36716,"is_reserved":false,"is_disabled":false,"rental_uris":{"android":"levelo://app?vid=f3bf7448-e739-4978-bd33-4a56cc415f41","ios":"levelo://app?vid=f3bf7448-e739-4978-bd33-4a56cc415f41"},"vehicle_type_id":"4","last_reported":1727392167,"current_range_meters":24000,"station_id":"","pricing_plan_id":"cebpf4jnsgd1na2vs0mg"},{"bike_id":"f2de0a76-09a5-4897-886c-f644c5e6aef4","system_id":"levelo_inurba_marseille","lat":43.31271,"lon":5.40173,"is_reserved":false,"is_disabled":false,"rental_uris":{"android":"levelo://app?vid=f2de0a76-09a5-4897-886c-f644c5e6aef4","ios":"levelo://app?vid=f2de0a76-09a5-4897-886c-f644c5e6aef4"},"vehicle_type_id":"4","last_reported":1727392167,"current_range_meters":14000,"station_id":"ce4bh092rcd13ifvqd30","pricing_plan_id":"cebpf4jnsgd1na2vs0mg"},{"bike_id":"a0b4e1dc-b2d5-4e1d-a6e2-2b1fa04ed91c","system_id":"levelo_inurba_marseille","lat":43.28033,"lon":5.36947,"is_reserved":false,"is_disabled":false,"rental_uris":{"android":"levelo://app?vid=a0b4e1dc-b2d5-4e1d-a6e2-2b1fa04ed91c","ios":"levelo://app?vid=a0b4e1dc-b2d5-4e1d-a6e2-2b1fa04ed91c"},"vehicle_type_id":"4","last_reported":1727392167,"current_range_meters":35600,"station_id":"ce4bha12rcd13ifvqef0","pricing_plan_id":"cebpf4jnsgd1na2vs0mg"},{"bike_id":"72d84b55-dafb-479b-a105-86e3c32cdd18","system_id":"levelo_inurba_marseille","lat":43.30895,"lon":5.39641,"is_reserved":false,"is_disabled":false,"rental_uris":{"android":"levelo://app?vid=72d84b55-dafb-479b-a105-86e3c32cdd18","ios":"levelo://app?vid=72d84b55-dafb-479b-a105-86e3c32cdd18"},"vehicle_type_id":"4","last_reported":1727392167,"current_range_meters":34800,"station_id":"ce4bh012rcd13ifvqcv0","pricing_plan_id":"cebpf4jnsgd1na2vs0mg"},{"bike_id":"b8ba67d1-3f17-413f-a5c6-fc7613620f5a","system_id":"levelo_inurba_marseille","lat":43.25116,"lon":5.40326,"is_reserved":false,"is_disabled":false,"rental_uris":{"android":"levelo://app?vid=b8ba67d1-3f17-413f-a5c6-fc7613620f5a","ios":"levelo://app?vid=b8ba67d1-3f17-413f-a5c6-fc7613620f5a"},"vehicle_type_id":"4","last_reported":1727392167,"current_range_meters":38000,"station_id":"ce4bhlh2rcd13ifvqgig","pricing_plan_id":"cebpf4jnsgd1na2vs0mg"},{"bike_id":"17cab8b8-3f80-4673-a878-1546de11a4d1","system_id":"levelo_inurba_marseille","lat":43.30813,"lon":5.38146,"is_reserved":false,"is_disabled":false,"rental_uris":{"android":"levelo://app?vid=17cab8b8-3f80-4673-a878-1546de11a4d1","ios":"levelo://app?vid=17cab8b8-3f80-4673-a878-1546de11a4d1"},"vehicle_type_id":"4","last_reported":1727392167,"current_range_meters":33200,"station_id":"ce4bgt12rcd13ifvqce0","pricing_plan_id":"cebpf4jnsgd1na2vs0mg"},{"bike_id":"5c026a10-b58f-48af-a51f-f9bf1b76a996","system_id":"levelo_inurba_marseille","lat":43.30422,"lon":5.39754,"is_reserved":false,"is_disabled":false,"rental_uris":{"android":"levelo://app?vid=5c026a10-b58f-48af-a51f-f9bf1b76a996","ios":"levelo://app?vid=5c026a10-b58f-48af-a51f-f9bf1b76a996"},"vehicle_type_id":"4","last_reported":1727392167,"current_range_meters":39200,"station_id":"ce4bh092rcd13ifvqd20","pricing_plan_id":"cebpf4jnsgd1na2vs0mg"},{"bike_id":"d8c48252-4588-4704-86ec-4f5a0439137e","system_id":"levelo_inurba_marseille","lat":43.29556,"lon":5.4228,"is_reserved":false,"is_disabled":false,"rental_uris":{"android":"levelo://app?vid=d8c48252-4588-4704-86ec-4f5a0439137e","ios":"levelo://app?vid=d8c48252-4588-4704-86ec-4f5a0439137e"},"vehicle_type_id":"4","last_reported":1727392167,"current_range_meters":28800,"station_id":"ce4bhph2rcd13ifvqhdg","pricing_plan_id":"cebpf4jnsgd1na2vs0mg"},{"bike_id":"49d333ae-18b7-434f-a99d-4a3f637da9f5","system_id":"levelo_inurba_marseille","lat":43.28032,"lon":5.36947,"is_reserved":false,"is_disabled":false,"rental_uris":{"android":"levelo://app?vid=49d333ae-18b7-434f-a99d-4a3f637da9f5","ios":"levelo://app?vid=49d333ae-18b7-434f-a99d-4a3f637da9f5"},"vehicle_type_id":"4","last_reported":1727392167,"current_range_meters":27600,"station_id":"ce4bha12rcd13ifvqef0","pricing_plan_id":"cebpf4jnsgd1na2vs0mg"},{"bike_id":"13296a5f-860e-43e6-ad11-2dde07d8e825","system_id":"levelo_inurba_marseille","lat":43.30801,"lon":5.3815,"is_reserved":false,"is_disabled":false,"rental_uris":{"android":"levelo://app?vid=13296a5f-860e-43e6-ad11-2dde07d8e825","ios":"levelo://app?vid=13296a5f-860e-43e6-ad11-2dde07d8e825"},"vehicle_type_id":"4","last_reported":1727392167,"current_range_meters":39200,"station_id":"ce4bgt12rcd13ifvqce0","pricing_plan_id":"cebpf4jnsgd1na2vs0mg"},{"bike_id":"39fa4c55-ba59-4795-b216-bdba84781c79","system_id":"levelo_inurba_marseille","lat":43.2846,"lon":5.35886,"is_reserved":false,"is_disabled":false,"rental_uris":{"android":"levelo://app?vid=39fa4c55-ba59-4795-b216-bdba84781c79","ios":"levelo://app?vid=39fa4c55-ba59-4795-b216-bdba84781c79"},"vehicle_type_id":"4","last_reported":1727392167,"current_range_meters":7200,"station_id":"ce4bhah2rcd13ifvqei0","pricing_plan_id":"cebpf4jnsgd1na2vs0mg"},{"bike_id":"b59f21eb-eec1-4035-b55e-7017d2289d0f","system_id":"levelo_inurba_marseille","lat":43.32337,"lon":5.40621,"is_reserved":false,"is_disabled":false,"rental_uris":{"android":"levelo://app?vid=b59f21eb-eec1-4035-b55e-7017d2289d0f","ios":"levelo://app?vid=b59f21eb-eec1-4035-b55e-7017d2289d0f"},"vehicle_type_id":"4","last_reported":1727392167,"current_range_meters":22400,"station_id":"ce4bhq92rcd13ifvqhjg","pricing_plan_id":"cebpf4jnsgd1na2vs0mg"},{"bike_id":"4013b889-abc8-483c-81a6-d73bb8f5f554","system_id":"levelo_inurba_marseille","lat":43.26947,"lon":5.40254,"is_reserved":false,"is_disabled":false,"rental_uris":{"android":"levelo://app?vid=4013b889-abc8-483c-81a6-d73bb8f5f554","ios":"levelo://app?vid=4013b889-abc8-483c-81a6-d73bb8f5f554"},"vehicle_type_id":"4","last_reported":1727392167,"current_range_meters":33200,"station_id":"cjm6bp8fraef2m0cb0m0","pricing_plan_id":"cebpf4jnsgd1na2vs0mg"},{"bike_id":"70acd5c0-9696-40e2-886a-cd10e0aba86d","system_id":"levelo_inurba_marseille","lat":43.25869,"lon":5.39895,"is_reserved":false,"is_disabled":false,"rental_uris":{"android":"levelo://app?vid=70acd5c0-9696-40e2-886a-cd10e0aba86d","ios":"levelo://app?vid=70acd5c0-9696-40e2-886a-cd10e0aba86d"},"vehicle_type_id":"4","last_reported":1727392167,"current_range_meters":25200,"station_id":"ce4bhl92rcd13ifvqghg","pricing_plan_id":"cebpf4jnsgd1na2vs0mg"},{"bike_id":"8ed03cc0-e499-4e39-8c85-be10f5e5a969","system_id":"levelo_inurba_marseille","lat":43.30422,"lon":5.388958,"is_reserved":false,"is_disabled":false,"rental_uris":{"android":"levelo://app?vid=8ed03cc0-e499-4e39-8c85-be10f5e5a969","ios":"levelo://app?vid=8ed03cc0-e499-4e39-8c85-be10f5e5a969"},"vehicle_type_id":"4","last_reported":1727392167,"current_range_meters":36400,"station_id":"ce4bgk12rcd13ifvqbi0","pricing_plan_id":"cebpf4jnsgd1na2vs0mg"},{"bike_id":"4815afab-f1b4-4152-90e3-b9fc5c00bd49","system_id":"levelo_inurba_marseille","lat":43.25002,"lon":5.38914,"is_reserved":false,"is_disabled":false,"rental_uris":{"android":"levelo://app?vid=4815afab-f1b4-4152-90e3-b9fc5c00bd49","ios":"levelo://app?vid=4815afab-f1b4-4152-90e3-b9fc5c00bd49"},"vehicle_type_id":"4","last_reported":1727392167,"current_range_meters":38000,"station_id":"ce4bhgp2rcd13ifvqfd0","pricing_plan_id":"cebpf4jnsgd1na2vs0mg"},{"bike_id":"2a35124c-e4ce-4d4a-b2cc-80e6befd99f9","system_id":"levelo_inurba_marseille","lat":43.30936,"lon":5.40143,"is_reserved":false,"is_disabled":false,"rental_uris":{"android":"levelo://app?vid=2a35124c-e4ce-4d4a-b2cc-80e6befd99f9","ios":"levelo://app?vid=2a35124c-e4ce-4d4a-b2cc-80e6befd99f9"},"vehicle_type_id":"4","last_reported":1727392167,"current_range_meters":18800,"station_id":"ce4bgvp2rcd13ifvqct0","pricing_plan_id":"cebpf4jnsgd1na2vs0mg"},{"bike_id":"18d3c8b1-43de-4a17-8a64-80245961716e","system_id":"levelo_inurba_marseille","lat":43.27431,"lon":5.39412,"is_reserved":false,"is_disabled":false,"rental_uris":{"android":"levelo://app?vid=18d3c8b1-43de-4a17-8a64-80245961716e","ios":"levelo://app?vid=18d3c8b1-43de-4a17-8a64-80245961716e"},"vehicle_type_id":"4","last_reported":1727392167,"current_range_meters":35600,"station_id":"ce4bhdp2rcd13ifvqf20","pricing_plan_id":"cebpf4jnsgd1na2vs0mg"},{"bike_id":"7019cc62-e926-4458-9d07-ded9133cb481","system_id":"levelo_inurba_marseille","lat":43.23193,"lon":5.39982,"is_reserved":false,"is_disabled":false,"rental_uris":{"android":"levelo://app?vid=7019cc62-e926-4458-9d07-ded9133cb481","ios":"levelo://app?vid=7019cc62-e926-4458-9d07-ded9133cb481"},"vehicle_type_id":"4","last_reported":1727392167,"current_range_meters":39200,"station_id":"ce4bhn12rcd13ifvqgqg","pricing_plan_id":"cebpf4jnsgd1na2vs0mg"},{"bike_id":"a051b9ab-2421-48f5-87d8-ad6c6aeb57fe","system_id":"levelo_inurba_marseille","lat":43.28078,"lon":5.39656,"is_reserved":false,"is_disabled":false,"rental_uris":{"android":"levelo://app?vid=a051b9ab-2421-48f5-87d8-ad6c6aeb57fe","ios":"levelo://app?vid=a051b9ab-2421-48f5-87d8-ad6c6aeb57fe"},"vehicle_type_id":"4","last_reported":1727392167,"current_range_meters":12400,"station_id":"ce4bho12rcd13ifvqh2g","pricing_plan_id":"cebpf4jnsgd1na2vs0mg"},{"bike_id":"6357eb80-ed1a-43df-918a-2c6c7109d726","system_id":"levelo_inurba_marseille","lat":43.30797,"lon":5.38148,"is_reserved":false,"is_disabled":false,"rental_uris":{"android":"levelo://app?vid=6357eb80-ed1a-43df-918a-2c6c7109d726","ios":"levelo://app?vid=6357eb80-ed1a-43df-918a-2c6c7109d726"},"vehicle_type_id":"4","last_reported":1727392167,"current_range_meters":8000,"station_id":"ce4bgt12rcd13ifvqce0","pricing_plan_id":"cebpf4jnsgd1na2vs0mg"},{"bike_id":"541a4a59-99e0-42c1-b504-81c96b865c38","system_id":"levelo_inurba_marseille","lat":43.3089,"lon":5.37185,"is_reserved":false,"is_disabled":false,"rental_uris":{"android":"levelo://app?vid=541a4a59-99e0-42c1-b504-81c96b865c38","ios":"levelo://app?vid=541a4a59-99e0-42c1-b504-81c96b865c38"},"vehicle_type_id":"4","last_reported":1727392167,"current_range_meters":24400,"station_id":"ce4bguh2rcd13ifvqckg","pricing_plan_id":"cebpf4jnsgd1na2vs0mg"},{"bike_id":"d4c76aee-094b-4e67-93eb-876e3e7161ba","system_id":"levelo_inurba_marseille","lat":43.2293,"lon":5.35376,"is_reserved":false,"is_disabled":false,"rental_uris":{"android":"levelo://app?vid=d4c76aee-094b-4e67-93eb-876e3e7161ba","ios":"levelo://app?vid=d4c76aee-094b-4e67-93eb-876e3e7161ba"},"vehicle_type_id":"4","last_reported":1727392167,"current_range_meters":15200,"station_id":"cpo3532slgdg3j2ikp40","pricing_plan_id":"cebpf4jnsgd1na2vs0mg"},{"bike_id":"9a006b44-c626-455d-be5a-513b7103d566","system_id":"levelo_inurba_marseille","lat":43.32364,"lon":5.38885,"is_reserved":false,"is_disabled":false,"rental_uris":{"android":"levelo://app?vid=9a006b44-c626-455d-be5a-513b7103d566","ios":"levelo://app?vid=9a006b44-c626-455d-be5a-513b7103d566"},"vehicle_type_id":"4","last_reported":1727392167,"current_range_meters":36800,"station_id":"ce4bhqp2rcd13ifvqhog","pricing_plan_id":"cebpf4jnsgd1na2vs0mg"},{"bike_id":"84370e09-0017-4c8b-9c58-8c7e88a8d174","system_id":"levelo_inurba_marseille","lat":43.30933,"lon":5.40149,"is_reserved":false,"is_disabled":false,"rental_uris":{"android":"levelo://app?vid=84370e09-0017-4c8b-9c58-8c7e88a8d174","ios":"levelo://app?vid=84370e09-0017-4c8b-9c58-8c7e88a8d174"},"vehicle_type_id":"4","last_reported":1727392167,"current_range_meters":32400,"station_id":"ce4bgvp2rcd13ifvqct0","pricing_plan_id":"cebpf4jnsgd1na2vs0mg"},{"bike_id":"e1c1bcc1-ffcd-46c8-8fcf-522c6f5c6799","system_id":"levelo_inurba_marseille","lat":43.28155,"lon":5.4265,"is_reserved":false,"is_disabled":false,"rental_uris":{"android":"levelo://app?vid=e1c1bcc1-ffcd-46c8-8fcf-522c6f5c6799","ios":"levelo://app?vid=e1c1bcc1-ffcd-46c8-8fcf-522c6f5c6799"},"vehicle_type_id":"4","last_reported":1727392167,"current_range_meters":28400,"station_id":"ce4bhnh2rcd13ifvqgug","pricing_plan_id":"cebpf4jnsgd1na2vs0mg"},{"bike_id":"83a488bb-078f-458d-b4a5-9f90a718ef88","system_id":"levelo_inurba_marseille","lat":43.2903,"lon":5.38653,"is_reserved":false,"is_disabled":false,"rental_uris":{"android":"levelo://app?vid=83a488bb-078f-458d-b4a5-9f90a718ef88","ios":"levelo://app?vid=83a488bb-078f-458d-b4a5-9f90a718ef88"},"vehicle_type_id":"4","last_reported":1727392167,"current_range_meters":36800,"station_id":"ce4bh4p2rcd13ifvqe0g","pricing_plan_id":"cebpf4jnsgd1na2vs0mg"},{"bike_id":"400094b1-46e6-4f2a-aa5a-b06392acb64a","system_id":"levelo_inurba_marseille","lat":43.30935,"lon":5.40142,"is_reserved":false,"is_disabled":false,"rental_uris":{"android":"levelo://app?vid=400094b1-46e6-4f2a-aa5a-b06392acb64a","ios":"levelo://app?vid=400094b1-46e6-4f2a-aa5a-b06392acb64a"},"vehicle_type_id":"4","last_reported":1727392167,"current_range_meters":12400,"station_id":"ce4bgvp2rcd13ifvqct0","pricing_plan_id":"cebpf4jnsgd1na2vs0mg"},{"bike_id":"aacab401-bb23-4a56-9d36-8c450f561c55","system_id":"levelo_inurba_marseille","lat":43.30637,"lon":5.40076,"is_reserved":false,"is_disabled":false,"rental_uris":{"android":"levelo://app?vid=aacab401-bb23-4a56-9d36-8c450f561c55","ios":"levelo://app?vid=aacab401-bb23-4a56-9d36-8c450f561c55"},"vehicle_type_id":"4","last_reported":1727392167,"current_range_meters":27200,"station_id":"ce4bh112rcd13ifvqda0","pricing_plan_id":"cebpf4jnsgd1na2vs0mg"},{"bike_id":"12bb2fa0-def4-44f9-9009-061dd94ed221","system_id":"levelo_inurba_marseille","lat":43.24161,"lon":5.36396,"is_reserved":false,"is_disabled":false,"rental_uris":{"android":"levelo://app?vid=12bb2fa0-def4-44f9-9009-061dd94ed221","ios":"levelo://app?vid=12bb2fa0-def4-44f9-9009-061dd94ed221"},"vehicle_type_id":"4","last_reported":1727392167,"current_range_meters":6400,"station_id":"cpo36qri1sfpv3e86is0","pricing_plan_id":"cebpf4jnsgd1na2vs0mg"},{"bike_id":"6e6f34c2-db7f-499b-823d-d3a6208d6464","system_id":"levelo_inurba_marseille","lat":43.24076,"lon":5.3776,"is_reserved":false,"is_disabled":false,"rental_uris":{"android":"levelo://app?vid=6e6f34c2-db7f-499b-823d-d3a6208d6464","ios":"levelo://app?vid=6e6f34c2-db7f-499b-823d-d3a6208d6464"},"vehicle_type_id":"4","last_reported":1727392167,"current_range_meters":35600,"station_id":"ce4bhnp2rcd13ifvqgvg","pricing_plan_id":"cebpf4jnsgd1na2vs0mg"},{"bike_id":"caac2220-f204-42a6-8944-b690878e20a4","system_id":"levelo_inurba_marseille","lat":43.262,"lon":5.3794,"is_reserved":false,"is_disabled":false,"rental_uris":{"android":"levelo://app?vid=caac2220-f204-42a6-8944-b690878e20a4","ios":"levelo://app?vid=caac2220-f204-42a6-8944-b690878e20a4"},"vehicle_type_id":"4","last_reported":1727392167,"current_range_meters":30000,"station_id":"ce4bhjp2rcd13ifvqg90","pricing_plan_id":"cebpf4jnsgd1na2vs0mg"},{"bike_id":"482d2ccb-541e-4986-9b9e-ad76907d837e","system_id":"levelo_inurba_marseille","lat":43.30929,"lon":5.40153,"is_reserved":false,"is_disabled":false,"rental_uris":{"android":"levelo://app?vid=482d2ccb-541e-4986-9b9e-ad76907d837e","ios":"levelo://app?vid=482d2ccb-541e-4986-9b9e-ad76907d837e"},"vehicle_type_id":"4","last_reported":1727392167,"current_range_meters":24800,"station_id":"ce4bgvp2rcd13ifvqct0","pricing_plan_id":"cebpf4jnsgd1na2vs0mg"},{"bike_id":"4fe8351c-c90f-47cf-abc6-72eb9f690f98","system_id":"levelo_inurba_marseille","lat":43.24078,"lon":5.37748,"is_reserved":false,"is_disabled":false,"rental_uris":{"android":"levelo://app?vid=4fe8351c-c90f-47cf-abc6-72eb9f690f98","ios":"levelo://app?vid=4fe8351c-c90f-47cf-abc6-72eb9f690f98"},"vehicle_type_id":"4","last_reported":1727392167,"current_range_meters":32000,"station_id":"ce4bhnp2rcd13ifvqgvg","pricing_plan_id":"cebpf4jnsgd1na2vs0mg"},{"bike_id":"1963a3a8-a24d-4561-9cd5-81c47c89ed6f","system_id":"levelo_inurba_marseille","lat":43.30937,"lon":5.4014,"is_reserved":false,"is_disabled":false,"rental_uris":{"android":"levelo://app?vid=1963a3a8-a24d-4561-9cd5-81c47c89ed6f","ios":"levelo://app?vid=1963a3a8-a24d-4561-9cd5-81c47c89ed6f"},"vehicle_type_id":"4","last_reported":1727392167,"current_range_meters":38800,"station_id":"ce4bgvp2rcd13ifvqct0","pricing_plan_id":"cebpf4jnsgd1na2vs0mg"},{"bike_id":"bb784d2b-10c2-4550-93f2-4bae859cc197","system_id":"levelo_inurba_marseille","lat":43.29174,"lon":5.37145,"is_reserved":false,"is_disabled":false,"rental_uris":{"android":"levelo://app?vid=bb784d2b-10c2-4550-93f2-4bae859cc197","ios":"levelo://app?vid=bb784d2b-10c2-4550-93f2-4bae859cc197"},"vehicle_type_id":"4","last_reported":1727392167,"current_range_meters":32000,"station_id":"ce4bha92rcd13ifvqeh0","pricing_plan_id":"cebpf4jnsgd1na2vs0mg"},{"bike_id":"bb588564-dab1-4c0a-ad29-4d02672f8132","system_id":"levelo_inurba_marseille","lat":43.2846,"lon":5.35891,"is_reserved":false,"is_disabled":false,"rental_uris":{"android":"levelo://app?vid=bb588564-dab1-4c0a-ad29-4d02672f8132","ios":"levelo://app?vid=bb588564-dab1-4c0a-ad29-4d02672f8132"},"vehicle_type_id":"4","last_reported":1727392167,"current_range_meters":14800,"station_id":"ce4bhah2rcd13ifvqei0","pricing_plan_id":"cebpf4jnsgd1na2vs0mg"},{"bike_id":"6638bfbc-e341-409c-94ed-cb6318eaee99","system_id":"levelo_inurba_marseille","lat":43.27184,"lon":5.40996,"is_reserved":false,"is_disabled":false,"rental_uris":{"android":"levelo://app?vid=6638bfbc-e341-409c-94ed-cb6318eaee99","ios":"levelo://app?vid=6638bfbc-e341-409c-94ed-cb6318eaee99"},"vehicle_type_id":"4","last_reported":1727392167,"current_range_meters":8400,"station_id":"ce4bhl12rcd13ifvqgf0","pricing_plan_id":"cebpf4jnsgd1na2vs0mg"},{"bike_id":"a0330d7d-3ee3-4778-9fe7-6a9767b2a352","system_id":"levelo_inurba_marseille","lat":43.23194,"lon":5.35554,"is_reserved":false,"is_disabled":false,"rental_uris":{"android":"levelo://app?vid=a0330d7d-3ee3-4778-9fe7-6a9767b2a352","ios":"levelo://app?vid=a0330d7d-3ee3-4778-9fe7-6a9767b2a352"},"vehicle_type_id":"4","last_reported":1727392167,"current_range_meters":30800,"station_id":"ce4bhu92rcd13ifvqi70","pricing_plan_id":"cebpf4jnsgd1na2vs0mg"},{"bike_id":"8b9f305b-aeaa-4448-af69-404834688c49","system_id":"levelo_inurba_marseille","lat":43.24078,"lon":5.37755,"is_reserved":false,"is_disabled":false,"rental_uris":{"android":"levelo://app?vid=8b9f305b-aeaa-4448-af69-404834688c49","ios":"levelo://app?vid=8b9f305b-aeaa-4448-af69-404834688c49"},"vehicle_type_id":"4","last_reported":1727392167,"current_range_meters":25600,"station_id":"ce4bhnp2rcd13ifvqgvg","pricing_plan_id":"cebpf4jnsgd1na2vs0mg"},{"bike_id":"75c8af22-8779-49ff-8714-fa31093de02c","system_id":"levelo_inurba_marseille","lat":43.30928,"lon":5.40148,"is_reserved":false,"is_disabled":false,"rental_uris":{"android":"levelo://app?vid=75c8af22-8779-49ff-8714-fa31093de02c","ios":"levelo://app?vid=75c8af22-8779-49ff-8714-fa31093de02c"},"vehicle_type_id":"4","last_reported":1727392167,"current_range_meters":14000,"station_id":"ce4bgvp2rcd13ifvqct0","pricing_plan_id":"cebpf4jnsgd1na2vs0mg"},{"bike_id":"637beff3-55bd-4f15-99c0-4cb53d5dddb9","system_id":"levelo_inurba_marseille","lat":43.30638,"lon":5.39524,"is_reserved":false,"is_disabled":false,"rental_uris":{"android":"levelo://app?vid=637beff3-55bd-4f15-99c0-4cb53d5dddb9","ios":"levelo://app?vid=637beff3-55bd-4f15-99c0-4cb53d5dddb9"},"vehicle_type_id":"4","last_reported":1727392167,"current_range_meters":35600,"station_id":"","pricing_plan_id":"cebpf4jnsgd1na2vs0mg"},{"bike_id":"b34d1b2d-a1bd-4f8c-9b61-39806486ea46","system_id":"levelo_inurba_marseille","lat":43.27214,"lon":5.39184,"is_reserved":false,"is_disabled":false,"rental_uris":{"android":"levelo://app?vid=b34d1b2d-a1bd-4f8c-9b61-39806486ea46","ios":"levelo://app?vid=b34d1b2d-a1bd-4f8c-9b61-39806486ea46"},"vehicle_type_id":"4","last_reported":1727392167,"current_range_meters":24400,"station_id":"ce4bhhp2rcd13ifvqfm0","pricing_plan_id":"cebpf4jnsgd1na2vs0mg"},{"bike_id":"166d3025-903c-4128-9393-b436a9d6906e","system_id":"levelo_inurba_marseille","lat":43.28461,"lon":5.35893,"is_reserved":false,"is_disabled":false,"rental_uris":{"android":"levelo://app?vid=166d3025-903c-4128-9393-b436a9d6906e","ios":"levelo://app?vid=166d3025-903c-4128-9393-b436a9d6906e"},"vehicle_type_id":"4","last_reported":1727392167,"current_range_meters":38800,"station_id":"ce4bhah2rcd13ifvqei0","pricing_plan_id":"cebpf4jnsgd1na2vs0mg"},{"bike_id":"da507a6b-3f44-4de2-942e-472233ae5b36","system_id":"levelo_inurba_marseille","lat":43.294128,"lon":5.38618,"is_reserved":false,"is_disabled":false,"rental_uris":{"android":"levelo://app?vid=da507a6b-3f44-4de2-942e-472233ae5b36","ios":"levelo://app?vid=da507a6b-3f44-4de2-942e-472233ae5b36"},"vehicle_type_id":"4","last_reported":1727392167,"current_range_meters":30400,"station_id":"ce4bgvp2rcd13ifvqct0","pricing_plan_id":"cebpf4jnsgd1na2vs0mg"},{"bike_id":"8c2b13d8-4c1a-4283-9284-ddb89dfd18ca","system_id":"levelo_inurba_marseille","lat":43.30651,"lon":5.40086,"is_reserved":false,"is_disabled":false,"rental_uris":{"android":"levelo://app?vid=8c2b13d8-4c1a-4283-9284-ddb89dfd18ca","ios":"levelo://app?vid=8c2b13d8-4c1a-4283-9284-ddb89dfd18ca"},"vehicle_type_id":"4","last_reported":1727392167,"current_range_meters":39200,"station_id":"ce4bh112rcd13ifvqda0","pricing_plan_id":"cebpf4jnsgd1na2vs0mg"},{"bike_id":"64aac6b4-fb33-4a0b-97f0-cc4daff179f4","system_id":"levelo_inurba_marseille","lat":43.25114,"lon":5.40317,"is_reserved":false,"is_disabled":false,"rental_uris":{"android":"levelo://app?vid=64aac6b4-fb33-4a0b-97f0-cc4daff179f4","ios":"levelo://app?vid=64aac6b4-fb33-4a0b-97f0-cc4daff179f4"},"vehicle_type_id":"4","last_reported":1727392167,"current_range_meters":39200,"station_id":"ce4bhlh2rcd13ifvqgig","pricing_plan_id":"cebpf4jnsgd1na2vs0mg"},{"bike_id":"1b4b0178-3a24-4b33-98ef-05aef8dad5fc","system_id":"levelo_inurba_marseille","lat":43.26204,"lon":5.37924,"is_reserved":false,"is_disabled":false,"rental_uris":{"android":"levelo://app?vid=1b4b0178-3a24-4b33-98ef-05aef8dad5fc","ios":"levelo://app?vid=1b4b0178-3a24-4b33-98ef-05aef8dad5fc"},"vehicle_type_id":"4","last_reported":1727392167,"current_range_meters":38400,"station_id":"ce4bhjp2rcd13ifvqg90","pricing_plan_id":"cebpf4jnsgd1na2vs0mg"},{"bike_id":"0f48ced1-9186-439b-9a99-e80ddc1c49fd","system_id":"levelo_inurba_marseille","lat":43.28703,"lon":5.39976,"is_reserved":false,"is_disabled":false,"rental_uris":{"android":"levelo://app?vid=0f48ced1-9186-439b-9a99-e80ddc1c49fd","ios":"levelo://app?vid=0f48ced1-9186-439b-9a99-e80ddc1c49fd"},"vehicle_type_id":"4","last_reported":1727392167,"current_range_meters":38000,"station_id":"ce4bho92rcd13ifvqh3g","pricing_plan_id":"cebpf4jnsgd1na2vs0mg"},{"bike_id":"dcc62b05-01cd-46dc-867f-96b00b4d350e","system_id":"levelo_inurba_marseille","lat":43.29687,"lon":5.37283,"is_reserved":false,"is_disabled":false,"rental_uris":{"android":"levelo://app?vid=dcc62b05-01cd-46dc-867f-96b00b4d350e","ios":"levelo://app?vid=dcc62b05-01cd-46dc-867f-96b00b4d350e"},"vehicle_type_id":"4","last_reported":1727392167,"current_range_meters":39200,"station_id":"ce4bgk12rcd13ifvqbj0","pricing_plan_id":"cebpf4jnsgd1na2vs0mg"},{"bike_id":"8d052a58-781c-4351-a526-488cc661d810","system_id":"levelo_inurba_marseille","lat":43.31481,"lon":5.37992,"is_reserved":false,"is_disabled":false,"rental_uris":{"android":"levelo://app?vid=8d052a58-781c-4351-a526-488cc661d810","ios":"levelo://app?vid=8d052a58-781c-4351-a526-488cc661d810"},"vehicle_type_id":"4","last_reported":1727392167,"current_range_meters":19600,"station_id":"ce4bhsp2rcd13ifvqi50","pricing_plan_id":"cebpf4jnsgd1na2vs0mg"},{"bike_id":"4fec9103-b71a-46de-8574-fb61a5235fc9","system_id":"levelo_inurba_marseille","lat":43.2894,"lon":5.36411,"is_reserved":false,"is_disabled":false,"rental_uris":{"android":"levelo://app?vid=4fec9103-b71a-46de-8574-fb61a5235fc9","ios":"levelo://app?vid=4fec9103-b71a-46de-8574-fb61a5235fc9"},"vehicle_type_id":"4","last_reported":1727392167,"current_range_meters":39200,"station_id":"ce4bhc92rcd13ifvqetg","pricing_plan_id":"cebpf4jnsgd1na2vs0mg"},{"bike_id":"b5826db6-7357-48cc-989a-d1c69ddcdf8b","system_id":"levelo_inurba_marseille","lat":43.2928,"lon":5.40118,"is_reserved":false,"is_disabled":false,"rental_uris":{"android":"levelo://app?vid=b5826db6-7357-48cc-989a-d1c69ddcdf8b","ios":"levelo://app?vid=b5826db6-7357-48cc-989a-d1c69ddcdf8b"},"vehicle_type_id":"4","last_reported":1727392167,"current_range_meters":28400,"station_id":"ce4bh312rcd13ifvqdk0","pricing_plan_id":"cebpf4jnsgd1na2vs0mg"},{"bike_id":"303bc237-67af-41c9-af29-05f39f506a1f","system_id":"levelo_inurba_marseille","lat":43.28038,"lon":5.36946,"is_reserved":false,"is_disabled":false,"rental_uris":{"android":"levelo://app?vid=303bc237-67af-41c9-af29-05f39f506a1f","ios":"levelo://app?vid=303bc237-67af-41c9-af29-05f39f506a1f"},"vehicle_type_id":"4","last_reported":1727392167,"current_range_meters":38800,"station_id":"ce4bha12rcd13ifvqef0","pricing_plan_id":"cebpf4jnsgd1na2vs0mg"},{"bike_id":"ac2cd686-e284-4f6b-862c-60442a859b6c","system_id":"levelo_inurba_marseille","lat":43.30953,"lon":5.3906,"is_reserved":false,"is_disabled":false,"rental_uris":{"android":"levelo://app?vid=ac2cd686-e284-4f6b-862c-60442a859b6c","ios":"levelo://app?vid=ac2cd686-e284-4f6b-862c-60442a859b6c"},"vehicle_type_id":"4","last_reported":1727392167,"current_range_meters":7200,"station_id":"ce4bgup2rcd13ifvqco0","pricing_plan_id":"cebpf4jnsgd1na2vs0mg"},{"bike_id":"bbc14a55-4124-4b7f-89e7-83ab6d28e45f","system_id":"levelo_inurba_marseille","lat":43.2926,"lon":5.40905,"is_reserved":false,"is_disabled":false,"rental_uris":{"android":"levelo://app?vid=bbc14a55-4124-4b7f-89e7-83ab6d28e45f","ios":"levelo://app?vid=bbc14a55-4124-4b7f-89e7-83ab6d28e45f"},"vehicle_type_id":"4","last_reported":1727392167,"current_range_meters":38800,"station_id":"ce4bh192rcd13ifvqdc0","pricing_plan_id":"cebpf4jnsgd1na2vs0mg"},{"bike_id":"571115be-4f92-4f3c-be12-44639ba9602a","system_id":"levelo_inurba_marseille","lat":43.3254,"lon":5.41442,"is_reserved":false,"is_disabled":false,"rental_uris":{"android":"levelo://app?vid=571115be-4f92-4f3c-be12-44639ba9602a","ios":"levelo://app?vid=571115be-4f92-4f3c-be12-44639ba9602a"},"vehicle_type_id":"4","last_reported":1727392167,"current_range_meters":27600,"station_id":"ce4bhq12rcd13ifvqhhg","pricing_plan_id":"cebpf4jnsgd1na2vs0mg"},{"bike_id":"c15e49a9-34e1-4797-9230-3d0f12892c9d","system_id":"levelo_inurba_marseille","lat":43.25086,"lon":5.39519,"is_reserved":false,"is_disabled":false,"rental_uris":{"android":"levelo://app?vid=c15e49a9-34e1-4797-9230-3d0f12892c9d","ios":"levelo://app?vid=c15e49a9-34e1-4797-9230-3d0f12892c9d"},"vehicle_type_id":"4","last_reported":1727392167,"current_range_meters":8400,"station_id":"ce4bhm12rcd13ifvqgkg","pricing_plan_id":"cebpf4jnsgd1na2vs0mg"},{"bike_id":"3b32e212-3404-4033-9528-1ced8e7aad20","system_id":"levelo_inurba_marseille","lat":43.32653,"lon":5.40992,"is_reserved":false,"is_disabled":false,"rental_uris":{"android":"levelo://app?vid=3b32e212-3404-4033-9528-1ced8e7aad20","ios":"levelo://app?vid=3b32e212-3404-4033-9528-1ced8e7aad20"},"vehicle_type_id":"4","last_reported":1727392167,"current_range_meters":38800,"station_id":"ce4bhpp2rcd13ifvqhgg","pricing_plan_id":"cebpf4jnsgd1na2vs0mg"},{"bike_id":"4174e0c9-ea8a-45cf-832b-944eca7da095","system_id":"levelo_inurba_marseille","lat":43.2656,"lon":5.39006,"is_reserved":false,"is_disabled":false,"rental_uris":{"android":"levelo://app?vid=4174e0c9-ea8a-45cf-832b-944eca7da095","ios":"levelo://app?vid=4174e0c9-ea8a-45cf-832b-944eca7da095"},"vehicle_type_id":"4","last_reported":1727392167,"current_range_meters":22400,"station_id":"ce4bhe12rcd13ifvqf30","pricing_plan_id":"cebpf4jnsgd1na2vs0mg"},{"bike_id":"7e12381e-5ae6-424d-b9d9-20479730deef","system_id":"levelo_inurba_marseille","lat":43.28714,"lon":5.39987,"is_reserved":false,"is_disabled":false,"rental_uris":{"android":"levelo://app?vid=7e12381e-5ae6-424d-b9d9-20479730deef","ios":"levelo://app?vid=7e12381e-5ae6-424d-b9d9-20479730deef"},"vehicle_type_id":"4","last_reported":1727392167,"current_range_meters":8400,"station_id":"ce4bho92rcd13ifvqh3g","pricing_plan_id":"cebpf4jnsgd1na2vs0mg"},{"bike_id":"391c26fb-8f89-4bb8-a145-0f46fdb981f0","system_id":"levelo_inurba_marseille","lat":43.31695,"lon":5.43718,"is_reserved":false,"is_disabled":false,"rental_uris":{"android":"levelo://app?vid=391c26fb-8f89-4bb8-a145-0f46fdb981f0","ios":"levelo://app?vid=391c26fb-8f89-4bb8-a145-0f46fdb981f0"},"vehicle_type_id":"4","last_reported":1727392167,"current_range_meters":38400,"station_id":"ce4bhp92rcd13ifvqhcg","pricing_plan_id":"cebpf4jnsgd1na2vs0mg"},{"bike_id":"4becf616-ffb5-4b8e-9490-96a7c2e41387","system_id":"levelo_inurba_marseille","lat":43.28418,"lon":5.37514,"is_reserved":false,"is_disabled":false,"rental_uris":{"android":"levelo://app?vid=4becf616-ffb5-4b8e-9490-96a7c2e41387","ios":"levelo://app?vid=4becf616-ffb5-4b8e-9490-96a7c2e41387"},"vehicle_type_id":"4","last_reported":1727392167,"current_range_meters":7200,"station_id":"ce4bh412rcd13ifvqds0","pricing_plan_id":"cebpf4jnsgd1na2vs0mg"},{"bike_id":"a7101314-400f-45e8-94e6-f7093270a1e0","system_id":"levelo_inurba_marseille","lat":43.31531,"lon":5.38034,"is_reserved":false,"is_disabled":false,"rental_uris":{"android":"levelo://app?vid=a7101314-400f-45e8-94e6-f7093270a1e0","ios":"levelo://app?vid=a7101314-400f-45e8-94e6-f7093270a1e0"},"vehicle_type_id":"4","last_reported":1727392167,"current_range_meters":28800,"station_id":"ce4bhsp2rcd13ifvqi50","pricing_plan_id":"cebpf4jnsgd1na2vs0mg"},{"bike_id":"fd512eb4-5978-476b-856d-3199680a82b6","system_id":"levelo_inurba_marseille","lat":43.23155,"lon":5.43699,"is_reserved":false,"is_disabled":false,"rental_uris":{"android":"levelo://app?vid=fd512eb4-5978-476b-856d-3199680a82b6","ios":"levelo://app?vid=fd512eb4-5978-476b-856d-3199680a82b6"},"vehicle_type_id":"4","last_reported":1727392167,"current_range_meters":22400,"station_id":"ce4bhmp2rcd13ifvqgog","pricing_plan_id":"cebpf4jnsgd1na2vs0mg"},{"bike_id":"46270c5b-bf10-4a86-957d-7774508f30c6","system_id":"levelo_inurba_marseille","lat":43.28106,"lon":5.3784,"is_reserved":false,"is_disabled":false,"rental_uris":{"android":"levelo://app?vid=46270c5b-bf10-4a86-957d-7774508f30c6","ios":"levelo://app?vid=46270c5b-bf10-4a86-957d-7774508f30c6"},"vehicle_type_id":"4","last_reported":1727392167,"current_range_meters":40000,"station_id":"ce4bha12rcd13ifvqee0","pricing_plan_id":"cebpf4jnsgd1na2vs0mg"},{"bike_id":"c419f4e8-fc0c-4376-be4e-721093a43fae","system_id":"levelo_inurba_marseille","lat":43.28716,"lon":5.37397,"is_reserved":false,"is_disabled":false,"rental_uris":{"android":"levelo://app?vid=c419f4e8-fc0c-4376-be4e-721093a43fae","ios":"levelo://app?vid=c419f4e8-fc0c-4376-be4e-721093a43fae"},"vehicle_type_id":"4","last_reported":1727392167,"current_range_meters":10000,"station_id":"ce4bh3p2rcd13ifvqdq0","pricing_plan_id":"cebpf4jnsgd1na2vs0mg"},{"bike_id":"54349784-eb4a-488f-a187-17d76f2f8837","system_id":"levelo_inurba_marseille","lat":43.34142,"lon":5.40907,"is_reserved":false,"is_disabled":false,"rental_uris":{"android":"levelo://app?vid=54349784-eb4a-488f-a187-17d76f2f8837","ios":"levelo://app?vid=54349784-eb4a-488f-a187-17d76f2f8837"},"vehicle_type_id":"4","last_reported":1727392167,"current_range_meters":19200,"station_id":"ce4bhqh2rcd13ifvqhlg","pricing_plan_id":"cebpf4jnsgd1na2vs0mg"},{"bike_id":"b8613475-ab42-4919-930b-aac63ef0d827","system_id":"levelo_inurba_marseille","lat":43.28354,"lon":5.38628,"is_reserved":false,"is_disabled":false,"rental_uris":{"android":"levelo://app?vid=b8613475-ab42-4919-930b-aac63ef0d827","ios":"levelo://app?vid=b8613475-ab42-4919-930b-aac63ef0d827"},"vehicle_type_id":"4","last_reported":1727392167,"current_range_meters":30400,"station_id":"ce4bh492rcd13ifvqdvg","pricing_plan_id":"cebpf4jnsgd1na2vs0mg"},{"bike_id":"e721f749-3932-4551-8ebf-503ea1026350","system_id":"levelo_inurba_marseille","lat":43.24183,"lon":5.3971,"is_reserved":false,"is_disabled":false,"rental_uris":{"android":"levelo://app?vid=e721f749-3932-4551-8ebf-503ea1026350","ios":"levelo://app?vid=e721f749-3932-4551-8ebf-503ea1026350"},"vehicle_type_id":"4","last_reported":1727392167,"current_range_meters":20800,"station_id":"ce4bhn12rcd13ifvqgpg","pricing_plan_id":"cebpf4jnsgd1na2vs0mg"},{"bike_id":"e55311dc-47e5-4091-bcf9-a5388faa16d3","system_id":"levelo_inurba_marseille","lat":43.31534,"lon":5.38026,"is_reserved":false,"is_disabled":false,"rental_uris":{"android":"levelo://app?vid=e55311dc-47e5-4091-bcf9-a5388faa16d3","ios":"levelo://app?vid=e55311dc-47e5-4091-bcf9-a5388faa16d3"},"vehicle_type_id":"4","last_reported":1727392167,"current_range_meters":28800,"station_id":"ce4bhsp2rcd13ifvqi50","pricing_plan_id":"cebpf4jnsgd1na2vs0mg"},{"bike_id":"3a026c80-283a-4095-a04a-14aa22880b1b","system_id":"levelo_inurba_marseille","lat":43.2407,"lon":5.37766,"is_reserved":false,"is_disabled":false,"rental_uris":{"android":"levelo://app?vid=3a026c80-283a-4095-a04a-14aa22880b1b","ios":"levelo://app?vid=3a026c80-283a-4095-a04a-14aa22880b1b"},"vehicle_type_id":"4","last_reported":1727392167,"current_range_meters":8000,"station_id":"ce4bhnp2rcd13ifvqgvg","pricing_plan_id":"cebpf4jnsgd1na2vs0mg"},{"bike_id":"7c49b807-133c-46de-8193-d55c57d208f6","system_id":"levelo_inurba_marseille","lat":43.30324,"lon":5.40444,"is_reserved":false,"is_disabled":false,"rental_uris":{"android":"levelo://app?vid=7c49b807-133c-46de-8193-d55c57d208f6","ios":"levelo://app?vid=7c49b807-133c-46de-8193-d55c57d208f6"},"vehicle_type_id":"4","last_reported":1727392167,"current_range_meters":17600,"station_id":"ce4bh012rcd13ifvqd10","pricing_plan_id":"cebpf4jnsgd1na2vs0mg"},{"bike_id":"edb76f42-d00f-47eb-a777-e78dab3bfd44","system_id":"levelo_inurba_marseille","lat":43.308855,"lon":5.371905,"is_reserved":false,"is_disabled":false,"rental_uris":{"android":"levelo://app?vid=edb76f42-d00f-47eb-a777-e78dab3bfd44","ios":"levelo://app?vid=edb76f42-d00f-47eb-a777-e78dab3bfd44"},"vehicle_type_id":"4","last_reported":1727392167,"current_range_meters":9200,"station_id":"ce4bguh2rcd13ifvqckg","pricing_plan_id":"cebpf4jnsgd1na2vs0mg"},{"bike_id":"6742a56f-b00f-4647-900f-0dd33ba557da","system_id":"levelo_inurba_marseille","lat":43.30804,"lon":5.43522,"is_reserved":false,"is_disabled":false,"rental_uris":{"android":"levelo://app?vid=6742a56f-b00f-4647-900f-0dd33ba557da","ios":"levelo://app?vid=6742a56f-b00f-4647-900f-0dd33ba557da"},"vehicle_type_id":"4","last_reported":1727392167,"current_range_meters":34000,"station_id":"ce4bhph2rcd13ifvqheg","pricing_plan_id":"cebpf4jnsgd1na2vs0mg"},{"bike_id":"a47121cf-9f6a-4f6c-835a-d4d8feb73afd","system_id":"levelo_inurba_marseille","lat":43.28107,"lon":5.37841,"is_reserved":false,"is_disabled":false,"rental_uris":{"android":"levelo://app?vid=a47121cf-9f6a-4f6c-835a-d4d8feb73afd","ios":"levelo://app?vid=a47121cf-9f6a-4f6c-835a-d4d8feb73afd"},"vehicle_type_id":"4","last_reported":1727392167,"current_range_meters":8800,"station_id":"ce4bha12rcd13ifvqee0","pricing_plan_id":"cebpf4jnsgd1na2vs0mg"},{"bike_id":"5860d86a-5e03-4913-8798-da25baeb21be","system_id":"levelo_inurba_marseille","lat":43.27818,"lon":5.40715,"is_reserved":false,"is_disabled":false,"rental_uris":{"android":"levelo://app?vid=5860d86a-5e03-4913-8798-da25baeb21be","ios":"levelo://app?vid=5860d86a-5e03-4913-8798-da25baeb21be"},"vehicle_type_id":"4","last_reported":1727392167,"current_range_meters":36800,"station_id":"ce4bhnh2rcd13ifvqgtg","pricing_plan_id":"cebpf4jnsgd1na2vs0mg"},{"bike_id":"c68029b3-8e8e-442c-a338-c793845391a8","system_id":"levelo_inurba_marseille","lat":43.26024,"lon":5.37551,"is_reserved":false,"is_disabled":false,"rental_uris":{"android":"levelo://app?vid=c68029b3-8e8e-442c-a338-c793845391a8","ios":"levelo://app?vid=c68029b3-8e8e-442c-a338-c793845391a8"},"vehicle_type_id":"4","last_reported":1727392167,"current_range_meters":38800,"station_id":"ce4bhgh2rcd13ifvqfa0","pricing_plan_id":"cebpf4jnsgd1na2vs0mg"},{"bike_id":"86e04bfb-5740-4598-a5f4-2f230d6e0d0a","system_id":"levelo_inurba_marseille","lat":43.31029,"lon":5.3837,"is_reserved":false,"is_disabled":false,"rental_uris":{"android":"levelo://app?vid=86e04bfb-5740-4598-a5f4-2f230d6e0d0a","ios":"levelo://app?vid=86e04bfb-5740-4598-a5f4-2f230d6e0d0a"},"vehicle_type_id":"4","last_reported":1727392167,"current_range_meters":32800,"station_id":"","pricing_plan_id":"cebpf4jnsgd1na2vs0mg"},{"bike_id":"9b30eb6d-c46c-4191-83ea-eebaaa7b27fb","system_id":"levelo_inurba_marseille","lat":43.30563,"lon":5.36705,"is_reserved":false,"is_disabled":false,"rental_uris":{"android":"levelo://app?vid=9b30eb6d-c46c-4191-83ea-eebaaa7b27fb","ios":"levelo://app?vid=9b30eb6d-c46c-4191-83ea-eebaaa7b27fb"},"vehicle_type_id":"4","last_reported":1727392167,"current_range_meters":10000,"station_id":"ce4bgrp2rcd13ifvqc9g","pricing_plan_id":"cebpf4jnsgd1na2vs0mg"},{"bike_id":"5d6c707b-bd6b-4880-9f49-0c552ae705a6","system_id":"levelo_inurba_marseille","lat":43.28567,"lon":5.39493,"is_reserved":false,"is_disabled":false,"rental_uris":{"android":"levelo://app?vid=5d6c707b-bd6b-4880-9f49-0c552ae705a6","ios":"levelo://app?vid=5d6c707b-bd6b-4880-9f49-0c552ae705a6"},"vehicle_type_id":"4","last_reported":1727392167,"current_range_meters":35200,"station_id":"ce4bh292rcd13ifvqdg0","pricing_plan_id":"cebpf4jnsgd1na2vs0mg"},{"bike_id":"88520022-dcb9-470a-815c-397d3bbf4936","system_id":"levelo_inurba_marseille","lat":43.28095,"lon":5.37847,"is_reserved":false,"is_disabled":false,"rental_uris":{"android":"levelo://app?vid=88520022-dcb9-470a-815c-397d3bbf4936","ios":"levelo://app?vid=88520022-dcb9-470a-815c-397d3bbf4936"},"vehicle_type_id":"4","last_reported":1727392167,"current_range_meters":38800,"station_id":"ce4bha12rcd13ifvqee0","pricing_plan_id":"cebpf4jnsgd1na2vs0mg"},{"bike_id":"0b042d05-8224-4eaf-9d39-0ff97d2b5559","system_id":"levelo_inurba_marseille","lat":43.28153,"lon":5.4264,"is_reserved":false,"is_disabled":false,"rental_uris":{"android":"levelo://app?vid=0b042d05-8224-4eaf-9d39-0ff97d2b5559","ios":"levelo://app?vid=0b042d05-8224-4eaf-9d39-0ff97d2b5559"},"vehicle_type_id":"4","last_reported":1727392167,"current_range_meters":36400,"station_id":"ce4bhnh2rcd13ifvqgug","pricing_plan_id":"cebpf4jnsgd1na2vs0mg"},{"bike_id":"b7ae5eed-8594-44cc-a597-36d96f60e81d","system_id":"levelo_inurba_marseille","lat":43.26564,"lon":5.39016,"is_reserved":false,"is_disabled":false,"rental_uris":{"android":"levelo://app?vid=b7ae5eed-8594-44cc-a597-36d96f60e81d","ios":"levelo://app?vid=b7ae5eed-8594-44cc-a597-36d96f60e81d"},"vehicle_type_id":"4","last_reported":1727392167,"current_range_meters":38800,"station_id":"ce4bhe12rcd13ifvqf30","pricing_plan_id":"cebpf4jnsgd1na2vs0mg"},{"bike_id":"118796cc-b9be-4e06-8489-73358f22a0a7","system_id":"levelo_inurba_marseille","lat":43.30807,"lon":5.38151,"is_reserved":false,"is_disabled":false,"rental_uris":{"android":"levelo://app?vid=118796cc-b9be-4e06-8489-73358f22a0a7","ios":"levelo://app?vid=118796cc-b9be-4e06-8489-73358f22a0a7"},"vehicle_type_id":"4","last_reported":1727392167,"current_range_meters":17200,"station_id":"ce4bgt12rcd13ifvqce0","pricing_plan_id":"cebpf4jnsgd1na2vs0mg"},{"bike_id":"1a8cbed4-128b-4a29-ba95-08db7784e51f","system_id":"levelo_inurba_marseille","lat":43.25825,"lon":5.3943,"is_reserved":false,"is_disabled":false,"rental_uris":{"android":"levelo://app?vid=1a8cbed4-128b-4a29-ba95-08db7784e51f","ios":"levelo://app?vid=1a8cbed4-128b-4a29-ba95-08db7784e51f"},"vehicle_type_id":"4","last_reported":1727392167,"current_range_meters":40000,"station_id":"ce4bhip2rcd13ifvqft0","pricing_plan_id":"cebpf4jnsgd1na2vs0mg"},{"bike_id":"9df4b13e-edc1-4527-9153-f80199c80c6e","system_id":"levelo_inurba_marseille","lat":43.31173,"lon":5.38716,"is_reserved":false,"is_disabled":false,"rental_uris":{"android":"levelo://app?vid=9df4b13e-edc1-4527-9153-f80199c80c6e","ios":"levelo://app?vid=9df4b13e-edc1-4527-9153-f80199c80c6e"},"vehicle_type_id":"4","last_reported":1727392167,"current_range_meters":34000,"station_id":"ce4bgv12rcd13ifvqcp0","pricing_plan_id":"cebpf4jnsgd1na2vs0mg"},{"bike_id":"206065cd-f2bc-4581-9165-41fd1d2afaf9","system_id":"levelo_inurba_marseille","lat":43.30307,"lon":5.39209,"is_reserved":false,"is_disabled":false,"rental_uris":{"android":"levelo://app?vid=206065cd-f2bc-4581-9165-41fd1d2afaf9","ios":"levelo://app?vid=206065cd-f2bc-4581-9165-41fd1d2afaf9"},"vehicle_type_id":"4","last_reported":1727392167,"current_range_meters":24400,"station_id":"ce4bgkh2rcd13ifvqbk0","pricing_plan_id":"cebpf4jnsgd1na2vs0mg"},{"bike_id":"7a221aff-a308-4e51-bd6c-3606a6928c42","system_id":"levelo_inurba_marseille","lat":43.28486,"lon":5.38972,"is_reserved":false,"is_disabled":false,"rental_uris":{"android":"levelo://app?vid=7a221aff-a308-4e51-bd6c-3606a6928c42","ios":"levelo://app?vid=7a221aff-a308-4e51-bd6c-3606a6928c42"},"vehicle_type_id":"4","last_reported":1727392167,"current_range_meters":38800,"station_id":"","pricing_plan_id":"cebpf4jnsgd1na2vs0mg"},{"bike_id":"d8707b5f-2ab7-4a5f-9c38-c4b81dc2285c","system_id":"levelo_inurba_marseille","lat":43.31067,"lon":5.38355,"is_reserved":false,"is_disabled":false,"rental_uris":{"android":"levelo://app?vid=d8707b5f-2ab7-4a5f-9c38-c4b81dc2285c","ios":"levelo://app?vid=d8707b5f-2ab7-4a5f-9c38-c4b81dc2285c"},"vehicle_type_id":"4","last_reported":1727392167,"current_range_meters":7200,"station_id":"ce4bgv92rcd13ifvqcr0","pricing_plan_id":"cebpf4jnsgd1na2vs0mg"},{"bike_id":"e17e3ba9-1bd3-4f83-adbc-5dc83a153375","system_id":"levelo_inurba_marseille","lat":43.31995,"lon":5.3815,"is_reserved":false,"is_disabled":false,"rental_uris":{"android":"levelo://app?vid=e17e3ba9-1bd3-4f83-adbc-5dc83a153375","ios":"levelo://app?vid=e17e3ba9-1bd3-4f83-adbc-5dc83a153375"},"vehicle_type_id":"4","last_reported":1727392167,"current_range_meters":8000,"station_id":"ce4bhr12rcd13ifvqhpg","pricing_plan_id":"cebpf4jnsgd1na2vs0mg"},{"bike_id":"35ea8c68-3337-46ca-b3e6-aa61667870c7","system_id":"levelo_inurba_marseille","lat":43.2808,"lon":5.39643,"is_reserved":false,"is_disabled":false,"rental_uris":{"android":"levelo://app?vid=35ea8c68-3337-46ca-b3e6-aa61667870c7","ios":"levelo://app?vid=35ea8c68-3337-46ca-b3e6-aa61667870c7"},"vehicle_type_id":"4","last_reported":1727392167,"current_range_meters":30800,"station_id":"ce4bho12rcd13ifvqh2g","pricing_plan_id":"cebpf4jnsgd1na2vs0mg"},{"bike_id":"31dbeb47-85f1-4375-9678-a2e9f8eaa1d8","system_id":"levelo_inurba_marseille","lat":43.30207,"lon":5.3947,"is_reserved":false,"is_disabled":false,"rental_uris":{"android":"levelo://app?vid=31dbeb47-85f1-4375-9678-a2e9f8eaa1d8","ios":"levelo://app?vid=31dbeb47-85f1-4375-9678-a2e9f8eaa1d8"},"vehicle_type_id":"4","last_reported":1727392167,"current_range_meters":28800,"station_id":"ce4bh0p2rcd13ifvqd70","pricing_plan_id":"cebpf4jnsgd1na2vs0mg"},{"bike_id":"8a5475e3-6fbf-4e9b-b650-accf3a939b49","system_id":"levelo_inurba_marseille","lat":43.32487,"lon":5.36576,"is_reserved":false,"is_disabled":false,"rental_uris":{"android":"levelo://app?vid=8a5475e3-6fbf-4e9b-b650-accf3a939b49","ios":"levelo://app?vid=8a5475e3-6fbf-4e9b-b650-accf3a939b49"},"vehicle_type_id":"4","last_reported":1727392167,"current_range_meters":39200,"station_id":"ce4bhs12rcd13ifvqhvg","pricing_plan_id":"cebpf4jnsgd1na2vs0mg"},{"bike_id":"c2e5a81e-6912-4cb0-98ad-5f3df477fa43","system_id":"levelo_inurba_marseille","lat":43.28996,"lon":5.37585,"is_reserved":false,"is_disabled":false,"rental_uris":{"android":"levelo://app?vid=c2e5a81e-6912-4cb0-98ad-5f3df477fa43","ios":"levelo://app?vid=c2e5a81e-6912-4cb0-98ad-5f3df477fa43"},"vehicle_type_id":"4","last_reported":1727392167,"current_range_meters":36400,"station_id":"ce4bh692rcd13ifvqe90","pricing_plan_id":"cebpf4jnsgd1na2vs0mg"},{"bike_id":"cf517e91-9fba-4889-840d-85b4c7dbf3fd","system_id":"levelo_inurba_marseille","lat":43.24078,"lon":5.37754,"is_reserved":false,"is_disabled":false,"rental_uris":{"android":"levelo://app?vid=cf517e91-9fba-4889-840d-85b4c7dbf3fd","ios":"levelo://app?vid=cf517e91-9fba-4889-840d-85b4c7dbf3fd"},"vehicle_type_id":"4","last_reported":1727392167,"current_range_meters":10000,"station_id":"ce4bhnp2rcd13ifvqgvg","pricing_plan_id":"cebpf4jnsgd1na2vs0mg"},{"bike_id":"44122a11-75f3-4cdc-963e-84d402244a46","system_id":"levelo_inurba_marseille","lat":43.23959,"lon":5.36646,"is_reserved":false,"is_disabled":false,"rental_uris":{"android":"levelo://app?vid=44122a11-75f3-4cdc-963e-84d402244a46","ios":"levelo://app?vid=44122a11-75f3-4cdc-963e-84d402244a46"},"vehicle_type_id":"4","last_reported":1727392167,"current_range_meters":38800,"station_id":"ce4bhi12rcd13ifvqfp0","pricing_plan_id":"cebpf4jnsgd1na2vs0mg"},{"bike_id":"1daaf868-b8ed-4c30-997c-c8d1dc38ef9d","system_id":"levelo_inurba_marseille","lat":43.29578,"lon":5.39982,"is_reserved":false,"is_disabled":false,"rental_uris":{"android":"levelo://app?vid=1daaf868-b8ed-4c30-997c-c8d1dc38ef9d","ios":"levelo://app?vid=1daaf868-b8ed-4c30-997c-c8d1dc38ef9d"},"vehicle_type_id":"4","last_reported":1727392167,"current_range_meters":20000,"station_id":"ce4bh312rcd13ifvqdj0","pricing_plan_id":"cebpf4jnsgd1na2vs0mg"},{"bike_id":"a45a2e03-48a0-4487-8544-c2be266946db","system_id":"levelo_inurba_marseille","lat":43.30426,"lon":5.39751,"is_reserved":false,"is_disabled":false,"rental_uris":{"android":"levelo://app?vid=a45a2e03-48a0-4487-8544-c2be266946db","ios":"levelo://app?vid=a45a2e03-48a0-4487-8544-c2be266946db"},"vehicle_type_id":"4","last_reported":1727392167,"current_range_meters":40000,"station_id":"ce4bh092rcd13ifvqd20","pricing_plan_id":"cebpf4jnsgd1na2vs0mg"},{"bike_id":"a1f2fd41-bf77-4520-b2b5-7d96426261f7","system_id":"levelo_inurba_marseille","lat":43.28412,"lon":5.3751,"is_reserved":false,"is_disabled":false,"rental_uris":{"android":"levelo://app?vid=a1f2fd41-bf77-4520-b2b5-7d96426261f7","ios":"levelo://app?vid=a1f2fd41-bf77-4520-b2b5-7d96426261f7"},"vehicle_type_id":"4","last_reported":1727392167,"current_range_meters":14000,"station_id":"ce4bh412rcd13ifvqds0","pricing_plan_id":"cebpf4jnsgd1na2vs0mg"},{"bike_id":"0a98e96f-92f5-4142-82cf-ec5de4ce169c","system_id":"levelo_inurba_marseille","lat":43.284434,"lon":5.39175,"is_reserved":false,"is_disabled":false,"rental_uris":{"android":"levelo://app?vid=0a98e96f-92f5-4142-82cf-ec5de4ce169c","ios":"levelo://app?vid=0a98e96f-92f5-4142-82cf-ec5de4ce169c"},"vehicle_type_id":"4","last_reported":1727392167,"current_range_meters":26800,"station_id":"ce4bhoh2rcd13ifvqh5g","pricing_plan_id":"cebpf4jnsgd1na2vs0mg"},{"bike_id":"beb2b48a-7c60-4faf-a8ab-ab0546d0ef67","system_id":"levelo_inurba_marseille","lat":43.3176,"lon":5.39015,"is_reserved":false,"is_disabled":false,"rental_uris":{"android":"levelo://app?vid=beb2b48a-7c60-4faf-a8ab-ab0546d0ef67","ios":"levelo://app?vid=beb2b48a-7c60-4faf-a8ab-ab0546d0ef67"},"vehicle_type_id":"4","last_reported":1727392167,"current_range_meters":38800,"station_id":"ce4bhqp2rcd13ifvqhng","pricing_plan_id":"cebpf4jnsgd1na2vs0mg"},{"bike_id":"bf2d05c7-e426-428a-9deb-d9f9e1c3ffe4","system_id":"levelo_inurba_marseille","lat":43.30804,"lon":5.43519,"is_reserved":false,"is_disabled":false,"rental_uris":{"android":"levelo://app?vid=bf2d05c7-e426-428a-9deb-d9f9e1c3ffe4","ios":"levelo://app?vid=bf2d05c7-e426-428a-9deb-d9f9e1c3ffe4"},"vehicle_type_id":"4","last_reported":1727392167,"current_range_meters":7200,"station_id":"ce4bhph2rcd13ifvqheg","pricing_plan_id":"cebpf4jnsgd1na2vs0mg"},{"bike_id":"e68f2da7-da03-4d5a-812e-a4d0efdc0c84","system_id":"levelo_inurba_marseille","lat":43.30603,"lon":5.37246,"is_reserved":false,"is_disabled":false,"rental_uris":{"android":"levelo://app?vid=e68f2da7-da03-4d5a-812e-a4d0efdc0c84","ios":"levelo://app?vid=e68f2da7-da03-4d5a-812e-a4d0efdc0c84"},"vehicle_type_id":"4","last_reported":1727392167,"current_range_meters":38800,"station_id":"ce4bgqh2rcd13ifvqc4g","pricing_plan_id":"cebpf4jnsgd1na2vs0mg"},{"bike_id":"8c5dbd6a-cc9d-4021-b132-d5751493cf55","system_id":"levelo_inurba_marseille","lat":43.28032,"lon":5.36947,"is_reserved":false,"is_disabled":false,"rental_uris":{"android":"levelo://app?vid=8c5dbd6a-cc9d-4021-b132-d5751493cf55","ios":"levelo://app?vid=8c5dbd6a-cc9d-4021-b132-d5751493cf55"},"vehicle_type_id":"4","last_reported":1727392167,"current_range_meters":39200,"station_id":"ce4bha12rcd13ifvqef0","pricing_plan_id":"cebpf4jnsgd1na2vs0mg"},{"bike_id":"d89a6b44-b264-4a99-8b3c-f07b95bc3cb9","system_id":"levelo_inurba_marseille","lat":43.32292,"lon":5.3827,"is_reserved":false,"is_disabled":false,"rental_uris":{"android":"levelo://app?vid=d89a6b44-b264-4a99-8b3c-f07b95bc3cb9","ios":"levelo://app?vid=d89a6b44-b264-4a99-8b3c-f07b95bc3cb9"},"vehicle_type_id":"4","last_reported":1727392167,"current_range_meters":38400,"station_id":"ce4bhr12rcd13ifvqhqg","pricing_plan_id":"cebpf4jnsgd1na2vs0mg"},{"bike_id":"ccbf4dda-e8ab-4695-a815-d3de1ad7009b","system_id":"levelo_inurba_marseille","lat":43.28413,"lon":5.37517,"is_reserved":false,"is_disabled":false,"rental_uris":{"android":"levelo://app?vid=ccbf4dda-e8ab-4695-a815-d3de1ad7009b","ios":"levelo://app?vid=ccbf4dda-e8ab-4695-a815-d3de1ad7009b"},"vehicle_type_id":"4","last_reported":1727392167,"current_range_meters":32800,"station_id":"ce4bh412rcd13ifvqds0","pricing_plan_id":"cebpf4jnsgd1na2vs0mg"},{"bike_id":"e503320e-697a-49f9-8db6-9bc04b410d8f","system_id":"levelo_inurba_marseille","lat":43.3188,"lon":5.407303,"is_reserved":false,"is_disabled":false,"rental_uris":{"android":"levelo://app?vid=e503320e-697a-49f9-8db6-9bc04b410d8f","ios":"levelo://app?vid=e503320e-697a-49f9-8db6-9bc04b410d8f"},"vehicle_type_id":"4","last_reported":1727392167,"current_range_meters":6400,"station_id":"ce4bhq12rcd13ifvqhig","pricing_plan_id":"cebpf4jnsgd1na2vs0mg"},{"bike_id":"2dafac05-c936-4754-8ca3-ed8b5d545726","system_id":"levelo_inurba_marseille","lat":43.29764,"lon":5.40071,"is_reserved":false,"is_disabled":false,"rental_uris":{"android":"levelo://app?vid=2dafac05-c936-4754-8ca3-ed8b5d545726","ios":"levelo://app?vid=2dafac05-c936-4754-8ca3-ed8b5d545726"},"vehicle_type_id":"4","last_reported":1727392167,"current_range_meters":33600,"station_id":"ce4bgg92rcd13ifvqb30","pricing_plan_id":"cebpf4jnsgd1na2vs0mg"},{"bike_id":"337d4fb1-3d06-4aa3-8aec-deb266941d7b","system_id":"levelo_inurba_marseille","lat":43.24669,"lon":5.38163,"is_reserved":false,"is_disabled":false,"rental_uris":{"android":"levelo://app?vid=337d4fb1-3d06-4aa3-8aec-deb266941d7b","ios":"levelo://app?vid=337d4fb1-3d06-4aa3-8aec-deb266941d7b"},"vehicle_type_id":"4","last_reported":1727392167,"current_range_meters":34800,"station_id":"ce4bhih2rcd13ifvqfr0","pricing_plan_id":"cebpf4jnsgd1na2vs0mg"},{"bike_id":"1dd1232a-b83e-4382-b557-c7961002ab89","system_id":"levelo_inurba_marseille","lat":43.23181,"lon":5.39984,"is_reserved":false,"is_disabled":false,"rental_uris":{"android":"levelo://app?vid=1dd1232a-b83e-4382-b557-c7961002ab89","ios":"levelo://app?vid=1dd1232a-b83e-4382-b557-c7961002ab89"},"vehicle_type_id":"4","last_reported":1727392167,"current_range_meters":39200,"station_id":"ce4bhn12rcd13ifvqgqg","pricing_plan_id":"cebpf4jnsgd1na2vs0mg"},{"bike_id":"a7bca3df-0344-4204-86d7-b742d4769839","system_id":"levelo_inurba_marseille","lat":43.30863,"lon":5.3685,"is_reserved":false,"is_disabled":false,"rental_uris":{"android":"levelo://app?vid=a7bca3df-0344-4204-86d7-b742d4769839","ios":"levelo://app?vid=a7bca3df-0344-4204-86d7-b742d4769839"},"vehicle_type_id":"4","last_reported":1727392167,"current_range_meters":19600,"station_id":"ce4bgn92rcd13ifvqbvg","pricing_plan_id":"cebpf4jnsgd1na2vs0mg"},{"bike_id":"59562d14-07be-4307-84a6-cd5c5d2a9187","system_id":"levelo_inurba_marseille","lat":43.32542,"lon":5.4145,"is_reserved":false,"is_disabled":false,"rental_uris":{"android":"levelo://app?vid=59562d14-07be-4307-84a6-cd5c5d2a9187","ios":"levelo://app?vid=59562d14-07be-4307-84a6-cd5c5d2a9187"},"vehicle_type_id":"4","last_reported":1727392167,"current_range_meters":37600,"station_id":"ce4bhq12rcd13ifvqhhg","pricing_plan_id":"cebpf4jnsgd1na2vs0mg"},{"bike_id":"189a8e17-dc06-4f85-bbde-5afa18abad81","system_id":"levelo_inurba_marseille","lat":43.31746,"lon":5.39022,"is_reserved":false,"is_disabled":false,"rental_uris":{"android":"levelo://app?vid=189a8e17-dc06-4f85-bbde-5afa18abad81","ios":"levelo://app?vid=189a8e17-dc06-4f85-bbde-5afa18abad81"},"vehicle_type_id":"4","last_reported":1727392167,"current_range_meters":8000,"station_id":"ce4bhqp2rcd13ifvqhng","pricing_plan_id":"cebpf4jnsgd1na2vs0mg"},{"bike_id":"2039ebfa-68b5-41b7-8b50-a4c5349e5d67","system_id":"levelo_inurba_marseille","lat":43.30593,"lon":5.39358,"is_reserved":false,"is_disabled":false,"rental_uris":{"android":"levelo://app?vid=2039ebfa-68b5-41b7-8b50-a4c5349e5d67","ios":"levelo://app?vid=2039ebfa-68b5-41b7-8b50-a4c5349e5d67"},"vehicle_type_id":"4","last_reported":1727392167,"current_range_meters":8400,"station_id":"ce4bh0p2rcd13ifvqd80","pricing_plan_id":"cebpf4jnsgd1na2vs0mg"},{"bike_id":"f02957f0-eeef-4f62-a0e4-a22ac891c4e6","system_id":"levelo_inurba_marseille","lat":43.29206,"lon":5.39318,"is_reserved":false,"is_disabled":false,"rental_uris":{"android":"levelo://app?vid=f02957f0-eeef-4f62-a0e4-a22ac891c4e6","ios":"levelo://app?vid=f02957f0-eeef-4f62-a0e4-a22ac891c4e6"},"vehicle_type_id":"4","last_reported":1727392167,"current_range_meters":18800,"station_id":"ce4bh192rcd13ifvqdd0","pricing_plan_id":"cebpf4jnsgd1na2vs0mg"},{"bike_id":"cd993e98-ab1d-49b3-a81f-d12b73e5d532","system_id":"levelo_inurba_marseille","lat":43.26199,"lon":5.37931,"is_reserved":false,"is_disabled":false,"rental_uris":{"android":"levelo://app?vid=cd993e98-ab1d-49b3-a81f-d12b73e5d532","ios":"levelo://app?vid=cd993e98-ab1d-49b3-a81f-d12b73e5d532"},"vehicle_type_id":"4","last_reported":1727392167,"current_range_meters":38000,"station_id":"ce4bhjp2rcd13ifvqg90","pricing_plan_id":"cebpf4jnsgd1na2vs0mg"},{"bike_id":"2da9d695-9595-4ffd-a86f-1608e72a7cbb","system_id":"levelo_inurba_marseille","lat":43.2784,"lon":5.39207,"is_reserved":false,"is_disabled":false,"rental_uris":{"android":"levelo://app?vid=2da9d695-9595-4ffd-a86f-1608e72a7cbb","ios":"levelo://app?vid=2da9d695-9595-4ffd-a86f-1608e72a7cbb"},"vehicle_type_id":"4","last_reported":1727392167,"current_range_meters":10800,"station_id":"ce4bhjp2rcd13ifvqga0","pricing_plan_id":"cebpf4jnsgd1na2vs0mg"},{"bike_id":"a6addce0-6b53-4ddf-bf9c-d50a96dd9e51","system_id":"levelo_inurba_marseille","lat":43.22936,"lon":5.35379,"is_reserved":false,"is_disabled":false,"rental_uris":{"android":"levelo://app?vid=a6addce0-6b53-4ddf-bf9c-d50a96dd9e51","ios":"levelo://app?vid=a6addce0-6b53-4ddf-bf9c-d50a96dd9e51"},"vehicle_type_id":"4","last_reported":1727392167,"current_range_meters":6000,"station_id":"cpo3532slgdg3j2ikp40","pricing_plan_id":"cebpf4jnsgd1na2vs0mg"},{"bike_id":"1709b1ed-1e83-46f9-a60f-74fcab1fed1a","system_id":"levelo_inurba_marseille","lat":43.2466,"lon":5.38164,"is_reserved":false,"is_disabled":false,"rental_uris":{"android":"levelo://app?vid=1709b1ed-1e83-46f9-a60f-74fcab1fed1a","ios":"levelo://app?vid=1709b1ed-1e83-46f9-a60f-74fcab1fed1a"},"vehicle_type_id":"4","last_reported":1727392167,"current_range_meters":36400,"station_id":"ce4bhih2rcd13ifvqfr0","pricing_plan_id":"cebpf4jnsgd1na2vs0mg"},{"bike_id":"112ef874-1474-4832-b11d-72db677e78d2","system_id":"levelo_inurba_marseille","lat":43.28467,"lon":5.358823,"is_reserved":false,"is_disabled":false,"rental_uris":{"android":"levelo://app?vid=112ef874-1474-4832-b11d-72db677e78d2","ios":"levelo://app?vid=112ef874-1474-4832-b11d-72db677e78d2"},"vehicle_type_id":"4","last_reported":1727392167,"current_range_meters":17200,"station_id":"ce4bhah2rcd13ifvqei0","pricing_plan_id":"cebpf4jnsgd1na2vs0mg"},{"bike_id":"bbc00e19-a1bd-4c6d-9f1b-b91795b34296","system_id":"levelo_inurba_marseille","lat":43.30958,"lon":5.39053,"is_reserved":false,"is_disabled":false,"rental_uris":{"android":"levelo://app?vid=bbc00e19-a1bd-4c6d-9f1b-b91795b34296","ios":"levelo://app?vid=bbc00e19-a1bd-4c6d-9f1b-b91795b34296"},"vehicle_type_id":"4","last_reported":1727392167,"current_range_meters":37600,"station_id":"ce4bgup2rcd13ifvqco0","pricing_plan_id":"cebpf4jnsgd1na2vs0mg"},{"bike_id":"1e513202-f1f0-4b65-b9b2-d9ec1f7345c1","system_id":"levelo_inurba_marseille","lat":43.30426,"lon":5.41285,"is_reserved":false,"is_disabled":false,"rental_uris":{"android":"levelo://app?vid=1e513202-f1f0-4b65-b9b2-d9ec1f7345c1","ios":"levelo://app?vid=1e513202-f1f0-4b65-b9b2-d9ec1f7345c1"},"vehicle_type_id":"4","last_reported":1727392167,"current_range_meters":16400,"station_id":"ce4bhop2rcd13ifvqh8g","pricing_plan_id":"cebpf4jnsgd1na2vs0mg"},{"bike_id":"aaf9fb7b-167a-4345-b4ab-20119663c2f5","system_id":"levelo_inurba_marseille","lat":43.28947,"lon":5.36407,"is_reserved":false,"is_disabled":false,"rental_uris":{"android":"levelo://app?vid=aaf9fb7b-167a-4345-b4ab-20119663c2f5","ios":"levelo://app?vid=aaf9fb7b-167a-4345-b4ab-20119663c2f5"},"vehicle_type_id":"4","last_reported":1727392167,"current_range_meters":19600,"station_id":"ce4bhc92rcd13ifvqetg","pricing_plan_id":"cebpf4jnsgd1na2vs0mg"},{"bike_id":"b579a388-2549-4697-b285-92a678173be6","system_id":"levelo_inurba_marseille","lat":43.32288,"lon":5.38268,"is_reserved":false,"is_disabled":false,"rental_uris":{"android":"levelo://app?vid=b579a388-2549-4697-b285-92a678173be6","ios":"levelo://app?vid=b579a388-2549-4697-b285-92a678173be6"},"vehicle_type_id":"4","last_reported":1727392167,"current_range_meters":36800,"station_id":"ce4bhr12rcd13ifvqhqg","pricing_plan_id":"cebpf4jnsgd1na2vs0mg"},{"bike_id":"4a4bfd88-bdfc-4802-b3a8-e798e4274727","system_id":"levelo_inurba_marseille","lat":43.32288,"lon":5.38263,"is_reserved":false,"is_disabled":false,"rental_uris":{"android":"levelo://app?vid=4a4bfd88-bdfc-4802-b3a8-e798e4274727","ios":"levelo://app?vid=4a4bfd88-bdfc-4802-b3a8-e798e4274727"},"vehicle_type_id":"4","last_reported":1727392167,"current_range_meters":22000,"station_id":"ce4bhr12rcd13ifvqhqg","pricing_plan_id":"cebpf4jnsgd1na2vs0mg"},{"bike_id":"337baa64-64d0-43be-bb1f-9de884aa6d42","system_id":"levelo_inurba_marseille","lat":43.289346,"lon":5.363968,"is_reserved":false,"is_disabled":false,"rental_uris":{"android":"levelo://app?vid=337baa64-64d0-43be-bb1f-9de884aa6d42","ios":"levelo://app?vid=337baa64-64d0-43be-bb1f-9de884aa6d42"},"vehicle_type_id":"4","last_reported":1727392167,"current_range_meters":18000,"station_id":"ce4bhc92rcd13ifvqetg","pricing_plan_id":"cebpf4jnsgd1na2vs0mg"},