{"last_updated":1737544045,"ttl":60,"version":"2.2","data":{"bikes":[{"bike_id":"de2f4539-ccf4-4eb6-9b90-2fbe44b32730","system_id":"levelo_inurba_marseille","lat":43.2832,"lon":5.39297,"is_reserved":false,"is_disabled":false,"rental_uris":{"android":"levelo://app?vid=de2f4539-ccf4-4eb6-9b90-2fbe44b32730","ios":"levelo://app?vid=de2f4539-ccf4-4eb6-9b90-2fbe44b32730"},"vehicle_type_id":"4","last_reported":1737544045,"current_range_meters":12000,"station_id":"","pricing_plan_id":"cebpf4jnsgd1na2vs0mg"},{"bike_id":"01754a8b-4ec8-4114-9fa3-f7b8591d39b2","system_id":"levelo_inurba_marseille","lat":43.317,"lon":5.40434,"is_reserved":false,"is_disabled":false,"rental_uris":{"android":"levelo://app?vid=01754a8b-4ec8-4114-9fa3-f7b8591d39b2","ios":"levelo://app?vid=01754a8b-4ec8-4114-9fa3-f7b8591d39b2"},"vehicle_type_id":"4","last_reported":1737544045,"current_range_meters":27600,"station_id":"ce4bh012rcd13ifvqd00","pricing_plan_id":"cebpf4jnsgd1na2vs0mg"},{"bike_id":"18323fd3-f826-4341-bdcf-16d7892d33f9","system_id":"levelo_inurba_marseille","lat":43.30472,"lon":5.37916,"is_reserved":false,"is_disabled":false,"rental_uris":{"android":"levelo://app?vid=18323fd3-f826-4341-bdcf-16d7892d33f9","ios":"levelo://app?vid=18323fd3-f826-4341-bdcf-16d7892d33f9"},"vehicle_type_id":"4","last_reported":1737544045,"current_range_meters":27200,"station_id":"ce4bgup2rcd13ifvqcn0","pricing_plan_id":"cebpf4jnsgd1na2vs0mg"},{"bike_id":"4648191a-6551-49c1-b138-6279dbb5ad85","system_id":"levelo_inurba_marseille","lat":43.28713,"lon":5.39994,"is_reserved":false,"is_disabled":false,"rental_uris":{"android":"levelo://app?vid=4648191a-6551-49c1-b138-6279dbb5ad85","ios":"levelo://app?vid=4648191a-6551-49c1-b138-6279dbb5ad85"},"vehicle_type_id":"4","last_reported":1737544045,"current_range_meters":30000,"station_id":"ce4bho92rcd13ifvqh3g","pricing_plan_id":"cebpf4jnsgd1na2vs0mg"},{"bike_id":"a4fa50ac-f498-48af-a472-624159680442","system_id":"levelo_inurba_marseille","lat":43.27377,"lon":5.36273,"is_reserved":false,"is_disabled":false,"rental_uris":{"android":"levelo://app?vid=a4fa50ac-f498-48af-a472-624159680442","ios":"levelo://app?vid=a4fa50ac-f498-48af-a472-624159680442"},"vehicle_type_id":"4","last_reported":1737544045,"current_range_meters":36400,"station_id":"ce4bhbh2rcd13ifvqeo0","pricing_plan_id":"cebpf4jnsgd1na2vs0mg"},{"bike_id":"afbb6a75-263d-49d4-b16e-cd98d5d09880","system_id":"levelo_inurba_marseille","lat":43.28641,"lon":5.35093,"is_reserved":false,"is_disabled":false,"rental_uris":{"android":"levelo://app?vid=afbb6a75-263d-49d4-b16e-cd98d5d09880","ios":"levelo://app?vid=afbb6a75-263d-49d4-b16e-cd98d5d09880"},"vehicle_type_id":"4","last_reported":1737544045,"current_range_meters":22400,"station_id":"ce4bhch2rcd13ifvqeug","pricing_plan_id":"cebpf4jnsgd1na2vs0mg"},{"bike_id":"2766a0b3-bb7b-41ad-b363-4f9b16eac008","system_id":"levelo_inurba_marseille","lat":43.303,"lon":5.37697,"is_reserved":false,"is_disabled":false,"rental_uris":{"android":"levelo://app?vid=2766a0b3-bb7b-41ad-b363-4f9b16eac008","ios":"levelo://app?vid=2766a0b3-bb7b-41ad-b363-4f9b16eac008"},"vehicle_type_id":"4","last_reported":1737544045,"current_range_meters":38000,"station_id":"ce4bguh2rcd13ifvqcj0","pricing_plan_id":"cebpf4jnsgd1na2vs0mg"},{"bike_id":"01ad0bc8-93a0-4402-91f7-595e9c4c5156","system_id":"levelo_inurba_marseille","lat":43.29043,"lon":5.37567,"is_reserved":false,"is_disabled":false,"rental_uris":{"android":"levelo://app?vid=01ad0bc8-93a0-4402-91f7-595e9c4c5156","ios":"levelo://app?vid=01ad0bc8-93a0-4402-91f7-595e9c4c5156"},"vehicle_type_id":"4","last_reported":1737544045,"current_range_meters":35200,"station_id":"ce4bh692rcd13ifvqe90","pricing_plan_id":"cebpf4jnsgd1na2vs0mg"},{"bike_id":"2ab94000-db77-44d0-8c1f-aafc6d37d59f","system_id":"levelo_inurba_marseille","lat":43.2916,"lon":5.371578,"is_reserved":false,"is_disabled":false,"rental_uris":{"android":"levelo://app?vid=2ab94000-db77-44d0-8c1f-aafc6d37d59f","ios":"levelo://app?vid=2ab94000-db77-44d0-8c1f-aafc6d37d59f"},"vehicle_type_id":"4","last_reported":1737544045,"current_range_meters":39200,"station_id":"ce4bha92rcd13ifvqeh0","pricing_plan_id":"cebpf4jnsgd1na2vs0mg"},{"bike_id":"bfb62230-2683-4e51-a165-d8eabb8755a4","system_id":"levelo_inurba_marseille","lat":43.27819,"lon":5.40729,"is_reserved":false,"is_disabled":false,"rental_uris":{"android":"levelo://app?vid=bfb62230-2683-4e51-a165-d8eabb8755a4","ios":"levelo://app?vid=bfb62230-2683-4e51-a165-d8eabb8755a4"},"vehicle_type_id":"4","last_reported":1737544045,"current_range_meters":33200,"station_id":"ce4bhnh2rcd13ifvqgtg","pricing_plan_id":"cebpf4jnsgd1na2vs0mg"},{"bike_id":"07607162-ef7c-4e0b-ac07-a812f876ebce","system_id":"levelo_inurba_marseille","lat":43.2962,"lon":5.37174,"is_reserved":false,"is_disabled":false,"rental_uris":{"android":"levelo://app?vid=07607162-ef7c-4e0b-ac07-a812f876ebce","ios":"levelo://app?vid=07607162-ef7c-4e0b-ac07-a812f876ebce"},"vehicle_type_id":"4","last_reported":1737544045,"current_range_meters":38800,"station_id":"ce4bgnh2rcd13ifvqc0g","pricing_plan_id":"cebpf4jnsgd1na2vs0mg"},{"bike_id":"b369cafb-1e9f-4783-af23-b29ba297f9af","system_id":"levelo_inurba_marseille","lat":43.32999,"lon":5.38973,"is_reserved":false,"is_disabled":false,"rental_uris":{"android":"levelo://app?vid=b369cafb-1e9f-4783-af23-b29ba297f9af","ios":"levelo://app?vid=b369cafb-1e9f-4783-af23-b29ba297f9af"},"vehicle_type_id":"4","last_reported":1737544045,"current_range_meters":38000,"station_id":"ce4bhr92rcd13ifvqhrg","pricing_plan_id":"cebpf4jnsgd1na2vs0mg"},{"bike_id":"5eaba206-d23c-46fd-b848-fb2f882db6a7","system_id":"levelo_inurba_marseille","lat":43.32487,"lon":5.36562,"is_reserved":false,"is_disabled":false,"rental_uris":{"android":"levelo://app?vid=5eaba206-d23c-46fd-b848-fb2f882db6a7","ios":"levelo://app?vid=5eaba206-d23c-46fd-b848-fb2f882db6a7"},"vehicle_type_id":"4","last_reported":1737544045,"current_range_meters":3600,"station_id":"ce4bhs12rcd13ifvqhvg","pricing_plan_id":"cebpf4jnsgd1na2vs0mg"},{"bike_id":"6d1593f0-c44f-4fc0-8450-96dd5c159537","system_id":"levelo_inurba_marseille","lat":43.26193,"lon":5.37453,"is_reserved":false,"is_disabled":false,"rental_uris":{"android":"levelo://app?vid=6d1593f0-c44f-4fc0-8450-96dd5c159537","ios":"levelo://app?vid=6d1593f0-c44f-4fc0-8450-96dd5c159537"},"vehicle_type_id":"4","last_reported":1737544045,"current_range_meters":32400,"station_id":"ce4bhgp2rcd13ifvqfc0","pricing_plan_id":"cebpf4jnsgd1na2vs0mg"},{"bike_id":"2aaf194b-e843-496b-800b-ffbb038c4de7","system_id":"levelo_inurba_marseille","lat":43.32288,"lon":5.38279,"is_reserved":false,"is_disabled":false,"rental_uris":{"android":"levelo://app?vid=2aaf194b-e843-496b-800b-ffbb038c4de7","ios":"levelo://app?vid=2aaf194b-e843-496b-800b-ffbb038c4de7"},"vehicle_type_id":"4","last_reported":1737544045,"current_range_meters":24400,"station_id":"ce4bhr12rcd13ifvqhqg","pricing_plan_id":"cebpf4jnsgd1na2vs0mg"},{"bike_id":"e6cc0a4d-ce72-4299-bbd4-2b68b12811f6","system_id":"levelo_inurba_marseille","lat":43.29312,"lon":5.37461,"is_reserved":false,"is_disabled":false,"rental_uris":{"android":"levelo://app?vid=e6cc0a4d-ce72-4299-bbd4-2b68b12811f6","ios":"levelo://app?vid=e6cc0a4d-ce72-4299-bbd4-2b68b12811f6"},"vehicle_type_id":"4","last_reported":1737544045,"current_range_meters":8400,"station_id":"ce4bgi12rcd13ifvqb70","pricing_plan_id":"cebpf4jnsgd1na2vs0mg"},{"bike_id":"6661a075-3684-4dee-9c67-ef0b4376c594","system_id":"levelo_inurba_marseille","lat":43.2322,"lon":5.35553,"is_reserved":false,"is_disabled":false,"rental_uris":{"android":"levelo://app?vid=6661a075-3684-4dee-9c67-ef0b4376c594","ios":"levelo://app?vid=6661a075-3684-4dee-9c67-ef0b4376c594"},"vehicle_type_id":"4","last_reported":1737544045,"current_range_meters":37600,"station_id":"ce4bhu92rcd13ifvqi70","pricing_plan_id":"cebpf4jnsgd1na2vs0mg"},{"bike_id":"03029508-7ed2-4693-b735-f7deaf763344","system_id":"levelo_inurba_marseille","lat":43.255781,"lon":5.382361,"is_reserved":false,"is_disabled":false,"rental_uris":{"android":"levelo://app?vid=03029508-7ed2-4693-b735-f7deaf763344","ios":"levelo://app?vid=03029508-7ed2-4693-b735-f7deaf763344"},"vehicle_type_id":"4","last_reported":1737544045,"current_range_meters":22800,"station_id":"ce4bhih2rcd13ifvqfs0","pricing_plan_id":"cebpf4jnsgd1na2vs0mg"},{"bike_id":"ed525b36-d54d-4cb1-8043-ea9a939505b1","system_id":"levelo_inurba_marseille","lat":43.29672,"lon":5.37747,"is_reserved":false,"is_disabled":false,"rental_uris":{"android":"levelo://app?vid=ed525b36-d54d-4cb1-8043-ea9a939505b1","ios":"levelo://app?vid=ed525b36-d54d-4cb1-8043-ea9a939505b1"},"vehicle_type_id":"4","last_reported":1737544045,"current_range_meters":22000,"station_id":"","pricing_plan_id":"cebpf4jnsgd1na2vs0mg"},{"bike_id":"be75aa8d-9958-4dee-8ba8-2fdb4559f5ca","system_id":"levelo_inurba_marseille","lat":43.27062,"lon":5.42296,"is_reserved":false,"is_disabled":false,"rental_uris":{"android":"levelo://app?vid=be75aa8d-9958-4dee-8ba8-2fdb4559f5ca","ios":"levelo://app?vid=be75aa8d-9958-4dee-8ba8-2fdb4559f5ca"},"vehicle_type_id":"4","last_reported":1737544045,"current_range_meters":19200,"station_id":"ce4bhk92rcd13ifvqgb0","pricing_plan_id":"cebpf4jnsgd1na2vs0mg"},{"bike_id":"556652a9-1c18-44ba-83c9-5f3b0970c400","system_id":"levelo_inurba_marseille","lat":43.26503,"lon":5.39535,"is_reserved":false,"is_disabled":false,"rental_uris":{"android":"levelo://app?vid=556652a9-1c18-44ba-83c9-5f3b0970c400","ios":"levelo://app?vid=556652a9-1c18-44ba-83c9-5f3b0970c400"},"vehicle_type_id":"4","last_reported":1737544045,"current_range_meters":32000,"station_id":"ce4bhi12rcd13ifvqfq0","pricing_plan_id":"cebpf4jnsgd1na2vs0mg"},{"bike_id":"cac15169-486f-43a5-9e95-33c702c4876b","system_id":"levelo_inurba_marseille","lat":43.3081,"lon":5.43524,"is_reserved":false,"is_disabled":false,"rental_uris":{"android":"levelo://app?vid=cac15169-486f-43a5-9e95-33c702c4876b","ios":"levelo://app?vid=cac15169-486f-43a5-9e95-33c702c4876b"},"vehicle_type_id":"4","last_reported":1737544045,"current_range_meters":16800,"station_id":"ce4bhph2rcd13ifvqheg","pricing_plan_id":"cebpf4jnsgd1na2vs0mg"},{"bike_id":"e3d76a58-1761-4656-923a-c19c9b0f6727","system_id":"levelo_inurba_marseille","lat":43.30147,"lon":5.38077,"is_reserved":false,"is_disabled":false,"rental_uris":{"android":"levelo://app?vid=e3d76a58-1761-4656-923a-c19c9b0f6727","ios":"levelo://app?vid=e3d76a58-1761-4656-923a-c19c9b0f6727"},"vehicle_type_id":"4","last_reported":1737544045,"current_range_meters":31200,"station_id":"ce4bgjp2rcd13ifvqbh0","pricing_plan_id":"cebpf4jnsgd1na2vs0mg"},{"bike_id":"ff166635-89ce-46d9-9ece-cde7618c4423","system_id":"levelo_inurba_marseille","lat":43.30062,"lon":5.39655,"is_reserved":false,"is_disabled":false,"rental_uris":{"android":"levelo://app?vid=ff166635-89ce-46d9-9ece-cde7618c4423","ios":"levelo://app?vid=ff166635-89ce-46d9-9ece-cde7618c4423"},"vehicle_type_id":"4","last_reported":1737544045,"current_range_meters":16000,"station_id":"ce4bh0h2rcd13ifvqd50","pricing_plan_id":"cebpf4jnsgd1na2vs0mg"},{"bike_id":"d2758194-21eb-4813-ad01-e15493dd4661","system_id":"levelo_inurba_marseille","lat":43.26935,"lon":5.40261,"is_reserved":false,"is_disabled":false,"rental_uris":{"android":"levelo://app?vid=d2758194-21eb-4813-ad01-e15493dd4661","ios":"levelo://app?vid=d2758194-21eb-4813-ad01-e15493dd4661"},"vehicle_type_id":"4","last_reported":1737544045,"current_range_meters":38800,"station_id":"cjm6bp8fraef2m0cb0m0","pricing_plan_id":"cebpf4jnsgd1na2vs0mg"},{"bike_id":"13c175c8-da1d-406b-ad10-574a0abfb088","system_id":"levelo_inurba_marseille","lat":43.31696,"lon":5.40459,"is_reserved":false,"is_disabled":false,"rental_uris":{"android":"levelo://app?vid=13c175c8-da1d-406b-ad10-574a0abfb088","ios":"levelo://app?vid=13c175c8-da1d-406b-ad10-574a0abfb088"},"vehicle_type_id":"4","last_reported":1737544045,"current_range_meters":16400,"station_id":"ce4bh012rcd13ifvqd00","pricing_plan_id":"cebpf4jnsgd1na2vs0mg"},{"bike_id":"fb07722b-6c4a-4667-a97b-6fa04f98ca7a","system_id":"levelo_inurba_marseille","lat":43.298455,"lon":5.362753,"is_reserved":false,"is_disabled":false,"rental_uris":{"android":"levelo://app?vid=fb07722b-6c4a-4667-a97b-6fa04f98ca7a","ios":"levelo://app?vid=fb07722b-6c4a-4667-a97b-6fa04f98ca7a"},"vehicle_type_id":"4","last_reported":1737544045,"current_range_meters":38800,"station_id":"ce4bgpp2rcd13ifvqc3g","pricing_plan_id":"cebpf4jnsgd1na2vs0mg"},{"bike_id":"4b268689-6dbe-4d0d-a686-a09d27a85cfd","system_id":"levelo_inurba_marseille","lat":43.28277,"lon":5.35066,"is_reserved":false,"is_disabled":false,"rental_uris":{"android":"levelo://app?vid=4b268689-6dbe-4d0d-a686-a09d27a85cfd","ios":"levelo://app?vid=4b268689-6dbe-4d0d-a686-a09d27a85cfd"},"vehicle_type_id":"4","last_reported":1737544045,"current_range_meters":36800,"station_id":"ce4bhbp2rcd13ifvqerg","pricing_plan_id":"cebpf4jnsgd1na2vs0mg"},{"bike_id":"f42998af-589e-4079-96cd-bbfd11f0a680","system_id":"levelo_inurba_marseille","lat":43.28483,"lon":5.38538,"is_reserved":false,"is_disabled":false,"rental_uris":{"android":"levelo://app?vid=f42998af-589e-4079-96cd-bbfd11f0a680","ios":"levelo://app?vid=f42998af-589e-4079-96cd-bbfd11f0a680"},"vehicle_type_id":"4","last_reported":1737544045,"current_range_meters":28800,"station_id":"ce4bh8p2rcd13ifvqeb0","pricing_plan_id":"cebpf4jnsgd1na2vs0mg"},{"bike_id":"ddf426c3-fc7c-40b3-9efe-f85457771e64","system_id":"levelo_inurba_marseille","lat":43.33616,"lon":5.41012,"is_reserved":false,"is_disabled":false,"rental_uris":{"android":"levelo://app?vid=ddf426c3-fc7c-40b3-9efe-f85457771e64","ios":"levelo://app?vid=ddf426c3-fc7c-40b3-9efe-f85457771e64"},"vehicle_type_id":"4","last_reported":1737544045,"current_range_meters":33200,"station_id":"ce4bhqh2rcd13ifvqhmg","pricing_plan_id":"cebpf4jnsgd1na2vs0mg"},{"bike_id":"3ce82828-dea0-4098-8022-ebd56154501b","system_id":"levelo_inurba_marseille","lat":43.29171,"lon":5.37143,"is_reserved":false,"is_disabled":false,"rental_uris":{"android":"levelo://app?vid=3ce82828-dea0-4098-8022-ebd56154501b","ios":"levelo://app?vid=3ce82828-dea0-4098-8022-ebd56154501b"},"vehicle_type_id":"4","last_reported":1737544045,"current_range_meters":24400,"station_id":"ce4bha92rcd13ifvqeh0","pricing_plan_id":"cebpf4jnsgd1na2vs0mg"},{"bike_id":"f4064b91-d50f-4faa-b80a-c4b38df2d08b","system_id":"levelo_inurba_marseille","lat":43.22925,"lon":5.35396,"is_reserved":false,"is_disabled":false,"rental_uris":{"android":"levelo://app?vid=f4064b91-d50f-4faa-b80a-c4b38df2d08b","ios":"levelo://app?vid=f4064b91-d50f-4faa-b80a-c4b38df2d08b"},"vehicle_type_id":"4","last_reported":1737544045,"current_range_meters":26000,"station_id":"cpo3532slgdg3j2ikp40","pricing_plan_id":"cebpf4jnsgd1na2vs0mg"},{"bike_id":"1c5c6c97-e589-4b16-a350-502643230369","system_id":"levelo_inurba_marseille","lat":43.23168,"lon":5.43695,"is_reserved":false,"is_disabled":false,"rental_uris":{"android":"levelo://app?vid=1c5c6c97-e589-4b16-a350-502643230369","ios":"levelo://app?vid=1c5c6c97-e589-4b16-a350-502643230369"},"vehicle_type_id":"4","last_reported":1737544045,"current_range_meters":37600,"station_id":"ce4bhmp2rcd13ifvqgog","pricing_plan_id":"cebpf4jnsgd1na2vs0mg"},{"bike_id":"c608a355-799a-42b0-8df8-e6a61a956853","system_id":"levelo_inurba_marseille","lat":43.31732,"lon":5.42409,"is_reserved":false,"is_disabled":false,"rental_uris":{"android":"levelo://app?vid=c608a355-799a-42b0-8df8-e6a61a956853","ios":"levelo://app?vid=c608a355-799a-42b0-8df8-e6a61a956853"},"vehicle_type_id":"4","last_reported":1737544045,"current_range_meters":38800,"station_id":"ce4bhp92rcd13ifvqhbg","pricing_plan_id":"cebpf4jnsgd1na2vs0mg"},{"bike_id":"41b9e971-fd43-4216-a93f-9058662c9ea0","system_id":"levelo_inurba_marseille","lat":43.25814,"lon":5.39443,"is_reserved":false,"is_disabled":false,"rental_uris":{"android":"levelo://app?vid=41b9e971-fd43-4216-a93f-9058662c9ea0","ios":"levelo://app?vid=41b9e971-fd43-4216-a93f-9058662c9ea0"},"vehicle_type_id":"4","last_reported":1737544045,"current_range_meters":6400,"station_id":"ce4bhip2rcd13ifvqft0","pricing_plan_id":"cebpf4jnsgd1na2vs0mg"},{"bike_id":"bff4ab43-4b4a-4381-b613-85d2bce20ac1","system_id":"levelo_inurba_marseille","lat":43.29245,"lon":5.40931,"is_reserved":false,"is_disabled":false,"rental_uris":{"android":"levelo://app?vid=bff4ab43-4b4a-4381-b613-85d2bce20ac1","ios":"levelo://app?vid=bff4ab43-4b4a-4381-b613-85d2bce20ac1"},"vehicle_type_id":"4","last_reported":1737544045,"current_range_meters":38800,"station_id":"ce4bh192rcd13ifvqdc0","pricing_plan_id":"cebpf4jnsgd1na2vs0mg"},{"bike_id":"86d18f5a-511a-4c3a-96af-494b0d0bdbba","system_id":"levelo_inurba_marseille","lat":43.25122,"lon":5.40332,"is_reserved":false,"is_disabled":false,"rental_uris":{"android":"levelo://app?vid=86d18f5a-511a-4c3a-96af-494b0d0bdbba","ios":"levelo://app?vid=86d18f5a-511a-4c3a-96af-494b0d0bdbba"},"vehicle_type_id":"4","last_reported":1737544045,"current_range_meters":38800,"station_id":"ce4bhlh2rcd13ifvqgig","pricing_plan_id":"cebpf4jnsgd1na2vs0mg"},{"bike_id":"f9e03af4-adb0-4f86-8ff3-ecd5cb9486a8","system_id":"levelo_inurba_marseille","lat":43.31364,"lon":5.38501,"is_reserved":false,"is_disabled":false,"rental_uris":{"android":"levelo://app?vid=f9e03af4-adb0-4f86-8ff3-ecd5cb9486a8","ios":"levelo://app?vid=f9e03af4-adb0-4f86-8ff3-ecd5cb9486a8"},"vehicle_type_id":"4","last_reported":1737544045,"current_range_meters":19200,"station_id":"ce4bgt92rcd13ifvqcf0","pricing_plan_id":"cebpf4jnsgd1na2vs0mg"},{"bike_id":"bed079e3-b66e-4289-81fc-431bd0b5e8b5","system_id":"levelo_inurba_marseille","lat":43.30543,"lon":5.36571,"is_reserved":false,"is_disabled":false,"rental_uris":{"android":"levelo://app?vid=bed079e3-b66e-4289-81fc-431bd0b5e8b5","ios":"levelo://app?vid=bed079e3-b66e-4289-81fc-431bd0b5e8b5"},"vehicle_type_id":"4","last_reported":1737544045,"current_range_meters":34800,"station_id":"ce4bgs12rcd13ifvqcag","pricing_plan_id":"cebpf4jnsgd1na2vs0mg"},{"bike_id":"9b461bb7-61c5-4f25-8819-969a5d93af9e","system_id":"levelo_inurba_marseille","lat":43.25117,"lon":5.4032,"is_reserved":false,"is_disabled":false,"rental_uris":{"android":"levelo://app?vid=9b461bb7-61c5-4f25-8819-969a5d93af9e","ios":"levelo://app?vid=9b461bb7-61c5-4f25-8819-969a5d93af9e"},"vehicle_type_id":"4","last_reported":1737544045,"current_range_meters":32800,"station_id":"ce4bhlh2rcd13ifvqgig","pricing_plan_id":"cebpf4jnsgd1na2vs0mg"},{"bike_id":"2fc2ee69-aa4b-45f9-9488-21abae1e33f5","system_id":"levelo_inurba_marseille","lat":43.30472,"lon":5.37904,"is_reserved":false,"is_disabled":false,"rental_uris":{"android":"levelo://app?vid=2fc2ee69-aa4b-45f9-9488-21abae1e33f5","ios":"levelo://app?vid=2fc2ee69-aa4b-45f9-9488-21abae1e33f5"},"vehicle_type_id":"4","last_reported":1737544045,"current_range_meters":27200,"station_id":"ce4bgup2rcd13ifvqcn0","pricing_plan_id":"cebpf4jnsgd1na2vs0mg"},{"bike_id":"8a725843-205b-4bfa-b181-c5d4ae148cad","system_id":"levelo_inurba_marseille","lat":43.26697,"lon":5.382,"is_reserved":false,"is_disabled":false,"rental_uris":{"android":"levelo://app?vid=8a725843-205b-4bfa-b181-c5d4ae148cad","ios":"levelo://app?vid=8a725843-205b-4bfa-b181-c5d4ae148cad"},"vehicle_type_id":"4","last_reported":1737544045,"current_range_meters":39200,"station_id":"ce4bhg92rcd13ifvqf90","pricing_plan_id":"cebpf4jnsgd1na2vs0mg"},{"bike_id":"d40d3d73-1abb-42c9-aa5c-bd8d35a27540","system_id":"levelo_inurba_marseille","lat":43.28699,"lon":5.37396,"is_reserved":false,"is_disabled":false,"rental_uris":{"android":"levelo://app?vid=d40d3d73-1abb-42c9-aa5c-bd8d35a27540","ios":"levelo://app?vid=d40d3d73-1abb-42c9-aa5c-bd8d35a27540"},"vehicle_type_id":"4","last_reported":1737544045,"current_range_meters":25600,"station_id":"ce4bh3p2rcd13ifvqdq0","pricing_plan_id":"cebpf4jnsgd1na2vs0mg"},{"bike_id":"9af1f692-1a3c-4584-9a90-f6891de1727c","system_id":"levelo_inurba_marseille","lat":43.29848,"lon":5.36285,"is_reserved":false,"is_disabled":false,"rental_uris":{"android":"levelo://app?vid=9af1f692-1a3c-4584-9a90-f6891de1727c","ios":"levelo://app?vid=9af1f692-1a3c-4584-9a90-f6891de1727c"},"vehicle_type_id":"4","last_reported":1737544045,"current_range_meters":36000,"station_id":"ce4bgpp2rcd13ifvqc3g","pricing_plan_id":"cebpf4jnsgd1na2vs0mg"},{"bike_id":"c675c081-7da8-4535-a2f8-300fc6c3bd73","system_id":"levelo_inurba_marseille","lat":43.23188,"lon":5.39992,"is_reserved":false,"is_disabled":false,"rental_uris":{"android":"levelo://app?vid=c675c081-7da8-4535-a2f8-300fc6c3bd73","ios":"levelo://app?vid=c675c081-7da8-4535-a2f8-300fc6c3bd73"},"vehicle_type_id":"4","last_reported":1737544045,"current_range_meters":32400,"station_id":"ce4bhn12rcd13ifvqgqg","pricing_plan_id":"cebpf4jnsgd1na2vs0mg"},{"bike_id":"f3735232-5d15-4e84-82f3-d2ea82b3c299","system_id":"levelo_inurba_marseille","lat":43.32361,"lon":5.36765,"is_reserved":false,"is_disabled":false,"rental_uris":{"android":"levelo://app?vid=f3735232-5d15-4e84-82f3-d2ea82b3c299","ios":"levelo://app?vid=f3735232-5d15-4e84-82f3-d2ea82b3c299"},"vehicle_type_id":"4","last_reported":1737544045,"current_range_meters":28800,"station_id":"ce4bhsh2rcd13ifvqi2g","pricing_plan_id":"cebpf4jnsgd1na2vs0mg"},{"bike_id":"9d094da5-5fa4-4358-a503-db0f0481f1cc","system_id":"levelo_inurba_marseille","lat":43.290527,"lon":5.359077,"is_reserved":false,"is_disabled":false,"rental_uris":{"android":"levelo://app?vid=9d094da5-5fa4-4358-a503-db0f0481f1cc","ios":"levelo://app?vid=9d094da5-5fa4-4358-a503-db0f0481f1cc"},"vehicle_type_id":"4","last_reported":1737544045,"current_range_meters":35600,"station_id":"ce4bha92rcd13ifvqeg0","pricing_plan_id":"cebpf4jnsgd1na2vs0mg"},{"bike_id":"2dc6fcd9-d7d6-46f4-99f6-2cb571724d92","system_id":"levelo_inurba_marseille","lat":43.29872,"lon":5.38906,"is_reserved":false,"is_disabled":false,"rental_uris":{"android":"levelo://app?vid=2dc6fcd9-d7d6-46f4-99f6-2cb571724d92","ios":"levelo://app?vid=2dc6fcd9-d7d6-46f4-99f6-2cb571724d92"},"vehicle_type_id":"4","last_reported":1737544045,"current_range_meters":17200,"station_id":"ce4bh392rcd13ifvqdl0","pricing_plan_id":"cebpf4jnsgd1na2vs0mg"},{"bike_id":"43e04d0f-bfd5-4908-b4cb-b8ec9fd1c016","system_id":"levelo_inurba_marseille","lat":43.25134,"lon":5.40319,"is_reserved":false,"is_disabled":false,"rental_uris":{"android":"levelo://app?vid=43e04d0f-bfd5-4908-b4cb-b8ec9fd1c016","ios":"levelo://app?vid=43e04d0f-bfd5-4908-b4cb-b8ec9fd1c016"},"vehicle_type_id":"4","last_reported":1737544045,"current_range_meters":19600,"station_id":"ce4bhlh2rcd13ifvqgig","pricing_plan_id":"cebpf4jnsgd1na2vs0mg"},{"bike_id":"2f78f9dc-cb62-44a8-8e6d-22192487762c","system_id":"levelo_inurba_marseille","lat":43.30451,"lon":5.37947,"is_reserved":false,"is_disabled":false,"rental_uris":{"android":"levelo://app?vid=2f78f9dc-cb62-44a8-8e6d-22192487762c","ios":"levelo://app?vid=2f78f9dc-cb62-44a8-8e6d-22192487762c"},"vehicle_type_id":"4","last_reported":1737544045,"current_range_meters":19200,"station_id":"ce4bgup2rcd13ifvqcn0","pricing_plan_id":"cebpf4jnsgd1na2vs0mg"},{"bike_id":"07656937-ab32-4288-8757-0c43aa56903f","system_id":"levelo_inurba_marseille","lat":43.28459,"lon":5.35888,"is_reserved":false,"is_disabled":false,"rental_uris":{"android":"levelo://app?vid=07656937-ab32-4288-8757-0c43aa56903f","ios":"levelo://app?vid=07656937-ab32-4288-8757-0c43aa56903f"},"vehicle_type_id":"4","last_reported":1737544045,"current_range_meters":32800,"station_id":"ce4bhah2rcd13ifvqei0","pricing_plan_id":"cebpf4jnsgd1na2vs0mg"},{"bike_id":"fc7d0896-a0d9-4784-82a6-858cbf9807fe","system_id":"levelo_inurba_marseille","lat":43.3078,"lon":5.37651,"is_reserved":false,"is_disabled":false,"rental_uris":{"android":"levelo://app?vid=fc7d0896-a0d9-4784-82a6-858cbf9807fe","ios":"levelo://app?vid=fc7d0896-a0d9-4784-82a6-858cbf9807fe"},"vehicle_type_id":"4","last_reported":1737544045,"current_range_meters":28000,"station_id":"ce4bgv92rcd13ifvqcq0","pricing_plan_id":"cebpf4jnsgd1na2vs0mg"},{"bike_id":"8f1ebaa9-7ecf-48d4-afae-9c89aedc6ce6","system_id":"levelo_inurba_marseille","lat":43.30516,"lon":5.36723,"is_reserved":false,"is_disabled":false,"rental_uris":{"android":"levelo://app?vid=8f1ebaa9-7ecf-48d4-afae-9c89aedc6ce6","ios":"levelo://app?vid=8f1ebaa9-7ecf-48d4-afae-9c89aedc6ce6"},"vehicle_type_id":"4","last_reported":1737544045,"current_range_meters":39200,"station_id":"ce4bgrp2rcd13ifvqc9g","pricing_plan_id":"cebpf4jnsgd1na2vs0mg"},{"bike_id":"7e034d53-14af-4f50-9dca-08e722d3e1df","system_id":"levelo_inurba_marseille","lat":43.31339,"lon":5.36796,"is_reserved":false,"is_disabled":false,"rental_uris":{"android":"levelo://app?vid=7e034d53-14af-4f50-9dca-08e722d3e1df","ios":"levelo://app?vid=7e034d53-14af-4f50-9dca-08e722d3e1df"},"vehicle_type_id":"4","last_reported":1737544045,"current_range_meters":27600,"station_id":"","pricing_plan_id":"cebpf4jnsgd1na2vs0mg"},{"bike_id":"110f4d36-27c9-49b8-86bf-d85558408b80","system_id":"levelo_inurba_marseille","lat":43.32371,"lon":5.3887,"is_reserved":false,"is_disabled":false,"rental_uris":{"android":"levelo://app?vid=110f4d36-27c9-49b8-86bf-d85558408b80","ios":"levelo://app?vid=110f4d36-27c9-49b8-86bf-d85558408b80"},"vehicle_type_id":"4","last_reported":1737544045,"current_range_meters":24400,"station_id":"ce4bhqp2rcd13ifvqhog","pricing_plan_id":"cebpf4jnsgd1na2vs0mg"},{"bike_id":"b0562b40-52c2-4181-9d9a-5958f6ebdc75","system_id":"levelo_inurba_marseille","lat":43.3358,"lon":5.40998,"is_reserved":false,"is_disabled":false,"rental_uris":{"android":"levelo://app?vid=b0562b40-52c2-4181-9d9a-5958f6ebdc75","ios":"levelo://app?vid=b0562b40-52c2-4181-9d9a-5958f6ebdc75"},"vehicle_type_id":"4","last_reported":1737544045,"current_range_meters":36400,"station_id":"ce4bhqh2rcd13ifvqhmg","pricing_plan_id":"cebpf4jnsgd1na2vs0mg"},{"bike_id":"04b3bc81-80fe-492e-ad11-4bdb82b97680","system_id":"levelo_inurba_marseille","lat":43.30423,"lon":5.37949,"is_reserved":false,"is_disabled":true,"rental_uris":{"android":"levelo://app?vid=04b3bc81-80fe-492e-ad11-4bdb82b97680","ios":"levelo://app?vid=04b3bc81-80fe-492e-ad11-4bdb82b97680"},"vehicle_type_id":"4","last_reported":1737544045,"current_range_meters":38800,"station_id":"ce4bgup2rcd13ifvqcn0","pricing_plan_id":"cebpf4jnsgd1na2vs0mg"},{"bike_id":"e6b3f36e-2053-4232-9753-c3a59f46346e","system_id":"levelo_inurba_marseille","lat":43.29631,"lon":5.37165,"is_reserved":false,"is_disabled":false,"rental_uris":{"android":"levelo://app?vid=e6b3f36e-2053-4232-9753-c3a59f46346e","ios":"levelo://app?vid=e6b3f36e-2053-4232-9753-c3a59f46346e"},"vehicle_type_id":"4","last_reported":1737544045,"current_range_meters":24400,"station_id":"ce4bgnh2rcd13ifvqc0g","pricing_plan_id":"cebpf4jnsgd1na2vs0mg"},{"bike_id":"0d26e374-02ec-44e9-a38b-16b6c8139aa9","system_id":"levelo_inurba_marseille","lat":43.27064,"lon":5.40252,"is_reserved":false,"is_disabled":false,"rental_uris":{"android":"levelo://app?vid=0d26e374-02ec-44e9-a38b-16b6c8139aa9","ios":"levelo://app?vid=0d26e374-02ec-44e9-a38b-16b6c8139aa9"},"vehicle_type_id":"4","last_reported":1737544045,"current_range_meters":22800,"station_id":"ce4bhk92rcd13ifvqgc0","pricing_plan_id":"cebpf4jnsgd1na2vs0mg"},{"bike_id":"492741a9-7a01-4c84-a730-a955cd6628db","system_id":"levelo_inurba_marseille","lat":43.29902,"lon":5.37501,"is_reserved":false,"is_disabled":false,"rental_uris":{"android":"levelo://app?vid=492741a9-7a01-4c84-a730-a955cd6628db","ios":"levelo://app?vid=492741a9-7a01-4c84-a730-a955cd6628db"},"vehicle_type_id":"4","last_reported":1737544045,"current_range_meters":26800,"station_id":"ce4bgjh2rcd13ifvqbg0","pricing_plan_id":"cebpf4jnsgd1na2vs0mg"},{"bike_id":"c01ff322-934e-4fed-b8ab-096213fbdb3c","system_id":"levelo_inurba_marseille","lat":43.32,"lon":5.38149,"is_reserved":false,"is_disabled":false,"rental_uris":{"android":"levelo://app?vid=c01ff322-934e-4fed-b8ab-096213fbdb3c","ios":"levelo://app?vid=c01ff322-934e-4fed-b8ab-096213fbdb3c"},"vehicle_type_id":"4","last_reported":1737544045,"current_range_meters":39200,"station_id":"ce4bhr12rcd13ifvqhpg","pricing_plan_id":"cebpf4jnsgd1na2vs0mg"},{"bike_id":"82e0e1f2-9ab4-4ed2-b9b6-b3023a684023","system_id":"levelo_inurba_marseille","lat":43.30429,"lon":5.38874,"is_reserved":false,"is_disabled":false,"rental_uris":{"android":"levelo://app?vid=82e0e1f2-9ab4-4ed2-b9b6-b3023a684023","ios":"levelo://app?vid=82e0e1f2-9ab4-4ed2-b9b6-b3023a684023"},"vehicle_type_id":"4","last_reported":1737544045,"current_range_meters":37600,"station_id":"ce4bgk12rcd13ifvqbi0","pricing_plan_id":"cebpf4jnsgd1na2vs0mg"},{"bike_id":"4a085993-8ebc-4681-b93d-988d580f4161","system_id":"levelo_inurba_marseille","lat":43.29888,"lon":5.39737,"is_reserved":false,"is_disabled":false,"rental_uris":{"android":"levelo://app?vid=4a085993-8ebc-4681-b93d-988d580f4161","ios":"levelo://app?vid=4a085993-8ebc-4681-b93d-988d580f4161"},"vehicle_type_id":"4","last_reported":1737544045,"current_range_meters":39200,"station_id":"ce4bh0h2rcd13ifvqd50","pricing_plan_id":"cebpf4jnsgd1na2vs0mg"},{"bike_id":"613f4eb9-b4f3-43cb-bb62-1bfae3ed0513","system_id":"levelo_inurba_marseille","lat":43.23968,"lon":5.36633,"is_reserved":false,"is_disabled":false,"rental_uris":{"android":"levelo://app?vid=613f4eb9-b4f3-43cb-bb62-1bfae3ed0513","ios":"levelo://app?vid=613f4eb9-b4f3-43cb-bb62-1bfae3ed0513"},"vehicle_type_id":"4","last_reported":1737544045,"current_range_meters":27200,"station_id":"ce4bhi12rcd13ifvqfp0","pricing_plan_id":"cebpf4jnsgd1na2vs0mg"},{"bike_id":"3e896f15-e992-4a42-a5fd-c7a4642a4db6","system_id":"levelo_inurba_marseille","lat":43.29555,"lon":5.37506,"is_reserved":false,"is_disabled":false,"rental_uris":{"android":"levelo://app?vid=3e896f15-e992-4a42-a5fd-c7a4642a4db6","ios":"levelo://app?vid=3e896f15-e992-4a42-a5fd-c7a4642a4db6"},"vehicle_type_id":"4","last_reported":1737544045,"current_range_meters":16000,"station_id":"ce4bgkp2rcd13ifvqbmg","pricing_plan_id":"cebpf4jnsgd1na2vs0mg"},{"bike_id":"399562cb-200c-42e5-9323-afe751683da6","system_id":"levelo_inurba_marseille","lat":43.32528,"lon":5.36554,"is_reserved":false,"is_disabled":false,"rental_uris":{"android":"levelo://app?vid=399562cb-200c-42e5-9323-afe751683da6","ios":"levelo://app?vid=399562cb-200c-42e5-9323-afe751683da6"},"vehicle_type_id":"4","last_reported":1737544045,"current_range_meters":26000,"station_id":"ce4bhs12rcd13ifvqhvg","pricing_plan_id":"cebpf4jnsgd1na2vs0mg"},{"bike_id":"87f6cf51-494c-42eb-b123-0d465580e8d6","system_id":"levelo_inurba_marseille","lat":43.25827,"lon":5.39443,"is_reserved":false,"is_disabled":false,"rental_uris":{"android":"levelo://app?vid=87f6cf51-494c-42eb-b123-0d465580e8d6","ios":"levelo://app?vid=87f6cf51-494c-42eb-b123-0d465580e8d6"},"vehicle_type_id":"4","last_reported":1737544045,"current_range_meters":36400,"station_id":"ce4bhip2rcd13ifvqft0","pricing_plan_id":"cebpf4jnsgd1na2vs0mg"},{"bike_id":"336ebce4-e239-45e8-ad11-5235c3627f1e","system_id":"levelo_inurba_marseille","lat":43.29972,"lon":5.38502,"is_reserved":false,"is_disabled":false,"rental_uris":{"android":"levelo://app?vid=336ebce4-e239-45e8-ad11-5235c3627f1e","ios":"levelo://app?vid=336ebce4-e239-45e8-ad11-5235c3627f1e"},"vehicle_type_id":"4","last_reported":1737544045,"current_range_meters":36000,"station_id":"ce4bgj92rcd13ifvqbd0","pricing_plan_id":"cebpf4jnsgd1na2vs0mg"},{"bike_id":"7358e1bd-9706-4128-9ae3-62e3d78a163e","system_id":"levelo_inurba_marseille","lat":43.3108,"lon":5.38355,"is_reserved":false,"is_disabled":false,"rental_uris":{"android":"levelo://app?vid=7358e1bd-9706-4128-9ae3-62e3d78a163e","ios":"levelo://app?vid=7358e1bd-9706-4128-9ae3-62e3d78a163e"},"vehicle_type_id":"4","last_reported":1737544045,"current_range_meters":28400,"station_id":"ce4bgv92rcd13ifvqcr0","pricing_plan_id":"cebpf4jnsgd1na2vs0mg"},{"bike_id":"8d687d01-0086-487a-a814-0afe95bbf5e0","system_id":"levelo_inurba_marseille","lat":43.28462,"lon":5.35894,"is_reserved":false,"is_disabled":false,"rental_uris":{"android":"levelo://app?vid=8d687d01-0086-487a-a814-0afe95bbf5e0","ios":"levelo://app?vid=8d687d01-0086-487a-a814-0afe95bbf5e0"},"vehicle_type_id":"4","last_reported":1737544045,"current_range_meters":24000,"station_id":"ce4bhah2rcd13ifvqei0","pricing_plan_id":"cebpf4jnsgd1na2vs0mg"},{"bike_id":"9ddfb512-8a79-4f2e-9188-7543ee8a7760","system_id":"levelo_inurba_marseille","lat":43.29166,"lon":5.37178,"is_reserved":false,"is_disabled":false,"rental_uris":{"android":"levelo://app?vid=9ddfb512-8a79-4f2e-9188-7543ee8a7760","ios":"levelo://app?vid=9ddfb512-8a79-4f2e-9188-7543ee8a7760"},"vehicle_type_id":"4","last_reported":1737544045,"current_range_meters":39200,"station_id":"ce4bha92rcd13ifvqeh0","pricing_plan_id":"cebpf4jnsgd1na2vs0mg"},{"bike_id":"9cc87e38-2882-4c4f-9efd-0002b7e524d3","system_id":"levelo_inurba_marseille","lat":43.27846,"lon":5.40684,"is_reserved":false,"is_disabled":false,"rental_uris":{"android":"levelo://app?vid=9cc87e38-2882-4c4f-9efd-0002b7e524d3","ios":"levelo://app?vid=9cc87e38-2882-4c4f-9efd-0002b7e524d3"},"vehicle_type_id":"4","last_reported":1737544045,"current_range_meters":38400,"station_id":"ce4bhnh2rcd13ifvqgtg","pricing_plan_id":"cebpf4jnsgd1na2vs0mg"},{"bike_id":"5b9f6084-6e7e-4ed7-82a9-7e92b37f7d73","system_id":"levelo_inurba_marseille","lat":43.2834,"lon":5.38112,"is_reserved":false,"is_disabled":true,"rental_uris":{"android":"levelo://app?vid=5b9f6084-6e7e-4ed7-82a9-7e92b37f7d73","ios":"levelo://app?vid=5b9f6084-6e7e-4ed7-82a9-7e92b37f7d73"},"vehicle_type_id":"4","last_reported":1737544045,"current_range_meters":32000,"station_id":"ce4bh412rcd13ifvqdr0","pricing_plan_id":"cebpf4jnsgd1na2vs0mg"},{"bike_id":"19736d4d-26c1-4d09-a409-61d53f5cd6d4","system_id":"levelo_inurba_marseille","lat":43.30462,"lon":5.37904,"is_reserved":false,"is_disabled":false,"rental_uris":{"android":"levelo://app?vid=19736d4d-26c1-4d09-a409-61d53f5cd6d4","ios":"levelo://app?vid=19736d4d-26c1-4d09-a409-61d53f5cd6d4"},"vehicle_type_id":"4","last_reported":1737544045,"current_range_meters":32400,"station_id":"ce4bgup2rcd13ifvqcn0","pricing_plan_id":"cebpf4jnsgd1na2vs0mg"},{"bike_id":"3726a11c-ea47-46ce-98bf-7254f6ee2b12","system_id":"levelo_inurba_marseille","lat":43.30285,"lon":5.37701,"is_reserved":false,"is_disabled":false,"rental_uris":{"android":"levelo://app?vid=3726a11c-ea47-46ce-98bf-7254f6ee2b12","ios":"levelo://app?vid=3726a11c-ea47-46ce-98bf-7254f6ee2b12"},"vehicle_type_id":"4","last_reported":1737544045,"current_range_meters":22800,"station_id":"ce4bguh2rcd13ifvqcj0","pricing_plan_id":"cebpf4jnsgd1na2vs0mg"},{"bike_id":"521d441d-7e79-47a0-8bdd-736767eac068","system_id":"levelo_inurba_marseille","lat":43.3139,"lon":5.38513,"is_reserved":false,"is_disabled":true,"rental_uris":{"android":"levelo://app?vid=521d441d-7e79-47a0-8bdd-736767eac068","ios":"levelo://app?vid=521d441d-7e79-47a0-8bdd-736767eac068"},"vehicle_type_id":"4","last_reported":1737544045,"current_range_meters":0,"station_id":"ce4bgt92rcd13ifvqcf0","pricing_plan_id":"cebpf4jnsgd1na2vs0mg"},{"bike_id":"82ddd56c-4479-4f07-8bf2-d4782fbe1ba5","system_id":"levelo_inurba_marseille","lat":43.284754,"lon":5.385768,"is_reserved":false,"is_disabled":false,"rental_uris":{"android":"levelo://app?vid=82ddd56c-4479-4f07-8bf2-d4782fbe1ba5","ios":"levelo://app?vid=82ddd56c-4479-4f07-8bf2-d4782fbe1ba5"},"vehicle_type_id":"4","last_reported":1737544045,"current_range_meters":5600,"station_id":"ce4bh8p2rcd13ifvqeb0","pricing_plan_id":"cebpf4jnsgd1na2vs0mg"},{"bike_id":"2965a976-302f-43d1-97a6-16afd2455155","system_id":"levelo_inurba_marseille","lat":43.27363,"lon":5.36266,"is_reserved":false,"is_disabled":false,"rental_uris":{"android":"levelo://app?vid=2965a976-302f-43d1-97a6-16afd2455155","ios":"levelo://app?vid=2965a976-302f-43d1-97a6-16afd2455155"},"vehicle_type_id":"4","last_reported":1737544045,"current_range_meters":26000,"station_id":"ce4bhbh2rcd13ifvqeo0","pricing_plan_id":"cebpf4jnsgd1na2vs0mg"},{"bike_id":"bfcedaf6-546d-4ab8-825e-68e78efe6ada","system_id":"levelo_inurba_marseille","lat":43.307701,"lon":5.376619,"is_reserved":false,"is_disabled":false,"rental_uris":{"android":"levelo://app?vid=bfcedaf6-546d-4ab8-825e-68e78efe6ada","ios":"levelo://app?vid=bfcedaf6-546d-4ab8-825e-68e78efe6ada"},"vehicle_type_id":"4","last_reported":1737544045,"current_range_meters":38800,"station_id":"ce4bgv92rcd13ifvqcq0","pricing_plan_id":"cebpf4jnsgd1na2vs0mg"},{"bike_id":"9eeabac4-cc66-4446-9589-cd2264b98d29","system_id":"levelo_inurba_marseille","lat":43.33764,"lon":5.37466,"is_reserved":false,"is_disabled":false,"rental_uris":{"android":"levelo://app?vid=9eeabac4-cc66-4446-9589-cd2264b98d29","ios":"levelo://app?vid=9eeabac4-cc66-4446-9589-cd2264b98d29"},"vehicle_type_id":"4","last_reported":1737544045,"current_range_meters":38000,"station_id":"","pricing_plan_id":"cebpf4jnsgd1na2vs0mg"},{"bike_id":"8ab0346c-8001-4067-8852-009244e2b53d","system_id":"levelo_inurba_marseille","lat":43.31079,"lon":5.42439,"is_reserved":false,"is_disabled":false,"rental_uris":{"android":"levelo://app?vid=8ab0346c-8001-4067-8852-009244e2b53d","ios":"levelo://app?vid=8ab0346c-8001-4067-8852-009244e2b53d"},"vehicle_type_id":"4","last_reported":1737544045,"current_range_meters":36000,"station_id":"ce4bhp92rcd13ifvqhag","pricing_plan_id":"cebpf4jnsgd1na2vs0mg"},{"bike_id":"b4548c16-c192-4910-9c21-2ba57df40c73","system_id":"levelo_inurba_marseille","lat":43.29602,"lon":5.37753,"is_reserved":false,"is_disabled":false,"rental_uris":{"android":"levelo://app?vid=b4548c16-c192-4910-9c21-2ba57df40c73","ios":"levelo://app?vid=b4548c16-c192-4910-9c21-2ba57df40c73"},"vehicle_type_id":"4","last_reported":1737544045,"current_range_meters":36400,"station_id":"ce4bgi92rcd13ifvqb90","pricing_plan_id":"cebpf4jnsgd1na2vs0mg"},{"bike_id":"e1a344b0-1af1-4839-9fc5-2bded306edb6","system_id":"levelo_inurba_marseille","lat":43.30136,"lon":5.37396,"is_reserved":false,"is_disabled":false,"rental_uris":{"android":"levelo://app?vid=e1a344b0-1af1-4839-9fc5-2bded306edb6","ios":"levelo://app?vid=e1a344b0-1af1-4839-9fc5-2bded306edb6"},"vehicle_type_id":"4","last_reported":1737544045,"current_range_meters":39200,"station_id":"ce4bgs92rcd13ifvqcc0","pricing_plan_id":"cebpf4jnsgd1na2vs0mg"},{"bike_id":"2bebf64d-2eff-4607-b617-986c9d9aab7f","system_id":"levelo_inurba_marseille","lat":43.26708,"lon":5.38278,"is_reserved":false,"is_disabled":false,"rental_uris":{"android":"levelo://app?vid=2bebf64d-2eff-4607-b617-986c9d9aab7f","ios":"levelo://app?vid=2bebf64d-2eff-4607-b617-986c9d9aab7f"},"vehicle_type_id":"4","last_reported":1737544045,"current_range_meters":38800,"station_id":"ce4bhg92rcd13ifvqf90","pricing_plan_id":"cebpf4jnsgd1na2vs0mg"},{"bike_id":"bb903e76-66e9-47a7-a21b-9c74eee3f530","system_id":"levelo_inurba_marseille","lat":43.25,"lon":5.38949,"is_reserved":false,"is_disabled":false,"rental_uris":{"android":"levelo://app?vid=bb903e76-66e9-47a7-a21b-9c74eee3f530","ios":"levelo://app?vid=bb903e76-66e9-47a7-a21b-9c74eee3f530"},"vehicle_type_id":"4","last_reported":1737544045,"current_range_meters":31200,"station_id":"ce4bhgp2rcd13ifvqfd0","pricing_plan_id":"cebpf4jnsgd1na2vs0mg"},{"bike_id":"3c2852e8-3d8e-4b8c-9510-44a66e24c469","system_id":"levelo_inurba_marseille","lat":43.26203,"lon":5.37449,"is_reserved":false,"is_disabled":false,"rental_uris":{"android":"levelo://app?vid=3c2852e8-3d8e-4b8c-9510-44a66e24c469","ios":"levelo://app?vid=3c2852e8-3d8e-4b8c-9510-44a66e24c469"},"vehicle_type_id":"4","last_reported":1737544045,"current_range_meters":19200,"station_id":"ce4bhgp2rcd13ifvqfc0","pricing_plan_id":"cebpf4jnsgd1na2vs0mg"},{"bike_id":"51f9259f-ce80-40d8-83a3-20a81bad2134","system_id":"levelo_inurba_marseille","lat":43.31524,"lon":5.38042,"is_reserved":false,"is_disabled":false,"rental_uris":{"android":"levelo://app?vid=51f9259f-ce80-40d8-83a3-20a81bad2134","ios":"levelo://app?vid=51f9259f-ce80-40d8-83a3-20a81bad2134"},"vehicle_type_id":"4","last_reported":1737544045,"current_range_meters":38800,"station_id":"ce4bhsp2rcd13ifvqi50","pricing_plan_id":"cebpf4jnsgd1na2vs0mg"},{"bike_id":"49838f35-8770-4b60-b326-4d678d8fb3d2","system_id":"levelo_inurba_marseille","lat":43.29545,"lon":5.38568,"is_reserved":false,"is_disabled":false,"rental_uris":{"android":"levelo://app?vid=49838f35-8770-4b60-b326-4d678d8fb3d2","ios":"levelo://app?vid=49838f35-8770-4b60-b326-4d678d8fb3d2"},"vehicle_type_id":"4","last_reported":1737544045,"current_range_meters":38800,"station_id":"ce4bgih2rcd13ifvqba0","pricing_plan_id":"cebpf4jnsgd1na2vs0mg"},{"bike_id":"28036634-c512-4356-9e71-3beeb23da1ed","system_id":"levelo_inurba_marseille","lat":43.31381,"lon":5.36655,"is_reserved":false,"is_disabled":false,"rental_uris":{"android":"levelo://app?vid=28036634-c512-4356-9e71-3beeb23da1ed","ios":"levelo://app?vid=28036634-c512-4356-9e71-3beeb23da1ed"},"vehicle_type_id":"4","last_reported":1737544045,"current_range_meters":38400,"station_id":"","pricing_plan_id":"cebpf4jnsgd1na2vs0mg"},{"bike_id":"4d5be717-9cef-4815-a473-65552444d60f","system_id":"levelo_inurba_marseille","lat":43.30458,"lon":5.37909,"is_reserved":false,"is_disabled":false,"rental_uris":{"android":"levelo://app?vid=4d5be717-9cef-4815-a473-65552444d60f","ios":"levelo://app?vid=4d5be717-9cef-4815-a473-65552444d60f"},"vehicle_type_id":"4","last_reported":1737544045,"current_range_meters":33600,"station_id":"ce4bgup2rcd13ifvqcn0","pricing_plan_id":"cebpf4jnsgd1na2vs0mg"},{"bike_id":"18110634-8656-4425-868c-91f0e5cdb086","system_id":"levelo_inurba_marseille","lat":43.25088,"lon":5.3953,"is_reserved":false,"is_disabled":false,"rental_uris":{"android":"levelo://app?vid=18110634-8656-4425-868c-91f0e5cdb086","ios":"levelo://app?vid=18110634-8656-4425-868c-91f0e5cdb086"},"vehicle_type_id":"4","last_reported":1737544045,"current_range_meters":38800,"station_id":"ce4bhm12rcd13ifvqgkg","pricing_plan_id":"cebpf4jnsgd1na2vs0mg"},{"bike_id":"9bd66477-dceb-4746-9428-f918434c4283","system_id":"levelo_inurba_marseille","lat":43.30464,"lon":5.39709,"is_reserved":false,"is_disabled":false,"rental_uris":{"android":"levelo://app?vid=9bd66477-dceb-4746-9428-f918434c4283","ios":"levelo://app?vid=9bd66477-dceb-4746-9428-f918434c4283"},"vehicle_type_id":"4","last_reported":1737544045,"current_range_meters":38000,"station_id":"ce4bh092rcd13ifvqd20","pricing_plan_id":"cebpf4jnsgd1na2vs0mg"},{"bike_id":"b6a11978-661f-4ede-9396-304857295fcd","system_id":"levelo_inurba_marseille","lat":43.23965,"lon":5.36641,"is_reserved":false,"is_disabled":false,"rental_uris":{"android":"levelo://app?vid=b6a11978-661f-4ede-9396-304857295fcd","ios":"levelo://app?vid=b6a11978-661f-4ede-9396-304857295fcd"},"vehicle_type_id":"4","last_reported":1737544045,"current_range_meters":8000,"station_id":"ce4bhi12rcd13ifvqfp0","pricing_plan_id":"cebpf4jnsgd1na2vs0mg"},{"bike_id":"b0e43fff-b71c-464a-92ca-5282140457cf","system_id":"levelo_inurba_marseille","lat":43.27991,"lon":5.41667,"is_reserved":false,"is_disabled":false,"rental_uris":{"android":"levelo://app?vid=b0e43fff-b71c-464a-92ca-5282140457cf","ios":"levelo://app?vid=b0e43fff-b71c-464a-92ca-5282140457cf"},"vehicle_type_id":"4","last_reported":1737544045,"current_range_meters":36400,"station_id":"ce4bho12rcd13ifvqh1g","pricing_plan_id":"cebpf4jnsgd1na2vs0mg"},{"bike_id":"47c814c0-6ef6-4d1f-befb-d3d5966eee57","system_id":"levelo_inurba_marseille","lat":43.30783,"lon":5.37654,"is_reserved":false,"is_disabled":false,"rental_uris":{"android":"levelo://app?vid=47c814c0-6ef6-4d1f-befb-d3d5966eee57","ios":"levelo://app?vid=47c814c0-6ef6-4d1f-befb-d3d5966eee57"},"vehicle_type_id":"4","last_reported":1737544045,"current_range_meters":16800,"station_id":"ce4bgv92rcd13ifvqcq0","pricing_plan_id":"cebpf4jnsgd1na2vs0mg"},{"bike_id":"9e74abcc-5895-4f3f-b47d-6e60ecbffd6c","system_id":"levelo_inurba_marseille","lat":43.2956,"lon":5.39978,"is_reserved":false,"is_disabled":false,"rental_uris":{"android":"levelo://app?vid=9e74abcc-5895-4f3f-b47d-6e60ecbffd6c","ios":"levelo://app?vid=9e74abcc-5895-4f3f-b47d-6e60ecbffd6c"},"vehicle_type_id":"4","last_reported":1737544045,"current_range_meters":39200,"station_id":"ce4bh312rcd13ifvqdj0","pricing_plan_id":"cebpf4jnsgd1na2vs0mg"},{"bike_id":"1450bd64-05c1-4364-83aa-daa0fb011f91","system_id":"levelo_inurba_marseille","lat":43.29975,"lon":5.41316,"is_reserved":false,"is_disabled":false,"rental_uris":{"android":"levelo://app?vid=1450bd64-05c1-4364-83aa-daa0fb011f91","ios":"levelo://app?vid=1450bd64-05c1-4364-83aa-daa0fb011f91"},"vehicle_type_id":"4","last_reported":1737544045,"current_range_meters":35200,"station_id":"ce4bhp12rcd13ifvqh9g","pricing_plan_id":"cebpf4jnsgd1na2vs0mg"},{"bike_id":"e7ebdef9-55cf-4766-85b7-598a4a606e46","system_id":"levelo_inurba_marseille","lat":43.29618,"lon":5.37156,"is_reserved":false,"is_disabled":false,"rental_uris":{"android":"levelo://app?vid=e7ebdef9-55cf-4766-85b7-598a4a606e46","ios":"levelo://app?vid=e7ebdef9-55cf-4766-85b7-598a4a606e46"},"vehicle_type_id":"4","last_reported":1737544045,"current_range_meters":17600,"station_id":"ce4bgnh2rcd13ifvqc0g","pricing_plan_id":"cebpf4jnsgd1na2vs0mg"},{"bike_id":"f1a412fd-a768-4593-9ede-c0c3d8d21696","system_id":"levelo_inurba_marseille","lat":43.31695,"lon":5.37775,"is_reserved":false,"is_disabled":false,"rental_uris":{"android":"levelo://app?vid=f1a412fd-a768-4593-9ede-c0c3d8d21696","ios":"levelo://app?vid=f1a412fd-a768-4593-9ede-c0c3d8d21696"},"vehicle_type_id":"4","last_reported":1737544045,"current_range_meters":37600,"station_id":"ce4bgth2rcd13ifvqch0","pricing_plan_id":"cebpf4jnsgd1na2vs0mg"},{"bike_id":"2b9c732d-9dbe-44f7-bc20-f64bc37b8086","system_id":"levelo_inurba_marseille","lat":43.28701,"lon":5.37992,"is_reserved":false,"is_disabled":false,"rental_uris":{"android":"levelo://app?vid=2b9c732d-9dbe-44f7-bc20-f64bc37b8086","ios":"levelo://app?vid=2b9c732d-9dbe-44f7-bc20-f64bc37b8086"},"vehicle_type_id":"4","last_reported":1737544045,"current_range_meters":20800,"station_id":"ce4bh9p2rcd13ifvqec0","pricing_plan_id":"cebpf4jnsgd1na2vs0mg"},{"bike_id":"935b95c1-9614-4260-800d-a9d90768dbc4","system_id":"levelo_inurba_marseille","lat":43.29062,"lon":5.37158,"is_reserved":false,"is_disabled":false,"rental_uris":{"android":"levelo://app?vid=935b95c1-9614-4260-800d-a9d90768dbc4","ios":"levelo://app?vid=935b95c1-9614-4260-800d-a9d90768dbc4"},"vehicle_type_id":"4","last_reported":1737544045,"current_range_meters":27600,"station_id":"ce4bh5p2rcd13ifvqe4g","pricing_plan_id":"cebpf4jnsgd1na2vs0mg"},{"bike_id":"65dccb82-e0d5-464f-9ab0-52b1f760eca6","system_id":"levelo_inurba_marseille","lat":43.27374,"lon":5.36259,"is_reserved":false,"is_disabled":false,"rental_uris":{"android":"levelo://app?vid=65dccb82-e0d5-464f-9ab0-52b1f760eca6","ios":"levelo://app?vid=65dccb82-e0d5-464f-9ab0-52b1f760eca6"},"vehicle_type_id":"4","last_reported":1737544045,"current_range_meters":38000,"station_id":"ce4bhbh2rcd13ifvqeo0","pricing_plan_id":"cebpf4jnsgd1na2vs0mg"},{"bike_id":"fe2089a7-9e7b-4a7a-8bc3-781431ea9568","system_id":"levelo_inurba_marseille","lat":43.2594,"lon":5.40884,"is_reserved":false,"is_disabled":false,"rental_uris":{"android":"levelo://app?vid=fe2089a7-9e7b-4a7a-8bc3-781431ea9568","ios":"levelo://app?vid=fe2089a7-9e7b-4a7a-8bc3-781431ea9568"},"vehicle_type_id":"4","last_reported":1737544045,"current_range_meters":38800,"station_id":"ce4bhm92rcd13ifvqglg","pricing_plan_id":"cebpf4jnsgd1na2vs0mg"},{"bike_id":"d0cae785-4197-4664-82a9-07ebe2236019","system_id":"levelo_inurba_marseille","lat":43.337444,"lon":5.374475,"is_reserved":false,"is_disabled":false,"rental_uris":{"android":"levelo://app?vid=d0cae785-4197-4664-82a9-07ebe2236019","ios":"levelo://app?vid=d0cae785-4197-4664-82a9-07ebe2236019"},"vehicle_type_id":"4","last_reported":1737544045,"current_range_meters":38800,"station_id":"","pricing_plan_id":"cebpf4jnsgd1na2vs0mg"},{"bike_id":"253d9fb0-f552-49b9-86de-775f41f112ed","system_id":"levelo_inurba_marseille","lat":43.31291,"lon":5.36744,"is_reserved":false,"is_disabled":false,"rental_uris":{"android":"levelo://app?vid=253d9fb0-f552-49b9-86de-775f41f112ed","ios":"levelo://app?vid=253d9fb0-f552-49b9-86de-775f41f112ed"},"vehicle_type_id":"4","last_reported":1737544045,"current_range_meters":16000,"station_id":"ce4bgr92rcd13ifvqc6g","pricing_plan_id":"cebpf4jnsgd1na2vs0mg"},{"bike_id":"8150b8bb-c63a-4f21-b930-4f138284755a","system_id":"levelo_inurba_marseille","lat":43.31686,"lon":5.40485,"is_reserved":false,"is_disabled":false,"rental_uris":{"android":"levelo://app?vid=8150b8bb-c63a-4f21-b930-4f138284755a","ios":"levelo://app?vid=8150b8bb-c63a-4f21-b930-4f138284755a"},"vehicle_type_id":"4","last_reported":1737544045,"current_range_meters":38400,"station_id":"ce4bh012rcd13ifvqd00","pricing_plan_id":"cebpf4jnsgd1na2vs0mg"},{"bike_id":"28513575-b7c6-4140-bca2-6e6c02c6c39a","system_id":"levelo_inurba_marseille","lat":43.3034,"lon":5.37677,"is_reserved":false,"is_disabled":false,"rental_uris":{"android":"levelo://app?vid=28513575-b7c6-4140-bca2-6e6c02c6c39a","ios":"levelo://app?vid=28513575-b7c6-4140-bca2-6e6c02c6c39a"},"vehicle_type_id":"4","last_reported":1737544045,"current_range_meters":38400,"station_id":"ce4bguh2rcd13ifvqcj0","pricing_plan_id":"cebpf4jnsgd1na2vs0mg"},{"bike_id":"85f44e62-bc4e-46c0-9b60-08f0517afbc0","system_id":"levelo_inurba_marseille","lat":43.33726,"lon":5.39196,"is_reserved":false,"is_disabled":false,"rental_uris":{"android":"levelo://app?vid=85f44e62-bc4e-46c0-9b60-08f0517afbc0","ios":"levelo://app?vid=85f44e62-bc4e-46c0-9b60-08f0517afbc0"},"vehicle_type_id":"4","last_reported":1737544045,"current_range_meters":38000,"station_id":"ce4bhr92rcd13ifvqhsg","pricing_plan_id":"cebpf4jnsgd1na2vs0mg"},{"bike_id":"4784f4d0-8541-4160-ac19-b8ca95746303","system_id":"levelo_inurba_marseille","lat":43.25087,"lon":5.39516,"is_reserved":false,"is_disabled":false,"rental_uris":{"android":"levelo://app?vid=4784f4d0-8541-4160-ac19-b8ca95746303","ios":"levelo://app?vid=4784f4d0-8541-4160-ac19-b8ca95746303"},"vehicle_type_id":"4","last_reported":1737544045,"current_range_meters":39200,"station_id":"ce4bhm12rcd13ifvqgkg","pricing_plan_id":"cebpf4jnsgd1na2vs0mg"},{"bike_id":"dc7c28c2-2288-4581-80b1-41d66191fb14","system_id":"levelo_inurba_marseille","lat":43.30529,"lon":5.36526,"is_reserved":false,"is_disabled":false,"rental_uris":{"android":"levelo://app?vid=dc7c28c2-2288-4581-80b1-41d66191fb14","ios":"levelo://app?vid=dc7c28c2-2288-4581-80b1-41d66191fb14"},"vehicle_type_id":"4","last_reported":1737544045,"current_range_meters":33200,"station_id":"ce4bgs12rcd13ifvqcag","pricing_plan_id":"cebpf4jnsgd1na2vs0mg"},{"bike_id":"8873fe51-7415-4a08-9bb9-e814b926156d","system_id":"levelo_inurba_marseille","lat":43.30417,"lon":5.39766,"is_reserved":false,"is_disabled":false,"rental_uris":{"android":"levelo://app?vid=8873fe51-7415-4a08-9bb9-e814b926156d","ios":"levelo://app?vid=8873fe51-7415-4a08-9bb9-e814b926156d"},"vehicle_type_id":"4","last_reported":1737544045,"current_range_meters":33600,"station_id":"ce4bh092rcd13ifvqd20","pricing_plan_id":"cebpf4jnsgd1na2vs0mg"},{"bike_id":"be25cb0c-4f66-4d84-ada3-aa4d5df7dc03","system_id":"levelo_inurba_marseille","lat":43.3266,"lon":5.40987,"is_reserved":false,"is_disabled":false,"rental_uris":{"android":"levelo://app?vid=be25cb0c-4f66-4d84-ada3-aa4d5df7dc03","ios":"levelo://app?vid=be25cb0c-4f66-4d84-ada3-aa4d5df7dc03"},"vehicle_type_id":"4","last_reported":1737544045,"current_range_meters":39200,"station_id":"ce4bhpp2rcd13ifvqhgg","pricing_plan_id":"cebpf4jnsgd1na2vs0mg"},{"bike_id":"963d0dc6-15f6-4dbc-a3d4-f23be970d4ee","system_id":"levelo_inurba_marseille","lat":43.29783,"lon":5.37081,"is_reserved":false,"is_disabled":false,"rental_uris":{"android":"levelo://app?vid=963d0dc6-15f6-4dbc-a3d4-f23be970d4ee","ios":"levelo://app?vid=963d0dc6-15f6-4dbc-a3d4-f23be970d4ee"},"vehicle_type_id":"4","last_reported":1737544045,"current_range_meters":38800,"station_id":"ce4bgop2rcd13ifvqc1g","pricing_plan_id":"cebpf4jnsgd1na2vs0mg"},{"bike_id":"5abb4da4-c771-46cd-9b51-7f0233823284","system_id":"levelo_inurba_marseille","lat":43.26057,"lon":5.39401,"is_reserved":false,"is_disabled":false,"rental_uris":{"android":"levelo://app?vid=5abb4da4-c771-46cd-9b51-7f0233823284","ios":"levelo://app?vid=5abb4da4-c771-46cd-9b51-7f0233823284"},"vehicle_type_id":"4","last_reported":1737544045,"current_range_meters":36400,"station_id":"ce4bhh92rcd13ifvqfj0","pricing_plan_id":"cebpf4jnsgd1na2vs0mg"},{"bike_id":"8e416dc1-d865-42da-bb73-1b3fc91fa645","system_id":"levelo_inurba_marseille","lat":43.31334,"lon":5.36737,"is_reserved":false,"is_disabled":false,"rental_uris":{"android":"levelo://app?vid=8e416dc1-d865-42da-bb73-1b3fc91fa645","ios":"levelo://app?vid=8e416dc1-d865-42da-bb73-1b3fc91fa645"},"vehicle_type_id":"4","last_reported":1737544045,"current_range_meters":16000,"station_id":"ce4bgr92rcd13ifvqc6g","pricing_plan_id":"cebpf4jnsgd1na2vs0mg"},{"bike_id":"86fce387-d25e-46bb-928c-c6923257e7fb","system_id":"levelo_inurba_marseille","lat":43.28397,"lon":5.37545,"is_reserved":false,"is_disabled":false,"rental_uris":{"android":"levelo://app?vid=86fce387-d25e-46bb-928c-c6923257e7fb","ios":"levelo://app?vid=86fce387-d25e-46bb-928c-c6923257e7fb"},"vehicle_type_id":"4","last_reported":1737544045,"current_range_meters":9600,"station_id":"ce4bh412rcd13ifvqds0","pricing_plan_id":"cebpf4jnsgd1na2vs0mg"},{"bike_id":"d7a28120-a7b4-4fe8-91f5-461f37dfeebd","system_id":"levelo_inurba_marseille","lat":43.3029,"lon":5.37694,"is_reserved":false,"is_disabled":false,"rental_uris":{"android":"levelo://app?vid=d7a28120-a7b4-4fe8-91f5-461f37dfeebd","ios":"levelo://app?vid=d7a28120-a7b4-4fe8-91f5-461f37dfeebd"},"vehicle_type_id":"4","last_reported":1737544045,"current_range_meters":16800,"station_id":"ce4bguh2rcd13ifvqcj0","pricing_plan_id":"cebpf4jnsgd1na2vs0mg"},{"bike_id":"acd544f3-6be5-453f-8807-9f59f28fadcf","system_id":"levelo_inurba_marseille","lat":43.29014,"lon":5.35596,"is_reserved":false,"is_disabled":false,"rental_uris":{"android":"levelo://app?vid=acd544f3-6be5-453f-8807-9f59f28fadcf","ios":"levelo://app?vid=acd544f3-6be5-453f-8807-9f59f28fadcf"},"vehicle_type_id":"4","last_reported":1737544045,"current_range_meters":18800,"station_id":"ce4bhb92rcd13ifvqen0","pricing_plan_id":"cebpf4jnsgd1na2vs0mg"},{"bike_id":"f7946f6a-c3e0-4993-8534-b89ded0a8562","system_id":"levelo_inurba_marseille","lat":43.30863,"lon":5.39661,"is_reserved":false,"is_disabled":false,"rental_uris":{"android":"levelo://app?vid=f7946f6a-c3e0-4993-8534-b89ded0a8562","ios":"levelo://app?vid=f7946f6a-c3e0-4993-8534-b89ded0a8562"},"vehicle_type_id":"4","last_reported":1737544045,"current_range_meters":16800,"station_id":"ce4bh012rcd13ifvqcv0","pricing_plan_id":"cebpf4jnsgd1na2vs0mg"},{"bike_id":"da03f92c-2cc3-4e46-babd-ad47286635c7","system_id":"levelo_inurba_marseille","lat":43.29012,"lon":5.3561,"is_reserved":false,"is_disabled":false,"rental_uris":{"android":"levelo://app?vid=da03f92c-2cc3-4e46-babd-ad47286635c7","ios":"levelo://app?vid=da03f92c-2cc3-4e46-babd-ad47286635c7"},"vehicle_type_id":"4","last_reported":1737544045,"current_range_meters":36400,"station_id":"ce4bhb92rcd13ifvqen0","pricing_plan_id":"cebpf4jnsgd1na2vs0mg"},{"bike_id":"9863b7f9-4316-4322-9f6c-3cc66b0448e2","system_id":"levelo_inurba_marseille","lat":43.279439,"lon":5.389008,"is_reserved":false,"is_disabled":true,"rental_uris":{"android":"levelo://app?vid=9863b7f9-4316-4322-9f6c-3cc66b0448e2","ios":"levelo://app?vid=9863b7f9-4316-4322-9f6c-3cc66b0448e2"},"vehicle_type_id":"4","last_reported":1737544045,"current_range_meters":29600,"station_id":"","pricing_plan_id":"cebpf4jnsgd1na2vs0mg"},{"bike_id":"3c53655d-b0f9-4290-b116-be9beddde9f9","system_id":"levelo_inurba_marseille","lat":43.28151,"lon":5.42674,"is_reserved":false,"is_disabled":false,"rental_uris":{"android":"levelo://app?vid=3c53655d-b0f9-4290-b116-be9beddde9f9","ios":"levelo://app?vid=3c53655d-b0f9-4290-b116-be9beddde9f9"},"vehicle_type_id":"4","last_reported":1737544045,"current_range_meters":38800,"station_id":"ce4bhnh2rcd13ifvqgug","pricing_plan_id":"cebpf4jnsgd1na2vs0mg"},{"bike_id":"78577bd9-aa2e-4cc9-a28b-f63b627a4e35","system_id":"levelo_inurba_marseille","lat":43.30559,"lon":5.36526,"is_reserved":false,"is_disabled":true,"rental_uris":{"android":"levelo://app?vid=78577bd9-aa2e-4cc9-a28b-f63b627a4e35","ios":"levelo://app?vid=78577bd9-aa2e-4cc9-a28b-f63b627a4e35"},"vehicle_type_id":"4","last_reported":1737544045,"current_range_meters":0,"station_id":"ce4bgs12rcd13ifvqcag","pricing_plan_id":"cebpf4jnsgd1na2vs0mg"},{"bike_id":"8480fdd5-0499-492a-8f90-090d137451f7","system_id":"levelo_inurba_marseille","lat":43.32698,"lon":5.40896,"is_reserved":false,"is_disabled":false,"rental_uris":{"android":"levelo://app?vid=8480fdd5-0499-492a-8f90-090d137451f7","ios":"levelo://app?vid=8480fdd5-0499-492a-8f90-090d137451f7"},"vehicle_type_id":"4","last_reported":1737544045,"current_range_meters":38800,"station_id":"ce4bhpp2rcd13ifvqhgg","pricing_plan_id":"cebpf4jnsgd1na2vs0mg"},{"bike_id":"eddb6b89-082b-479c-b34f-44c352a03897","system_id":"levelo_inurba_marseille","lat":43.255,"lon":5.37647,"is_reserved":false,"is_disabled":false,"rental_uris":{"android":"levelo://app?vid=eddb6b89-082b-479c-b34f-44c352a03897","ios":"levelo://app?vid=eddb6b89-082b-479c-b34f-44c352a03897"},"vehicle_type_id":"4","last_reported":1737544045,"current_range_meters":39200,"station_id":"ce4bhh12rcd13ifvqff0","pricing_plan_id":"cebpf4jnsgd1na2vs0mg"},{"bike_id":"cf42e185-18a4-4257-b7b4-882caf2c784b","system_id":"levelo_inurba_marseille","lat":43.29714,"lon":5.37701,"is_reserved":false,"is_disabled":false,"rental_uris":{"android":"levelo://app?vid=cf42e185-18a4-4257-b7b4-882caf2c784b","ios":"levelo://app?vid=cf42e185-18a4-4257-b7b4-882caf2c784b"},"vehicle_type_id":"4","last_reported":1737544045,"current_range_meters":24800,"station_id":"ce4bgkh2rcd13ifvqbl0","pricing_plan_id":"cebpf4jnsgd1na2vs0mg"},{"bike_id":"f315bc93-4512-466f-b8ea-ac633e98ac21","system_id":"levelo_inurba_marseille","lat":43.2844,"lon":5.34982,"is_reserved":false,"is_disabled":false,"rental_uris":{"android":"levelo://app?vid=f315bc93-4512-466f-b8ea-ac633e98ac21","ios":"levelo://app?vid=f315bc93-4512-466f-b8ea-ac633e98ac21"},"vehicle_type_id":"4","last_reported":1737544045,"current_range_meters":10800,"station_id":"ce4bhbh2rcd13ifvqepg","pricing_plan_id":"cebpf4jnsgd1na2vs0mg"},{"bike_id":"6bc83e52-526e-443c-a478-0ce2bb3dd8b1","system_id":"levelo_inurba_marseille","lat":43.30863,"lon":5.39639,"is_reserved":false,"is_disabled":false,"rental_uris":{"android":"levelo://app?vid=6bc83e52-526e-443c-a478-0ce2bb3dd8b1","ios":"levelo://app?vid=6bc83e52-526e-443c-a478-0ce2bb3dd8b1"},"vehicle_type_id":"4","last_reported":1737544045,"current_range_meters":8800,"station_id":"ce4bh012rcd13ifvqcv0","pricing_plan_id":"cebpf4jnsgd1na2vs0mg"},{"bike_id":"c13c5a90-81d4-46ba-8cf0-c46f064a6660","system_id":"levelo_inurba_marseille","lat":43.28614,"lon":5.37062,"is_reserved":false,"is_disabled":false,"rental_uris":{"android":"levelo://app?vid=c13c5a90-81d4-46ba-8cf0-c46f064a6660","ios":"levelo://app?vid=c13c5a90-81d4-46ba-8cf0-c46f064a6660"},"vehicle_type_id":"4","last_reported":1737544045,"current_range_meters":35200,"station_id":"ce4bht12rcd13ifvqi60","pricing_plan_id":"cebpf4jnsgd1na2vs0mg"},{"bike_id":"d68b3e8e-33af-4274-b864-802ee59be864","system_id":"levelo_inurba_marseille","lat":43.2886,"lon":5.3585,"is_reserved":false,"is_disabled":false,"rental_uris":{"android":"levelo://app?vid=d68b3e8e-33af-4274-b864-802ee59be864","ios":"levelo://app?vid=d68b3e8e-33af-4274-b864-802ee59be864"},"vehicle_type_id":"4","last_reported":1737544045,"current_range_meters":14400,"station_id":"ce4bhb12rcd13ifvqem0","pricing_plan_id":"cebpf4jnsgd1na2vs0mg"},{"bike_id":"d17dab00-9846-42b0-a11a-c341681e1042","system_id":"levelo_inurba_marseille","lat":43.31369,"lon":5.38525,"is_reserved":false,"is_disabled":false,"rental_uris":{"android":"levelo://app?vid=d17dab00-9846-42b0-a11a-c341681e1042","ios":"levelo://app?vid=d17dab00-9846-42b0-a11a-c341681e1042"},"vehicle_type_id":"4","last_reported":1737544045,"current_range_meters":36400,"station_id":"ce4bgt92rcd13ifvqcf0","pricing_plan_id":"cebpf4jnsgd1na2vs0mg"},{"bike_id":"6e7ed2aa-dcac-4c3c-892e-9d515f9111ce","system_id":"levelo_inurba_marseille","lat":43.30326,"lon":5.40427,"is_reserved":false,"is_disabled":false,"rental_uris":{"android":"levelo://app?vid=6e7ed2aa-dcac-4c3c-892e-9d515f9111ce","ios":"levelo://app?vid=6e7ed2aa-dcac-4c3c-892e-9d515f9111ce"},"vehicle_type_id":"4","last_reported":1737544045,"current_range_meters":38000,"station_id":"ce4bh012rcd13ifvqd10","pricing_plan_id":"cebpf4jnsgd1na2vs0mg"},{"bike_id":"e4261134-4427-4663-a176-8c03fab09833","system_id":"levelo_inurba_marseille","lat":43.30154,"lon":5.38083,"is_reserved":false,"is_disabled":false,"rental_uris":{"android":"levelo://app?vid=e4261134-4427-4663-a176-8c03fab09833","ios":"levelo://app?vid=e4261134-4427-4663-a176-8c03fab09833"},"vehicle_type_id":"4","last_reported":1737544045,"current_range_meters":24800,"station_id":"ce4bgjp2rcd13ifvqbh0","pricing_plan_id":"cebpf4jnsgd1na2vs0mg"},{"bike_id":"d1a97354-4ece-4aec-a0bf-9ee89b4bed6a","system_id":"levelo_inurba_marseille","lat":43.29901,"lon":5.38155,"is_reserved":false,"is_disabled":false,"rental_uris":{"android":"levelo://app?vid=d1a97354-4ece-4aec-a0bf-9ee89b4bed6a","ios":"levelo://app?vid=d1a97354-4ece-4aec-a0bf-9ee89b4bed6a"},"vehicle_type_id":"4","last_reported":1737544045,"current_range_meters":25200,"station_id":"ce4bgj12rcd13ifvqbc0","pricing_plan_id":"cebpf4jnsgd1na2vs0mg"},{"bike_id":"6f141ae6-8d56-4535-a19a-2332af085c24","system_id":"levelo_inurba_marseille","lat":43.30908,"lon":5.3685,"is_reserved":false,"is_disabled":false,"rental_uris":{"android":"levelo://app?vid=6f141ae6-8d56-4535-a19a-2332af085c24","ios":"levelo://app?vid=6f141ae6-8d56-4535-a19a-2332af085c24"},"vehicle_type_id":"4","last_reported":1737544045,"current_range_meters":36800,"station_id":"ce4bgn92rcd13ifvqbvg","pricing_plan_id":"cebpf4jnsgd1na2vs0mg"},{"bike_id":"4868f9c1-f778-4932-8fcb-6f79138895b7","system_id":"levelo_inurba_marseille","lat":43.24388,"lon":5.37061,"is_reserved":false,"is_disabled":false,"rental_uris":{"android":"levelo://app?vid=4868f9c1-f778-4932-8fcb-6f79138895b7","ios":"levelo://app?vid=4868f9c1-f778-4932-8fcb-6f79138895b7"},"vehicle_type_id":"4","last_reported":1737544045,"current_range_meters":36800,"station_id":"ce4bhhh2rcd13ifvqfk0","pricing_plan_id":"cebpf4jnsgd1na2vs0mg"},{"bike_id":"fcd4837f-6e09-4786-bcf5-c3a686cbcfef","system_id":"levelo_inurba_marseille","lat":43.299,"lon":5.43663,"is_reserved":false,"is_disabled":false,"rental_uris":{"android":"levelo://app?vid=fcd4837f-6e09-4786-bcf5-c3a686cbcfef","ios":"levelo://app?vid=fcd4837f-6e09-4786-bcf5-c3a686cbcfef"},"vehicle_type_id":"4","last_reported":1737544045,"current_range_meters":30400,"station_id":"ce4bhpp2rcd13ifvqhfg","pricing_plan_id":"cebpf4jnsgd1na2vs0mg"},{"bike_id":"e390797e-afe7-4623-a793-32fd8fcef7cf","system_id":"levelo_inurba_marseille","lat":43.2956,"lon":5.42289,"is_reserved":false,"is_disabled":false,"rental_uris":{"android":"levelo://app?vid=e390797e-afe7-4623-a793-32fd8fcef7cf","ios":"levelo://app?vid=e390797e-afe7-4623-a793-32fd8fcef7cf"},"vehicle_type_id":"4","last_reported":1737544045,"current_range_meters":39200,"station_id":"ce4bhph2rcd13ifvqhdg","pricing_plan_id":"cebpf4jnsgd1na2vs0mg"},{"bike_id":"4d6fd2be-6d04-48d6-95d6-f33100623d0c","system_id":"levelo_inurba_marseille","lat":43.29418,"lon":5.38627,"is_reserved":false,"is_disabled":false,"rental_uris":{"android":"levelo://app?vid=4d6fd2be-6d04-48d6-95d6-f33100623d0c","ios":"levelo://app?vid=4d6fd2be-6d04-48d6-95d6-f33100623d0c"},"vehicle_type_id":"4","last_reported":1737544045,"current_range_meters":25600,"station_id":"ce4bh2h2rcd13ifvqdh0","pricing_plan_id":"cebpf4jnsgd1na2vs0mg"},{"bike_id":"c502bd97-bcce-4e19-9d9b-affb815fdae3","system_id":"levelo_inurba_marseille","lat":43.292812,"lon":5.365641,"is_reserved":false,"is_disabled":false,"rental_uris":{"android":"levelo://app?vid=c502bd97-bcce-4e19-9d9b-affb815fdae3","ios":"levelo://app?vid=c502bd97-bcce-4e19-9d9b-affb815fdae3"},"vehicle_type_id":"4","last_reported":1737544045,"current_range_meters":20000,"station_id":"ce4bhb92rcd13ifvqen0","pricing_plan_id":"cebpf4jnsgd1na2vs0mg"},{"bike_id":"720f1bd4-b805-4549-913b-58e0db646266","system_id":"levelo_inurba_marseille","lat":43.32356,"lon":5.36766,"is_reserved":false,"is_disabled":false,"rental_uris":{"android":"levelo://app?vid=720f1bd4-b805-4549-913b-58e0db646266","ios":"levelo://app?vid=720f1bd4-b805-4549-913b-58e0db646266"},"vehicle_type_id":"4","last_reported":1737544045,"current_range_meters":16800,"station_id":"ce4bhsh2rcd13ifvqi2g","pricing_plan_id":"cebpf4jnsgd1na2vs0mg"},{"bike_id":"9831f86a-c390-45c3-ad1c-57e11c3e241d","system_id":"levelo_inurba_marseille","lat":43.30215,"lon":5.37788,"is_reserved":false,"is_disabled":false,"rental_uris":{"android":"levelo://app?vid=9831f86a-c390-45c3-ad1c-57e11c3e241d","ios":"levelo://app?vid=9831f86a-c390-45c3-ad1c-57e11c3e241d"},"vehicle_type_id":"4","last_reported":1737544045,"current_range_meters":36000,"station_id":"ce4bguh2rcd13ifvqcj0","pricing_plan_id":"cebpf4jnsgd1na2vs0mg"},{"bike_id":"e1ca541e-e43c-4ddb-811c-430d076a65df","system_id":"levelo_inurba_marseille","lat":43.301323,"lon":5.374237,"is_reserved":false,"is_disabled":false,"rental_uris":{"android":"levelo://app?vid=e1ca541e-e43c-4ddb-811c-430d076a65df","ios":"levelo://app?vid=e1ca541e-e43c-4ddb-811c-430d076a65df"},"vehicle_type_id":"4","last_reported":1737544045,"current_range_meters":24000,"station_id":"ce4bgs92rcd13ifvqcc0","pricing_plan_id":"cebpf4jnsgd1na2vs0mg"},{"bike_id":"7ede3916-f03b-456c-95fb-92b0e0083ec2","system_id":"levelo_inurba_marseille","lat":43.30958,"lon":5.39066,"is_reserved":false,"is_disabled":false,"rental_uris":{"android":"levelo://app?vid=7ede3916-f03b-456c-95fb-92b0e0083ec2","ios":"levelo://app?vid=7ede3916-f03b-456c-95fb-92b0e0083ec2"},"vehicle_type_id":"4","last_reported":1737544045,"current_range_meters":38800,"station_id":"ce4bgup2rcd13ifvqco0","pricing_plan_id":"cebpf4jnsgd1na2vs0mg"},{"bike_id":"61f488de-0e8a-4294-8c12-0963029cf453","system_id":"levelo_inurba_marseille","lat":43.25715,"lon":5.4112,"is_reserved":false,"is_disabled":false,"rental_uris":{"android":"levelo://app?vid=61f488de-0e8a-4294-8c12-0963029cf453","ios":"levelo://app?vid=61f488de-0e8a-4294-8c12-0963029cf453"},"vehicle_type_id":"4","last_reported":1737544045,"current_range_meters":31200,"station_id":"ce4bhkp2rcd13ifvqgd0","pricing_plan_id":"cebpf4jnsgd1na2vs0mg"},{"bike_id":"28834f2c-10fb-4f6d-a92a-dfa70d10cfdd","system_id":"levelo_inurba_marseille","lat":43.23147,"lon":5.43723,"is_reserved":false,"is_disabled":false,"rental_uris":{"android":"levelo://app?vid=28834f2c-10fb-4f6d-a92a-dfa70d10cfdd","ios":"levelo://app?vid=28834f2c-10fb-4f6d-a92a-dfa70d10cfdd"},"vehicle_type_id":"4","last_reported":1737544045,"current_range_meters":17600,"station_id":"ce4bhmp2rcd13ifvqgog","pricing_plan_id":"cebpf4jnsgd1na2vs0mg"},{"bike_id":"ada43244-c265-43f0-9741-5b0ac76681ee","system_id":"levelo_inurba_marseille","lat":43.31362,"lon":5.38508,"is_reserved":false,"is_disabled":false,"rental_uris":{"android":"levelo://app?vid=ada43244-c265-43f0-9741-5b0ac76681ee","ios":"levelo://app?vid=ada43244-c265-43f0-9741-5b0ac76681ee"},"vehicle_type_id":"4","last_reported":1737544045,"current_range_meters":18800,"station_id":"ce4bgt92rcd13ifvqcf0","pricing_plan_id":"cebpf4jnsgd1na2vs0mg"},{"bike_id":"0bf1e103-b4fd-41d9-980d-85529d1f6689","system_id":"levelo_inurba_marseille","lat":43.30533,"lon":5.38425,"is_reserved":false,"is_disabled":false,"rental_uris":{"android":"levelo://app?vid=0bf1e103-b4fd-41d9-980d-85529d1f6689","ios":"levelo://app?vid=0bf1e103-b4fd-41d9-980d-85529d1f6689"},"vehicle_type_id":"4","last_reported":1737544045,"current_range_meters":32000,"station_id":"ce4bgg92rcd13ifvqb30","pricing_plan_id":"cebpf4jnsgd1na2vs0mg"},{"bike_id":"2a770223-dca4-4c93-84e0-8cb027907bcd","system_id":"levelo_inurba_marseille","lat":43.30081,"lon":5.39115,"is_reserved":false,"is_disabled":false,"rental_uris":{"android":"levelo://app?vid=2a770223-dca4-4c93-84e0-8cb027907bcd","ios":"levelo://app?vid=2a770223-dca4-4c93-84e0-8cb027907bcd"},"vehicle_type_id":"4","last_reported":1737544045,"current_range_meters":38800,"station_id":"ce4bh192rcd13ifvqdb0","pricing_plan_id":"cebpf4jnsgd1na2vs0mg"},{"bike_id":"07dcf206-c2ca-44a6-8f1f-70b4aeb0695c","system_id":"levelo_inurba_marseille","lat":43.29603,"lon":5.37193,"is_reserved":false,"is_disabled":false,"rental_uris":{"android":"levelo://app?vid=07dcf206-c2ca-44a6-8f1f-70b4aeb0695c","ios":"levelo://app?vid=07dcf206-c2ca-44a6-8f1f-70b4aeb0695c"},"vehicle_type_id":"4","last_reported":1737544045,"current_range_meters":38800,"station_id":"ce4bgnh2rcd13ifvqc0g","pricing_plan_id":"cebpf4jnsgd1na2vs0mg"},{"bike_id":"47eca5cd-f395-49b7-8cda-38b605b71acf","system_id":"levelo_inurba_marseille","lat":43.257181,"lon":5.41125,"is_reserved":false,"is_disabled":false,"rental_uris":{"android":"levelo://app?vid=47eca5cd-f395-49b7-8cda-38b605b71acf","ios":"levelo://app?vid=47eca5cd-f395-49b7-8cda-38b605b71acf"},"vehicle_type_id":"4","last_reported":1737544045,"current_range_meters":20000,"station_id":"ce4bhkp2rcd13ifvqgd0","pricing_plan_id":"cebpf4jnsgd1na2vs0mg"},{"bike_id":"e99fd1fc-8351-45b5-ba1a-e5fee695a58f","system_id":"levelo_inurba_marseille","lat":43.33724,"lon":5.39243,"is_reserved":false,"is_disabled":false,"rental_uris":{"android":"levelo://app?vid=e99fd1fc-8351-45b5-ba1a-e5fee695a58f","ios":"levelo://app?vid=e99fd1fc-8351-45b5-ba1a-e5fee695a58f"},"vehicle_type_id":"4","last_reported":1737544045,"current_range_meters":35600,"station_id":"ce4bhr92rcd13ifvqhsg","pricing_plan_id":"cebpf4jnsgd1na2vs0mg"},{"bike_id":"298c42be-ec2d-4ea1-a639-d24a5cbdd049","system_id":"levelo_inurba_marseille","lat":43.30458,"lon":5.37924,"is_reserved":false,"is_disabled":false,"rental_uris":{"android":"levelo://app?vid=298c42be-ec2d-4ea1-a639-d24a5cbdd049","ios":"levelo://app?vid=298c42be-ec2d-4ea1-a639-d24a5cbdd049"},"vehicle_type_id":"4","last_reported":1737544045,"current_range_meters":38800,"station_id":"ce4bgup2rcd13ifvqcn0","pricing_plan_id":"cebpf4jnsgd1na2vs0mg"},{"bike_id":"cff1680f-636c-4c21-adec-aee2428512db","system_id":"levelo_inurba_marseille","lat":43.2859,"lon":5.37092,"is_reserved":false,"is_disabled":false,"rental_uris":{"android":"levelo://app?vid=cff1680f-636c-4c21-adec-aee2428512db","ios":"levelo://app?vid=cff1680f-636c-4c21-adec-aee2428512db"},"vehicle_type_id":"4","last_reported":1737544045,"current_range_meters":38000,"station_id":"ce4bht12rcd13ifvqi60","pricing_plan_id":"cebpf4jnsgd1na2vs0mg"},{"bike_id":"13ff516e-16cf-4543-8540-9030b8b296b4","system_id":"levelo_inurba_marseille","lat":43.23191,"lon":5.35579,"is_reserved":false,"is_disabled":false,"rental_uris":{"android":"levelo://app?vid=13ff516e-16cf-4543-8540-9030b8b296b4","ios":"levelo://app?vid=13ff516e-16cf-4543-8540-9030b8b296b4"},"vehicle_type_id":"4","last_reported":1737544045,"current_range_meters":34000,"station_id":"ce4bhu92rcd13ifvqi70","pricing_plan_id":"cebpf4jnsgd1na2vs0mg"},{"bike_id":"19254345-6b00-4b27-88ef-c0f3d42e7aa2","system_id":"levelo_inurba_marseille","lat":43.29435,"lon":5.38617,"is_reserved":false,"is_disabled":false,"rental_uris":{"android":"levelo://app?vid=19254345-6b00-4b27-88ef-c0f3d42e7aa2","ios":"levelo://app?vid=19254345-6b00-4b27-88ef-c0f3d42e7aa2"},"vehicle_type_id":"4","last_reported":1737544045,"current_range_meters":39200,"station_id":"ce4bh2h2rcd13ifvqdh0","pricing_plan_id":"cebpf4jnsgd1na2vs0mg"},{"bike_id":"9984a19d-448e-4ed2-8c95-d1103fd0e167","system_id":"levelo_inurba_marseille","lat":43.3176,"lon":5.39017,"is_reserved":false,"is_disabled":true,"rental_uris":{"android":"levelo://app?vid=9984a19d-448e-4ed2-8c95-d1103fd0e167","ios":"levelo://app?vid=9984a19d-448e-4ed2-8c95-d1103fd0e167"},"vehicle_type_id":"4","last_reported":1737544045,"current_range_meters":0,"station_id":"ce4bhqp2rcd13ifvqhng","pricing_plan_id":"cebpf4jnsgd1na2vs0mg"},{"bike_id":"dc9afc0d-d533-431b-a32f-6f6423d7880b","system_id":"levelo_inurba_marseille","lat":43.31731,"lon":5.42423,"is_reserved":false,"is_disabled":false,"rental_uris":{"android":"levelo://app?vid=dc9afc0d-d533-431b-a32f-6f6423d7880b","ios":"levelo://app?vid=dc9afc0d-d533-431b-a32f-6f6423d7880b"},"vehicle_type_id":"4","last_reported":1737544045,"current_range_meters":35600,"station_id":"ce4bhp92rcd13ifvqhbg","pricing_plan_id":"cebpf4jnsgd1na2vs0mg"},{"bike_id":"7d38a8d7-356a-430f-9866-33e957a4367b","system_id":"levelo_inurba_marseille","lat":43.28615,"lon":5.37056,"is_reserved":false,"is_disabled":false,"rental_uris":{"android":"levelo://app?vid=7d38a8d7-356a-430f-9866-33e957a4367b","ios":"levelo://app?vid=7d38a8d7-356a-430f-9866-33e957a4367b"},"vehicle_type_id":"4","last_reported":1737544045,"current_range_meters":12000,"station_id":"ce4bht12rcd13ifvqi60","pricing_plan_id":"cebpf4jnsgd1na2vs0mg"},{"bike_id":"41c8213a-1541-4633-8d61-a8c8d86b3f43","system_id":"levelo_inurba_marseille","lat":43.28267,"lon":5.35075,"is_reserved":false,"is_disabled":false,"rental_uris":{"android":"levelo://app?vid=41c8213a-1541-4633-8d61-a8c8d86b3f43","ios":"levelo://app?vid=41c8213a-1541-4633-8d61-a8c8d86b3f43"},"vehicle_type_id":"4","last_reported":1737544045,"current_range_meters":4800,"station_id":"ce4bhbp2rcd13ifvqerg","pricing_plan_id":"cebpf4jnsgd1na2vs0mg"},{"bike_id":"357536c7-1f45-4617-b06e-0042bcc2bbca","system_id":"levelo_inurba_marseille","lat":43.23974,"lon":5.3662,"is_reserved":false,"is_disabled":false,"rental_uris":{"android":"levelo://app?vid=357536c7-1f45-4617-b06e-0042bcc2bbca","ios":"levelo://app?vid=357536c7-1f45-4617-b06e-0042bcc2bbca"},"vehicle_type_id":"4","last_reported":1737544045,"current_range_meters":24800,"station_id":"ce4bhi12rcd13ifvqfp0","pricing_plan_id":"cebpf4jnsgd1na2vs0mg"},{"bike_id":"888a4885-df5c-4eaf-8cf2-6ef8a62431fa","system_id":"levelo_inurba_marseille","lat":43.32446,"lon":5.36616,"is_reserved":false,"is_disabled":true,"rental_uris":{"android":"levelo://app?vid=888a4885-df5c-4eaf-8cf2-6ef8a62431fa","ios":"levelo://app?vid=888a4885-df5c-4eaf-8cf2-6ef8a62431fa"},"vehicle_type_id":"4","last_reported":1737544045,"current_range_meters":38000,"station_id":"","pricing_plan_id":"cebpf4jnsgd1na2vs0mg"},{"bike_id":"85ae3dc4-5ff3-4a83-bde0-efccb589284c","system_id":"levelo_inurba_marseille","lat":43.30134,"lon":5.37431,"is_reserved":false,"is_disabled":false,"rental_uris":{"android":"levelo://app?vid=85ae3dc4-5ff3-4a83-bde0-efccb589284c","ios":"levelo://app?vid=85ae3dc4-5ff3-4a83-bde0-efccb589284c"},"vehicle_type_id":"4","last_reported":1737544045,"current_range_meters":26800,"station_id":"ce4bgs92rcd13ifvqcc0","pricing_plan_id":"cebpf4jnsgd1na2vs0mg"},{"bike_id":"f5471d15-8ac3-4a12-8a17-000d44a92a14","system_id":"levelo_inurba_marseille","lat":43.292819,"lon":5.368441,"is_reserved":false,"is_disabled":false,"rental_uris":{"android":"levelo://app?vid=f5471d15-8ac3-4a12-8a17-000d44a92a14","ios":"levelo://app?vid=f5471d15-8ac3-4a12-8a17-000d44a92a14"},"vehicle_type_id":"4","last_reported":1737544045,"current_range_meters":18800,"station_id":"ce4bhbp2rcd13ifvqesg","pricing_plan_id":"cebpf4jnsgd1na2vs0mg"},{"bike_id":"304a69c7-82eb-4653-af02-604465948933","system_id":"levelo_inurba_marseille","lat":43.28461,"lon":5.35887,"is_reserved":false,"is_disabled":false,"rental_uris":{"android":"levelo://app?vid=304a69c7-82eb-4653-af02-604465948933","ios":"levelo://app?vid=304a69c7-82eb-4653-af02-604465948933"},"vehicle_type_id":"4","last_reported":1737544045,"current_range_meters":36400,"station_id":"ce4bhah2rcd13ifvqei0","pricing_plan_id":"cebpf4jnsgd1na2vs0mg"},{"bike_id":"cf448c5c-db41-4ea8-91f8-588afbf5d56e","system_id":"levelo_inurba_marseille","lat":43.31173,"lon":5.38737,"is_reserved":false,"is_disabled":false,"rental_uris":{"android":"levelo://app?vid=cf448c5c-db41-4ea8-91f8-588afbf5d56e","ios":"levelo://app?vid=cf448c5c-db41-4ea8-91f8-588afbf5d56e"},"vehicle_type_id":"4","last_reported":1737544045,"current_range_meters":35200,"station_id":"ce4bgv12rcd13ifvqcp0","pricing_plan_id":"cebpf4jnsgd1na2vs0mg"},{"bike_id":"8cefa966-6b41-4750-b476-d277a4610101","system_id":"levelo_inurba_marseille","lat":43.30152,"lon":5.38084,"is_reserved":false,"is_disabled":false,"rental_uris":{"android":"levelo://app?vid=8cefa966-6b41-4750-b476-d277a4610101","ios":"levelo://app?vid=8cefa966-6b41-4750-b476-d277a4610101"},"vehicle_type_id":"4","last_reported":1737544045,"current_range_meters":39200,"station_id":"ce4bgjp2rcd13ifvqbh0","pricing_plan_id":"cebpf4jnsgd1na2vs0mg"},{"bike_id":"2aa1d806-0885-4cf3-8d12-ba533166cb58","system_id":"levelo_inurba_marseille","lat":43.30419,"lon":5.41285,"is_reserved":false,"is_disabled":true,"rental_uris":{"android":"levelo://app?vid=2aa1d806-0885-4cf3-8d12-ba533166cb58","ios":"levelo://app?vid=2aa1d806-0885-4cf3-8d12-ba533166cb58"},"vehicle_type_id":"4","last_reported":1737544045,"current_range_meters":0,"station_id":"ce4bhop2rcd13ifvqh8g","pricing_plan_id":"cebpf4jnsgd1na2vs0mg"},{"bike_id":"d4903612-20b1-4811-8769-9df6cd1b756d","system_id":"levelo_inurba_marseille","lat":43.29809,"lon":5.40408,"is_reserved":false,"is_disabled":false,"rental_uris":{"android":"levelo://app?vid=d4903612-20b1-4811-8769-9df6cd1b756d","ios":"levelo://app?vid=d4903612-20b1-4811-8769-9df6cd1b756d"},"vehicle_type_id":"4","last_reported":1737544045,"current_range_meters":20800,"station_id":"ce4bh112rcd13ifvqd90","pricing_plan_id":"cebpf4jnsgd1na2vs0mg"},{"bike_id":"13911699-0577-4679-ac2d-b9fc0255de34","system_id":"levelo_inurba_marseille","lat":43.29543,"lon":5.42269,"is_reserved":false,"is_disabled":false,"rental_uris":{"android":"levelo://app?vid=13911699-0577-4679-ac2d-b9fc0255de34","ios":"levelo://app?vid=13911699-0577-4679-ac2d-b9fc0255de34"},"vehicle_type_id":"4","last_reported":1737544045,"current_range_meters":38400,"station_id":"ce4bhph2rcd13ifvqhdg","pricing_plan_id":"cebpf4jnsgd1na2vs0mg"},{"bike_id":"cc3cf73e-b8dc-4fbd-82a1-4b1f9fb93d35","system_id":"levelo_inurba_marseille","lat":43.3376,"lon":5.37449,"is_reserved":false,"is_disabled":false,"rental_uris":{"android":"levelo://app?vid=cc3cf73e-b8dc-4fbd-82a1-4b1f9fb93d35","ios":"levelo://app?vid=cc3cf73e-b8dc-4fbd-82a1-4b1f9fb93d35"},"vehicle_type_id":"4","last_reported":1737544045,"current_range_meters":29600,"station_id":"","pricing_plan_id":"cebpf4jnsgd1na2vs0mg"},{"bike_id":"ee9cc47a-f51d-4fef-bd03-56f6414795a7","system_id":"levelo_inurba_marseille","lat":43.26796,"lon":5.39457,"is_reserved":false,"is_disabled":false,"rental_uris":{"android":"levelo://app?vid=ee9cc47a-f51d-4fef-bd03-56f6414795a7","ios":"levelo://app?vid=ee9cc47a-f51d-4fef-bd03-56f6414795a7"},"vehicle_type_id":"4","last_reported":1737544045,"current_range_meters":39200,"station_id":"ce4bhh12rcd13ifvqfg0","pricing_plan_id":"cebpf4jnsgd1na2vs0mg"},{"bike_id":"6ca5cad2-aef0-41c6-b59e-0a096fb80756","system_id":"levelo_inurba_marseille","lat":43.29254,"lon":5.38477,"is_reserved":false,"is_disabled":false,"rental_uris":{"android":"levelo://app?vid=6ca5cad2-aef0-41c6-b59e-0a096fb80756","ios":"levelo://app?vid=6ca5cad2-aef0-41c6-b59e-0a096fb80756"},"vehicle_type_id":"4","last_reported":1737544045,"current_range_meters":30800,"station_id":"ce4bh692rcd13ifvqea0","pricing_plan_id":"cebpf4jnsgd1na2vs0mg"},{"bike_id":"ce407501-6091-44e7-ad0f-66cbaf1ba1d0","system_id":"levelo_inurba_marseille","lat":43.29541,"lon":5.3941,"is_reserved":false,"is_disabled":false,"rental_uris":{"android":"levelo://app?vid=ce407501-6091-44e7-ad0f-66cbaf1ba1d0","ios":"levelo://app?vid=ce407501-6091-44e7-ad0f-66cbaf1ba1d0"},"vehicle_type_id":"4","last_reported":1737544045,"current_range_meters":25200,"station_id":"ce4bh292rcd13ifvqdf0","pricing_plan_id":"cebpf4jnsgd1na2vs0mg"},{"bike_id":"ddb8f55d-b627-4e33-bc7c-22071bbc9f6d","system_id":"levelo_inurba_marseille","lat":43.29979,"lon":5.38484,"is_reserved":false,"is_disabled":false,"rental_uris":{"android":"levelo://app?vid=ddb8f55d-b627-4e33-bc7c-22071bbc9f6d","ios":"levelo://app?vid=ddb8f55d-b627-4e33-bc7c-22071bbc9f6d"},"vehicle_type_id":"4","last_reported":1737544045,"current_range_meters":38800,"station_id":"ce4bgj92rcd13ifvqbd0","pricing_plan_id":"cebpf4jnsgd1na2vs0mg"},{"bike_id":"7b75cee9-f0c6-44ed-b261-d7b2bfcccd1d","system_id":"levelo_inurba_marseille","lat":43.2962,"lon":5.37172,"is_reserved":false,"is_disabled":false,"rental_uris":{"android":"levelo://app?vid=7b75cee9-f0c6-44ed-b261-d7b2bfcccd1d","ios":"levelo://app?vid=7b75cee9-f0c6-44ed-b261-d7b2bfcccd1d"},"vehicle_type_id":"4","last_reported":1737544045,"current_range_meters":24000,"station_id":"ce4bgnh2rcd13ifvqc0g","pricing_plan_id":"cebpf4jnsgd1na2vs0mg"},{"bike_id":"d0f83ca8-9ae5-472a-a447-2229d84a32d1","system_id":"levelo_inurba_marseille","lat":43.32354,"lon":5.36767,"is_reserved":false,"is_disabled":false,"rental_uris":{"android":"levelo://app?vid=d0f83ca8-9ae5-472a-a447-2229d84a32d1","ios":"levelo://app?vid=d0f83ca8-9ae5-472a-a447-2229d84a32d1"},"vehicle_type_id":"4","last_reported":1737544045,"current_range_meters":28400,"station_id":"ce4bhsh2rcd13ifvqi2g","pricing_plan_id":"cebpf4jnsgd1na2vs0mg"},{"bike_id":"64adc353-6ecd-4dd9-bc08-0d8975cd87ad","system_id":"levelo_inurba_marseille","lat":43.28488,"lon":5.38553,"is_reserved":false,"is_disabled":false,"rental_uris":{"android":"levelo://app?vid=64adc353-6ecd-4dd9-bc08-0d8975cd87ad","ios":"levelo://app?vid=64adc353-6ecd-4dd9-bc08-0d8975cd87ad"},"vehicle_type_id":"4","last_reported":1737544045,"current_range_meters":34800,"station_id":"ce4bh8p2rcd13ifvqeb0","pricing_plan_id":"cebpf4jnsgd1na2vs0mg"},{"bike_id":"6f824729-72f6-40e3-a22d-9f70ac2c6041","system_id":"levelo_inurba_marseille","lat":43.30555,"lon":5.36539,"is_reserved":false,"is_disabled":false,"rental_uris":{"android":"levelo://app?vid=6f824729-72f6-40e3-a22d-9f70ac2c6041","ios":"levelo://app?vid=6f824729-72f6-40e3-a22d-9f70ac2c6041"},"vehicle_type_id":"4","last_reported":1737544045,"current_range_meters":30800,"station_id":"ce4bgs12rcd13ifvqcag","pricing_plan_id":"cebpf4jnsgd1na2vs0mg"},{"bike_id":"f5b52696-dada-4db8-ac63-486420d431ea","system_id":"levelo_inurba_marseille","lat":43.24646,"lon":5.38906,"is_reserved":false,"is_disabled":false,"rental_uris":{"android":"levelo://app?vid=f5b52696-dada-4db8-ac63-486420d431ea","ios":"levelo://app?vid=f5b52696-dada-4db8-ac63-486420d431ea"},"vehicle_type_id":"4","last_reported":1737544045,"current_range_meters":38800,"station_id":"ce4bhg12rcd13ifvqf60","pricing_plan_id":"cebpf4jnsgd1na2vs0mg"},{"bike_id":"54594702-35ed-487f-b2bd-f98ef87caf76","system_id":"levelo_inurba_marseille","lat":43.30408,"lon":5.41307,"is_reserved":false,"is_disabled":false,"rental_uris":{"android":"levelo://app?vid=54594702-35ed-487f-b2bd-f98ef87caf76","ios":"levelo://app?vid=54594702-35ed-487f-b2bd-f98ef87caf76"},"vehicle_type_id":"4","last_reported":1737544045,"current_range_meters":39200,"station_id":"ce4bhop2rcd13ifvqh8g","pricing_plan_id":"cebpf4jnsgd1na2vs0mg"},{"bike_id":"c65c3bad-fd08-46c9-9715-0088ab8d2986","system_id":"levelo_inurba_marseille","lat":43.32353,"lon":5.38916,"is_reserved":false,"is_disabled":false,"rental_uris":{"android":"levelo://app?vid=c65c3bad-fd08-46c9-9715-0088ab8d2986","ios":"levelo://app?vid=c65c3bad-fd08-46c9-9715-0088ab8d2986"},"vehicle_type_id":"4","last_reported":1737544045,"current_range_meters":26800,"station_id":"ce4bhqp2rcd13ifvqhog","pricing_plan_id":"cebpf4jnsgd1na2vs0mg"},{"bike_id":"f6af6aef-3841-40a7-9b6f-9e2ad2b736bf","system_id":"levelo_inurba_marseille","lat":43.28992,"lon":5.35647,"is_reserved":false,"is_disabled":false,"rental_uris":{"android":"levelo://app?vid=f6af6aef-3841-40a7-9b6f-9e2ad2b736bf","ios":"levelo://app?vid=f6af6aef-3841-40a7-9b6f-9e2ad2b736bf"},"vehicle_type_id":"4","last_reported":1737544045,"current_range_meters":39200,"station_id":"ce4bhb92rcd13ifvqen0","pricing_plan_id":"cebpf4jnsgd1na2vs0mg"},{"bike_id":"7a8983ee-7738-4159-89a4-44f01d4343a4","system_id":"levelo_inurba_marseille","lat":43.29867,"lon":5.36286,"is_reserved":false,"is_disabled":false,"rental_uris":{"android":"levelo://app?vid=7a8983ee-7738-4159-89a4-44f01d4343a4","ios":"levelo://app?vid=7a8983ee-7738-4159-89a4-44f01d4343a4"},"vehicle_type_id":"4","last_reported":1737544045,"current_range_meters":37600,"station_id":"ce4bgpp2rcd13ifvqc3g","pricing_plan_id":"cebpf4jnsgd1na2vs0mg"},{"bike_id":"476b2b5b-bc27-459a-9994-e1c5423c2160","system_id":"levelo_inurba_marseille","lat":43.30143,"lon":5.37442,"is_reserved":false,"is_disabled":false,"rental_uris":{"android":"levelo://app?vid=476b2b5b-bc27-459a-9994-e1c5423c2160","ios":"levelo://app?vid=476b2b5b-bc27-459a-9994-e1c5423c2160"},"vehicle_type_id":"4","last_reported":1737544045,"current_range_meters":16000,"station_id":"ce4bgs92rcd13ifvqcc0","pricing_plan_id":"cebpf4jnsgd1na2vs0mg"},{"bike_id":"5385f7e9-204e-487e-b5f4-18605f30f0e4","system_id":"levelo_inurba_marseille","lat":43.26932,"lon":5.38932,"is_reserved":false,"is_disabled":false,"rental_uris":{"android":"levelo://app?vid=5385f7e9-204e-487e-b5f4-18605f30f0e4","ios":"levelo://app?vid=5385f7e9-204e-487e-b5f4-18605f30f0e4"},"vehicle_type_id":"4","last_reported":1737544045,"current_range_meters":28400,"station_id":"ce4bhhh2rcd13ifvqfl0","pricing_plan_id":"cebpf4jnsgd1na2vs0mg"},{"bike_id":"9d897738-a396-404a-8b40-b317117a1268","system_id":"levelo_inurba_marseille","lat":43.28148,"lon":5.42631,"is_reserved":false,"is_disabled":true,"rental_uris":{"android":"levelo://app?vid=9d897738-a396-404a-8b40-b317117a1268","ios":"levelo://app?vid=9d897738-a396-404a-8b40-b317117a1268"},"vehicle_type_id":"4","last_reported":1737544045,"current_range_meters":0,"station_id":"ce4bhnh2rcd13ifvqgug","pricing_plan_id":"cebpf4jnsgd1na2vs0mg"},{"bike_id":"8607ff84-bf66-4d54-86b8-25d67ebc52ce","system_id":"levelo_inurba_marseille","lat":43.29642,"lon":5.37148,"is_reserved":false,"is_disabled":false,"rental_uris":{"android":"levelo://app?vid=8607ff84-bf66-4d54-86b8-25d67ebc52ce","ios":"levelo://app?vid=8607ff84-bf66-4d54-86b8-25d67ebc52ce"},"vehicle_type_id":"4","last_reported":1737544045,"current_range_meters":39200,"station_id":"ce4bgnh2rcd13ifvqc0g","pricing_plan_id":"cebpf4jnsgd1na2vs0mg"},{"bike_id":"9965af2a-7459-4974-9488-c319412f0e3d","system_id":"levelo_inurba_marseille","lat":43.31168,"lon":5.38736,"is_reserved":false,"is_disabled":false,"rental_uris":{"android":"levelo://app?vid=9965af2a-7459-4974-9488-c319412f0e3d","ios":"levelo://app?vid=9965af2a-7459-4974-9488-c319412f0e3d"},"vehicle_type_id":"4","last_reported":1737544045,"current_range_meters":36000,"station_id":"ce4bgv12rcd13ifvqcp0","pricing_plan_id":"cebpf4jnsgd1na2vs0mg"},{"bike_id":"6b96d84c-a04f-4d45-a5aa-8f14ed60c5bf","system_id":"levelo_inurba_marseille","lat":43.30352,"lon":5.41868,"is_reserved":false,"is_disabled":false,"rental_uris":{"android":"levelo://app?vid=6b96d84c-a04f-4d45-a5aa-8f14ed60c5bf","ios":"levelo://app?vid=6b96d84c-a04f-4d45-a5aa-8f14ed60c5bf"},"vehicle_type_id":"4","last_reported":1737544045,"current_range_meters":38800,"station_id":"ce4bhop2rcd13ifvqh7g","pricing_plan_id":"cebpf4jnsgd1na2vs0mg"},{"bike_id":"cc8dd4d9-c41b-4e62-8f16-686e77afe1cc","system_id":"levelo_inurba_marseille","lat":43.27824,"lon":5.4072,"is_reserved":false,"is_disabled":false,"rental_uris":{"android":"levelo://app?vid=cc8dd4d9-c41b-4e62-8f16-686e77afe1cc","ios":"levelo://app?vid=cc8dd4d9-c41b-4e62-8f16-686e77afe1cc"},"vehicle_type_id":"4","last_reported":1737544045,"current_range_meters":33200,"station_id":"ce4bhnh2rcd13ifvqgtg","pricing_plan_id":"cebpf4jnsgd1na2vs0mg"},{"bike_id":"1f31567f-bbaf-49df-a2fc-bd7d6eaeae13","system_id":"levelo_inurba_marseille","lat":43.29656,"lon":5.37177,"is_reserved":false,"is_disabled":false,"rental_uris":{"android":"levelo://app?vid=1f31567f-bbaf-49df-a2fc-bd7d6eaeae13","ios":"levelo://app?vid=1f31567f-bbaf-49df-a2fc-bd7d6eaeae13"},"vehicle_type_id":"4","last_reported":1737544045,"current_range_meters":15200,"station_id":"ce4bgnh2rcd13ifvqc0g","pricing_plan_id":"cebpf4jnsgd1na2vs0mg"},{"bike_id":"713b4e02-a459-45c2-8b7f-670ded946bdb","system_id":"levelo_inurba_marseille","lat":43.29626,"lon":5.37158,"is_reserved":false,"is_disabled":false,"rental_uris":{"android":"levelo://app?vid=713b4e02-a459-45c2-8b7f-670ded946bdb","ios":"levelo://app?vid=713b4e02-a459-45c2-8b7f-670ded946bdb"},"vehicle_type_id":"4","last_reported":1737544045,"current_range_meters":36000,"station_id":"ce4bgnh2rcd13ifvqc0g","pricing_plan_id":"cebpf4jnsgd1na2vs0mg"},{"bike_id":"9ce6833b-bc48-49cc-a9c4-179657ecb456","system_id":"levelo_inurba_marseille","lat":43.3139,"lon":5.38505,"is_reserved":false,"is_disabled":false,"rental_uris":{"android":"levelo://app?vid=9ce6833b-bc48-49cc-a9c4-179657ecb456","ios":"levelo://app?vid=9ce6833b-bc48-49cc-a9c4-179657ecb456"},"vehicle_type_id":"4","last_reported":1737544045,"current_range_meters":39200,"station_id":"ce4bgt92rcd13ifvqcf0","pricing_plan_id":"cebpf4jnsgd1na2vs0mg"},{"bike_id":"56b1ad88-a3e4-4644-ad66-c8c982f5437c","system_id":"levelo_inurba_marseille","lat":43.29167,"lon":5.37163,"is_reserved":false,"is_disabled":false,"rental_uris":{"android":"levelo://app?vid=56b1ad88-a3e4-4644-ad66-c8c982f5437c","ios":"levelo://app?vid=56b1ad88-a3e4-4644-ad66-c8c982f5437c"},"vehicle_type_id":"4","last_reported":1737544045,"current_range_meters":28400,"station_id":"ce4bha92rcd13ifvqeh0","pricing_plan_id":"cebpf4jnsgd1na2vs0mg"},{"bike_id":"38a62f0f-5642-4b4d-ab65-8ce22514d290","system_id":"levelo_inurba_marseille","lat":43.24671,"lon":5.3887,"is_reserved":false,"is_disabled":false,"rental_uris":{"android":"levelo://app?vid=38a62f0f-5642-4b4d-ab65-8ce22514d290","ios":"levelo://app?vid=38a62f0f-5642-4b4d-ab65-8ce22514d290"},"vehicle_type_id":"4","last_reported":1737544045,"current_range_meters":38800,"station_id":"ce4bhg12rcd13ifvqf60","pricing_plan_id":"cebpf4jnsgd1na2vs0mg"},{"bike_id":"8e256833-5fdf-48be-b72f-5da134fd541e","system_id":"levelo_inurba_marseille","lat":43.33584,"lon":5.40992,"is_reserved":false,"is_disabled":false,"rental_uris":{"android":"levelo://app?vid=8e256833-5fdf-48be-b72f-5da134fd541e","ios":"levelo://app?vid=8e256833-5fdf-48be-b72f-5da134fd541e"},"vehicle_type_id":"4","last_reported":1737544045,"current_range_meters":26800,"station_id":"ce4bhqh2rcd13ifvqhmg","pricing_plan_id":"cebpf4jnsgd1na2vs0mg"},{"bike_id":"71982b72-be52-4482-bf6e-465ac623ec8c","system_id":"levelo_inurba_marseille","lat":43.27507,"lon":5.3976,"is_reserved":false,"is_disabled":false,"rental_uris":{"android":"levelo://app?vid=71982b72-be52-4482-bf6e-465ac623ec8c","ios":"levelo://app?vid=71982b72-be52-4482-bf6e-465ac623ec8c"},"vehicle_type_id":"4","last_reported":1737544045,"current_range_meters":9200,"station_id":"","pricing_plan_id":"cebpf4jnsgd1na2vs0mg"},{"bike_id":"1f7c87db-d399-4f13-923d-8a98a4f000e9","system_id":"levelo_inurba_marseille","lat":43.23969,"lon":5.36625,"is_reserved":false,"is_disabled":false,"rental_uris":{"android":"levelo://app?vid=1f7c87db-d399-4f13-923d-8a98a4f000e9","ios":"levelo://app?vid=1f7c87db-d399-4f13-923d-8a98a4f000e9"},"vehicle_type_id":"4","last_reported":1737544045,"current_range_meters":9200,"station_id":"ce4bhi12rcd13ifvqfp0","pricing_plan_id":"cebpf4jnsgd1na2vs0mg"},{"bike_id":"3e995a56-c594-4f7b-a952-dc230b54323e","system_id":"levelo_inurba_marseille","lat":43.29174,"lon":5.39331,"is_reserved":false,"is_disabled":false,"rental_uris":{"android":"levelo://app?vid=3e995a56-c594-4f7b-a952-dc230b54323e","ios":"levelo://app?vid=3e995a56-c594-4f7b-a952-dc230b54323e"},"vehicle_type_id":"4","last_reported":1737544045,"current_range_meters":38800,"station_id":"ce4bh192rcd13ifvqdd0","pricing_plan_id":"cebpf4jnsgd1na2vs0mg"},{"bike_id":"f52a1f03-810e-4cea-bafc-22f9327f0184","system_id":"levelo_inurba_marseille","lat":43.32524,"lon":5.41477,"is_reserved":false,"is_disabled":true,"rental_uris":{"android":"levelo://app?vid=f52a1f03-810e-4cea-bafc-22f9327f0184","ios":"levelo://app?vid=f52a1f03-810e-4cea-bafc-22f9327f0184"},"vehicle_type_id":"4","last_reported":1737544045,"current_range_meters":38800,"station_id":"ce4bhq12rcd13ifvqhhg","pricing_plan_id":"cebpf4jnsgd1na2vs0mg"},{"bike_id":"d091c1b9-4d72-4358-841e-7ca3c9ebae73","system_id":"levelo_inurba_marseille","lat":43.2963,"lon":5.37172,"is_reserved":false,"is_disabled":false,"rental_uris":{"android":"levelo://app?vid=d091c1b9-4d72-4358-841e-7ca3c9ebae73","ios":"levelo://app?vid=d091c1b9-4d72-4358-841e-7ca3c9ebae73"},"vehicle_type_id":"4","last_reported":1737544045,"current_range_meters":8000,"station_id":"ce4bgnh2rcd13ifvqc0g","pricing_plan_id":"cebpf4jnsgd1na2vs0mg"},{"bike_id":"e6139c03-3bc0-4341-ae05-b761870eab67","system_id":"levelo_inurba_marseille","lat":43.27053,"lon":5.40281,"is_reserved":false,"is_disabled":false,"rental_uris":{"android":"levelo://app?vid=e6139c03-3bc0-4341-ae05-b761870eab67","ios":"levelo://app?vid=e6139c03-3bc0-4341-ae05-b761870eab67"},"vehicle_type_id":"4","last_reported":1737544045,"current_range_meters":23200,"station_id":"ce4bhk92rcd13ifvqgc0","pricing_plan_id":"cebpf4jnsgd1na2vs0mg"},{"bike_id":"cb7322b4-1ac1-4114-8157-c83aeac75b76","system_id":"levelo_inurba_marseille","lat":43.321006,"lon":5.36797,"is_reserved":false,"is_disabled":false,"rental_uris":{"android":"levelo://app?vid=cb7322b4-1ac1-4114-8157-c83aeac75b76","ios":"levelo://app?vid=cb7322b4-1ac1-4114-8157-c83aeac75b76"},"vehicle_type_id":"4","last_reported":1737544045,"current_range_meters":22400,"station_id":"ce4bhrh2rcd13ifvqhug","pricing_plan_id":"cebpf4jnsgd1na2vs0mg"},{"bike_id":"76fe8171-a171-4602-bb26-90651dd3df6e","system_id":"levelo_inurba_marseille","lat":43.27913,"lon":5.41198,"is_reserved":false,"is_disabled":true,"rental_uris":{"android":"levelo://app?vid=76fe8171-a171-4602-bb26-90651dd3df6e","ios":"levelo://app?vid=76fe8171-a171-4602-bb26-90651dd3df6e"},"vehicle_type_id":"4","last_reported":1737544045,"current_range_meters":0,"station_id":"","pricing_plan_id":"cebpf4jnsgd1na2vs0mg"},{"bike_id":"2c115182-c42c-491c-9297-b7a7447bfbd5","system_id":"levelo_inurba_marseille","lat":43.29212,"lon":5.36077,"is_reserved":false,"is_disabled":false,"rental_uris":{"android":"levelo://app?vid=2c115182-c42c-491c-9297-b7a7447bfbd5","ios":"levelo://app?vid=2c115182-c42c-491c-9297-b7a7447bfbd5"},"vehicle_type_id":"4","last_reported":1737544045,"current_range_meters":35600,"station_id":"ce4bhbh2rcd13ifvqeqg","pricing_plan_id":"cebpf4jnsgd1na2vs0mg"},{"bike_id":"56695ee2-5c42-4573-ad28-6559f7b9aca4","system_id":"levelo_inurba_marseille","lat":43.32313,"lon":5.40666,"is_reserved":false,"is_disabled":false,"rental_uris":{"android":"levelo://app?vid=56695ee2-5c42-4573-ad28-6559f7b9aca4","ios":"levelo://app?vid=56695ee2-5c42-4573-ad28-6559f7b9aca4"},"vehicle_type_id":"4","last_reported":1737544045,"current_range_meters":22000,"station_id":"ce4bhq92rcd13ifvqhjg","pricing_plan_id":"cebpf4jnsgd1na2vs0mg"},{"bike_id":"31d5385b-3ddc-4b37-a170-ccf874a94649","system_id":"levelo_inurba_marseille","lat":43.312736,"lon":5.401603,"is_reserved":false,"is_disabled":false,"rental_uris":{"android":"levelo://app?vid=31d5385b-3ddc-4b37-a170-ccf874a94649","ios":"levelo://app?vid=31d5385b-3ddc-4b37-a170-ccf874a94649"},"vehicle_type_id":"4","last_reported":1737544045,"current_range_meters":37600,"station_id":"ce4bh092rcd13ifvqd30","pricing_plan_id":"cebpf4jnsgd1na2vs0mg"},{"bike_id":"c6b04865-359c-4509-a379-07a74d4803bf","system_id":"levelo_inurba_marseille","lat":43.24103,"lon":5.37707,"is_reserved":false,"is_disabled":false,"rental_uris":{"android":"levelo://app?vid=c6b04865-359c-4509-a379-07a74d4803bf","ios":"levelo://app?vid=c6b04865-359c-4509-a379-07a74d4803bf"},"vehicle_type_id":"4","last_reported":1737544045,"current_range_meters":30800,"station_id":"","pricing_plan_id":"cebpf4jnsgd1na2vs0mg"},{"bike_id":"8470ec97-13b4-4c28-ae8a-fc26563bc409","system_id":"levelo_inurba_marseille","lat":43.29549,"lon":5.42302,"is_reserved":false,"is_disabled":false,"rental_uris":{"android":"levelo://app?vid=8470ec97-13b4-4c28-ae8a-fc26563bc409","ios":"levelo://app?vid=8470ec97-13b4-4c28-ae8a-fc26563bc409"},"vehicle_type_id":"4","last_reported":1737544045,"current_range_meters":39200,"station_id":"ce4bhph2rcd13ifvqhdg","pricing_plan_id":"cebpf4jnsgd1na2vs0mg"},{"bike_id":"2fd4a68f-af75-44eb-861a-34b6dac456c0","system_id":"levelo_inurba_marseille","lat":43.28937,"lon":5.36406,"is_reserved":false,"is_disabled":false,"rental_uris":{"android":"levelo://app?vid=2fd4a68f-af75-44eb-861a-34b6dac456c0","ios":"levelo://app?vid=2fd4a68f-af75-44eb-861a-34b6dac456c0"},"vehicle_type_id":"4","last_reported":1737544045,"current_range_meters":34800,"station_id":"ce4bhc92rcd13ifvqetg","pricing_plan_id":"cebpf4jnsgd1na2vs0mg"},{"bike_id":"cd4b7aa7-2d83-4909-8ad5-c1b427f082b0","system_id":"levelo_inurba_marseille","lat":43.28849,"lon":5.35866,"is_reserved":false,"is_disabled":false,"rental_uris":{"android":"levelo://app?vid=cd4b7aa7-2d83-4909-8ad5-c1b427f082b0","ios":"levelo://app?vid=cd4b7aa7-2d83-4909-8ad5-c1b427f082b0"},"vehicle_type_id":"4","last_reported":1737544045,"current_range_meters":19200,"station_id":"ce4bhb12rcd13ifvqem0","pricing_plan_id":"cebpf4jnsgd1na2vs0mg"},{"bike_id":"64cdc2d3-d6ec-4254-8a08-fc3c9a17f77c","system_id":"levelo_inurba_marseille","lat":43.23193,"lon":5.39996,"is_reserved":false,"is_disabled":false,"rental_uris":{"android":"levelo://app?vid=64cdc2d3-d6ec-4254-8a08-fc3c9a17f77c","ios":"levelo://app?vid=64cdc2d3-d6ec-4254-8a08-fc3c9a17f77c"},"vehicle_type_id":"4","last_reported":1737544045,"current_range_meters":20800,"station_id":"ce4bhn12rcd13ifvqgqg","pricing_plan_id":"cebpf4jnsgd1na2vs0mg"},{"bike_id":"0c0c282d-07b8-45d4-9247-379832080fbf","system_id":"levelo_inurba_marseille","lat":43.30164,"lon":5.38077,"is_reserved":false,"is_disabled":false,"rental_uris":{"android":"levelo://app?vid=0c0c282d-07b8-45d4-9247-379832080fbf","ios":"levelo://app?vid=0c0c282d-07b8-45d4-9247-379832080fbf"},"vehicle_type_id":"4","last_reported":1737544045,"current_range_meters":39200,"station_id":"ce4bgjp2rcd13ifvqbh0","pricing_plan_id":"cebpf4jnsgd1na2vs0mg"},{"bike_id":"e69deee0-399f-4884-816c-791854f773ec","system_id":"levelo_inurba_marseille","lat":43.30941,"lon":5.37207,"is_reserved":false,"is_disabled":false,"rental_uris":{"android":"levelo://app?vid=e69deee0-399f-4884-816c-791854f773ec","ios":"levelo://app?vid=e69deee0-399f-4884-816c-791854f773ec"},"vehicle_type_id":"4","last_reported":1737544045,"current_range_meters":38800,"station_id":"ce4bguh2rcd13ifvqckg","pricing_plan_id":"cebpf4jnsgd1na2vs0mg"},{"bike_id":"8ab86c2b-8aab-444b-a73d-7c26a719cd69","system_id":"levelo_inurba_marseille","lat":43.31701,"lon":5.40479,"is_reserved":false,"is_disabled":false,"rental_uris":{"android":"levelo://app?vid=8ab86c2b-8aab-444b-a73d-7c26a719cd69","ios":"levelo://app?vid=8ab86c2b-8aab-444b-a73d-7c26a719cd69"},"vehicle_type_id":"4","last_reported":1737544045,"current_range_meters":8000,"station_id":"ce4bh012rcd13ifvqd00","pricing_plan_id":"cebpf4jnsgd1na2vs0mg"},{"bike_id":"56777e47-9b99-4ab5-8e34-e78dda31d15b","system_id":"levelo_inurba_marseille","lat":43.29584,"lon":5.36755,"is_reserved":false,"is_disabled":false,"rental_uris":{"android":"levelo://app?vid=56777e47-9b99-4ab5-8e34-e78dda31d15b","ios":"levelo://app?vid=56777e47-9b99-4ab5-8e34-e78dda31d15b"},"vehicle_type_id":"4","last_reported":1737544045,"current_range_meters":38800,"station_id":"ce4bgph2rcd13ifvqc2g","pricing_plan_id":"cebpf4jnsgd1na2vs0mg"},{"bike_id":"b50578b1-a0f2-4679-a66c-1a2a0330e44b","system_id":"levelo_inurba_marseille","lat":43.29045,"lon":5.39969,"is_reserved":false,"is_disabled":true,"rental_uris":{"android":"levelo://app?vid=b50578b1-a0f2-4679-a66c-1a2a0330e44b","ios":"levelo://app?vid=b50578b1-a0f2-4679-a66c-1a2a0330e44b"},"vehicle_type_id":"4","last_reported":1737544045,"current_range_meters":400,"station_id":"ce4bh392rcd13ifvqdm0","pricing_plan_id":"cebpf4jnsgd1na2vs0mg"},{"bike_id":"c5837c03-42d7-4090-8512-195a10374476","system_id":"levelo_inurba_marseille","lat":43.29624,"lon":5.37161,"is_reserved":false,"is_disabled":false,"rental_uris":{"android":"levelo://app?vid=c5837c03-42d7-4090-8512-195a10374476","ios":"levelo://app?vid=c5837c03-42d7-4090-8512-195a10374476"},"vehicle_type_id":"4","last_reported":1737544045,"current_range_meters":31200,"station_id":"ce4bgnh2rcd13ifvqc0g","pricing_plan_id":"cebpf4jnsgd1na2vs0mg"},