{"last_updated":1775059193,"ttl":60,"version":"2.2","data":{"bikes":[{"bike_id":"d5b9512e-43cb-4d72-b7cb-f7e3ab9bc79a","system_id":"levelo_inurba_marseille","lat":43.2738,"lon":5.36251,"is_reserved":false,"is_disabled":false,"rental_uris":{"android":"levelo://app?vid=d5b9512e-43cb-4d72-b7cb-f7e3ab9bc79a","ios":"levelo://app?vid=d5b9512e-43cb-4d72-b7cb-f7e3ab9bc79a"},"vehicle_type_id":"4","last_reported":1775059194,"current_range_meters":2800,"station_id":"ce4bhbh2rcd13ifvqeo0","pricing_plan_id":"cebpf4jnsgd1na2vs0mg"},{"bike_id":"e903aebd-1b7d-4fdd-b904-0c9bb70b7d71","system_id":"levelo_inurba_marseille","lat":43.28266,"lon":5.35066,"is_reserved":false,"is_disabled":false,"rental_uris":{"android":"levelo://app?vid=e903aebd-1b7d-4fdd-b904-0c9bb70b7d71","ios":"levelo://app?vid=e903aebd-1b7d-4fdd-b904-0c9bb70b7d71"},"vehicle_type_id":"4","last_reported":1775059194,"current_range_meters":2800,"station_id":"ce4bhbp2rcd13ifvqerg","pricing_plan_id":"cebpf4jnsgd1na2vs0mg"},{"bike_id":"aff3ff3f-6b67-4330-8619-cb367673fc13","system_id":"levelo_inurba_marseille","lat":43.24381,"lon":5.37095,"is_reserved":false,"is_disabled":false,"rental_uris":{"android":"levelo://app?vid=aff3ff3f-6b67-4330-8619-cb367673fc13","ios":"levelo://app?vid=aff3ff3f-6b67-4330-8619-cb367673fc13"},"vehicle_type_id":"4","last_reported":1775059194,"current_range_meters":2800,"station_id":"ce4bhhh2rcd13ifvqfk0","pricing_plan_id":"cebpf4jnsgd1na2vs0mg"},{"bike_id":"b56e07c1-b812-4392-b509-22221252f482","system_id":"levelo_inurba_marseille","lat":43.28279,"lon":5.4082,"is_reserved":false,"is_disabled":false,"rental_uris":{"android":"levelo://app?vid=b56e07c1-b812-4392-b509-22221252f482","ios":"levelo://app?vid=b56e07c1-b812-4392-b509-22221252f482"},"vehicle_type_id":"4","last_reported":1775059194,"current_range_meters":2800,"station_id":"","pricing_plan_id":"cebpf4jnsgd1na2vs0mg"},{"bike_id":"9413365a-3f56-4b1d-b117-b074e05b3240","system_id":"levelo_inurba_marseille","lat":43.31076,"lon":5.37173,"is_reserved":false,"is_disabled":true,"rental_uris":{"android":"levelo://app?vid=9413365a-3f56-4b1d-b117-b074e05b3240","ios":"levelo://app?vid=9413365a-3f56-4b1d-b117-b074e05b3240"},"vehicle_type_id":"4","last_reported":1775059194,"current_range_meters":2800,"station_id":"st_d4kl2rp97mjs73e7tdfg","pricing_plan_id":"cebpf4jnsgd1na2vs0mg"},{"bike_id":"05b700ea-9bbc-436d-9f8b-7ccf8feb86bf","system_id":"levelo_inurba_marseille","lat":43.24466,"lon":5.42543,"is_reserved":false,"is_disabled":false,"rental_uris":{"android":"levelo://app?vid=05b700ea-9bbc-436d-9f8b-7ccf8feb86bf","ios":"levelo://app?vid=05b700ea-9bbc-436d-9f8b-7ccf8feb86bf"},"vehicle_type_id":"4","last_reported":1775059194,"current_range_meters":2800,"station_id":"st_d4a3vfp97mjs738cd8kg","pricing_plan_id":"cebpf4jnsgd1na2vs0mg"},{"bike_id":"e77bea82-8c60-4a9c-a61f-5fb95fe24285","system_id":"levelo_inurba_marseille","lat":43.28428,"lon":5.34993,"is_reserved":false,"is_disabled":false,"rental_uris":{"android":"levelo://app?vid=e77bea82-8c60-4a9c-a61f-5fb95fe24285","ios":"levelo://app?vid=e77bea82-8c60-4a9c-a61f-5fb95fe24285"},"vehicle_type_id":"4","last_reported":1775059194,"current_range_meters":2800,"station_id":"ce4bhbh2rcd13ifvqepg","pricing_plan_id":"cebpf4jnsgd1na2vs0mg"},{"bike_id":"2321a3d7-488d-4cea-a091-7d27e6788eb8","system_id":"levelo_inurba_marseille","lat":43.26769,"lon":5.39456,"is_reserved":false,"is_disabled":false,"rental_uris":{"android":"levelo://app?vid=2321a3d7-488d-4cea-a091-7d27e6788eb8","ios":"levelo://app?vid=2321a3d7-488d-4cea-a091-7d27e6788eb8"},"vehicle_type_id":"4","last_reported":1775059194,"current_range_meters":2800,"station_id":"ce4bhh12rcd13ifvqfg0","pricing_plan_id":"cebpf4jnsgd1na2vs0mg"},{"bike_id":"e3d8335a-e3c1-4acd-a115-3af525f56e88","system_id":"levelo_inurba_marseille","lat":43.24388,"lon":5.37064,"is_reserved":false,"is_disabled":false,"rental_uris":{"android":"levelo://app?vid=e3d8335a-e3c1-4acd-a115-3af525f56e88","ios":"levelo://app?vid=e3d8335a-e3c1-4acd-a115-3af525f56e88"},"vehicle_type_id":"4","last_reported":1775059194,"current_range_meters":2800,"station_id":"ce4bhhh2rcd13ifvqfk0","pricing_plan_id":"cebpf4jnsgd1na2vs0mg"},{"bike_id":"8fa37abd-e9f1-4693-94a1-ce5cb3b3b601","system_id":"levelo_inurba_marseille","lat":43.26365,"lon":5.41079,"is_reserved":false,"is_disabled":false,"rental_uris":{"android":"levelo://app?vid=8fa37abd-e9f1-4693-94a1-ce5cb3b3b601","ios":"levelo://app?vid=8fa37abd-e9f1-4693-94a1-ce5cb3b3b601"},"vehicle_type_id":"4","last_reported":1775059194,"current_range_meters":2800,"station_id":"st_d4e5ca6na9uc73bfl5fg","pricing_plan_id":"cebpf4jnsgd1na2vs0mg"},{"bike_id":"63e1e040-65c1-4b97-84eb-c0fe4954b86a","system_id":"levelo_inurba_marseille","lat":43.30261,"lon":5.40083,"is_reserved":false,"is_disabled":false,"rental_uris":{"android":"levelo://app?vid=63e1e040-65c1-4b97-84eb-c0fe4954b86a","ios":"levelo://app?vid=63e1e040-65c1-4b97-84eb-c0fe4954b86a"},"vehicle_type_id":"4","last_reported":1775059194,"current_range_meters":2800,"station_id":"ce4bgvh2rcd13ifvqcs0","pricing_plan_id":"cebpf4jnsgd1na2vs0mg"},{"bike_id":"38002fbe-9d01-4dfe-80d6-269905651bda","system_id":"levelo_inurba_marseille","lat":43.28705,"lon":5.37365,"is_reserved":false,"is_disabled":false,"rental_uris":{"android":"levelo://app?vid=38002fbe-9d01-4dfe-80d6-269905651bda","ios":"levelo://app?vid=38002fbe-9d01-4dfe-80d6-269905651bda"},"vehicle_type_id":"4","last_reported":1775059194,"current_range_meters":2800,"station_id":"ce4bh3p2rcd13ifvqdq0","pricing_plan_id":"cebpf4jnsgd1na2vs0mg"},{"bike_id":"f98076ad-2624-4554-bed5-566261a5455d","system_id":"levelo_inurba_marseille","lat":43.28579,"lon":5.44054,"is_reserved":false,"is_disabled":false,"rental_uris":{"android":"levelo://app?vid=f98076ad-2624-4554-bed5-566261a5455d","ios":"levelo://app?vid=f98076ad-2624-4554-bed5-566261a5455d"},"vehicle_type_id":"4","last_reported":1775059194,"current_range_meters":3200,"station_id":"","pricing_plan_id":"cebpf4jnsgd1na2vs0mg"},{"bike_id":"3681bea9-2900-445c-b2d4-06ae4cedc9b9","system_id":"levelo_inurba_marseille","lat":43.29615,"lon":5.381,"is_reserved":false,"is_disabled":true,"rental_uris":{"android":"levelo://app?vid=3681bea9-2900-445c-b2d4-06ae4cedc9b9","ios":"levelo://app?vid=3681bea9-2900-445c-b2d4-06ae4cedc9b9"},"vehicle_type_id":"4","last_reported":1775059194,"current_range_meters":3200,"station_id":"ce4bgl12rcd13ifvqbo0","pricing_plan_id":"cebpf4jnsgd1na2vs0mg"},{"bike_id":"ace2b5ee-1355-40d7-ba59-bba7c913ea22","system_id":"levelo_inurba_marseille","lat":43.337444,"lon":5.374475,"is_reserved":false,"is_disabled":true,"rental_uris":{"android":"levelo://app?vid=ace2b5ee-1355-40d7-ba59-bba7c913ea22","ios":"levelo://app?vid=ace2b5ee-1355-40d7-ba59-bba7c913ea22"},"vehicle_type_id":"4","last_reported":1775059194,"current_range_meters":3200,"station_id":"","pricing_plan_id":"cebpf4jnsgd1na2vs0mg"},{"bike_id":"b6a3c782-201e-4b2a-aef4-236f776568ed","system_id":"levelo_inurba_marseille","lat":43.23783,"lon":5.36629,"is_reserved":false,"is_disabled":false,"rental_uris":{"android":"levelo://app?vid=b6a3c782-201e-4b2a-aef4-236f776568ed","ios":"levelo://app?vid=b6a3c782-201e-4b2a-aef4-236f776568ed"},"vehicle_type_id":"4","last_reported":1775059194,"current_range_meters":3200,"station_id":"st_d3nk18o9ro0c73en2l3g","pricing_plan_id":"cebpf4jnsgd1na2vs0mg"},{"bike_id":"e4956c66-fba0-45d5-a7d2-90ca01f34637","system_id":"levelo_inurba_marseille","lat":43.21742,"lon":5.34614,"is_reserved":false,"is_disabled":false,"rental_uris":{"android":"levelo://app?vid=e4956c66-fba0-45d5-a7d2-90ca01f34637","ios":"levelo://app?vid=e4956c66-fba0-45d5-a7d2-90ca01f34637"},"vehicle_type_id":"4","last_reported":1775059194,"current_range_meters":3200,"station_id":"st_cvj6r9ubvosntc0bgbag","pricing_plan_id":"cebpf4jnsgd1na2vs0mg"},{"bike_id":"9e8c35a2-3d4d-48a8-87e2-0775e9d3d581","system_id":"levelo_inurba_marseille","lat":43.27482,"lon":5.40811,"is_reserved":false,"is_disabled":false,"rental_uris":{"android":"levelo://app?vid=9e8c35a2-3d4d-48a8-87e2-0775e9d3d581","ios":"levelo://app?vid=9e8c35a2-3d4d-48a8-87e2-0775e9d3d581"},"vehicle_type_id":"4","last_reported":1775059194,"current_range_meters":3200,"station_id":"","pricing_plan_id":"cebpf4jnsgd1na2vs0mg"},{"bike_id":"09fd0961-537f-4b10-9218-06513f653464","system_id":"levelo_inurba_marseille","lat":43.29158,"lon":5.42621,"is_reserved":false,"is_disabled":false,"rental_uris":{"android":"levelo://app?vid=09fd0961-537f-4b10-9218-06513f653464","ios":"levelo://app?vid=09fd0961-537f-4b10-9218-06513f653464"},"vehicle_type_id":"4","last_reported":1775059194,"current_range_meters":3200,"station_id":"","pricing_plan_id":"cebpf4jnsgd1na2vs0mg"},{"bike_id":"cc5b9182-39ae-4ed7-883d-e4c330e6d5f4","system_id":"levelo_inurba_marseille","lat":43.29758,"lon":5.42778,"is_reserved":false,"is_disabled":false,"rental_uris":{"android":"levelo://app?vid=cc5b9182-39ae-4ed7-883d-e4c330e6d5f4","ios":"levelo://app?vid=cc5b9182-39ae-4ed7-883d-e4c330e6d5f4"},"vehicle_type_id":"4","last_reported":1775059194,"current_range_meters":3200,"station_id":"st_d3md5207bmas73dh9klg","pricing_plan_id":"cebpf4jnsgd1na2vs0mg"},{"bike_id":"5594fef1-50b5-4719-8406-506999474c85","system_id":"levelo_inurba_marseille","lat":43.23047,"lon":5.3548,"is_reserved":false,"is_disabled":false,"rental_uris":{"android":"levelo://app?vid=5594fef1-50b5-4719-8406-506999474c85","ios":"levelo://app?vid=5594fef1-50b5-4719-8406-506999474c85"},"vehicle_type_id":"4","last_reported":1775059194,"current_range_meters":3200,"station_id":"cpo3342slgdg3j2ifvpg","pricing_plan_id":"cebpf4jnsgd1na2vs0mg"},{"bike_id":"59dd7cea-1fd3-4432-ab54-3a824507c81c","system_id":"levelo_inurba_marseille","lat":43.25176,"lon":5.41962,"is_reserved":false,"is_disabled":false,"rental_uris":{"android":"levelo://app?vid=59dd7cea-1fd3-4432-ab54-3a824507c81c","ios":"levelo://app?vid=59dd7cea-1fd3-4432-ab54-3a824507c81c"},"vehicle_type_id":"4","last_reported":1775059194,"current_range_meters":3200,"station_id":"","pricing_plan_id":"cebpf4jnsgd1na2vs0mg"},{"bike_id":"9da6f0a0-254f-4937-8243-355fe7b156df","system_id":"levelo_inurba_marseille","lat":43.28506,"lon":5.44125,"is_reserved":false,"is_disabled":false,"rental_uris":{"android":"levelo://app?vid=9da6f0a0-254f-4937-8243-355fe7b156df","ios":"levelo://app?vid=9da6f0a0-254f-4937-8243-355fe7b156df"},"vehicle_type_id":"4","last_reported":1775059194,"current_range_meters":3200,"station_id":"st_d3j3df2ikq2c7380ej80","pricing_plan_id":"cebpf4jnsgd1na2vs0mg"},{"bike_id":"1c4a02c1-4a22-4a5a-a048-e3a4458151e2","system_id":"levelo_inurba_marseille","lat":43.25009,"lon":5.38915,"is_reserved":false,"is_disabled":false,"rental_uris":{"android":"levelo://app?vid=1c4a02c1-4a22-4a5a-a048-e3a4458151e2","ios":"levelo://app?vid=1c4a02c1-4a22-4a5a-a048-e3a4458151e2"},"vehicle_type_id":"4","last_reported":1775059194,"current_range_meters":3200,"station_id":"ce4bhgp2rcd13ifvqfd0","pricing_plan_id":"cebpf4jnsgd1na2vs0mg"},{"bike_id":"e72b8524-7c53-49d9-ae62-65607e0b5876","system_id":"levelo_inurba_marseille","lat":43.23155,"lon":5.43707,"is_reserved":false,"is_disabled":false,"rental_uris":{"android":"levelo://app?vid=e72b8524-7c53-49d9-ae62-65607e0b5876","ios":"levelo://app?vid=e72b8524-7c53-49d9-ae62-65607e0b5876"},"vehicle_type_id":"4","last_reported":1775059194,"current_range_meters":3200,"station_id":"ce4bhmp2rcd13ifvqgog","pricing_plan_id":"cebpf4jnsgd1na2vs0mg"},{"bike_id":"04ea7c98-ac81-4fac-824b-529a86e51d73","system_id":"levelo_inurba_marseille","lat":43.284689,"lon":5.384228,"is_reserved":false,"is_disabled":false,"rental_uris":{"android":"levelo://app?vid=04ea7c98-ac81-4fac-824b-529a86e51d73","ios":"levelo://app?vid=04ea7c98-ac81-4fac-824b-529a86e51d73"},"vehicle_type_id":"4","last_reported":1775059194,"current_range_meters":3200,"station_id":"ce4bh512rcd13ifvqe3g","pricing_plan_id":"cebpf4jnsgd1na2vs0mg"},{"bike_id":"6a06f756-de9b-42fd-8dd9-3189312397fd","system_id":"levelo_inurba_marseille","lat":43.26808,"lon":5.40277,"is_reserved":false,"is_disabled":false,"rental_uris":{"android":"levelo://app?vid=6a06f756-de9b-42fd-8dd9-3189312397fd","ios":"levelo://app?vid=6a06f756-de9b-42fd-8dd9-3189312397fd"},"vehicle_type_id":"4","last_reported":1775059194,"current_range_meters":3200,"station_id":"ce501612rcd8frsf0b60","pricing_plan_id":"cebpf4jnsgd1na2vs0mg"},{"bike_id":"26ecba7f-f495-4692-8610-6aad3e217412","system_id":"levelo_inurba_marseille","lat":43.26778,"lon":5.39421,"is_reserved":false,"is_disabled":false,"rental_uris":{"android":"levelo://app?vid=26ecba7f-f495-4692-8610-6aad3e217412","ios":"levelo://app?vid=26ecba7f-f495-4692-8610-6aad3e217412"},"vehicle_type_id":"4","last_reported":1775059194,"current_range_meters":3200,"station_id":"ce4bhh12rcd13ifvqfg0","pricing_plan_id":"cebpf4jnsgd1na2vs0mg"},{"bike_id":"5f8ce50d-e59d-44ad-9646-24fed4114323","system_id":"levelo_inurba_marseille","lat":43.25241,"lon":5.3806,"is_reserved":false,"is_disabled":false,"rental_uris":{"android":"levelo://app?vid=5f8ce50d-e59d-44ad-9646-24fed4114323","ios":"levelo://app?vid=5f8ce50d-e59d-44ad-9646-24fed4114323"},"vehicle_type_id":"4","last_reported":1775059194,"current_range_meters":3200,"station_id":"","pricing_plan_id":"cebpf4jnsgd1na2vs0mg"},{"bike_id":"db6617ff-b229-43d1-b211-6c6791a78651","system_id":"levelo_inurba_marseille","lat":43.23189,"lon":5.35568,"is_reserved":false,"is_disabled":false,"rental_uris":{"android":"levelo://app?vid=db6617ff-b229-43d1-b211-6c6791a78651","ios":"levelo://app?vid=db6617ff-b229-43d1-b211-6c6791a78651"},"vehicle_type_id":"4","last_reported":1775059194,"current_range_meters":3200,"station_id":"ce4bhu92rcd13ifvqi70","pricing_plan_id":"cebpf4jnsgd1na2vs0mg"},{"bike_id":"4977f95e-718a-4120-8926-2364059fe1a3","system_id":"levelo_inurba_marseille","lat":43.27276,"lon":5.40166,"is_reserved":false,"is_disabled":false,"rental_uris":{"android":"levelo://app?vid=4977f95e-718a-4120-8926-2364059fe1a3","ios":"levelo://app?vid=4977f95e-718a-4120-8926-2364059fe1a3"},"vehicle_type_id":"4","last_reported":1775059194,"current_range_meters":3600,"station_id":"","pricing_plan_id":"cebpf4jnsgd1na2vs0mg"},{"bike_id":"aac1d201-4604-4928-a1e8-3a9c499870e7","system_id":"levelo_inurba_marseille","lat":43.24653,"lon":5.38894,"is_reserved":false,"is_disabled":false,"rental_uris":{"android":"levelo://app?vid=aac1d201-4604-4928-a1e8-3a9c499870e7","ios":"levelo://app?vid=aac1d201-4604-4928-a1e8-3a9c499870e7"},"vehicle_type_id":"4","last_reported":1775059194,"current_range_meters":3600,"station_id":"ce4bhg12rcd13ifvqf60","pricing_plan_id":"cebpf4jnsgd1na2vs0mg"},{"bike_id":"f1c7cedb-7ca6-425d-bb6e-eba3f64564e5","system_id":"levelo_inurba_marseille","lat":43.24173,"lon":5.39713,"is_reserved":false,"is_disabled":false,"rental_uris":{"android":"levelo://app?vid=f1c7cedb-7ca6-425d-bb6e-eba3f64564e5","ios":"levelo://app?vid=f1c7cedb-7ca6-425d-bb6e-eba3f64564e5"},"vehicle_type_id":"4","last_reported":1775059194,"current_range_meters":3600,"station_id":"ce4bhn12rcd13ifvqgpg","pricing_plan_id":"cebpf4jnsgd1na2vs0mg"},{"bike_id":"895454a4-b2a9-4659-a69d-b068ca687ad0","system_id":"levelo_inurba_marseille","lat":43.29517,"lon":5.38547,"is_reserved":false,"is_disabled":true,"rental_uris":{"android":"levelo://app?vid=895454a4-b2a9-4659-a69d-b068ca687ad0","ios":"levelo://app?vid=895454a4-b2a9-4659-a69d-b068ca687ad0"},"vehicle_type_id":"4","last_reported":1775059194,"current_range_meters":3600,"station_id":"","pricing_plan_id":"cebpf4jnsgd1na2vs0mg"},{"bike_id":"8b972516-364d-4c36-a2f6-f81da10bf5ee","system_id":"levelo_inurba_marseille","lat":43.30097,"lon":5.43101,"is_reserved":false,"is_disabled":false,"rental_uris":{"android":"levelo://app?vid=8b972516-364d-4c36-a2f6-f81da10bf5ee","ios":"levelo://app?vid=8b972516-364d-4c36-a2f6-f81da10bf5ee"},"vehicle_type_id":"4","last_reported":1775059194,"current_range_meters":3600,"station_id":"st_d3js3co5814s73ftftug","pricing_plan_id":"cebpf4jnsgd1na2vs0mg"},{"bike_id":"220112ee-7160-43bb-8085-3a89f0835be2","system_id":"levelo_inurba_marseille","lat":43.26549,"lon":5.37298,"is_reserved":false,"is_disabled":false,"rental_uris":{"android":"levelo://app?vid=220112ee-7160-43bb-8085-3a89f0835be2","ios":"levelo://app?vid=220112ee-7160-43bb-8085-3a89f0835be2"},"vehicle_type_id":"4","last_reported":1775059194,"current_range_meters":3600,"station_id":"ce4bhg12rcd13ifvqf70","pricing_plan_id":"cebpf4jnsgd1na2vs0mg"},{"bike_id":"3f089f7a-791e-4b57-9e73-1fab7a91ee6c","system_id":"levelo_inurba_marseille","lat":43.28593,"lon":5.39473,"is_reserved":false,"is_disabled":false,"rental_uris":{"android":"levelo://app?vid=3f089f7a-791e-4b57-9e73-1fab7a91ee6c","ios":"levelo://app?vid=3f089f7a-791e-4b57-9e73-1fab7a91ee6c"},"vehicle_type_id":"4","last_reported":1775059194,"current_range_meters":3600,"station_id":"ce4bh292rcd13ifvqdg0","pricing_plan_id":"cebpf4jnsgd1na2vs0mg"},{"bike_id":"7fad3d2f-5b92-4606-ac61-383055f74a97","system_id":"levelo_inurba_marseille","lat":43.29099,"lon":5.38125,"is_reserved":false,"is_disabled":false,"rental_uris":{"android":"levelo://app?vid=7fad3d2f-5b92-4606-ac61-383055f74a97","ios":"levelo://app?vid=7fad3d2f-5b92-4606-ac61-383055f74a97"},"vehicle_type_id":"4","last_reported":1775059194,"current_range_meters":3600,"station_id":"ce4bh512rcd13ifvqe2g","pricing_plan_id":"cebpf4jnsgd1na2vs0mg"},{"bike_id":"2087d413-f15e-4f97-98f2-ae1153fc5db4","system_id":"levelo_inurba_marseille","lat":43.24391,"lon":5.37047,"is_reserved":false,"is_disabled":false,"rental_uris":{"android":"levelo://app?vid=2087d413-f15e-4f97-98f2-ae1153fc5db4","ios":"levelo://app?vid=2087d413-f15e-4f97-98f2-ae1153fc5db4"},"vehicle_type_id":"4","last_reported":1775059194,"current_range_meters":3600,"station_id":"ce4bhhh2rcd13ifvqfk0","pricing_plan_id":"cebpf4jnsgd1na2vs0mg"},{"bike_id":"08e71c86-43a8-4902-86cf-de3f77db33e6","system_id":"levelo_inurba_marseille","lat":43.29691,"lon":5.44437,"is_reserved":false,"is_disabled":false,"rental_uris":{"android":"levelo://app?vid=08e71c86-43a8-4902-86cf-de3f77db33e6","ios":"levelo://app?vid=08e71c86-43a8-4902-86cf-de3f77db33e6"},"vehicle_type_id":"4","last_reported":1775059194,"current_range_meters":3600,"station_id":"","pricing_plan_id":"cebpf4jnsgd1na2vs0mg"},{"bike_id":"b1587879-15da-4841-9c39-70b45e15f4c0","system_id":"levelo_inurba_marseille","lat":43.33152,"lon":5.377,"is_reserved":false,"is_disabled":false,"rental_uris":{"android":"levelo://app?vid=b1587879-15da-4841-9c39-70b45e15f4c0","ios":"levelo://app?vid=b1587879-15da-4841-9c39-70b45e15f4c0"},"vehicle_type_id":"4","last_reported":1775059194,"current_range_meters":3600,"station_id":"st_d46cu089ee8s73dldbu0","pricing_plan_id":"cebpf4jnsgd1na2vs0mg"},{"bike_id":"43e4bb96-0cd3-4e42-baf5-dd0ee842f69a","system_id":"levelo_inurba_marseille","lat":43.23783,"lon":5.36656,"is_reserved":false,"is_disabled":false,"rental_uris":{"android":"levelo://app?vid=43e4bb96-0cd3-4e42-baf5-dd0ee842f69a","ios":"levelo://app?vid=43e4bb96-0cd3-4e42-baf5-dd0ee842f69a"},"vehicle_type_id":"4","last_reported":1775059194,"current_range_meters":3600,"station_id":"st_d3nk18o9ro0c73en2l3g","pricing_plan_id":"cebpf4jnsgd1na2vs0mg"},{"bike_id":"37eb3fab-ef0c-4540-827a-5365245b083e","system_id":"levelo_inurba_marseille","lat":43.2495,"lon":5.40504,"is_reserved":false,"is_disabled":false,"rental_uris":{"android":"levelo://app?vid=37eb3fab-ef0c-4540-827a-5365245b083e","ios":"levelo://app?vid=37eb3fab-ef0c-4540-827a-5365245b083e"},"vehicle_type_id":"4","last_reported":1775059194,"current_range_meters":3600,"station_id":"st_d2ngiaodas8pm72gd1h0","pricing_plan_id":"cebpf4jnsgd1na2vs0mg"},{"bike_id":"741e7411-421a-47f4-8265-258c366dbfd2","system_id":"levelo_inurba_marseille","lat":43.28265,"lon":5.35064,"is_reserved":false,"is_disabled":false,"rental_uris":{"android":"levelo://app?vid=741e7411-421a-47f4-8265-258c366dbfd2","ios":"levelo://app?vid=741e7411-421a-47f4-8265-258c366dbfd2"},"vehicle_type_id":"4","last_reported":1775059194,"current_range_meters":4000,"station_id":"ce4bhbp2rcd13ifvqerg","pricing_plan_id":"cebpf4jnsgd1na2vs0mg"},{"bike_id":"e5a7a53a-b267-4440-9c9f-66f6b2ca226b","system_id":"levelo_inurba_marseille","lat":43.29602,"lon":5.37193,"is_reserved":false,"is_disabled":false,"rental_uris":{"android":"levelo://app?vid=e5a7a53a-b267-4440-9c9f-66f6b2ca226b","ios":"levelo://app?vid=e5a7a53a-b267-4440-9c9f-66f6b2ca226b"},"vehicle_type_id":"4","last_reported":1775059194,"current_range_meters":4000,"station_id":"ce4bgnh2rcd13ifvqc0g","pricing_plan_id":"cebpf4jnsgd1na2vs0mg"},{"bike_id":"3a922081-a991-4b97-906e-7f7dba00403a","system_id":"levelo_inurba_marseille","lat":43.32352,"lon":5.36736,"is_reserved":false,"is_disabled":false,"rental_uris":{"android":"levelo://app?vid=3a922081-a991-4b97-906e-7f7dba00403a","ios":"levelo://app?vid=3a922081-a991-4b97-906e-7f7dba00403a"},"vehicle_type_id":"4","last_reported":1775059194,"current_range_meters":4000,"station_id":"ce4bhsh2rcd13ifvqi2g","pricing_plan_id":"cebpf4jnsgd1na2vs0mg"},{"bike_id":"53879992-769e-433a-9fe8-396906624217","system_id":"levelo_inurba_marseille","lat":43.24384,"lon":5.37076,"is_reserved":false,"is_disabled":false,"rental_uris":{"android":"levelo://app?vid=53879992-769e-433a-9fe8-396906624217","ios":"levelo://app?vid=53879992-769e-433a-9fe8-396906624217"},"vehicle_type_id":"4","last_reported":1775059194,"current_range_meters":4000,"station_id":"ce4bhhh2rcd13ifvqfk0","pricing_plan_id":"cebpf4jnsgd1na2vs0mg"},{"bike_id":"dfc35718-1e7e-4508-8e42-0b19505ac54c","system_id":"levelo_inurba_marseille","lat":43.30314,"lon":5.36898,"is_reserved":false,"is_disabled":false,"rental_uris":{"android":"levelo://app?vid=dfc35718-1e7e-4508-8e42-0b19505ac54c","ios":"levelo://app?vid=dfc35718-1e7e-4508-8e42-0b19505ac54c"},"vehicle_type_id":"4","last_reported":1775059194,"current_range_meters":4000,"station_id":"ce4bgqh2rcd13ifvqc5g","pricing_plan_id":"cebpf4jnsgd1na2vs0mg"},{"bike_id":"9c1440ce-c955-43db-9800-7794805da744","system_id":"levelo_inurba_marseille","lat":43.23967,"lon":5.36627,"is_reserved":false,"is_disabled":false,"rental_uris":{"android":"levelo://app?vid=9c1440ce-c955-43db-9800-7794805da744","ios":"levelo://app?vid=9c1440ce-c955-43db-9800-7794805da744"},"vehicle_type_id":"4","last_reported":1775059194,"current_range_meters":4000,"station_id":"ce4bhi12rcd13ifvqfp0","pricing_plan_id":"cebpf4jnsgd1na2vs0mg"},{"bike_id":"76cb063d-d528-4b85-bd1f-92cb87912c86","system_id":"levelo_inurba_marseille","lat":43.28351,"lon":5.39388,"is_reserved":false,"is_disabled":false,"rental_uris":{"android":"levelo://app?vid=76cb063d-d528-4b85-bd1f-92cb87912c86","ios":"levelo://app?vid=76cb063d-d528-4b85-bd1f-92cb87912c86"},"vehicle_type_id":"4","last_reported":1775059194,"current_range_meters":4000,"station_id":"","pricing_plan_id":"cebpf4jnsgd1na2vs0mg"},{"bike_id":"10143625-4f1f-4b98-a23a-f0e119d830ff","system_id":"levelo_inurba_marseille","lat":43.24814,"lon":5.37472,"is_reserved":false,"is_disabled":false,"rental_uris":{"android":"levelo://app?vid=10143625-4f1f-4b98-a23a-f0e119d830ff","ios":"levelo://app?vid=10143625-4f1f-4b98-a23a-f0e119d830ff"},"vehicle_type_id":"4","last_reported":1775059194,"current_range_meters":4000,"station_id":"ce4bhgh2rcd13ifvqfb0","pricing_plan_id":"cebpf4jnsgd1na2vs0mg"},{"bike_id":"b1e9f130-d8ae-4858-bc10-b368a2ad0d85","system_id":"levelo_inurba_marseille","lat":43.28474,"lon":5.48414,"is_reserved":false,"is_disabled":false,"rental_uris":{"android":"levelo://app?vid=b1e9f130-d8ae-4858-bc10-b368a2ad0d85","ios":"levelo://app?vid=b1e9f130-d8ae-4858-bc10-b368a2ad0d85"},"vehicle_type_id":"4","last_reported":1775059194,"current_range_meters":4000,"station_id":"st_d3svhcjqgbts73a3dn0g","pricing_plan_id":"cebpf4jnsgd1na2vs0mg"},{"bike_id":"ec772718-1fe1-4b3a-a402-1dd619ad46a9","system_id":"levelo_inurba_marseille","lat":43.28265,"lon":5.35075,"is_reserved":false,"is_disabled":false,"rental_uris":{"android":"levelo://app?vid=ec772718-1fe1-4b3a-a402-1dd619ad46a9","ios":"levelo://app?vid=ec772718-1fe1-4b3a-a402-1dd619ad46a9"},"vehicle_type_id":"4","last_reported":1775059194,"current_range_meters":4000,"station_id":"ce4bhbp2rcd13ifvqerg","pricing_plan_id":"cebpf4jnsgd1na2vs0mg"},{"bike_id":"2b8d5258-3402-488f-8f95-4dc3a425ac4d","system_id":"levelo_inurba_marseille","lat":43.29797,"lon":5.40411,"is_reserved":false,"is_disabled":false,"rental_uris":{"android":"levelo://app?vid=2b8d5258-3402-488f-8f95-4dc3a425ac4d","ios":"levelo://app?vid=2b8d5258-3402-488f-8f95-4dc3a425ac4d"},"vehicle_type_id":"4","last_reported":1775059194,"current_range_meters":4000,"station_id":"ce4bh112rcd13ifvqd90","pricing_plan_id":"cebpf4jnsgd1na2vs0mg"},{"bike_id":"b53f224e-5c2b-47b3-a19b-0c6884245c31","system_id":"levelo_inurba_marseille","lat":43.23962,"lon":5.36679,"is_reserved":false,"is_disabled":false,"rental_uris":{"android":"levelo://app?vid=b53f224e-5c2b-47b3-a19b-0c6884245c31","ios":"levelo://app?vid=b53f224e-5c2b-47b3-a19b-0c6884245c31"},"vehicle_type_id":"4","last_reported":1775059194,"current_range_meters":4000,"station_id":"ce4bhi12rcd13ifvqfp0","pricing_plan_id":"cebpf4jnsgd1na2vs0mg"},{"bike_id":"a5b21948-fcb5-4ade-bce3-37cd3c403d4c","system_id":"levelo_inurba_marseille","lat":43.23069,"lon":5.355,"is_reserved":false,"is_disabled":false,"rental_uris":{"android":"levelo://app?vid=a5b21948-fcb5-4ade-bce3-37cd3c403d4c","ios":"levelo://app?vid=a5b21948-fcb5-4ade-bce3-37cd3c403d4c"},"vehicle_type_id":"4","last_reported":1775059194,"current_range_meters":4000,"station_id":"cpo3342slgdg3j2ifvpg","pricing_plan_id":"cebpf4jnsgd1na2vs0mg"},{"bike_id":"58f34c6b-a86e-4e7a-8bcc-4b268f42924a","system_id":"levelo_inurba_marseille","lat":43.32255,"lon":5.37148,"is_reserved":false,"is_disabled":false,"rental_uris":{"android":"levelo://app?vid=58f34c6b-a86e-4e7a-8bcc-4b268f42924a","ios":"levelo://app?vid=58f34c6b-a86e-4e7a-8bcc-4b268f42924a"},"vehicle_type_id":"4","last_reported":1775059194,"current_range_meters":4000,"station_id":"","pricing_plan_id":"cebpf4jnsgd1na2vs0mg"},{"bike_id":"c0d476b1-f611-47a7-96f4-9f343c4fe258","system_id":"levelo_inurba_marseille","lat":43.28486,"lon":5.38587,"is_reserved":false,"is_disabled":false,"rental_uris":{"android":"levelo://app?vid=c0d476b1-f611-47a7-96f4-9f343c4fe258","ios":"levelo://app?vid=c0d476b1-f611-47a7-96f4-9f343c4fe258"},"vehicle_type_id":"4","last_reported":1775059194,"current_range_meters":4000,"station_id":"ce4bh8p2rcd13ifvqeb0","pricing_plan_id":"cebpf4jnsgd1na2vs0mg"},{"bike_id":"43ecb730-4f2d-42f6-b4b6-05ed9bc91d2f","system_id":"levelo_inurba_marseille","lat":43.24378,"lon":5.37051,"is_reserved":false,"is_disabled":false,"rental_uris":{"android":"levelo://app?vid=43ecb730-4f2d-42f6-b4b6-05ed9bc91d2f","ios":"levelo://app?vid=43ecb730-4f2d-42f6-b4b6-05ed9bc91d2f"},"vehicle_type_id":"4","last_reported":1775059194,"current_range_meters":4000,"station_id":"ce4bhhh2rcd13ifvqfk0","pricing_plan_id":"cebpf4jnsgd1na2vs0mg"},{"bike_id":"0ebcc71a-1070-45ee-8791-56ad76c8f07f","system_id":"levelo_inurba_marseille","lat":43.26376,"lon":5.41088,"is_reserved":false,"is_disabled":false,"rental_uris":{"android":"levelo://app?vid=0ebcc71a-1070-45ee-8791-56ad76c8f07f","ios":"levelo://app?vid=0ebcc71a-1070-45ee-8791-56ad76c8f07f"},"vehicle_type_id":"4","last_reported":1775059194,"current_range_meters":4000,"station_id":"st_d4e5ca6na9uc73bfl5fg","pricing_plan_id":"cebpf4jnsgd1na2vs0mg"},{"bike_id":"bb0d11db-19ae-4f1c-8146-45d8cf0530f7","system_id":"levelo_inurba_marseille","lat":43.337444,"lon":5.374475,"is_reserved":false,"is_disabled":true,"rental_uris":{"android":"levelo://app?vid=bb0d11db-19ae-4f1c-8146-45d8cf0530f7","ios":"levelo://app?vid=bb0d11db-19ae-4f1c-8146-45d8cf0530f7"},"vehicle_type_id":"4","last_reported":1775059194,"current_range_meters":4000,"station_id":"","pricing_plan_id":"cebpf4jnsgd1na2vs0mg"},{"bike_id":"ed669797-6ad7-4f27-9f24-14841a69a29e","system_id":"levelo_inurba_marseille","lat":43.30592,"lon":5.37223,"is_reserved":false,"is_disabled":false,"rental_uris":{"android":"levelo://app?vid=ed669797-6ad7-4f27-9f24-14841a69a29e","ios":"levelo://app?vid=ed669797-6ad7-4f27-9f24-14841a69a29e"},"vehicle_type_id":"4","last_reported":1775059194,"current_range_meters":4400,"station_id":"ce4bgqh2rcd13ifvqc4g","pricing_plan_id":"cebpf4jnsgd1na2vs0mg"},{"bike_id":"9c014c21-0814-46e2-9079-4ed86b4000e6","system_id":"levelo_inurba_marseille","lat":43.23787,"lon":5.36636,"is_reserved":false,"is_disabled":false,"rental_uris":{"android":"levelo://app?vid=9c014c21-0814-46e2-9079-4ed86b4000e6","ios":"levelo://app?vid=9c014c21-0814-46e2-9079-4ed86b4000e6"},"vehicle_type_id":"4","last_reported":1775059194,"current_range_meters":4400,"station_id":"st_d3nk18o9ro0c73en2l3g","pricing_plan_id":"cebpf4jnsgd1na2vs0mg"},{"bike_id":"c3b788af-d27a-41af-bf0f-cb5977477d64","system_id":"levelo_inurba_marseille","lat":43.31887,"lon":5.40752,"is_reserved":false,"is_disabled":false,"rental_uris":{"android":"levelo://app?vid=c3b788af-d27a-41af-bf0f-cb5977477d64","ios":"levelo://app?vid=c3b788af-d27a-41af-bf0f-cb5977477d64"},"vehicle_type_id":"4","last_reported":1775059194,"current_range_meters":4400,"station_id":"ce4bhq12rcd13ifvqhig","pricing_plan_id":"cebpf4jnsgd1na2vs0mg"},{"bike_id":"dd0c2c54-978e-49b8-89a3-9926153b6f8e","system_id":"levelo_inurba_marseille","lat":43.299,"lon":5.43657,"is_reserved":false,"is_disabled":false,"rental_uris":{"android":"levelo://app?vid=dd0c2c54-978e-49b8-89a3-9926153b6f8e","ios":"levelo://app?vid=dd0c2c54-978e-49b8-89a3-9926153b6f8e"},"vehicle_type_id":"4","last_reported":1775059194,"current_range_meters":4400,"station_id":"ce4bhpp2rcd13ifvqhfg","pricing_plan_id":"cebpf4jnsgd1na2vs0mg"},{"bike_id":"c784bdb5-a3c0-43c3-affc-fa4de285118a","system_id":"levelo_inurba_marseille","lat":43.29265,"lon":5.38443,"is_reserved":false,"is_disabled":false,"rental_uris":{"android":"levelo://app?vid=c784bdb5-a3c0-43c3-affc-fa4de285118a","ios":"levelo://app?vid=c784bdb5-a3c0-43c3-affc-fa4de285118a"},"vehicle_type_id":"4","last_reported":1775059194,"current_range_meters":4400,"station_id":"ce4bh692rcd13ifvqea0","pricing_plan_id":"cebpf4jnsgd1na2vs0mg"},{"bike_id":"cf450e1b-8aa1-4d78-ac0a-8df926f4f821","system_id":"levelo_inurba_marseille","lat":43.24387,"lon":5.37055,"is_reserved":false,"is_disabled":false,"rental_uris":{"android":"levelo://app?vid=cf450e1b-8aa1-4d78-ac0a-8df926f4f821","ios":"levelo://app?vid=cf450e1b-8aa1-4d78-ac0a-8df926f4f821"},"vehicle_type_id":"4","last_reported":1775059194,"current_range_meters":4400,"station_id":"ce4bhhh2rcd13ifvqfk0","pricing_plan_id":"cebpf4jnsgd1na2vs0mg"},{"bike_id":"177a8ed5-f2f5-4308-8112-5e8ad2b66ef6","system_id":"levelo_inurba_marseille","lat":43.28342,"lon":5.38133,"is_reserved":false,"is_disabled":false,"rental_uris":{"android":"levelo://app?vid=177a8ed5-f2f5-4308-8112-5e8ad2b66ef6","ios":"levelo://app?vid=177a8ed5-f2f5-4308-8112-5e8ad2b66ef6"},"vehicle_type_id":"4","last_reported":1775059194,"current_range_meters":4400,"station_id":"ce4bh412rcd13ifvqdr0","pricing_plan_id":"cebpf4jnsgd1na2vs0mg"},{"bike_id":"4f6a94d7-9abc-4e72-8783-2409b2db2583","system_id":"levelo_inurba_marseille","lat":43.29268,"lon":5.40121,"is_reserved":false,"is_disabled":true,"rental_uris":{"android":"levelo://app?vid=4f6a94d7-9abc-4e72-8783-2409b2db2583","ios":"levelo://app?vid=4f6a94d7-9abc-4e72-8783-2409b2db2583"},"vehicle_type_id":"4","last_reported":1775059194,"current_range_meters":4400,"station_id":"ce4bh312rcd13ifvqdk0","pricing_plan_id":"cebpf4jnsgd1na2vs0mg"},{"bike_id":"ae252984-33f9-4582-8e8a-f420930221a8","system_id":"levelo_inurba_marseille","lat":43.29533,"lon":5.38656,"is_reserved":false,"is_disabled":false,"rental_uris":{"android":"levelo://app?vid=ae252984-33f9-4582-8e8a-f420930221a8","ios":"levelo://app?vid=ae252984-33f9-4582-8e8a-f420930221a8"},"vehicle_type_id":"4","last_reported":1775059194,"current_range_meters":4400,"station_id":"","pricing_plan_id":"cebpf4jnsgd1na2vs0mg"},{"bike_id":"82ef25fe-ced1-4b2f-9f5f-f3e9366b70f0","system_id":"levelo_inurba_marseille","lat":43.28487,"lon":5.48404,"is_reserved":false,"is_disabled":false,"rental_uris":{"android":"levelo://app?vid=82ef25fe-ced1-4b2f-9f5f-f3e9366b70f0","ios":"levelo://app?vid=82ef25fe-ced1-4b2f-9f5f-f3e9366b70f0"},"vehicle_type_id":"4","last_reported":1775059194,"current_range_meters":4400,"station_id":"st_d3svhcjqgbts73a3dn0g","pricing_plan_id":"cebpf4jnsgd1na2vs0mg"},{"bike_id":"a44c01f7-bcb8-43ee-a0d8-a5bcdd7d773e","system_id":"levelo_inurba_marseille","lat":43.287018,"lon":5.373828,"is_reserved":false,"is_disabled":false,"rental_uris":{"android":"levelo://app?vid=a44c01f7-bcb8-43ee-a0d8-a5bcdd7d773e","ios":"levelo://app?vid=a44c01f7-bcb8-43ee-a0d8-a5bcdd7d773e"},"vehicle_type_id":"4","last_reported":1775059194,"current_range_meters":4400,"station_id":"ce4bh3p2rcd13ifvqdq0","pricing_plan_id":"cebpf4jnsgd1na2vs0mg"},{"bike_id":"44f9d2b5-878b-45f7-83f0-9fe3de8ddc6b","system_id":"levelo_inurba_marseille","lat":43.30649,"lon":5.3659,"is_reserved":false,"is_disabled":false,"rental_uris":{"android":"levelo://app?vid=44f9d2b5-878b-45f7-83f0-9fe3de8ddc6b","ios":"levelo://app?vid=44f9d2b5-878b-45f7-83f0-9fe3de8ddc6b"},"vehicle_type_id":"4","last_reported":1775059194,"current_range_meters":4400,"station_id":"","pricing_plan_id":"cebpf4jnsgd1na2vs0mg"},{"bike_id":"8ac5f488-63f4-44a1-8bd3-e84bbdd09f17","system_id":"levelo_inurba_marseille","lat":43.27375,"lon":5.36263,"is_reserved":false,"is_disabled":false,"rental_uris":{"android":"levelo://app?vid=8ac5f488-63f4-44a1-8bd3-e84bbdd09f17","ios":"levelo://app?vid=8ac5f488-63f4-44a1-8bd3-e84bbdd09f17"},"vehicle_type_id":"4","last_reported":1775059194,"current_range_meters":4400,"station_id":"ce4bhbh2rcd13ifvqeo0","pricing_plan_id":"cebpf4jnsgd1na2vs0mg"},{"bike_id":"b18d36d6-af5b-407a-9476-ac8f9f69ebe0","system_id":"levelo_inurba_marseille","lat":43.27179,"lon":5.40985,"is_reserved":false,"is_disabled":false,"rental_uris":{"android":"levelo://app?vid=b18d36d6-af5b-407a-9476-ac8f9f69ebe0","ios":"levelo://app?vid=b18d36d6-af5b-407a-9476-ac8f9f69ebe0"},"vehicle_type_id":"4","last_reported":1775059194,"current_range_meters":4400,"station_id":"ce4bhl12rcd13ifvqgf0","pricing_plan_id":"cebpf4jnsgd1na2vs0mg"},{"bike_id":"b1d02504-2c4f-47d1-9d0a-aa3599012e9a","system_id":"levelo_inurba_marseille","lat":43.26817,"lon":5.40241,"is_reserved":false,"is_disabled":false,"rental_uris":{"android":"levelo://app?vid=b1d02504-2c4f-47d1-9d0a-aa3599012e9a","ios":"levelo://app?vid=b1d02504-2c4f-47d1-9d0a-aa3599012e9a"},"vehicle_type_id":"4","last_reported":1775059194,"current_range_meters":4400,"station_id":"ce501612rcd8frsf0b60","pricing_plan_id":"cebpf4jnsgd1na2vs0mg"},{"bike_id":"f16b5cd3-bbc5-4be5-8171-95842c0cc8e5","system_id":"levelo_inurba_marseille","lat":43.26683,"lon":5.38271,"is_reserved":false,"is_disabled":false,"rental_uris":{"android":"levelo://app?vid=f16b5cd3-bbc5-4be5-8171-95842c0cc8e5","ios":"levelo://app?vid=f16b5cd3-bbc5-4be5-8171-95842c0cc8e5"},"vehicle_type_id":"4","last_reported":1775059194,"current_range_meters":4400,"station_id":"ce4bhg92rcd13ifvqf90","pricing_plan_id":"cebpf4jnsgd1na2vs0mg"},{"bike_id":"b30474c6-10d5-47a6-9acc-a4af281f9552","system_id":"levelo_inurba_marseille","lat":43.24412,"lon":5.371,"is_reserved":false,"is_disabled":false,"rental_uris":{"android":"levelo://app?vid=b30474c6-10d5-47a6-9acc-a4af281f9552","ios":"levelo://app?vid=b30474c6-10d5-47a6-9acc-a4af281f9552"},"vehicle_type_id":"4","last_reported":1775059194,"current_range_meters":4400,"station_id":"ce4bhhh2rcd13ifvqfk0","pricing_plan_id":"cebpf4jnsgd1na2vs0mg"},{"bike_id":"7400477c-9980-4654-afd3-fb3051f2b138","system_id":"levelo_inurba_marseille","lat":43.28458,"lon":5.35897,"is_reserved":false,"is_disabled":false,"rental_uris":{"android":"levelo://app?vid=7400477c-9980-4654-afd3-fb3051f2b138","ios":"levelo://app?vid=7400477c-9980-4654-afd3-fb3051f2b138"},"vehicle_type_id":"4","last_reported":1775059194,"current_range_meters":4400,"station_id":"ce4bhah2rcd13ifvqei0","pricing_plan_id":"cebpf4jnsgd1na2vs0mg"},{"bike_id":"dfb946ce-fedb-4e12-8519-cb8fb15a5c14","system_id":"levelo_inurba_marseille","lat":43.24174,"lon":5.36403,"is_reserved":false,"is_disabled":false,"rental_uris":{"android":"levelo://app?vid=dfb946ce-fedb-4e12-8519-cb8fb15a5c14","ios":"levelo://app?vid=dfb946ce-fedb-4e12-8519-cb8fb15a5c14"},"vehicle_type_id":"4","last_reported":1775059194,"current_range_meters":4800,"station_id":"cpo36qri1sfpv3e86is0","pricing_plan_id":"cebpf4jnsgd1na2vs0mg"},{"bike_id":"a20f850c-d4ca-4157-bd3f-18fda064d36f","system_id":"levelo_inurba_marseille","lat":43.29529,"lon":5.38657,"is_reserved":false,"is_disabled":false,"rental_uris":{"android":"levelo://app?vid=a20f850c-d4ca-4157-bd3f-18fda064d36f","ios":"levelo://app?vid=a20f850c-d4ca-4157-bd3f-18fda064d36f"},"vehicle_type_id":"4","last_reported":1775059194,"current_range_meters":4800,"station_id":"","pricing_plan_id":"cebpf4jnsgd1na2vs0mg"},{"bike_id":"54b32ec7-ddfd-41e6-ae23-087da91e8924","system_id":"levelo_inurba_marseille","lat":43.29892,"lon":5.43665,"is_reserved":false,"is_disabled":false,"rental_uris":{"android":"levelo://app?vid=54b32ec7-ddfd-41e6-ae23-087da91e8924","ios":"levelo://app?vid=54b32ec7-ddfd-41e6-ae23-087da91e8924"},"vehicle_type_id":"4","last_reported":1775059194,"current_range_meters":4800,"station_id":"ce4bhpp2rcd13ifvqhfg","pricing_plan_id":"cebpf4jnsgd1na2vs0mg"},{"bike_id":"435393ff-9e8e-4fa2-82a4-6ce12bbccbed","system_id":"levelo_inurba_marseille","lat":43.28489,"lon":5.4841,"is_reserved":false,"is_disabled":false,"rental_uris":{"android":"levelo://app?vid=435393ff-9e8e-4fa2-82a4-6ce12bbccbed","ios":"levelo://app?vid=435393ff-9e8e-4fa2-82a4-6ce12bbccbed"},"vehicle_type_id":"4","last_reported":1775059194,"current_range_meters":4800,"station_id":"st_d3svhcjqgbts73a3dn0g","pricing_plan_id":"cebpf4jnsgd1na2vs0mg"},{"bike_id":"1f6bd616-f380-4630-a66b-f980a33e8714","system_id":"levelo_inurba_marseille","lat":43.31357,"lon":5.36686,"is_reserved":false,"is_disabled":false,"rental_uris":{"android":"levelo://app?vid=1f6bd616-f380-4630-a66b-f980a33e8714","ios":"levelo://app?vid=1f6bd616-f380-4630-a66b-f980a33e8714"},"vehicle_type_id":"4","last_reported":1775059194,"current_range_meters":4800,"station_id":"ce4bgr92rcd13ifvqc6g","pricing_plan_id":"cebpf4jnsgd1na2vs0mg"},{"bike_id":"839f391b-feab-427a-b17d-2d524e38c555","system_id":"levelo_inurba_marseille","lat":43.23791,"lon":5.36639,"is_reserved":false,"is_disabled":false,"rental_uris":{"android":"levelo://app?vid=839f391b-feab-427a-b17d-2d524e38c555","ios":"levelo://app?vid=839f391b-feab-427a-b17d-2d524e38c555"},"vehicle_type_id":"4","last_reported":1775059194,"current_range_meters":4800,"station_id":"st_d3nk18o9ro0c73en2l3g","pricing_plan_id":"cebpf4jnsgd1na2vs0mg"},{"bike_id":"b6135f5b-5560-4b28-aa81-b66f00afd942","system_id":"levelo_inurba_marseille","lat":43.27375,"lon":5.36253,"is_reserved":false,"is_disabled":false,"rental_uris":{"android":"levelo://app?vid=b6135f5b-5560-4b28-aa81-b66f00afd942","ios":"levelo://app?vid=b6135f5b-5560-4b28-aa81-b66f00afd942"},"vehicle_type_id":"4","last_reported":1775059194,"current_range_meters":4800,"station_id":"ce4bhbh2rcd13ifvqeo0","pricing_plan_id":"cebpf4jnsgd1na2vs0mg"},{"bike_id":"982729d9-2724-4269-9eee-96b1f36d36b2","system_id":"levelo_inurba_marseille","lat":43.27203,"lon":5.39185,"is_reserved":false,"is_disabled":false,"rental_uris":{"android":"levelo://app?vid=982729d9-2724-4269-9eee-96b1f36d36b2","ios":"levelo://app?vid=982729d9-2724-4269-9eee-96b1f36d36b2"},"vehicle_type_id":"4","last_reported":1775059194,"current_range_meters":4800,"station_id":"ce4bhhp2rcd13ifvqfm0","pricing_plan_id":"cebpf4jnsgd1na2vs0mg"},{"bike_id":"ff7881b4-77ea-4b3a-b777-8c6357d34309","system_id":"levelo_inurba_marseille","lat":43.26497,"lon":5.39542,"is_reserved":false,"is_disabled":false,"rental_uris":{"android":"levelo://app?vid=ff7881b4-77ea-4b3a-b777-8c6357d34309","ios":"levelo://app?vid=ff7881b4-77ea-4b3a-b777-8c6357d34309"},"vehicle_type_id":"4","last_reported":1775059194,"current_range_meters":4800,"station_id":"ce4bhi12rcd13ifvqfq0","pricing_plan_id":"cebpf4jnsgd1na2vs0mg"},{"bike_id":"920edf2e-1b58-4176-9c0f-fc609deb1ed3","system_id":"levelo_inurba_marseille","lat":43.24172,"lon":5.36396,"is_reserved":false,"is_disabled":false,"rental_uris":{"android":"levelo://app?vid=920edf2e-1b58-4176-9c0f-fc609deb1ed3","ios":"levelo://app?vid=920edf2e-1b58-4176-9c0f-fc609deb1ed3"},"vehicle_type_id":"4","last_reported":1775059194,"current_range_meters":4800,"station_id":"cpo36qri1sfpv3e86is0","pricing_plan_id":"cebpf4jnsgd1na2vs0mg"},{"bike_id":"fbb75834-f22e-4b0c-a13f-b3782403aa38","system_id":"levelo_inurba_marseille","lat":43.23959,"lon":5.36644,"is_reserved":false,"is_disabled":false,"rental_uris":{"android":"levelo://app?vid=fbb75834-f22e-4b0c-a13f-b3782403aa38","ios":"levelo://app?vid=fbb75834-f22e-4b0c-a13f-b3782403aa38"},"vehicle_type_id":"4","last_reported":1775059194,"current_range_meters":4800,"station_id":"ce4bhi12rcd13ifvqfp0","pricing_plan_id":"cebpf4jnsgd1na2vs0mg"},{"bike_id":"437e69ca-aec6-4e88-bbcd-4cfa901819a2","system_id":"levelo_inurba_marseille","lat":43.25012,"lon":5.3892,"is_reserved":false,"is_disabled":false,"rental_uris":{"android":"levelo://app?vid=437e69ca-aec6-4e88-bbcd-4cfa901819a2","ios":"levelo://app?vid=437e69ca-aec6-4e88-bbcd-4cfa901819a2"},"vehicle_type_id":"4","last_reported":1775059194,"current_range_meters":4800,"station_id":"ce4bhgp2rcd13ifvqfd0","pricing_plan_id":"cebpf4jnsgd1na2vs0mg"},{"bike_id":"599274e6-5922-44eb-9531-05e370a85b3e","system_id":"levelo_inurba_marseille","lat":43.24803,"lon":5.37448,"is_reserved":false,"is_disabled":false,"rental_uris":{"android":"levelo://app?vid=599274e6-5922-44eb-9531-05e370a85b3e","ios":"levelo://app?vid=599274e6-5922-44eb-9531-05e370a85b3e"},"vehicle_type_id":"4","last_reported":1775059194,"current_range_meters":4800,"station_id":"ce4bhgh2rcd13ifvqfb0","pricing_plan_id":"cebpf4jnsgd1na2vs0mg"},{"bike_id":"210ab8bc-ca83-4666-9c63-3fe5db44eaa0","system_id":"levelo_inurba_marseille","lat":43.27384,"lon":5.36257,"is_reserved":false,"is_disabled":false,"rental_uris":{"android":"levelo://app?vid=210ab8bc-ca83-4666-9c63-3fe5db44eaa0","ios":"levelo://app?vid=210ab8bc-ca83-4666-9c63-3fe5db44eaa0"},"vehicle_type_id":"4","last_reported":1775059194,"current_range_meters":4800,"station_id":"ce4bhbh2rcd13ifvqeo0","pricing_plan_id":"cebpf4jnsgd1na2vs0mg"},{"bike_id":"72509681-52aa-4782-9de0-820bb878387d","system_id":"levelo_inurba_marseille","lat":43.22558,"lon":5.41633,"is_reserved":false,"is_disabled":false,"rental_uris":{"android":"levelo://app?vid=72509681-52aa-4782-9de0-820bb878387d","ios":"levelo://app?vid=72509681-52aa-4782-9de0-820bb878387d"},"vehicle_type_id":"4","last_reported":1775059194,"current_range_meters":4800,"station_id":"st_d2o4gvlbi1j2169b742g","pricing_plan_id":"cebpf4jnsgd1na2vs0mg"},{"bike_id":"2143be35-497d-4c7b-9f85-3e781cd61463","system_id":"levelo_inurba_marseille","lat":43.299,"lon":5.43669,"is_reserved":false,"is_disabled":false,"rental_uris":{"android":"levelo://app?vid=2143be35-497d-4c7b-9f85-3e781cd61463","ios":"levelo://app?vid=2143be35-497d-4c7b-9f85-3e781cd61463"},"vehicle_type_id":"4","last_reported":1775059194,"current_range_meters":4800,"station_id":"ce4bhpp2rcd13ifvqhfg","pricing_plan_id":"cebpf4jnsgd1na2vs0mg"},{"bike_id":"6ec1889d-c43d-42d7-9ebb-6d09626d1897","system_id":"levelo_inurba_marseille","lat":43.24661,"lon":5.38904,"is_reserved":false,"is_disabled":false,"rental_uris":{"android":"levelo://app?vid=6ec1889d-c43d-42d7-9ebb-6d09626d1897","ios":"levelo://app?vid=6ec1889d-c43d-42d7-9ebb-6d09626d1897"},"vehicle_type_id":"4","last_reported":1775059194,"current_range_meters":5600,"station_id":"ce4bhg12rcd13ifvqf60","pricing_plan_id":"cebpf4jnsgd1na2vs0mg"},{"bike_id":"8429f855-c4a0-4803-9ce7-0d1fb93dbfe8","system_id":"levelo_inurba_marseille","lat":43.28556,"lon":5.48327,"is_reserved":false,"is_disabled":false,"rental_uris":{"android":"levelo://app?vid=8429f855-c4a0-4803-9ce7-0d1fb93dbfe8","ios":"levelo://app?vid=8429f855-c4a0-4803-9ce7-0d1fb93dbfe8"},"vehicle_type_id":"4","last_reported":1775059194,"current_range_meters":5600,"station_id":"","pricing_plan_id":"cebpf4jnsgd1na2vs0mg"},{"bike_id":"df9ba9ea-758d-4390-88d2-b454dfaea29c","system_id":"levelo_inurba_marseille","lat":43.30699,"lon":5.38431,"is_reserved":false,"is_disabled":false,"rental_uris":{"android":"levelo://app?vid=df9ba9ea-758d-4390-88d2-b454dfaea29c","ios":"levelo://app?vid=df9ba9ea-758d-4390-88d2-b454dfaea29c"},"vehicle_type_id":"4","last_reported":1775059194,"current_range_meters":5600,"station_id":"","pricing_plan_id":"cebpf4jnsgd1na2vs0mg"},{"bike_id":"97911566-b39d-4772-9786-37508c49e45f","system_id":"levelo_inurba_marseille","lat":43.22558,"lon":5.41633,"is_reserved":false,"is_disabled":false,"rental_uris":{"android":"levelo://app?vid=97911566-b39d-4772-9786-37508c49e45f","ios":"levelo://app?vid=97911566-b39d-4772-9786-37508c49e45f"},"vehicle_type_id":"4","last_reported":1775059194,"current_range_meters":5600,"station_id":"st_d2o4gvlbi1j2169b742g","pricing_plan_id":"cebpf4jnsgd1na2vs0mg"},{"bike_id":"3b0676d0-3c5e-443f-a620-c38959c0c6cb","system_id":"levelo_inurba_marseille","lat":43.22539,"lon":5.34837,"is_reserved":false,"is_disabled":false,"rental_uris":{"android":"levelo://app?vid=3b0676d0-3c5e-443f-a620-c38959c0c6cb","ios":"levelo://app?vid=3b0676d0-3c5e-443f-a620-c38959c0c6cb"},"vehicle_type_id":"4","last_reported":1775059194,"current_range_meters":5600,"station_id":"st_cvj5dfep6f1abm77gieg","pricing_plan_id":"cebpf4jnsgd1na2vs0mg"},{"bike_id":"175912ed-e43a-4ac2-a399-44bffbd30ab8","system_id":"levelo_inurba_marseille","lat":43.29584,"lon":5.36746,"is_reserved":false,"is_disabled":false,"rental_uris":{"android":"levelo://app?vid=175912ed-e43a-4ac2-a399-44bffbd30ab8","ios":"levelo://app?vid=175912ed-e43a-4ac2-a399-44bffbd30ab8"},"vehicle_type_id":"4","last_reported":1775059194,"current_range_meters":5600,"station_id":"ce4bgph2rcd13ifvqc2g","pricing_plan_id":"cebpf4jnsgd1na2vs0mg"},{"bike_id":"713b34f2-1898-4744-8719-5682e9a6d68b","system_id":"levelo_inurba_marseille","lat":43.29616,"lon":5.37736,"is_reserved":false,"is_disabled":false,"rental_uris":{"android":"levelo://app?vid=713b34f2-1898-4744-8719-5682e9a6d68b","ios":"levelo://app?vid=713b34f2-1898-4744-8719-5682e9a6d68b"},"vehicle_type_id":"4","last_reported":1775059194,"current_range_meters":5600,"station_id":"ce4bgi92rcd13ifvqb90","pricing_plan_id":"cebpf4jnsgd1na2vs0mg"},{"bike_id":"2e501741-9929-4ddd-905c-c53c23abb93c","system_id":"levelo_inurba_marseille","lat":43.29552,"lon":5.39023,"is_reserved":false,"is_disabled":true,"rental_uris":{"android":"levelo://app?vid=2e501741-9929-4ddd-905c-c53c23abb93c","ios":"levelo://app?vid=2e501741-9929-4ddd-905c-c53c23abb93c"},"vehicle_type_id":"4","last_reported":1775059194,"current_range_meters":5600,"station_id":"ce4bh3p2rcd13ifvqdp0","pricing_plan_id":"cebpf4jnsgd1na2vs0mg"},{"bike_id":"4f461c12-a839-4112-843e-a559d023da9c","system_id":"levelo_inurba_marseille","lat":43.21219,"lon":5.35108,"is_reserved":false,"is_disabled":false,"rental_uris":{"android":"levelo://app?vid=4f461c12-a839-4112-843e-a559d023da9c","ios":"levelo://app?vid=4f461c12-a839-4112-843e-a559d023da9c"},"vehicle_type_id":"4","last_reported":1775059194,"current_range_meters":5600,"station_id":"st_cvj6sg6p6f1abm77japg","pricing_plan_id":"cebpf4jnsgd1na2vs0mg"},{"bike_id":"b66b200f-b138-40e0-b86c-28744858f114","system_id":"levelo_inurba_marseille","lat":43.28379,"lon":5.40086,"is_reserved":false,"is_disabled":false,"rental_uris":{"android":"levelo://app?vid=b66b200f-b138-40e0-b86c-28744858f114","ios":"levelo://app?vid=b66b200f-b138-40e0-b86c-28744858f114"},"vehicle_type_id":"4","last_reported":1775059194,"current_range_meters":5600,"station_id":"","pricing_plan_id":"cebpf4jnsgd1na2vs0mg"},{"bike_id":"963df0f3-0b0b-453c-96ee-6fbf1db3e373","system_id":"levelo_inurba_marseille","lat":43.31229,"lon":5.36861,"is_reserved":false,"is_disabled":false,"rental_uris":{"android":"levelo://app?vid=963df0f3-0b0b-453c-96ee-6fbf1db3e373","ios":"levelo://app?vid=963df0f3-0b0b-453c-96ee-6fbf1db3e373"},"vehicle_type_id":"4","last_reported":1775059194,"current_range_meters":6000,"station_id":"ce4bgl92rcd13ifvqbq0","pricing_plan_id":"cebpf4jnsgd1na2vs0mg"},{"bike_id":"e9492639-93d5-4433-918a-22fe5fa574f1","system_id":"levelo_inurba_marseille","lat":43.29795,"lon":5.40397,"is_reserved":false,"is_disabled":false,"rental_uris":{"android":"levelo://app?vid=e9492639-93d5-4433-918a-22fe5fa574f1","ios":"levelo://app?vid=e9492639-93d5-4433-918a-22fe5fa574f1"},"vehicle_type_id":"4","last_reported":1775059194,"current_range_meters":6000,"station_id":"ce4bh112rcd13ifvqd90","pricing_plan_id":"cebpf4jnsgd1na2vs0mg"},{"bike_id":"1130d409-34d2-42ba-a5d5-ed99d6325005","system_id":"levelo_inurba_marseille","lat":43.21752,"lon":5.34602,"is_reserved":false,"is_disabled":false,"rental_uris":{"android":"levelo://app?vid=1130d409-34d2-42ba-a5d5-ed99d6325005","ios":"levelo://app?vid=1130d409-34d2-42ba-a5d5-ed99d6325005"},"vehicle_type_id":"4","last_reported":1775059194,"current_range_meters":6000,"station_id":"st_cvj6r9ubvosntc0bgbag","pricing_plan_id":"cebpf4jnsgd1na2vs0mg"},{"bike_id":"1fd14647-60cf-49f0-a971-843beb62395e","system_id":"levelo_inurba_marseille","lat":43.28522,"lon":5.44119,"is_reserved":false,"is_disabled":false,"rental_uris":{"android":"levelo://app?vid=1fd14647-60cf-49f0-a971-843beb62395e","ios":"levelo://app?vid=1fd14647-60cf-49f0-a971-843beb62395e"},"vehicle_type_id":"4","last_reported":1775059194,"current_range_meters":6000,"station_id":"st_d3j3df2ikq2c7380ej80","pricing_plan_id":"cebpf4jnsgd1na2vs0mg"},{"bike_id":"cd727012-638f-49f9-bbd5-5a3b95fe3f18","system_id":"levelo_inurba_marseille","lat":43.24469,"lon":5.42533,"is_reserved":false,"is_disabled":false,"rental_uris":{"android":"levelo://app?vid=cd727012-638f-49f9-bbd5-5a3b95fe3f18","ios":"levelo://app?vid=cd727012-638f-49f9-bbd5-5a3b95fe3f18"},"vehicle_type_id":"4","last_reported":1775059194,"current_range_meters":6000,"station_id":"st_d4a3vfp97mjs738cd8kg","pricing_plan_id":"cebpf4jnsgd1na2vs0mg"},{"bike_id":"d501687f-7b97-40ba-b116-2fed6e9f54cd","system_id":"levelo_inurba_marseille","lat":43.30085,"lon":5.39074,"is_reserved":false,"is_disabled":false,"rental_uris":{"android":"levelo://app?vid=d501687f-7b97-40ba-b116-2fed6e9f54cd","ios":"levelo://app?vid=d501687f-7b97-40ba-b116-2fed6e9f54cd"},"vehicle_type_id":"4","last_reported":1775059194,"current_range_meters":6000,"station_id":"ce4bh192rcd13ifvqdb0","pricing_plan_id":"cebpf4jnsgd1na2vs0mg"},{"bike_id":"7486e167-bd2a-40a6-9f10-cd1d3c654830","system_id":"levelo_inurba_marseille","lat":43.26002,"lon":5.3758,"is_reserved":false,"is_disabled":false,"rental_uris":{"android":"levelo://app?vid=7486e167-bd2a-40a6-9f10-cd1d3c654830","ios":"levelo://app?vid=7486e167-bd2a-40a6-9f10-cd1d3c654830"},"vehicle_type_id":"4","last_reported":1775059194,"current_range_meters":6000,"station_id":"ce4bhgh2rcd13ifvqfa0","pricing_plan_id":"cebpf4jnsgd1na2vs0mg"},{"bike_id":"4dc5e590-cebf-4591-86fa-2533cf011660","system_id":"levelo_inurba_marseille","lat":43.23967,"lon":5.36631,"is_reserved":false,"is_disabled":false,"rental_uris":{"android":"levelo://app?vid=4dc5e590-cebf-4591-86fa-2533cf011660","ios":"levelo://app?vid=4dc5e590-cebf-4591-86fa-2533cf011660"},"vehicle_type_id":"4","last_reported":1775059194,"current_range_meters":6000,"station_id":"ce4bhi12rcd13ifvqfp0","pricing_plan_id":"cebpf4jnsgd1na2vs0mg"},{"bike_id":"e39075e1-ea5f-489b-92f7-81d5eb2a83fd","system_id":"levelo_inurba_marseille","lat":43.2175,"lon":5.34593,"is_reserved":false,"is_disabled":false,"rental_uris":{"android":"levelo://app?vid=e39075e1-ea5f-489b-92f7-81d5eb2a83fd","ios":"levelo://app?vid=e39075e1-ea5f-489b-92f7-81d5eb2a83fd"},"vehicle_type_id":"4","last_reported":1775059194,"current_range_meters":6000,"station_id":"st_cvj6r9ubvosntc0bgbag","pricing_plan_id":"cebpf4jnsgd1na2vs0mg"},{"bike_id":"597c0048-2d2b-4a03-800f-033a3948d866","system_id":"levelo_inurba_marseille","lat":43.29705,"lon":5.36629,"is_reserved":false,"is_disabled":false,"rental_uris":{"android":"levelo://app?vid=597c0048-2d2b-4a03-800f-033a3948d866","ios":"levelo://app?vid=597c0048-2d2b-4a03-800f-033a3948d866"},"vehicle_type_id":"4","last_reported":1775059194,"current_range_meters":6000,"station_id":"ce4bgn12rcd13ifvqbt0","pricing_plan_id":"cebpf4jnsgd1na2vs0mg"},{"bike_id":"de1ef30a-032c-4f0b-a292-6e95481445c0","system_id":"levelo_inurba_marseille","lat":43.23964,"lon":5.36622,"is_reserved":false,"is_disabled":false,"rental_uris":{"android":"levelo://app?vid=de1ef30a-032c-4f0b-a292-6e95481445c0","ios":"levelo://app?vid=de1ef30a-032c-4f0b-a292-6e95481445c0"},"vehicle_type_id":"4","last_reported":1775059194,"current_range_meters":6000,"station_id":"ce4bhi12rcd13ifvqfp0","pricing_plan_id":"cebpf4jnsgd1na2vs0mg"},{"bike_id":"29cdac5f-ab24-4680-bdbb-b9f9e11d744e","system_id":"levelo_inurba_marseille","lat":43.33159,"lon":5.37675,"is_reserved":false,"is_disabled":false,"rental_uris":{"android":"levelo://app?vid=29cdac5f-ab24-4680-bdbb-b9f9e11d744e","ios":"levelo://app?vid=29cdac5f-ab24-4680-bdbb-b9f9e11d744e"},"vehicle_type_id":"4","last_reported":1775059194,"current_range_meters":6000,"station_id":"st_d46cu089ee8s73dldbu0","pricing_plan_id":"cebpf4jnsgd1na2vs0mg"},{"bike_id":"e04ab676-41d6-4b4b-ab78-7d3f0a307f9d","system_id":"levelo_inurba_marseille","lat":43.29529,"lon":5.3855,"is_reserved":false,"is_disabled":false,"rental_uris":{"android":"levelo://app?vid=e04ab676-41d6-4b4b-ab78-7d3f0a307f9d","ios":"levelo://app?vid=e04ab676-41d6-4b4b-ab78-7d3f0a307f9d"},"vehicle_type_id":"4","last_reported":1775059194,"current_range_meters":6000,"station_id":"ce4bgih2rcd13ifvqba0","pricing_plan_id":"cebpf4jnsgd1na2vs0mg"},{"bike_id":"d2065ccc-eec0-4c96-9fa2-85ac2f34fabe","system_id":"levelo_inurba_marseille","lat":43.33612,"lon":5.41041,"is_reserved":false,"is_disabled":false,"rental_uris":{"android":"levelo://app?vid=d2065ccc-eec0-4c96-9fa2-85ac2f34fabe","ios":"levelo://app?vid=d2065ccc-eec0-4c96-9fa2-85ac2f34fabe"},"vehicle_type_id":"4","last_reported":1775059194,"current_range_meters":6000,"station_id":"ce4bhqh2rcd13ifvqhmg","pricing_plan_id":"cebpf4jnsgd1na2vs0mg"},{"bike_id":"2fd1a994-7d6e-4193-b813-419813306eee","system_id":"levelo_inurba_marseille","lat":43.25578,"lon":5.38228,"is_reserved":false,"is_disabled":false,"rental_uris":{"android":"levelo://app?vid=2fd1a994-7d6e-4193-b813-419813306eee","ios":"levelo://app?vid=2fd1a994-7d6e-4193-b813-419813306eee"},"vehicle_type_id":"4","last_reported":1775059194,"current_range_meters":6000,"station_id":"ce4bhih2rcd13ifvqfs0","pricing_plan_id":"cebpf4jnsgd1na2vs0mg"},{"bike_id":"dbafccf7-0909-44bd-86f0-abe7aa0ed694","system_id":"levelo_inurba_marseille","lat":43.2905,"lon":5.43692,"is_reserved":false,"is_disabled":false,"rental_uris":{"android":"levelo://app?vid=dbafccf7-0909-44bd-86f0-abe7aa0ed694","ios":"levelo://app?vid=dbafccf7-0909-44bd-86f0-abe7aa0ed694"},"vehicle_type_id":"4","last_reported":1775059194,"current_range_meters":6400,"station_id":"","pricing_plan_id":"cebpf4jnsgd1na2vs0mg"},{"bike_id":"e48449c9-7d13-4803-b2aa-7fb857c0a68c","system_id":"levelo_inurba_marseille","lat":43.24431,"lon":5.41587,"is_reserved":false,"is_disabled":false,"rental_uris":{"android":"levelo://app?vid=e48449c9-7d13-4803-b2aa-7fb857c0a68c","ios":"levelo://app?vid=e48449c9-7d13-4803-b2aa-7fb857c0a68c"},"vehicle_type_id":"4","last_reported":1775059194,"current_range_meters":6400,"station_id":"","pricing_plan_id":"cebpf4jnsgd1na2vs0mg"},{"bike_id":"951f2076-7fa7-48ba-a2ee-04f31535c3ad","system_id":"levelo_inurba_marseille","lat":43.29491,"lon":5.43349,"is_reserved":false,"is_disabled":false,"rental_uris":{"android":"levelo://app?vid=951f2076-7fa7-48ba-a2ee-04f31535c3ad","ios":"levelo://app?vid=951f2076-7fa7-48ba-a2ee-04f31535c3ad"},"vehicle_type_id":"4","last_reported":1775059194,"current_range_meters":6400,"station_id":"st_d3j5ugp08ojc73fj9d10","pricing_plan_id":"cebpf4jnsgd1na2vs0mg"},{"bike_id":"a12ced21-9765-4fca-9fbf-5660d7509d0d","system_id":"levelo_inurba_marseille","lat":43.28436,"lon":5.35006,"is_reserved":false,"is_disabled":false,"rental_uris":{"android":"levelo://app?vid=a12ced21-9765-4fca-9fbf-5660d7509d0d","ios":"levelo://app?vid=a12ced21-9765-4fca-9fbf-5660d7509d0d"},"vehicle_type_id":"4","last_reported":1775059194,"current_range_meters":6400,"station_id":"ce4bhbh2rcd13ifvqepg","pricing_plan_id":"cebpf4jnsgd1na2vs0mg"},{"bike_id":"ffde6a95-5dec-426a-943f-3ce4b714e7dc","system_id":"levelo_inurba_marseille","lat":43.21741,"lon":5.34605,"is_reserved":false,"is_disabled":false,"rental_uris":{"android":"levelo://app?vid=ffde6a95-5dec-426a-943f-3ce4b714e7dc","ios":"levelo://app?vid=ffde6a95-5dec-426a-943f-3ce4b714e7dc"},"vehicle_type_id":"4","last_reported":1775059194,"current_range_meters":6400,"station_id":"st_cvj6r9ubvosntc0bgbag","pricing_plan_id":"cebpf4jnsgd1na2vs0mg"},{"bike_id":"d41d5ff3-651c-4e70-8a12-e8a105b53c64","system_id":"levelo_inurba_marseille","lat":43.31572,"lon":5.44538,"is_reserved":false,"is_disabled":false,"rental_uris":{"android":"levelo://app?vid=d41d5ff3-651c-4e70-8a12-e8a105b53c64","ios":"levelo://app?vid=d41d5ff3-651c-4e70-8a12-e8a105b53c64"},"vehicle_type_id":"4","last_reported":1775059194,"current_range_meters":6400,"station_id":"","pricing_plan_id":"cebpf4jnsgd1na2vs0mg"},{"bike_id":"a9616136-f3db-4e2d-951b-e20c22b73feb","system_id":"levelo_inurba_marseille","lat":43.24803,"lon":5.37452,"is_reserved":false,"is_disabled":false,"rental_uris":{"android":"levelo://app?vid=a9616136-f3db-4e2d-951b-e20c22b73feb","ios":"levelo://app?vid=a9616136-f3db-4e2d-951b-e20c22b73feb"},"vehicle_type_id":"4","last_reported":1775059194,"current_range_meters":6400,"station_id":"ce4bhgh2rcd13ifvqfb0","pricing_plan_id":"cebpf4jnsgd1na2vs0mg"},{"bike_id":"72d81c0d-e0b8-4d34-abe5-88c4d15511ba","system_id":"levelo_inurba_marseille","lat":43.26215,"lon":5.37441,"is_reserved":false,"is_disabled":false,"rental_uris":{"android":"levelo://app?vid=72d81c0d-e0b8-4d34-abe5-88c4d15511ba","ios":"levelo://app?vid=72d81c0d-e0b8-4d34-abe5-88c4d15511ba"},"vehicle_type_id":"4","last_reported":1775059194,"current_range_meters":6400,"station_id":"ce4bhgp2rcd13ifvqfc0","pricing_plan_id":"cebpf4jnsgd1na2vs0mg"},{"bike_id":"028261e5-b01c-40b3-aac6-0d82cb6906fe","system_id":"levelo_inurba_marseille","lat":43.2175,"lon":5.34598,"is_reserved":false,"is_disabled":false,"rental_uris":{"android":"levelo://app?vid=028261e5-b01c-40b3-aac6-0d82cb6906fe","ios":"levelo://app?vid=028261e5-b01c-40b3-aac6-0d82cb6906fe"},"vehicle_type_id":"4","last_reported":1775059194,"current_range_meters":6400,"station_id":"st_cvj6r9ubvosntc0bgbag","pricing_plan_id":"cebpf4jnsgd1na2vs0mg"},{"bike_id":"50236813-bf88-46a5-ace1-dd5e5784f3e0","system_id":"levelo_inurba_marseille","lat":43.3315,"lon":5.377,"is_reserved":false,"is_disabled":false,"rental_uris":{"android":"levelo://app?vid=50236813-bf88-46a5-ace1-dd5e5784f3e0","ios":"levelo://app?vid=50236813-bf88-46a5-ace1-dd5e5784f3e0"},"vehicle_type_id":"4","last_reported":1775059194,"current_range_meters":6400,"station_id":"st_d46cu089ee8s73dldbu0","pricing_plan_id":"cebpf4jnsgd1na2vs0mg"},{"bike_id":"df35c9ed-bba6-47ee-9efd-f917ec18474c","system_id":"levelo_inurba_marseille","lat":43.24174,"lon":5.36398,"is_reserved":false,"is_disabled":false,"rental_uris":{"android":"levelo://app?vid=df35c9ed-bba6-47ee-9efd-f917ec18474c","ios":"levelo://app?vid=df35c9ed-bba6-47ee-9efd-f917ec18474c"},"vehicle_type_id":"4","last_reported":1775059194,"current_range_meters":6400,"station_id":"cpo36qri1sfpv3e86is0","pricing_plan_id":"cebpf4jnsgd1na2vs0mg"},{"bike_id":"e6caabe7-497e-4d3c-86fa-a025d055c3bd","system_id":"levelo_inurba_marseille","lat":43.24074,"lon":5.37765,"is_reserved":false,"is_disabled":false,"rental_uris":{"android":"levelo://app?vid=e6caabe7-497e-4d3c-86fa-a025d055c3bd","ios":"levelo://app?vid=e6caabe7-497e-4d3c-86fa-a025d055c3bd"},"vehicle_type_id":"4","last_reported":1775059194,"current_range_meters":6400,"station_id":"ce4bhnp2rcd13ifvqgvg","pricing_plan_id":"cebpf4jnsgd1na2vs0mg"},{"bike_id":"61dc7beb-63c5-45cd-906b-0925d0f5df41","system_id":"levelo_inurba_marseille","lat":43.28531,"lon":5.44086,"is_reserved":false,"is_disabled":false,"rental_uris":{"android":"levelo://app?vid=61dc7beb-63c5-45cd-906b-0925d0f5df41","ios":"levelo://app?vid=61dc7beb-63c5-45cd-906b-0925d0f5df41"},"vehicle_type_id":"4","last_reported":1775059194,"current_range_meters":6400,"station_id":"st_d3j3df2ikq2c7380ej80","pricing_plan_id":"cebpf4jnsgd1na2vs0mg"},{"bike_id":"1b58e69f-c21b-459c-9a71-82a9e022289d","system_id":"levelo_inurba_marseille","lat":43.29932,"lon":5.36551,"is_reserved":false,"is_disabled":false,"rental_uris":{"android":"levelo://app?vid=1b58e69f-c21b-459c-9a71-82a9e022289d","ios":"levelo://app?vid=1b58e69f-c21b-459c-9a71-82a9e022289d"},"vehicle_type_id":"4","last_reported":1775059194,"current_range_meters":6400,"station_id":"ce4bgm92rcd13ifvqbr0","pricing_plan_id":"cebpf4jnsgd1na2vs0mg"},{"bike_id":"13d20448-2a0b-46db-8316-03ddd4da0c3b","system_id":"levelo_inurba_marseille","lat":43.29724,"lon":5.3659,"is_reserved":false,"is_disabled":false,"rental_uris":{"android":"levelo://app?vid=13d20448-2a0b-46db-8316-03ddd4da0c3b","ios":"levelo://app?vid=13d20448-2a0b-46db-8316-03ddd4da0c3b"},"vehicle_type_id":"4","last_reported":1775059194,"current_range_meters":6400,"station_id":"ce4bgn12rcd13ifvqbt0","pricing_plan_id":"cebpf4jnsgd1na2vs0mg"},{"bike_id":"96f64e49-7ba9-4a9b-ae7d-7e7667644a85","system_id":"levelo_inurba_marseille","lat":43.23196,"lon":5.35554,"is_reserved":false,"is_disabled":false,"rental_uris":{"android":"levelo://app?vid=96f64e49-7ba9-4a9b-ae7d-7e7667644a85","ios":"levelo://app?vid=96f64e49-7ba9-4a9b-ae7d-7e7667644a85"},"vehicle_type_id":"4","last_reported":1775059194,"current_range_meters":6400,"station_id":"ce4bhu92rcd13ifvqi70","pricing_plan_id":"cebpf4jnsgd1na2vs0mg"},{"bike_id":"333a339b-a965-44f4-82f3-17a0518601d7","system_id":"levelo_inurba_marseille","lat":43.24846,"lon":5.37458,"is_reserved":false,"is_disabled":false,"rental_uris":{"android":"levelo://app?vid=333a339b-a965-44f4-82f3-17a0518601d7","ios":"levelo://app?vid=333a339b-a965-44f4-82f3-17a0518601d7"},"vehicle_type_id":"4","last_reported":1775059194,"current_range_meters":6400,"station_id":"","pricing_plan_id":"cebpf4jnsgd1na2vs0mg"},{"bike_id":"8fc970ee-a484-45a1-8680-8f7f28a23ddf","system_id":"levelo_inurba_marseille","lat":43.21763,"lon":5.34606,"is_reserved":false,"is_disabled":false,"rental_uris":{"android":"levelo://app?vid=8fc970ee-a484-45a1-8680-8f7f28a23ddf","ios":"levelo://app?vid=8fc970ee-a484-45a1-8680-8f7f28a23ddf"},"vehicle_type_id":"4","last_reported":1775059194,"current_range_meters":6400,"station_id":"st_cvj6r9ubvosntc0bgbag","pricing_plan_id":"cebpf4jnsgd1na2vs0mg"},{"bike_id":"4a4c80c6-435f-44aa-95b0-67a9b18b54db","system_id":"levelo_inurba_marseille","lat":43.2737,"lon":5.36259,"is_reserved":false,"is_disabled":false,"rental_uris":{"android":"levelo://app?vid=4a4c80c6-435f-44aa-95b0-67a9b18b54db","ios":"levelo://app?vid=4a4c80c6-435f-44aa-95b0-67a9b18b54db"},"vehicle_type_id":"4","last_reported":1775059194,"current_range_meters":6400,"station_id":"ce4bhbh2rcd13ifvqeo0","pricing_plan_id":"cebpf4jnsgd1na2vs0mg"},{"bike_id":"521fdd5c-22f2-444b-870e-16f0ca92be9e","system_id":"levelo_inurba_marseille","lat":43.29525,"lon":5.38653,"is_reserved":false,"is_disabled":false,"rental_uris":{"android":"levelo://app?vid=521fdd5c-22f2-444b-870e-16f0ca92be9e","ios":"levelo://app?vid=521fdd5c-22f2-444b-870e-16f0ca92be9e"},"vehicle_type_id":"4","last_reported":1775059194,"current_range_meters":6800,"station_id":"","pricing_plan_id":"cebpf4jnsgd1na2vs0mg"},{"bike_id":"f56d7445-00a0-462a-9cac-ec053ad4a04e","system_id":"levelo_inurba_marseille","lat":43.31531,"lon":5.38047,"is_reserved":false,"is_disabled":true,"rental_uris":{"android":"levelo://app?vid=f56d7445-00a0-462a-9cac-ec053ad4a04e","ios":"levelo://app?vid=f56d7445-00a0-462a-9cac-ec053ad4a04e"},"vehicle_type_id":"4","last_reported":1775059194,"current_range_meters":6800,"station_id":"ce4bhsp2rcd13ifvqi50","pricing_plan_id":"cebpf4jnsgd1na2vs0mg"},{"bike_id":"163fd9d2-5177-4e69-b6ce-f970cc2f946f","system_id":"levelo_inurba_marseille","lat":43.28002,"lon":5.40011,"is_reserved":false,"is_disabled":false,"rental_uris":{"android":"levelo://app?vid=163fd9d2-5177-4e69-b6ce-f970cc2f946f","ios":"levelo://app?vid=163fd9d2-5177-4e69-b6ce-f970cc2f946f"},"vehicle_type_id":"4","last_reported":1775059194,"current_range_meters":6800,"station_id":"ce4bho92rcd13ifvqh4g","pricing_plan_id":"cebpf4jnsgd1na2vs0mg"},{"bike_id":"5ff8da46-d50f-41b2-8eee-8fa1fd7c4ed1","system_id":"levelo_inurba_marseille","lat":43.25004,"lon":5.38938,"is_reserved":false,"is_disabled":false,"rental_uris":{"android":"levelo://app?vid=5ff8da46-d50f-41b2-8eee-8fa1fd7c4ed1","ios":"levelo://app?vid=5ff8da46-d50f-41b2-8eee-8fa1fd7c4ed1"},"vehicle_type_id":"4","last_reported":1775059194,"current_range_meters":6800,"station_id":"ce4bhgp2rcd13ifvqfd0","pricing_plan_id":"cebpf4jnsgd1na2vs0mg"},{"bike_id":"ace8d92c-665e-46a4-858d-e12872c8b9f0","system_id":"levelo_inurba_marseille","lat":43.28469,"lon":5.48402,"is_reserved":false,"is_disabled":false,"rental_uris":{"android":"levelo://app?vid=ace8d92c-665e-46a4-858d-e12872c8b9f0","ios":"levelo://app?vid=ace8d92c-665e-46a4-858d-e12872c8b9f0"},"vehicle_type_id":"4","last_reported":1775059194,"current_range_meters":6800,"station_id":"","pricing_plan_id":"cebpf4jnsgd1na2vs0mg"},{"bike_id":"35e9492a-806d-4bf1-bcb9-db0c2ea29b2a","system_id":"levelo_inurba_marseille","lat":43.29531,"lon":5.38541,"is_reserved":false,"is_disabled":false,"rental_uris":{"android":"levelo://app?vid=35e9492a-806d-4bf1-bcb9-db0c2ea29b2a","ios":"levelo://app?vid=35e9492a-806d-4bf1-bcb9-db0c2ea29b2a"},"vehicle_type_id":"4","last_reported":1775059194,"current_range_meters":6800,"station_id":"ce4bgih2rcd13ifvqba0","pricing_plan_id":"cebpf4jnsgd1na2vs0mg"},{"bike_id":"ddacb53e-55a3-4a67-a531-5d71504540ee","system_id":"levelo_inurba_marseille","lat":43.22556,"lon":5.41633,"is_reserved":false,"is_disabled":false,"rental_uris":{"android":"levelo://app?vid=ddacb53e-55a3-4a67-a531-5d71504540ee","ios":"levelo://app?vid=ddacb53e-55a3-4a67-a531-5d71504540ee"},"vehicle_type_id":"4","last_reported":1775059194,"current_range_meters":6800,"station_id":"st_d2o4gvlbi1j2169b742g","pricing_plan_id":"cebpf4jnsgd1na2vs0mg"},{"bike_id":"0d0c8f03-48a7-4e97-9825-e79885ed278e","system_id":"levelo_inurba_marseille","lat":43.23066,"lon":5.35524,"is_reserved":false,"is_disabled":false,"rental_uris":{"android":"levelo://app?vid=0d0c8f03-48a7-4e97-9825-e79885ed278e","ios":"levelo://app?vid=0d0c8f03-48a7-4e97-9825-e79885ed278e"},"vehicle_type_id":"4","last_reported":1775059194,"current_range_meters":6800,"station_id":"cpo3342slgdg3j2ifvpg","pricing_plan_id":"cebpf4jnsgd1na2vs0mg"},{"bike_id":"c46b9691-8495-4ec3-9b9e-c04c1003a346","system_id":"levelo_inurba_marseille","lat":43.28537,"lon":5.44103,"is_reserved":false,"is_disabled":false,"rental_uris":{"android":"levelo://app?vid=c46b9691-8495-4ec3-9b9e-c04c1003a346","ios":"levelo://app?vid=c46b9691-8495-4ec3-9b9e-c04c1003a346"},"vehicle_type_id":"4","last_reported":1775059194,"current_range_meters":6800,"station_id":"st_d3j3df2ikq2c7380ej80","pricing_plan_id":"cebpf4jnsgd1na2vs0mg"},{"bike_id":"ac750519-69a1-4eac-846f-31128d535c20","system_id":"levelo_inurba_marseille","lat":43.24402,"lon":5.37059,"is_reserved":false,"is_disabled":false,"rental_uris":{"android":"levelo://app?vid=ac750519-69a1-4eac-846f-31128d535c20","ios":"levelo://app?vid=ac750519-69a1-4eac-846f-31128d535c20"},"vehicle_type_id":"4","last_reported":1775059194,"current_range_meters":6800,"station_id":"ce4bhhh2rcd13ifvqfk0","pricing_plan_id":"cebpf4jnsgd1na2vs0mg"},{"bike_id":"a562a0ae-7466-482c-bf48-bd9e0062b1ce","system_id":"levelo_inurba_marseille","lat":43.25008,"lon":5.38941,"is_reserved":false,"is_disabled":false,"rental_uris":{"android":"levelo://app?vid=a562a0ae-7466-482c-bf48-bd9e0062b1ce","ios":"levelo://app?vid=a562a0ae-7466-482c-bf48-bd9e0062b1ce"},"vehicle_type_id":"4","last_reported":1775059194,"current_range_meters":6800,"station_id":"ce4bhgp2rcd13ifvqfd0","pricing_plan_id":"cebpf4jnsgd1na2vs0mg"},{"bike_id":"e1a367f1-e965-4b14-910c-035500053b1f","system_id":"levelo_inurba_marseille","lat":43.28413,"lon":5.34975,"is_reserved":false,"is_disabled":false,"rental_uris":{"android":"levelo://app?vid=e1a367f1-e965-4b14-910c-035500053b1f","ios":"levelo://app?vid=e1a367f1-e965-4b14-910c-035500053b1f"},"vehicle_type_id":"4","last_reported":1775059194,"current_range_meters":6800,"station_id":"ce4bhbh2rcd13ifvqepg","pricing_plan_id":"cebpf4jnsgd1na2vs0mg"},{"bike_id":"3010ca9d-c8fb-41d7-ace8-3104f4f63f5d","system_id":"levelo_inurba_marseille","lat":43.23197,"lon":5.35568,"is_reserved":false,"is_disabled":false,"rental_uris":{"android":"levelo://app?vid=3010ca9d-c8fb-41d7-ace8-3104f4f63f5d","ios":"levelo://app?vid=3010ca9d-c8fb-41d7-ace8-3104f4f63f5d"},"vehicle_type_id":"4","last_reported":1775059194,"current_range_meters":6800,"station_id":"ce4bhu92rcd13ifvqi70","pricing_plan_id":"cebpf4jnsgd1na2vs0mg"},{"bike_id":"fe9ee96d-4d04-41db-bddb-02cb2970b121","system_id":"levelo_inurba_marseille","lat":43.28608,"lon":5.35114,"is_reserved":false,"is_disabled":false,"rental_uris":{"android":"levelo://app?vid=fe9ee96d-4d04-41db-bddb-02cb2970b121","ios":"levelo://app?vid=fe9ee96d-4d04-41db-bddb-02cb2970b121"},"vehicle_type_id":"4","last_reported":1775059194,"current_range_meters":6800,"station_id":"ce4bhch2rcd13ifvqeug","pricing_plan_id":"cebpf4jnsgd1na2vs0mg"},{"bike_id":"e4bcdb9c-b43c-4b9e-a45b-e313924f0ed9","system_id":"levelo_inurba_marseille","lat":43.33623,"lon":5.41055,"is_reserved":false,"is_disabled":true,"rental_uris":{"android":"levelo://app?vid=e4bcdb9c-b43c-4b9e-a45b-e313924f0ed9","ios":"levelo://app?vid=e4bcdb9c-b43c-4b9e-a45b-e313924f0ed9"},"vehicle_type_id":"4","last_reported":1775059194,"current_range_meters":6800,"station_id":"ce4bhqh2rcd13ifvqhmg","pricing_plan_id":"cebpf4jnsgd1na2vs0mg"},{"bike_id":"70b15db6-3217-4d89-ac61-5713567e98b7","system_id":"levelo_inurba_marseille","lat":43.3187,"lon":5.4003,"is_reserved":false,"is_disabled":false,"rental_uris":{"android":"levelo://app?vid=70b15db6-3217-4d89-ac61-5713567e98b7","ios":"levelo://app?vid=70b15db6-3217-4d89-ac61-5713567e98b7"},"vehicle_type_id":"4","last_reported":1775059194,"current_range_meters":6800,"station_id":"","pricing_plan_id":"cebpf4jnsgd1na2vs0mg"},{"bike_id":"7d221536-c309-4cb7-98fe-5bdf54751499","system_id":"levelo_inurba_marseille","lat":43.28476,"lon":5.48397,"is_reserved":false,"is_disabled":false,"rental_uris":{"android":"levelo://app?vid=7d221536-c309-4cb7-98fe-5bdf54751499","ios":"levelo://app?vid=7d221536-c309-4cb7-98fe-5bdf54751499"},"vehicle_type_id":"4","last_reported":1775059194,"current_range_meters":6800,"station_id":"","pricing_plan_id":"cebpf4jnsgd1na2vs0mg"},{"bike_id":"45c050e8-a329-47f8-a86f-69826197952f","system_id":"levelo_inurba_marseille","lat":43.24167,"lon":5.36418,"is_reserved":false,"is_disabled":false,"rental_uris":{"android":"levelo://app?vid=45c050e8-a329-47f8-a86f-69826197952f","ios":"levelo://app?vid=45c050e8-a329-47f8-a86f-69826197952f"},"vehicle_type_id":"4","last_reported":1775059194,"current_range_meters":6800,"station_id":"cpo36qri1sfpv3e86is0","pricing_plan_id":"cebpf4jnsgd1na2vs0mg"},{"bike_id":"2b49fafc-1982-406b-b509-135eb726e407","system_id":"levelo_inurba_marseille","lat":43.28533,"lon":5.44107,"is_reserved":false,"is_disabled":false,"rental_uris":{"android":"levelo://app?vid=2b49fafc-1982-406b-b509-135eb726e407","ios":"levelo://app?vid=2b49fafc-1982-406b-b509-135eb726e407"},"vehicle_type_id":"4","last_reported":1775059194,"current_range_meters":6800,"station_id":"st_d3j3df2ikq2c7380ej80","pricing_plan_id":"cebpf4jnsgd1na2vs0mg"},{"bike_id":"437e4f3a-fe91-4ac4-a609-0c5a83e9fa75","system_id":"levelo_inurba_marseille","lat":43.3106,"lon":5.37181,"is_reserved":false,"is_disabled":false,"rental_uris":{"android":"levelo://app?vid=437e4f3a-fe91-4ac4-a609-0c5a83e9fa75","ios":"levelo://app?vid=437e4f3a-fe91-4ac4-a609-0c5a83e9fa75"},"vehicle_type_id":"4","last_reported":1775059194,"current_range_meters":6800,"station_id":"st_d4kl2rp97mjs73e7tdfg","pricing_plan_id":"cebpf4jnsgd1na2vs0mg"},{"bike_id":"0be0f331-343d-4e35-84d1-0c2a496d1cfe","system_id":"levelo_inurba_marseille","lat":43.31898,"lon":5.36828,"is_reserved":false,"is_disabled":false,"rental_uris":{"android":"levelo://app?vid=0be0f331-343d-4e35-84d1-0c2a496d1cfe","ios":"levelo://app?vid=0be0f331-343d-4e35-84d1-0c2a496d1cfe"},"vehicle_type_id":"4","last_reported":1775059194,"current_range_meters":6800,"station_id":"st_d6o2h0d0559c73evc1b0","pricing_plan_id":"cebpf4jnsgd1na2vs0mg"},{"bike_id":"a9c19882-e20e-46d5-8464-160a974c671e","system_id":"levelo_inurba_marseille","lat":43.29711,"lon":5.36612,"is_reserved":false,"is_disabled":false,"rental_uris":{"android":"levelo://app?vid=a9c19882-e20e-46d5-8464-160a974c671e","ios":"levelo://app?vid=a9c19882-e20e-46d5-8464-160a974c671e"},"vehicle_type_id":"4","last_reported":1775059194,"current_range_meters":6800,"station_id":"ce4bgn12rcd13ifvqbt0","pricing_plan_id":"cebpf4jnsgd1na2vs0mg"},{"bike_id":"2acbeaee-9049-4f51-b6ac-6ad555573f71","system_id":"levelo_inurba_marseille","lat":43.28709,"lon":5.37407,"is_reserved":false,"is_disabled":false,"rental_uris":{"android":"levelo://app?vid=2acbeaee-9049-4f51-b6ac-6ad555573f71","ios":"levelo://app?vid=2acbeaee-9049-4f51-b6ac-6ad555573f71"},"vehicle_type_id":"4","last_reported":1775059194,"current_range_meters":6800,"station_id":"ce4bh3p2rcd13ifvqdq0","pricing_plan_id":"cebpf4jnsgd1na2vs0mg"},{"bike_id":"751823b1-fecf-476f-a14d-b22ea92d3e4c","system_id":"levelo_inurba_marseille","lat":43.29179,"lon":5.42652,"is_reserved":false,"is_disabled":false,"rental_uris":{"android":"levelo://app?vid=751823b1-fecf-476f-a14d-b22ea92d3e4c","ios":"levelo://app?vid=751823b1-fecf-476f-a14d-b22ea92d3e4c"},"vehicle_type_id":"4","last_reported":1775059194,"current_range_meters":6800,"station_id":"","pricing_plan_id":"cebpf4jnsgd1na2vs0mg"},{"bike_id":"dbb463b5-6249-4cb0-a91a-704c133aae64","system_id":"levelo_inurba_marseille","lat":43.27393,"lon":5.36296,"is_reserved":false,"is_disabled":false,"rental_uris":{"android":"levelo://app?vid=dbb463b5-6249-4cb0-a91a-704c133aae64","ios":"levelo://app?vid=dbb463b5-6249-4cb0-a91a-704c133aae64"},"vehicle_type_id":"4","last_reported":1775059194,"current_range_meters":6800,"station_id":"ce4bhbh2rcd13ifvqeo0","pricing_plan_id":"cebpf4jnsgd1na2vs0mg"},{"bike_id":"b6982207-e0e9-49cc-a071-dd2c09021b41","system_id":"levelo_inurba_marseille","lat":43.29585,"lon":5.36737,"is_reserved":false,"is_disabled":false,"rental_uris":{"android":"levelo://app?vid=b6982207-e0e9-49cc-a071-dd2c09021b41","ios":"levelo://app?vid=b6982207-e0e9-49cc-a071-dd2c09021b41"},"vehicle_type_id":"4","last_reported":1775059194,"current_range_meters":6800,"station_id":"ce4bgph2rcd13ifvqc2g","pricing_plan_id":"cebpf4jnsgd1na2vs0mg"},{"bike_id":"c892cf3d-8c86-4c55-96cd-edaed8bb0344","system_id":"levelo_inurba_marseille","lat":43.22936,"lon":5.35376,"is_reserved":false,"is_disabled":false,"rental_uris":{"android":"levelo://app?vid=c892cf3d-8c86-4c55-96cd-edaed8bb0344","ios":"levelo://app?vid=c892cf3d-8c86-4c55-96cd-edaed8bb0344"},"vehicle_type_id":"4","last_reported":1775059194,"current_range_meters":6800,"station_id":"cpo3532slgdg3j2ikp40","pricing_plan_id":"cebpf4jnsgd1na2vs0mg"},{"bike_id":"166aab49-0c4b-4035-9d1f-8e2a71ed121a","system_id":"levelo_inurba_marseille","lat":43.30417,"lon":5.41279,"is_reserved":false,"is_disabled":false,"rental_uris":{"android":"levelo://app?vid=166aab49-0c4b-4035-9d1f-8e2a71ed121a","ios":"levelo://app?vid=166aab49-0c4b-4035-9d1f-8e2a71ed121a"},"vehicle_type_id":"4","last_reported":1775059194,"current_range_meters":7200,"station_id":"ce4bhop2rcd13ifvqh8g","pricing_plan_id":"cebpf4jnsgd1na2vs0mg"},{"bike_id":"020709b2-4511-4f7a-8597-5644cfeba6fe","system_id":"levelo_inurba_marseille","lat":43.24171,"lon":5.364,"is_reserved":false,"is_disabled":false,"rental_uris":{"android":"levelo://app?vid=020709b2-4511-4f7a-8597-5644cfeba6fe","ios":"levelo://app?vid=020709b2-4511-4f7a-8597-5644cfeba6fe"},"vehicle_type_id":"4","last_reported":1775059194,"current_range_meters":7200,"station_id":"cpo36qri1sfpv3e86is0","pricing_plan_id":"cebpf4jnsgd1na2vs0mg"},{"bike_id":"982951ba-d1eb-42d4-bb65-5d98050aa6ef","system_id":"levelo_inurba_marseille","lat":43.28469,"lon":5.48394,"is_reserved":false,"is_disabled":false,"rental_uris":{"android":"levelo://app?vid=982951ba-d1eb-42d4-bb65-5d98050aa6ef","ios":"levelo://app?vid=982951ba-d1eb-42d4-bb65-5d98050aa6ef"},"vehicle_type_id":"4","last_reported":1775059194,"current_range_meters":7200,"station_id":"","pricing_plan_id":"cebpf4jnsgd1na2vs0mg"},{"bike_id":"2e6d6eb1-b9c4-442b-a422-3ee8e5570dac","system_id":"levelo_inurba_marseille","lat":43.23381,"lon":5.41236,"is_reserved":false,"is_disabled":false,"rental_uris":{"android":"levelo://app?vid=2e6d6eb1-b9c4-442b-a422-3ee8e5570dac","ios":"levelo://app?vid=2e6d6eb1-b9c4-442b-a422-3ee8e5570dac"},"vehicle_type_id":"4","last_reported":1775059194,"current_range_meters":7200,"station_id":"st_d75pvndhf9lc73cqq3eg","pricing_plan_id":"cebpf4jnsgd1na2vs0mg"},{"bike_id":"9f379acd-775f-40aa-a2ad-0898810cd24c","system_id":"levelo_inurba_marseille","lat":43.24456,"lon":5.37107,"is_reserved":false,"is_disabled":false,"rental_uris":{"android":"levelo://app?vid=9f379acd-775f-40aa-a2ad-0898810cd24c","ios":"levelo://app?vid=9f379acd-775f-40aa-a2ad-0898810cd24c"},"vehicle_type_id":"4","last_reported":1775059194,"current_range_meters":7200,"station_id":"","pricing_plan_id":"cebpf4jnsgd1na2vs0mg"},{"bike_id":"15627b94-0339-4aab-b936-c98235ca103a","system_id":"levelo_inurba_marseille","lat":43.23183,"lon":5.39995,"is_reserved":false,"is_disabled":true,"rental_uris":{"android":"levelo://app?vid=15627b94-0339-4aab-b936-c98235ca103a","ios":"levelo://app?vid=15627b94-0339-4aab-b936-c98235ca103a"},"vehicle_type_id":"4","last_reported":1775059194,"current_range_meters":7200,"station_id":"ce4bhn12rcd13ifvqgqg","pricing_plan_id":"cebpf4jnsgd1na2vs0mg"},{"bike_id":"f776df01-fcc2-4e7c-bac8-d7f246a7df55","system_id":"levelo_inurba_marseille","lat":43.292317,"lon":5.36062,"is_reserved":false,"is_disabled":false,"rental_uris":{"android":"levelo://app?vid=f776df01-fcc2-4e7c-bac8-d7f246a7df55","ios":"levelo://app?vid=f776df01-fcc2-4e7c-bac8-d7f246a7df55"},"vehicle_type_id":"4","last_reported":1775059194,"current_range_meters":7200,"station_id":"ce4bhbh2rcd13ifvqeqg","pricing_plan_id":"cebpf4jnsgd1na2vs0mg"},{"bike_id":"89ce176f-31e7-46bc-bf50-3f91eb1f1a7a","system_id":"levelo_inurba_marseille","lat":43.28463,"lon":5.35915,"is_reserved":false,"is_disabled":false,"rental_uris":{"android":"levelo://app?vid=89ce176f-31e7-46bc-bf50-3f91eb1f1a7a","ios":"levelo://app?vid=89ce176f-31e7-46bc-bf50-3f91eb1f1a7a"},"vehicle_type_id":"4","last_reported":1775059194,"current_range_meters":7200,"station_id":"ce4bhah2rcd13ifvqei0","pricing_plan_id":"cebpf4jnsgd1na2vs0mg"},{"bike_id":"47d58aad-6935-45b4-be28-19a84ffbba58","system_id":"levelo_inurba_marseille","lat":43.26509,"lon":5.39546,"is_reserved":false,"is_disabled":false,"rental_uris":{"android":"levelo://app?vid=47d58aad-6935-45b4-be28-19a84ffbba58","ios":"levelo://app?vid=47d58aad-6935-45b4-be28-19a84ffbba58"},"vehicle_type_id":"4","last_reported":1775059194,"current_range_meters":7200,"station_id":"ce4bhi12rcd13ifvqfq0","pricing_plan_id":"cebpf4jnsgd1na2vs0mg"},{"bike_id":"e1b5b10b-3862-49e3-b7dd-737bcd8e1759","system_id":"levelo_inurba_marseille","lat":43.33198,"lon":5.43022,"is_reserved":false,"is_disabled":false,"rental_uris":{"android":"levelo://app?vid=e1b5b10b-3862-49e3-b7dd-737bcd8e1759","ios":"levelo://app?vid=e1b5b10b-3862-49e3-b7dd-737bcd8e1759"},"vehicle_type_id":"4","last_reported":1775059194,"current_range_meters":7200,"station_id":"","pricing_plan_id":"cebpf4jnsgd1na2vs0mg"},{"bike_id":"6c3b2188-ad26-44f1-97bc-4de5c5fe5d74","system_id":"levelo_inurba_marseille","lat":43.28476,"lon":5.48402,"is_reserved":false,"is_disabled":false,"rental_uris":{"android":"levelo://app?vid=6c3b2188-ad26-44f1-97bc-4de5c5fe5d74","ios":"levelo://app?vid=6c3b2188-ad26-44f1-97bc-4de5c5fe5d74"},"vehicle_type_id":"4","last_reported":1775059194,"current_range_meters":7200,"station_id":"","pricing_plan_id":"cebpf4jnsgd1na2vs0mg"},{"bike_id":"8f270d3a-4888-4a5c-831d-132b596b6a5f","system_id":"levelo_inurba_marseille","lat":43.24392,"lon":5.37055,"is_reserved":false,"is_disabled":false,"rental_uris":{"android":"levelo://app?vid=8f270d3a-4888-4a5c-831d-132b596b6a5f","ios":"levelo://app?vid=8f270d3a-4888-4a5c-831d-132b596b6a5f"},"vehicle_type_id":"4","last_reported":1775059194,"current_range_meters":7200,"station_id":"ce4bhhh2rcd13ifvqfk0","pricing_plan_id":"cebpf4jnsgd1na2vs0mg"},{"bike_id":"61347705-ad09-4da0-88fd-36ae93b6cbe6","system_id":"levelo_inurba_marseille","lat":43.32352,"lon":5.36756,"is_reserved":false,"is_disabled":false,"rental_uris":{"android":"levelo://app?vid=61347705-ad09-4da0-88fd-36ae93b6cbe6","ios":"levelo://app?vid=61347705-ad09-4da0-88fd-36ae93b6cbe6"},"vehicle_type_id":"4","last_reported":1775059194,"current_range_meters":7200,"station_id":"ce4bhsh2rcd13ifvqi2g","pricing_plan_id":"cebpf4jnsgd1na2vs0mg"},{"bike_id":"1017fc08-104d-4d24-bbe5-048715a1d868","system_id":"levelo_inurba_marseille","lat":43.28618,"lon":5.35118,"is_reserved":false,"is_disabled":false,"rental_uris":{"android":"levelo://app?vid=1017fc08-104d-4d24-bbe5-048715a1d868","ios":"levelo://app?vid=1017fc08-104d-4d24-bbe5-048715a1d868"},"vehicle_type_id":"4","last_reported":1775059194,"current_range_meters":7200,"station_id":"ce4bhch2rcd13ifvqeug","pricing_plan_id":"cebpf4jnsgd1na2vs0mg"},{"bike_id":"7f77661e-8255-4bff-ae87-d0ced813db2a","system_id":"levelo_inurba_marseille","lat":43.24156,"lon":5.36403,"is_reserved":false,"is_disabled":false,"rental_uris":{"android":"levelo://app?vid=7f77661e-8255-4bff-ae87-d0ced813db2a","ios":"levelo://app?vid=7f77661e-8255-4bff-ae87-d0ced813db2a"},"vehicle_type_id":"4","last_reported":1775059194,"current_range_meters":7200,"station_id":"cpo36qri1sfpv3e86is0","pricing_plan_id":"cebpf4jnsgd1na2vs0mg"},{"bike_id":"febd890f-8091-48ad-815e-abf0b801ed37","system_id":"levelo_inurba_marseille","lat":43.244,"lon":5.37066,"is_reserved":false,"is_disabled":false,"rental_uris":{"android":"levelo://app?vid=febd890f-8091-48ad-815e-abf0b801ed37","ios":"levelo://app?vid=febd890f-8091-48ad-815e-abf0b801ed37"},"vehicle_type_id":"4","last_reported":1775059194,"current_range_meters":7200,"station_id":"ce4bhhh2rcd13ifvqfk0","pricing_plan_id":"cebpf4jnsgd1na2vs0mg"},{"bike_id":"414e0a70-6dfc-4ae8-82b3-ec8ad75a8436","system_id":"levelo_inurba_marseille","lat":43.25571,"lon":5.38243,"is_reserved":false,"is_disabled":false,"rental_uris":{"android":"levelo://app?vid=414e0a70-6dfc-4ae8-82b3-ec8ad75a8436","ios":"levelo://app?vid=414e0a70-6dfc-4ae8-82b3-ec8ad75a8436"},"vehicle_type_id":"4","last_reported":1775059194,"current_range_meters":7200,"station_id":"ce4bhih2rcd13ifvqfs0","pricing_plan_id":"cebpf4jnsgd1na2vs0mg"},{"bike_id":"0bc1ecd0-7813-4cd8-94d6-56d9e0ec2c80","system_id":"levelo_inurba_marseille","lat":43.25885,"lon":5.38875,"is_reserved":false,"is_disabled":false,"rental_uris":{"android":"levelo://app?vid=0bc1ecd0-7813-4cd8-94d6-56d9e0ec2c80","ios":"levelo://app?vid=0bc1ecd0-7813-4cd8-94d6-56d9e0ec2c80"},"vehicle_type_id":"4","last_reported":1775059194,"current_range_meters":7200,"station_id":"","pricing_plan_id":"cebpf4jnsgd1na2vs0mg"},{"bike_id":"c01d9e49-fff9-456c-8c86-45ce90e055c7","system_id":"levelo_inurba_marseille","lat":43.3123,"lon":5.36902,"is_reserved":false,"is_disabled":false,"rental_uris":{"android":"levelo://app?vid=c01d9e49-fff9-456c-8c86-45ce90e055c7","ios":"levelo://app?vid=c01d9e49-fff9-456c-8c86-45ce90e055c7"},"vehicle_type_id":"4","last_reported":1775059194,"current_range_meters":7200,"station_id":"ce4bgl92rcd13ifvqbq0","pricing_plan_id":"cebpf4jnsgd1na2vs0mg"},{"bike_id":"34202a4d-30c4-4b01-92b6-12f62e5395d5","system_id":"levelo_inurba_marseille","lat":43.24938,"lon":5.40491,"is_reserved":false,"is_disabled":false,"rental_uris":{"android":"levelo://app?vid=34202a4d-30c4-4b01-92b6-12f62e5395d5","ios":"levelo://app?vid=34202a4d-30c4-4b01-92b6-12f62e5395d5"},"vehicle_type_id":"4","last_reported":1775059194,"current_range_meters":7200,"station_id":"st_d2ngiaodas8pm72gd1h0","pricing_plan_id":"cebpf4jnsgd1na2vs0mg"},{"bike_id":"9d524b94-a400-40f4-bb54-3512014b43d6","system_id":"levelo_inurba_marseille","lat":43.30211,"lon":5.39482,"is_reserved":false,"is_disabled":false,"rental_uris":{"android":"levelo://app?vid=9d524b94-a400-40f4-bb54-3512014b43d6","ios":"levelo://app?vid=9d524b94-a400-40f4-bb54-3512014b43d6"},"vehicle_type_id":"4","last_reported":1775059194,"current_range_meters":7200,"station_id":"ce4bh0p2rcd13ifvqd70","pricing_plan_id":"cebpf4jnsgd1na2vs0mg"},{"bike_id":"bed085cd-e643-4cf8-a83c-4e3f37218df7","system_id":"levelo_inurba_marseille","lat":43.23125,"lon":5.40181,"is_reserved":false,"is_disabled":false,"rental_uris":{"android":"levelo://app?vid=bed085cd-e643-4cf8-a83c-4e3f37218df7","ios":"levelo://app?vid=bed085cd-e643-4cf8-a83c-4e3f37218df7"},"vehicle_type_id":"4","last_reported":1775059194,"current_range_meters":7200,"station_id":"","pricing_plan_id":"cebpf4jnsgd1na2vs0mg"},{"bike_id":"801e394f-075e-436d-a193-48f5477757ff","system_id":"levelo_inurba_marseille","lat":43.24651,"lon":5.38915,"is_reserved":false,"is_disabled":false,"rental_uris":{"android":"levelo://app?vid=801e394f-075e-436d-a193-48f5477757ff","ios":"levelo://app?vid=801e394f-075e-436d-a193-48f5477757ff"},"vehicle_type_id":"4","last_reported":1775059194,"current_range_meters":7200,"station_id":"ce4bhg12rcd13ifvqf60","pricing_plan_id":"cebpf4jnsgd1na2vs0mg"},{"bike_id":"1bfa51ce-78f3-4c67-be01-387854e4298a","system_id":"levelo_inurba_marseille","lat":43.29299,"lon":5.37157,"is_reserved":false,"is_disabled":true,"rental_uris":{"android":"levelo://app?vid=1bfa51ce-78f3-4c67-be01-387854e4298a","ios":"levelo://app?vid=1bfa51ce-78f3-4c67-be01-387854e4298a"},"vehicle_type_id":"4","last_reported":1775059194,"current_range_meters":7200,"station_id":"ce4bgh92rcd13ifvqb40","pricing_plan_id":"cebpf4jnsgd1na2vs0mg"},{"bike_id":"bbcf8215-1f06-4464-8fdb-b58c0ff617af","system_id":"levelo_inurba_marseille","lat":43.29673,"lon":5.36592,"is_reserved":false,"is_disabled":false,"rental_uris":{"android":"levelo://app?vid=bbcf8215-1f06-4464-8fdb-b58c0ff617af","ios":"levelo://app?vid=bbcf8215-1f06-4464-8fdb-b58c0ff617af"},"vehicle_type_id":"4","last_reported":1775059194,"current_range_meters":7200,"station_id":"ce4bgn12rcd13ifvqbt0","pricing_plan_id":"cebpf4jnsgd1na2vs0mg"},{"bike_id":"2c78b9d7-6797-4c09-ad87-2e1c14443b34","system_id":"levelo_inurba_marseille","lat":43.28565,"lon":5.42921,"is_reserved":false,"is_disabled":false,"rental_uris":{"android":"levelo://app?vid=2c78b9d7-6797-4c09-ad87-2e1c14443b34","ios":"levelo://app?vid=2c78b9d7-6797-4c09-ad87-2e1c14443b34"},"vehicle_type_id":"4","last_reported":1775059194,"current_range_meters":7200,"station_id":"","pricing_plan_id":"cebpf4jnsgd1na2vs0mg"},{"bike_id":"4bf36fd2-1e8c-4fcf-9092-da10f6287b33","system_id":"levelo_inurba_marseille","lat":43.27373,"lon":5.3626,"is_reserved":false,"is_disabled":false,"rental_uris":{"android":"levelo://app?vid=4bf36fd2-1e8c-4fcf-9092-da10f6287b33","ios":"levelo://app?vid=4bf36fd2-1e8c-4fcf-9092-da10f6287b33"},"vehicle_type_id":"4","last_reported":1775059194,"current_range_meters":7200,"station_id":"ce4bhbh2rcd13ifvqeo0","pricing_plan_id":"cebpf4jnsgd1na2vs0mg"},{"bike_id":"a2eaa8fe-9ee3-4783-9910-a0708dc6938b","system_id":"levelo_inurba_marseille","lat":43.23072,"lon":5.3549,"is_reserved":false,"is_disabled":false,"rental_uris":{"android":"levelo://app?vid=a2eaa8fe-9ee3-4783-9910-a0708dc6938b","ios":"levelo://app?vid=a2eaa8fe-9ee3-4783-9910-a0708dc6938b"},"vehicle_type_id":"4","last_reported":1775059194,"current_range_meters":8000,"station_id":"cpo3342slgdg3j2ifvpg","pricing_plan_id":"cebpf4jnsgd1na2vs0mg"},{"bike_id":"b9a2dc0a-a78c-4ec1-b214-1ebc47ea2ab0","system_id":"levelo_inurba_marseille","lat":43.22548,"lon":5.41646,"is_reserved":false,"is_disabled":false,"rental_uris":{"android":"levelo://app?vid=b9a2dc0a-a78c-4ec1-b214-1ebc47ea2ab0","ios":"levelo://app?vid=b9a2dc0a-a78c-4ec1-b214-1ebc47ea2ab0"},"vehicle_type_id":"4","last_reported":1775059194,"current_range_meters":8000,"station_id":"st_d2o4gvlbi1j2169b742g","pricing_plan_id":"cebpf4jnsgd1na2vs0mg"},{"bike_id":"ce8c76c9-8d46-40c8-b510-58f72cf4c10f","system_id":"levelo_inurba_marseille","lat":43.28416,"lon":5.34996,"is_reserved":false,"is_disabled":false,"rental_uris":{"android":"levelo://app?vid=ce8c76c9-8d46-40c8-b510-58f72cf4c10f","ios":"levelo://app?vid=ce8c76c9-8d46-40c8-b510-58f72cf4c10f"},"vehicle_type_id":"4","last_reported":1775059194,"current_range_meters":8000,"station_id":"ce4bhbh2rcd13ifvqepg","pricing_plan_id":"cebpf4jnsgd1na2vs0mg"},{"bike_id":"3d77d88e-794b-4680-b1b8-de3bf4d0cda7","system_id":"levelo_inurba_marseille","lat":43.25574,"lon":5.38267,"is_reserved":false,"is_disabled":false,"rental_uris":{"android":"levelo://app?vid=3d77d88e-794b-4680-b1b8-de3bf4d0cda7","ios":"levelo://app?vid=3d77d88e-794b-4680-b1b8-de3bf4d0cda7"},"vehicle_type_id":"4","last_reported":1775059194,"current_range_meters":8000,"station_id":"ce4bhih2rcd13ifvqfs0","pricing_plan_id":"cebpf4jnsgd1na2vs0mg"},{"bike_id":"ac9cfb47-6491-4537-bdd0-177ab07e5667","system_id":"levelo_inurba_marseille","lat":43.31364,"lon":5.36736,"is_reserved":false,"is_disabled":false,"rental_uris":{"android":"levelo://app?vid=ac9cfb47-6491-4537-bdd0-177ab07e5667","ios":"levelo://app?vid=ac9cfb47-6491-4537-bdd0-177ab07e5667"},"vehicle_type_id":"4","last_reported":1775059194,"current_range_meters":8000,"station_id":"ce4bgr92rcd13ifvqc6g","pricing_plan_id":"cebpf4jnsgd1na2vs0mg"},{"bike_id":"68945dd7-fcc7-4d4c-a459-6c84a8a17358","system_id":"levelo_inurba_marseille","lat":43.2395,"lon":5.36646,"is_reserved":false,"is_disabled":false,"rental_uris":{"android":"levelo://app?vid=68945dd7-fcc7-4d4c-a459-6c84a8a17358","ios":"levelo://app?vid=68945dd7-fcc7-4d4c-a459-6c84a8a17358"},"vehicle_type_id":"4","last_reported":1775059194,"current_range_meters":8000,"station_id":"ce4bhi12rcd13ifvqfp0","pricing_plan_id":"cebpf4jnsgd1na2vs0mg"},{"bike_id":"19d804f8-e022-4728-979b-c94761dfb083","system_id":"levelo_inurba_marseille","lat":43.2379,"lon":5.36627,"is_reserved":false,"is_disabled":false,"rental_uris":{"android":"levelo://app?vid=19d804f8-e022-4728-979b-c94761dfb083","ios":"levelo://app?vid=19d804f8-e022-4728-979b-c94761dfb083"},"vehicle_type_id":"4","last_reported":1775059194,"current_range_meters":8000,"station_id":"st_d3nk18o9ro0c73en2l3g","pricing_plan_id":"cebpf4jnsgd1na2vs0mg"},{"bike_id":"d5d3c35b-4420-4569-83eb-e2eef5fa6559","system_id":"levelo_inurba_marseille","lat":43.22559,"lon":5.41642,"is_reserved":false,"is_disabled":false,"rental_uris":{"android":"levelo://app?vid=d5d3c35b-4420-4569-83eb-e2eef5fa6559","ios":"levelo://app?vid=d5d3c35b-4420-4569-83eb-e2eef5fa6559"},"vehicle_type_id":"4","last_reported":1775059194,"current_range_meters":8000,"station_id":"st_d2o4gvlbi1j2169b742g","pricing_plan_id":"cebpf4jnsgd1na2vs0mg"},{"bike_id":"2e1f9abb-15f9-4e2d-9f89-08eb78bb4d22","system_id":"levelo_inurba_marseille","lat":43.2987,"lon":5.39737,"is_reserved":false,"is_disabled":false,"rental_uris":{"android":"levelo://app?vid=2e1f9abb-15f9-4e2d-9f89-08eb78bb4d22","ios":"levelo://app?vid=2e1f9abb-15f9-4e2d-9f89-08eb78bb4d22"},"vehicle_type_id":"4","last_reported":1775059194,"current_range_meters":8000,"station_id":"ce4bh0h2rcd13ifvqd50","pricing_plan_id":"cebpf4jnsgd1na2vs0mg"},{"bike_id":"f46616a9-3a20-4934-ad51-3a5a7b5308f4","system_id":"levelo_inurba_marseille","lat":43.28423,"lon":5.34972,"is_reserved":false,"is_disabled":false,"rental_uris":{"android":"levelo://app?vid=f46616a9-3a20-4934-ad51-3a5a7b5308f4","ios":"levelo://app?vid=f46616a9-3a20-4934-ad51-3a5a7b5308f4"},"vehicle_type_id":"4","last_reported":1775059194,"current_range_meters":8000,"station_id":"ce4bhbh2rcd13ifvqepg","pricing_plan_id":"cebpf4jnsgd1na2vs0mg"},{"bike_id":"50d30508-b125-4f3c-a174-6b7661e3741e","system_id":"levelo_inurba_marseille","lat":43.28612,"lon":5.351,"is_reserved":false,"is_disabled":false,"rental_uris":{"android":"levelo://app?vid=50d30508-b125-4f3c-a174-6b7661e3741e","ios":"levelo://app?vid=50d30508-b125-4f3c-a174-6b7661e3741e"},"vehicle_type_id":"4","last_reported":1775059194,"current_range_meters":8000,"station_id":"ce4bhch2rcd13ifvqeug","pricing_plan_id":"cebpf4jnsgd1na2vs0mg"},{"bike_id":"18f34bdf-3c41-40d0-a57c-6247d2149af1","system_id":"levelo_inurba_marseille","lat":43.29026,"lon":5.38651,"is_reserved":false,"is_disabled":false,"rental_uris":{"android":"levelo://app?vid=18f34bdf-3c41-40d0-a57c-6247d2149af1","ios":"levelo://app?vid=18f34bdf-3c41-40d0-a57c-6247d2149af1"},"vehicle_type_id":"4","last_reported":1775059194,"current_range_meters":8000,"station_id":"ce4bh4p2rcd13ifvqe0g","pricing_plan_id":"cebpf4jnsgd1na2vs0mg"},{"bike_id":"a17dbbf9-2919-4aa7-a6bc-4d101b9dc30c","system_id":"levelo_inurba_marseille","lat":43.27512,"lon":5.40965,"is_reserved":false,"is_disabled":false,"rental_uris":{"android":"levelo://app?vid=a17dbbf9-2919-4aa7-a6bc-4d101b9dc30c","ios":"levelo://app?vid=a17dbbf9-2919-4aa7-a6bc-4d101b9dc30c"},"vehicle_type_id":"4","last_reported":1775059194,"current_range_meters":8000,"station_id":"","pricing_plan_id":"cebpf4jnsgd1na2vs0mg"},{"bike_id":"32bbc785-7878-457c-9b63-c753cac045af","system_id":"levelo_inurba_marseille","lat":43.21733,"lon":5.34589,"is_reserved":false,"is_disabled":false,"rental_uris":{"android":"levelo://app?vid=32bbc785-7878-457c-9b63-c753cac045af","ios":"levelo://app?vid=32bbc785-7878-457c-9b63-c753cac045af"},"vehicle_type_id":"4","last_reported":1775059194,"current_range_meters":8000,"station_id":"st_cvj6r9ubvosntc0bgbag","pricing_plan_id":"cebpf4jnsgd1na2vs0mg"},{"bike_id":"7e73cb8f-4f75-4d5c-bfa7-1a2645566889","system_id":"levelo_inurba_marseille","lat":43.30804,"lon":5.38163,"is_reserved":false,"is_disabled":false,"rental_uris":{"android":"levelo://app?vid=7e73cb8f-4f75-4d5c-bfa7-1a2645566889","ios":"levelo://app?vid=7e73cb8f-4f75-4d5c-bfa7-1a2645566889"},"vehicle_type_id":"4","last_reported":1775059194,"current_range_meters":8000,"station_id":"ce4bgt12rcd13ifvqce0","pricing_plan_id":"cebpf4jnsgd1na2vs0mg"},{"bike_id":"5e2e025f-f666-4b74-ba32-6838a086abc6","system_id":"levelo_inurba_marseille","lat":43.31327,"lon":5.36719,"is_reserved":false,"is_disabled":false,"rental_uris":{"android":"levelo://app?vid=5e2e025f-f666-4b74-ba32-6838a086abc6","ios":"levelo://app?vid=5e2e025f-f666-4b74-ba32-6838a086abc6"},"vehicle_type_id":"4","last_reported":1775059194,"current_range_meters":8000,"station_id":"ce4bgr92rcd13ifvqc6g","pricing_plan_id":"cebpf4jnsgd1na2vs0mg"},{"bike_id":"eb5ca31c-0cdd-4bd2-8ca1-4274e92c10bb","system_id":"levelo_inurba_marseille","lat":43.24176,"lon":5.39726,"is_reserved":false,"is_disabled":false,"rental_uris":{"android":"levelo://app?vid=eb5ca31c-0cdd-4bd2-8ca1-4274e92c10bb","ios":"levelo://app?vid=eb5ca31c-0cdd-4bd2-8ca1-4274e92c10bb"},"vehicle_type_id":"4","last_reported":1775059194,"current_range_meters":8000,"station_id":"ce4bhn12rcd13ifvqgpg","pricing_plan_id":"cebpf4jnsgd1na2vs0mg"},{"bike_id":"f5076dcd-a90c-4177-b5ac-22dbf3c1cb70","system_id":"levelo_inurba_marseille","lat":43.28718,"lon":5.37937,"is_reserved":false,"is_disabled":false,"rental_uris":{"android":"levelo://app?vid=f5076dcd-a90c-4177-b5ac-22dbf3c1cb70","ios":"levelo://app?vid=f5076dcd-a90c-4177-b5ac-22dbf3c1cb70"},"vehicle_type_id":"4","last_reported":1775059194,"current_range_meters":8000,"station_id":"ce4bh9p2rcd13ifvqec0","pricing_plan_id":"cebpf4jnsgd1na2vs0mg"},{"bike_id":"c267eaf3-200a-4a1c-8074-fa1f1a8154c6","system_id":"levelo_inurba_marseille","lat":43.21758,"lon":5.34583,"is_reserved":false,"is_disabled":false,"rental_uris":{"android":"levelo://app?vid=c267eaf3-200a-4a1c-8074-fa1f1a8154c6","ios":"levelo://app?vid=c267eaf3-200a-4a1c-8074-fa1f1a8154c6"},"vehicle_type_id":"4","last_reported":1775059194,"current_range_meters":8000,"station_id":"st_cvj6r9ubvosntc0bgbag","pricing_plan_id":"cebpf4jnsgd1na2vs0mg"},{"bike_id":"9b56b9ba-c8a6-4d68-b8c9-0e44888128f7","system_id":"levelo_inurba_marseille","lat":43.30306,"lon":5.39219,"is_reserved":false,"is_disabled":false,"rental_uris":{"android":"levelo://app?vid=9b56b9ba-c8a6-4d68-b8c9-0e44888128f7","ios":"levelo://app?vid=9b56b9ba-c8a6-4d68-b8c9-0e44888128f7"},"vehicle_type_id":"4","last_reported":1775059194,"current_range_meters":8000,"station_id":"ce4bgkh2rcd13ifvqbk0","pricing_plan_id":"cebpf4jnsgd1na2vs0mg"},{"bike_id":"6a5ff4a3-857d-4b5b-9a0e-b97eb89025bb","system_id":"levelo_inurba_marseille","lat":43.31351,"lon":5.36726,"is_reserved":false,"is_disabled":false,"rental_uris":{"android":"levelo://app?vid=6a5ff4a3-857d-4b5b-9a0e-b97eb89025bb","ios":"levelo://app?vid=6a5ff4a3-857d-4b5b-9a0e-b97eb89025bb"},"vehicle_type_id":"4","last_reported":1775059194,"current_range_meters":8000,"station_id":"ce4bgr92rcd13ifvqc6g","pricing_plan_id":"cebpf4jnsgd1na2vs0mg"},{"bike_id":"78151f0b-d096-4bc8-9d04-f28fec21246f","system_id":"levelo_inurba_marseille","lat":43.23191,"lon":5.39978,"is_reserved":false,"is_disabled":false,"rental_uris":{"android":"levelo://app?vid=78151f0b-d096-4bc8-9d04-f28fec21246f","ios":"levelo://app?vid=78151f0b-d096-4bc8-9d04-f28fec21246f"},"vehicle_type_id":"4","last_reported":1775059194,"current_range_meters":8400,"station_id":"ce4bhn12rcd13ifvqgqg","pricing_plan_id":"cebpf4jnsgd1na2vs0mg"},{"bike_id":"52dc2264-cce2-4d05-81cc-597b892a962a","system_id":"levelo_inurba_marseille","lat":43.28443,"lon":5.35011,"is_reserved":false,"is_disabled":false,"rental_uris":{"android":"levelo://app?vid=52dc2264-cce2-4d05-81cc-597b892a962a","ios":"levelo://app?vid=52dc2264-cce2-4d05-81cc-597b892a962a"},"vehicle_type_id":"4","last_reported":1775059194,"current_range_meters":8400,"station_id":"ce4bhbh2rcd13ifvqepg","pricing_plan_id":"cebpf4jnsgd1na2vs0mg"},{"bike_id":"62bf82c9-a7d6-485f-b660-bbbb2d4f54e9","system_id":"levelo_inurba_marseille","lat":43.24386,"lon":5.37048,"is_reserved":false,"is_disabled":false,"rental_uris":{"android":"levelo://app?vid=62bf82c9-a7d6-485f-b660-bbbb2d4f54e9","ios":"levelo://app?vid=62bf82c9-a7d6-485f-b660-bbbb2d4f54e9"},"vehicle_type_id":"4","last_reported":1775059194,"current_range_meters":8400,"station_id":"ce4bhhh2rcd13ifvqfk0","pricing_plan_id":"cebpf4jnsgd1na2vs0mg"},{"bike_id":"de3bdf23-33b1-4bf8-b651-d6927f99d5de","system_id":"levelo_inurba_marseille","lat":43.28414,"lon":5.34995,"is_reserved":false,"is_disabled":true,"rental_uris":{"android":"levelo://app?vid=de3bdf23-33b1-4bf8-b651-d6927f99d5de","ios":"levelo://app?vid=de3bdf23-33b1-4bf8-b651-d6927f99d5de"},"vehicle_type_id":"4","last_reported":1775059194,"current_range_meters":8400,"station_id":"ce4bhbh2rcd13ifvqepg","pricing_plan_id":"cebpf4jnsgd1na2vs0mg"},{"bike_id":"12028f3d-60f5-4e64-999a-4edac29ada05","system_id":"levelo_inurba_marseille","lat":43.30913,"lon":5.36859,"is_reserved":false,"is_disabled":false,"rental_uris":{"android":"levelo://app?vid=12028f3d-60f5-4e64-999a-4edac29ada05","ios":"levelo://app?vid=12028f3d-60f5-4e64-999a-4edac29ada05"},"vehicle_type_id":"4","last_reported":1775059194,"current_range_meters":8400,"station_id":"ce4bgn92rcd13ifvqbvg","pricing_plan_id":"cebpf4jnsgd1na2vs0mg"},{"bike_id":"11d19dab-7798-472d-a3cd-c1ff1cf623a6","system_id":"levelo_inurba_marseille","lat":43.25013,"lon":5.38921,"is_reserved":false,"is_disabled":false,"rental_uris":{"android":"levelo://app?vid=11d19dab-7798-472d-a3cd-c1ff1cf623a6","ios":"levelo://app?vid=11d19dab-7798-472d-a3cd-c1ff1cf623a6"},"vehicle_type_id":"4","last_reported":1775059194,"current_range_meters":8400,"station_id":"ce4bhgp2rcd13ifvqfd0","pricing_plan_id":"cebpf4jnsgd1na2vs0mg"},