{"last_updated":1752048898,"ttl":60,"version":"2.2","data":{"bikes":[{"bike_id":"cd20cfea-2f2f-444d-a882-a49b6cf370eb","system_id":"levelo_inurba_marseille","lat":43.337444,"lon":5.374475,"is_reserved":false,"is_disabled":true,"rental_uris":{"android":"levelo://app?vid=cd20cfea-2f2f-444d-a882-a49b6cf370eb","ios":"levelo://app?vid=cd20cfea-2f2f-444d-a882-a49b6cf370eb"},"vehicle_type_id":"4","last_reported":1752048898,"current_range_meters":0,"station_id":"","pricing_plan_id":"cebpf4jnsgd1na2vs0mg"},{"bike_id":"3da29fb8-fc97-44c6-b9ac-31dd456b2fd4","system_id":"levelo_inurba_marseille","lat":43.33771,"lon":5.37424,"is_reserved":false,"is_disabled":true,"rental_uris":{"android":"levelo://app?vid=3da29fb8-fc97-44c6-b9ac-31dd456b2fd4","ios":"levelo://app?vid=3da29fb8-fc97-44c6-b9ac-31dd456b2fd4"},"vehicle_type_id":"4","last_reported":1752048898,"current_range_meters":0,"station_id":"","pricing_plan_id":"cebpf4jnsgd1na2vs0mg"},{"bike_id":"01861ad8-a8d7-4be6-816e-651927c87584","system_id":"levelo_inurba_marseille","lat":43.33751,"lon":5.37456,"is_reserved":false,"is_disabled":true,"rental_uris":{"android":"levelo://app?vid=01861ad8-a8d7-4be6-816e-651927c87584","ios":"levelo://app?vid=01861ad8-a8d7-4be6-816e-651927c87584"},"vehicle_type_id":"4","last_reported":1752048898,"current_range_meters":0,"station_id":"","pricing_plan_id":"cebpf4jnsgd1na2vs0mg"},{"bike_id":"53b1a31e-8ada-40c0-8d64-113a81233c84","system_id":"levelo_inurba_marseille","lat":43.364072,"lon":5.319266,"is_reserved":false,"is_disabled":true,"rental_uris":{"android":"levelo://app?vid=53b1a31e-8ada-40c0-8d64-113a81233c84","ios":"levelo://app?vid=53b1a31e-8ada-40c0-8d64-113a81233c84"},"vehicle_type_id":"4","last_reported":1752048898,"current_range_meters":0,"station_id":"","pricing_plan_id":"cebpf4jnsgd1na2vs0mg"},{"bike_id":"42a14d0c-3f0c-4aa7-90d9-707e2aab583a","system_id":"levelo_inurba_marseille","lat":43.299029,"lon":5.384676,"is_reserved":false,"is_disabled":true,"rental_uris":{"android":"levelo://app?vid=42a14d0c-3f0c-4aa7-90d9-707e2aab583a","ios":"levelo://app?vid=42a14d0c-3f0c-4aa7-90d9-707e2aab583a"},"vehicle_type_id":"4","last_reported":1752048898,"current_range_meters":0,"station_id":"ce4bgj92rcd13ifvqbd0","pricing_plan_id":"cebpf4jnsgd1na2vs0mg"},{"bike_id":"b593fee9-53bc-4fb8-b335-65ac53c18c3b","system_id":"levelo_inurba_marseille","lat":43.28407,"lon":5.34991,"is_reserved":false,"is_disabled":true,"rental_uris":{"android":"levelo://app?vid=b593fee9-53bc-4fb8-b335-65ac53c18c3b","ios":"levelo://app?vid=b593fee9-53bc-4fb8-b335-65ac53c18c3b"},"vehicle_type_id":"4","last_reported":1752048898,"current_range_meters":0,"station_id":"ce4bhbh2rcd13ifvqepg","pricing_plan_id":"cebpf4jnsgd1na2vs0mg"},{"bike_id":"12f12b4c-ca8f-44bb-861f-6a24278fc736","system_id":"levelo_inurba_marseille","lat":43.29228,"lon":5.36059,"is_reserved":false,"is_disabled":true,"rental_uris":{"android":"levelo://app?vid=12f12b4c-ca8f-44bb-861f-6a24278fc736","ios":"levelo://app?vid=12f12b4c-ca8f-44bb-861f-6a24278fc736"},"vehicle_type_id":"4","last_reported":1752048898,"current_range_meters":0,"station_id":"ce4bhbh2rcd13ifvqeqg","pricing_plan_id":"cebpf4jnsgd1na2vs0mg"},{"bike_id":"b46ad819-e64b-454b-8826-dbe61468145f","system_id":"levelo_inurba_marseille","lat":43.29261,"lon":5.36847,"is_reserved":false,"is_disabled":true,"rental_uris":{"android":"levelo://app?vid=b46ad819-e64b-454b-8826-dbe61468145f","ios":"levelo://app?vid=b46ad819-e64b-454b-8826-dbe61468145f"},"vehicle_type_id":"4","last_reported":1752048898,"current_range_meters":0,"station_id":"ce4bhbp2rcd13ifvqesg","pricing_plan_id":"cebpf4jnsgd1na2vs0mg"},{"bike_id":"4c669e22-66d1-46c8-bdef-1d9d16b1f0c6","system_id":"levelo_inurba_marseille","lat":43.28624,"lon":5.35097,"is_reserved":false,"is_disabled":true,"rental_uris":{"android":"levelo://app?vid=4c669e22-66d1-46c8-bdef-1d9d16b1f0c6","ios":"levelo://app?vid=4c669e22-66d1-46c8-bdef-1d9d16b1f0c6"},"vehicle_type_id":"4","last_reported":1752048898,"current_range_meters":0,"station_id":"ce4bhch2rcd13ifvqeug","pricing_plan_id":"cebpf4jnsgd1na2vs0mg"},{"bike_id":"c8abfb72-42af-4e61-a1a2-e65c36d7c1fe","system_id":"levelo_inurba_marseille","lat":43.27166,"lon":5.40995,"is_reserved":false,"is_disabled":true,"rental_uris":{"android":"levelo://app?vid=c8abfb72-42af-4e61-a1a2-e65c36d7c1fe","ios":"levelo://app?vid=c8abfb72-42af-4e61-a1a2-e65c36d7c1fe"},"vehicle_type_id":"4","last_reported":1752048898,"current_range_meters":0,"station_id":"ce4bhl12rcd13ifvqgf0","pricing_plan_id":"cebpf4jnsgd1na2vs0mg"},{"bike_id":"47cc12e9-1f9d-4b29-b948-db655857089a","system_id":"levelo_inurba_marseille","lat":43.22509,"lon":5.3478,"is_reserved":false,"is_disabled":true,"rental_uris":{"android":"levelo://app?vid=47cc12e9-1f9d-4b29-b948-db655857089a","ios":"levelo://app?vid=47cc12e9-1f9d-4b29-b948-db655857089a"},"vehicle_type_id":"4","last_reported":1752048898,"current_range_meters":0,"station_id":"st_cvj5dfep6f1abm77gieg","pricing_plan_id":"cebpf4jnsgd1na2vs0mg"},{"bike_id":"ed290504-6948-4f69-8584-2e2b0286febf","system_id":"levelo_inurba_marseille","lat":43.211951,"lon":5.350662,"is_reserved":false,"is_disabled":true,"rental_uris":{"android":"levelo://app?vid=ed290504-6948-4f69-8584-2e2b0286febf","ios":"levelo://app?vid=ed290504-6948-4f69-8584-2e2b0286febf"},"vehicle_type_id":"4","last_reported":1752048898,"current_range_meters":0,"station_id":"st_cvj6sg6p6f1abm77japg","pricing_plan_id":"cebpf4jnsgd1na2vs0mg"},{"bike_id":"6661cbd2-6ba2-4b46-b15e-1188df0f29d7","system_id":"levelo_inurba_marseille","lat":43.2119,"lon":5.35093,"is_reserved":false,"is_disabled":true,"rental_uris":{"android":"levelo://app?vid=6661cbd2-6ba2-4b46-b15e-1188df0f29d7","ios":"levelo://app?vid=6661cbd2-6ba2-4b46-b15e-1188df0f29d7"},"vehicle_type_id":"4","last_reported":1752048898,"current_range_meters":0,"station_id":"st_cvj6sg6p6f1abm77japg","pricing_plan_id":"cebpf4jnsgd1na2vs0mg"},{"bike_id":"a73ceb87-210b-4c7e-9a0a-686e5f5aabde","system_id":"levelo_inurba_marseille","lat":43.28075,"lon":5.39665,"is_reserved":false,"is_disabled":true,"rental_uris":{"android":"levelo://app?vid=a73ceb87-210b-4c7e-9a0a-686e5f5aabde","ios":"levelo://app?vid=a73ceb87-210b-4c7e-9a0a-686e5f5aabde"},"vehicle_type_id":"4","last_reported":1752048898,"current_range_meters":400,"station_id":"ce4bho12rcd13ifvqh2g","pricing_plan_id":"cebpf4jnsgd1na2vs0mg"},{"bike_id":"7382c600-e780-4213-bcc8-74d46a001aff","system_id":"levelo_inurba_marseille","lat":43.286102,"lon":5.37066,"is_reserved":false,"is_disabled":true,"rental_uris":{"android":"levelo://app?vid=7382c600-e780-4213-bcc8-74d46a001aff","ios":"levelo://app?vid=7382c600-e780-4213-bcc8-74d46a001aff"},"vehicle_type_id":"4","last_reported":1752048898,"current_range_meters":400,"station_id":"ce4bht12rcd13ifvqi60","pricing_plan_id":"cebpf4jnsgd1na2vs0mg"},{"bike_id":"e562ad4e-a577-4b7b-a74e-7e00b9c0f52f","system_id":"levelo_inurba_marseille","lat":43.22504,"lon":5.3478,"is_reserved":false,"is_disabled":true,"rental_uris":{"android":"levelo://app?vid=e562ad4e-a577-4b7b-a74e-7e00b9c0f52f","ios":"levelo://app?vid=e562ad4e-a577-4b7b-a74e-7e00b9c0f52f"},"vehicle_type_id":"4","last_reported":1752048898,"current_range_meters":800,"station_id":"st_cvj5dfep6f1abm77gieg","pricing_plan_id":"cebpf4jnsgd1na2vs0mg"},{"bike_id":"cef03ba1-bfe1-4492-b9ec-f1ba3ab96f5d","system_id":"levelo_inurba_marseille","lat":43.31262,"lon":5.40157,"is_reserved":false,"is_disabled":true,"rental_uris":{"android":"levelo://app?vid=cef03ba1-bfe1-4492-b9ec-f1ba3ab96f5d","ios":"levelo://app?vid=cef03ba1-bfe1-4492-b9ec-f1ba3ab96f5d"},"vehicle_type_id":"4","last_reported":1752048898,"current_range_meters":1200,"station_id":"ce4bh092rcd13ifvqd30","pricing_plan_id":"cebpf4jnsgd1na2vs0mg"},{"bike_id":"082f3c5a-2b33-44d0-9ec8-eac8209250c5","system_id":"levelo_inurba_marseille","lat":43.25916,"lon":5.40901,"is_reserved":false,"is_disabled":true,"rental_uris":{"android":"levelo://app?vid=082f3c5a-2b33-44d0-9ec8-eac8209250c5","ios":"levelo://app?vid=082f3c5a-2b33-44d0-9ec8-eac8209250c5"},"vehicle_type_id":"4","last_reported":1752048898,"current_range_meters":1600,"station_id":"ce4bhm92rcd13ifvqglg","pricing_plan_id":"cebpf4jnsgd1na2vs0mg"},{"bike_id":"34c6d564-5966-4bce-84f8-eb57d500a994","system_id":"levelo_inurba_marseille","lat":43.29267,"lon":5.37643,"is_reserved":false,"is_disabled":true,"rental_uris":{"android":"levelo://app?vid=34c6d564-5966-4bce-84f8-eb57d500a994","ios":"levelo://app?vid=34c6d564-5966-4bce-84f8-eb57d500a994"},"vehicle_type_id":"4","last_reported":1752048898,"current_range_meters":2000,"station_id":"ce4bgi12rcd13ifvqb80","pricing_plan_id":"cebpf4jnsgd1na2vs0mg"},{"bike_id":"b77a2645-eaf2-44f7-af85-ed69ef245679","system_id":"levelo_inurba_marseille","lat":43.30895,"lon":5.36839,"is_reserved":false,"is_disabled":true,"rental_uris":{"android":"levelo://app?vid=b77a2645-eaf2-44f7-af85-ed69ef245679","ios":"levelo://app?vid=b77a2645-eaf2-44f7-af85-ed69ef245679"},"vehicle_type_id":"4","last_reported":1752048898,"current_range_meters":2000,"station_id":"ce4bgn92rcd13ifvqbvg","pricing_plan_id":"cebpf4jnsgd1na2vs0mg"},{"bike_id":"2bff9de0-dd27-4786-8c3a-ac93b8369f5d","system_id":"levelo_inurba_marseille","lat":43.217439,"lon":5.346028,"is_reserved":false,"is_disabled":true,"rental_uris":{"android":"levelo://app?vid=2bff9de0-dd27-4786-8c3a-ac93b8369f5d","ios":"levelo://app?vid=2bff9de0-dd27-4786-8c3a-ac93b8369f5d"},"vehicle_type_id":"4","last_reported":1752048898,"current_range_meters":2000,"station_id":"st_cvj6r9ubvosntc0bgbag","pricing_plan_id":"cebpf4jnsgd1na2vs0mg"},{"bike_id":"e97ee5c0-87e5-403c-92ed-929b14d6ff8f","system_id":"levelo_inurba_marseille","lat":43.282959,"lon":5.385081,"is_reserved":false,"is_disabled":false,"rental_uris":{"android":"levelo://app?vid=e97ee5c0-87e5-403c-92ed-929b14d6ff8f","ios":"levelo://app?vid=e97ee5c0-87e5-403c-92ed-929b14d6ff8f"},"vehicle_type_id":"4","last_reported":1752048898,"current_range_meters":2800,"station_id":"","pricing_plan_id":"cebpf4jnsgd1na2vs0mg"},{"bike_id":"7e1af27b-3de9-459f-b23f-f520c597fe19","system_id":"levelo_inurba_marseille","lat":43.31681,"lon":5.40471,"is_reserved":false,"is_disabled":false,"rental_uris":{"android":"levelo://app?vid=7e1af27b-3de9-459f-b23f-f520c597fe19","ios":"levelo://app?vid=7e1af27b-3de9-459f-b23f-f520c597fe19"},"vehicle_type_id":"4","last_reported":1752048898,"current_range_meters":3200,"station_id":"ce4bh012rcd13ifvqd00","pricing_plan_id":"cebpf4jnsgd1na2vs0mg"},{"bike_id":"2ccd3012-3abf-4a45-95ba-9da430888d99","system_id":"levelo_inurba_marseille","lat":43.24383,"lon":5.3707,"is_reserved":false,"is_disabled":false,"rental_uris":{"android":"levelo://app?vid=2ccd3012-3abf-4a45-95ba-9da430888d99","ios":"levelo://app?vid=2ccd3012-3abf-4a45-95ba-9da430888d99"},"vehicle_type_id":"4","last_reported":1752048898,"current_range_meters":3200,"station_id":"ce4bhhh2rcd13ifvqfk0","pricing_plan_id":"cebpf4jnsgd1na2vs0mg"},{"bike_id":"3b22f952-d0bc-4c00-8fd3-7e27b88aea23","system_id":"levelo_inurba_marseille","lat":43.29659,"lon":5.36245,"is_reserved":false,"is_disabled":false,"rental_uris":{"android":"levelo://app?vid=3b22f952-d0bc-4c00-8fd3-7e27b88aea23","ios":"levelo://app?vid=3b22f952-d0bc-4c00-8fd3-7e27b88aea23"},"vehicle_type_id":"4","last_reported":1752048898,"current_range_meters":3600,"station_id":"","pricing_plan_id":"cebpf4jnsgd1na2vs0mg"},{"bike_id":"0070a0a2-2342-4533-b884-6c25bb41c553","system_id":"levelo_inurba_marseille","lat":43.24077,"lon":5.37741,"is_reserved":false,"is_disabled":false,"rental_uris":{"android":"levelo://app?vid=0070a0a2-2342-4533-b884-6c25bb41c553","ios":"levelo://app?vid=0070a0a2-2342-4533-b884-6c25bb41c553"},"vehicle_type_id":"4","last_reported":1752048898,"current_range_meters":3600,"station_id":"ce4bhnp2rcd13ifvqgvg","pricing_plan_id":"cebpf4jnsgd1na2vs0mg"},{"bike_id":"c6ec35a5-6e63-4550-aa29-6b9b5d6328d3","system_id":"levelo_inurba_marseille","lat":43.23192,"lon":5.35554,"is_reserved":false,"is_disabled":false,"rental_uris":{"android":"levelo://app?vid=c6ec35a5-6e63-4550-aa29-6b9b5d6328d3","ios":"levelo://app?vid=c6ec35a5-6e63-4550-aa29-6b9b5d6328d3"},"vehicle_type_id":"4","last_reported":1752048898,"current_range_meters":3600,"station_id":"ce4bhu92rcd13ifvqi70","pricing_plan_id":"cebpf4jnsgd1na2vs0mg"},{"bike_id":"14e7b21f-6a49-4bd8-adcb-9e2a34f46350","system_id":"levelo_inurba_marseille","lat":43.28176,"lon":5.39876,"is_reserved":false,"is_disabled":false,"rental_uris":{"android":"levelo://app?vid=14e7b21f-6a49-4bd8-adcb-9e2a34f46350","ios":"levelo://app?vid=14e7b21f-6a49-4bd8-adcb-9e2a34f46350"},"vehicle_type_id":"4","last_reported":1752048898,"current_range_meters":4000,"station_id":"","pricing_plan_id":"cebpf4jnsgd1na2vs0mg"},{"bike_id":"c98d0307-3157-4a39-9409-864e8e505802","system_id":"levelo_inurba_marseille","lat":43.24161,"lon":5.3935,"is_reserved":false,"is_disabled":false,"rental_uris":{"android":"levelo://app?vid=c98d0307-3157-4a39-9409-864e8e505802","ios":"levelo://app?vid=c98d0307-3157-4a39-9409-864e8e505802"},"vehicle_type_id":"4","last_reported":1752048898,"current_range_meters":4000,"station_id":"","pricing_plan_id":"cebpf4jnsgd1na2vs0mg"},{"bike_id":"93272b0e-e393-4828-8ce1-6d743f638d0c","system_id":"levelo_inurba_marseille","lat":43.29364,"lon":5.37837,"is_reserved":false,"is_disabled":false,"rental_uris":{"android":"levelo://app?vid=93272b0e-e393-4828-8ce1-6d743f638d0c","ios":"levelo://app?vid=93272b0e-e393-4828-8ce1-6d743f638d0c"},"vehicle_type_id":"4","last_reported":1752048898,"current_range_meters":4000,"station_id":"ce4bgjh2rcd13ifvqbf0","pricing_plan_id":"cebpf4jnsgd1na2vs0mg"},{"bike_id":"13161b24-11c7-4ec8-8259-33a96c1f3040","system_id":"levelo_inurba_marseille","lat":43.30559,"lon":5.36564,"is_reserved":false,"is_disabled":false,"rental_uris":{"android":"levelo://app?vid=13161b24-11c7-4ec8-8259-33a96c1f3040","ios":"levelo://app?vid=13161b24-11c7-4ec8-8259-33a96c1f3040"},"vehicle_type_id":"4","last_reported":1752048898,"current_range_meters":4000,"station_id":"ce4bgs12rcd13ifvqcag","pricing_plan_id":"cebpf4jnsgd1na2vs0mg"},{"bike_id":"7072a365-b73d-4286-b397-5b81adffab28","system_id":"levelo_inurba_marseille","lat":43.25485,"lon":5.37642,"is_reserved":false,"is_disabled":false,"rental_uris":{"android":"levelo://app?vid=7072a365-b73d-4286-b397-5b81adffab28","ios":"levelo://app?vid=7072a365-b73d-4286-b397-5b81adffab28"},"vehicle_type_id":"4","last_reported":1752048898,"current_range_meters":4000,"station_id":"ce4bhh12rcd13ifvqff0","pricing_plan_id":"cebpf4jnsgd1na2vs0mg"},{"bike_id":"37f2becd-23f9-4f13-a711-38b8024eeec7","system_id":"levelo_inurba_marseille","lat":43.33768,"lon":5.37516,"is_reserved":false,"is_disabled":false,"rental_uris":{"android":"levelo://app?vid=37f2becd-23f9-4f13-a711-38b8024eeec7","ios":"levelo://app?vid=37f2becd-23f9-4f13-a711-38b8024eeec7"},"vehicle_type_id":"4","last_reported":1752048898,"current_range_meters":4400,"station_id":"","pricing_plan_id":"cebpf4jnsgd1na2vs0mg"},{"bike_id":"b8de4260-d6f3-4d4c-b10a-4a126bf007b8","system_id":"levelo_inurba_marseille","lat":43.31073,"lon":5.37705,"is_reserved":false,"is_disabled":false,"rental_uris":{"android":"levelo://app?vid=b8de4260-d6f3-4d4c-b10a-4a126bf007b8","ios":"levelo://app?vid=b8de4260-d6f3-4d4c-b10a-4a126bf007b8"},"vehicle_type_id":"4","last_reported":1752048898,"current_range_meters":4400,"station_id":"","pricing_plan_id":"cebpf4jnsgd1na2vs0mg"},{"bike_id":"6b141a80-1070-48ac-9776-5b100affe022","system_id":"levelo_inurba_marseille","lat":43.30962,"lon":5.39033,"is_reserved":false,"is_disabled":false,"rental_uris":{"android":"levelo://app?vid=6b141a80-1070-48ac-9776-5b100affe022","ios":"levelo://app?vid=6b141a80-1070-48ac-9776-5b100affe022"},"vehicle_type_id":"4","last_reported":1752048898,"current_range_meters":4400,"station_id":"ce4bgup2rcd13ifvqco0","pricing_plan_id":"cebpf4jnsgd1na2vs0mg"},{"bike_id":"19c552da-55bc-46d8-97cb-d1fbabdad01a","system_id":"levelo_inurba_marseille","lat":43.21196,"lon":5.35063,"is_reserved":false,"is_disabled":false,"rental_uris":{"android":"levelo://app?vid=19c552da-55bc-46d8-97cb-d1fbabdad01a","ios":"levelo://app?vid=19c552da-55bc-46d8-97cb-d1fbabdad01a"},"vehicle_type_id":"4","last_reported":1752048898,"current_range_meters":4800,"station_id":"st_cvj6sg6p6f1abm77japg","pricing_plan_id":"cebpf4jnsgd1na2vs0mg"},{"bike_id":"2c423baa-ecca-420a-87d7-ad0b7e0b9ebb","system_id":"levelo_inurba_marseille","lat":43.280382,"lon":5.353622,"is_reserved":false,"is_disabled":false,"rental_uris":{"android":"levelo://app?vid=2c423baa-ecca-420a-87d7-ad0b7e0b9ebb","ios":"levelo://app?vid=2c423baa-ecca-420a-87d7-ad0b7e0b9ebb"},"vehicle_type_id":"4","last_reported":1752048898,"current_range_meters":5600,"station_id":"","pricing_plan_id":"cebpf4jnsgd1na2vs0mg"},{"bike_id":"bcef6483-64fe-42a6-a47b-f30dede89a1d","system_id":"levelo_inurba_marseille","lat":43.300001,"lon":5.372345,"is_reserved":false,"is_disabled":false,"rental_uris":{"android":"levelo://app?vid=bcef6483-64fe-42a6-a47b-f30dede89a1d","ios":"levelo://app?vid=bcef6483-64fe-42a6-a47b-f30dede89a1d"},"vehicle_type_id":"4","last_reported":1752048898,"current_range_meters":5600,"station_id":"","pricing_plan_id":"cebpf4jnsgd1na2vs0mg"},{"bike_id":"92ff1f2c-ed2b-49a9-b194-a669e8469e60","system_id":"levelo_inurba_marseille","lat":43.31167,"lon":5.38721,"is_reserved":false,"is_disabled":false,"rental_uris":{"android":"levelo://app?vid=92ff1f2c-ed2b-49a9-b194-a669e8469e60","ios":"levelo://app?vid=92ff1f2c-ed2b-49a9-b194-a669e8469e60"},"vehicle_type_id":"4","last_reported":1752048898,"current_range_meters":6000,"station_id":"ce4bgv12rcd13ifvqcp0","pricing_plan_id":"cebpf4jnsgd1na2vs0mg"},{"bike_id":"9bdd31cd-9198-4489-96db-fb35101aaadb","system_id":"levelo_inurba_marseille","lat":43.24649,"lon":5.38893,"is_reserved":false,"is_disabled":false,"rental_uris":{"android":"levelo://app?vid=9bdd31cd-9198-4489-96db-fb35101aaadb","ios":"levelo://app?vid=9bdd31cd-9198-4489-96db-fb35101aaadb"},"vehicle_type_id":"4","last_reported":1752048898,"current_range_meters":6000,"station_id":"ce4bhg12rcd13ifvqf60","pricing_plan_id":"cebpf4jnsgd1na2vs0mg"},{"bike_id":"8087e8f4-4f79-4a21-b64b-62f05003b07e","system_id":"levelo_inurba_marseille","lat":43.32335,"lon":5.40599,"is_reserved":false,"is_disabled":false,"rental_uris":{"android":"levelo://app?vid=8087e8f4-4f79-4a21-b64b-62f05003b07e","ios":"levelo://app?vid=8087e8f4-4f79-4a21-b64b-62f05003b07e"},"vehicle_type_id":"4","last_reported":1752048898,"current_range_meters":6000,"station_id":"ce4bhq92rcd13ifvqhjg","pricing_plan_id":"cebpf4jnsgd1na2vs0mg"},{"bike_id":"c76bb9d8-1f12-4897-8230-662e274c847a","system_id":"levelo_inurba_marseille","lat":43.301361,"lon":5.3743,"is_reserved":false,"is_disabled":false,"rental_uris":{"android":"levelo://app?vid=c76bb9d8-1f12-4897-8230-662e274c847a","ios":"levelo://app?vid=c76bb9d8-1f12-4897-8230-662e274c847a"},"vehicle_type_id":"4","last_reported":1752048898,"current_range_meters":6400,"station_id":"ce4bgs92rcd13ifvqcc0","pricing_plan_id":"cebpf4jnsgd1na2vs0mg"},{"bike_id":"95f9c2d6-bd2e-4439-adb0-f248078d8b0c","system_id":"levelo_inurba_marseille","lat":43.29174,"lon":5.35802,"is_reserved":false,"is_disabled":false,"rental_uris":{"android":"levelo://app?vid=95f9c2d6-bd2e-4439-adb0-f248078d8b0c","ios":"levelo://app?vid=95f9c2d6-bd2e-4439-adb0-f248078d8b0c"},"vehicle_type_id":"4","last_reported":1752048898,"current_range_meters":6400,"station_id":"ce4bhb12rcd13ifvqel0","pricing_plan_id":"cebpf4jnsgd1na2vs0mg"},{"bike_id":"1a52abe0-0c60-461b-b7e2-660caa5547b3","system_id":"levelo_inurba_marseille","lat":43.25934,"lon":5.40904,"is_reserved":false,"is_disabled":false,"rental_uris":{"android":"levelo://app?vid=1a52abe0-0c60-461b-b7e2-660caa5547b3","ios":"levelo://app?vid=1a52abe0-0c60-461b-b7e2-660caa5547b3"},"vehicle_type_id":"4","last_reported":1752048898,"current_range_meters":6400,"station_id":"ce4bhm92rcd13ifvqglg","pricing_plan_id":"cebpf4jnsgd1na2vs0mg"},{"bike_id":"78fad501-0ffc-4447-b1a6-37462bc8d545","system_id":"levelo_inurba_marseille","lat":43.27809,"lon":5.40727,"is_reserved":false,"is_disabled":false,"rental_uris":{"android":"levelo://app?vid=78fad501-0ffc-4447-b1a6-37462bc8d545","ios":"levelo://app?vid=78fad501-0ffc-4447-b1a6-37462bc8d545"},"vehicle_type_id":"4","last_reported":1752048898,"current_range_meters":6400,"station_id":"ce4bhnh2rcd13ifvqgtg","pricing_plan_id":"cebpf4jnsgd1na2vs0mg"},{"bike_id":"40091a70-6cb4-4b00-9110-dcf0bda571fa","system_id":"levelo_inurba_marseille","lat":43.29902,"lon":5.38141,"is_reserved":false,"is_disabled":false,"rental_uris":{"android":"levelo://app?vid=40091a70-6cb4-4b00-9110-dcf0bda571fa","ios":"levelo://app?vid=40091a70-6cb4-4b00-9110-dcf0bda571fa"},"vehicle_type_id":"4","last_reported":1752048898,"current_range_meters":6800,"station_id":"ce4bgj12rcd13ifvqbc0","pricing_plan_id":"cebpf4jnsgd1na2vs0mg"},{"bike_id":"c50f7dc7-4b0a-4d1c-b0e9-ccd833fd922e","system_id":"levelo_inurba_marseille","lat":43.30548,"lon":5.36549,"is_reserved":false,"is_disabled":false,"rental_uris":{"android":"levelo://app?vid=c50f7dc7-4b0a-4d1c-b0e9-ccd833fd922e","ios":"levelo://app?vid=c50f7dc7-4b0a-4d1c-b0e9-ccd833fd922e"},"vehicle_type_id":"4","last_reported":1752048898,"current_range_meters":6800,"station_id":"ce4bgs12rcd13ifvqcag","pricing_plan_id":"cebpf4jnsgd1na2vs0mg"},{"bike_id":"355e2ee3-6caa-4b86-bdc3-60788f70cd17","system_id":"levelo_inurba_marseille","lat":43.30462,"lon":5.37904,"is_reserved":false,"is_disabled":false,"rental_uris":{"android":"levelo://app?vid=355e2ee3-6caa-4b86-bdc3-60788f70cd17","ios":"levelo://app?vid=355e2ee3-6caa-4b86-bdc3-60788f70cd17"},"vehicle_type_id":"4","last_reported":1752048898,"current_range_meters":6800,"station_id":"ce4bgup2rcd13ifvqcn0","pricing_plan_id":"cebpf4jnsgd1na2vs0mg"},{"bike_id":"2d35dc48-3bd7-438c-a084-02f211f03f2d","system_id":"levelo_inurba_marseille","lat":43.28431,"lon":5.34999,"is_reserved":false,"is_disabled":false,"rental_uris":{"android":"levelo://app?vid=2d35dc48-3bd7-438c-a084-02f211f03f2d","ios":"levelo://app?vid=2d35dc48-3bd7-438c-a084-02f211f03f2d"},"vehicle_type_id":"4","last_reported":1752048898,"current_range_meters":6800,"station_id":"ce4bhbh2rcd13ifvqepg","pricing_plan_id":"cebpf4jnsgd1na2vs0mg"},{"bike_id":"cb1c09d0-c7a5-4f13-ab0c-bba053b16ec9","system_id":"levelo_inurba_marseille","lat":43.25719,"lon":5.41112,"is_reserved":false,"is_disabled":false,"rental_uris":{"android":"levelo://app?vid=cb1c09d0-c7a5-4f13-ab0c-bba053b16ec9","ios":"levelo://app?vid=cb1c09d0-c7a5-4f13-ab0c-bba053b16ec9"},"vehicle_type_id":"4","last_reported":1752048898,"current_range_meters":6800,"station_id":"ce4bhkp2rcd13ifvqgd0","pricing_plan_id":"cebpf4jnsgd1na2vs0mg"},{"bike_id":"3c94d2c6-2996-41de-9e54-fa8af7df6912","system_id":"levelo_inurba_marseille","lat":43.21738,"lon":5.34606,"is_reserved":false,"is_disabled":false,"rental_uris":{"android":"levelo://app?vid=3c94d2c6-2996-41de-9e54-fa8af7df6912","ios":"levelo://app?vid=3c94d2c6-2996-41de-9e54-fa8af7df6912"},"vehicle_type_id":"4","last_reported":1752048898,"current_range_meters":6800,"station_id":"st_cvj6r9ubvosntc0bgbag","pricing_plan_id":"cebpf4jnsgd1na2vs0mg"},{"bike_id":"a0d09fee-96fb-4549-a890-f04962a22204","system_id":"levelo_inurba_marseille","lat":43.301368,"lon":5.398699,"is_reserved":false,"is_disabled":false,"rental_uris":{"android":"levelo://app?vid=a0d09fee-96fb-4549-a890-f04962a22204","ios":"levelo://app?vid=a0d09fee-96fb-4549-a890-f04962a22204"},"vehicle_type_id":"4","last_reported":1752048898,"current_range_meters":7200,"station_id":"ce4bh0h2rcd13ifvqd40","pricing_plan_id":"cebpf4jnsgd1na2vs0mg"},{"bike_id":"ce94f063-d1d2-48d0-a734-1d85ea8c4d8a","system_id":"levelo_inurba_marseille","lat":43.28472,"lon":5.38557,"is_reserved":false,"is_disabled":false,"rental_uris":{"android":"levelo://app?vid=ce94f063-d1d2-48d0-a734-1d85ea8c4d8a","ios":"levelo://app?vid=ce94f063-d1d2-48d0-a734-1d85ea8c4d8a"},"vehicle_type_id":"4","last_reported":1752048898,"current_range_meters":7200,"station_id":"ce4bh8p2rcd13ifvqeb0","pricing_plan_id":"cebpf4jnsgd1na2vs0mg"},{"bike_id":"ccb11719-f8d4-4f05-8c9c-499762b65cc6","system_id":"levelo_inurba_marseille","lat":43.28271,"lon":5.35058,"is_reserved":false,"is_disabled":false,"rental_uris":{"android":"levelo://app?vid=ccb11719-f8d4-4f05-8c9c-499762b65cc6","ios":"levelo://app?vid=ccb11719-f8d4-4f05-8c9c-499762b65cc6"},"vehicle_type_id":"4","last_reported":1752048898,"current_range_meters":7200,"station_id":"ce4bhbp2rcd13ifvqerg","pricing_plan_id":"cebpf4jnsgd1na2vs0mg"},{"bike_id":"877453e3-10b3-48a4-a836-e21993b15d95","system_id":"levelo_inurba_marseille","lat":43.24385,"lon":5.37057,"is_reserved":false,"is_disabled":false,"rental_uris":{"android":"levelo://app?vid=877453e3-10b3-48a4-a836-e21993b15d95","ios":"levelo://app?vid=877453e3-10b3-48a4-a836-e21993b15d95"},"vehicle_type_id":"4","last_reported":1752048898,"current_range_meters":7200,"station_id":"ce4bhhh2rcd13ifvqfk0","pricing_plan_id":"cebpf4jnsgd1na2vs0mg"},{"bike_id":"06b2196c-467a-4700-84cd-e4cc903ce767","system_id":"levelo_inurba_marseille","lat":43.32468,"lon":5.36581,"is_reserved":false,"is_disabled":false,"rental_uris":{"android":"levelo://app?vid=06b2196c-467a-4700-84cd-e4cc903ce767","ios":"levelo://app?vid=06b2196c-467a-4700-84cd-e4cc903ce767"},"vehicle_type_id":"4","last_reported":1752048898,"current_range_meters":7200,"station_id":"ce4bhs12rcd13ifvqhvg","pricing_plan_id":"cebpf4jnsgd1na2vs0mg"},{"bike_id":"069759f3-8488-4973-b337-5e447fc27e24","system_id":"levelo_inurba_marseille","lat":43.21193,"lon":5.35068,"is_reserved":false,"is_disabled":false,"rental_uris":{"android":"levelo://app?vid=069759f3-8488-4973-b337-5e447fc27e24","ios":"levelo://app?vid=069759f3-8488-4973-b337-5e447fc27e24"},"vehicle_type_id":"4","last_reported":1752048898,"current_range_meters":7200,"station_id":"st_cvj6sg6p6f1abm77japg","pricing_plan_id":"cebpf4jnsgd1na2vs0mg"},{"bike_id":"462950b6-0eec-4aa2-ab48-8af7e7ede80f","system_id":"levelo_inurba_marseille","lat":43.31349,"lon":5.36723,"is_reserved":false,"is_disabled":false,"rental_uris":{"android":"levelo://app?vid=462950b6-0eec-4aa2-ab48-8af7e7ede80f","ios":"levelo://app?vid=462950b6-0eec-4aa2-ab48-8af7e7ede80f"},"vehicle_type_id":"4","last_reported":1752048898,"current_range_meters":8000,"station_id":"ce4bgr92rcd13ifvqc6g","pricing_plan_id":"cebpf4jnsgd1na2vs0mg"},{"bike_id":"7ba5d315-292b-4cb0-92c8-87182ced7c07","system_id":"levelo_inurba_marseille","lat":43.29225,"lon":5.36033,"is_reserved":false,"is_disabled":false,"rental_uris":{"android":"levelo://app?vid=7ba5d315-292b-4cb0-92c8-87182ced7c07","ios":"levelo://app?vid=7ba5d315-292b-4cb0-92c8-87182ced7c07"},"vehicle_type_id":"4","last_reported":1752048898,"current_range_meters":8000,"station_id":"ce4bhbh2rcd13ifvqeqg","pricing_plan_id":"cebpf4jnsgd1na2vs0mg"},{"bike_id":"8836c08e-158f-4a3e-92ca-0e97cba17a77","system_id":"levelo_inurba_marseille","lat":43.29214,"lon":5.36075,"is_reserved":false,"is_disabled":false,"rental_uris":{"android":"levelo://app?vid=8836c08e-158f-4a3e-92ca-0e97cba17a77","ios":"levelo://app?vid=8836c08e-158f-4a3e-92ca-0e97cba17a77"},"vehicle_type_id":"4","last_reported":1752048898,"current_range_meters":8000,"station_id":"ce4bhbh2rcd13ifvqeqg","pricing_plan_id":"cebpf4jnsgd1na2vs0mg"},{"bike_id":"48443b30-4edc-41b5-9bfb-e33ed695c27c","system_id":"levelo_inurba_marseille","lat":43.25,"lon":5.38923,"is_reserved":false,"is_disabled":false,"rental_uris":{"android":"levelo://app?vid=48443b30-4edc-41b5-9bfb-e33ed695c27c","ios":"levelo://app?vid=48443b30-4edc-41b5-9bfb-e33ed695c27c"},"vehicle_type_id":"4","last_reported":1752048898,"current_range_meters":8000,"station_id":"ce4bhgp2rcd13ifvqfd0","pricing_plan_id":"cebpf4jnsgd1na2vs0mg"},{"bike_id":"642789bf-2b93-4276-b94a-70db14f9284f","system_id":"levelo_inurba_marseille","lat":43.25937,"lon":5.4091,"is_reserved":false,"is_disabled":false,"rental_uris":{"android":"levelo://app?vid=642789bf-2b93-4276-b94a-70db14f9284f","ios":"levelo://app?vid=642789bf-2b93-4276-b94a-70db14f9284f"},"vehicle_type_id":"4","last_reported":1752048898,"current_range_meters":8000,"station_id":"ce4bhm92rcd13ifvqglg","pricing_plan_id":"cebpf4jnsgd1na2vs0mg"},{"bike_id":"373f7154-05e4-4923-8d21-eb4b99691656","system_id":"levelo_inurba_marseille","lat":43.31528,"lon":5.3868,"is_reserved":false,"is_disabled":false,"rental_uris":{"android":"levelo://app?vid=373f7154-05e4-4923-8d21-eb4b99691656","ios":"levelo://app?vid=373f7154-05e4-4923-8d21-eb4b99691656"},"vehicle_type_id":"4","last_reported":1752048898,"current_range_meters":8400,"station_id":"","pricing_plan_id":"cebpf4jnsgd1na2vs0mg"},{"bike_id":"26c0e55d-5c59-486c-919f-43833053e785","system_id":"levelo_inurba_marseille","lat":43.29303,"lon":5.37462,"is_reserved":false,"is_disabled":false,"rental_uris":{"android":"levelo://app?vid=26c0e55d-5c59-486c-919f-43833053e785","ios":"levelo://app?vid=26c0e55d-5c59-486c-919f-43833053e785"},"vehicle_type_id":"4","last_reported":1752048898,"current_range_meters":8400,"station_id":"ce4bgi12rcd13ifvqb70","pricing_plan_id":"cebpf4jnsgd1na2vs0mg"},{"bike_id":"4315d372-2881-4e4c-b1a5-61c84317a6f1","system_id":"levelo_inurba_marseille","lat":43.30146,"lon":5.38072,"is_reserved":false,"is_disabled":false,"rental_uris":{"android":"levelo://app?vid=4315d372-2881-4e4c-b1a5-61c84317a6f1","ios":"levelo://app?vid=4315d372-2881-4e4c-b1a5-61c84317a6f1"},"vehicle_type_id":"4","last_reported":1752048898,"current_range_meters":8400,"station_id":"ce4bgjp2rcd13ifvqbh0","pricing_plan_id":"cebpf4jnsgd1na2vs0mg"},{"bike_id":"e54a69bc-634c-4579-91a1-2ea1e7521c68","system_id":"levelo_inurba_marseille","lat":43.30127,"lon":5.37231,"is_reserved":false,"is_disabled":false,"rental_uris":{"android":"levelo://app?vid=e54a69bc-634c-4579-91a1-2ea1e7521c68","ios":"levelo://app?vid=e54a69bc-634c-4579-91a1-2ea1e7521c68"},"vehicle_type_id":"4","last_reported":1752048898,"current_range_meters":8800,"station_id":"","pricing_plan_id":"cebpf4jnsgd1na2vs0mg"},{"bike_id":"888522e3-39b6-4ff3-ad74-ff6c6f771157","system_id":"levelo_inurba_marseille","lat":43.29514,"lon":5.40264,"is_reserved":false,"is_disabled":false,"rental_uris":{"android":"levelo://app?vid=888522e3-39b6-4ff3-ad74-ff6c6f771157","ios":"levelo://app?vid=888522e3-39b6-4ff3-ad74-ff6c6f771157"},"vehicle_type_id":"4","last_reported":1752048898,"current_range_meters":8800,"station_id":"","pricing_plan_id":"cebpf4jnsgd1na2vs0mg"},{"bike_id":"4303a5ff-1b84-42e1-9efe-37f953e3b6e8","system_id":"levelo_inurba_marseille","lat":43.262172,"lon":5.404551,"is_reserved":false,"is_disabled":false,"rental_uris":{"android":"levelo://app?vid=4303a5ff-1b84-42e1-9efe-37f953e3b6e8","ios":"levelo://app?vid=4303a5ff-1b84-42e1-9efe-37f953e3b6e8"},"vehicle_type_id":"4","last_reported":1752048898,"current_range_meters":8800,"station_id":"ce4bhmh2rcd13ifvqgmg","pricing_plan_id":"cebpf4jnsgd1na2vs0mg"},{"bike_id":"63a29694-4af7-4a38-a698-5b65cb87714a","system_id":"levelo_inurba_marseille","lat":43.32018,"lon":5.40835,"is_reserved":false,"is_disabled":false,"rental_uris":{"android":"levelo://app?vid=63a29694-4af7-4a38-a698-5b65cb87714a","ios":"levelo://app?vid=63a29694-4af7-4a38-a698-5b65cb87714a"},"vehicle_type_id":"4","last_reported":1752048898,"current_range_meters":9200,"station_id":"","pricing_plan_id":"cebpf4jnsgd1na2vs0mg"},{"bike_id":"8a599695-9cb5-45ef-a77f-0d78fdbac275","system_id":"levelo_inurba_marseille","lat":43.28355,"lon":5.38108,"is_reserved":false,"is_disabled":false,"rental_uris":{"android":"levelo://app?vid=8a599695-9cb5-45ef-a77f-0d78fdbac275","ios":"levelo://app?vid=8a599695-9cb5-45ef-a77f-0d78fdbac275"},"vehicle_type_id":"4","last_reported":1752048898,"current_range_meters":9200,"station_id":"ce4bh412rcd13ifvqdr0","pricing_plan_id":"cebpf4jnsgd1na2vs0mg"},{"bike_id":"ae868faa-1cb2-498a-9bfe-dda3f2c0d82a","system_id":"levelo_inurba_marseille","lat":43.24385,"lon":5.37064,"is_reserved":false,"is_disabled":false,"rental_uris":{"android":"levelo://app?vid=ae868faa-1cb2-498a-9bfe-dda3f2c0d82a","ios":"levelo://app?vid=ae868faa-1cb2-498a-9bfe-dda3f2c0d82a"},"vehicle_type_id":"4","last_reported":1752048898,"current_range_meters":9200,"station_id":"ce4bhhh2rcd13ifvqfk0","pricing_plan_id":"cebpf4jnsgd1na2vs0mg"},{"bike_id":"879238f6-2888-4834-a84e-8c0148f5da8a","system_id":"levelo_inurba_marseille","lat":43.240645,"lon":5.37757,"is_reserved":false,"is_disabled":false,"rental_uris":{"android":"levelo://app?vid=879238f6-2888-4834-a84e-8c0148f5da8a","ios":"levelo://app?vid=879238f6-2888-4834-a84e-8c0148f5da8a"},"vehicle_type_id":"4","last_reported":1752048898,"current_range_meters":9200,"station_id":"ce4bhnp2rcd13ifvqgvg","pricing_plan_id":"cebpf4jnsgd1na2vs0mg"},{"bike_id":"b287377f-3d0b-47ac-86fe-9e0dfc1563de","system_id":"levelo_inurba_marseille","lat":43.225,"lon":5.34777,"is_reserved":false,"is_disabled":false,"rental_uris":{"android":"levelo://app?vid=b287377f-3d0b-47ac-86fe-9e0dfc1563de","ios":"levelo://app?vid=b287377f-3d0b-47ac-86fe-9e0dfc1563de"},"vehicle_type_id":"4","last_reported":1752048898,"current_range_meters":9200,"station_id":"st_cvj5dfep6f1abm77gieg","pricing_plan_id":"cebpf4jnsgd1na2vs0mg"},{"bike_id":"6cde8caf-1756-453c-88e0-a2cf34da7410","system_id":"levelo_inurba_marseille","lat":43.31374,"lon":5.36697,"is_reserved":false,"is_disabled":false,"rental_uris":{"android":"levelo://app?vid=6cde8caf-1756-453c-88e0-a2cf34da7410","ios":"levelo://app?vid=6cde8caf-1756-453c-88e0-a2cf34da7410"},"vehicle_type_id":"4","last_reported":1752048898,"current_range_meters":9600,"station_id":"ce4bgr92rcd13ifvqc6g","pricing_plan_id":"cebpf4jnsgd1na2vs0mg"},{"bike_id":"9d8798f4-8168-44c9-b19a-69fabbcf2b38","system_id":"levelo_inurba_marseille","lat":43.25934,"lon":5.40903,"is_reserved":false,"is_disabled":false,"rental_uris":{"android":"levelo://app?vid=9d8798f4-8168-44c9-b19a-69fabbcf2b38","ios":"levelo://app?vid=9d8798f4-8168-44c9-b19a-69fabbcf2b38"},"vehicle_type_id":"4","last_reported":1752048898,"current_range_meters":9600,"station_id":"ce4bhm92rcd13ifvqglg","pricing_plan_id":"cebpf4jnsgd1na2vs0mg"},{"bike_id":"d92d5661-dd37-41e5-bbbf-43104a6d29a1","system_id":"levelo_inurba_marseille","lat":43.27821,"lon":5.40685,"is_reserved":false,"is_disabled":false,"rental_uris":{"android":"levelo://app?vid=d92d5661-dd37-41e5-bbbf-43104a6d29a1","ios":"levelo://app?vid=d92d5661-dd37-41e5-bbbf-43104a6d29a1"},"vehicle_type_id":"4","last_reported":1752048898,"current_range_meters":9600,"station_id":"ce4bhnh2rcd13ifvqgtg","pricing_plan_id":"cebpf4jnsgd1na2vs0mg"},{"bike_id":"93ec5db0-1027-4c12-8f2e-d57668a42c0e","system_id":"levelo_inurba_marseille","lat":43.29532,"lon":5.37507,"is_reserved":false,"is_disabled":false,"rental_uris":{"android":"levelo://app?vid=93ec5db0-1027-4c12-8f2e-d57668a42c0e","ios":"levelo://app?vid=93ec5db0-1027-4c12-8f2e-d57668a42c0e"},"vehicle_type_id":"4","last_reported":1752048898,"current_range_meters":10000,"station_id":"ce4bgkp2rcd13ifvqbmg","pricing_plan_id":"cebpf4jnsgd1na2vs0mg"},{"bike_id":"04e177d3-d510-4a93-b8b5-3c4f6a427757","system_id":"levelo_inurba_marseille","lat":43.29497,"lon":5.37512,"is_reserved":false,"is_disabled":false,"rental_uris":{"android":"levelo://app?vid=04e177d3-d510-4a93-b8b5-3c4f6a427757","ios":"levelo://app?vid=04e177d3-d510-4a93-b8b5-3c4f6a427757"},"vehicle_type_id":"4","last_reported":1752048898,"current_range_meters":10000,"station_id":"ce4bgkp2rcd13ifvqbmg","pricing_plan_id":"cebpf4jnsgd1na2vs0mg"},{"bike_id":"0d036252-1648-4cdb-abee-27dd6173e5b0","system_id":"levelo_inurba_marseille","lat":43.30911,"lon":5.3685,"is_reserved":false,"is_disabled":false,"rental_uris":{"android":"levelo://app?vid=0d036252-1648-4cdb-abee-27dd6173e5b0","ios":"levelo://app?vid=0d036252-1648-4cdb-abee-27dd6173e5b0"},"vehicle_type_id":"4","last_reported":1752048898,"current_range_meters":10000,"station_id":"ce4bgn92rcd13ifvqbvg","pricing_plan_id":"cebpf4jnsgd1na2vs0mg"},{"bike_id":"af7523f6-2c58-4730-a171-ce224978e0dc","system_id":"levelo_inurba_marseille","lat":43.24642,"lon":5.38888,"is_reserved":false,"is_disabled":false,"rental_uris":{"android":"levelo://app?vid=af7523f6-2c58-4730-a171-ce224978e0dc","ios":"levelo://app?vid=af7523f6-2c58-4730-a171-ce224978e0dc"},"vehicle_type_id":"4","last_reported":1752048898,"current_range_meters":10000,"station_id":"ce4bhg12rcd13ifvqf60","pricing_plan_id":"cebpf4jnsgd1na2vs0mg"},{"bike_id":"5f373bcd-a187-4616-8d68-3b4b681017ef","system_id":"levelo_inurba_marseille","lat":43.24387,"lon":5.37057,"is_reserved":false,"is_disabled":false,"rental_uris":{"android":"levelo://app?vid=5f373bcd-a187-4616-8d68-3b4b681017ef","ios":"levelo://app?vid=5f373bcd-a187-4616-8d68-3b4b681017ef"},"vehicle_type_id":"4","last_reported":1752048898,"current_range_meters":10000,"station_id":"ce4bhhh2rcd13ifvqfk0","pricing_plan_id":"cebpf4jnsgd1na2vs0mg"},{"bike_id":"786d1f8e-48d7-45a6-98f0-0a0695f005c7","system_id":"levelo_inurba_marseille","lat":43.239588,"lon":5.366285,"is_reserved":false,"is_disabled":false,"rental_uris":{"android":"levelo://app?vid=786d1f8e-48d7-45a6-98f0-0a0695f005c7","ios":"levelo://app?vid=786d1f8e-48d7-45a6-98f0-0a0695f005c7"},"vehicle_type_id":"4","last_reported":1752048898,"current_range_meters":10000,"station_id":"ce4bhi12rcd13ifvqfp0","pricing_plan_id":"cebpf4jnsgd1na2vs0mg"},{"bike_id":"77c63ecf-8ec4-46ab-b695-3fed0ff0fb70","system_id":"levelo_inurba_marseille","lat":43.29879,"lon":5.43669,"is_reserved":false,"is_disabled":false,"rental_uris":{"android":"levelo://app?vid=77c63ecf-8ec4-46ab-b695-3fed0ff0fb70","ios":"levelo://app?vid=77c63ecf-8ec4-46ab-b695-3fed0ff0fb70"},"vehicle_type_id":"4","last_reported":1752048898,"current_range_meters":10000,"station_id":"ce4bhpp2rcd13ifvqhfg","pricing_plan_id":"cebpf4jnsgd1na2vs0mg"},{"bike_id":"d5ef770d-9759-47e3-b3a5-7d2785ef76db","system_id":"levelo_inurba_marseille","lat":43.32929,"lon":5.39031,"is_reserved":false,"is_disabled":false,"rental_uris":{"android":"levelo://app?vid=d5ef770d-9759-47e3-b3a5-7d2785ef76db","ios":"levelo://app?vid=d5ef770d-9759-47e3-b3a5-7d2785ef76db"},"vehicle_type_id":"4","last_reported":1752048898,"current_range_meters":10800,"station_id":"","pricing_plan_id":"cebpf4jnsgd1na2vs0mg"},{"bike_id":"3030cb07-c041-4d87-a253-8c849c24aa85","system_id":"levelo_inurba_marseille","lat":43.32652,"lon":5.36215,"is_reserved":false,"is_disabled":false,"rental_uris":{"android":"levelo://app?vid=3030cb07-c041-4d87-a253-8c849c24aa85","ios":"levelo://app?vid=3030cb07-c041-4d87-a253-8c849c24aa85"},"vehicle_type_id":"4","last_reported":1752048898,"current_range_meters":10800,"station_id":"","pricing_plan_id":"cebpf4jnsgd1na2vs0mg"},{"bike_id":"7911cfdb-c53a-4ace-8a41-d7361361be8a","system_id":"levelo_inurba_marseille","lat":43.30554,"lon":5.36559,"is_reserved":false,"is_disabled":false,"rental_uris":{"android":"levelo://app?vid=7911cfdb-c53a-4ace-8a41-d7361361be8a","ios":"levelo://app?vid=7911cfdb-c53a-4ace-8a41-d7361361be8a"},"vehicle_type_id":"4","last_reported":1752048898,"current_range_meters":10800,"station_id":"ce4bgs12rcd13ifvqcag","pricing_plan_id":"cebpf4jnsgd1na2vs0mg"},{"bike_id":"cababae7-ea52-419c-a2c5-ec49054c9ae1","system_id":"levelo_inurba_marseille","lat":43.26216,"lon":5.3744,"is_reserved":false,"is_disabled":false,"rental_uris":{"android":"levelo://app?vid=cababae7-ea52-419c-a2c5-ec49054c9ae1","ios":"levelo://app?vid=cababae7-ea52-419c-a2c5-ec49054c9ae1"},"vehicle_type_id":"4","last_reported":1752048898,"current_range_meters":10800,"station_id":"ce4bhgp2rcd13ifvqfc0","pricing_plan_id":"cebpf4jnsgd1na2vs0mg"},{"bike_id":"82f40aca-214c-480a-99d7-4df294448107","system_id":"levelo_inurba_marseille","lat":43.254895,"lon":5.376448,"is_reserved":false,"is_disabled":false,"rental_uris":{"android":"levelo://app?vid=82f40aca-214c-480a-99d7-4df294448107","ios":"levelo://app?vid=82f40aca-214c-480a-99d7-4df294448107"},"vehicle_type_id":"4","last_reported":1752048898,"current_range_meters":10800,"station_id":"ce4bhh12rcd13ifvqff0","pricing_plan_id":"cebpf4jnsgd1na2vs0mg"},{"bike_id":"87089d69-5372-4339-a84a-ce90f1075e6b","system_id":"levelo_inurba_marseille","lat":43.24167,"lon":5.3973,"is_reserved":false,"is_disabled":false,"rental_uris":{"android":"levelo://app?vid=87089d69-5372-4339-a84a-ce90f1075e6b","ios":"levelo://app?vid=87089d69-5372-4339-a84a-ce90f1075e6b"},"vehicle_type_id":"4","last_reported":1752048898,"current_range_meters":10800,"station_id":"ce4bhn12rcd13ifvqgpg","pricing_plan_id":"cebpf4jnsgd1na2vs0mg"},{"bike_id":"e3ddc414-0edc-455c-b91b-38bc9773d6df","system_id":"levelo_inurba_marseille","lat":43.23168,"lon":5.39989,"is_reserved":false,"is_disabled":false,"rental_uris":{"android":"levelo://app?vid=e3ddc414-0edc-455c-b91b-38bc9773d6df","ios":"levelo://app?vid=e3ddc414-0edc-455c-b91b-38bc9773d6df"},"vehicle_type_id":"4","last_reported":1752048898,"current_range_meters":10800,"station_id":"ce4bhn12rcd13ifvqgqg","pricing_plan_id":"cebpf4jnsgd1na2vs0mg"},{"bike_id":"bb29e41f-3292-49b1-a9fc-f6c4198e0b85","system_id":"levelo_inurba_marseille","lat":43.310837,"lon":5.424275,"is_reserved":false,"is_disabled":false,"rental_uris":{"android":"levelo://app?vid=bb29e41f-3292-49b1-a9fc-f6c4198e0b85","ios":"levelo://app?vid=bb29e41f-3292-49b1-a9fc-f6c4198e0b85"},"vehicle_type_id":"4","last_reported":1752048898,"current_range_meters":10800,"station_id":"ce4bhp92rcd13ifvqhag","pricing_plan_id":"cebpf4jnsgd1na2vs0mg"},{"bike_id":"fa1efa2a-8498-4d73-b226-d9aa0d57a722","system_id":"levelo_inurba_marseille","lat":43.30544,"lon":5.36709,"is_reserved":false,"is_disabled":false,"rental_uris":{"android":"levelo://app?vid=fa1efa2a-8498-4d73-b226-d9aa0d57a722","ios":"levelo://app?vid=fa1efa2a-8498-4d73-b226-d9aa0d57a722"},"vehicle_type_id":"4","last_reported":1752048898,"current_range_meters":11200,"station_id":"ce4bgrp2rcd13ifvqc9g","pricing_plan_id":"cebpf4jnsgd1na2vs0mg"},{"bike_id":"306ce1a6-757b-4897-8796-d879ee9a33eb","system_id":"levelo_inurba_marseille","lat":43.29253,"lon":5.40124,"is_reserved":false,"is_disabled":false,"rental_uris":{"android":"levelo://app?vid=306ce1a6-757b-4897-8796-d879ee9a33eb","ios":"levelo://app?vid=306ce1a6-757b-4897-8796-d879ee9a33eb"},"vehicle_type_id":"4","last_reported":1752048898,"current_range_meters":11200,"station_id":"ce4bh312rcd13ifvqdk0","pricing_plan_id":"cebpf4jnsgd1na2vs0mg"},{"bike_id":"5cc0ee2f-06e7-4921-bf33-a9f34ba79ca3","system_id":"levelo_inurba_marseille","lat":43.25583,"lon":5.38241,"is_reserved":false,"is_disabled":false,"rental_uris":{"android":"levelo://app?vid=5cc0ee2f-06e7-4921-bf33-a9f34ba79ca3","ios":"levelo://app?vid=5cc0ee2f-06e7-4921-bf33-a9f34ba79ca3"},"vehicle_type_id":"4","last_reported":1752048898,"current_range_meters":11200,"station_id":"ce4bhih2rcd13ifvqfs0","pricing_plan_id":"cebpf4jnsgd1na2vs0mg"},{"bike_id":"950ad4b3-b91f-4494-8425-e4ca334758ee","system_id":"levelo_inurba_marseille","lat":43.27057,"lon":5.40258,"is_reserved":false,"is_disabled":false,"rental_uris":{"android":"levelo://app?vid=950ad4b3-b91f-4494-8425-e4ca334758ee","ios":"levelo://app?vid=950ad4b3-b91f-4494-8425-e4ca334758ee"},"vehicle_type_id":"4","last_reported":1752048898,"current_range_meters":11200,"station_id":"ce4bhk92rcd13ifvqgc0","pricing_plan_id":"cebpf4jnsgd1na2vs0mg"},{"bike_id":"56eb3fdf-ea87-4fcf-85df-3680fa66363e","system_id":"levelo_inurba_marseille","lat":43.225,"lon":5.34782,"is_reserved":false,"is_disabled":false,"rental_uris":{"android":"levelo://app?vid=56eb3fdf-ea87-4fcf-85df-3680fa66363e","ios":"levelo://app?vid=56eb3fdf-ea87-4fcf-85df-3680fa66363e"},"vehicle_type_id":"4","last_reported":1752048898,"current_range_meters":11200,"station_id":"st_cvj5dfep6f1abm77gieg","pricing_plan_id":"cebpf4jnsgd1na2vs0mg"},{"bike_id":"87c2d236-4978-4760-be77-27d7f5a212e4","system_id":"levelo_inurba_marseille","lat":43.29644,"lon":5.36205,"is_reserved":false,"is_disabled":false,"rental_uris":{"android":"levelo://app?vid=87c2d236-4978-4760-be77-27d7f5a212e4","ios":"levelo://app?vid=87c2d236-4978-4760-be77-27d7f5a212e4"},"vehicle_type_id":"4","last_reported":1752048898,"current_range_meters":11600,"station_id":"","pricing_plan_id":"cebpf4jnsgd1na2vs0mg"},{"bike_id":"8935e67e-e377-4f20-b30d-fbcbd3d43af7","system_id":"levelo_inurba_marseille","lat":43.286,"lon":5.35112,"is_reserved":false,"is_disabled":false,"rental_uris":{"android":"levelo://app?vid=8935e67e-e377-4f20-b30d-fbcbd3d43af7","ios":"levelo://app?vid=8935e67e-e377-4f20-b30d-fbcbd3d43af7"},"vehicle_type_id":"4","last_reported":1752048898,"current_range_meters":11600,"station_id":"ce4bhch2rcd13ifvqeug","pricing_plan_id":"cebpf4jnsgd1na2vs0mg"},{"bike_id":"8ca09d90-e30b-4cf9-bdcb-56cefa7e31bc","system_id":"levelo_inurba_marseille","lat":43.23149,"lon":5.43725,"is_reserved":false,"is_disabled":false,"rental_uris":{"android":"levelo://app?vid=8ca09d90-e30b-4cf9-bdcb-56cefa7e31bc","ios":"levelo://app?vid=8ca09d90-e30b-4cf9-bdcb-56cefa7e31bc"},"vehicle_type_id":"4","last_reported":1752048898,"current_range_meters":11600,"station_id":"ce4bhmp2rcd13ifvqgog","pricing_plan_id":"cebpf4jnsgd1na2vs0mg"},{"bike_id":"3c78f3be-0595-4cde-ab3a-21eba194a66a","system_id":"levelo_inurba_marseille","lat":43.217417,"lon":5.346056,"is_reserved":false,"is_disabled":false,"rental_uris":{"android":"levelo://app?vid=3c78f3be-0595-4cde-ab3a-21eba194a66a","ios":"levelo://app?vid=3c78f3be-0595-4cde-ab3a-21eba194a66a"},"vehicle_type_id":"4","last_reported":1752048898,"current_range_meters":12000,"station_id":"","pricing_plan_id":"cebpf4jnsgd1na2vs0mg"},{"bike_id":"a1c9536c-c000-4b11-b6c8-a747a5c36501","system_id":"levelo_inurba_marseille","lat":43.281189,"lon":5.351736,"is_reserved":false,"is_disabled":false,"rental_uris":{"android":"levelo://app?vid=a1c9536c-c000-4b11-b6c8-a747a5c36501","ios":"levelo://app?vid=a1c9536c-c000-4b11-b6c8-a747a5c36501"},"vehicle_type_id":"4","last_reported":1752048898,"current_range_meters":12000,"station_id":"ce4bhbp2rcd13ifvqerg","pricing_plan_id":"cebpf4jnsgd1na2vs0mg"},{"bike_id":"a74d1421-7a37-499b-b1c4-5e1394842b7e","system_id":"levelo_inurba_marseille","lat":43.33718,"lon":5.39174,"is_reserved":false,"is_disabled":false,"rental_uris":{"android":"levelo://app?vid=a74d1421-7a37-499b-b1c4-5e1394842b7e","ios":"levelo://app?vid=a74d1421-7a37-499b-b1c4-5e1394842b7e"},"vehicle_type_id":"4","last_reported":1752048898,"current_range_meters":12000,"station_id":"ce4bhr92rcd13ifvqhsg","pricing_plan_id":"cebpf4jnsgd1na2vs0mg"},{"bike_id":"2d7ebf76-07c4-456f-96a1-06cabdc76ab3","system_id":"levelo_inurba_marseille","lat":43.30917,"lon":5.36854,"is_reserved":false,"is_disabled":false,"rental_uris":{"android":"levelo://app?vid=2d7ebf76-07c4-456f-96a1-06cabdc76ab3","ios":"levelo://app?vid=2d7ebf76-07c4-456f-96a1-06cabdc76ab3"},"vehicle_type_id":"4","last_reported":1752048898,"current_range_meters":12400,"station_id":"ce4bgn92rcd13ifvqbvg","pricing_plan_id":"cebpf4jnsgd1na2vs0mg"},{"bike_id":"ee3b268a-f5bf-413d-8421-48049331943d","system_id":"levelo_inurba_marseille","lat":43.24804,"lon":5.37447,"is_reserved":false,"is_disabled":false,"rental_uris":{"android":"levelo://app?vid=ee3b268a-f5bf-413d-8421-48049331943d","ios":"levelo://app?vid=ee3b268a-f5bf-413d-8421-48049331943d"},"vehicle_type_id":"4","last_reported":1752048898,"current_range_meters":12400,"station_id":"ce4bhgh2rcd13ifvqfb0","pricing_plan_id":"cebpf4jnsgd1na2vs0mg"},{"bike_id":"b546ea33-b957-480f-88ac-07263bf49779","system_id":"levelo_inurba_marseille","lat":43.23145,"lon":5.43727,"is_reserved":false,"is_disabled":false,"rental_uris":{"android":"levelo://app?vid=b546ea33-b957-480f-88ac-07263bf49779","ios":"levelo://app?vid=b546ea33-b957-480f-88ac-07263bf49779"},"vehicle_type_id":"4","last_reported":1752048898,"current_range_meters":12400,"station_id":"ce4bhmp2rcd13ifvqgog","pricing_plan_id":"cebpf4jnsgd1na2vs0mg"},{"bike_id":"03759d44-3743-40e9-a897-a20a00559abf","system_id":"levelo_inurba_marseille","lat":43.31355,"lon":5.36721,"is_reserved":false,"is_disabled":false,"rental_uris":{"android":"levelo://app?vid=03759d44-3743-40e9-a897-a20a00559abf","ios":"levelo://app?vid=03759d44-3743-40e9-a897-a20a00559abf"},"vehicle_type_id":"4","last_reported":1752048898,"current_range_meters":12800,"station_id":"ce4bgr92rcd13ifvqc6g","pricing_plan_id":"cebpf4jnsgd1na2vs0mg"},{"bike_id":"9959d7fa-4898-43a5-a1ec-b9fed544cad3","system_id":"levelo_inurba_marseille","lat":43.28426,"lon":5.34991,"is_reserved":false,"is_disabled":false,"rental_uris":{"android":"levelo://app?vid=9959d7fa-4898-43a5-a1ec-b9fed544cad3","ios":"levelo://app?vid=9959d7fa-4898-43a5-a1ec-b9fed544cad3"},"vehicle_type_id":"4","last_reported":1752048898,"current_range_meters":12800,"station_id":"ce4bhbh2rcd13ifvqepg","pricing_plan_id":"cebpf4jnsgd1na2vs0mg"},{"bike_id":"8cbf5b95-6789-422d-8e73-35c4ff77552e","system_id":"levelo_inurba_marseille","lat":43.25933,"lon":5.40908,"is_reserved":false,"is_disabled":false,"rental_uris":{"android":"levelo://app?vid=8cbf5b95-6789-422d-8e73-35c4ff77552e","ios":"levelo://app?vid=8cbf5b95-6789-422d-8e73-35c4ff77552e"},"vehicle_type_id":"4","last_reported":1752048898,"current_range_meters":12800,"station_id":"ce4bhm92rcd13ifvqglg","pricing_plan_id":"cebpf4jnsgd1na2vs0mg"},{"bike_id":"29d415fa-49e8-48c0-a6ad-0992fb290e69","system_id":"levelo_inurba_marseille","lat":43.24179,"lon":5.39722,"is_reserved":false,"is_disabled":false,"rental_uris":{"android":"levelo://app?vid=29d415fa-49e8-48c0-a6ad-0992fb290e69","ios":"levelo://app?vid=29d415fa-49e8-48c0-a6ad-0992fb290e69"},"vehicle_type_id":"4","last_reported":1752048898,"current_range_meters":12800,"station_id":"ce4bhn12rcd13ifvqgpg","pricing_plan_id":"cebpf4jnsgd1na2vs0mg"},{"bike_id":"ca2bab86-416f-413e-81b0-5002099ee069","system_id":"levelo_inurba_marseille","lat":43.275719,"lon":5.420075,"is_reserved":false,"is_disabled":false,"rental_uris":{"android":"levelo://app?vid=ca2bab86-416f-413e-81b0-5002099ee069","ios":"levelo://app?vid=ca2bab86-416f-413e-81b0-5002099ee069"},"vehicle_type_id":"4","last_reported":1752048898,"current_range_meters":13600,"station_id":"","pricing_plan_id":"cebpf4jnsgd1na2vs0mg"},{"bike_id":"840281e7-03cf-4e27-8ab0-ed5dcfb45157","system_id":"levelo_inurba_marseille","lat":43.30907,"lon":5.36845,"is_reserved":false,"is_disabled":false,"rental_uris":{"android":"levelo://app?vid=840281e7-03cf-4e27-8ab0-ed5dcfb45157","ios":"levelo://app?vid=840281e7-03cf-4e27-8ab0-ed5dcfb45157"},"vehicle_type_id":"4","last_reported":1752048898,"current_range_meters":13600,"station_id":"ce4bgn92rcd13ifvqbvg","pricing_plan_id":"cebpf4jnsgd1na2vs0mg"},{"bike_id":"e5397022-fa85-48da-b54c-d6446f3e7106","system_id":"levelo_inurba_marseille","lat":43.23148,"lon":5.43719,"is_reserved":false,"is_disabled":false,"rental_uris":{"android":"levelo://app?vid=e5397022-fa85-48da-b54c-d6446f3e7106","ios":"levelo://app?vid=e5397022-fa85-48da-b54c-d6446f3e7106"},"vehicle_type_id":"4","last_reported":1752048898,"current_range_meters":13600,"station_id":"ce4bhmp2rcd13ifvqgog","pricing_plan_id":"cebpf4jnsgd1na2vs0mg"},{"bike_id":"84e7e709-4e4f-4764-818c-af719435bfca","system_id":"levelo_inurba_marseille","lat":43.31851,"lon":5.37415,"is_reserved":false,"is_disabled":false,"rental_uris":{"android":"levelo://app?vid=84e7e709-4e4f-4764-818c-af719435bfca","ios":"levelo://app?vid=84e7e709-4e4f-4764-818c-af719435bfca"},"vehicle_type_id":"4","last_reported":1752048898,"current_range_meters":14000,"station_id":"","pricing_plan_id":"cebpf4jnsgd1na2vs0mg"},{"bike_id":"c2ee7d66-374b-44cd-b9d7-9ad64301293b","system_id":"levelo_inurba_marseille","lat":43.33771,"lon":5.37471,"is_reserved":false,"is_disabled":false,"rental_uris":{"android":"levelo://app?vid=c2ee7d66-374b-44cd-b9d7-9ad64301293b","ios":"levelo://app?vid=c2ee7d66-374b-44cd-b9d7-9ad64301293b"},"vehicle_type_id":"4","last_reported":1752048898,"current_range_meters":14000,"station_id":"","pricing_plan_id":"cebpf4jnsgd1na2vs0mg"},{"bike_id":"741e86fe-0f91-4693-9a57-008546515c35","system_id":"levelo_inurba_marseille","lat":43.30905,"lon":5.36837,"is_reserved":false,"is_disabled":false,"rental_uris":{"android":"levelo://app?vid=741e86fe-0f91-4693-9a57-008546515c35","ios":"levelo://app?vid=741e86fe-0f91-4693-9a57-008546515c35"},"vehicle_type_id":"4","last_reported":1752048898,"current_range_meters":14000,"station_id":"ce4bgn92rcd13ifvqbvg","pricing_plan_id":"cebpf4jnsgd1na2vs0mg"},{"bike_id":"cf36d9b5-6b63-4c93-942d-7016dd698cc1","system_id":"levelo_inurba_marseille","lat":43.24993,"lon":5.3893,"is_reserved":false,"is_disabled":false,"rental_uris":{"android":"levelo://app?vid=cf36d9b5-6b63-4c93-942d-7016dd698cc1","ios":"levelo://app?vid=cf36d9b5-6b63-4c93-942d-7016dd698cc1"},"vehicle_type_id":"4","last_reported":1752048898,"current_range_meters":14000,"station_id":"ce4bhgp2rcd13ifvqfd0","pricing_plan_id":"cebpf4jnsgd1na2vs0mg"},{"bike_id":"34b55799-542c-46b7-822d-1daf5f1fbae9","system_id":"levelo_inurba_marseille","lat":43.2418,"lon":5.39722,"is_reserved":false,"is_disabled":false,"rental_uris":{"android":"levelo://app?vid=34b55799-542c-46b7-822d-1daf5f1fbae9","ios":"levelo://app?vid=34b55799-542c-46b7-822d-1daf5f1fbae9"},"vehicle_type_id":"4","last_reported":1752048898,"current_range_meters":14000,"station_id":"ce4bhn12rcd13ifvqgpg","pricing_plan_id":"cebpf4jnsgd1na2vs0mg"},{"bike_id":"a5a1db4c-4dcc-46e5-a84f-c0fb8283b97a","system_id":"levelo_inurba_marseille","lat":43.24067,"lon":5.37755,"is_reserved":false,"is_disabled":false,"rental_uris":{"android":"levelo://app?vid=a5a1db4c-4dcc-46e5-a84f-c0fb8283b97a","ios":"levelo://app?vid=a5a1db4c-4dcc-46e5-a84f-c0fb8283b97a"},"vehicle_type_id":"4","last_reported":1752048898,"current_range_meters":14000,"station_id":"ce4bhnp2rcd13ifvqgvg","pricing_plan_id":"cebpf4jnsgd1na2vs0mg"},{"bike_id":"d0f90c24-dd03-411b-9731-55305f76b7c8","system_id":"levelo_inurba_marseille","lat":43.21192,"lon":5.35074,"is_reserved":false,"is_disabled":false,"rental_uris":{"android":"levelo://app?vid=d0f90c24-dd03-411b-9731-55305f76b7c8","ios":"levelo://app?vid=d0f90c24-dd03-411b-9731-55305f76b7c8"},"vehicle_type_id":"4","last_reported":1752048898,"current_range_meters":14000,"station_id":"st_cvj6sg6p6f1abm77japg","pricing_plan_id":"cebpf4jnsgd1na2vs0mg"},{"bike_id":"81390cbb-928b-4513-95ef-2da2d786482c","system_id":"levelo_inurba_marseille","lat":43.28263,"lon":5.35067,"is_reserved":false,"is_disabled":false,"rental_uris":{"android":"levelo://app?vid=81390cbb-928b-4513-95ef-2da2d786482c","ios":"levelo://app?vid=81390cbb-928b-4513-95ef-2da2d786482c"},"vehicle_type_id":"4","last_reported":1752048898,"current_range_meters":14400,"station_id":"ce4bhbp2rcd13ifvqerg","pricing_plan_id":"cebpf4jnsgd1na2vs0mg"},{"bike_id":"ff63dadc-4958-4f41-9edc-348e94a07754","system_id":"levelo_inurba_marseille","lat":43.23156,"lon":5.43705,"is_reserved":false,"is_disabled":false,"rental_uris":{"android":"levelo://app?vid=ff63dadc-4958-4f41-9edc-348e94a07754","ios":"levelo://app?vid=ff63dadc-4958-4f41-9edc-348e94a07754"},"vehicle_type_id":"4","last_reported":1752048898,"current_range_meters":14400,"station_id":"ce4bhmp2rcd13ifvqgog","pricing_plan_id":"cebpf4jnsgd1na2vs0mg"},{"bike_id":"cd812f06-3254-4dc4-bdab-94ecd7361d33","system_id":"levelo_inurba_marseille","lat":43.217424,"lon":5.346035,"is_reserved":false,"is_disabled":false,"rental_uris":{"android":"levelo://app?vid=cd812f06-3254-4dc4-bdab-94ecd7361d33","ios":"levelo://app?vid=cd812f06-3254-4dc4-bdab-94ecd7361d33"},"vehicle_type_id":"4","last_reported":1752048898,"current_range_meters":14400,"station_id":"st_cvj6r9ubvosntc0bgbag","pricing_plan_id":"cebpf4jnsgd1na2vs0mg"},{"bike_id":"3bd8b8a3-512e-4c45-8839-c2f9349ff4ec","system_id":"levelo_inurba_marseille","lat":43.21762,"lon":5.34592,"is_reserved":false,"is_disabled":false,"rental_uris":{"android":"levelo://app?vid=3bd8b8a3-512e-4c45-8839-c2f9349ff4ec","ios":"levelo://app?vid=3bd8b8a3-512e-4c45-8839-c2f9349ff4ec"},"vehicle_type_id":"4","last_reported":1752048898,"current_range_meters":14400,"station_id":"st_cvj6r9ubvosntc0bgbag","pricing_plan_id":"cebpf4jnsgd1na2vs0mg"},{"bike_id":"f573a8fb-f1f8-47c4-901e-ddf2739a5cca","system_id":"levelo_inurba_marseille","lat":43.35999,"lon":5.32501,"is_reserved":false,"is_disabled":false,"rental_uris":{"android":"levelo://app?vid=f573a8fb-f1f8-47c4-901e-ddf2739a5cca","ios":"levelo://app?vid=f573a8fb-f1f8-47c4-901e-ddf2739a5cca"},"vehicle_type_id":"4","last_reported":1752048898,"current_range_meters":14800,"station_id":"","pricing_plan_id":"cebpf4jnsgd1na2vs0mg"},{"bike_id":"82e934ba-a598-4bcc-85ae-7c81e56a3ff1","system_id":"levelo_inurba_marseille","lat":43.315799,"lon":5.388918,"is_reserved":false,"is_disabled":false,"rental_uris":{"android":"levelo://app?vid=82e934ba-a598-4bcc-85ae-7c81e56a3ff1","ios":"levelo://app?vid=82e934ba-a598-4bcc-85ae-7c81e56a3ff1"},"vehicle_type_id":"4","last_reported":1752048898,"current_range_meters":14800,"station_id":"","pricing_plan_id":"cebpf4jnsgd1na2vs0mg"},{"bike_id":"78144b5a-9ed1-4d00-94db-9cefda8b0ea8","system_id":"levelo_inurba_marseille","lat":43.32658,"lon":5.40983,"is_reserved":false,"is_disabled":false,"rental_uris":{"android":"levelo://app?vid=78144b5a-9ed1-4d00-94db-9cefda8b0ea8","ios":"levelo://app?vid=78144b5a-9ed1-4d00-94db-9cefda8b0ea8"},"vehicle_type_id":"4","last_reported":1752048898,"current_range_meters":14800,"station_id":"ce4bhpp2rcd13ifvqhgg","pricing_plan_id":"cebpf4jnsgd1na2vs0mg"},{"bike_id":"ac39d365-5643-4610-bf4b-0e5167a77f88","system_id":"levelo_inurba_marseille","lat":43.337245,"lon":5.391798,"is_reserved":false,"is_disabled":false,"rental_uris":{"android":"levelo://app?vid=ac39d365-5643-4610-bf4b-0e5167a77f88","ios":"levelo://app?vid=ac39d365-5643-4610-bf4b-0e5167a77f88"},"vehicle_type_id":"4","last_reported":1752048898,"current_range_meters":14800,"station_id":"ce4bhr92rcd13ifvqhsg","pricing_plan_id":"cebpf4jnsgd1na2vs0mg"},{"bike_id":"4975b22d-8c48-452f-bd19-7a9d3ed7c378","system_id":"levelo_inurba_marseille","lat":43.29676,"lon":5.37424,"is_reserved":false,"is_disabled":false,"rental_uris":{"android":"levelo://app?vid=4975b22d-8c48-452f-bd19-7a9d3ed7c378","ios":"levelo://app?vid=4975b22d-8c48-452f-bd19-7a9d3ed7c378"},"vehicle_type_id":"4","last_reported":1752048898,"current_range_meters":15200,"station_id":"","pricing_plan_id":"cebpf4jnsgd1na2vs0mg"},{"bike_id":"e69c145c-d2c0-4970-a99c-e91740792af8","system_id":"levelo_inurba_marseille","lat":43.29527,"lon":5.37499,"is_reserved":false,"is_disabled":false,"rental_uris":{"android":"levelo://app?vid=e69c145c-d2c0-4970-a99c-e91740792af8","ios":"levelo://app?vid=e69c145c-d2c0-4970-a99c-e91740792af8"},"vehicle_type_id":"4","last_reported":1752048898,"current_range_meters":15200,"station_id":"ce4bgkp2rcd13ifvqbmg","pricing_plan_id":"cebpf4jnsgd1na2vs0mg"},{"bike_id":"c2b72fe0-bae6-4c7b-ad48-9e771b203dc8","system_id":"levelo_inurba_marseille","lat":43.31372,"lon":5.38498,"is_reserved":false,"is_disabled":false,"rental_uris":{"android":"levelo://app?vid=c2b72fe0-bae6-4c7b-ad48-9e771b203dc8","ios":"levelo://app?vid=c2b72fe0-bae6-4c7b-ad48-9e771b203dc8"},"vehicle_type_id":"4","last_reported":1752048898,"current_range_meters":15200,"station_id":"ce4bgt92rcd13ifvqcf0","pricing_plan_id":"cebpf4jnsgd1na2vs0mg"},{"bike_id":"fecdeb5c-f6ad-4d78-b601-b2a3ac08f76a","system_id":"levelo_inurba_marseille","lat":43.29571,"lon":5.39943,"is_reserved":false,"is_disabled":false,"rental_uris":{"android":"levelo://app?vid=fecdeb5c-f6ad-4d78-b601-b2a3ac08f76a","ios":"levelo://app?vid=fecdeb5c-f6ad-4d78-b601-b2a3ac08f76a"},"vehicle_type_id":"4","last_reported":1752048898,"current_range_meters":15200,"station_id":"ce4bh312rcd13ifvqdj0","pricing_plan_id":"cebpf4jnsgd1na2vs0mg"},{"bike_id":"307dce25-0a18-4942-8770-d0b4c779fd8c","system_id":"levelo_inurba_marseille","lat":43.28035,"lon":5.36945,"is_reserved":false,"is_disabled":false,"rental_uris":{"android":"levelo://app?vid=307dce25-0a18-4942-8770-d0b4c779fd8c","ios":"levelo://app?vid=307dce25-0a18-4942-8770-d0b4c779fd8c"},"vehicle_type_id":"4","last_reported":1752048898,"current_range_meters":15200,"station_id":"ce4bha12rcd13ifvqef0","pricing_plan_id":"cebpf4jnsgd1na2vs0mg"},{"bike_id":"87c4efb6-4350-4a97-8d13-a70898b3f1f8","system_id":"levelo_inurba_marseille","lat":43.29222,"lon":5.36074,"is_reserved":false,"is_disabled":false,"rental_uris":{"android":"levelo://app?vid=87c4efb6-4350-4a97-8d13-a70898b3f1f8","ios":"levelo://app?vid=87c4efb6-4350-4a97-8d13-a70898b3f1f8"},"vehicle_type_id":"4","last_reported":1752048898,"current_range_meters":15200,"station_id":"ce4bhbh2rcd13ifvqeqg","pricing_plan_id":"cebpf4jnsgd1na2vs0mg"},{"bike_id":"2267b742-d2f4-4b32-a8bd-965f91ca2159","system_id":"levelo_inurba_marseille","lat":43.26674,"lon":5.38266,"is_reserved":false,"is_disabled":false,"rental_uris":{"android":"levelo://app?vid=2267b742-d2f4-4b32-a8bd-965f91ca2159","ios":"levelo://app?vid=2267b742-d2f4-4b32-a8bd-965f91ca2159"},"vehicle_type_id":"4","last_reported":1752048898,"current_range_meters":15200,"station_id":"ce4bhg92rcd13ifvqf90","pricing_plan_id":"cebpf4jnsgd1na2vs0mg"},{"bike_id":"7d09f51a-5ced-4bce-a2f4-c7b726d9916f","system_id":"levelo_inurba_marseille","lat":43.3055,"lon":5.3656,"is_reserved":false,"is_disabled":false,"rental_uris":{"android":"levelo://app?vid=7d09f51a-5ced-4bce-a2f4-c7b726d9916f","ios":"levelo://app?vid=7d09f51a-5ced-4bce-a2f4-c7b726d9916f"},"vehicle_type_id":"4","last_reported":1752048898,"current_range_meters":16000,"station_id":"ce4bgs12rcd13ifvqcag","pricing_plan_id":"cebpf4jnsgd1na2vs0mg"},{"bike_id":"a14453a1-8ead-426f-988f-85055d1768df","system_id":"levelo_inurba_marseille","lat":43.28563,"lon":5.39487,"is_reserved":false,"is_disabled":false,"rental_uris":{"android":"levelo://app?vid=a14453a1-8ead-426f-988f-85055d1768df","ios":"levelo://app?vid=a14453a1-8ead-426f-988f-85055d1768df"},"vehicle_type_id":"4","last_reported":1752048898,"current_range_meters":16000,"station_id":"ce4bh292rcd13ifvqdg0","pricing_plan_id":"cebpf4jnsgd1na2vs0mg"},{"bike_id":"b2caa530-bb19-4cc6-a6bd-61e3e1d7432e","system_id":"levelo_inurba_marseille","lat":43.33763,"lon":5.37461,"is_reserved":false,"is_disabled":false,"rental_uris":{"android":"levelo://app?vid=b2caa530-bb19-4cc6-a6bd-61e3e1d7432e","ios":"levelo://app?vid=b2caa530-bb19-4cc6-a6bd-61e3e1d7432e"},"vehicle_type_id":"4","last_reported":1752048898,"current_range_meters":16400,"station_id":"","pricing_plan_id":"cebpf4jnsgd1na2vs0mg"},{"bike_id":"c65bb56a-21f1-4676-bde0-3122778b5462","system_id":"levelo_inurba_marseille","lat":43.29879,"lon":5.404,"is_reserved":false,"is_disabled":false,"rental_uris":{"android":"levelo://app?vid=c65bb56a-21f1-4676-bde0-3122778b5462","ios":"levelo://app?vid=c65bb56a-21f1-4676-bde0-3122778b5462"},"vehicle_type_id":"4","last_reported":1752048898,"current_range_meters":16400,"station_id":"","pricing_plan_id":"cebpf4jnsgd1na2vs0mg"},{"bike_id":"f5c16f07-bc6f-4121-91a7-5ad90eec4f34","system_id":"levelo_inurba_marseille","lat":43.312,"lon":5.37315,"is_reserved":false,"is_disabled":false,"rental_uris":{"android":"levelo://app?vid=f5c16f07-bc6f-4121-91a7-5ad90eec4f34","ios":"levelo://app?vid=f5c16f07-bc6f-4121-91a7-5ad90eec4f34"},"vehicle_type_id":"4","last_reported":1752048898,"current_range_meters":16400,"station_id":"","pricing_plan_id":"cebpf4jnsgd1na2vs0mg"},{"bike_id":"5872761a-f1ac-4411-9899-aa2588a3d72d","system_id":"levelo_inurba_marseille","lat":43.30189,"lon":5.36624,"is_reserved":false,"is_disabled":false,"rental_uris":{"android":"levelo://app?vid=5872761a-f1ac-4411-9899-aa2588a3d72d","ios":"levelo://app?vid=5872761a-f1ac-4411-9899-aa2588a3d72d"},"vehicle_type_id":"4","last_reported":1752048898,"current_range_meters":16400,"station_id":"ce4bgrh2rcd13ifvqc8g","pricing_plan_id":"cebpf4jnsgd1na2vs0mg"},{"bike_id":"4aa77f41-7219-4866-8b46-ec65474dbfdf","system_id":"levelo_inurba_marseille","lat":43.27959,"lon":5.41042,"is_reserved":false,"is_disabled":false,"rental_uris":{"android":"levelo://app?vid=4aa77f41-7219-4866-8b46-ec65474dbfdf","ios":"levelo://app?vid=4aa77f41-7219-4866-8b46-ec65474dbfdf"},"vehicle_type_id":"4","last_reported":1752048898,"current_range_meters":16400,"station_id":"ce4bhnp2rcd13ifvqh0g","pricing_plan_id":"cebpf4jnsgd1na2vs0mg"},{"bike_id":"697d5fc4-b988-4a4e-8323-c1ce5ed61a61","system_id":"levelo_inurba_marseille","lat":43.211869,"lon":5.350725,"is_reserved":false,"is_disabled":false,"rental_uris":{"android":"levelo://app?vid=697d5fc4-b988-4a4e-8323-c1ce5ed61a61","ios":"levelo://app?vid=697d5fc4-b988-4a4e-8323-c1ce5ed61a61"},"vehicle_type_id":"4","last_reported":1752048898,"current_range_meters":16400,"station_id":"st_cvj6sg6p6f1abm77japg","pricing_plan_id":"cebpf4jnsgd1na2vs0mg"},{"bike_id":"b6d9b946-f66a-4c6f-96e5-5d23e176360c","system_id":"levelo_inurba_marseille","lat":43.31315,"lon":5.38172,"is_reserved":false,"is_disabled":false,"rental_uris":{"android":"levelo://app?vid=b6d9b946-f66a-4c6f-96e5-5d23e176360c","ios":"levelo://app?vid=b6d9b946-f66a-4c6f-96e5-5d23e176360c"},"vehicle_type_id":"4","last_reported":1752048898,"current_range_meters":16800,"station_id":"","pricing_plan_id":"cebpf4jnsgd1na2vs0mg"},{"bike_id":"93d6be08-2471-48d7-9948-c35dc9626201","system_id":"levelo_inurba_marseille","lat":43.31714,"lon":5.37647,"is_reserved":false,"is_disabled":false,"rental_uris":{"android":"levelo://app?vid=93d6be08-2471-48d7-9948-c35dc9626201","ios":"levelo://app?vid=93d6be08-2471-48d7-9948-c35dc9626201"},"vehicle_type_id":"4","last_reported":1752048898,"current_range_meters":16800,"station_id":"","pricing_plan_id":"cebpf4jnsgd1na2vs0mg"},{"bike_id":"b757ffbb-2b71-4330-9f60-5f8a9d46d16e","system_id":"levelo_inurba_marseille","lat":43.29639,"lon":5.37138,"is_reserved":false,"is_disabled":false,"rental_uris":{"android":"levelo://app?vid=b757ffbb-2b71-4330-9f60-5f8a9d46d16e","ios":"levelo://app?vid=b757ffbb-2b71-4330-9f60-5f8a9d46d16e"},"vehicle_type_id":"4","last_reported":1752048898,"current_range_meters":16800,"station_id":"ce4bgnh2rcd13ifvqc0g","pricing_plan_id":"cebpf4jnsgd1na2vs0mg"},{"bike_id":"0f952cd8-0583-4e2b-9d88-3aaf30fdc88d","system_id":"levelo_inurba_marseille","lat":43.28089,"lon":5.37837,"is_reserved":false,"is_disabled":false,"rental_uris":{"android":"levelo://app?vid=0f952cd8-0583-4e2b-9d88-3aaf30fdc88d","ios":"levelo://app?vid=0f952cd8-0583-4e2b-9d88-3aaf30fdc88d"},"vehicle_type_id":"4","last_reported":1752048898,"current_range_meters":16800,"station_id":"ce4bha12rcd13ifvqee0","pricing_plan_id":"cebpf4jnsgd1na2vs0mg"},{"bike_id":"ef60d0db-6e9b-4175-9009-30f731558de2","system_id":"levelo_inurba_marseille","lat":43.26559,"lon":5.37276,"is_reserved":false,"is_disabled":false,"rental_uris":{"android":"levelo://app?vid=ef60d0db-6e9b-4175-9009-30f731558de2","ios":"levelo://app?vid=ef60d0db-6e9b-4175-9009-30f731558de2"},"vehicle_type_id":"4","last_reported":1752048898,"current_range_meters":16800,"station_id":"ce4bhg12rcd13ifvqf70","pricing_plan_id":"cebpf4jnsgd1na2vs0mg"},{"bike_id":"7dc48cb7-b742-4446-8d3e-f56bc6d6cf97","system_id":"levelo_inurba_marseille","lat":43.26204,"lon":5.37436,"is_reserved":false,"is_disabled":false,"rental_uris":{"android":"levelo://app?vid=7dc48cb7-b742-4446-8d3e-f56bc6d6cf97","ios":"levelo://app?vid=7dc48cb7-b742-4446-8d3e-f56bc6d6cf97"},"vehicle_type_id":"4","last_reported":1752048898,"current_range_meters":16800,"station_id":"ce4bhgp2rcd13ifvqfc0","pricing_plan_id":"cebpf4jnsgd1na2vs0mg"},{"bike_id":"6e5c2657-ccb8-4153-8b94-2143bc427a03","system_id":"levelo_inurba_marseille","lat":43.22498,"lon":5.34775,"is_reserved":false,"is_disabled":false,"rental_uris":{"android":"levelo://app?vid=6e5c2657-ccb8-4153-8b94-2143bc427a03","ios":"levelo://app?vid=6e5c2657-ccb8-4153-8b94-2143bc427a03"},"vehicle_type_id":"4","last_reported":1752048898,"current_range_meters":16800,"station_id":"st_cvj5dfep6f1abm77gieg","pricing_plan_id":"cebpf4jnsgd1na2vs0mg"},{"bike_id":"b28aa0a0-791c-4a08-9a16-c7bf6ea0ed5a","system_id":"levelo_inurba_marseille","lat":43.22502,"lon":5.34782,"is_reserved":false,"is_disabled":false,"rental_uris":{"android":"levelo://app?vid=b28aa0a0-791c-4a08-9a16-c7bf6ea0ed5a","ios":"levelo://app?vid=b28aa0a0-791c-4a08-9a16-c7bf6ea0ed5a"},"vehicle_type_id":"4","last_reported":1752048898,"current_range_meters":16800,"station_id":"st_cvj5dfep6f1abm77gieg","pricing_plan_id":"cebpf4jnsgd1na2vs0mg"},{"bike_id":"09336cd1-7b2f-46b8-ac6e-85b310d42b0a","system_id":"levelo_inurba_marseille","lat":43.29352,"lon":5.42853,"is_reserved":false,"is_disabled":false,"rental_uris":{"android":"levelo://app?vid=09336cd1-7b2f-46b8-ac6e-85b310d42b0a","ios":"levelo://app?vid=09336cd1-7b2f-46b8-ac6e-85b310d42b0a"},"vehicle_type_id":"4","last_reported":1752048898,"current_range_meters":17200,"station_id":"","pricing_plan_id":"cebpf4jnsgd1na2vs0mg"},{"bike_id":"c443378e-8279-4b98-ae37-8cc35a882701","system_id":"levelo_inurba_marseille","lat":43.31348,"lon":5.36744,"is_reserved":false,"is_disabled":false,"rental_uris":{"android":"levelo://app?vid=c443378e-8279-4b98-ae37-8cc35a882701","ios":"levelo://app?vid=c443378e-8279-4b98-ae37-8cc35a882701"},"vehicle_type_id":"4","last_reported":1752048898,"current_range_meters":17200,"station_id":"ce4bgr92rcd13ifvqc6g","pricing_plan_id":"cebpf4jnsgd1na2vs0mg"},{"bike_id":"5b50be12-0340-4bfb-88fe-3c47affcd9bb","system_id":"levelo_inurba_marseille","lat":43.269264,"lon":5.389183,"is_reserved":false,"is_disabled":false,"rental_uris":{"android":"levelo://app?vid=5b50be12-0340-4bfb-88fe-3c47affcd9bb","ios":"levelo://app?vid=5b50be12-0340-4bfb-88fe-3c47affcd9bb"},"vehicle_type_id":"4","last_reported":1752048898,"current_range_meters":17200,"station_id":"ce4bhhh2rcd13ifvqfl0","pricing_plan_id":"cebpf4jnsgd1na2vs0mg"},{"bike_id":"2af437f4-972e-4e02-af44-06eec9e25442","system_id":"levelo_inurba_marseille","lat":43.27053,"lon":5.40263,"is_reserved":false,"is_disabled":false,"rental_uris":{"android":"levelo://app?vid=2af437f4-972e-4e02-af44-06eec9e25442","ios":"levelo://app?vid=2af437f4-972e-4e02-af44-06eec9e25442"},"vehicle_type_id":"4","last_reported":1752048898,"current_range_meters":17200,"station_id":"ce4bhk92rcd13ifvqgc0","pricing_plan_id":"cebpf4jnsgd1na2vs0mg"},{"bike_id":"65ad5f56-9134-4f81-8739-8a81249ab227","system_id":"levelo_inurba_marseille","lat":43.32472,"lon":5.36557,"is_reserved":false,"is_disabled":false,"rental_uris":{"android":"levelo://app?vid=65ad5f56-9134-4f81-8739-8a81249ab227","ios":"levelo://app?vid=65ad5f56-9134-4f81-8739-8a81249ab227"},"vehicle_type_id":"4","last_reported":1752048898,"current_range_meters":17200,"station_id":"ce4bhs12rcd13ifvqhvg","pricing_plan_id":"cebpf4jnsgd1na2vs0mg"},{"bike_id":"1be39311-cfa5-4cbb-b93d-fb0870d6e611","system_id":"levelo_inurba_marseille","lat":43.21193,"lon":5.35049,"is_reserved":false,"is_disabled":false,"rental_uris":{"android":"levelo://app?vid=1be39311-cfa5-4cbb-b93d-fb0870d6e611","ios":"levelo://app?vid=1be39311-cfa5-4cbb-b93d-fb0870d6e611"},"vehicle_type_id":"4","last_reported":1752048898,"current_range_meters":17200,"station_id":"st_cvj6sg6p6f1abm77japg","pricing_plan_id":"cebpf4jnsgd1na2vs0mg"},{"bike_id":"999f2a33-af15-4ca0-853a-d2550f2d6574","system_id":"levelo_inurba_marseille","lat":43.23437,"lon":5.35941,"is_reserved":false,"is_disabled":false,"rental_uris":{"android":"levelo://app?vid=999f2a33-af15-4ca0-853a-d2550f2d6574","ios":"levelo://app?vid=999f2a33-af15-4ca0-853a-d2550f2d6574"},"vehicle_type_id":"4","last_reported":1752048898,"current_range_meters":17600,"station_id":"","pricing_plan_id":"cebpf4jnsgd1na2vs0mg"},{"bike_id":"b54127fb-ce2e-408a-b95e-87546a698faf","system_id":"levelo_inurba_marseille","lat":43.31384,"lon":5.367,"is_reserved":false,"is_disabled":false,"rental_uris":{"android":"levelo://app?vid=b54127fb-ce2e-408a-b95e-87546a698faf","ios":"levelo://app?vid=b54127fb-ce2e-408a-b95e-87546a698faf"},"vehicle_type_id":"4","last_reported":1752048898,"current_range_meters":17600,"station_id":"","pricing_plan_id":"cebpf4jnsgd1na2vs0mg"},{"bike_id":"320f2a33-deaa-4e0a-a3d5-c39ce8ad680a","system_id":"levelo_inurba_marseille","lat":43.31545,"lon":5.374,"is_reserved":false,"is_disabled":false,"rental_uris":{"android":"levelo://app?vid=320f2a33-deaa-4e0a-a3d5-c39ce8ad680a","ios":"levelo://app?vid=320f2a33-deaa-4e0a-a3d5-c39ce8ad680a"},"vehicle_type_id":"4","last_reported":1752048898,"current_range_meters":17600,"station_id":"","pricing_plan_id":"cebpf4jnsgd1na2vs0mg"},{"bike_id":"191da7b9-bed7-4843-89f5-6df19e076b49","system_id":"levelo_inurba_marseille","lat":43.28616,"lon":5.351,"is_reserved":false,"is_disabled":false,"rental_uris":{"android":"levelo://app?vid=191da7b9-bed7-4843-89f5-6df19e076b49","ios":"levelo://app?vid=191da7b9-bed7-4843-89f5-6df19e076b49"},"vehicle_type_id":"4","last_reported":1752048898,"current_range_meters":17600,"station_id":"ce4bhch2rcd13ifvqeug","pricing_plan_id":"cebpf4jnsgd1na2vs0mg"},{"bike_id":"1108d251-1fbf-4200-9d91-40a53f8f35f5","system_id":"levelo_inurba_marseille","lat":43.26687,"lon":5.38262,"is_reserved":false,"is_disabled":false,"rental_uris":{"android":"levelo://app?vid=1108d251-1fbf-4200-9d91-40a53f8f35f5","ios":"levelo://app?vid=1108d251-1fbf-4200-9d91-40a53f8f35f5"},"vehicle_type_id":"4","last_reported":1752048898,"current_range_meters":17600,"station_id":"ce4bhg92rcd13ifvqf90","pricing_plan_id":"cebpf4jnsgd1na2vs0mg"},{"bike_id":"04e7b77f-3ec2-407c-9a46-7e17b706e799","system_id":"levelo_inurba_marseille","lat":43.24174,"lon":5.39703,"is_reserved":false,"is_disabled":false,"rental_uris":{"android":"levelo://app?vid=04e7b77f-3ec2-407c-9a46-7e17b706e799","ios":"levelo://app?vid=04e7b77f-3ec2-407c-9a46-7e17b706e799"},"vehicle_type_id":"4","last_reported":1752048898,"current_range_meters":17600,"station_id":"ce4bhn12rcd13ifvqgpg","pricing_plan_id":"cebpf4jnsgd1na2vs0mg"},{"bike_id":"f0af3478-00ba-4143-b6ec-2f3005d166eb","system_id":"levelo_inurba_marseille","lat":43.33725,"lon":5.3919,"is_reserved":false,"is_disabled":false,"rental_uris":{"android":"levelo://app?vid=f0af3478-00ba-4143-b6ec-2f3005d166eb","ios":"levelo://app?vid=f0af3478-00ba-4143-b6ec-2f3005d166eb"},"vehicle_type_id":"4","last_reported":1752048898,"current_range_meters":17600,"station_id":"ce4bhr92rcd13ifvqhsg","pricing_plan_id":"cebpf4jnsgd1na2vs0mg"},{"bike_id":"7a305d51-5742-4308-b8f1-f89a7aed6968","system_id":"levelo_inurba_marseille","lat":43.32355,"lon":5.36769,"is_reserved":false,"is_disabled":false,"rental_uris":{"android":"levelo://app?vid=7a305d51-5742-4308-b8f1-f89a7aed6968","ios":"levelo://app?vid=7a305d51-5742-4308-b8f1-f89a7aed6968"},"vehicle_type_id":"4","last_reported":1752048898,"current_range_meters":17600,"station_id":"ce4bhsh2rcd13ifvqi2g","pricing_plan_id":"cebpf4jnsgd1na2vs0mg"},{"bike_id":"a443e824-b364-4874-850c-3d51c9448eb3","system_id":"levelo_inurba_marseille","lat":43.30892,"lon":5.36862,"is_reserved":false,"is_disabled":false,"rental_uris":{"android":"levelo://app?vid=a443e824-b364-4874-850c-3d51c9448eb3","ios":"levelo://app?vid=a443e824-b364-4874-850c-3d51c9448eb3"},"vehicle_type_id":"4","last_reported":1752048898,"current_range_meters":18000,"station_id":"ce4bgn92rcd13ifvqbvg","pricing_plan_id":"cebpf4jnsgd1na2vs0mg"},{"bike_id":"642cd0fc-86ac-4960-ba5b-712cef92e6d9","system_id":"levelo_inurba_marseille","lat":43.29854,"lon":5.36273,"is_reserved":false,"is_disabled":false,"rental_uris":{"android":"levelo://app?vid=642cd0fc-86ac-4960-ba5b-712cef92e6d9","ios":"levelo://app?vid=642cd0fc-86ac-4960-ba5b-712cef92e6d9"},"vehicle_type_id":"4","last_reported":1752048898,"current_range_meters":18000,"station_id":"ce4bgpp2rcd13ifvqc3g","pricing_plan_id":"cebpf4jnsgd1na2vs0mg"},{"bike_id":"50777cca-ae04-4348-a55c-24cfae8ebe00","system_id":"levelo_inurba_marseille","lat":43.30547,"lon":5.36532,"is_reserved":false,"is_disabled":false,"rental_uris":{"android":"levelo://app?vid=50777cca-ae04-4348-a55c-24cfae8ebe00","ios":"levelo://app?vid=50777cca-ae04-4348-a55c-24cfae8ebe00"},"vehicle_type_id":"4","last_reported":1752048898,"current_range_meters":18000,"station_id":"ce4bgs12rcd13ifvqcag","pricing_plan_id":"cebpf4jnsgd1na2vs0mg"},{"bike_id":"b7bd0a60-0d63-49eb-b04b-3c6e4ea787e2","system_id":"levelo_inurba_marseille","lat":43.28605,"lon":5.35094,"is_reserved":false,"is_disabled":false,"rental_uris":{"android":"levelo://app?vid=b7bd0a60-0d63-49eb-b04b-3c6e4ea787e2","ios":"levelo://app?vid=b7bd0a60-0d63-49eb-b04b-3c6e4ea787e2"},"vehicle_type_id":"4","last_reported":1752048898,"current_range_meters":18000,"station_id":"ce4bhch2rcd13ifvqeug","pricing_plan_id":"cebpf4jnsgd1na2vs0mg"},{"bike_id":"a110e4eb-161f-4320-9137-6b14ec3e726d","system_id":"levelo_inurba_marseille","lat":43.25932,"lon":5.4091,"is_reserved":false,"is_disabled":false,"rental_uris":{"android":"levelo://app?vid=a110e4eb-161f-4320-9137-6b14ec3e726d","ios":"levelo://app?vid=a110e4eb-161f-4320-9137-6b14ec3e726d"},"vehicle_type_id":"4","last_reported":1752048898,"current_range_meters":18000,"station_id":"ce4bhm92rcd13ifvqglg","pricing_plan_id":"cebpf4jnsgd1na2vs0mg"},{"bike_id":"c0735136-e0f1-410b-b7bc-03f3deffba27","system_id":"levelo_inurba_marseille","lat":43.217473,"lon":5.346059,"is_reserved":false,"is_disabled":false,"rental_uris":{"android":"levelo://app?vid=c0735136-e0f1-410b-b7bc-03f3deffba27","ios":"levelo://app?vid=c0735136-e0f1-410b-b7bc-03f3deffba27"},"vehicle_type_id":"4","last_reported":1752048898,"current_range_meters":18000,"station_id":"st_cvj6r9ubvosntc0bgbag","pricing_plan_id":"cebpf4jnsgd1na2vs0mg"},{"bike_id":"35b12aa1-d9d7-4388-b3a5-b5be5cbdd941","system_id":"levelo_inurba_marseille","lat":43.295661,"lon":5.375481,"is_reserved":false,"is_disabled":false,"rental_uris":{"android":"levelo://app?vid=35b12aa1-d9d7-4388-b3a5-b5be5cbdd941","ios":"levelo://app?vid=35b12aa1-d9d7-4388-b3a5-b5be5cbdd941"},"vehicle_type_id":"4","last_reported":1752048898,"current_range_meters":18800,"station_id":"ce4bgh92rcd13ifvqb50","pricing_plan_id":"cebpf4jnsgd1na2vs0mg"},{"bike_id":"37220a67-7406-40ce-ae4c-01302fa19e2d","system_id":"levelo_inurba_marseille","lat":43.29837,"lon":5.36268,"is_reserved":false,"is_disabled":false,"rental_uris":{"android":"levelo://app?vid=37220a67-7406-40ce-ae4c-01302fa19e2d","ios":"levelo://app?vid=37220a67-7406-40ce-ae4c-01302fa19e2d"},"vehicle_type_id":"4","last_reported":1752048898,"current_range_meters":18800,"station_id":"ce4bgpp2rcd13ifvqc3g","pricing_plan_id":"cebpf4jnsgd1na2vs0mg"},{"bike_id":"f38e7fdd-e2cf-486c-8ac9-52d202d51789","system_id":"levelo_inurba_marseille","lat":43.28397,"lon":5.37521,"is_reserved":false,"is_disabled":false,"rental_uris":{"android":"levelo://app?vid=f38e7fdd-e2cf-486c-8ac9-52d202d51789","ios":"levelo://app?vid=f38e7fdd-e2cf-486c-8ac9-52d202d51789"},"vehicle_type_id":"4","last_reported":1752048898,"current_range_meters":18800,"station_id":"ce4bh412rcd13ifvqds0","pricing_plan_id":"cebpf4jnsgd1na2vs0mg"},{"bike_id":"3b90dd8d-00a3-48a9-89a1-3657ce9e5a09","system_id":"levelo_inurba_marseille","lat":43.23956,"lon":5.36619,"is_reserved":false,"is_disabled":false,"rental_uris":{"android":"levelo://app?vid=3b90dd8d-00a3-48a9-89a1-3657ce9e5a09","ios":"levelo://app?vid=3b90dd8d-00a3-48a9-89a1-3657ce9e5a09"},"vehicle_type_id":"4","last_reported":1752048898,"current_range_meters":18800,"station_id":"ce4bhi12rcd13ifvqfp0","pricing_plan_id":"cebpf4jnsgd1na2vs0mg"},{"bike_id":"032a14ce-e367-40e6-a795-74d0ad4487ac","system_id":"levelo_inurba_marseille","lat":43.25914,"lon":5.40937,"is_reserved":false,"is_disabled":false,"rental_uris":{"android":"levelo://app?vid=032a14ce-e367-40e6-a795-74d0ad4487ac","ios":"levelo://app?vid=032a14ce-e367-40e6-a795-74d0ad4487ac"},"vehicle_type_id":"4","last_reported":1752048898,"current_range_meters":18800,"station_id":"ce4bhm92rcd13ifvqglg","pricing_plan_id":"cebpf4jnsgd1na2vs0mg"},{"bike_id":"0dde599a-9e49-4424-bf17-46b64f156432","system_id":"levelo_inurba_marseille","lat":43.24076,"lon":5.37746,"is_reserved":false,"is_disabled":false,"rental_uris":{"android":"levelo://app?vid=0dde599a-9e49-4424-bf17-46b64f156432","ios":"levelo://app?vid=0dde599a-9e49-4424-bf17-46b64f156432"},"vehicle_type_id":"4","last_reported":1752048898,"current_range_meters":18800,"station_id":"ce4bhnp2rcd13ifvqgvg","pricing_plan_id":"cebpf4jnsgd1na2vs0mg"},{"bike_id":"e9c52e2e-1391-4329-8438-e4f2c2348935","system_id":"levelo_inurba_marseille","lat":43.25217,"lon":5.39434,"is_reserved":false,"is_disabled":false,"rental_uris":{"android":"levelo://app?vid=e9c52e2e-1391-4329-8438-e4f2c2348935","ios":"levelo://app?vid=e9c52e2e-1391-4329-8438-e4f2c2348935"},"vehicle_type_id":"4","last_reported":1752048898,"current_range_meters":19200,"station_id":"","pricing_plan_id":"cebpf4jnsgd1na2vs0mg"},{"bike_id":"46a1ab5c-2da1-48cc-a367-a42477cc10f6","system_id":"levelo_inurba_marseille","lat":43.28398,"lon":5.37522,"is_reserved":false,"is_disabled":false,"rental_uris":{"android":"levelo://app?vid=46a1ab5c-2da1-48cc-a367-a42477cc10f6","ios":"levelo://app?vid=46a1ab5c-2da1-48cc-a367-a42477cc10f6"},"vehicle_type_id":"4","last_reported":1752048898,"current_range_meters":19200,"station_id":"ce4bh412rcd13ifvqds0","pricing_plan_id":"cebpf4jnsgd1na2vs0mg"},{"bike_id":"a607182a-6807-4fee-8d3a-89579929fa3a","system_id":"levelo_inurba_marseille","lat":43.29008,"lon":5.3561,"is_reserved":false,"is_disabled":false,"rental_uris":{"android":"levelo://app?vid=a607182a-6807-4fee-8d3a-89579929fa3a","ios":"levelo://app?vid=a607182a-6807-4fee-8d3a-89579929fa3a"},"vehicle_type_id":"4","last_reported":1752048898,"current_range_meters":19200,"station_id":"ce4bhb92rcd13ifvqen0","pricing_plan_id":"cebpf4jnsgd1na2vs0mg"},{"bike_id":"89113bbf-e59a-49f5-b775-afbef37f5ca8","system_id":"levelo_inurba_marseille","lat":43.24544,"lon":5.39523,"is_reserved":false,"is_disabled":false,"rental_uris":{"android":"levelo://app?vid=89113bbf-e59a-49f5-b775-afbef37f5ca8","ios":"levelo://app?vid=89113bbf-e59a-49f5-b775-afbef37f5ca8"},"vehicle_type_id":"4","last_reported":1752048898,"current_range_meters":19200,"station_id":"ce4bhlp2rcd13ifvqgjg","pricing_plan_id":"cebpf4jnsgd1na2vs0mg"},{"bike_id":"ff1f8117-8a3b-46bb-8357-a9733f3f138e","system_id":"levelo_inurba_marseille","lat":43.32478,"lon":5.36555,"is_reserved":false,"is_disabled":false,"rental_uris":{"android":"levelo://app?vid=ff1f8117-8a3b-46bb-8357-a9733f3f138e","ios":"levelo://app?vid=ff1f8117-8a3b-46bb-8357-a9733f3f138e"},"vehicle_type_id":"4","last_reported":1752048898,"current_range_meters":19200,"station_id":"ce4bhs12rcd13ifvqhvg","pricing_plan_id":"cebpf4jnsgd1na2vs0mg"},{"bike_id":"36c387ea-be50-4028-8ecc-21605fe3e879","system_id":"levelo_inurba_marseille","lat":43.29346,"lon":5.42838,"is_reserved":false,"is_disabled":false,"rental_uris":{"android":"levelo://app?vid=36c387ea-be50-4028-8ecc-21605fe3e879","ios":"levelo://app?vid=36c387ea-be50-4028-8ecc-21605fe3e879"},"vehicle_type_id":"4","last_reported":1752048898,"current_range_meters":19600,"station_id":"","pricing_plan_id":"cebpf4jnsgd1na2vs0mg"},{"bike_id":"8b52e051-4e83-4103-a98d-28f12690ba46","system_id":"levelo_inurba_marseille","lat":43.30535,"lon":5.38336,"is_reserved":false,"is_disabled":false,"rental_uris":{"android":"levelo://app?vid=8b52e051-4e83-4103-a98d-28f12690ba46","ios":"levelo://app?vid=8b52e051-4e83-4103-a98d-28f12690ba46"},"vehicle_type_id":"4","last_reported":1752048898,"current_range_meters":19600,"station_id":"","pricing_plan_id":"cebpf4jnsgd1na2vs0mg"},{"bike_id":"feaa7e3a-cbe4-4489-be11-8a12d7eec173","system_id":"levelo_inurba_marseille","lat":43.25232,"lon":5.42578,"is_reserved":false,"is_disabled":false,"rental_uris":{"android":"levelo://app?vid=feaa7e3a-cbe4-4489-be11-8a12d7eec173","ios":"levelo://app?vid=feaa7e3a-cbe4-4489-be11-8a12d7eec173"},"vehicle_type_id":"4","last_reported":1752048898,"current_range_meters":19600,"station_id":"","pricing_plan_id":"cebpf4jnsgd1na2vs0mg"},{"bike_id":"63035bab-5ed0-4610-8d9c-dd901bc6c9a5","system_id":"levelo_inurba_marseille","lat":43.31112,"lon":5.37764,"is_reserved":false,"is_disabled":false,"rental_uris":{"android":"levelo://app?vid=63035bab-5ed0-4610-8d9c-dd901bc6c9a5","ios":"levelo://app?vid=63035bab-5ed0-4610-8d9c-dd901bc6c9a5"},"vehicle_type_id":"4","last_reported":1752048898,"current_range_meters":19600,"station_id":"ce4bgt92rcd13ifvqcg0","pricing_plan_id":"cebpf4jnsgd1na2vs0mg"},{"bike_id":"a1d9a085-416f-4357-80cc-c27b13477654","system_id":"levelo_inurba_marseille","lat":43.292365,"lon":5.360452,"is_reserved":false,"is_disabled":false,"rental_uris":{"android":"levelo://app?vid=a1d9a085-416f-4357-80cc-c27b13477654","ios":"levelo://app?vid=a1d9a085-416f-4357-80cc-c27b13477654"},"vehicle_type_id":"4","last_reported":1752048898,"current_range_meters":19600,"station_id":"ce4bhbh2rcd13ifvqeqg","pricing_plan_id":"cebpf4jnsgd1na2vs0mg"},{"bike_id":"055d33b9-d060-43ca-809c-4bc7ac5fc9d9","system_id":"levelo_inurba_marseille","lat":43.24388,"lon":5.37069,"is_reserved":false,"is_disabled":false,"rental_uris":{"android":"levelo://app?vid=055d33b9-d060-43ca-809c-4bc7ac5fc9d9","ios":"levelo://app?vid=055d33b9-d060-43ca-809c-4bc7ac5fc9d9"},"vehicle_type_id":"4","last_reported":1752048898,"current_range_meters":19600,"station_id":"ce4bhhh2rcd13ifvqfk0","pricing_plan_id":"cebpf4jnsgd1na2vs0mg"},{"bike_id":"c7b25214-e785-4cd1-a30d-6df30d28c089","system_id":"levelo_inurba_marseille","lat":43.21747,"lon":5.34592,"is_reserved":false,"is_disabled":false,"rental_uris":{"android":"levelo://app?vid=c7b25214-e785-4cd1-a30d-6df30d28c089","ios":"levelo://app?vid=c7b25214-e785-4cd1-a30d-6df30d28c089"},"vehicle_type_id":"4","last_reported":1752048898,"current_range_meters":19600,"station_id":"st_cvj6r9ubvosntc0bgbag","pricing_plan_id":"cebpf4jnsgd1na2vs0mg"},{"bike_id":"87d13c3c-9453-4492-8a8f-f2b4c8e828c6","system_id":"levelo_inurba_marseille","lat":43.26177,"lon":5.37049,"is_reserved":false,"is_disabled":false,"rental_uris":{"android":"levelo://app?vid=87d13c3c-9453-4492-8a8f-f2b4c8e828c6","ios":"levelo://app?vid=87d13c3c-9453-4492-8a8f-f2b4c8e828c6"},"vehicle_type_id":"4","last_reported":1752048898,"current_range_meters":20000,"station_id":"","pricing_plan_id":"cebpf4jnsgd1na2vs0mg"},{"bike_id":"d3494ff1-68c7-4962-90af-bb7e956cdb28","system_id":"levelo_inurba_marseille","lat":43.3122,"lon":5.3686,"is_reserved":false,"is_disabled":false,"rental_uris":{"android":"levelo://app?vid=d3494ff1-68c7-4962-90af-bb7e956cdb28","ios":"levelo://app?vid=d3494ff1-68c7-4962-90af-bb7e956cdb28"},"vehicle_type_id":"4","last_reported":1752048898,"current_range_meters":20000,"station_id":"ce4bgl92rcd13ifvqbq0","pricing_plan_id":"cebpf4jnsgd1na2vs0mg"},{"bike_id":"c57b4d2b-6db5-4b84-a478-eb371a5d4663","system_id":"levelo_inurba_marseille","lat":43.29864,"lon":5.39737,"is_reserved":false,"is_disabled":false,"rental_uris":{"android":"levelo://app?vid=c57b4d2b-6db5-4b84-a478-eb371a5d4663","ios":"levelo://app?vid=c57b4d2b-6db5-4b84-a478-eb371a5d4663"},"vehicle_type_id":"4","last_reported":1752048898,"current_range_meters":20000,"station_id":"ce4bh0h2rcd13ifvqd50","pricing_plan_id":"cebpf4jnsgd1na2vs0mg"},{"bike_id":"426c02c5-df16-42fe-aa6c-bf5c19515c38","system_id":"levelo_inurba_marseille","lat":43.29005,"lon":5.35602,"is_reserved":false,"is_disabled":false,"rental_uris":{"android":"levelo://app?vid=426c02c5-df16-42fe-aa6c-bf5c19515c38","ios":"levelo://app?vid=426c02c5-df16-42fe-aa6c-bf5c19515c38"},"vehicle_type_id":"4","last_reported":1752048898,"current_range_meters":20000,"station_id":"ce4bhb92rcd13ifvqen0","pricing_plan_id":"cebpf4jnsgd1na2vs0mg"},{"bike_id":"fe393e70-3017-4f74-9643-ce2ab31a2adc","system_id":"levelo_inurba_marseille","lat":43.286154,"lon":5.351054,"is_reserved":false,"is_disabled":false,"rental_uris":{"android":"levelo://app?vid=fe393e70-3017-4f74-9643-ce2ab31a2adc","ios":"levelo://app?vid=fe393e70-3017-4f74-9643-ce2ab31a2adc"},"vehicle_type_id":"4","last_reported":1752048898,"current_range_meters":20000,"station_id":"ce4bhch2rcd13ifvqeug","pricing_plan_id":"cebpf4jnsgd1na2vs0mg"},{"bike_id":"ef6311b9-c394-4e85-b3f2-bf62d7fa6877","system_id":"levelo_inurba_marseille","lat":43.245477,"lon":5.395235,"is_reserved":false,"is_disabled":false,"rental_uris":{"android":"levelo://app?vid=ef6311b9-c394-4e85-b3f2-bf62d7fa6877","ios":"levelo://app?vid=ef6311b9-c394-4e85-b3f2-bf62d7fa6877"},"vehicle_type_id":"4","last_reported":1752048898,"current_range_meters":20000,"station_id":"ce4bhlp2rcd13ifvqgjg","pricing_plan_id":"cebpf4jnsgd1na2vs0mg"},{"bike_id":"b5fa330e-5ca6-42cb-8a52-f0065d2fe680","system_id":"levelo_inurba_marseille","lat":43.23147,"lon":5.43725,"is_reserved":false,"is_disabled":false,"rental_uris":{"android":"levelo://app?vid=b5fa330e-5ca6-42cb-8a52-f0065d2fe680","ios":"levelo://app?vid=b5fa330e-5ca6-42cb-8a52-f0065d2fe680"},"vehicle_type_id":"4","last_reported":1752048898,"current_range_meters":20000,"station_id":"ce4bhmp2rcd13ifvqgog","pricing_plan_id":"cebpf4jnsgd1na2vs0mg"},{"bike_id":"aca47642-4ceb-4a40-bae0-66b7f0d6dee2","system_id":"levelo_inurba_marseille","lat":43.22496,"lon":5.34787,"is_reserved":false,"is_disabled":false,"rental_uris":{"android":"levelo://app?vid=aca47642-4ceb-4a40-bae0-66b7f0d6dee2","ios":"levelo://app?vid=aca47642-4ceb-4a40-bae0-66b7f0d6dee2"},"vehicle_type_id":"4","last_reported":1752048898,"current_range_meters":20000,"station_id":"st_cvj5dfep6f1abm77gieg","pricing_plan_id":"cebpf4jnsgd1na2vs0mg"},{"bike_id":"9f5e74ce-2459-4c6f-a171-f6d1e8a1ed83","system_id":"levelo_inurba_marseille","lat":43.31837,"lon":5.3756,"is_reserved":false,"is_disabled":false,"rental_uris":{"android":"levelo://app?vid=9f5e74ce-2459-4c6f-a171-f6d1e8a1ed83","ios":"levelo://app?vid=9f5e74ce-2459-4c6f-a171-f6d1e8a1ed83"},"vehicle_type_id":"4","last_reported":1752048898,"current_range_meters":20400,"station_id":"","pricing_plan_id":"cebpf4jnsgd1na2vs0mg"},{"bike_id":"4d889095-211b-43ae-9773-7f2e3440583f","system_id":"levelo_inurba_marseille","lat":43.301544,"lon":5.380965,"is_reserved":false,"is_disabled":false,"rental_uris":{"android":"levelo://app?vid=4d889095-211b-43ae-9773-7f2e3440583f","ios":"levelo://app?vid=4d889095-211b-43ae-9773-7f2e3440583f"},"vehicle_type_id":"4","last_reported":1752048898,"current_range_meters":20400,"station_id":"ce4bgjp2rcd13ifvqbh0","pricing_plan_id":"cebpf4jnsgd1na2vs0mg"},{"bike_id":"32a62487-ecbb-4881-8526-16ca13257b4f","system_id":"levelo_inurba_marseille","lat":43.26489,"lon":5.39531,"is_reserved":false,"is_disabled":false,"rental_uris":{"android":"levelo://app?vid=32a62487-ecbb-4881-8526-16ca13257b4f","ios":"levelo://app?vid=32a62487-ecbb-4881-8526-16ca13257b4f"},"vehicle_type_id":"4","last_reported":1752048898,"current_range_meters":20400,"station_id":"ce4bhi12rcd13ifvqfq0","pricing_plan_id":"cebpf4jnsgd1na2vs0mg"},{"bike_id":"30de9787-1651-44c2-be7f-f2b9b2b8362d","system_id":"levelo_inurba_marseille","lat":43.25577,"lon":5.38235,"is_reserved":false,"is_disabled":false,"rental_uris":{"android":"levelo://app?vid=30de9787-1651-44c2-be7f-f2b9b2b8362d","ios":"levelo://app?vid=30de9787-1651-44c2-be7f-f2b9b2b8362d"},"vehicle_type_id":"4","last_reported":1752048898,"current_range_meters":20400,"station_id":"ce4bhih2rcd13ifvqfs0","pricing_plan_id":"cebpf4jnsgd1na2vs0mg"},{"bike_id":"f35a2e3a-a562-4fa0-9843-1232e645edad","system_id":"levelo_inurba_marseille","lat":43.32473,"lon":5.36553,"is_reserved":false,"is_disabled":false,"rental_uris":{"android":"levelo://app?vid=f35a2e3a-a562-4fa0-9843-1232e645edad","ios":"levelo://app?vid=f35a2e3a-a562-4fa0-9843-1232e645edad"},"vehicle_type_id":"4","last_reported":1752048898,"current_range_meters":20400,"station_id":"ce4bhs12rcd13ifvqhvg","pricing_plan_id":"cebpf4jnsgd1na2vs0mg"},{"bike_id":"a2bd025b-f0e6-4a3d-b3d9-ebfa621fa75c","system_id":"levelo_inurba_marseille","lat":43.2293,"lon":5.353769,"is_reserved":false,"is_disabled":false,"rental_uris":{"android":"levelo://app?vid=a2bd025b-f0e6-4a3d-b3d9-ebfa621fa75c","ios":"levelo://app?vid=a2bd025b-f0e6-4a3d-b3d9-ebfa621fa75c"},"vehicle_type_id":"4","last_reported":1752048898,"current_range_meters":20400,"station_id":"cpo3532slgdg3j2ikp40","pricing_plan_id":"cebpf4jnsgd1na2vs0mg"},{"bike_id":"fa87fcb5-aacb-41a1-a789-0296bbd02085","system_id":"levelo_inurba_marseille","lat":43.24569,"lon":5.37382,"is_reserved":false,"is_disabled":false,"rental_uris":{"android":"levelo://app?vid=fa87fcb5-aacb-41a1-a789-0296bbd02085","ios":"levelo://app?vid=fa87fcb5-aacb-41a1-a789-0296bbd02085"},"vehicle_type_id":"4","last_reported":1752048898,"current_range_meters":20800,"station_id":"","pricing_plan_id":"cebpf4jnsgd1na2vs0mg"},{"bike_id":"fde530d0-eeed-4692-bb9c-2c65ba0cdd9f","system_id":"levelo_inurba_marseille","lat":43.30851,"lon":5.42589,"is_reserved":false,"is_disabled":false,"rental_uris":{"android":"levelo://app?vid=fde530d0-eeed-4692-bb9c-2c65ba0cdd9f","ios":"levelo://app?vid=fde530d0-eeed-4692-bb9c-2c65ba0cdd9f"},"vehicle_type_id":"4","last_reported":1752048898,"current_range_meters":20800,"station_id":"","pricing_plan_id":"cebpf4jnsgd1na2vs0mg"},{"bike_id":"d59a6c8c-8673-42b0-b2d3-be5fa1c0b437","system_id":"levelo_inurba_marseille","lat":43.30907,"lon":5.37172,"is_reserved":false,"is_disabled":false,"rental_uris":{"android":"levelo://app?vid=d59a6c8c-8673-42b0-b2d3-be5fa1c0b437","ios":"levelo://app?vid=d59a6c8c-8673-42b0-b2d3-be5fa1c0b437"},"vehicle_type_id":"4","last_reported":1752048898,"current_range_meters":20800,"station_id":"ce4bguh2rcd13ifvqckg","pricing_plan_id":"cebpf4jnsgd1na2vs0mg"},{"bike_id":"c8cc5159-e1f8-4592-b759-667100c2702b","system_id":"levelo_inurba_marseille","lat":43.26198,"lon":5.37932,"is_reserved":false,"is_disabled":false,"rental_uris":{"android":"levelo://app?vid=c8cc5159-e1f8-4592-b759-667100c2702b","ios":"levelo://app?vid=c8cc5159-e1f8-4592-b759-667100c2702b"},"vehicle_type_id":"4","last_reported":1752048898,"current_range_meters":20800,"station_id":"ce4bhjp2rcd13ifvqg90","pricing_plan_id":"cebpf4jnsgd1na2vs0mg"},{"bike_id":"92be7e9f-0c62-4241-ba9b-8185c68d5343","system_id":"levelo_inurba_marseille","lat":43.241758,"lon":5.39724,"is_reserved":false,"is_disabled":false,"rental_uris":{"android":"levelo://app?vid=92be7e9f-0c62-4241-ba9b-8185c68d5343","ios":"levelo://app?vid=92be7e9f-0c62-4241-ba9b-8185c68d5343"},"vehicle_type_id":"4","last_reported":1752048898,"current_range_meters":20800,"station_id":"ce4bhn12rcd13ifvqgpg","pricing_plan_id":"cebpf4jnsgd1na2vs0mg"},{"bike_id":"ce7aef63-53a4-4c09-8f27-efac76b1bcd8","system_id":"levelo_inurba_marseille","lat":43.27809,"lon":5.40708,"is_reserved":false,"is_disabled":false,"rental_uris":{"android":"levelo://app?vid=ce7aef63-53a4-4c09-8f27-efac76b1bcd8","ios":"levelo://app?vid=ce7aef63-53a4-4c09-8f27-efac76b1bcd8"},"vehicle_type_id":"4","last_reported":1752048898,"current_range_meters":20800,"station_id":"ce4bhnh2rcd13ifvqgtg","pricing_plan_id":"cebpf4jnsgd1na2vs0mg"},{"bike_id":"700b63cc-2853-4da0-81a7-2469c055343f","system_id":"levelo_inurba_marseille","lat":43.27807,"lon":5.40712,"is_reserved":false,"is_disabled":false,"rental_uris":{"android":"levelo://app?vid=700b63cc-2853-4da0-81a7-2469c055343f","ios":"levelo://app?vid=700b63cc-2853-4da0-81a7-2469c055343f"},"vehicle_type_id":"4","last_reported":1752048898,"current_range_meters":20800,"station_id":"ce4bhnh2rcd13ifvqgtg","pricing_plan_id":"cebpf4jnsgd1na2vs0mg"},{"bike_id":"243b994a-4393-463f-a628-a08036d84daf","system_id":"levelo_inurba_marseille","lat":43.29506,"lon":5.37514,"is_reserved":false,"is_disabled":false,"rental_uris":{"android":"levelo://app?vid=243b994a-4393-463f-a628-a08036d84daf","ios":"levelo://app?vid=243b994a-4393-463f-a628-a08036d84daf"},"vehicle_type_id":"4","last_reported":1752048898,"current_range_meters":21600,"station_id":"ce4bgkp2rcd13ifvqbmg","pricing_plan_id":"cebpf4jnsgd1na2vs0mg"},{"bike_id":"3f1e9d59-ce0c-4e36-b34c-4d1bfacdc625","system_id":"levelo_inurba_marseille","lat":43.29844,"lon":5.36263,"is_reserved":false,"is_disabled":false,"rental_uris":{"android":"levelo://app?vid=3f1e9d59-ce0c-4e36-b34c-4d1bfacdc625","ios":"levelo://app?vid=3f1e9d59-ce0c-4e36-b34c-4d1bfacdc625"},"vehicle_type_id":"4","last_reported":1752048898,"current_range_meters":21600,"station_id":"ce4bgpp2rcd13ifvqc3g","pricing_plan_id":"cebpf4jnsgd1na2vs0mg"},{"bike_id":"f8441ac5-384c-4d39-b4b3-2bcd24cd9619","system_id":"levelo_inurba_marseille","lat":43.31371,"lon":5.36709,"is_reserved":false,"is_disabled":false,"rental_uris":{"android":"levelo://app?vid=f8441ac5-384c-4d39-b4b3-2bcd24cd9619","ios":"levelo://app?vid=f8441ac5-384c-4d39-b4b3-2bcd24cd9619"},"vehicle_type_id":"4","last_reported":1752048898,"current_range_meters":21600,"station_id":"ce4bgr92rcd13ifvqc6g","pricing_plan_id":"cebpf4jnsgd1na2vs0mg"},{"bike_id":"58832fd2-9c1b-4f6b-b117-c8c06a291b75","system_id":"levelo_inurba_marseille","lat":43.289231,"lon":5.384095,"is_reserved":false,"is_disabled":false,"rental_uris":{"android":"levelo://app?vid=58832fd2-9c1b-4f6b-b117-c8c06a291b75","ios":"levelo://app?vid=58832fd2-9c1b-4f6b-b117-c8c06a291b75"},"vehicle_type_id":"4","last_reported":1752048898,"current_range_meters":21600,"station_id":"ce4bh612rcd13ifvqe6g","pricing_plan_id":"cebpf4jnsgd1na2vs0mg"},{"bike_id":"034dbee7-f58f-4e6d-be73-78dcef49e22f","system_id":"levelo_inurba_marseille","lat":43.28983,"lon":5.37831,"is_reserved":false,"is_disabled":false,"rental_uris":{"android":"levelo://app?vid=034dbee7-f58f-4e6d-be73-78dcef49e22f","ios":"levelo://app?vid=034dbee7-f58f-4e6d-be73-78dcef49e22f"},"vehicle_type_id":"4","last_reported":1752048898,"current_range_meters":21600,"station_id":"ce4bh9p2rcd13ifvqed0","pricing_plan_id":"cebpf4jnsgd1na2vs0mg"},{"bike_id":"51d3cab3-3bb3-4357-a3a5-f7dd39edc0c5","system_id":"levelo_inurba_marseille","lat":43.25451,"lon":5.37946,"is_reserved":false,"is_disabled":false,"rental_uris":{"android":"levelo://app?vid=51d3cab3-3bb3-4357-a3a5-f7dd39edc0c5","ios":"levelo://app?vid=51d3cab3-3bb3-4357-a3a5-f7dd39edc0c5"},"vehicle_type_id":"4","last_reported":1752048898,"current_range_meters":22000,"station_id":"","pricing_plan_id":"cebpf4jnsgd1na2vs0mg"},{"bike_id":"4e209b0c-855f-4b51-8120-2faef8673853","system_id":"levelo_inurba_marseille","lat":43.30601,"lon":5.36882,"is_reserved":false,"is_disabled":false,"rental_uris":{"android":"levelo://app?vid=4e209b0c-855f-4b51-8120-2faef8673853","ios":"levelo://app?vid=4e209b0c-855f-4b51-8120-2faef8673853"},"vehicle_type_id":"4","last_reported":1752048898,"current_range_meters":22000,"station_id":"","pricing_plan_id":"cebpf4jnsgd1na2vs0mg"},{"bike_id":"b3d10f57-0e04-4526-bb82-10992b7b2d4a","system_id":"levelo_inurba_marseille","lat":43.29625,"lon":5.37737,"is_reserved":false,"is_disabled":false,"rental_uris":{"android":"levelo://app?vid=b3d10f57-0e04-4526-bb82-10992b7b2d4a","ios":"levelo://app?vid=b3d10f57-0e04-4526-bb82-10992b7b2d4a"},"vehicle_type_id":"4","last_reported":1752048898,"current_range_meters":22000,"station_id":"ce4bgi92rcd13ifvqb90","pricing_plan_id":"cebpf4jnsgd1na2vs0mg"},{"bike_id":"d1687558-5dbd-4235-b7c4-ef1086f67d4a","system_id":"levelo_inurba_marseille","lat":43.29347,"lon":5.377826,"is_reserved":false,"is_disabled":false,"rental_uris":{"android":"levelo://app?vid=d1687558-5dbd-4235-b7c4-ef1086f67d4a","ios":"levelo://app?vid=d1687558-5dbd-4235-b7c4-ef1086f67d4a"},"vehicle_type_id":"4","last_reported":1752048898,"current_range_meters":22000,"station_id":"ce4bgjh2rcd13ifvqbf0","pricing_plan_id":"cebpf4jnsgd1na2vs0mg"},{"bike_id":"115e9c05-1f8b-4c92-a3ae-6a891e99a34e","system_id":"levelo_inurba_marseille","lat":43.31366,"lon":5.38492,"is_reserved":false,"is_disabled":false,"rental_uris":{"android":"levelo://app?vid=115e9c05-1f8b-4c92-a3ae-6a891e99a34e","ios":"levelo://app?vid=115e9c05-1f8b-4c92-a3ae-6a891e99a34e"},"vehicle_type_id":"4","last_reported":1752048898,"current_range_meters":22000,"station_id":"ce4bgt92rcd13ifvqcf0","pricing_plan_id":"cebpf4jnsgd1na2vs0mg"},{"bike_id":"635651a3-0ddd-4d93-8ed5-f5113015ea9b","system_id":"levelo_inurba_marseille","lat":43.23051,"lon":5.35491,"is_reserved":false,"is_disabled":false,"rental_uris":{"android":"levelo://app?vid=635651a3-0ddd-4d93-8ed5-f5113015ea9b","ios":"levelo://app?vid=635651a3-0ddd-4d93-8ed5-f5113015ea9b"},"vehicle_type_id":"4","last_reported":1752048898,"current_range_meters":22000,"station_id":"cpo3342slgdg3j2ifvpg","pricing_plan_id":"cebpf4jnsgd1na2vs0mg"},{"bike_id":"7405c651-a868-4f97-b0fd-445de387662c","system_id":"levelo_inurba_marseille","lat":43.21742,"lon":5.34579,"is_reserved":false,"is_disabled":false,"rental_uris":{"android":"levelo://app?vid=7405c651-a868-4f97-b0fd-445de387662c","ios":"levelo://app?vid=7405c651-a868-4f97-b0fd-445de387662c"},