{"last_updated":1752326474,"ttl":60,"version":"2.2","data":{"bikes":[{"bike_id":"651aad67-62bf-4290-adfe-d39a4671ba21","system_id":"levelo_inurba_marseille","lat":43.25864,"lon":5.39897,"is_reserved":false,"is_disabled":false,"rental_uris":{"android":"levelo://app?vid=651aad67-62bf-4290-adfe-d39a4671ba21","ios":"levelo://app?vid=651aad67-62bf-4290-adfe-d39a4671ba21"},"vehicle_type_id":"4","last_reported":1752326474,"current_range_meters":2800,"station_id":"ce4bhl92rcd13ifvqghg","pricing_plan_id":"cebpf4jnsgd1na2vs0mg"},{"bike_id":"20b2ef66-942b-436a-a04c-5027daea5742","system_id":"levelo_inurba_marseille","lat":43.29053,"lon":5.35908,"is_reserved":false,"is_disabled":false,"rental_uris":{"android":"levelo://app?vid=20b2ef66-942b-436a-a04c-5027daea5742","ios":"levelo://app?vid=20b2ef66-942b-436a-a04c-5027daea5742"},"vehicle_type_id":"4","last_reported":1752326474,"current_range_meters":3200,"station_id":"ce4bha92rcd13ifvqeg0","pricing_plan_id":"cebpf4jnsgd1na2vs0mg"},{"bike_id":"aa603045-4822-428c-bd5c-17144d8e70d5","system_id":"levelo_inurba_marseille","lat":43.31276,"lon":5.40164,"is_reserved":false,"is_disabled":false,"rental_uris":{"android":"levelo://app?vid=aa603045-4822-428c-bd5c-17144d8e70d5","ios":"levelo://app?vid=aa603045-4822-428c-bd5c-17144d8e70d5"},"vehicle_type_id":"4","last_reported":1752326474,"current_range_meters":4800,"station_id":"ce4bh092rcd13ifvqd30","pricing_plan_id":"cebpf4jnsgd1na2vs0mg"},{"bike_id":"a2339d9d-6be4-415d-a160-f9b9822722fc","system_id":"levelo_inurba_marseille","lat":43.31067,"lon":5.3834,"is_reserved":false,"is_disabled":false,"rental_uris":{"android":"levelo://app?vid=a2339d9d-6be4-415d-a160-f9b9822722fc","ios":"levelo://app?vid=a2339d9d-6be4-415d-a160-f9b9822722fc"},"vehicle_type_id":"4","last_reported":1752326474,"current_range_meters":4800,"station_id":"ce4bgv92rcd13ifvqcr0","pricing_plan_id":"cebpf4jnsgd1na2vs0mg"},{"bike_id":"98d604e9-822b-438f-9f79-f6c7c141256e","system_id":"levelo_inurba_marseille","lat":43.284197,"lon":5.349735,"is_reserved":false,"is_disabled":false,"rental_uris":{"android":"levelo://app?vid=98d604e9-822b-438f-9f79-f6c7c141256e","ios":"levelo://app?vid=98d604e9-822b-438f-9f79-f6c7c141256e"},"vehicle_type_id":"4","last_reported":1752326474,"current_range_meters":4800,"station_id":"","pricing_plan_id":"cebpf4jnsgd1na2vs0mg"},{"bike_id":"3a229b3e-c018-4f77-9c13-dd4a7906a3b1","system_id":"levelo_inurba_marseille","lat":43.33605,"lon":5.41037,"is_reserved":false,"is_disabled":false,"rental_uris":{"android":"levelo://app?vid=3a229b3e-c018-4f77-9c13-dd4a7906a3b1","ios":"levelo://app?vid=3a229b3e-c018-4f77-9c13-dd4a7906a3b1"},"vehicle_type_id":"4","last_reported":1752326474,"current_range_meters":4800,"station_id":"ce4bhqh2rcd13ifvqhmg","pricing_plan_id":"cebpf4jnsgd1na2vs0mg"},{"bike_id":"e1a2c7f9-b058-4399-b95b-8b2717e6a5d4","system_id":"levelo_inurba_marseille","lat":43.3127,"lon":5.40167,"is_reserved":false,"is_disabled":false,"rental_uris":{"android":"levelo://app?vid=e1a2c7f9-b058-4399-b95b-8b2717e6a5d4","ios":"levelo://app?vid=e1a2c7f9-b058-4399-b95b-8b2717e6a5d4"},"vehicle_type_id":"4","last_reported":1752326474,"current_range_meters":6000,"station_id":"ce4bh092rcd13ifvqd30","pricing_plan_id":"cebpf4jnsgd1na2vs0mg"},{"bike_id":"77015060-8a33-45f2-b769-d069be9547bb","system_id":"levelo_inurba_marseille","lat":43.31072,"lon":5.38347,"is_reserved":false,"is_disabled":false,"rental_uris":{"android":"levelo://app?vid=77015060-8a33-45f2-b769-d069be9547bb","ios":"levelo://app?vid=77015060-8a33-45f2-b769-d069be9547bb"},"vehicle_type_id":"4","last_reported":1752326474,"current_range_meters":6000,"station_id":"ce4bgv92rcd13ifvqcr0","pricing_plan_id":"cebpf4jnsgd1na2vs0mg"},{"bike_id":"06e24b75-d0d2-430e-8f52-23aff4c0b714","system_id":"levelo_inurba_marseille","lat":43.29895,"lon":5.40323,"is_reserved":false,"is_disabled":false,"rental_uris":{"android":"levelo://app?vid=06e24b75-d0d2-430e-8f52-23aff4c0b714","ios":"levelo://app?vid=06e24b75-d0d2-430e-8f52-23aff4c0b714"},"vehicle_type_id":"4","last_reported":1752326474,"current_range_meters":6000,"station_id":"","pricing_plan_id":"cebpf4jnsgd1na2vs0mg"},{"bike_id":"33bb176b-33f1-4a13-8796-cee4ae9d00ea","system_id":"levelo_inurba_marseille","lat":43.27374,"lon":5.36263,"is_reserved":false,"is_disabled":false,"rental_uris":{"android":"levelo://app?vid=33bb176b-33f1-4a13-8796-cee4ae9d00ea","ios":"levelo://app?vid=33bb176b-33f1-4a13-8796-cee4ae9d00ea"},"vehicle_type_id":"4","last_reported":1752326474,"current_range_meters":6400,"station_id":"ce4bhbh2rcd13ifvqeo0","pricing_plan_id":"cebpf4jnsgd1na2vs0mg"},{"bike_id":"38d5c2ae-5578-478b-a737-44842914904f","system_id":"levelo_inurba_marseille","lat":43.304,"lon":5.4103,"is_reserved":false,"is_disabled":false,"rental_uris":{"android":"levelo://app?vid=38d5c2ae-5578-478b-a737-44842914904f","ios":"levelo://app?vid=38d5c2ae-5578-478b-a737-44842914904f"},"vehicle_type_id":"4","last_reported":1752326474,"current_range_meters":6800,"station_id":"ce4bhop2rcd13ifvqh8g","pricing_plan_id":"cebpf4jnsgd1na2vs0mg"},{"bike_id":"c4cb91f3-21de-4fc5-9c62-bcf13ddf8388","system_id":"levelo_inurba_marseille","lat":43.26504,"lon":5.39066,"is_reserved":false,"is_disabled":true,"rental_uris":{"android":"levelo://app?vid=c4cb91f3-21de-4fc5-9c62-bcf13ddf8388","ios":"levelo://app?vid=c4cb91f3-21de-4fc5-9c62-bcf13ddf8388"},"vehicle_type_id":"4","last_reported":1752326474,"current_range_meters":7200,"station_id":"ce4bhe12rcd13ifvqf30","pricing_plan_id":"cebpf4jnsgd1na2vs0mg"},{"bike_id":"5bafd008-4bd5-4507-8351-ba5ef0fbf820","system_id":"levelo_inurba_marseille","lat":43.29617,"lon":5.40589,"is_reserved":false,"is_disabled":false,"rental_uris":{"android":"levelo://app?vid=5bafd008-4bd5-4507-8351-ba5ef0fbf820","ios":"levelo://app?vid=5bafd008-4bd5-4507-8351-ba5ef0fbf820"},"vehicle_type_id":"4","last_reported":1752326474,"current_range_meters":7200,"station_id":"ce4bh0h2rcd13ifvqd60","pricing_plan_id":"cebpf4jnsgd1na2vs0mg"},{"bike_id":"abb84e7f-c273-497e-a0f1-1213f2a410e8","system_id":"levelo_inurba_marseille","lat":43.28723,"lon":5.36084,"is_reserved":false,"is_disabled":false,"rental_uris":{"android":"levelo://app?vid=abb84e7f-c273-497e-a0f1-1213f2a410e8","ios":"levelo://app?vid=abb84e7f-c273-497e-a0f1-1213f2a410e8"},"vehicle_type_id":"4","last_reported":1752326474,"current_range_meters":7200,"station_id":"cki0cbj6b192h4jlfktg","pricing_plan_id":"cebpf4jnsgd1na2vs0mg"},{"bike_id":"f1fa9c00-43d8-4462-b070-b89a014efd85","system_id":"levelo_inurba_marseille","lat":43.32323,"lon":5.38275,"is_reserved":false,"is_disabled":false,"rental_uris":{"android":"levelo://app?vid=f1fa9c00-43d8-4462-b070-b89a014efd85","ios":"levelo://app?vid=f1fa9c00-43d8-4462-b070-b89a014efd85"},"vehicle_type_id":"4","last_reported":1752326474,"current_range_meters":8000,"station_id":"ce4bhr12rcd13ifvqhqg","pricing_plan_id":"cebpf4jnsgd1na2vs0mg"},{"bike_id":"b87d5649-9e66-4817-81bc-d07bd25f1080","system_id":"levelo_inurba_marseille","lat":43.239619,"lon":5.366354,"is_reserved":false,"is_disabled":false,"rental_uris":{"android":"levelo://app?vid=b87d5649-9e66-4817-81bc-d07bd25f1080","ios":"levelo://app?vid=b87d5649-9e66-4817-81bc-d07bd25f1080"},"vehicle_type_id":"4","last_reported":1752326474,"current_range_meters":8000,"station_id":"ce4bhi12rcd13ifvqfp0","pricing_plan_id":"cebpf4jnsgd1na2vs0mg"},{"bike_id":"cb9282c9-0a04-426f-af4a-9dc494a82650","system_id":"levelo_inurba_marseille","lat":43.225037,"lon":5.347922,"is_reserved":false,"is_disabled":false,"rental_uris":{"android":"levelo://app?vid=cb9282c9-0a04-426f-af4a-9dc494a82650","ios":"levelo://app?vid=cb9282c9-0a04-426f-af4a-9dc494a82650"},"vehicle_type_id":"4","last_reported":1752326474,"current_range_meters":8000,"station_id":"","pricing_plan_id":"cebpf4jnsgd1na2vs0mg"},{"bike_id":"534ed68d-5ceb-43a8-968b-be30f01dfa74","system_id":"levelo_inurba_marseille","lat":43.2821,"lon":5.39064,"is_reserved":false,"is_disabled":false,"rental_uris":{"android":"levelo://app?vid=534ed68d-5ceb-43a8-968b-be30f01dfa74","ios":"levelo://app?vid=534ed68d-5ceb-43a8-968b-be30f01dfa74"},"vehicle_type_id":"4","last_reported":1752326474,"current_range_meters":8400,"station_id":"","pricing_plan_id":"cebpf4jnsgd1na2vs0mg"},{"bike_id":"82f3b808-2e91-4f3f-86f0-e2883d6ed1a8","system_id":"levelo_inurba_marseille","lat":43.30211,"lon":5.39471,"is_reserved":false,"is_disabled":false,"rental_uris":{"android":"levelo://app?vid=82f3b808-2e91-4f3f-86f0-e2883d6ed1a8","ios":"levelo://app?vid=82f3b808-2e91-4f3f-86f0-e2883d6ed1a8"},"vehicle_type_id":"4","last_reported":1752326474,"current_range_meters":4800,"station_id":"ce4bh0p2rcd13ifvqd70","pricing_plan_id":"cebpf4jnsgd1na2vs0mg"},{"bike_id":"dd944e50-2ce2-43cf-a999-9641063ff0e0","system_id":"levelo_inurba_marseille","lat":43.291992,"lon":5.393357,"is_reserved":false,"is_disabled":false,"rental_uris":{"android":"levelo://app?vid=dd944e50-2ce2-43cf-a999-9641063ff0e0","ios":"levelo://app?vid=dd944e50-2ce2-43cf-a999-9641063ff0e0"},"vehicle_type_id":"4","last_reported":1752326474,"current_range_meters":8400,"station_id":"ce4bh192rcd13ifvqdd0","pricing_plan_id":"cebpf4jnsgd1na2vs0mg"},{"bike_id":"68662dfa-174b-45a2-a121-567c4218d065","system_id":"levelo_inurba_marseille","lat":43.21753,"lon":5.34606,"is_reserved":false,"is_disabled":false,"rental_uris":{"android":"levelo://app?vid=68662dfa-174b-45a2-a121-567c4218d065","ios":"levelo://app?vid=68662dfa-174b-45a2-a121-567c4218d065"},"vehicle_type_id":"4","last_reported":1752326474,"current_range_meters":8400,"station_id":"st_cvj6r9ubvosntc0bgbag","pricing_plan_id":"cebpf4jnsgd1na2vs0mg"},{"bike_id":"dc2144c2-3f55-44c6-b21c-3ce0ee39bccc","system_id":"levelo_inurba_marseille","lat":43.315,"lon":5.37297,"is_reserved":false,"is_disabled":false,"rental_uris":{"android":"levelo://app?vid=dc2144c2-3f55-44c6-b21c-3ce0ee39bccc","ios":"levelo://app?vid=dc2144c2-3f55-44c6-b21c-3ce0ee39bccc"},"vehicle_type_id":"4","last_reported":1752326474,"current_range_meters":8800,"station_id":"ce4bgt12rcd13ifvqcd0","pricing_plan_id":"cebpf4jnsgd1na2vs0mg"},{"bike_id":"9a721a67-800d-41fb-b2c2-3309f63164c3","system_id":"levelo_inurba_marseille","lat":43.21191,"lon":5.35076,"is_reserved":false,"is_disabled":false,"rental_uris":{"android":"levelo://app?vid=9a721a67-800d-41fb-b2c2-3309f63164c3","ios":"levelo://app?vid=9a721a67-800d-41fb-b2c2-3309f63164c3"},"vehicle_type_id":"4","last_reported":1752326474,"current_range_meters":8800,"station_id":"st_cvj6sg6p6f1abm77japg","pricing_plan_id":"cebpf4jnsgd1na2vs0mg"},{"bike_id":"6e44525d-ed45-445a-a877-081b94eb5813","system_id":"levelo_inurba_marseille","lat":43.30388,"lon":5.4184,"is_reserved":false,"is_disabled":false,"rental_uris":{"android":"levelo://app?vid=6e44525d-ed45-445a-a877-081b94eb5813","ios":"levelo://app?vid=6e44525d-ed45-445a-a877-081b94eb5813"},"vehicle_type_id":"4","last_reported":1752326474,"current_range_meters":9200,"station_id":"ce4bhop2rcd13ifvqh7g","pricing_plan_id":"cebpf4jnsgd1na2vs0mg"},{"bike_id":"385bb1f1-642b-4e79-8f9c-ea466cf42584","system_id":"levelo_inurba_marseille","lat":43.27996,"lon":5.40011,"is_reserved":false,"is_disabled":false,"rental_uris":{"android":"levelo://app?vid=385bb1f1-642b-4e79-8f9c-ea466cf42584","ios":"levelo://app?vid=385bb1f1-642b-4e79-8f9c-ea466cf42584"},"vehicle_type_id":"4","last_reported":1752326474,"current_range_meters":9200,"station_id":"ce4bho92rcd13ifvqh4g","pricing_plan_id":"cebpf4jnsgd1na2vs0mg"},{"bike_id":"fbb0b6fb-9490-415a-b701-8478197c7aad","system_id":"levelo_inurba_marseille","lat":43.33025,"lon":5.39041,"is_reserved":false,"is_disabled":false,"rental_uris":{"android":"levelo://app?vid=fbb0b6fb-9490-415a-b701-8478197c7aad","ios":"levelo://app?vid=fbb0b6fb-9490-415a-b701-8478197c7aad"},"vehicle_type_id":"4","last_reported":1752326474,"current_range_meters":9600,"station_id":"ce4bhr92rcd13ifvqhrg","pricing_plan_id":"cebpf4jnsgd1na2vs0mg"},{"bike_id":"595e9351-a7ce-45de-8995-771f7d9fe86e","system_id":"levelo_inurba_marseille","lat":43.309243,"lon":5.378088,"is_reserved":false,"is_disabled":false,"rental_uris":{"android":"levelo://app?vid=595e9351-a7ce-45de-8995-771f7d9fe86e","ios":"levelo://app?vid=595e9351-a7ce-45de-8995-771f7d9fe86e"},"vehicle_type_id":"4","last_reported":1752326474,"current_range_meters":9600,"station_id":"","pricing_plan_id":"cebpf4jnsgd1na2vs0mg"},{"bike_id":"fbe7017b-66c5-4bc7-841f-a849f2b9ab88","system_id":"levelo_inurba_marseille","lat":43.3128,"lon":5.40153,"is_reserved":false,"is_disabled":false,"rental_uris":{"android":"levelo://app?vid=fbe7017b-66c5-4bc7-841f-a849f2b9ab88","ios":"levelo://app?vid=fbe7017b-66c5-4bc7-841f-a849f2b9ab88"},"vehicle_type_id":"4","last_reported":1752326474,"current_range_meters":9600,"station_id":"ce4bh092rcd13ifvqd30","pricing_plan_id":"cebpf4jnsgd1na2vs0mg"},{"bike_id":"854d9415-4a4e-4195-9dd1-93633becfa80","system_id":"levelo_inurba_marseille","lat":43.28929,"lon":5.36636,"is_reserved":false,"is_disabled":false,"rental_uris":{"android":"levelo://app?vid=854d9415-4a4e-4195-9dd1-93633becfa80","ios":"levelo://app?vid=854d9415-4a4e-4195-9dd1-93633becfa80"},"vehicle_type_id":"4","last_reported":1752326474,"current_range_meters":9600,"station_id":"ce4bhap2rcd13ifvqek0","pricing_plan_id":"cebpf4jnsgd1na2vs0mg"},{"bike_id":"fd9f5c27-5d58-42e5-badc-a12a0344229e","system_id":"levelo_inurba_marseille","lat":43.28916,"lon":5.3606,"is_reserved":false,"is_disabled":false,"rental_uris":{"android":"levelo://app?vid=fd9f5c27-5d58-42e5-badc-a12a0344229e","ios":"levelo://app?vid=fd9f5c27-5d58-42e5-badc-a12a0344229e"},"vehicle_type_id":"4","last_reported":1752326474,"current_range_meters":10000,"station_id":"","pricing_plan_id":"cebpf4jnsgd1na2vs0mg"},{"bike_id":"097106d7-0dc8-4152-8540-cae0e1de8dea","system_id":"levelo_inurba_marseille","lat":43.21194,"lon":5.35075,"is_reserved":false,"is_disabled":false,"rental_uris":{"android":"levelo://app?vid=097106d7-0dc8-4152-8540-cae0e1de8dea","ios":"levelo://app?vid=097106d7-0dc8-4152-8540-cae0e1de8dea"},"vehicle_type_id":"4","last_reported":1752326474,"current_range_meters":10000,"station_id":"st_cvj6sg6p6f1abm77japg","pricing_plan_id":"cebpf4jnsgd1na2vs0mg"},{"bike_id":"262c7e76-2e28-4d55-b6be-af79e74bb9c9","system_id":"levelo_inurba_marseille","lat":43.32403,"lon":5.38364,"is_reserved":false,"is_disabled":false,"rental_uris":{"android":"levelo://app?vid=262c7e76-2e28-4d55-b6be-af79e74bb9c9","ios":"levelo://app?vid=262c7e76-2e28-4d55-b6be-af79e74bb9c9"},"vehicle_type_id":"4","last_reported":1752326474,"current_range_meters":10000,"station_id":"","pricing_plan_id":"cebpf4jnsgd1na2vs0mg"},{"bike_id":"9516d3d4-4628-49ce-84a7-7e9f8b2a6243","system_id":"levelo_inurba_marseille","lat":43.23205,"lon":5.35551,"is_reserved":false,"is_disabled":false,"rental_uris":{"android":"levelo://app?vid=9516d3d4-4628-49ce-84a7-7e9f8b2a6243","ios":"levelo://app?vid=9516d3d4-4628-49ce-84a7-7e9f8b2a6243"},"vehicle_type_id":"4","last_reported":1752326474,"current_range_meters":10000,"station_id":"ce4bhu92rcd13ifvqi70","pricing_plan_id":"cebpf4jnsgd1na2vs0mg"},{"bike_id":"2711aaaf-3805-4804-9329-3207cf061148","system_id":"levelo_inurba_marseille","lat":43.28448,"lon":5.35019,"is_reserved":false,"is_disabled":false,"rental_uris":{"android":"levelo://app?vid=2711aaaf-3805-4804-9329-3207cf061148","ios":"levelo://app?vid=2711aaaf-3805-4804-9329-3207cf061148"},"vehicle_type_id":"4","last_reported":1752326474,"current_range_meters":10000,"station_id":"ce4bhbh2rcd13ifvqepg","pricing_plan_id":"cebpf4jnsgd1na2vs0mg"},{"bike_id":"e3a75ee9-c614-467b-8cc2-f813bcef2ab1","system_id":"levelo_inurba_marseille","lat":43.33743,"lon":5.3919,"is_reserved":false,"is_disabled":false,"rental_uris":{"android":"levelo://app?vid=e3a75ee9-c614-467b-8cc2-f813bcef2ab1","ios":"levelo://app?vid=e3a75ee9-c614-467b-8cc2-f813bcef2ab1"},"vehicle_type_id":"4","last_reported":1752326474,"current_range_meters":10000,"station_id":"ce4bhr92rcd13ifvqhsg","pricing_plan_id":"cebpf4jnsgd1na2vs0mg"},{"bike_id":"eda0ea69-6404-43e6-9ede-2655d170d444","system_id":"levelo_inurba_marseille","lat":43.28837,"lon":5.35839,"is_reserved":false,"is_disabled":true,"rental_uris":{"android":"levelo://app?vid=eda0ea69-6404-43e6-9ede-2655d170d444","ios":"levelo://app?vid=eda0ea69-6404-43e6-9ede-2655d170d444"},"vehicle_type_id":"4","last_reported":1752326474,"current_range_meters":10000,"station_id":"ce4bhb12rcd13ifvqem0","pricing_plan_id":"cebpf4jnsgd1na2vs0mg"},{"bike_id":"080f57f3-a8d5-4466-97ef-f4f40d547d09","system_id":"levelo_inurba_marseille","lat":43.31361,"lon":5.38535,"is_reserved":false,"is_disabled":false,"rental_uris":{"android":"levelo://app?vid=080f57f3-a8d5-4466-97ef-f4f40d547d09","ios":"levelo://app?vid=080f57f3-a8d5-4466-97ef-f4f40d547d09"},"vehicle_type_id":"4","last_reported":1752326474,"current_range_meters":10800,"station_id":"ce4bgt92rcd13ifvqcf0","pricing_plan_id":"cebpf4jnsgd1na2vs0mg"},{"bike_id":"ceb8bcf8-9e11-4102-bd78-9a687c0c96d2","system_id":"levelo_inurba_marseille","lat":43.28948,"lon":5.38421,"is_reserved":false,"is_disabled":false,"rental_uris":{"android":"levelo://app?vid=ceb8bcf8-9e11-4102-bd78-9a687c0c96d2","ios":"levelo://app?vid=ceb8bcf8-9e11-4102-bd78-9a687c0c96d2"},"vehicle_type_id":"4","last_reported":1752326474,"current_range_meters":10800,"station_id":"ce4bh612rcd13ifvqe6g","pricing_plan_id":"cebpf4jnsgd1na2vs0mg"},{"bike_id":"507c15b6-6c2d-4db6-9941-00abe607a648","system_id":"levelo_inurba_marseille","lat":43.34378,"lon":5.36271,"is_reserved":false,"is_disabled":false,"rental_uris":{"android":"levelo://app?vid=507c15b6-6c2d-4db6-9941-00abe607a648","ios":"levelo://app?vid=507c15b6-6c2d-4db6-9941-00abe607a648"},"vehicle_type_id":"4","last_reported":1752326474,"current_range_meters":10800,"station_id":"","pricing_plan_id":"cebpf4jnsgd1na2vs0mg"},{"bike_id":"ef698040-cffd-4a0c-9a91-bf557274de35","system_id":"levelo_inurba_marseille","lat":43.31695,"lon":5.37813,"is_reserved":false,"is_disabled":false,"rental_uris":{"android":"levelo://app?vid=ef698040-cffd-4a0c-9a91-bf557274de35","ios":"levelo://app?vid=ef698040-cffd-4a0c-9a91-bf557274de35"},"vehicle_type_id":"4","last_reported":1752326474,"current_range_meters":10800,"station_id":"","pricing_plan_id":"cebpf4jnsgd1na2vs0mg"},{"bike_id":"9dbd7bad-ca30-43ae-8d8f-a597179d5b51","system_id":"levelo_inurba_marseille","lat":43.28024,"lon":5.36939,"is_reserved":false,"is_disabled":true,"rental_uris":{"android":"levelo://app?vid=9dbd7bad-ca30-43ae-8d8f-a597179d5b51","ios":"levelo://app?vid=9dbd7bad-ca30-43ae-8d8f-a597179d5b51"},"vehicle_type_id":"4","last_reported":1752326474,"current_range_meters":10800,"station_id":"ce4bha12rcd13ifvqef0","pricing_plan_id":"cebpf4jnsgd1na2vs0mg"},{"bike_id":"d9e69b3f-497c-4ee1-b86a-0762773eeb5a","system_id":"levelo_inurba_marseille","lat":43.29947,"lon":5.37168,"is_reserved":false,"is_disabled":false,"rental_uris":{"android":"levelo://app?vid=d9e69b3f-497c-4ee1-b86a-0762773eeb5a","ios":"levelo://app?vid=d9e69b3f-497c-4ee1-b86a-0762773eeb5a"},"vehicle_type_id":"4","last_reported":1752326474,"current_range_meters":10800,"station_id":"ce4bgr92rcd13ifvqc7g","pricing_plan_id":"cebpf4jnsgd1na2vs0mg"},{"bike_id":"f7cc297a-87a1-4b94-a4d1-2e28974fcfe4","system_id":"levelo_inurba_marseille","lat":43.25006,"lon":5.38923,"is_reserved":false,"is_disabled":false,"rental_uris":{"android":"levelo://app?vid=f7cc297a-87a1-4b94-a4d1-2e28974fcfe4","ios":"levelo://app?vid=f7cc297a-87a1-4b94-a4d1-2e28974fcfe4"},"vehicle_type_id":"4","last_reported":1752326474,"current_range_meters":10800,"station_id":"ce4bhgp2rcd13ifvqfd0","pricing_plan_id":"cebpf4jnsgd1na2vs0mg"},{"bike_id":"8929c1bf-fd4d-44e4-aa66-b3eb6538c998","system_id":"levelo_inurba_marseille","lat":43.2858,"lon":5.42992,"is_reserved":false,"is_disabled":false,"rental_uris":{"android":"levelo://app?vid=8929c1bf-fd4d-44e4-aa66-b3eb6538c998","ios":"levelo://app?vid=8929c1bf-fd4d-44e4-aa66-b3eb6538c998"},"vehicle_type_id":"4","last_reported":1752326474,"current_range_meters":11200,"station_id":"","pricing_plan_id":"cebpf4jnsgd1na2vs0mg"},{"bike_id":"cece10d1-234b-4087-a8a8-6bf4e5020161","system_id":"levelo_inurba_marseille","lat":43.26785,"lon":5.39397,"is_reserved":false,"is_disabled":false,"rental_uris":{"android":"levelo://app?vid=cece10d1-234b-4087-a8a8-6bf4e5020161","ios":"levelo://app?vid=cece10d1-234b-4087-a8a8-6bf4e5020161"},"vehicle_type_id":"4","last_reported":1752326474,"current_range_meters":11200,"station_id":"ce4bhh12rcd13ifvqfg0","pricing_plan_id":"cebpf4jnsgd1na2vs0mg"},{"bike_id":"65715245-ae22-4c14-a440-90c4c1db5a80","system_id":"levelo_inurba_marseille","lat":43.29312,"lon":5.37158,"is_reserved":false,"is_disabled":false,"rental_uris":{"android":"levelo://app?vid=65715245-ae22-4c14-a440-90c4c1db5a80","ios":"levelo://app?vid=65715245-ae22-4c14-a440-90c4c1db5a80"},"vehicle_type_id":"4","last_reported":1752326474,"current_range_meters":11200,"station_id":"ce4bgh92rcd13ifvqb40","pricing_plan_id":"cebpf4jnsgd1na2vs0mg"},{"bike_id":"9219e5be-fcc4-4511-91fd-3adc12a6e85d","system_id":"levelo_inurba_marseille","lat":43.22507,"lon":5.347838,"is_reserved":false,"is_disabled":false,"rental_uris":{"android":"levelo://app?vid=9219e5be-fcc4-4511-91fd-3adc12a6e85d","ios":"levelo://app?vid=9219e5be-fcc4-4511-91fd-3adc12a6e85d"},"vehicle_type_id":"4","last_reported":1752326474,"current_range_meters":11200,"station_id":"st_cvj5dfep6f1abm77gieg","pricing_plan_id":"cebpf4jnsgd1na2vs0mg"},{"bike_id":"75bb1dd6-50a7-47a9-9e4b-6b29bd46237a","system_id":"levelo_inurba_marseille","lat":43.213073,"lon":5.349523,"is_reserved":false,"is_disabled":false,"rental_uris":{"android":"levelo://app?vid=75bb1dd6-50a7-47a9-9e4b-6b29bd46237a","ios":"levelo://app?vid=75bb1dd6-50a7-47a9-9e4b-6b29bd46237a"},"vehicle_type_id":"4","last_reported":1752326474,"current_range_meters":11200,"station_id":"","pricing_plan_id":"cebpf4jnsgd1na2vs0mg"},{"bike_id":"416b40e7-7ce9-42b8-8c64-ad7bf6701bc3","system_id":"levelo_inurba_marseille","lat":43.30304,"lon":5.39217,"is_reserved":false,"is_disabled":false,"rental_uris":{"android":"levelo://app?vid=416b40e7-7ce9-42b8-8c64-ad7bf6701bc3","ios":"levelo://app?vid=416b40e7-7ce9-42b8-8c64-ad7bf6701bc3"},"vehicle_type_id":"4","last_reported":1752326474,"current_range_meters":11600,"station_id":"ce4bgkh2rcd13ifvqbk0","pricing_plan_id":"cebpf4jnsgd1na2vs0mg"},{"bike_id":"8fccf46e-4269-459a-bd9a-cdd93f6b32bc","system_id":"levelo_inurba_marseille","lat":43.30355,"lon":5.41871,"is_reserved":false,"is_disabled":false,"rental_uris":{"android":"levelo://app?vid=8fccf46e-4269-459a-bd9a-cdd93f6b32bc","ios":"levelo://app?vid=8fccf46e-4269-459a-bd9a-cdd93f6b32bc"},"vehicle_type_id":"4","last_reported":1752326474,"current_range_meters":11600,"station_id":"ce4bhop2rcd13ifvqh7g","pricing_plan_id":"cebpf4jnsgd1na2vs0mg"},{"bike_id":"84d1266e-c769-4ce6-8b19-f18b8b7a08c3","system_id":"levelo_inurba_marseille","lat":43.23966,"lon":5.36639,"is_reserved":false,"is_disabled":false,"rental_uris":{"android":"levelo://app?vid=84d1266e-c769-4ce6-8b19-f18b8b7a08c3","ios":"levelo://app?vid=84d1266e-c769-4ce6-8b19-f18b8b7a08c3"},"vehicle_type_id":"4","last_reported":1752326474,"current_range_meters":11600,"station_id":"ce4bhi12rcd13ifvqfp0","pricing_plan_id":"cebpf4jnsgd1na2vs0mg"},{"bike_id":"97d4bafb-1703-482a-9af9-9c0328bf232e","system_id":"levelo_inurba_marseille","lat":43.29566,"lon":5.37482,"is_reserved":false,"is_disabled":false,"rental_uris":{"android":"levelo://app?vid=97d4bafb-1703-482a-9af9-9c0328bf232e","ios":"levelo://app?vid=97d4bafb-1703-482a-9af9-9c0328bf232e"},"vehicle_type_id":"4","last_reported":1752326474,"current_range_meters":11600,"station_id":"ce4bgh92rcd13ifvqb50","pricing_plan_id":"cebpf4jnsgd1na2vs0mg"},{"bike_id":"55c43050-801f-4351-866e-29b1235fc650","system_id":"levelo_inurba_marseille","lat":43.31494,"lon":5.37309,"is_reserved":false,"is_disabled":false,"rental_uris":{"android":"levelo://app?vid=55c43050-801f-4351-866e-29b1235fc650","ios":"levelo://app?vid=55c43050-801f-4351-866e-29b1235fc650"},"vehicle_type_id":"4","last_reported":1752326474,"current_range_meters":11200,"station_id":"ce4bgt12rcd13ifvqcd0","pricing_plan_id":"cebpf4jnsgd1na2vs0mg"},{"bike_id":"c7c4725f-ddab-4a76-b57e-952d7794448c","system_id":"levelo_inurba_marseille","lat":43.22934,"lon":5.35376,"is_reserved":false,"is_disabled":false,"rental_uris":{"android":"levelo://app?vid=c7c4725f-ddab-4a76-b57e-952d7794448c","ios":"levelo://app?vid=c7c4725f-ddab-4a76-b57e-952d7794448c"},"vehicle_type_id":"4","last_reported":1752326474,"current_range_meters":11600,"station_id":"cpo3532slgdg3j2ikp40","pricing_plan_id":"cebpf4jnsgd1na2vs0mg"},{"bike_id":"f6974de0-f478-4f51-9582-c4d48c77f98e","system_id":"levelo_inurba_marseille","lat":43.2621,"lon":5.3744,"is_reserved":false,"is_disabled":false,"rental_uris":{"android":"levelo://app?vid=f6974de0-f478-4f51-9582-c4d48c77f98e","ios":"levelo://app?vid=f6974de0-f478-4f51-9582-c4d48c77f98e"},"vehicle_type_id":"4","last_reported":1752326474,"current_range_meters":12000,"station_id":"ce4bhgp2rcd13ifvqfc0","pricing_plan_id":"cebpf4jnsgd1na2vs0mg"},{"bike_id":"e9fd0cf8-573b-4177-88a6-f1faf33e8aca","system_id":"levelo_inurba_marseille","lat":43.28998,"lon":5.35584,"is_reserved":false,"is_disabled":false,"rental_uris":{"android":"levelo://app?vid=e9fd0cf8-573b-4177-88a6-f1faf33e8aca","ios":"levelo://app?vid=e9fd0cf8-573b-4177-88a6-f1faf33e8aca"},"vehicle_type_id":"4","last_reported":1752326474,"current_range_meters":12000,"station_id":"ce4bhb92rcd13ifvqen0","pricing_plan_id":"cebpf4jnsgd1na2vs0mg"},{"bike_id":"4a1a615d-d0dd-4247-b943-dda1ffed742d","system_id":"levelo_inurba_marseille","lat":43.29311,"lon":5.3717,"is_reserved":false,"is_disabled":false,"rental_uris":{"android":"levelo://app?vid=4a1a615d-d0dd-4247-b943-dda1ffed742d","ios":"levelo://app?vid=4a1a615d-d0dd-4247-b943-dda1ffed742d"},"vehicle_type_id":"4","last_reported":1752326474,"current_range_meters":12000,"station_id":"ce4bgh92rcd13ifvqb40","pricing_plan_id":"cebpf4jnsgd1na2vs0mg"},{"bike_id":"92ec4371-d4e6-4c2e-a1ed-ae4e37903998","system_id":"levelo_inurba_marseille","lat":43.25111,"lon":5.40323,"is_reserved":false,"is_disabled":false,"rental_uris":{"android":"levelo://app?vid=92ec4371-d4e6-4c2e-a1ed-ae4e37903998","ios":"levelo://app?vid=92ec4371-d4e6-4c2e-a1ed-ae4e37903998"},"vehicle_type_id":"4","last_reported":1752326474,"current_range_meters":12000,"station_id":"ce4bhlh2rcd13ifvqgig","pricing_plan_id":"cebpf4jnsgd1na2vs0mg"},{"bike_id":"6095e156-6446-44ec-898a-336d97bcd8ec","system_id":"levelo_inurba_marseille","lat":43.24809,"lon":5.37459,"is_reserved":false,"is_disabled":false,"rental_uris":{"android":"levelo://app?vid=6095e156-6446-44ec-898a-336d97bcd8ec","ios":"levelo://app?vid=6095e156-6446-44ec-898a-336d97bcd8ec"},"vehicle_type_id":"4","last_reported":1752326474,"current_range_meters":12400,"station_id":"ce4bhgh2rcd13ifvqfb0","pricing_plan_id":"cebpf4jnsgd1na2vs0mg"},{"bike_id":"97fa06f4-d15d-4dad-ba62-7c412bba4bd9","system_id":"levelo_inurba_marseille","lat":43.28941,"lon":5.36634,"is_reserved":false,"is_disabled":false,"rental_uris":{"android":"levelo://app?vid=97fa06f4-d15d-4dad-ba62-7c412bba4bd9","ios":"levelo://app?vid=97fa06f4-d15d-4dad-ba62-7c412bba4bd9"},"vehicle_type_id":"4","last_reported":1752326474,"current_range_meters":12400,"station_id":"ce4bhap2rcd13ifvqek0","pricing_plan_id":"cebpf4jnsgd1na2vs0mg"},{"bike_id":"24ccdf48-840c-425a-9024-8dd3c48da557","system_id":"levelo_inurba_marseille","lat":43.28664,"lon":5.36349,"is_reserved":false,"is_disabled":false,"rental_uris":{"android":"levelo://app?vid=24ccdf48-840c-425a-9024-8dd3c48da557","ios":"levelo://app?vid=24ccdf48-840c-425a-9024-8dd3c48da557"},"vehicle_type_id":"4","last_reported":1752326474,"current_range_meters":12000,"station_id":"ce4bhah2rcd13ifvqej0","pricing_plan_id":"cebpf4jnsgd1na2vs0mg"},{"bike_id":"61198919-e72c-4fce-bc96-126627987dc0","system_id":"levelo_inurba_marseille","lat":43.29577,"lon":5.37883,"is_reserved":false,"is_disabled":false,"rental_uris":{"android":"levelo://app?vid=61198919-e72c-4fce-bc96-126627987dc0","ios":"levelo://app?vid=61198919-e72c-4fce-bc96-126627987dc0"},"vehicle_type_id":"4","last_reported":1752326474,"current_range_meters":12400,"station_id":"","pricing_plan_id":"cebpf4jnsgd1na2vs0mg"},{"bike_id":"fdec3e7e-d085-4a13-8970-b1d817a7e356","system_id":"levelo_inurba_marseille","lat":43.27373,"lon":5.36257,"is_reserved":false,"is_disabled":false,"rental_uris":{"android":"levelo://app?vid=fdec3e7e-d085-4a13-8970-b1d817a7e356","ios":"levelo://app?vid=fdec3e7e-d085-4a13-8970-b1d817a7e356"},"vehicle_type_id":"4","last_reported":1752326474,"current_range_meters":12400,"station_id":"ce4bhbh2rcd13ifvqeo0","pricing_plan_id":"cebpf4jnsgd1na2vs0mg"},{"bike_id":"dbba3321-20c7-4989-a7b5-ea9ab2c4b3e8","system_id":"levelo_inurba_marseille","lat":43.261935,"lon":5.374477,"is_reserved":false,"is_disabled":false,"rental_uris":{"android":"levelo://app?vid=dbba3321-20c7-4989-a7b5-ea9ab2c4b3e8","ios":"levelo://app?vid=dbba3321-20c7-4989-a7b5-ea9ab2c4b3e8"},"vehicle_type_id":"4","last_reported":1752326474,"current_range_meters":12400,"station_id":"ce4bhgp2rcd13ifvqfc0","pricing_plan_id":"cebpf4jnsgd1na2vs0mg"},{"bike_id":"4931c57e-fe1b-4d85-8d7f-d3c8a802f890","system_id":"levelo_inurba_marseille","lat":43.25083,"lon":5.39522,"is_reserved":false,"is_disabled":false,"rental_uris":{"android":"levelo://app?vid=4931c57e-fe1b-4d85-8d7f-d3c8a802f890","ios":"levelo://app?vid=4931c57e-fe1b-4d85-8d7f-d3c8a802f890"},"vehicle_type_id":"4","last_reported":1752326474,"current_range_meters":12400,"station_id":"ce4bhm12rcd13ifvqgkg","pricing_plan_id":"cebpf4jnsgd1na2vs0mg"},{"bike_id":"c453155a-5220-48fc-922b-600ca54f8ab5","system_id":"levelo_inurba_marseille","lat":43.28656,"lon":5.363486,"is_reserved":false,"is_disabled":true,"rental_uris":{"android":"levelo://app?vid=c453155a-5220-48fc-922b-600ca54f8ab5","ios":"levelo://app?vid=c453155a-5220-48fc-922b-600ca54f8ab5"},"vehicle_type_id":"4","last_reported":1752326474,"current_range_meters":12400,"station_id":"ce4bhah2rcd13ifvqej0","pricing_plan_id":"cebpf4jnsgd1na2vs0mg"},{"bike_id":"46e5ce54-b308-4f9a-a5a9-9f5f583c360f","system_id":"levelo_inurba_marseille","lat":43.28268,"lon":5.35062,"is_reserved":false,"is_disabled":false,"rental_uris":{"android":"levelo://app?vid=46e5ce54-b308-4f9a-a5a9-9f5f583c360f","ios":"levelo://app?vid=46e5ce54-b308-4f9a-a5a9-9f5f583c360f"},"vehicle_type_id":"4","last_reported":1752326474,"current_range_meters":12800,"station_id":"","pricing_plan_id":"cebpf4jnsgd1na2vs0mg"},{"bike_id":"a581eef9-f0fb-4e5d-8be0-84b96bfd2d41","system_id":"levelo_inurba_marseille","lat":43.29393,"lon":5.37855,"is_reserved":false,"is_disabled":false,"rental_uris":{"android":"levelo://app?vid=a581eef9-f0fb-4e5d-8be0-84b96bfd2d41","ios":"levelo://app?vid=a581eef9-f0fb-4e5d-8be0-84b96bfd2d41"},"vehicle_type_id":"4","last_reported":1752326474,"current_range_meters":12800,"station_id":"ce4bgjh2rcd13ifvqbf0","pricing_plan_id":"cebpf4jnsgd1na2vs0mg"},{"bike_id":"ab6cb234-c8d6-4ce4-ab4f-b14b364484d3","system_id":"levelo_inurba_marseille","lat":43.30198,"lon":5.38104,"is_reserved":false,"is_disabled":false,"rental_uris":{"android":"levelo://app?vid=ab6cb234-c8d6-4ce4-ab4f-b14b364484d3","ios":"levelo://app?vid=ab6cb234-c8d6-4ce4-ab4f-b14b364484d3"},"vehicle_type_id":"4","last_reported":1752326474,"current_range_meters":12800,"station_id":"","pricing_plan_id":"cebpf4jnsgd1na2vs0mg"},{"bike_id":"a100566b-d122-47f7-b059-1aae620ff9b3","system_id":"levelo_inurba_marseille","lat":43.240722,"lon":5.37754,"is_reserved":false,"is_disabled":false,"rental_uris":{"android":"levelo://app?vid=a100566b-d122-47f7-b059-1aae620ff9b3","ios":"levelo://app?vid=a100566b-d122-47f7-b059-1aae620ff9b3"},"vehicle_type_id":"4","last_reported":1752326474,"current_range_meters":12800,"station_id":"ce4bhnp2rcd13ifvqgvg","pricing_plan_id":"cebpf4jnsgd1na2vs0mg"},{"bike_id":"b39615c1-8c0f-4f14-a5d8-72ffd6a70631","system_id":"levelo_inurba_marseille","lat":43.24804,"lon":5.3746,"is_reserved":false,"is_disabled":false,"rental_uris":{"android":"levelo://app?vid=b39615c1-8c0f-4f14-a5d8-72ffd6a70631","ios":"levelo://app?vid=b39615c1-8c0f-4f14-a5d8-72ffd6a70631"},"vehicle_type_id":"4","last_reported":1752326474,"current_range_meters":13600,"station_id":"ce4bhgh2rcd13ifvqfb0","pricing_plan_id":"cebpf4jnsgd1na2vs0mg"},{"bike_id":"008260af-f96d-46f7-9f16-44b7a7c6d361","system_id":"levelo_inurba_marseille","lat":43.29284,"lon":5.36836,"is_reserved":false,"is_disabled":false,"rental_uris":{"android":"levelo://app?vid=008260af-f96d-46f7-9f16-44b7a7c6d361","ios":"levelo://app?vid=008260af-f96d-46f7-9f16-44b7a7c6d361"},"vehicle_type_id":"4","last_reported":1752326474,"current_range_meters":14000,"station_id":"ce4bhbp2rcd13ifvqesg","pricing_plan_id":"cebpf4jnsgd1na2vs0mg"},{"bike_id":"8bb3b023-d703-48c9-a589-c5773cad06fa","system_id":"levelo_inurba_marseille","lat":43.28855,"lon":5.39303,"is_reserved":false,"is_disabled":false,"rental_uris":{"android":"levelo://app?vid=8bb3b023-d703-48c9-a589-c5773cad06fa","ios":"levelo://app?vid=8bb3b023-d703-48c9-a589-c5773cad06fa"},"vehicle_type_id":"4","last_reported":1752326474,"current_range_meters":14000,"station_id":"ce4bh2p2rcd13ifvqdi0","pricing_plan_id":"cebpf4jnsgd1na2vs0mg"},{"bike_id":"2b2e3c9c-88cb-44d0-9068-3300d85f5ec8","system_id":"levelo_inurba_marseille","lat":43.31713,"lon":5.43708,"is_reserved":false,"is_disabled":false,"rental_uris":{"android":"levelo://app?vid=2b2e3c9c-88cb-44d0-9068-3300d85f5ec8","ios":"levelo://app?vid=2b2e3c9c-88cb-44d0-9068-3300d85f5ec8"},"vehicle_type_id":"4","last_reported":1752326474,"current_range_meters":14000,"station_id":"ce4bhp92rcd13ifvqhcg","pricing_plan_id":"cebpf4jnsgd1na2vs0mg"},{"bike_id":"4d45486c-f881-4f55-a8c2-49a10b22295b","system_id":"levelo_inurba_marseille","lat":43.29917,"lon":5.38126,"is_reserved":false,"is_disabled":false,"rental_uris":{"android":"levelo://app?vid=4d45486c-f881-4f55-a8c2-49a10b22295b","ios":"levelo://app?vid=4d45486c-f881-4f55-a8c2-49a10b22295b"},"vehicle_type_id":"4","last_reported":1752326474,"current_range_meters":14000,"station_id":"ce4bgj12rcd13ifvqbc0","pricing_plan_id":"cebpf4jnsgd1na2vs0mg"},{"bike_id":"ad3a92a9-aac6-4694-a2f3-20c935fef2b6","system_id":"levelo_inurba_marseille","lat":43.292986,"lon":5.374656,"is_reserved":false,"is_disabled":false,"rental_uris":{"android":"levelo://app?vid=ad3a92a9-aac6-4694-a2f3-20c935fef2b6","ios":"levelo://app?vid=ad3a92a9-aac6-4694-a2f3-20c935fef2b6"},"vehicle_type_id":"4","last_reported":1752326474,"current_range_meters":14000,"station_id":"","pricing_plan_id":"cebpf4jnsgd1na2vs0mg"},{"bike_id":"accf2651-54ea-4f2e-82a0-81d431b0ba09","system_id":"levelo_inurba_marseille","lat":43.28271,"lon":5.3508,"is_reserved":false,"is_disabled":false,"rental_uris":{"android":"levelo://app?vid=accf2651-54ea-4f2e-82a0-81d431b0ba09","ios":"levelo://app?vid=accf2651-54ea-4f2e-82a0-81d431b0ba09"},"vehicle_type_id":"4","last_reported":1752326474,"current_range_meters":14000,"station_id":"ce4bhbp2rcd13ifvqerg","pricing_plan_id":"cebpf4jnsgd1na2vs0mg"},{"bike_id":"18cac8e7-76c4-43a2-905c-81de8777d90f","system_id":"levelo_inurba_marseille","lat":43.274957,"lon":5.424523,"is_reserved":false,"is_disabled":false,"rental_uris":{"android":"levelo://app?vid=18cac8e7-76c4-43a2-905c-81de8777d90f","ios":"levelo://app?vid=18cac8e7-76c4-43a2-905c-81de8777d90f"},"vehicle_type_id":"4","last_reported":1752326474,"current_range_meters":14000,"station_id":"ce4bhn92rcd13ifvqgrg","pricing_plan_id":"cebpf4jnsgd1na2vs0mg"},{"bike_id":"0ade8314-6a29-4c19-bda6-4717b8a27a7f","system_id":"levelo_inurba_marseille","lat":43.23964,"lon":5.36625,"is_reserved":false,"is_disabled":false,"rental_uris":{"android":"levelo://app?vid=0ade8314-6a29-4c19-bda6-4717b8a27a7f","ios":"levelo://app?vid=0ade8314-6a29-4c19-bda6-4717b8a27a7f"},"vehicle_type_id":"4","last_reported":1752326474,"current_range_meters":14400,"station_id":"ce4bhi12rcd13ifvqfp0","pricing_plan_id":"cebpf4jnsgd1na2vs0mg"},{"bike_id":"c816310d-8ff0-4290-b10a-aad431dd902c","system_id":"levelo_inurba_marseille","lat":43.21742,"lon":5.34617,"is_reserved":false,"is_disabled":true,"rental_uris":{"android":"levelo://app?vid=c816310d-8ff0-4290-b10a-aad431dd902c","ios":"levelo://app?vid=c816310d-8ff0-4290-b10a-aad431dd902c"},"vehicle_type_id":"4","last_reported":1752326474,"current_range_meters":14400,"station_id":"","pricing_plan_id":"cebpf4jnsgd1na2vs0mg"},{"bike_id":"dddd87dc-7f90-4b55-bc84-f33d20753519","system_id":"levelo_inurba_marseille","lat":43.30881,"lon":5.37191,"is_reserved":false,"is_disabled":false,"rental_uris":{"android":"levelo://app?vid=dddd87dc-7f90-4b55-bc84-f33d20753519","ios":"levelo://app?vid=dddd87dc-7f90-4b55-bc84-f33d20753519"},"vehicle_type_id":"4","last_reported":1752326474,"current_range_meters":14800,"station_id":"ce4bguh2rcd13ifvqckg","pricing_plan_id":"cebpf4jnsgd1na2vs0mg"},{"bike_id":"470d1e9d-8c05-40b8-a6b2-039f183b9f6a","system_id":"levelo_inurba_marseille","lat":43.231957,"lon":5.355713,"is_reserved":false,"is_disabled":true,"rental_uris":{"android":"levelo://app?vid=470d1e9d-8c05-40b8-a6b2-039f183b9f6a","ios":"levelo://app?vid=470d1e9d-8c05-40b8-a6b2-039f183b9f6a"},"vehicle_type_id":"4","last_reported":1752326474,"current_range_meters":14800,"station_id":"ce4bhu92rcd13ifvqi70","pricing_plan_id":"cebpf4jnsgd1na2vs0mg"},{"bike_id":"a3096fef-e973-4975-af48-7ed9ac4cedd4","system_id":"levelo_inurba_marseille","lat":43.24387,"lon":5.37063,"is_reserved":false,"is_disabled":false,"rental_uris":{"android":"levelo://app?vid=a3096fef-e973-4975-af48-7ed9ac4cedd4","ios":"levelo://app?vid=a3096fef-e973-4975-af48-7ed9ac4cedd4"},"vehicle_type_id":"4","last_reported":1752326474,"current_range_meters":15200,"station_id":"ce4bhhh2rcd13ifvqfk0","pricing_plan_id":"cebpf4jnsgd1na2vs0mg"},{"bike_id":"b74832bb-6449-48c5-8077-0bfb2b852778","system_id":"levelo_inurba_marseille","lat":43.28423,"lon":5.34978,"is_reserved":false,"is_disabled":false,"rental_uris":{"android":"levelo://app?vid=b74832bb-6449-48c5-8077-0bfb2b852778","ios":"levelo://app?vid=b74832bb-6449-48c5-8077-0bfb2b852778"},"vehicle_type_id":"4","last_reported":1752326474,"current_range_meters":15200,"station_id":"ce4bhbh2rcd13ifvqepg","pricing_plan_id":"cebpf4jnsgd1na2vs0mg"},{"bike_id":"7f02047d-a6cd-43f4-a617-996f2b9a8bc8","system_id":"levelo_inurba_marseille","lat":43.32355,"lon":5.36737,"is_reserved":false,"is_disabled":false,"rental_uris":{"android":"levelo://app?vid=7f02047d-a6cd-43f4-a617-996f2b9a8bc8","ios":"levelo://app?vid=7f02047d-a6cd-43f4-a617-996f2b9a8bc8"},"vehicle_type_id":"4","last_reported":1752326474,"current_range_meters":15200,"station_id":"ce4bhsh2rcd13ifvqi2g","pricing_plan_id":"cebpf4jnsgd1na2vs0mg"},{"bike_id":"b278939f-a65d-4eba-91fb-5029f6a78250","system_id":"levelo_inurba_marseille","lat":43.299097,"lon":5.381517,"is_reserved":false,"is_disabled":false,"rental_uris":{"android":"levelo://app?vid=b278939f-a65d-4eba-91fb-5029f6a78250","ios":"levelo://app?vid=b278939f-a65d-4eba-91fb-5029f6a78250"},"vehicle_type_id":"4","last_reported":1752326474,"current_range_meters":15200,"station_id":"ce4bgj12rcd13ifvqbc0","pricing_plan_id":"cebpf4jnsgd1na2vs0mg"},{"bike_id":"5636a512-4b1a-43b3-b350-ba5761f6e3e0","system_id":"levelo_inurba_marseille","lat":43.27371,"lon":5.36261,"is_reserved":false,"is_disabled":false,"rental_uris":{"android":"levelo://app?vid=5636a512-4b1a-43b3-b350-ba5761f6e3e0","ios":"levelo://app?vid=5636a512-4b1a-43b3-b350-ba5761f6e3e0"},"vehicle_type_id":"4","last_reported":1752326474,"current_range_meters":16000,"station_id":"ce4bhbh2rcd13ifvqeo0","pricing_plan_id":"cebpf4jnsgd1na2vs0mg"},{"bike_id":"888bd7d8-4ec5-4282-97cb-63503f2485c0","system_id":"levelo_inurba_marseille","lat":43.308,"lon":5.38146,"is_reserved":false,"is_disabled":false,"rental_uris":{"android":"levelo://app?vid=888bd7d8-4ec5-4282-97cb-63503f2485c0","ios":"levelo://app?vid=888bd7d8-4ec5-4282-97cb-63503f2485c0"},"vehicle_type_id":"4","last_reported":1752326474,"current_range_meters":16000,"station_id":"ce4bgt12rcd13ifvqce0","pricing_plan_id":"cebpf4jnsgd1na2vs0mg"},{"bike_id":"d81fc32a-e83b-43aa-88f6-45ae21d3a857","system_id":"levelo_inurba_marseille","lat":43.31671,"lon":5.40474,"is_reserved":false,"is_disabled":false,"rental_uris":{"android":"levelo://app?vid=d81fc32a-e83b-43aa-88f6-45ae21d3a857","ios":"levelo://app?vid=d81fc32a-e83b-43aa-88f6-45ae21d3a857"},"vehicle_type_id":"4","last_reported":1752326474,"current_range_meters":16000,"station_id":"ce4bh012rcd13ifvqd00","pricing_plan_id":"cebpf4jnsgd1na2vs0mg"},{"bike_id":"7da7b59c-cd2e-4436-be70-5df05345f89e","system_id":"levelo_inurba_marseille","lat":43.2884,"lon":5.35849,"is_reserved":false,"is_disabled":false,"rental_uris":{"android":"levelo://app?vid=7da7b59c-cd2e-4436-be70-5df05345f89e","ios":"levelo://app?vid=7da7b59c-cd2e-4436-be70-5df05345f89e"},"vehicle_type_id":"4","last_reported":1752326474,"current_range_meters":16000,"station_id":"","pricing_plan_id":"cebpf4jnsgd1na2vs0mg"},{"bike_id":"d7d851de-d966-47dc-9bd8-1a9ae0c433a4","system_id":"levelo_inurba_marseille","lat":43.225055,"lon":5.347843,"is_reserved":false,"is_disabled":false,"rental_uris":{"android":"levelo://app?vid=d7d851de-d966-47dc-9bd8-1a9ae0c433a4","ios":"levelo://app?vid=d7d851de-d966-47dc-9bd8-1a9ae0c433a4"},"vehicle_type_id":"4","last_reported":1752326474,"current_range_meters":16000,"station_id":"","pricing_plan_id":"cebpf4jnsgd1na2vs0mg"},{"bike_id":"c5ed2de0-5d94-418e-8549-f88db797eb65","system_id":"levelo_inurba_marseille","lat":43.27315,"lon":5.39069,"is_reserved":false,"is_disabled":false,"rental_uris":{"android":"levelo://app?vid=c5ed2de0-5d94-418e-8549-f88db797eb65","ios":"levelo://app?vid=c5ed2de0-5d94-418e-8549-f88db797eb65"},"vehicle_type_id":"4","last_reported":1752326474,"current_range_meters":16000,"station_id":"ce4bhgp2rcd13ifvqfe0","pricing_plan_id":"cebpf4jnsgd1na2vs0mg"},{"bike_id":"c6f7dabd-b092-4554-a710-07eb4af96a4c","system_id":"levelo_inurba_marseille","lat":43.21188,"lon":5.35068,"is_reserved":false,"is_disabled":false,"rental_uris":{"android":"levelo://app?vid=c6f7dabd-b092-4554-a710-07eb4af96a4c","ios":"levelo://app?vid=c6f7dabd-b092-4554-a710-07eb4af96a4c"},"vehicle_type_id":"4","last_reported":1752326474,"current_range_meters":16000,"station_id":"st_cvj6sg6p6f1abm77japg","pricing_plan_id":"cebpf4jnsgd1na2vs0mg"},{"bike_id":"aff3ebd6-8106-47ba-88c9-420f16f7f2d5","system_id":"levelo_inurba_marseille","lat":43.28616,"lon":5.37055,"is_reserved":false,"is_disabled":false,"rental_uris":{"android":"levelo://app?vid=aff3ebd6-8106-47ba-88c9-420f16f7f2d5","ios":"levelo://app?vid=aff3ebd6-8106-47ba-88c9-420f16f7f2d5"},"vehicle_type_id":"4","last_reported":1752326474,"current_range_meters":16000,"station_id":"ce4bht12rcd13ifvqi60","pricing_plan_id":"cebpf4jnsgd1na2vs0mg"},{"bike_id":"94ee9bc1-a935-4f1b-959f-339ac3424214","system_id":"levelo_inurba_marseille","lat":43.273726,"lon":5.362619,"is_reserved":false,"is_disabled":false,"rental_uris":{"android":"levelo://app?vid=94ee9bc1-a935-4f1b-959f-339ac3424214","ios":"levelo://app?vid=94ee9bc1-a935-4f1b-959f-339ac3424214"},"vehicle_type_id":"4","last_reported":1752326474,"current_range_meters":16000,"station_id":"ce4bhbh2rcd13ifvqeo0","pricing_plan_id":"cebpf4jnsgd1na2vs0mg"},{"bike_id":"d922ebbb-7e87-45c4-852e-2463477ade83","system_id":"levelo_inurba_marseille","lat":43.28931,"lon":5.36636,"is_reserved":false,"is_disabled":false,"rental_uris":{"android":"levelo://app?vid=d922ebbb-7e87-45c4-852e-2463477ade83","ios":"levelo://app?vid=d922ebbb-7e87-45c4-852e-2463477ade83"},"vehicle_type_id":"4","last_reported":1752326474,"current_range_meters":16000,"station_id":"ce4bhap2rcd13ifvqek0","pricing_plan_id":"cebpf4jnsgd1na2vs0mg"},{"bike_id":"737ead6f-e608-42f1-8a55-8949c954e8e3","system_id":"levelo_inurba_marseille","lat":43.21207,"lon":5.35087,"is_reserved":false,"is_disabled":false,"rental_uris":{"android":"levelo://app?vid=737ead6f-e608-42f1-8a55-8949c954e8e3","ios":"levelo://app?vid=737ead6f-e608-42f1-8a55-8949c954e8e3"},"vehicle_type_id":"4","last_reported":1752326474,"current_range_meters":16000,"station_id":"st_cvj6sg6p6f1abm77japg","pricing_plan_id":"cebpf4jnsgd1na2vs0mg"},{"bike_id":"cead4cc8-e926-4a6e-89dd-4ef17fb9c868","system_id":"levelo_inurba_marseille","lat":43.265623,"lon":5.390068,"is_reserved":false,"is_disabled":false,"rental_uris":{"android":"levelo://app?vid=cead4cc8-e926-4a6e-89dd-4ef17fb9c868","ios":"levelo://app?vid=cead4cc8-e926-4a6e-89dd-4ef17fb9c868"},"vehicle_type_id":"4","last_reported":1752326474,"current_range_meters":16400,"station_id":"ce4bhe12rcd13ifvqf30","pricing_plan_id":"cebpf4jnsgd1na2vs0mg"},{"bike_id":"95efce01-189e-48fc-92f1-df80c302265c","system_id":"levelo_inurba_marseille","lat":43.28264,"lon":5.35066,"is_reserved":false,"is_disabled":false,"rental_uris":{"android":"levelo://app?vid=95efce01-189e-48fc-92f1-df80c302265c","ios":"levelo://app?vid=95efce01-189e-48fc-92f1-df80c302265c"},"vehicle_type_id":"4","last_reported":1752326474,"current_range_meters":16400,"station_id":"ce4bhbp2rcd13ifvqerg","pricing_plan_id":"cebpf4jnsgd1na2vs0mg"},{"bike_id":"cf2bdbe9-709b-4cf3-804c-b8acf4fe2058","system_id":"levelo_inurba_marseille","lat":43.24805,"lon":5.37461,"is_reserved":false,"is_disabled":false,"rental_uris":{"android":"levelo://app?vid=cf2bdbe9-709b-4cf3-804c-b8acf4fe2058","ios":"levelo://app?vid=cf2bdbe9-709b-4cf3-804c-b8acf4fe2058"},"vehicle_type_id":"4","last_reported":1752326474,"current_range_meters":16400,"station_id":"ce4bhgh2rcd13ifvqfb0","pricing_plan_id":"cebpf4jnsgd1na2vs0mg"},{"bike_id":"53b2e3fb-77f4-44bd-9b1f-4c6e207a18dc","system_id":"levelo_inurba_marseille","lat":43.26484,"lon":5.39542,"is_reserved":false,"is_disabled":false,"rental_uris":{"android":"levelo://app?vid=53b2e3fb-77f4-44bd-9b1f-4c6e207a18dc","ios":"levelo://app?vid=53b2e3fb-77f4-44bd-9b1f-4c6e207a18dc"},"vehicle_type_id":"4","last_reported":1752326474,"current_range_meters":16400,"station_id":"ce4bhi12rcd13ifvqfq0","pricing_plan_id":"cebpf4jnsgd1na2vs0mg"},{"bike_id":"a862a812-a4e3-41db-bffe-dc440146afeb","system_id":"levelo_inurba_marseille","lat":43.27049,"lon":5.40271,"is_reserved":false,"is_disabled":false,"rental_uris":{"android":"levelo://app?vid=a862a812-a4e3-41db-bffe-dc440146afeb","ios":"levelo://app?vid=a862a812-a4e3-41db-bffe-dc440146afeb"},"vehicle_type_id":"4","last_reported":1752326474,"current_range_meters":16400,"station_id":"ce4bhk92rcd13ifvqgc0","pricing_plan_id":"cebpf4jnsgd1na2vs0mg"},{"bike_id":"51890362-46b0-4ee7-9f02-afbf036d064e","system_id":"levelo_inurba_marseille","lat":43.21188,"lon":5.35089,"is_reserved":false,"is_disabled":false,"rental_uris":{"android":"levelo://app?vid=51890362-46b0-4ee7-9f02-afbf036d064e","ios":"levelo://app?vid=51890362-46b0-4ee7-9f02-afbf036d064e"},"vehicle_type_id":"4","last_reported":1752326474,"current_range_meters":16400,"station_id":"st_cvj6sg6p6f1abm77japg","pricing_plan_id":"cebpf4jnsgd1na2vs0mg"},{"bike_id":"e70d0011-3755-4e84-99d0-11aa3aba0afa","system_id":"levelo_inurba_marseille","lat":43.28264,"lon":5.35066,"is_reserved":false,"is_disabled":false,"rental_uris":{"android":"levelo://app?vid=e70d0011-3755-4e84-99d0-11aa3aba0afa","ios":"levelo://app?vid=e70d0011-3755-4e84-99d0-11aa3aba0afa"},"vehicle_type_id":"4","last_reported":1752326474,"current_range_meters":16400,"station_id":"ce4bhbp2rcd13ifvqerg","pricing_plan_id":"cebpf4jnsgd1na2vs0mg"},{"bike_id":"0ef934b6-e832-428b-9a52-641fc174f70a","system_id":"levelo_inurba_marseille","lat":43.30358,"lon":5.41874,"is_reserved":false,"is_disabled":false,"rental_uris":{"android":"levelo://app?vid=0ef934b6-e832-428b-9a52-641fc174f70a","ios":"levelo://app?vid=0ef934b6-e832-428b-9a52-641fc174f70a"},"vehicle_type_id":"4","last_reported":1752326474,"current_range_meters":16400,"station_id":"ce4bhop2rcd13ifvqh7g","pricing_plan_id":"cebpf4jnsgd1na2vs0mg"},{"bike_id":"a0137104-c9f4-434a-a5e3-80725cd5a2b4","system_id":"levelo_inurba_marseille","lat":43.21194,"lon":5.35091,"is_reserved":false,"is_disabled":false,"rental_uris":{"android":"levelo://app?vid=a0137104-c9f4-434a-a5e3-80725cd5a2b4","ios":"levelo://app?vid=a0137104-c9f4-434a-a5e3-80725cd5a2b4"},"vehicle_type_id":"4","last_reported":1752326474,"current_range_meters":16400,"station_id":"st_cvj6sg6p6f1abm77japg","pricing_plan_id":"cebpf4jnsgd1na2vs0mg"},{"bike_id":"00bc0b3b-e317-4a17-a011-a3a9a29d816a","system_id":"levelo_inurba_marseille","lat":43.21203,"lon":5.35071,"is_reserved":false,"is_disabled":false,"rental_uris":{"android":"levelo://app?vid=00bc0b3b-e317-4a17-a011-a3a9a29d816a","ios":"levelo://app?vid=00bc0b3b-e317-4a17-a011-a3a9a29d816a"},"vehicle_type_id":"4","last_reported":1752326474,"current_range_meters":16800,"station_id":"st_cvj6sg6p6f1abm77japg","pricing_plan_id":"cebpf4jnsgd1na2vs0mg"},{"bike_id":"ee5338dd-18a1-4b48-a5b0-f8c72f7b1319","system_id":"levelo_inurba_marseille","lat":43.31937,"lon":5.36963,"is_reserved":false,"is_disabled":false,"rental_uris":{"android":"levelo://app?vid=ee5338dd-18a1-4b48-a5b0-f8c72f7b1319","ios":"levelo://app?vid=ee5338dd-18a1-4b48-a5b0-f8c72f7b1319"},"vehicle_type_id":"4","last_reported":1752326474,"current_range_meters":16800,"station_id":"","pricing_plan_id":"cebpf4jnsgd1na2vs0mg"},{"bike_id":"b9ef4702-89c4-44ae-835a-ce06e3cf439c","system_id":"levelo_inurba_marseille","lat":43.21779,"lon":5.34596,"is_reserved":false,"is_disabled":false,"rental_uris":{"android":"levelo://app?vid=b9ef4702-89c4-44ae-835a-ce06e3cf439c","ios":"levelo://app?vid=b9ef4702-89c4-44ae-835a-ce06e3cf439c"},"vehicle_type_id":"4","last_reported":1752326474,"current_range_meters":16800,"station_id":"st_cvj6r9ubvosntc0bgbag","pricing_plan_id":"cebpf4jnsgd1na2vs0mg"},{"bike_id":"f14a7374-847b-4cad-aa16-a0ee35449972","system_id":"levelo_inurba_marseille","lat":43.23195,"lon":5.355662,"is_reserved":false,"is_disabled":false,"rental_uris":{"android":"levelo://app?vid=f14a7374-847b-4cad-aa16-a0ee35449972","ios":"levelo://app?vid=f14a7374-847b-4cad-aa16-a0ee35449972"},"vehicle_type_id":"4","last_reported":1752326474,"current_range_meters":16800,"station_id":"ce4bhu92rcd13ifvqi70","pricing_plan_id":"cebpf4jnsgd1na2vs0mg"},{"bike_id":"8b37f03f-f226-4bbc-8648-b109da7ba145","system_id":"levelo_inurba_marseille","lat":43.30536,"lon":5.366999,"is_reserved":false,"is_disabled":false,"rental_uris":{"android":"levelo://app?vid=8b37f03f-f226-4bbc-8648-b109da7ba145","ios":"levelo://app?vid=8b37f03f-f226-4bbc-8648-b109da7ba145"},"vehicle_type_id":"4","last_reported":1752326474,"current_range_meters":16800,"station_id":"","pricing_plan_id":"cebpf4jnsgd1na2vs0mg"},{"bike_id":"5a1aa169-e8de-4c42-8232-f9cf794c57f1","system_id":"levelo_inurba_marseille","lat":43.21168,"lon":5.3508,"is_reserved":false,"is_disabled":false,"rental_uris":{"android":"levelo://app?vid=5a1aa169-e8de-4c42-8232-f9cf794c57f1","ios":"levelo://app?vid=5a1aa169-e8de-4c42-8232-f9cf794c57f1"},"vehicle_type_id":"4","last_reported":1752326474,"current_range_meters":16800,"station_id":"st_cvj6sg6p6f1abm77japg","pricing_plan_id":"cebpf4jnsgd1na2vs0mg"},{"bike_id":"a98855e7-4d3f-46da-b3e4-61acc9992e87","system_id":"levelo_inurba_marseille","lat":43.29535,"lon":5.37504,"is_reserved":false,"is_disabled":false,"rental_uris":{"android":"levelo://app?vid=a98855e7-4d3f-46da-b3e4-61acc9992e87","ios":"levelo://app?vid=a98855e7-4d3f-46da-b3e4-61acc9992e87"},"vehicle_type_id":"4","last_reported":1752326474,"current_range_meters":16800,"station_id":"ce4bgkp2rcd13ifvqbmg","pricing_plan_id":"cebpf4jnsgd1na2vs0mg"},{"bike_id":"d9042770-b33f-4b72-ac77-a6226a4adda4","system_id":"levelo_inurba_marseille","lat":43.27951,"lon":5.387038,"is_reserved":false,"is_disabled":false,"rental_uris":{"android":"levelo://app?vid=d9042770-b33f-4b72-ac77-a6226a4adda4","ios":"levelo://app?vid=d9042770-b33f-4b72-ac77-a6226a4adda4"},"vehicle_type_id":"4","last_reported":1752326474,"current_range_meters":17200,"station_id":"ce4bhg12rcd13ifvqf80","pricing_plan_id":"cebpf4jnsgd1na2vs0mg"},{"bike_id":"00c3a457-0c44-45db-851c-16a76d73040c","system_id":"levelo_inurba_marseille","lat":43.30561,"lon":5.36543,"is_reserved":false,"is_disabled":false,"rental_uris":{"android":"levelo://app?vid=00c3a457-0c44-45db-851c-16a76d73040c","ios":"levelo://app?vid=00c3a457-0c44-45db-851c-16a76d73040c"},"vehicle_type_id":"4","last_reported":1752326474,"current_range_meters":17200,"station_id":"ce4bgs12rcd13ifvqcag","pricing_plan_id":"cebpf4jnsgd1na2vs0mg"},{"bike_id":"3c2d13bd-bc4f-4607-9f64-68fe88da400a","system_id":"levelo_inurba_marseille","lat":43.29568,"lon":5.37508,"is_reserved":false,"is_disabled":false,"rental_uris":{"android":"levelo://app?vid=3c2d13bd-bc4f-4607-9f64-68fe88da400a","ios":"levelo://app?vid=3c2d13bd-bc4f-4607-9f64-68fe88da400a"},"vehicle_type_id":"4","last_reported":1752326474,"current_range_meters":17200,"station_id":"ce4bgh92rcd13ifvqb50","pricing_plan_id":"cebpf4jnsgd1na2vs0mg"},{"bike_id":"77274a47-89b3-4855-8a22-3432cfcdc62b","system_id":"levelo_inurba_marseille","lat":43.23195,"lon":5.35547,"is_reserved":false,"is_disabled":false,"rental_uris":{"android":"levelo://app?vid=77274a47-89b3-4855-8a22-3432cfcdc62b","ios":"levelo://app?vid=77274a47-89b3-4855-8a22-3432cfcdc62b"},"vehicle_type_id":"4","last_reported":1752326474,"current_range_meters":17200,"station_id":"ce4bhu92rcd13ifvqi70","pricing_plan_id":"cebpf4jnsgd1na2vs0mg"},{"bike_id":"f23760ff-ab61-4853-aa67-28aac93822c1","system_id":"levelo_inurba_marseille","lat":43.337444,"lon":5.374475,"is_reserved":false,"is_disabled":false,"rental_uris":{"android":"levelo://app?vid=f23760ff-ab61-4853-aa67-28aac93822c1","ios":"levelo://app?vid=f23760ff-ab61-4853-aa67-28aac93822c1"},"vehicle_type_id":"4","last_reported":1752326474,"current_range_meters":17200,"station_id":"","pricing_plan_id":"cebpf4jnsgd1na2vs0mg"},{"bike_id":"49801dc2-618a-44b8-84ae-416cd87fdbe9","system_id":"levelo_inurba_marseille","lat":43.31003,"lon":5.37041,"is_reserved":false,"is_disabled":false,"rental_uris":{"android":"levelo://app?vid=49801dc2-618a-44b8-84ae-416cd87fdbe9","ios":"levelo://app?vid=49801dc2-618a-44b8-84ae-416cd87fdbe9"},"vehicle_type_id":"4","last_reported":1752326474,"current_range_meters":17200,"station_id":"","pricing_plan_id":"cebpf4jnsgd1na2vs0mg"},{"bike_id":"70e13b8c-0e7d-4cb0-ae55-527e2da53671","system_id":"levelo_inurba_marseille","lat":43.33793,"lon":5.37421,"is_reserved":false,"is_disabled":false,"rental_uris":{"android":"levelo://app?vid=70e13b8c-0e7d-4cb0-ae55-527e2da53671","ios":"levelo://app?vid=70e13b8c-0e7d-4cb0-ae55-527e2da53671"},"vehicle_type_id":"4","last_reported":1752326474,"current_range_meters":17200,"station_id":"","pricing_plan_id":"cebpf4jnsgd1na2vs0mg"},{"bike_id":"844b44b6-4e33-4917-878d-a3c647561239","system_id":"levelo_inurba_marseille","lat":43.307336,"lon":5.424478,"is_reserved":false,"is_disabled":false,"rental_uris":{"android":"levelo://app?vid=844b44b6-4e33-4917-878d-a3c647561239","ios":"levelo://app?vid=844b44b6-4e33-4917-878d-a3c647561239"},"vehicle_type_id":"4","last_reported":1752326474,"current_range_meters":17600,"station_id":"st_cvj6ca6bvosntc0bfgr0","pricing_plan_id":"cebpf4jnsgd1na2vs0mg"},{"bike_id":"4b8da722-ee9e-48a4-a5e5-3a8a10364708","system_id":"levelo_inurba_marseille","lat":43.312393,"lon":5.378154,"is_reserved":false,"is_disabled":false,"rental_uris":{"android":"levelo://app?vid=4b8da722-ee9e-48a4-a5e5-3a8a10364708","ios":"levelo://app?vid=4b8da722-ee9e-48a4-a5e5-3a8a10364708"},"vehicle_type_id":"4","last_reported":1752326474,"current_range_meters":17600,"station_id":"","pricing_plan_id":"cebpf4jnsgd1na2vs0mg"},{"bike_id":"57692aae-9841-41ad-bc01-254866eaf8b0","system_id":"levelo_inurba_marseille","lat":43.32342,"lon":5.40619,"is_reserved":false,"is_disabled":false,"rental_uris":{"android":"levelo://app?vid=57692aae-9841-41ad-bc01-254866eaf8b0","ios":"levelo://app?vid=57692aae-9841-41ad-bc01-254866eaf8b0"},"vehicle_type_id":"4","last_reported":1752326474,"current_range_meters":17600,"station_id":"ce4bhq92rcd13ifvqhjg","pricing_plan_id":"cebpf4jnsgd1na2vs0mg"},{"bike_id":"a359fde9-c657-4b6f-a8ee-1b7f85aa6c3f","system_id":"levelo_inurba_marseille","lat":43.2957,"lon":5.37527,"is_reserved":false,"is_disabled":false,"rental_uris":{"android":"levelo://app?vid=a359fde9-c657-4b6f-a8ee-1b7f85aa6c3f","ios":"levelo://app?vid=a359fde9-c657-4b6f-a8ee-1b7f85aa6c3f"},"vehicle_type_id":"4","last_reported":1752326474,"current_range_meters":17600,"station_id":"ce4bgh92rcd13ifvqb50","pricing_plan_id":"cebpf4jnsgd1na2vs0mg"},{"bike_id":"c97c34d0-f10b-4fb5-817a-bc21fe86e33e","system_id":"levelo_inurba_marseille","lat":43.29088,"lon":5.38133,"is_reserved":false,"is_disabled":false,"rental_uris":{"android":"levelo://app?vid=c97c34d0-f10b-4fb5-817a-bc21fe86e33e","ios":"levelo://app?vid=c97c34d0-f10b-4fb5-817a-bc21fe86e33e"},"vehicle_type_id":"4","last_reported":1752326474,"current_range_meters":17600,"station_id":"ce4bh512rcd13ifvqe2g","pricing_plan_id":"cebpf4jnsgd1na2vs0mg"},{"bike_id":"b59e51ca-d910-4846-ae9d-c6b0b3ae1ac3","system_id":"levelo_inurba_marseille","lat":43.28329,"lon":5.35081,"is_reserved":false,"is_disabled":false,"rental_uris":{"android":"levelo://app?vid=b59e51ca-d910-4846-ae9d-c6b0b3ae1ac3","ios":"levelo://app?vid=b59e51ca-d910-4846-ae9d-c6b0b3ae1ac3"},"vehicle_type_id":"4","last_reported":1752326474,"current_range_meters":17600,"station_id":"","pricing_plan_id":"cebpf4jnsgd1na2vs0mg"},{"bike_id":"bc086c4b-65d3-4bbe-b804-6aeb1dfa7dc7","system_id":"levelo_inurba_marseille","lat":43.29017,"lon":5.38133,"is_reserved":false,"is_disabled":false,"rental_uris":{"android":"levelo://app?vid=bc086c4b-65d3-4bbe-b804-6aeb1dfa7dc7","ios":"levelo://app?vid=bc086c4b-65d3-4bbe-b804-6aeb1dfa7dc7"},"vehicle_type_id":"4","last_reported":1752326474,"current_range_meters":17200,"station_id":"ce4bh4p2rcd13ifvqe1g","pricing_plan_id":"cebpf4jnsgd1na2vs0mg"},{"bike_id":"b4cfca4d-74bf-4746-9ca9-6835f5b26f77","system_id":"levelo_inurba_marseille","lat":43.26942,"lon":5.40255,"is_reserved":false,"is_disabled":false,"rental_uris":{"android":"levelo://app?vid=b4cfca4d-74bf-4746-9ca9-6835f5b26f77","ios":"levelo://app?vid=b4cfca4d-74bf-4746-9ca9-6835f5b26f77"},"vehicle_type_id":"4","last_reported":1752326474,"current_range_meters":18000,"station_id":"cjm6bp8fraef2m0cb0m0","pricing_plan_id":"cebpf4jnsgd1na2vs0mg"},{"bike_id":"6d3f299a-d341-49bc-a1f9-7534528d9b67","system_id":"levelo_inurba_marseille","lat":43.23194,"lon":5.35555,"is_reserved":false,"is_disabled":false,"rental_uris":{"android":"levelo://app?vid=6d3f299a-d341-49bc-a1f9-7534528d9b67","ios":"levelo://app?vid=6d3f299a-d341-49bc-a1f9-7534528d9b67"},"vehicle_type_id":"4","last_reported":1752326474,"current_range_meters":18000,"station_id":"ce4bhu92rcd13ifvqi70","pricing_plan_id":"cebpf4jnsgd1na2vs0mg"},{"bike_id":"29d5f9cc-6565-4f4b-99fe-d7cd637fc2f5","system_id":"levelo_inurba_marseille","lat":43.29581,"lon":5.37528,"is_reserved":false,"is_disabled":false,"rental_uris":{"android":"levelo://app?vid=29d5f9cc-6565-4f4b-99fe-d7cd637fc2f5","ios":"levelo://app?vid=29d5f9cc-6565-4f4b-99fe-d7cd637fc2f5"},"vehicle_type_id":"4","last_reported":1752326474,"current_range_meters":18000,"station_id":"ce4bgh92rcd13ifvqb50","pricing_plan_id":"cebpf4jnsgd1na2vs0mg"},{"bike_id":"f36bad63-c225-4f59-878f-028d7059b783","system_id":"levelo_inurba_marseille","lat":43.28269,"lon":5.35068,"is_reserved":false,"is_disabled":false,"rental_uris":{"android":"levelo://app?vid=f36bad63-c225-4f59-878f-028d7059b783","ios":"levelo://app?vid=f36bad63-c225-4f59-878f-028d7059b783"},"vehicle_type_id":"4","last_reported":1752326474,"current_range_meters":18000,"station_id":"ce4bhbp2rcd13ifvqerg","pricing_plan_id":"cebpf4jnsgd1na2vs0mg"},{"bike_id":"a71b38fa-618c-4719-85dc-c82feed16bf0","system_id":"levelo_inurba_marseille","lat":43.29973,"lon":5.41318,"is_reserved":false,"is_disabled":false,"rental_uris":{"android":"levelo://app?vid=a71b38fa-618c-4719-85dc-c82feed16bf0","ios":"levelo://app?vid=a71b38fa-618c-4719-85dc-c82feed16bf0"},"vehicle_type_id":"4","last_reported":1752326474,"current_range_meters":18000,"station_id":"ce4bhp12rcd13ifvqh9g","pricing_plan_id":"cebpf4jnsgd1na2vs0mg"},{"bike_id":"5af35bc3-c835-45dc-8089-0d78e9c38b02","system_id":"levelo_inurba_marseille","lat":43.27901,"lon":5.38025,"is_reserved":false,"is_disabled":false,"rental_uris":{"android":"levelo://app?vid=5af35bc3-c835-45dc-8089-0d78e9c38b02","ios":"levelo://app?vid=5af35bc3-c835-45dc-8089-0d78e9c38b02"},"vehicle_type_id":"4","last_reported":1752326474,"current_range_meters":18800,"station_id":"ce4bhf92rcd13ifvqf50","pricing_plan_id":"cebpf4jnsgd1na2vs0mg"},{"bike_id":"a258dc86-7c84-4445-ad0e-265b9f56cb91","system_id":"levelo_inurba_marseille","lat":43.295521,"lon":5.422917,"is_reserved":false,"is_disabled":false,"rental_uris":{"android":"levelo://app?vid=a258dc86-7c84-4445-ad0e-265b9f56cb91","ios":"levelo://app?vid=a258dc86-7c84-4445-ad0e-265b9f56cb91"},"vehicle_type_id":"4","last_reported":1752326474,"current_range_meters":18800,"station_id":"ce4bhph2rcd13ifvqhdg","pricing_plan_id":"cebpf4jnsgd1na2vs0mg"},{"bike_id":"66bc7fe6-c3da-43c0-afe1-a6bdaf2c5a79","system_id":"levelo_inurba_marseille","lat":43.21192,"lon":5.3507,"is_reserved":false,"is_disabled":false,"rental_uris":{"android":"levelo://app?vid=66bc7fe6-c3da-43c0-afe1-a6bdaf2c5a79","ios":"levelo://app?vid=66bc7fe6-c3da-43c0-afe1-a6bdaf2c5a79"},"vehicle_type_id":"4","last_reported":1752326474,"current_range_meters":18800,"station_id":"st_cvj6sg6p6f1abm77japg","pricing_plan_id":"cebpf4jnsgd1na2vs0mg"},{"bike_id":"9ede5fdf-ddf2-471d-8f8a-1255606ced45","system_id":"levelo_inurba_marseille","lat":43.2921,"lon":5.35907,"is_reserved":false,"is_disabled":false,"rental_uris":{"android":"levelo://app?vid=9ede5fdf-ddf2-471d-8f8a-1255606ced45","ios":"levelo://app?vid=9ede5fdf-ddf2-471d-8f8a-1255606ced45"},"vehicle_type_id":"4","last_reported":1752326474,"current_range_meters":18800,"station_id":"","pricing_plan_id":"cebpf4jnsgd1na2vs0mg"},{"bike_id":"71ffafe8-ba4f-4329-9795-1b18b71c34dd","system_id":"levelo_inurba_marseille","lat":43.29773,"lon":5.37153,"is_reserved":false,"is_disabled":false,"rental_uris":{"android":"levelo://app?vid=71ffafe8-ba4f-4329-9795-1b18b71c34dd","ios":"levelo://app?vid=71ffafe8-ba4f-4329-9795-1b18b71c34dd"},"vehicle_type_id":"4","last_reported":1752326474,"current_range_meters":19200,"station_id":"ce4bgop2rcd13ifvqc1g","pricing_plan_id":"cebpf4jnsgd1na2vs0mg"},{"bike_id":"2789363d-6c32-4f54-a6f0-e032059a9c8e","system_id":"levelo_inurba_marseille","lat":43.24392,"lon":5.370632,"is_reserved":false,"is_disabled":false,"rental_uris":{"android":"levelo://app?vid=2789363d-6c32-4f54-a6f0-e032059a9c8e","ios":"levelo://app?vid=2789363d-6c32-4f54-a6f0-e032059a9c8e"},"vehicle_type_id":"4","last_reported":1752326474,"current_range_meters":19200,"station_id":"ce4bhhh2rcd13ifvqfk0","pricing_plan_id":"cebpf4jnsgd1na2vs0mg"},{"bike_id":"e47c2b64-b5c9-4760-97f1-6683b24e2128","system_id":"levelo_inurba_marseille","lat":43.24167,"lon":5.36391,"is_reserved":false,"is_disabled":false,"rental_uris":{"android":"levelo://app?vid=e47c2b64-b5c9-4760-97f1-6683b24e2128","ios":"levelo://app?vid=e47c2b64-b5c9-4760-97f1-6683b24e2128"},"vehicle_type_id":"4","last_reported":1752326474,"current_range_meters":19200,"station_id":"cpo36qri1sfpv3e86is0","pricing_plan_id":"cebpf4jnsgd1na2vs0mg"},{"bike_id":"f870fe3d-b187-42b5-aa72-4f041c9b9845","system_id":"levelo_inurba_marseille","lat":43.29033,"lon":5.38116,"is_reserved":false,"is_disabled":false,"rental_uris":{"android":"levelo://app?vid=f870fe3d-b187-42b5-aa72-4f041c9b9845","ios":"levelo://app?vid=f870fe3d-b187-42b5-aa72-4f041c9b9845"},"vehicle_type_id":"4","last_reported":1752326474,"current_range_meters":19200,"station_id":"ce4bh4p2rcd13ifvqe1g","pricing_plan_id":"cebpf4jnsgd1na2vs0mg"},{"bike_id":"c5916be7-b3c5-4ed2-b6de-550ee171f7ce","system_id":"levelo_inurba_marseille","lat":43.27977,"lon":5.38761,"is_reserved":false,"is_disabled":false,"rental_uris":{"android":"levelo://app?vid=c5916be7-b3c5-4ed2-b6de-550ee171f7ce","ios":"levelo://app?vid=c5916be7-b3c5-4ed2-b6de-550ee171f7ce"},"vehicle_type_id":"4","last_reported":1752326474,"current_range_meters":19200,"station_id":"ce4bhg12rcd13ifvqf80","pricing_plan_id":"cebpf4jnsgd1na2vs0mg"},{"bike_id":"bdd0913e-60f7-491a-8bb2-868502fc8a19","system_id":"levelo_inurba_marseille","lat":43.29091,"lon":5.38123,"is_reserved":false,"is_disabled":false,"rental_uris":{"android":"levelo://app?vid=bdd0913e-60f7-491a-8bb2-868502fc8a19","ios":"levelo://app?vid=bdd0913e-60f7-491a-8bb2-868502fc8a19"},"vehicle_type_id":"4","last_reported":1752326474,"current_range_meters":19200,"station_id":"ce4bh512rcd13ifvqe2g","pricing_plan_id":"cebpf4jnsgd1na2vs0mg"},{"bike_id":"f9924005-c8ac-4086-8e25-9a21391f65ea","system_id":"levelo_inurba_marseille","lat":43.21196,"lon":5.35076,"is_reserved":false,"is_disabled":false,"rental_uris":{"android":"levelo://app?vid=f9924005-c8ac-4086-8e25-9a21391f65ea","ios":"levelo://app?vid=f9924005-c8ac-4086-8e25-9a21391f65ea"},"vehicle_type_id":"4","last_reported":1752326474,"current_range_meters":19200,"station_id":"st_cvj6sg6p6f1abm77japg","pricing_plan_id":"cebpf4jnsgd1na2vs0mg"},{"bike_id":"e05627a7-983b-43c5-8526-5858b4f8155f","system_id":"levelo_inurba_marseille","lat":43.24671,"lon":5.38155,"is_reserved":false,"is_disabled":false,"rental_uris":{"android":"levelo://app?vid=e05627a7-983b-43c5-8526-5858b4f8155f","ios":"levelo://app?vid=e05627a7-983b-43c5-8526-5858b4f8155f"},"vehicle_type_id":"4","last_reported":1752326474,"current_range_meters":19200,"station_id":"ce4bhih2rcd13ifvqfr0","pricing_plan_id":"cebpf4jnsgd1na2vs0mg"},{"bike_id":"2afd10ce-5f23-4122-9c7a-a3416be941b2","system_id":"levelo_inurba_marseille","lat":43.26021,"lon":5.37572,"is_reserved":false,"is_disabled":true,"rental_uris":{"android":"levelo://app?vid=2afd10ce-5f23-4122-9c7a-a3416be941b2","ios":"levelo://app?vid=2afd10ce-5f23-4122-9c7a-a3416be941b2"},"vehicle_type_id":"4","last_reported":1752326474,"current_range_meters":19200,"station_id":"ce4bhgh2rcd13ifvqfa0","pricing_plan_id":"cebpf4jnsgd1na2vs0mg"},{"bike_id":"133d43d7-4886-4999-b6e3-a9ffe13a8c6e","system_id":"levelo_inurba_marseille","lat":43.26201,"lon":5.37454,"is_reserved":false,"is_disabled":false,"rental_uris":{"android":"levelo://app?vid=133d43d7-4886-4999-b6e3-a9ffe13a8c6e","ios":"levelo://app?vid=133d43d7-4886-4999-b6e3-a9ffe13a8c6e"},"vehicle_type_id":"4","last_reported":1752326474,"current_range_meters":19200,"station_id":"ce4bhgp2rcd13ifvqfc0","pricing_plan_id":"cebpf4jnsgd1na2vs0mg"},{"bike_id":"c1d0629c-eaee-41e7-8c10-68b0ec1b077d","system_id":"levelo_inurba_marseille","lat":43.32972,"lon":5.388882,"is_reserved":false,"is_disabled":false,"rental_uris":{"android":"levelo://app?vid=c1d0629c-eaee-41e7-8c10-68b0ec1b077d","ios":"levelo://app?vid=c1d0629c-eaee-41e7-8c10-68b0ec1b077d"},"vehicle_type_id":"4","last_reported":1752326474,"current_range_meters":19200,"station_id":"ce4bhr92rcd13ifvqhrg","pricing_plan_id":"cebpf4jnsgd1na2vs0mg"},{"bike_id":"6b24281b-8627-4cc6-8164-9baa9ceda8d0","system_id":"levelo_inurba_marseille","lat":43.284194,"lon":5.349779,"is_reserved":false,"is_disabled":false,"rental_uris":{"android":"levelo://app?vid=6b24281b-8627-4cc6-8164-9baa9ceda8d0","ios":"levelo://app?vid=6b24281b-8627-4cc6-8164-9baa9ceda8d0"},"vehicle_type_id":"4","last_reported":1752326474,"current_range_meters":19200,"station_id":"ce4bhbh2rcd13ifvqepg","pricing_plan_id":"cebpf4jnsgd1na2vs0mg"},{"bike_id":"d112004a-7adc-4a47-8d17-6f3283e3c9ac","system_id":"levelo_inurba_marseille","lat":43.29704,"lon":5.37709,"is_reserved":false,"is_disabled":false,"rental_uris":{"android":"levelo://app?vid=d112004a-7adc-4a47-8d17-6f3283e3c9ac","ios":"levelo://app?vid=d112004a-7adc-4a47-8d17-6f3283e3c9ac"},"vehicle_type_id":"4","last_reported":1752326474,"current_range_meters":19200,"station_id":"ce4bgkh2rcd13ifvqbl0","pricing_plan_id":"cebpf4jnsgd1na2vs0mg"},{"bike_id":"69798738-c5d1-44dd-a60f-ebe76587cf80","system_id":"levelo_inurba_marseille","lat":43.29051,"lon":5.3593,"is_reserved":false,"is_disabled":false,"rental_uris":{"android":"levelo://app?vid=69798738-c5d1-44dd-a60f-ebe76587cf80","ios":"levelo://app?vid=69798738-c5d1-44dd-a60f-ebe76587cf80"},"vehicle_type_id":"4","last_reported":1752326474,"current_range_meters":19200,"station_id":"ce4bha92rcd13ifvqeg0","pricing_plan_id":"cebpf4jnsgd1na2vs0mg"},{"bike_id":"e0fbcaa3-44e4-4ae6-9351-1b829b6be415","system_id":"levelo_inurba_marseille","lat":43.30929,"lon":5.40143,"is_reserved":false,"is_disabled":false,"rental_uris":{"android":"levelo://app?vid=e0fbcaa3-44e4-4ae6-9351-1b829b6be415","ios":"levelo://app?vid=e0fbcaa3-44e4-4ae6-9351-1b829b6be415"},"vehicle_type_id":"4","last_reported":1752326474,"current_range_meters":19200,"station_id":"ce4bgvp2rcd13ifvqct0","pricing_plan_id":"cebpf4jnsgd1na2vs0mg"},{"bike_id":"cec45168-f6b5-4b1f-9640-03992a1530ea","system_id":"levelo_inurba_marseille","lat":43.24653,"lon":5.38887,"is_reserved":false,"is_disabled":false,"rental_uris":{"android":"levelo://app?vid=cec45168-f6b5-4b1f-9640-03992a1530ea","ios":"levelo://app?vid=cec45168-f6b5-4b1f-9640-03992a1530ea"},"vehicle_type_id":"4","last_reported":1752326474,"current_range_meters":19200,"station_id":"ce4bhg12rcd13ifvqf60","pricing_plan_id":"cebpf4jnsgd1na2vs0mg"},{"bike_id":"0a89b77c-01de-4b54-ac9c-8046fa414249","system_id":"levelo_inurba_marseille","lat":43.2656,"lon":5.37289,"is_reserved":false,"is_disabled":false,"rental_uris":{"android":"levelo://app?vid=0a89b77c-01de-4b54-ac9c-8046fa414249","ios":"levelo://app?vid=0a89b77c-01de-4b54-ac9c-8046fa414249"},"vehicle_type_id":"4","last_reported":1752326474,"current_range_meters":19200,"station_id":"ce4bhg12rcd13ifvqf70","pricing_plan_id":"cebpf4jnsgd1na2vs0mg"},{"bike_id":"f86cf027-2203-4627-bfe9-cfee30327e24","system_id":"levelo_inurba_marseille","lat":43.29052,"lon":5.35906,"is_reserved":false,"is_disabled":false,"rental_uris":{"android":"levelo://app?vid=f86cf027-2203-4627-bfe9-cfee30327e24","ios":"levelo://app?vid=f86cf027-2203-4627-bfe9-cfee30327e24"},"vehicle_type_id":"4","last_reported":1752326474,"current_range_meters":19600,"station_id":"ce4bha92rcd13ifvqeg0","pricing_plan_id":"cebpf4jnsgd1na2vs0mg"},{"bike_id":"9b40dc73-509b-4d2f-8a27-44696719b175","system_id":"levelo_inurba_marseille","lat":43.27066,"lon":5.42264,"is_reserved":false,"is_disabled":false,"rental_uris":{"android":"levelo://app?vid=9b40dc73-509b-4d2f-8a27-44696719b175","ios":"levelo://app?vid=9b40dc73-509b-4d2f-8a27-44696719b175"},"vehicle_type_id":"4","last_reported":1752326474,"current_range_meters":19600,"station_id":"ce4bhk92rcd13ifvqgb0","pricing_plan_id":"cebpf4jnsgd1na2vs0mg"},{"bike_id":"6db2d44d-c7ca-41ac-b814-ccca58d47fae","system_id":"levelo_inurba_marseille","lat":43.26219,"lon":5.3744,"is_reserved":false,"is_disabled":false,"rental_uris":{"android":"levelo://app?vid=6db2d44d-c7ca-41ac-b814-ccca58d47fae","ios":"levelo://app?vid=6db2d44d-c7ca-41ac-b814-ccca58d47fae"},"vehicle_type_id":"4","last_reported":1752326474,"current_range_meters":19600,"station_id":"ce4bhgp2rcd13ifvqfc0","pricing_plan_id":"cebpf4jnsgd1na2vs0mg"},{"bike_id":"dbcf7a4c-0473-4e77-acf5-b188a045b3f8","system_id":"levelo_inurba_marseille","lat":43.29252,"lon":5.38441,"is_reserved":false,"is_disabled":false,"rental_uris":{"android":"levelo://app?vid=dbcf7a4c-0473-4e77-acf5-b188a045b3f8","ios":"levelo://app?vid=dbcf7a4c-0473-4e77-acf5-b188a045b3f8"},"vehicle_type_id":"4","last_reported":1752326474,"current_range_meters":19600,"station_id":"ce4bh692rcd13ifvqea0","pricing_plan_id":"cebpf4jnsgd1na2vs0mg"},{"bike_id":"830494b6-dc33-46b8-a690-bd7696ccc28e","system_id":"levelo_inurba_marseille","lat":43.294934,"lon":5.374204,"is_reserved":false,"is_disabled":false,"rental_uris":{"android":"levelo://app?vid=830494b6-dc33-46b8-a690-bd7696ccc28e","ios":"levelo://app?vid=830494b6-dc33-46b8-a690-bd7696ccc28e"},"vehicle_type_id":"4","last_reported":1752326474,"current_range_meters":19200,"station_id":"ce4bh192rcd13ifvqdb0","pricing_plan_id":"cebpf4jnsgd1na2vs0mg"},{"bike_id":"ece5e006-0a29-4a34-88d5-2dde675964aa","system_id":"levelo_inurba_marseille","lat":43.27612,"lon":5.36109,"is_reserved":false,"is_disabled":false,"rental_uris":{"android":"levelo://app?vid=ece5e006-0a29-4a34-88d5-2dde675964aa","ios":"levelo://app?vid=ece5e006-0a29-4a34-88d5-2dde675964aa"},"vehicle_type_id":"4","last_reported":1752326474,"current_range_meters":19600,"station_id":"ce4bgj92rcd13ifvqbe0","pricing_plan_id":"cebpf4jnsgd1na2vs0mg"},{"bike_id":"d2395b7c-a41d-443e-9e69-dd0a2bb0794c","system_id":"levelo_inurba_marseille","lat":43.31328,"lon":5.39689,"is_reserved":false,"is_disabled":false,"rental_uris":{"android":"levelo://app?vid=d2395b7c-a41d-443e-9e69-dd0a2bb0794c","ios":"levelo://app?vid=d2395b7c-a41d-443e-9e69-dd0a2bb0794c"},"vehicle_type_id":"4","last_reported":1752326474,"current_range_meters":19600,"station_id":"ce4bgvp2rcd13ifvqcu0","pricing_plan_id":"cebpf4jnsgd1na2vs0mg"},{"bike_id":"18530e59-6a86-4f2b-8228-4105493be3ef","system_id":"levelo_inurba_marseille","lat":43.24172,"lon":5.36398,"is_reserved":false,"is_disabled":false,"rental_uris":{"android":"levelo://app?vid=18530e59-6a86-4f2b-8228-4105493be3ef","ios":"levelo://app?vid=18530e59-6a86-4f2b-8228-4105493be3ef"},"vehicle_type_id":"4","last_reported":1752326474,"current_range_meters":19600,"station_id":"cpo36qri1sfpv3e86is0","pricing_plan_id":"cebpf4jnsgd1na2vs0mg"},{"bike_id":"c4829d84-09ec-476f-9b37-98531062ccf5","system_id":"levelo_inurba_marseille","lat":43.24165,"lon":5.36398,"is_reserved":false,"is_disabled":false,"rental_uris":{"android":"levelo://app?vid=c4829d84-09ec-476f-9b37-98531062ccf5","ios":"levelo://app?vid=c4829d84-09ec-476f-9b37-98531062ccf5"},"vehicle_type_id":"4","last_reported":1752326474,"current_range_meters":19600,"station_id":"cpo36qri1sfpv3e86is0","pricing_plan_id":"cebpf4jnsgd1na2vs0mg"},{"bike_id":"54b7f32b-0463-49a1-ae32-bb3433031754","system_id":"levelo_inurba_marseille","lat":43.24653,"lon":5.38894,"is_reserved":false,"is_disabled":false,"rental_uris":{"android":"levelo://app?vid=54b7f32b-0463-49a1-ae32-bb3433031754","ios":"levelo://app?vid=54b7f32b-0463-49a1-ae32-bb3433031754"},"vehicle_type_id":"4","last_reported":1752326474,"current_range_meters":19600,"station_id":"ce4bhg12rcd13ifvqf60","pricing_plan_id":"cebpf4jnsgd1na2vs0mg"},{"bike_id":"f23b29e6-24a1-400a-a9b8-9fedc8f76c88","system_id":"levelo_inurba_marseille","lat":43.30787,"lon":5.37647,"is_reserved":false,"is_disabled":false,"rental_uris":{"android":"levelo://app?vid=f23b29e6-24a1-400a-a9b8-9fedc8f76c88","ios":"levelo://app?vid=f23b29e6-24a1-400a-a9b8-9fedc8f76c88"},"vehicle_type_id":"4","last_reported":1752326474,"current_range_meters":19600,"station_id":"ce4bgv92rcd13ifvqcq0","pricing_plan_id":"cebpf4jnsgd1na2vs0mg"},{"bike_id":"02c71304-9c4f-4ebf-b265-2eb94afb5a95","system_id":"levelo_inurba_marseille","lat":43.30932,"lon":5.36832,"is_reserved":false,"is_disabled":false,"rental_uris":{"android":"levelo://app?vid=02c71304-9c4f-4ebf-b265-2eb94afb5a95","ios":"levelo://app?vid=02c71304-9c4f-4ebf-b265-2eb94afb5a95"},"vehicle_type_id":"4","last_reported":1752326474,"current_range_meters":20000,"station_id":"","pricing_plan_id":"cebpf4jnsgd1na2vs0mg"},{"bike_id":"a51e012b-8447-4815-959f-a18f68204eb4","system_id":"levelo_inurba_marseille","lat":43.3014,"lon":5.38783,"is_reserved":false,"is_disabled":false,"rental_uris":{"android":"levelo://app?vid=a51e012b-8447-4815-959f-a18f68204eb4","ios":"levelo://app?vid=a51e012b-8447-4815-959f-a18f68204eb4"},"vehicle_type_id":"4","last_reported":1752326474,"current_range_meters":20000,"station_id":"ce4bghh2rcd13ifvqb60","pricing_plan_id":"cebpf4jnsgd1na2vs0mg"},{"bike_id":"af9a5a2d-7d03-4799-84dc-922e3f924524","system_id":"levelo_inurba_marseille","lat":43.2721,"lon":5.39203,"is_reserved":false,"is_disabled":false,"rental_uris":{"android":"levelo://app?vid=af9a5a2d-7d03-4799-84dc-922e3f924524","ios":"levelo://app?vid=af9a5a2d-7d03-4799-84dc-922e3f924524"},"vehicle_type_id":"4","last_reported":1752326474,"current_range_meters":20000,"station_id":"ce4bhhp2rcd13ifvqfm0","pricing_plan_id":"cebpf4jnsgd1na2vs0mg"},{"bike_id":"45be3528-fd16-498e-8434-e30e29d5ac2e","system_id":"levelo_inurba_marseille","lat":43.30411,"lon":5.39757,"is_reserved":false,"is_disabled":false,"rental_uris":{"android":"levelo://app?vid=45be3528-fd16-498e-8434-e30e29d5ac2e","ios":"levelo://app?vid=45be3528-fd16-498e-8434-e30e29d5ac2e"},"vehicle_type_id":"4","last_reported":1752326474,"current_range_meters":20000,"station_id":"ce4bh092rcd13ifvqd20","pricing_plan_id":"cebpf4jnsgd1na2vs0mg"},{"bike_id":"d4c5def1-8626-42e5-a589-b1fe20a37e07","system_id":"levelo_inurba_marseille","lat":43.21754,"lon":5.34594,"is_reserved":false,"is_disabled":false,"rental_uris":{"android":"levelo://app?vid=d4c5def1-8626-42e5-a589-b1fe20a37e07","ios":"levelo://app?vid=d4c5def1-8626-42e5-a589-b1fe20a37e07"},"vehicle_type_id":"4","last_reported":1752326474,"current_range_meters":20000,"station_id":"st_cvj6r9ubvosntc0bgbag","pricing_plan_id":"cebpf4jnsgd1na2vs0mg"},{"bike_id":"f26b3814-79c0-40be-9852-952b1d9f17fe","system_id":"levelo_inurba_marseille","lat":43.27615,"lon":5.36104,"is_reserved":false,"is_disabled":false,"rental_uris":{"android":"levelo://app?vid=f26b3814-79c0-40be-9852-952b1d9f17fe","ios":"levelo://app?vid=f26b3814-79c0-40be-9852-952b1d9f17fe"},"vehicle_type_id":"4","last_reported":1752326474,"current_range_meters":20400,"station_id":"ce4bgj92rcd13ifvqbe0","pricing_plan_id":"cebpf4jnsgd1na2vs0mg"},{"bike_id":"bf67854a-fc75-4bbe-84b3-70a770694533","system_id":"levelo_inurba_marseille","lat":43.28934,"lon":5.39636,"is_reserved":false,"is_disabled":true,"rental_uris":{"android":"levelo://app?vid=bf67854a-fc75-4bbe-84b3-70a770694533","ios":"levelo://app?vid=bf67854a-fc75-4bbe-84b3-70a770694533"},"vehicle_type_id":"4","last_reported":1752326474,"current_range_meters":20400,"station_id":"ce4bh3h2rcd13ifvqdn0","pricing_plan_id":"cebpf4jnsgd1na2vs0mg"},{"bike_id":"5bd66fd2-a579-49f0-82c1-03d4944456a3","system_id":"levelo_inurba_marseille","lat":43.29731,"lon":5.37677,"is_reserved":false,"is_disabled":false,"rental_uris":{"android":"levelo://app?vid=5bd66fd2-a579-49f0-82c1-03d4944456a3","ios":"levelo://app?vid=5bd66fd2-a579-49f0-82c1-03d4944456a3"},"vehicle_type_id":"4","last_reported":1752326474,"current_range_meters":20400,"station_id":"ce4bgkh2rcd13ifvqbl0","pricing_plan_id":"cebpf4jnsgd1na2vs0mg"},{"bike_id":"f6ebceb6-095d-476c-a269-d0ea95913095","system_id":"levelo_inurba_marseille","lat":43.2318,"lon":5.39984,"is_reserved":false,"is_disabled":false,"rental_uris":{"android":"levelo://app?vid=f6ebceb6-095d-476c-a269-d0ea95913095","ios":"levelo://app?vid=f6ebceb6-095d-476c-a269-d0ea95913095"},"vehicle_type_id":"4","last_reported":1752326474,"current_range_meters":20400,"station_id":"ce4bhn12rcd13ifvqgqg","pricing_plan_id":"cebpf4jnsgd1na2vs0mg"},{"bike_id":"05fa5d69-b47f-410b-af11-3ae3da990491","system_id":"levelo_inurba_marseille","lat":43.29415,"lon":5.38612,"is_reserved":false,"is_disabled":true,"rental_uris":{"android":"levelo://app?vid=05fa5d69-b47f-410b-af11-3ae3da990491","ios":"levelo://app?vid=05fa5d69-b47f-410b-af11-3ae3da990491"},"vehicle_type_id":"4","last_reported":1752326474,"current_range_meters":20400,"station_id":"ce4bh2h2rcd13ifvqdh0","pricing_plan_id":"cebpf4jnsgd1na2vs0mg"},{"bike_id":"30a3ce8e-05f3-4ce9-b8dc-579dc27776c5","system_id":"levelo_inurba_marseille","lat":43.297039,"lon":5.365962,"is_reserved":false,"is_disabled":false,"rental_uris":{"android":"levelo://app?vid=30a3ce8e-05f3-4ce9-b8dc-579dc27776c5","ios":"levelo://app?vid=30a3ce8e-05f3-4ce9-b8dc-579dc27776c5"},"vehicle_type_id":"4","last_reported":1752326474,"current_range_meters":20800,"station_id":"ce4bgn12rcd13ifvqbt0","pricing_plan_id":"cebpf4jnsgd1na2vs0mg"},{"bike_id":"3647b369-1517-4aa7-a561-1837ba3ae7b4","system_id":"levelo_inurba_marseille","lat":43.23198,"lon":5.35555,"is_reserved":false,"is_disabled":false,"rental_uris":{"android":"levelo://app?vid=3647b369-1517-4aa7-a561-1837ba3ae7b4","ios":"levelo://app?vid=3647b369-1517-4aa7-a561-1837ba3ae7b4"},"vehicle_type_id":"4","last_reported":1752326474,"current_range_meters":20800,"station_id":"ce4bhu92rcd13ifvqi70","pricing_plan_id":"cebpf4jnsgd1na2vs0mg"},{"bike_id":"1cce0e80-96ea-4aae-a8e8-1f14f8389739","system_id":"levelo_inurba_marseille","lat":43.29059,"lon":5.37161,"is_reserved":false,"is_disabled":false,"rental_uris":{"android":"levelo://app?vid=1cce0e80-96ea-4aae-a8e8-1f14f8389739","ios":"levelo://app?vid=1cce0e80-96ea-4aae-a8e8-1f14f8389739"},"vehicle_type_id":"4","last_reported":1752326474,"current_range_meters":20800,"station_id":"ce4bh5p2rcd13ifvqe4g","pricing_plan_id":"cebpf4jnsgd1na2vs0mg"},{"bike_id":"f5a47db5-6fb2-46bd-a2de-efa4ad13bf60","system_id":"levelo_inurba_marseille","lat":43.211968,"lon":5.350852,"is_reserved":false,"is_disabled":false,"rental_uris":{"android":"levelo://app?vid=f5a47db5-6fb2-46bd-a2de-efa4ad13bf60","ios":"levelo://app?vid=f5a47db5-6fb2-46bd-a2de-efa4ad13bf60"},"vehicle_type_id":"4","last_reported":1752326474,"current_range_meters":20800,"station_id":"st_cvj6sg6p6f1abm77japg","pricing_plan_id":"cebpf4jnsgd1na2vs0mg"},{"bike_id":"579c9257-e9d2-4fed-8af3-001a27548604","system_id":"levelo_inurba_marseille","lat":43.21736,"lon":5.34658,"is_reserved":false,"is_disabled":false,"rental_uris":{"android":"levelo://app?vid=579c9257-e9d2-4fed-8af3-001a27548604","ios":"levelo://app?vid=579c9257-e9d2-4fed-8af3-001a27548604"},"vehicle_type_id":"4","last_reported":1752326474,"current_range_meters":20800,"station_id":"st_cvj6r9ubvosntc0bgbag","pricing_plan_id":"cebpf4jnsgd1na2vs0mg"},{"bike_id":"37e04037-4751-45cc-9e56-db1728107dad","system_id":"levelo_inurba_marseille","lat":43.31116,"lon":5.37777,"is_reserved":false,"is_disabled":false,"rental_uris":{"android":"levelo://app?vid=37e04037-4751-45cc-9e56-db1728107dad","ios":"levelo://app?vid=37e04037-4751-45cc-9e56-db1728107dad"},"vehicle_type_id":"4","last_reported":1752326474,"current_range_meters":20800,"station_id":"ce4bgt92rcd13ifvqcg0","pricing_plan_id":"cebpf4jnsgd1na2vs0mg"},{"bike_id":"9bfc7d3d-4e60-4f8a-9c32-ef3d0e77ec5b","system_id":"levelo_inurba_marseille","lat":43.211981,"lon":5.350805,"is_reserved":false,"is_disabled":false,"rental_uris":{"android":"levelo://app?vid=9bfc7d3d-4e60-4f8a-9c32-ef3d0e77ec5b","ios":"levelo://app?vid=9bfc7d3d-4e60-4f8a-9c32-ef3d0e77ec5b"},"vehicle_type_id":"4","last_reported":1752326474,"current_range_meters":20800,"station_id":"st_cvj6sg6p6f1abm77japg","pricing_plan_id":"cebpf4jnsgd1na2vs0mg"},{"bike_id":"f18268a6-fa56-4c92-820b-f6304184f968","system_id":"levelo_inurba_marseille","lat":43.2318,"lon":5.39992,"is_reserved":false,"is_disabled":false,"rental_uris":{"android":"levelo://app?vid=f18268a6-fa56-4c92-820b-f6304184f968","ios":"levelo://app?vid=f18268a6-fa56-4c92-820b-f6304184f968"},"vehicle_type_id":"4","last_reported":1752326474,"current_range_meters":20800,"station_id":"ce4bhn12rcd13ifvqgqg","pricing_plan_id":"cebpf4jnsgd1na2vs0mg"},{"bike_id":"2ced9b17-b947-4122-bc78-8575c6afa39f","system_id":"levelo_inurba_marseille","lat":43.27617,"lon":5.36102,"is_reserved":false,"is_disabled":false,"rental_uris":{"android":"levelo://app?vid=2ced9b17-b947-4122-bc78-8575c6afa39f","ios":"levelo://app?vid=2ced9b17-b947-4122-bc78-8575c6afa39f"},"vehicle_type_id":"4","last_reported":1752326474,"current_range_meters":21600,"station_id":"ce4bgj92rcd13ifvqbe0","pricing_plan_id":"cebpf4jnsgd1na2vs0mg"},{"bike_id":"bc5eb7fd-ce42-4ae4-b2d5-061b28e301f9","system_id":"levelo_inurba_marseille","lat":43.30531,"lon":5.38421,"is_reserved":false,"is_disabled":false,"rental_uris":{"android":"levelo://app?vid=bc5eb7fd-ce42-4ae4-b2d5-061b28e301f9","ios":"levelo://app?vid=bc5eb7fd-ce42-4ae4-b2d5-061b28e301f9"},"vehicle_type_id":"4","last_reported":1752326474,"current_range_meters":21600,"station_id":"ce4bgg92rcd13ifvqb30","pricing_plan_id":"cebpf4jnsgd1na2vs0mg"},{"bike_id":"2a1efcc0-2a61-4039-8934-6862a4ef09f0","system_id":"levelo_inurba_marseille","lat":43.296408,"lon":5.360254,"is_reserved":false,"is_disabled":false,"rental_uris":{"android":"levelo://app?vid=2a1efcc0-2a61-4039-8934-6862a4ef09f0","ios":"levelo://app?vid=2a1efcc0-2a61-4039-8934-6862a4ef09f0"},"vehicle_type_id":"4","last_reported":1752326474,"current_range_meters":21600,"station_id":"","pricing_plan_id":"cebpf4jnsgd1na2vs0mg"},{"bike_id":"95a066be-3e30-42fd-a855-11f450719fd3","system_id":"levelo_inurba_marseille","lat":43.28614,"lon":5.37061,"is_reserved":false,"is_disabled":false,"rental_uris":{"android":"levelo://app?vid=95a066be-3e30-42fd-a855-11f450719fd3","ios":"levelo://app?vid=95a066be-3e30-42fd-a855-11f450719fd3"},"vehicle_type_id":"4","last_reported":1752326474,"current_range_meters":21600,"station_id":"ce4bht12rcd13ifvqi60","pricing_plan_id":"cebpf4jnsgd1na2vs0mg"},{"bike_id":"d2eb7848-4e16-492e-bb2e-34b216f30c20","system_id":"levelo_inurba_marseille","lat":43.25945,"lon":5.40889,"is_reserved":false,"is_disabled":false,"rental_uris":{"android":"levelo://app?vid=d2eb7848-4e16-492e-bb2e-34b216f30c20","ios":"levelo://app?vid=d2eb7848-4e16-492e-bb2e-34b216f30c20"},"vehicle_type_id":"4","last_reported":1752326474,"current_range_meters":21600,"station_id":"ce4bhm92rcd13ifvqglg","pricing_plan_id":"cebpf4jnsgd1na2vs0mg"},{"bike_id":"4e9bb929-50ec-4f23-88f1-fe52869ccd8e","system_id":"levelo_inurba_marseille","lat":43.28854,"lon":5.35854,"is_reserved":false,"is_disabled":false,"rental_uris":{"android":"levelo://app?vid=4e9bb929-50ec-4f23-88f1-fe52869ccd8e","ios":"levelo://app?vid=4e9bb929-50ec-4f23-88f1-fe52869ccd8e"},"vehicle_type_id":"4","last_reported":1752326474,"current_range_meters":21600,"station_id":"ce4bhb12rcd13ifvqem0","pricing_plan_id":"cebpf4jnsgd1na2vs0mg"},{"bike_id":"58375fde-ca97-4dab-be52-59caf98323d3","system_id":"levelo_inurba_marseille","lat":43.26563,"lon":5.37276,"is_reserved":false,"is_disabled":true,"rental_uris":{"android":"levelo://app?vid=58375fde-ca97-4dab-be52-59caf98323d3","ios":"levelo://app?vid=58375fde-ca97-4dab-be52-59caf98323d3"},"vehicle_type_id":"4","last_reported":1752326474,"current_range_meters":21600,"station_id":"ce4bhg12rcd13ifvqf70","pricing_plan_id":"cebpf4jnsgd1na2vs0mg"},{"bike_id":"cc6260c7-e588-42d7-afef-96c409802ccc","system_id":"levelo_inurba_marseille","lat":43.212,"lon":5.35077,"is_reserved":false,"is_disabled":false,"rental_uris":{"android":"levelo://app?vid=cc6260c7-e588-42d7-afef-96c409802ccc","ios":"levelo://app?vid=cc6260c7-e588-42d7-afef-96c409802ccc"},"vehicle_type_id":"4","last_reported":1752326474,"current_range_meters":21600,"station_id":"st_cvj6sg6p6f1abm77japg","pricing_plan_id":"cebpf4jnsgd1na2vs0mg"},{"bike_id":"b8eb3130-c203-4842-b5ea-03fa9e487ff4","system_id":"levelo_inurba_marseille","lat":43.2418,"lon":5.36386,"is_reserved":false,"is_disabled":false,"rental_uris":{"android":"levelo://app?vid=b8eb3130-c203-4842-b5ea-03fa9e487ff4","ios":"levelo://app?vid=b8eb3130-c203-4842-b5ea-03fa9e487ff4"},"vehicle_type_id":"4","last_reported":1752326474,"current_range_meters":21600,"station_id":"cpo36qri1sfpv3e86is0","pricing_plan_id":"cebpf4jnsgd1na2vs0mg"},{"bike_id":"edcedb09-6a9f-45df-af36-17ed279864fd","system_id":"levelo_inurba_marseille","lat":43.296348,"lon":5.405913,"is_reserved":false,"is_disabled":false,"rental_uris":{"android":"levelo://app?vid=edcedb09-6a9f-45df-af36-17ed279864fd","ios":"levelo://app?vid=edcedb09-6a9f-45df-af36-17ed279864fd"},"vehicle_type_id":"4","last_reported":1752326474,"current_range_meters":21600,"station_id":"ce4bh0h2rcd13ifvqd60","pricing_plan_id":"cebpf4jnsgd1na2vs0mg"},{"bike_id":"717f238c-5e2e-466d-960b-5b21e181d0eb","system_id":"levelo_inurba_marseille","lat":43.28413,"lon":5.34977,"is_reserved":false,"is_disabled":false,"rental_uris":{"android":"levelo://app?vid=717f238c-5e2e-466d-960b-5b21e181d0eb","ios":"levelo://app?vid=717f238c-5e2e-466d-960b-5b21e181d0eb"},"vehicle_type_id":"4","last_reported":1752326474,"current_range_meters":22000,"station_id":"ce4bhbh2rcd13ifvqepg","pricing_plan_id":"cebpf4jnsgd1na2vs0mg"},{"bike_id":"58708a85-826d-4c05-9b70-33e62254056d","system_id":"levelo_inurba_marseille","lat":43.23193,"lon":5.35558,"is_reserved":false,"is_disabled":false,"rental_uris":{"android":"levelo://app?vid=58708a85-826d-4c05-9b70-33e62254056d","ios":"levelo://app?vid=58708a85-826d-4c05-9b70-33e62254056d"},"vehicle_type_id":"4","last_reported":1752326474,"current_range_meters":22000,"station_id":"ce4bhu92rcd13ifvqi70","pricing_plan_id":"cebpf4jnsgd1na2vs0mg"},{"bike_id":"a2d7d9fb-db2b-46fc-8a0f-4c00c1d93f6c","system_id":"levelo_inurba_marseille","lat":43.25864,"lon":5.39898,"is_reserved":false,"is_disabled":false,"rental_uris":{"android":"levelo://app?vid=a2d7d9fb-db2b-46fc-8a0f-4c00c1d93f6c","ios":"levelo://app?vid=a2d7d9fb-db2b-46fc-8a0f-4c00c1d93f6c"},"vehicle_type_id":"4","last_reported":1752326474,"current_range_meters":22000,"station_id":"ce4bhl92rcd13ifvqghg","pricing_plan_id":"cebpf4jnsgd1na2vs0mg"},{"bike_id":"a73fd0d5-ee60-4fac-b340-8e5eb698bf4a","system_id":"levelo_inurba_marseille","lat":43.28828,"lon":5.35887,"is_reserved":false,"is_disabled":false,"rental_uris":{"android":"levelo://app?vid=a73fd0d5-ee60-4fac-b340-8e5eb698bf4a","ios":"levelo://app?vid=a73fd0d5-ee60-4fac-b340-8e5eb698bf4a"},"vehicle_type_id":"4","last_reported":1752326474,"current_range_meters":22000,"station_id":"","pricing_plan_id":"cebpf4jnsgd1na2vs0mg"},{"bike_id":"b3c3491c-305d-44b9-99fe-71afe816f55d","system_id":"levelo_inurba_marseille","lat":43.23193,"lon":5.3557,"is_reserved":false,"is_disabled":false,"rental_uris":{"android":"levelo://app?vid=b3c3491c-305d-44b9-99fe-71afe816f55d","ios":"levelo://app?vid=b3c3491c-305d-44b9-99fe-71afe816f55d"},"vehicle_type_id":"4","last_reported":1752326474,"current_range_meters":22000,"station_id":"ce4bhu92rcd13ifvqi70","pricing_plan_id":"cebpf4jnsgd1na2vs0mg"},{"bike_id":"e6018c35-a5df-4aff-afa4-a4a0686d1e7c","system_id":"levelo_inurba_marseille","lat":43.26562,"lon":5.39003,"is_reserved":false,"is_disabled":false,"rental_uris":{"android":"levelo://app?vid=e6018c35-a5df-4aff-afa4-a4a0686d1e7c","ios":"levelo://app?vid=e6018c35-a5df-4aff-afa4-a4a0686d1e7c"},"vehicle_type_id":"4","last_reported":1752326474,"current_range_meters":22000,"station_id":"ce4bhe12rcd13ifvqf30","pricing_plan_id":"cebpf4jnsgd1na2vs0mg"},{"bike_id":"c8c4de1a-846f-4f5b-aace-9fb14bf7ad52","system_id":"levelo_inurba_marseille","lat":43.211973,"lon":5.350832,"is_reserved":false,"is_disabled":false,"rental_uris":{"android":"levelo://app?vid=c8c4de1a-846f-4f5b-aace-9fb14bf7ad52","ios":"levelo://app?vid=c8c4de1a-846f-4f5b-aace-9fb14bf7ad52"},"vehicle_type_id":"4","last_reported":1752326474,"current_range_meters":22000,"station_id":"st_cvj6sg6p6f1abm77japg","pricing_plan_id":"cebpf4jnsgd1na2vs0mg"},{"bike_id":"7b24d22c-7607-4d99-a30c-c524d01a3c3f","system_id":"levelo_inurba_marseille","lat":43.28616,"lon":5.35104,"is_reserved":false,"is_disabled":false,"rental_uris":{"android":"levelo://app?vid=7b24d22c-7607-4d99-a30c-c524d01a3c3f","ios":"levelo://app?vid=7b24d22c-7607-4d99-a30c-c524d01a3c3f"},"vehicle_type_id":"4","last_reported":1752326474,"current_range_meters":22400,"station_id":"ce4bhch2rcd13ifvqeug","pricing_plan_id":"cebpf4jnsgd1na2vs0mg"},{"bike_id":"f9b2ee30-8949-4229-a1fe-354de1b575f3","system_id":"levelo_inurba_marseille","lat":43.29912,"lon":5.37488,"is_reserved":false,"is_disabled":false,"rental_uris":{"android":"levelo://app?vid=f9b2ee30-8949-4229-a1fe-354de1b575f3","ios":"levelo://app?vid=f9b2ee30-8949-4229-a1fe-354de1b575f3"},"vehicle_type_id":"4","last_reported":1752326474,"current_range_meters":22400,"station_id":"ce4bgjh2rcd13ifvqbg0","pricing_plan_id":"cebpf4jnsgd1na2vs0mg"},{"bike_id":"9fc4a9a4-df65-4ffb-87a7-e95c9bee6d88","system_id":"levelo_inurba_marseille","lat":43.25092,"lon":5.3952,"is_reserved":false,"is_disabled":false,"rental_uris":{"android":"levelo://app?vid=9fc4a9a4-df65-4ffb-87a7-e95c9bee6d88","ios":"levelo://app?vid=9fc4a9a4-df65-4ffb-87a7-e95c9bee6d88"},"vehicle_type_id":"4","last_reported":1752326474,"current_range_meters":22400,"station_id":"ce4bhm12rcd13ifvqgkg","pricing_plan_id":"cebpf4jnsgd1na2vs0mg"},{"bike_id":"aa2a32c7-f3b0-4cc8-ba32-fa0bbb201196","system_id":"levelo_inurba_marseille","lat":43.28662,"lon":5.3635,"is_reserved":false,"is_disabled":false,"rental_uris":{"android":"levelo://app?vid=aa2a32c7-f3b0-4cc8-ba32-fa0bbb201196","ios":"levelo://app?vid=aa2a32c7-f3b0-4cc8-ba32-fa0bbb201196"},"vehicle_type_id":"4","last_reported":1752326474,"current_range_meters":22400,"station_id":"ce4bhah2rcd13ifvqej0","pricing_plan_id":"cebpf4jnsgd1na2vs0mg"},{"bike_id":"99ae43ef-9981-41ec-907c-f94f73cc9ad2","system_id":"levelo_inurba_marseille","lat":43.29985,"lon":5.38484,"is_reserved":false,"is_disabled":false,"rental_uris":{"android":"levelo://app?vid=99ae43ef-9981-41ec-907c-f94f73cc9ad2","ios":"levelo://app?vid=99ae43ef-9981-41ec-907c-f94f73cc9ad2"},"vehicle_type_id":"4","last_reported":1752326474,"current_range_meters":22400,"station_id":"ce4bgj92rcd13ifvqbd0","pricing_plan_id":"cebpf4jnsgd1na2vs0mg"},{"bike_id":"4c9976cb-0072-46d9-8990-55d0a12585bd","system_id":"levelo_inurba_marseille","lat":43.28485,"lon":5.38558,"is_reserved":false,"is_disabled":false,"rental_uris":{"android":"levelo://app?vid=4c9976cb-0072-46d9-8990-55d0a12585bd","ios":"levelo://app?vid=4c9976cb-0072-46d9-8990-55d0a12585bd"},"vehicle_type_id":"4","last_reported":1752326474,"current_range_meters":22400,"station_id":"ce4bh8p2rcd13ifvqeb0","pricing_plan_id":"cebpf4jnsgd1na2vs0mg"},{"bike_id":"e551c81f-beb8-4535-a76a-0860bd6c5653","system_id":"levelo_inurba_marseille","lat":43.294338,"lon":5.386183,"is_reserved":false,"is_disabled":true,"rental_uris":{"android":"levelo://app?vid=e551c81f-beb8-4535-a76a-0860bd6c5653","ios":"levelo://app?vid=e551c81f-beb8-4535-a76a-0860bd6c5653"},"vehicle_type_id":"4","last_reported":1752326474,"current_range_meters":22800,"station_id":"ce4bh2h2rcd13ifvqdh0","pricing_plan_id":"cebpf4jnsgd1na2vs0mg"},{"bike_id":"9866185c-78fc-4502-9c35-91dca94096dc","system_id":"levelo_inurba_marseille","lat":43.29093,"lon":5.38123,"is_reserved":false,"is_disabled":false,"rental_uris":{"android":"levelo://app?vid=9866185c-78fc-4502-9c35-91dca94096dc","ios":"levelo://app?vid=9866185c-78fc-4502-9c35-91dca94096dc"},"vehicle_type_id":"4","last_reported":1752326474,"current_range_meters":22400,"station_id":"ce4bh512rcd13ifvqe2g","pricing_plan_id":"cebpf4jnsgd1na2vs0mg"},{"bike_id":"24291c8a-55e8-4bb0-b403-3f1cd1fea58f","system_id":"levelo_inurba_marseille","lat":43.28407,"lon":5.34988,"is_reserved":false,"is_disabled":false,"rental_uris":{"android":"levelo://app?vid=24291c8a-55e8-4bb0-b403-3f1cd1fea58f","ios":"levelo://app?vid=24291c8a-55e8-4bb0-b403-3f1cd1fea58f"},"vehicle_type_id":"4","last_reported":1752326474,"current_range_meters":22800,"station_id":"ce4bhbh2rcd13ifvqepg","pricing_plan_id":"cebpf4jnsgd1na2vs0mg"},{"bike_id":"58c20383-5dac-4de8-95bb-1972282188ec","system_id":"levelo_inurba_marseille","lat":43.29707,"lon":5.37694,"is_reserved":false,"is_disabled":false,"rental_uris":{"android":"levelo://app?vid=58c20383-5dac-4de8-95bb-1972282188ec","ios":"levelo://app?vid=58c20383-5dac-4de8-95bb-1972282188ec"},"vehicle_type_id":"4","last_reported":1752326474,"current_range_meters":22400,"station_id":"ce4bgkh2rcd13ifvqbl0","pricing_plan_id":"cebpf4jnsgd1na2vs0mg"},{"bike_id":"48379af6-aafb-4c14-b1cf-515e0b2f865e","system_id":"levelo_inurba_marseille","lat":43.28416,"lon":5.34992,"is_reserved":false,"is_disabled":false,"rental_uris":{"android":"levelo://app?vid=48379af6-aafb-4c14-b1cf-515e0b2f865e","ios":"levelo://app?vid=48379af6-aafb-4c14-b1cf-515e0b2f865e"},"vehicle_type_id":"4","last_reported":1752326474,"current_range_meters":22800,"station_id":"ce4bhbh2rcd13ifvqepg","pricing_plan_id":"cebpf4jnsgd1na2vs0mg"},{"bike_id":"6f1f6682-b964-418f-ae94-27c168ea1b13","system_id":"levelo_inurba_marseille","lat":43.26934,"lon":5.4027,"is_reserved":false,"is_disabled":false,"rental_uris":{"android":"levelo://app?vid=6f1f6682-b964-418f-ae94-27c168ea1b13","ios":"levelo://app?vid=6f1f6682-b964-418f-ae94-27c168ea1b13"},"vehicle_type_id":"4","last_reported":1752326474,"current_range_meters":22800,"station_id":"cjm6bp8fraef2m0cb0m0","pricing_plan_id":"cebpf4jnsgd1na2vs0mg"},{"bike_id":"664c96be-4056-4802-a1d2-587929b78cbc","system_id":"levelo_inurba_marseille","lat":43.310737,"lon":5.383628,"is_reserved":false,"is_disabled":false,"rental_uris":{"android":"levelo://app?vid=664c96be-4056-4802-a1d2-587929b78cbc","ios":"levelo://app?vid=664c96be-4056-4802-a1d2-587929b78cbc"},"vehicle_type_id":"4","last_reported":1752326474,"current_range_meters":22800,"station_id":"ce4bgv92rcd13ifvqcr0","pricing_plan_id":"cebpf4jnsgd1na2vs0mg"},{"bike_id":"a9389389-8f8e-4598-8355-ba71da8635dd","system_id":"levelo_inurba_marseille","lat":43.28944,"lon":5.36631,"is_reserved":false,"is_disabled":false,"rental_uris":{"android":"levelo://app?vid=a9389389-8f8e-4598-8355-ba71da8635dd","ios":"levelo://app?vid=a9389389-8f8e-4598-8355-ba71da8635dd"},"vehicle_type_id":"4","last_reported":1752326474,"current_range_meters":22800,"station_id":"ce4bhap2rcd13ifvqek0","pricing_plan_id":"cebpf4jnsgd1na2vs0mg"},{"bike_id":"2ec427da-b403-4a7e-86be-3f48ba535d18","system_id":"levelo_inurba_marseille","lat":43.21184,"lon":5.35081,"is_reserved":false,"is_disabled":false,"rental_uris":{"android":"levelo://app?vid=2ec427da-b403-4a7e-86be-3f48ba535d18","ios":"levelo://app?vid=2ec427da-b403-4a7e-86be-3f48ba535d18"},"vehicle_type_id":"4","last_reported":1752326474,"current_range_meters":23200,"station_id":"st_cvj6sg6p6f1abm77japg","pricing_plan_id":"cebpf4jnsgd1na2vs0mg"},{"bike_id":"6e68e630-5e44-4355-baf7-dafc6ad0fa8d","system_id":"levelo_inurba_marseille","lat":43.30149,"lon":5.38083,"is_reserved":false,"is_disabled":false,"rental_uris":{"android":"levelo://app?vid=6e68e630-5e44-4355-baf7-dafc6ad0fa8d","ios":"levelo://app?vid=6e68e630-5e44-4355-baf7-dafc6ad0fa8d"},"vehicle_type_id":"4","last_reported":1752326474,"current_range_meters":23200,"station_id":"ce4bgjp2rcd13ifvqbh0","pricing_plan_id":"cebpf4jnsgd1na2vs0mg"},{"bike_id":"9db28d4b-664c-404f-aaf8-b17ccf23b67e","system_id":"levelo_inurba_marseille","lat":43.33732,"lon":5.39183,"is_reserved":false,"is_disabled":false,"rental_uris":{"android":"levelo://app?vid=9db28d4b-664c-404f-aaf8-b17ccf23b67e","ios":"levelo://app?vid=9db28d4b-664c-404f-aaf8-b17ccf23b67e"},"vehicle_type_id":"4","last_reported":1752326474,"current_range_meters":22800,"station_id":"ce4bhr92rcd13ifvqhsg","pricing_plan_id":"cebpf4jnsgd1na2vs0mg"},{"bike_id":"80955d0f-8669-4c02-b90f-c6fe20790c37","system_id":"levelo_inurba_marseille","lat":43.232014,"lon":5.350534,"is_reserved":false,"is_disabled":false,"rental_uris":{"android":"levelo://app?vid=80955d0f-8669-4c02-b90f-c6fe20790c37","ios":"levelo://app?vid=80955d0f-8669-4c02-b90f-c6fe20790c37"},"vehicle_type_id":"4","last_reported":1752326474,"current_range_meters":23200,"station_id":"","pricing_plan_id":"cebpf4jnsgd1na2vs0mg"},{"bike_id":"10262b9a-5854-4a51-96d2-825e9a6b2cf8","system_id":"levelo_inurba_marseille","lat":43.32289,"lon":5.3826,"is_reserved":false,"is_disabled":false,"rental_uris":{"android":"levelo://app?vid=10262b9a-5854-4a51-96d2-825e9a6b2cf8","ios":"levelo://app?vid=10262b9a-5854-4a51-96d2-825e9a6b2cf8"},"vehicle_type_id":"4","last_reported":1752326474,"current_range_meters":22800,"station_id":"ce4bhr12rcd13ifvqhqg","pricing_plan_id":"cebpf4jnsgd1na2vs0mg"},{"bike_id":"23a0fc67-4c39-4b74-8a86-2903d79b1606","system_id":"levelo_inurba_marseille","lat":43.23192,"lon":5.35555,"is_reserved":false,"is_disabled":true,"rental_uris":{"android":"levelo://app?vid=23a0fc67-4c39-4b74-8a86-2903d79b1606","ios":"levelo://app?vid=23a0fc67-4c39-4b74-8a86-2903d79b1606"},"vehicle_type_id":"4","last_reported":1752326474,"current_range_meters":23200,"station_id":"ce4bhu92rcd13ifvqi70","pricing_plan_id":"cebpf4jnsgd1na2vs0mg"},{"bike_id":"8594a265-61cf-4378-b1a2-d1420f9c31b8","system_id":"levelo_inurba_marseille","lat":43.27975,"lon":5.38747,"is_reserved":false,"is_disabled":false,"rental_uris":{"android":"levelo://app?vid=8594a265-61cf-4378-b1a2-d1420f9c31b8","ios":"levelo://app?vid=8594a265-61cf-4378-b1a2-d1420f9c31b8"},