{"last_updated":1729171072,"ttl":60,"version":"2.2","data":{"bikes":[{"bike_id":"d24510a5-cbcb-4911-8b3f-bcfc556a2da9","system_id":"levelo_inurba_marseille","lat":43.25581,"lon":5.38225,"is_reserved":false,"is_disabled":false,"rental_uris":{"android":"levelo://app?vid=d24510a5-cbcb-4911-8b3f-bcfc556a2da9","ios":"levelo://app?vid=d24510a5-cbcb-4911-8b3f-bcfc556a2da9"},"vehicle_type_id":"4","last_reported":1729171072,"current_range_meters":28000,"station_id":"ce4bhih2rcd13ifvqfs0","pricing_plan_id":"cebpf4jnsgd1na2vs0mg"},{"bike_id":"6e1a69fa-28b6-4b31-bb32-4c2399508547","system_id":"levelo_inurba_marseille","lat":43.29734,"lon":5.37688,"is_reserved":false,"is_disabled":false,"rental_uris":{"android":"levelo://app?vid=6e1a69fa-28b6-4b31-bb32-4c2399508547","ios":"levelo://app?vid=6e1a69fa-28b6-4b31-bb32-4c2399508547"},"vehicle_type_id":"4","last_reported":1729171072,"current_range_meters":37600,"station_id":"ce4bgkh2rcd13ifvqbl0","pricing_plan_id":"cebpf4jnsgd1na2vs0mg"},{"bike_id":"d5700f32-3757-4726-8166-d2ceaee54109","system_id":"levelo_inurba_marseille","lat":43.30796,"lon":5.3815,"is_reserved":false,"is_disabled":false,"rental_uris":{"android":"levelo://app?vid=d5700f32-3757-4726-8166-d2ceaee54109","ios":"levelo://app?vid=d5700f32-3757-4726-8166-d2ceaee54109"},"vehicle_type_id":"4","last_reported":1729171072,"current_range_meters":38800,"station_id":"ce4bgt12rcd13ifvqce0","pricing_plan_id":"cebpf4jnsgd1na2vs0mg"},{"bike_id":"ade2b7dd-a1aa-4959-8297-12e9041118cb","system_id":"levelo_inurba_marseille","lat":43.28939,"lon":5.39625,"is_reserved":false,"is_disabled":false,"rental_uris":{"android":"levelo://app?vid=ade2b7dd-a1aa-4959-8297-12e9041118cb","ios":"levelo://app?vid=ade2b7dd-a1aa-4959-8297-12e9041118cb"},"vehicle_type_id":"4","last_reported":1729171072,"current_range_meters":30800,"station_id":"ce4bh3h2rcd13ifvqdn0","pricing_plan_id":"cebpf4jnsgd1na2vs0mg"},{"bike_id":"676ec6c4-6b42-43e0-81fe-327782965da5","system_id":"levelo_inurba_marseille","lat":43.337444,"lon":5.374475,"is_reserved":false,"is_disabled":false,"rental_uris":{"android":"levelo://app?vid=676ec6c4-6b42-43e0-81fe-327782965da5","ios":"levelo://app?vid=676ec6c4-6b42-43e0-81fe-327782965da5"},"vehicle_type_id":"4","last_reported":1729171072,"current_range_meters":16800,"station_id":"","pricing_plan_id":"cebpf4jnsgd1na2vs0mg"},{"bike_id":"9d14cfb8-7a20-4ee5-8f0a-15d082c27676","system_id":"levelo_inurba_marseille","lat":43.28621,"lon":5.35103,"is_reserved":false,"is_disabled":false,"rental_uris":{"android":"levelo://app?vid=9d14cfb8-7a20-4ee5-8f0a-15d082c27676","ios":"levelo://app?vid=9d14cfb8-7a20-4ee5-8f0a-15d082c27676"},"vehicle_type_id":"4","last_reported":1729171072,"current_range_meters":38400,"station_id":"ce4bhch2rcd13ifvqeug","pricing_plan_id":"cebpf4jnsgd1na2vs0mg"},{"bike_id":"53ec7628-b100-4dfa-8d4c-c67d9b22a949","system_id":"levelo_inurba_marseille","lat":43.29979,"lon":5.37164,"is_reserved":false,"is_disabled":false,"rental_uris":{"android":"levelo://app?vid=53ec7628-b100-4dfa-8d4c-c67d9b22a949","ios":"levelo://app?vid=53ec7628-b100-4dfa-8d4c-c67d9b22a949"},"vehicle_type_id":"4","last_reported":1729171072,"current_range_meters":38000,"station_id":"ce4bgr92rcd13ifvqc7g","pricing_plan_id":"cebpf4jnsgd1na2vs0mg"},{"bike_id":"c1359b57-6ae0-427e-9abc-4b172c7e2e67","system_id":"levelo_inurba_marseille","lat":43.30935,"lon":5.40144,"is_reserved":false,"is_disabled":false,"rental_uris":{"android":"levelo://app?vid=c1359b57-6ae0-427e-9abc-4b172c7e2e67","ios":"levelo://app?vid=c1359b57-6ae0-427e-9abc-4b172c7e2e67"},"vehicle_type_id":"4","last_reported":1729171072,"current_range_meters":40000,"station_id":"ce4bgvp2rcd13ifvqct0","pricing_plan_id":"cebpf4jnsgd1na2vs0mg"},{"bike_id":"3aaf82e4-9dd9-493b-b80a-7c1599f88417","system_id":"levelo_inurba_marseille","lat":43.28615,"lon":5.35102,"is_reserved":false,"is_disabled":false,"rental_uris":{"android":"levelo://app?vid=3aaf82e4-9dd9-493b-b80a-7c1599f88417","ios":"levelo://app?vid=3aaf82e4-9dd9-493b-b80a-7c1599f88417"},"vehicle_type_id":"4","last_reported":1729171072,"current_range_meters":7200,"station_id":"ce4bhch2rcd13ifvqeug","pricing_plan_id":"cebpf4jnsgd1na2vs0mg"},{"bike_id":"cb92d305-8573-48a9-b529-db8aa7d1672c","system_id":"levelo_inurba_marseille","lat":43.27207,"lon":5.39179,"is_reserved":false,"is_disabled":false,"rental_uris":{"android":"levelo://app?vid=cb92d305-8573-48a9-b529-db8aa7d1672c","ios":"levelo://app?vid=cb92d305-8573-48a9-b529-db8aa7d1672c"},"vehicle_type_id":"4","last_reported":1729171072,"current_range_meters":16000,"station_id":"ce4bhhp2rcd13ifvqfm0","pricing_plan_id":"cebpf4jnsgd1na2vs0mg"},{"bike_id":"6f689e6d-fdec-4bd6-baf1-29cc6c080826","system_id":"levelo_inurba_marseille","lat":43.29966,"lon":5.38504,"is_reserved":false,"is_disabled":false,"rental_uris":{"android":"levelo://app?vid=6f689e6d-fdec-4bd6-baf1-29cc6c080826","ios":"levelo://app?vid=6f689e6d-fdec-4bd6-baf1-29cc6c080826"},"vehicle_type_id":"4","last_reported":1729171072,"current_range_meters":19600,"station_id":"ce4bgj92rcd13ifvqbd0","pricing_plan_id":"cebpf4jnsgd1na2vs0mg"},{"bike_id":"f007d8fd-5fb4-4dc0-b2f7-a68b1d39079e","system_id":"levelo_inurba_marseille","lat":43.27376,"lon":5.36257,"is_reserved":false,"is_disabled":false,"rental_uris":{"android":"levelo://app?vid=f007d8fd-5fb4-4dc0-b2f7-a68b1d39079e","ios":"levelo://app?vid=f007d8fd-5fb4-4dc0-b2f7-a68b1d39079e"},"vehicle_type_id":"4","last_reported":1729171072,"current_range_meters":34000,"station_id":"ce4bhbh2rcd13ifvqeo0","pricing_plan_id":"cebpf4jnsgd1na2vs0mg"},{"bike_id":"b9b3ba5c-90e0-4849-aa6c-139933989e3c","system_id":"levelo_inurba_marseille","lat":43.29881,"lon":5.38898,"is_reserved":false,"is_disabled":false,"rental_uris":{"android":"levelo://app?vid=b9b3ba5c-90e0-4849-aa6c-139933989e3c","ios":"levelo://app?vid=b9b3ba5c-90e0-4849-aa6c-139933989e3c"},"vehicle_type_id":"4","last_reported":1729171072,"current_range_meters":20800,"station_id":"ce4bh392rcd13ifvqdl0","pricing_plan_id":"cebpf4jnsgd1na2vs0mg"},{"bike_id":"2cd8e8e5-a380-4199-a5f6-5b4ec22b465b","system_id":"levelo_inurba_marseille","lat":43.26575,"lon":5.39003,"is_reserved":false,"is_disabled":false,"rental_uris":{"android":"levelo://app?vid=2cd8e8e5-a380-4199-a5f6-5b4ec22b465b","ios":"levelo://app?vid=2cd8e8e5-a380-4199-a5f6-5b4ec22b465b"},"vehicle_type_id":"4","last_reported":1729171072,"current_range_meters":4800,"station_id":"ce4bhe12rcd13ifvqf30","pricing_plan_id":"cebpf4jnsgd1na2vs0mg"},{"bike_id":"c5c6514c-cf47-481b-a7cd-34972ff0afad","system_id":"levelo_inurba_marseille","lat":43.23161,"lon":5.43712,"is_reserved":false,"is_disabled":false,"rental_uris":{"android":"levelo://app?vid=c5c6514c-cf47-481b-a7cd-34972ff0afad","ios":"levelo://app?vid=c5c6514c-cf47-481b-a7cd-34972ff0afad"},"vehicle_type_id":"4","last_reported":1729171072,"current_range_meters":14400,"station_id":"ce4bhmp2rcd13ifvqgog","pricing_plan_id":"cebpf4jnsgd1na2vs0mg"},{"bike_id":"a1a89038-3c39-49b5-8b4b-d3466f96b9a7","system_id":"levelo_inurba_marseille","lat":43.28852,"lon":5.35868,"is_reserved":false,"is_disabled":false,"rental_uris":{"android":"levelo://app?vid=a1a89038-3c39-49b5-8b4b-d3466f96b9a7","ios":"levelo://app?vid=a1a89038-3c39-49b5-8b4b-d3466f96b9a7"},"vehicle_type_id":"4","last_reported":1729171072,"current_range_meters":38800,"station_id":"ce4bhb12rcd13ifvqem0","pricing_plan_id":"cebpf4jnsgd1na2vs0mg"},{"bike_id":"4ae2c184-8c50-452d-87fb-8f7bf4f540f3","system_id":"levelo_inurba_marseille","lat":43.24656,"lon":5.38897,"is_reserved":false,"is_disabled":false,"rental_uris":{"android":"levelo://app?vid=4ae2c184-8c50-452d-87fb-8f7bf4f540f3","ios":"levelo://app?vid=4ae2c184-8c50-452d-87fb-8f7bf4f540f3"},"vehicle_type_id":"4","last_reported":1729171072,"current_range_meters":40000,"station_id":"ce4bhg12rcd13ifvqf60","pricing_plan_id":"cebpf4jnsgd1na2vs0mg"},{"bike_id":"69641d30-f779-4b50-8b70-0592a6ee5886","system_id":"levelo_inurba_marseille","lat":43.30552,"lon":5.36702,"is_reserved":false,"is_disabled":false,"rental_uris":{"android":"levelo://app?vid=69641d30-f779-4b50-8b70-0592a6ee5886","ios":"levelo://app?vid=69641d30-f779-4b50-8b70-0592a6ee5886"},"vehicle_type_id":"4","last_reported":1729171072,"current_range_meters":25600,"station_id":"ce4bgrp2rcd13ifvqc9g","pricing_plan_id":"cebpf4jnsgd1na2vs0mg"},{"bike_id":"6c90fa34-98d3-42d8-bce3-59ac5e2bd2aa","system_id":"levelo_inurba_marseille","lat":43.30435,"lon":5.39743,"is_reserved":false,"is_disabled":false,"rental_uris":{"android":"levelo://app?vid=6c90fa34-98d3-42d8-bce3-59ac5e2bd2aa","ios":"levelo://app?vid=6c90fa34-98d3-42d8-bce3-59ac5e2bd2aa"},"vehicle_type_id":"4","last_reported":1729171072,"current_range_meters":34000,"station_id":"ce4bh092rcd13ifvqd20","pricing_plan_id":"cebpf4jnsgd1na2vs0mg"},{"bike_id":"8f6be8d7-966e-4d4e-876a-0f1ae1f8bb44","system_id":"levelo_inurba_marseille","lat":43.2466,"lon":5.38157,"is_reserved":false,"is_disabled":false,"rental_uris":{"android":"levelo://app?vid=8f6be8d7-966e-4d4e-876a-0f1ae1f8bb44","ios":"levelo://app?vid=8f6be8d7-966e-4d4e-876a-0f1ae1f8bb44"},"vehicle_type_id":"4","last_reported":1729171072,"current_range_meters":4800,"station_id":"ce4bhih2rcd13ifvqfr0","pricing_plan_id":"cebpf4jnsgd1na2vs0mg"},{"bike_id":"1a1271a2-48ae-4895-b5f4-5dc010d1a002","system_id":"levelo_inurba_marseille","lat":43.28935,"lon":5.38389,"is_reserved":false,"is_disabled":false,"rental_uris":{"android":"levelo://app?vid=1a1271a2-48ae-4895-b5f4-5dc010d1a002","ios":"levelo://app?vid=1a1271a2-48ae-4895-b5f4-5dc010d1a002"},"vehicle_type_id":"4","last_reported":1729171072,"current_range_meters":34800,"station_id":"ce4bh612rcd13ifvqe6g","pricing_plan_id":"cebpf4jnsgd1na2vs0mg"},{"bike_id":"56da5a5d-e301-4452-8c07-d6a5a0f92928","system_id":"levelo_inurba_marseille","lat":43.30543,"lon":5.36708,"is_reserved":false,"is_disabled":false,"rental_uris":{"android":"levelo://app?vid=56da5a5d-e301-4452-8c07-d6a5a0f92928","ios":"levelo://app?vid=56da5a5d-e301-4452-8c07-d6a5a0f92928"},"vehicle_type_id":"4","last_reported":1729171072,"current_range_meters":39200,"station_id":"ce4bgrp2rcd13ifvqc9g","pricing_plan_id":"cebpf4jnsgd1na2vs0mg"},{"bike_id":"5f1a50b7-e02e-4b7e-8feb-26be83832742","system_id":"levelo_inurba_marseille","lat":43.30429,"lon":5.39751,"is_reserved":false,"is_disabled":false,"rental_uris":{"android":"levelo://app?vid=5f1a50b7-e02e-4b7e-8feb-26be83832742","ios":"levelo://app?vid=5f1a50b7-e02e-4b7e-8feb-26be83832742"},"vehicle_type_id":"4","last_reported":1729171072,"current_range_meters":33600,"station_id":"ce4bh092rcd13ifvqd20","pricing_plan_id":"cebpf4jnsgd1na2vs0mg"},{"bike_id":"052b3563-392a-4857-8174-027696f961ab","system_id":"levelo_inurba_marseille","lat":43.24651,"lon":5.38913,"is_reserved":false,"is_disabled":false,"rental_uris":{"android":"levelo://app?vid=052b3563-392a-4857-8174-027696f961ab","ios":"levelo://app?vid=052b3563-392a-4857-8174-027696f961ab"},"vehicle_type_id":"4","last_reported":1729171072,"current_range_meters":24400,"station_id":"ce4bhg12rcd13ifvqf60","pricing_plan_id":"cebpf4jnsgd1na2vs0mg"},{"bike_id":"e2c1501f-d025-4af9-8a83-6b0a6e2d1aee","system_id":"levelo_inurba_marseille","lat":43.31763,"lon":5.38999,"is_reserved":false,"is_disabled":false,"rental_uris":{"android":"levelo://app?vid=e2c1501f-d025-4af9-8a83-6b0a6e2d1aee","ios":"levelo://app?vid=e2c1501f-d025-4af9-8a83-6b0a6e2d1aee"},"vehicle_type_id":"4","last_reported":1729171072,"current_range_meters":28000,"station_id":"ce4bhqp2rcd13ifvqhng","pricing_plan_id":"cebpf4jnsgd1na2vs0mg"},{"bike_id":"1c19b709-4b2c-41c2-a05e-20ba53344a40","system_id":"levelo_inurba_marseille","lat":43.275,"lon":5.42451,"is_reserved":false,"is_disabled":false,"rental_uris":{"android":"levelo://app?vid=1c19b709-4b2c-41c2-a05e-20ba53344a40","ios":"levelo://app?vid=1c19b709-4b2c-41c2-a05e-20ba53344a40"},"vehicle_type_id":"4","last_reported":1729171072,"current_range_meters":39200,"station_id":"ce4bhn92rcd13ifvqgrg","pricing_plan_id":"cebpf4jnsgd1na2vs0mg"},{"bike_id":"f99e26c6-ad2a-4527-b03e-a1feb7148f3f","system_id":"levelo_inurba_marseille","lat":43.29709,"lon":5.36617,"is_reserved":false,"is_disabled":false,"rental_uris":{"android":"levelo://app?vid=f99e26c6-ad2a-4527-b03e-a1feb7148f3f","ios":"levelo://app?vid=f99e26c6-ad2a-4527-b03e-a1feb7148f3f"},"vehicle_type_id":"4","last_reported":1729171072,"current_range_meters":36800,"station_id":"ce4bgn12rcd13ifvqbt0","pricing_plan_id":"cebpf4jnsgd1na2vs0mg"},{"bike_id":"94647bec-1e3a-4324-aa3c-e061248e2556","system_id":"levelo_inurba_marseille","lat":43.238118,"lon":5.430942,"is_reserved":false,"is_disabled":false,"rental_uris":{"android":"levelo://app?vid=94647bec-1e3a-4324-aa3c-e061248e2556","ios":"levelo://app?vid=94647bec-1e3a-4324-aa3c-e061248e2556"},"vehicle_type_id":"4","last_reported":1729171072,"current_range_meters":16800,"station_id":"","pricing_plan_id":"cebpf4jnsgd1na2vs0mg"},{"bike_id":"f38aecae-7620-4a7e-b9af-ccae28fc37f3","system_id":"levelo_inurba_marseille","lat":43.29417,"lon":5.3863,"is_reserved":false,"is_disabled":false,"rental_uris":{"android":"levelo://app?vid=f38aecae-7620-4a7e-b9af-ccae28fc37f3","ios":"levelo://app?vid=f38aecae-7620-4a7e-b9af-ccae28fc37f3"},"vehicle_type_id":"4","last_reported":1729171072,"current_range_meters":22000,"station_id":"ce4bh2h2rcd13ifvqdh0","pricing_plan_id":"cebpf4jnsgd1na2vs0mg"},{"bike_id":"86b18091-b909-4f1b-886b-9d9625948362","system_id":"levelo_inurba_marseille","lat":43.25582,"lon":5.38231,"is_reserved":false,"is_disabled":false,"rental_uris":{"android":"levelo://app?vid=86b18091-b909-4f1b-886b-9d9625948362","ios":"levelo://app?vid=86b18091-b909-4f1b-886b-9d9625948362"},"vehicle_type_id":"4","last_reported":1729171072,"current_range_meters":26000,"station_id":"ce4bhih2rcd13ifvqfs0","pricing_plan_id":"cebpf4jnsgd1na2vs0mg"},{"bike_id":"661cda6e-c4c9-41fb-b430-a5aa1e20db3d","system_id":"levelo_inurba_marseille","lat":43.26954,"lon":5.38628,"is_reserved":false,"is_disabled":false,"rental_uris":{"android":"levelo://app?vid=661cda6e-c4c9-41fb-b430-a5aa1e20db3d","ios":"levelo://app?vid=661cda6e-c4c9-41fb-b430-a5aa1e20db3d"},"vehicle_type_id":"4","last_reported":1729171072,"current_range_meters":10000,"station_id":"ce4bhh92rcd13ifvqfh0","pricing_plan_id":"cebpf4jnsgd1na2vs0mg"},{"bike_id":"7ab582a2-ca98-4166-8562-63ea0135bc43","system_id":"levelo_inurba_marseille","lat":43.30091,"lon":5.39069,"is_reserved":false,"is_disabled":false,"rental_uris":{"android":"levelo://app?vid=7ab582a2-ca98-4166-8562-63ea0135bc43","ios":"levelo://app?vid=7ab582a2-ca98-4166-8562-63ea0135bc43"},"vehicle_type_id":"4","last_reported":1729171072,"current_range_meters":38800,"station_id":"ce4bh192rcd13ifvqdb0","pricing_plan_id":"cebpf4jnsgd1na2vs0mg"},{"bike_id":"98908b74-c9a0-4531-a9e0-50016641782b","system_id":"levelo_inurba_marseille","lat":43.31355,"lon":5.38491,"is_reserved":false,"is_disabled":false,"rental_uris":{"android":"levelo://app?vid=98908b74-c9a0-4531-a9e0-50016641782b","ios":"levelo://app?vid=98908b74-c9a0-4531-a9e0-50016641782b"},"vehicle_type_id":"4","last_reported":1729171072,"current_range_meters":39200,"station_id":"ce4bgt92rcd13ifvqcf0","pricing_plan_id":"cebpf4jnsgd1na2vs0mg"},{"bike_id":"3bffc58c-389e-49cd-b608-2be8695e9584","system_id":"levelo_inurba_marseille","lat":43.33726,"lon":5.39178,"is_reserved":false,"is_disabled":false,"rental_uris":{"android":"levelo://app?vid=3bffc58c-389e-49cd-b608-2be8695e9584","ios":"levelo://app?vid=3bffc58c-389e-49cd-b608-2be8695e9584"},"vehicle_type_id":"4","last_reported":1729171072,"current_range_meters":22000,"station_id":"ce4bhr92rcd13ifvqhsg","pricing_plan_id":"cebpf4jnsgd1na2vs0mg"},{"bike_id":"4eb5bb7d-d404-4aac-869c-ebfcb8d384c1","system_id":"levelo_inurba_marseille","lat":43.23148,"lon":5.43721,"is_reserved":false,"is_disabled":false,"rental_uris":{"android":"levelo://app?vid=4eb5bb7d-d404-4aac-869c-ebfcb8d384c1","ios":"levelo://app?vid=4eb5bb7d-d404-4aac-869c-ebfcb8d384c1"},"vehicle_type_id":"4","last_reported":1729171072,"current_range_meters":30800,"station_id":"ce4bhmp2rcd13ifvqgog","pricing_plan_id":"cebpf4jnsgd1na2vs0mg"},{"bike_id":"0aab90f6-a579-4be6-812d-9ccb94b5f13f","system_id":"levelo_inurba_marseille","lat":43.30431,"lon":5.39749,"is_reserved":false,"is_disabled":false,"rental_uris":{"android":"levelo://app?vid=0aab90f6-a579-4be6-812d-9ccb94b5f13f","ios":"levelo://app?vid=0aab90f6-a579-4be6-812d-9ccb94b5f13f"},"vehicle_type_id":"4","last_reported":1729171072,"current_range_meters":39200,"station_id":"ce4bh092rcd13ifvqd20","pricing_plan_id":"cebpf4jnsgd1na2vs0mg"},{"bike_id":"32a6c07c-2efc-4c39-83b2-ad20df521685","system_id":"levelo_inurba_marseille","lat":43.28269,"lon":5.35063,"is_reserved":false,"is_disabled":false,"rental_uris":{"android":"levelo://app?vid=32a6c07c-2efc-4c39-83b2-ad20df521685","ios":"levelo://app?vid=32a6c07c-2efc-4c39-83b2-ad20df521685"},"vehicle_type_id":"4","last_reported":1729171072,"current_range_meters":8000,"station_id":"ce4bhbp2rcd13ifvqerg","pricing_plan_id":"cebpf4jnsgd1na2vs0mg"},{"bike_id":"2fa100d4-7645-41b8-8fc4-64d2fc317362","system_id":"levelo_inurba_marseille","lat":43.246616,"lon":5.38163,"is_reserved":false,"is_disabled":false,"rental_uris":{"android":"levelo://app?vid=2fa100d4-7645-41b8-8fc4-64d2fc317362","ios":"levelo://app?vid=2fa100d4-7645-41b8-8fc4-64d2fc317362"},"vehicle_type_id":"4","last_reported":1729171072,"current_range_meters":20800,"station_id":"ce4bhih2rcd13ifvqfr0","pricing_plan_id":"cebpf4jnsgd1na2vs0mg"},{"bike_id":"5302cbe9-3fbe-407f-af95-7b4c83b0b5a0","system_id":"levelo_inurba_marseille","lat":43.29043,"lon":5.35914,"is_reserved":false,"is_disabled":false,"rental_uris":{"android":"levelo://app?vid=5302cbe9-3fbe-407f-af95-7b4c83b0b5a0","ios":"levelo://app?vid=5302cbe9-3fbe-407f-af95-7b4c83b0b5a0"},"vehicle_type_id":"4","last_reported":1729171072,"current_range_meters":38800,"station_id":"ce4bha92rcd13ifvqeg0","pricing_plan_id":"cebpf4jnsgd1na2vs0mg"},{"bike_id":"e371bd4b-4485-4c8b-8e23-26c25e523a51","system_id":"levelo_inurba_marseille","lat":43.25932,"lon":5.40908,"is_reserved":false,"is_disabled":false,"rental_uris":{"android":"levelo://app?vid=e371bd4b-4485-4c8b-8e23-26c25e523a51","ios":"levelo://app?vid=e371bd4b-4485-4c8b-8e23-26c25e523a51"},"vehicle_type_id":"4","last_reported":1729171072,"current_range_meters":16800,"station_id":"ce4bhm92rcd13ifvqglg","pricing_plan_id":"cebpf4jnsgd1na2vs0mg"},{"bike_id":"9556199e-7a5f-49b5-96a3-4b11c9ae630f","system_id":"levelo_inurba_marseille","lat":43.24811,"lon":5.37464,"is_reserved":false,"is_disabled":false,"rental_uris":{"android":"levelo://app?vid=9556199e-7a5f-49b5-96a3-4b11c9ae630f","ios":"levelo://app?vid=9556199e-7a5f-49b5-96a3-4b11c9ae630f"},"vehicle_type_id":"4","last_reported":1729171072,"current_range_meters":38400,"station_id":"ce4bhgh2rcd13ifvqfb0","pricing_plan_id":"cebpf4jnsgd1na2vs0mg"},{"bike_id":"2f2a9233-ff46-4304-9a36-3a963c15f61e","system_id":"levelo_inurba_marseille","lat":43.26675,"lon":5.38265,"is_reserved":false,"is_disabled":false,"rental_uris":{"android":"levelo://app?vid=2f2a9233-ff46-4304-9a36-3a963c15f61e","ios":"levelo://app?vid=2f2a9233-ff46-4304-9a36-3a963c15f61e"},"vehicle_type_id":"4","last_reported":1729171072,"current_range_meters":38000,"station_id":"ce4bhg92rcd13ifvqf90","pricing_plan_id":"cebpf4jnsgd1na2vs0mg"},{"bike_id":"c94737bd-caac-40da-8c85-112167637286","system_id":"levelo_inurba_marseille","lat":43.29908,"lon":5.38151,"is_reserved":false,"is_disabled":false,"rental_uris":{"android":"levelo://app?vid=c94737bd-caac-40da-8c85-112167637286","ios":"levelo://app?vid=c94737bd-caac-40da-8c85-112167637286"},"vehicle_type_id":"4","last_reported":1729171072,"current_range_meters":38000,"station_id":"ce4bgj12rcd13ifvqbc0","pricing_plan_id":"cebpf4jnsgd1na2vs0mg"},{"bike_id":"cd1a22a9-3db6-4b57-873c-d099734c600f","system_id":"levelo_inurba_marseille","lat":43.31214,"lon":5.36854,"is_reserved":false,"is_disabled":false,"rental_uris":{"android":"levelo://app?vid=cd1a22a9-3db6-4b57-873c-d099734c600f","ios":"levelo://app?vid=cd1a22a9-3db6-4b57-873c-d099734c600f"},"vehicle_type_id":"4","last_reported":1729171072,"current_range_meters":36400,"station_id":"ce4bgl92rcd13ifvqbq0","pricing_plan_id":"cebpf4jnsgd1na2vs0mg"},{"bike_id":"b3b8591c-5379-4a69-90ab-ae3253c0799a","system_id":"levelo_inurba_marseille","lat":43.23155,"lon":5.43696,"is_reserved":false,"is_disabled":false,"rental_uris":{"android":"levelo://app?vid=b3b8591c-5379-4a69-90ab-ae3253c0799a","ios":"levelo://app?vid=b3b8591c-5379-4a69-90ab-ae3253c0799a"},"vehicle_type_id":"4","last_reported":1729171072,"current_range_meters":8000,"station_id":"ce4bhmp2rcd13ifvqgog","pricing_plan_id":"cebpf4jnsgd1na2vs0mg"},{"bike_id":"c0aea6bf-9822-4eef-a7c6-ea0b29185a8d","system_id":"levelo_inurba_marseille","lat":43.27936,"lon":5.41034,"is_reserved":false,"is_disabled":false,"rental_uris":{"android":"levelo://app?vid=c0aea6bf-9822-4eef-a7c6-ea0b29185a8d","ios":"levelo://app?vid=c0aea6bf-9822-4eef-a7c6-ea0b29185a8d"},"vehicle_type_id":"4","last_reported":1729171072,"current_range_meters":28000,"station_id":"ce4bhnp2rcd13ifvqh0g","pricing_plan_id":"cebpf4jnsgd1na2vs0mg"},{"bike_id":"90263e99-d5aa-44b8-a4c8-0353aa3b308c","system_id":"levelo_inurba_marseille","lat":43.2307,"lon":5.35496,"is_reserved":false,"is_disabled":false,"rental_uris":{"android":"levelo://app?vid=90263e99-d5aa-44b8-a4c8-0353aa3b308c","ios":"levelo://app?vid=90263e99-d5aa-44b8-a4c8-0353aa3b308c"},"vehicle_type_id":"4","last_reported":1729171072,"current_range_meters":8800,"station_id":"cpo3342slgdg3j2ifvpg","pricing_plan_id":"cebpf4jnsgd1na2vs0mg"},{"bike_id":"2871640c-a4f3-4f61-a342-156b39b491e5","system_id":"levelo_inurba_marseille","lat":43.23149,"lon":5.43714,"is_reserved":false,"is_disabled":false,"rental_uris":{"android":"levelo://app?vid=2871640c-a4f3-4f61-a342-156b39b491e5","ios":"levelo://app?vid=2871640c-a4f3-4f61-a342-156b39b491e5"},"vehicle_type_id":"4","last_reported":1729171072,"current_range_meters":12800,"station_id":"ce4bhmp2rcd13ifvqgog","pricing_plan_id":"cebpf4jnsgd1na2vs0mg"},{"bike_id":"c3fff5d8-cab2-4f28-ba74-c63121352df9","system_id":"levelo_inurba_marseille","lat":43.24077,"lon":5.37747,"is_reserved":false,"is_disabled":false,"rental_uris":{"android":"levelo://app?vid=c3fff5d8-cab2-4f28-ba74-c63121352df9","ios":"levelo://app?vid=c3fff5d8-cab2-4f28-ba74-c63121352df9"},"vehicle_type_id":"4","last_reported":1729171072,"current_range_meters":13600,"station_id":"ce4bhnp2rcd13ifvqgvg","pricing_plan_id":"cebpf4jnsgd1na2vs0mg"},{"bike_id":"dc5e232c-43bc-4622-9ea1-e1a67f622418","system_id":"levelo_inurba_marseille","lat":43.25582,"lon":5.38228,"is_reserved":false,"is_disabled":false,"rental_uris":{"android":"levelo://app?vid=dc5e232c-43bc-4622-9ea1-e1a67f622418","ios":"levelo://app?vid=dc5e232c-43bc-4622-9ea1-e1a67f622418"},"vehicle_type_id":"4","last_reported":1729171072,"current_range_meters":22400,"station_id":"ce4bhih2rcd13ifvqfs0","pricing_plan_id":"cebpf4jnsgd1na2vs0mg"},{"bike_id":"34e94aa7-443f-4824-a3c5-da1ace88228b","system_id":"levelo_inurba_marseille","lat":43.28461,"lon":5.35882,"is_reserved":false,"is_disabled":false,"rental_uris":{"android":"levelo://app?vid=34e94aa7-443f-4824-a3c5-da1ace88228b","ios":"levelo://app?vid=34e94aa7-443f-4824-a3c5-da1ace88228b"},"vehicle_type_id":"4","last_reported":1729171072,"current_range_meters":8400,"station_id":"ce4bhah2rcd13ifvqei0","pricing_plan_id":"cebpf4jnsgd1na2vs0mg"},{"bike_id":"1cd343c8-245e-4510-bed9-dcc94a7ab19d","system_id":"levelo_inurba_marseille","lat":43.25932,"lon":5.40904,"is_reserved":false,"is_disabled":false,"rental_uris":{"android":"levelo://app?vid=1cd343c8-245e-4510-bed9-dcc94a7ab19d","ios":"levelo://app?vid=1cd343c8-245e-4510-bed9-dcc94a7ab19d"},"vehicle_type_id":"4","last_reported":1729171072,"current_range_meters":8000,"station_id":"ce4bhm92rcd13ifvqglg","pricing_plan_id":"cebpf4jnsgd1na2vs0mg"},{"bike_id":"13b42a09-1385-4266-89fe-62954bb255cf","system_id":"levelo_inurba_marseille","lat":43.30937,"lon":5.40141,"is_reserved":false,"is_disabled":false,"rental_uris":{"android":"levelo://app?vid=13b42a09-1385-4266-89fe-62954bb255cf","ios":"levelo://app?vid=13b42a09-1385-4266-89fe-62954bb255cf"},"vehicle_type_id":"4","last_reported":1729171072,"current_range_meters":39200,"station_id":"ce4bgvp2rcd13ifvqct0","pricing_plan_id":"cebpf4jnsgd1na2vs0mg"},{"bike_id":"8815d0d6-e07f-423d-931d-8dfb85c49c02","system_id":"levelo_inurba_marseille","lat":43.30138,"lon":5.39865,"is_reserved":false,"is_disabled":false,"rental_uris":{"android":"levelo://app?vid=8815d0d6-e07f-423d-931d-8dfb85c49c02","ios":"levelo://app?vid=8815d0d6-e07f-423d-931d-8dfb85c49c02"},"vehicle_type_id":"4","last_reported":1729171072,"current_range_meters":14000,"station_id":"ce4bh0h2rcd13ifvqd40","pricing_plan_id":"cebpf4jnsgd1na2vs0mg"},{"bike_id":"d4488442-3554-4454-a4ce-8aa31a70bf84","system_id":"levelo_inurba_marseille","lat":43.25866,"lon":5.39902,"is_reserved":false,"is_disabled":false,"rental_uris":{"android":"levelo://app?vid=d4488442-3554-4454-a4ce-8aa31a70bf84","ios":"levelo://app?vid=d4488442-3554-4454-a4ce-8aa31a70bf84"},"vehicle_type_id":"4","last_reported":1729171072,"current_range_meters":2800,"station_id":"ce4bhl92rcd13ifvqghg","pricing_plan_id":"cebpf4jnsgd1na2vs0mg"},{"bike_id":"32ce68a3-3fc7-4257-974f-ab657619c295","system_id":"levelo_inurba_marseille","lat":43.3376,"lon":5.37438,"is_reserved":false,"is_disabled":false,"rental_uris":{"android":"levelo://app?vid=32ce68a3-3fc7-4257-974f-ab657619c295","ios":"levelo://app?vid=32ce68a3-3fc7-4257-974f-ab657619c295"},"vehicle_type_id":"4","last_reported":1729171072,"current_range_meters":38400,"station_id":"","pricing_plan_id":"cebpf4jnsgd1na2vs0mg"},{"bike_id":"8faef0c8-c695-4311-920f-db7ba85e9621","system_id":"levelo_inurba_marseille","lat":43.27562,"lon":5.38416,"is_reserved":false,"is_disabled":false,"rental_uris":{"android":"levelo://app?vid=8faef0c8-c695-4311-920f-db7ba85e9621","ios":"levelo://app?vid=8faef0c8-c695-4311-920f-db7ba85e9621"},"vehicle_type_id":"4","last_reported":1729171072,"current_range_meters":37600,"station_id":"ce4bhh92rcd13ifvqfi0","pricing_plan_id":"cebpf4jnsgd1na2vs0mg"},{"bike_id":"0f0c8df0-1a69-46fa-8c1e-5c3f19a24548","system_id":"levelo_inurba_marseille","lat":43.29878,"lon":5.38909,"is_reserved":false,"is_disabled":false,"rental_uris":{"android":"levelo://app?vid=0f0c8df0-1a69-46fa-8c1e-5c3f19a24548","ios":"levelo://app?vid=0f0c8df0-1a69-46fa-8c1e-5c3f19a24548"},"vehicle_type_id":"4","last_reported":1729171072,"current_range_meters":16800,"station_id":"ce4bh392rcd13ifvqdl0","pricing_plan_id":"cebpf4jnsgd1na2vs0mg"},{"bike_id":"c8d56133-9d5b-45ba-83e5-6e68a64ee67c","system_id":"levelo_inurba_marseille","lat":43.24074,"lon":5.37753,"is_reserved":false,"is_disabled":false,"rental_uris":{"android":"levelo://app?vid=c8d56133-9d5b-45ba-83e5-6e68a64ee67c","ios":"levelo://app?vid=c8d56133-9d5b-45ba-83e5-6e68a64ee67c"},"vehicle_type_id":"4","last_reported":1729171072,"current_range_meters":26000,"station_id":"ce4bhnp2rcd13ifvqgvg","pricing_plan_id":"cebpf4jnsgd1na2vs0mg"},{"bike_id":"fa7bbdc9-afbe-404d-8676-647037cc76a9","system_id":"levelo_inurba_marseille","lat":43.23193,"lon":5.35546,"is_reserved":false,"is_disabled":false,"rental_uris":{"android":"levelo://app?vid=fa7bbdc9-afbe-404d-8676-647037cc76a9","ios":"levelo://app?vid=fa7bbdc9-afbe-404d-8676-647037cc76a9"},"vehicle_type_id":"4","last_reported":1729171072,"current_range_meters":34000,"station_id":"ce4bhu92rcd13ifvqi70","pricing_plan_id":"cebpf4jnsgd1na2vs0mg"},{"bike_id":"931ad2f4-35ea-42b5-bc1a-1fdec477398a","system_id":"levelo_inurba_marseille","lat":43.33746,"lon":5.37454,"is_reserved":false,"is_disabled":false,"rental_uris":{"android":"levelo://app?vid=931ad2f4-35ea-42b5-bc1a-1fdec477398a","ios":"levelo://app?vid=931ad2f4-35ea-42b5-bc1a-1fdec477398a"},"vehicle_type_id":"4","last_reported":1729171072,"current_range_meters":28000,"station_id":"","pricing_plan_id":"cebpf4jnsgd1na2vs0mg"},{"bike_id":"cfa82dfa-9443-41e2-b043-3fc097249c56","system_id":"levelo_inurba_marseille","lat":43.30642,"lon":5.401,"is_reserved":false,"is_disabled":false,"rental_uris":{"android":"levelo://app?vid=cfa82dfa-9443-41e2-b043-3fc097249c56","ios":"levelo://app?vid=cfa82dfa-9443-41e2-b043-3fc097249c56"},"vehicle_type_id":"4","last_reported":1729171072,"current_range_meters":24000,"station_id":"ce4bh112rcd13ifvqda0","pricing_plan_id":"cebpf4jnsgd1na2vs0mg"},{"bike_id":"348a3729-e440-4f4a-8dbd-e9bb0acb6647","system_id":"levelo_inurba_marseille","lat":43.31075,"lon":5.38354,"is_reserved":false,"is_disabled":false,"rental_uris":{"android":"levelo://app?vid=348a3729-e440-4f4a-8dbd-e9bb0acb6647","ios":"levelo://app?vid=348a3729-e440-4f4a-8dbd-e9bb0acb6647"},"vehicle_type_id":"4","last_reported":1729171072,"current_range_meters":11200,"station_id":"ce4bgv92rcd13ifvqcr0","pricing_plan_id":"cebpf4jnsgd1na2vs0mg"},{"bike_id":"9949fb31-676d-4b90-8f3a-50191cd2a0aa","system_id":"levelo_inurba_marseille","lat":43.2834,"lon":5.38101,"is_reserved":false,"is_disabled":false,"rental_uris":{"android":"levelo://app?vid=9949fb31-676d-4b90-8f3a-50191cd2a0aa","ios":"levelo://app?vid=9949fb31-676d-4b90-8f3a-50191cd2a0aa"},"vehicle_type_id":"4","last_reported":1729171072,"current_range_meters":4000,"station_id":"ce4bh412rcd13ifvqdr0","pricing_plan_id":"cebpf4jnsgd1na2vs0mg"},{"bike_id":"67cdd668-f1c5-485d-88ba-94de65e0b556","system_id":"levelo_inurba_marseille","lat":43.2909,"lon":5.38147,"is_reserved":false,"is_disabled":false,"rental_uris":{"android":"levelo://app?vid=67cdd668-f1c5-485d-88ba-94de65e0b556","ios":"levelo://app?vid=67cdd668-f1c5-485d-88ba-94de65e0b556"},"vehicle_type_id":"4","last_reported":1729171072,"current_range_meters":36800,"station_id":"ce4bh512rcd13ifvqe2g","pricing_plan_id":"cebpf4jnsgd1na2vs0mg"},{"bike_id":"c7671745-53fc-4e7c-8000-63dbb88ab13f","system_id":"levelo_inurba_marseille","lat":43.27619,"lon":5.36113,"is_reserved":false,"is_disabled":false,"rental_uris":{"android":"levelo://app?vid=c7671745-53fc-4e7c-8000-63dbb88ab13f","ios":"levelo://app?vid=c7671745-53fc-4e7c-8000-63dbb88ab13f"},"vehicle_type_id":"4","last_reported":1729171072,"current_range_meters":39200,"station_id":"ce4bgj92rcd13ifvqbe0","pricing_plan_id":"cebpf4jnsgd1na2vs0mg"},{"bike_id":"76f918e2-061b-4170-aaf4-3b33724c5eab","system_id":"levelo_inurba_marseille","lat":43.29969,"lon":5.38493,"is_reserved":false,"is_disabled":false,"rental_uris":{"android":"levelo://app?vid=76f918e2-061b-4170-aaf4-3b33724c5eab","ios":"levelo://app?vid=76f918e2-061b-4170-aaf4-3b33724c5eab"},"vehicle_type_id":"4","last_reported":1729171072,"current_range_meters":10000,"station_id":"ce4bgj92rcd13ifvqbd0","pricing_plan_id":"cebpf4jnsgd1na2vs0mg"},{"bike_id":"4e82a983-4406-4fc1-9c7d-45090c1e4862","system_id":"levelo_inurba_marseille","lat":43.24545,"lon":5.39522,"is_reserved":false,"is_disabled":false,"rental_uris":{"android":"levelo://app?vid=4e82a983-4406-4fc1-9c7d-45090c1e4862","ios":"levelo://app?vid=4e82a983-4406-4fc1-9c7d-45090c1e4862"},"vehicle_type_id":"4","last_reported":1729171072,"current_range_meters":6000,"station_id":"ce4bhlp2rcd13ifvqgjg","pricing_plan_id":"cebpf4jnsgd1na2vs0mg"},{"bike_id":"8c1ec6cb-2291-4814-837b-be8625c706f3","system_id":"levelo_inurba_marseille","lat":43.23197,"lon":5.35542,"is_reserved":false,"is_disabled":false,"rental_uris":{"android":"levelo://app?vid=8c1ec6cb-2291-4814-837b-be8625c706f3","ios":"levelo://app?vid=8c1ec6cb-2291-4814-837b-be8625c706f3"},"vehicle_type_id":"4","last_reported":1729171072,"current_range_meters":36800,"station_id":"ce4bhu92rcd13ifvqi70","pricing_plan_id":"cebpf4jnsgd1na2vs0mg"},{"bike_id":"b7e17b33-c30f-4837-8b8d-3be6cd033a70","system_id":"levelo_inurba_marseille","lat":43.29971,"lon":5.38482,"is_reserved":false,"is_disabled":false,"rental_uris":{"android":"levelo://app?vid=b7e17b33-c30f-4837-8b8d-3be6cd033a70","ios":"levelo://app?vid=b7e17b33-c30f-4837-8b8d-3be6cd033a70"},"vehicle_type_id":"4","last_reported":1729171072,"current_range_meters":38400,"station_id":"ce4bgj92rcd13ifvqbd0","pricing_plan_id":"cebpf4jnsgd1na2vs0mg"},{"bike_id":"7750c53d-6dc7-4fd8-8365-b874827419a3","system_id":"levelo_inurba_marseille","lat":43.24649,"lon":5.38891,"is_reserved":false,"is_disabled":false,"rental_uris":{"android":"levelo://app?vid=7750c53d-6dc7-4fd8-8365-b874827419a3","ios":"levelo://app?vid=7750c53d-6dc7-4fd8-8365-b874827419a3"},"vehicle_type_id":"4","last_reported":1729171072,"current_range_meters":14400,"station_id":"ce4bhg12rcd13ifvqf60","pricing_plan_id":"cebpf4jnsgd1na2vs0mg"},{"bike_id":"124a7b10-a072-4817-9b16-f2fef13fa06d","system_id":"levelo_inurba_marseille","lat":43.26937,"lon":5.38918,"is_reserved":false,"is_disabled":false,"rental_uris":{"android":"levelo://app?vid=124a7b10-a072-4817-9b16-f2fef13fa06d","ios":"levelo://app?vid=124a7b10-a072-4817-9b16-f2fef13fa06d"},"vehicle_type_id":"4","last_reported":1729171072,"current_range_meters":25200,"station_id":"ce4bhhh2rcd13ifvqfl0","pricing_plan_id":"cebpf4jnsgd1na2vs0mg"},{"bike_id":"38675b4e-b015-46ff-8d26-7b6a5fcc238a","system_id":"levelo_inurba_marseille","lat":43.29572,"lon":5.37523,"is_reserved":false,"is_disabled":false,"rental_uris":{"android":"levelo://app?vid=38675b4e-b015-46ff-8d26-7b6a5fcc238a","ios":"levelo://app?vid=38675b4e-b015-46ff-8d26-7b6a5fcc238a"},"vehicle_type_id":"4","last_reported":1729171072,"current_range_meters":38800,"station_id":"ce4bgh92rcd13ifvqb50","pricing_plan_id":"cebpf4jnsgd1na2vs0mg"},{"bike_id":"6aad7b35-09a3-4656-912f-91689d5fb051","system_id":"levelo_inurba_marseille","lat":43.26209,"lon":5.37919,"is_reserved":false,"is_disabled":false,"rental_uris":{"android":"levelo://app?vid=6aad7b35-09a3-4656-912f-91689d5fb051","ios":"levelo://app?vid=6aad7b35-09a3-4656-912f-91689d5fb051"},"vehicle_type_id":"4","last_reported":1729171072,"current_range_meters":21600,"station_id":"ce4bhjp2rcd13ifvqg90","pricing_plan_id":"cebpf4jnsgd1na2vs0mg"},{"bike_id":"0d3295f8-4661-4f18-b759-48dc082f30ed","system_id":"levelo_inurba_marseille","lat":43.29575,"lon":5.37513,"is_reserved":false,"is_disabled":false,"rental_uris":{"android":"levelo://app?vid=0d3295f8-4661-4f18-b759-48dc082f30ed","ios":"levelo://app?vid=0d3295f8-4661-4f18-b759-48dc082f30ed"},"vehicle_type_id":"4","last_reported":1729171072,"current_range_meters":39200,"station_id":"ce4bgh92rcd13ifvqb50","pricing_plan_id":"cebpf4jnsgd1na2vs0mg"},{"bike_id":"c89c2319-61a9-47ef-9229-e31c9eaab143","system_id":"levelo_inurba_marseille","lat":43.23195,"lon":5.35552,"is_reserved":false,"is_disabled":false,"rental_uris":{"android":"levelo://app?vid=c89c2319-61a9-47ef-9229-e31c9eaab143","ios":"levelo://app?vid=c89c2319-61a9-47ef-9229-e31c9eaab143"},"vehicle_type_id":"4","last_reported":1729171072,"current_range_meters":2800,"station_id":"ce4bhu92rcd13ifvqi70","pricing_plan_id":"cebpf4jnsgd1na2vs0mg"},{"bike_id":"c1b4d58c-7d67-4800-b5de-bf664ea422e8","system_id":"levelo_inurba_marseille","lat":43.24653,"lon":5.38881,"is_reserved":false,"is_disabled":false,"rental_uris":{"android":"levelo://app?vid=c1b4d58c-7d67-4800-b5de-bf664ea422e8","ios":"levelo://app?vid=c1b4d58c-7d67-4800-b5de-bf664ea422e8"},"vehicle_type_id":"4","last_reported":1729171072,"current_range_meters":12000,"station_id":"ce4bhg12rcd13ifvqf60","pricing_plan_id":"cebpf4jnsgd1na2vs0mg"},{"bike_id":"4dff3f2d-8f80-481e-a769-c8fed23ab2fa","system_id":"levelo_inurba_marseille","lat":43.26197,"lon":5.3792,"is_reserved":false,"is_disabled":false,"rental_uris":{"android":"levelo://app?vid=4dff3f2d-8f80-481e-a769-c8fed23ab2fa","ios":"levelo://app?vid=4dff3f2d-8f80-481e-a769-c8fed23ab2fa"},"vehicle_type_id":"4","last_reported":1729171072,"current_range_meters":19600,"station_id":"ce4bhjp2rcd13ifvqg90","pricing_plan_id":"cebpf4jnsgd1na2vs0mg"},{"bike_id":"178063b7-9356-4ff3-918a-2f213f326e6d","system_id":"levelo_inurba_marseille","lat":43.29805,"lon":5.40406,"is_reserved":false,"is_disabled":false,"rental_uris":{"android":"levelo://app?vid=178063b7-9356-4ff3-918a-2f213f326e6d","ios":"levelo://app?vid=178063b7-9356-4ff3-918a-2f213f326e6d"},"vehicle_type_id":"4","last_reported":1729171072,"current_range_meters":26000,"station_id":"ce4bh112rcd13ifvqd90","pricing_plan_id":"cebpf4jnsgd1na2vs0mg"},{"bike_id":"6c178f68-0f40-482f-a857-56feedabec22","system_id":"levelo_inurba_marseille","lat":43.30935,"lon":5.40143,"is_reserved":false,"is_disabled":false,"rental_uris":{"android":"levelo://app?vid=6c178f68-0f40-482f-a857-56feedabec22","ios":"levelo://app?vid=6c178f68-0f40-482f-a857-56feedabec22"},"vehicle_type_id":"4","last_reported":1729171072,"current_range_meters":39200,"station_id":"ce4bgvp2rcd13ifvqct0","pricing_plan_id":"cebpf4jnsgd1na2vs0mg"},{"bike_id":"87e3dc3e-8e58-4d05-ba7e-89cf800c163a","system_id":"levelo_inurba_marseille","lat":43.27183,"lon":5.40992,"is_reserved":false,"is_disabled":false,"rental_uris":{"android":"levelo://app?vid=87e3dc3e-8e58-4d05-ba7e-89cf800c163a","ios":"levelo://app?vid=87e3dc3e-8e58-4d05-ba7e-89cf800c163a"},"vehicle_type_id":"4","last_reported":1729171072,"current_range_meters":8800,"station_id":"ce4bhl12rcd13ifvqgf0","pricing_plan_id":"cebpf4jnsgd1na2vs0mg"},{"bike_id":"22b535b9-e408-47e8-8864-5fdba51acb33","system_id":"levelo_inurba_marseille","lat":43.30146,"lon":5.37412,"is_reserved":false,"is_disabled":false,"rental_uris":{"android":"levelo://app?vid=22b535b9-e408-47e8-8864-5fdba51acb33","ios":"levelo://app?vid=22b535b9-e408-47e8-8864-5fdba51acb33"},"vehicle_type_id":"4","last_reported":1729171072,"current_range_meters":23200,"station_id":"ce4bgs92rcd13ifvqcc0","pricing_plan_id":"cebpf4jnsgd1na2vs0mg"},{"bike_id":"33b9b38d-74e7-4e85-a2ac-90dddc8ffc74","system_id":"levelo_inurba_marseille","lat":43.29564,"lon":5.37499,"is_reserved":false,"is_disabled":false,"rental_uris":{"android":"levelo://app?vid=33b9b38d-74e7-4e85-a2ac-90dddc8ffc74","ios":"levelo://app?vid=33b9b38d-74e7-4e85-a2ac-90dddc8ffc74"},"vehicle_type_id":"4","last_reported":1729171072,"current_range_meters":31200,"station_id":"ce4bgh92rcd13ifvqb50","pricing_plan_id":"cebpf4jnsgd1na2vs0mg"},{"bike_id":"874494de-7452-4f47-9fec-c5ec79478035","system_id":"levelo_inurba_marseille","lat":43.23972,"lon":5.36629,"is_reserved":false,"is_disabled":false,"rental_uris":{"android":"levelo://app?vid=874494de-7452-4f47-9fec-c5ec79478035","ios":"levelo://app?vid=874494de-7452-4f47-9fec-c5ec79478035"},"vehicle_type_id":"4","last_reported":1729171072,"current_range_meters":28000,"station_id":"ce4bhi12rcd13ifvqfp0","pricing_plan_id":"cebpf4jnsgd1na2vs0mg"},{"bike_id":"b13d8ea1-0eb3-41f7-b5ef-e16a5caa370c","system_id":"levelo_inurba_marseille","lat":43.30536,"lon":5.36532,"is_reserved":false,"is_disabled":false,"rental_uris":{"android":"levelo://app?vid=b13d8ea1-0eb3-41f7-b5ef-e16a5caa370c","ios":"levelo://app?vid=b13d8ea1-0eb3-41f7-b5ef-e16a5caa370c"},"vehicle_type_id":"4","last_reported":1729171072,"current_range_meters":25200,"station_id":"ce4bgs12rcd13ifvqcag","pricing_plan_id":"cebpf4jnsgd1na2vs0mg"},{"bike_id":"32535181-d4e3-4357-80e0-0ef5f1608950","system_id":"levelo_inurba_marseille","lat":43.26151,"lon":5.40092,"is_reserved":false,"is_disabled":false,"rental_uris":{"android":"levelo://app?vid=32535181-d4e3-4357-80e0-0ef5f1608950","ios":"levelo://app?vid=32535181-d4e3-4357-80e0-0ef5f1608950"},"vehicle_type_id":"4","last_reported":1729171072,"current_range_meters":25600,"station_id":"","pricing_plan_id":"cebpf4jnsgd1na2vs0mg"},{"bike_id":"08ae83cb-f31d-469e-8b8d-1172d9f867d3","system_id":"levelo_inurba_marseille","lat":43.23962,"lon":5.36641,"is_reserved":false,"is_disabled":false,"rental_uris":{"android":"levelo://app?vid=08ae83cb-f31d-469e-8b8d-1172d9f867d3","ios":"levelo://app?vid=08ae83cb-f31d-469e-8b8d-1172d9f867d3"},"vehicle_type_id":"4","last_reported":1729171072,"current_range_meters":16800,"station_id":"ce4bhi12rcd13ifvqfp0","pricing_plan_id":"cebpf4jnsgd1na2vs0mg"},{"bike_id":"ee40d608-c09e-419a-b6ac-db05e031787d","system_id":"levelo_inurba_marseille","lat":43.2985,"lon":5.36288,"is_reserved":false,"is_disabled":false,"rental_uris":{"android":"levelo://app?vid=ee40d608-c09e-419a-b6ac-db05e031787d","ios":"levelo://app?vid=ee40d608-c09e-419a-b6ac-db05e031787d"},"vehicle_type_id":"4","last_reported":1729171072,"current_range_meters":38000,"station_id":"ce4bgpp2rcd13ifvqc3g","pricing_plan_id":"cebpf4jnsgd1na2vs0mg"},{"bike_id":"0994d7f0-fa2e-480f-b967-2b1e1b476b78","system_id":"levelo_inurba_marseille","lat":43.23187,"lon":5.35556,"is_reserved":false,"is_disabled":false,"rental_uris":{"android":"levelo://app?vid=0994d7f0-fa2e-480f-b967-2b1e1b476b78","ios":"levelo://app?vid=0994d7f0-fa2e-480f-b967-2b1e1b476b78"},"vehicle_type_id":"4","last_reported":1729171072,"current_range_meters":14800,"station_id":"ce4bhu92rcd13ifvqi70","pricing_plan_id":"cebpf4jnsgd1na2vs0mg"},{"bike_id":"cafacf31-3dc4-4662-b543-8a143108fe4d","system_id":"levelo_inurba_marseille","lat":43.23187,"lon":5.39984,"is_reserved":false,"is_disabled":false,"rental_uris":{"android":"levelo://app?vid=cafacf31-3dc4-4662-b543-8a143108fe4d","ios":"levelo://app?vid=cafacf31-3dc4-4662-b543-8a143108fe4d"},"vehicle_type_id":"4","last_reported":1729171072,"current_range_meters":24800,"station_id":"ce4bhn12rcd13ifvqgqg","pricing_plan_id":"cebpf4jnsgd1na2vs0mg"},{"bike_id":"66ccc46d-618e-4760-b09c-27382152bdab","system_id":"levelo_inurba_marseille","lat":43.23192,"lon":5.3554,"is_reserved":false,"is_disabled":false,"rental_uris":{"android":"levelo://app?vid=66ccc46d-618e-4760-b09c-27382152bdab","ios":"levelo://app?vid=66ccc46d-618e-4760-b09c-27382152bdab"},"vehicle_type_id":"4","last_reported":1729171072,"current_range_meters":33200,"station_id":"ce4bhu92rcd13ifvqi70","pricing_plan_id":"cebpf4jnsgd1na2vs0mg"},{"bike_id":"fa1cccfe-fba8-45fc-a9c3-92c1523ced97","system_id":"levelo_inurba_marseille","lat":43.29982,"lon":5.37172,"is_reserved":false,"is_disabled":false,"rental_uris":{"android":"levelo://app?vid=fa1cccfe-fba8-45fc-a9c3-92c1523ced97","ios":"levelo://app?vid=fa1cccfe-fba8-45fc-a9c3-92c1523ced97"},"vehicle_type_id":"4","last_reported":1729171072,"current_range_meters":9600,"station_id":"ce4bgr92rcd13ifvqc7g","pricing_plan_id":"cebpf4jnsgd1na2vs0mg"},{"bike_id":"d5c6ff43-d473-4cc2-918f-fcd768b9c355","system_id":"levelo_inurba_marseille","lat":43.31363,"lon":5.36708,"is_reserved":false,"is_disabled":false,"rental_uris":{"android":"levelo://app?vid=d5c6ff43-d473-4cc2-918f-fcd768b9c355","ios":"levelo://app?vid=d5c6ff43-d473-4cc2-918f-fcd768b9c355"},"vehicle_type_id":"4","last_reported":1729171072,"current_range_meters":18000,"station_id":"ce4bgr92rcd13ifvqc6g","pricing_plan_id":"cebpf4jnsgd1na2vs0mg"},{"bike_id":"30404aca-08a3-4264-987a-aa6acb1f5cf1","system_id":"levelo_inurba_marseille","lat":43.25939,"lon":5.40902,"is_reserved":false,"is_disabled":false,"rental_uris":{"android":"levelo://app?vid=30404aca-08a3-4264-987a-aa6acb1f5cf1","ios":"levelo://app?vid=30404aca-08a3-4264-987a-aa6acb1f5cf1"},"vehicle_type_id":"4","last_reported":1729171072,"current_range_meters":19600,"station_id":"ce4bhm92rcd13ifvqglg","pricing_plan_id":"cebpf4jnsgd1na2vs0mg"},{"bike_id":"ab340945-e50c-4bba-9525-2eea79801fcb","system_id":"levelo_inurba_marseille","lat":43.27176,"lon":5.40991,"is_reserved":false,"is_disabled":false,"rental_uris":{"android":"levelo://app?vid=ab340945-e50c-4bba-9525-2eea79801fcb","ios":"levelo://app?vid=ab340945-e50c-4bba-9525-2eea79801fcb"},"vehicle_type_id":"4","last_reported":1729171072,"current_range_meters":30800,"station_id":"ce4bhl12rcd13ifvqgf0","pricing_plan_id":"cebpf4jnsgd1na2vs0mg"},{"bike_id":"6300df2c-b9fe-4275-916d-dd75e59140c9","system_id":"levelo_inurba_marseille","lat":43.231944,"lon":5.355465,"is_reserved":false,"is_disabled":false,"rental_uris":{"android":"levelo://app?vid=6300df2c-b9fe-4275-916d-dd75e59140c9","ios":"levelo://app?vid=6300df2c-b9fe-4275-916d-dd75e59140c9"},"vehicle_type_id":"4","last_reported":1729171072,"current_range_meters":33600,"station_id":"ce4bhu92rcd13ifvqi70","pricing_plan_id":"cebpf4jnsgd1na2vs0mg"},{"bike_id":"9639a337-6ab9-4f66-9e6e-d0bf5dde7ef3","system_id":"levelo_inurba_marseille","lat":43.28615,"lon":5.35108,"is_reserved":false,"is_disabled":false,"rental_uris":{"android":"levelo://app?vid=9639a337-6ab9-4f66-9e6e-d0bf5dde7ef3","ios":"levelo://app?vid=9639a337-6ab9-4f66-9e6e-d0bf5dde7ef3"},"vehicle_type_id":"4","last_reported":1729171072,"current_range_meters":38800,"station_id":"ce4bhch2rcd13ifvqeug","pricing_plan_id":"cebpf4jnsgd1na2vs0mg"},{"bike_id":"59238a0c-de64-46a6-a64a-5a5563ed932a","system_id":"levelo_inurba_marseille","lat":43.22933,"lon":5.35373,"is_reserved":false,"is_disabled":false,"rental_uris":{"android":"levelo://app?vid=59238a0c-de64-46a6-a64a-5a5563ed932a","ios":"levelo://app?vid=59238a0c-de64-46a6-a64a-5a5563ed932a"},"vehicle_type_id":"4","last_reported":1729171072,"current_range_meters":30400,"station_id":"cpo3532slgdg3j2ikp40","pricing_plan_id":"cebpf4jnsgd1na2vs0mg"},{"bike_id":"6f6e1348-aad6-49e3-a4a2-845b6d6540b4","system_id":"levelo_inurba_marseille","lat":43.25869,"lon":5.39899,"is_reserved":false,"is_disabled":false,"rental_uris":{"android":"levelo://app?vid=6f6e1348-aad6-49e3-a4a2-845b6d6540b4","ios":"levelo://app?vid=6f6e1348-aad6-49e3-a4a2-845b6d6540b4"},"vehicle_type_id":"4","last_reported":1729171072,"current_range_meters":35600,"station_id":"ce4bhl92rcd13ifvqghg","pricing_plan_id":"cebpf4jnsgd1na2vs0mg"},{"bike_id":"500aad0b-1c05-4fb2-baae-0f63cd4dd2c3","system_id":"levelo_inurba_marseille","lat":43.3136,"lon":5.36716,"is_reserved":false,"is_disabled":false,"rental_uris":{"android":"levelo://app?vid=500aad0b-1c05-4fb2-baae-0f63cd4dd2c3","ios":"levelo://app?vid=500aad0b-1c05-4fb2-baae-0f63cd4dd2c3"},"vehicle_type_id":"4","last_reported":1729171072,"current_range_meters":28800,"station_id":"ce4bgr92rcd13ifvqc6g","pricing_plan_id":"cebpf4jnsgd1na2vs0mg"},{"bike_id":"20c29f99-0e3c-45bb-837b-976b5cc98468","system_id":"levelo_inurba_marseille","lat":43.23151,"lon":5.4371,"is_reserved":false,"is_disabled":false,"rental_uris":{"android":"levelo://app?vid=20c29f99-0e3c-45bb-837b-976b5cc98468","ios":"levelo://app?vid=20c29f99-0e3c-45bb-837b-976b5cc98468"},"vehicle_type_id":"4","last_reported":1729171072,"current_range_meters":38400,"station_id":"ce4bhmp2rcd13ifvqgog","pricing_plan_id":"cebpf4jnsgd1na2vs0mg"},{"bike_id":"a6e9f1dc-2010-4660-bf75-39a77799f4f9","system_id":"levelo_inurba_marseille","lat":43.30913,"lon":5.36851,"is_reserved":false,"is_disabled":false,"rental_uris":{"android":"levelo://app?vid=a6e9f1dc-2010-4660-bf75-39a77799f4f9","ios":"levelo://app?vid=a6e9f1dc-2010-4660-bf75-39a77799f4f9"},"vehicle_type_id":"4","last_reported":1729171072,"current_range_meters":30400,"station_id":"ce4bgn92rcd13ifvqbvg","pricing_plan_id":"cebpf4jnsgd1na2vs0mg"},{"bike_id":"c23ad615-74bf-451f-a10e-90acbbe74911","system_id":"levelo_inurba_marseille","lat":43.27815,"lon":5.40709,"is_reserved":false,"is_disabled":false,"rental_uris":{"android":"levelo://app?vid=c23ad615-74bf-451f-a10e-90acbbe74911","ios":"levelo://app?vid=c23ad615-74bf-451f-a10e-90acbbe74911"},"vehicle_type_id":"4","last_reported":1729171072,"current_range_meters":38000,"station_id":"ce4bhnh2rcd13ifvqgtg","pricing_plan_id":"cebpf4jnsgd1na2vs0mg"},{"bike_id":"7f9d0cf8-012c-4a8e-b342-fe20c12e8a2a","system_id":"levelo_inurba_marseille","lat":43.24651,"lon":5.38891,"is_reserved":false,"is_disabled":false,"rental_uris":{"android":"levelo://app?vid=7f9d0cf8-012c-4a8e-b342-fe20c12e8a2a","ios":"levelo://app?vid=7f9d0cf8-012c-4a8e-b342-fe20c12e8a2a"},"vehicle_type_id":"4","last_reported":1729171072,"current_range_meters":6800,"station_id":"ce4bhg12rcd13ifvqf60","pricing_plan_id":"cebpf4jnsgd1na2vs0mg"},{"bike_id":"a2b2864f-6afb-46e5-a502-9789958951c7","system_id":"levelo_inurba_marseille","lat":43.25927,"lon":5.409,"is_reserved":false,"is_disabled":false,"rental_uris":{"android":"levelo://app?vid=a2b2864f-6afb-46e5-a502-9789958951c7","ios":"levelo://app?vid=a2b2864f-6afb-46e5-a502-9789958951c7"},"vehicle_type_id":"4","last_reported":1729171072,"current_range_meters":37600,"station_id":"ce4bhm92rcd13ifvqglg","pricing_plan_id":"cebpf4jnsgd1na2vs0mg"},{"bike_id":"4562e9bb-7c1e-4e0e-95e1-858d0f8d86d1","system_id":"levelo_inurba_marseille","lat":43.23196,"lon":5.35553,"is_reserved":false,"is_disabled":false,"rental_uris":{"android":"levelo://app?vid=4562e9bb-7c1e-4e0e-95e1-858d0f8d86d1","ios":"levelo://app?vid=4562e9bb-7c1e-4e0e-95e1-858d0f8d86d1"},"vehicle_type_id":"4","last_reported":1729171072,"current_range_meters":7200,"station_id":"ce4bhu92rcd13ifvqi70","pricing_plan_id":"cebpf4jnsgd1na2vs0mg"},{"bike_id":"946c2eee-2eac-49df-9a58-dce934fbae9c","system_id":"levelo_inurba_marseille","lat":43.25579,"lon":5.38228,"is_reserved":false,"is_disabled":false,"rental_uris":{"android":"levelo://app?vid=946c2eee-2eac-49df-9a58-dce934fbae9c","ios":"levelo://app?vid=946c2eee-2eac-49df-9a58-dce934fbae9c"},"vehicle_type_id":"4","last_reported":1729171072,"current_range_meters":30000,"station_id":"ce4bhih2rcd13ifvqfs0","pricing_plan_id":"cebpf4jnsgd1na2vs0mg"},{"bike_id":"c60ae59c-5f3f-493b-82be-9fdc769a1273","system_id":"levelo_inurba_marseille","lat":43.24087,"lon":5.37753,"is_reserved":false,"is_disabled":false,"rental_uris":{"android":"levelo://app?vid=c60ae59c-5f3f-493b-82be-9fdc769a1273","ios":"levelo://app?vid=c60ae59c-5f3f-493b-82be-9fdc769a1273"},"vehicle_type_id":"4","last_reported":1729171072,"current_range_meters":7200,"station_id":"ce4bhnp2rcd13ifvqgvg","pricing_plan_id":"cebpf4jnsgd1na2vs0mg"},{"bike_id":"2140b6a3-5118-4150-823e-9225aeb56201","system_id":"levelo_inurba_marseille","lat":43.23189,"lon":5.35546,"is_reserved":false,"is_disabled":false,"rental_uris":{"android":"levelo://app?vid=2140b6a3-5118-4150-823e-9225aeb56201","ios":"levelo://app?vid=2140b6a3-5118-4150-823e-9225aeb56201"},"vehicle_type_id":"4","last_reported":1729171072,"current_range_meters":36400,"station_id":"ce4bhu92rcd13ifvqi70","pricing_plan_id":"cebpf4jnsgd1na2vs0mg"},{"bike_id":"33f57c66-6199-43c5-b2ad-7ce063aba23f","system_id":"levelo_inurba_marseille","lat":43.25819,"lon":5.39434,"is_reserved":false,"is_disabled":false,"rental_uris":{"android":"levelo://app?vid=33f57c66-6199-43c5-b2ad-7ce063aba23f","ios":"levelo://app?vid=33f57c66-6199-43c5-b2ad-7ce063aba23f"},"vehicle_type_id":"4","last_reported":1729171072,"current_range_meters":38800,"station_id":"ce4bhip2rcd13ifvqft0","pricing_plan_id":"cebpf4jnsgd1na2vs0mg"},{"bike_id":"f4d1278a-86d2-49e6-81f6-56635e7ed6dc","system_id":"levelo_inurba_marseille","lat":43.29531,"lon":5.38535,"is_reserved":false,"is_disabled":false,"rental_uris":{"android":"levelo://app?vid=f4d1278a-86d2-49e6-81f6-56635e7ed6dc","ios":"levelo://app?vid=f4d1278a-86d2-49e6-81f6-56635e7ed6dc"},"vehicle_type_id":"4","last_reported":1729171072,"current_range_meters":36000,"station_id":"ce4bgih2rcd13ifvqba0","pricing_plan_id":"cebpf4jnsgd1na2vs0mg"},{"bike_id":"34b91ea3-b3cf-4188-8741-02188a0be998","system_id":"levelo_inurba_marseille","lat":43.25584,"lon":5.38229,"is_reserved":false,"is_disabled":false,"rental_uris":{"android":"levelo://app?vid=34b91ea3-b3cf-4188-8741-02188a0be998","ios":"levelo://app?vid=34b91ea3-b3cf-4188-8741-02188a0be998"},"vehicle_type_id":"4","last_reported":1729171072,"current_range_meters":35600,"station_id":"ce4bhih2rcd13ifvqfs0","pricing_plan_id":"cebpf4jnsgd1na2vs0mg"},{"bike_id":"c7c2759f-6756-4905-a201-8ac04e9864d0","system_id":"levelo_inurba_marseille","lat":43.266827,"lon":5.382693,"is_reserved":false,"is_disabled":false,"rental_uris":{"android":"levelo://app?vid=c7c2759f-6756-4905-a201-8ac04e9864d0","ios":"levelo://app?vid=c7c2759f-6756-4905-a201-8ac04e9864d0"},"vehicle_type_id":"4","last_reported":1729171072,"current_range_meters":40000,"station_id":"ce4bhg92rcd13ifvqf90","pricing_plan_id":"cebpf4jnsgd1na2vs0mg"},{"bike_id":"4e57754e-993f-4e4b-87d9-49a5f6fa22d4","system_id":"levelo_inurba_marseille","lat":43.30648,"lon":5.40105,"is_reserved":false,"is_disabled":false,"rental_uris":{"android":"levelo://app?vid=4e57754e-993f-4e4b-87d9-49a5f6fa22d4","ios":"levelo://app?vid=4e57754e-993f-4e4b-87d9-49a5f6fa22d4"},"vehicle_type_id":"4","last_reported":1729171072,"current_range_meters":4000,"station_id":"ce4bh112rcd13ifvqda0","pricing_plan_id":"cebpf4jnsgd1na2vs0mg"},{"bike_id":"7bb3147c-9e86-4673-856a-fd972ef3efed","system_id":"levelo_inurba_marseille","lat":43.27209,"lon":5.39175,"is_reserved":false,"is_disabled":false,"rental_uris":{"android":"levelo://app?vid=7bb3147c-9e86-4673-856a-fd972ef3efed","ios":"levelo://app?vid=7bb3147c-9e86-4673-856a-fd972ef3efed"},"vehicle_type_id":"4","last_reported":1729171072,"current_range_meters":30400,"station_id":"ce4bhhp2rcd13ifvqfm0","pricing_plan_id":"cebpf4jnsgd1na2vs0mg"},{"bike_id":"f26e0818-679d-49dd-88c4-15f9ba4a8566","system_id":"levelo_inurba_marseille","lat":43.28343,"lon":5.38106,"is_reserved":false,"is_disabled":false,"rental_uris":{"android":"levelo://app?vid=f26e0818-679d-49dd-88c4-15f9ba4a8566","ios":"levelo://app?vid=f26e0818-679d-49dd-88c4-15f9ba4a8566"},"vehicle_type_id":"4","last_reported":1729171072,"current_range_meters":30800,"station_id":"ce4bh412rcd13ifvqdr0","pricing_plan_id":"cebpf4jnsgd1na2vs0mg"},{"bike_id":"447d9f9b-5078-45ee-a0c4-5102ccef7f4a","system_id":"levelo_inurba_marseille","lat":43.29846,"lon":5.36279,"is_reserved":false,"is_disabled":false,"rental_uris":{"android":"levelo://app?vid=447d9f9b-5078-45ee-a0c4-5102ccef7f4a","ios":"levelo://app?vid=447d9f9b-5078-45ee-a0c4-5102ccef7f4a"},"vehicle_type_id":"4","last_reported":1729171072,"current_range_meters":12400,"station_id":"ce4bgpp2rcd13ifvqc3g","pricing_plan_id":"cebpf4jnsgd1na2vs0mg"},{"bike_id":"21bb0b99-45c2-4f72-9036-ecc8564215e2","system_id":"levelo_inurba_marseille","lat":43.32362,"lon":5.38885,"is_reserved":false,"is_disabled":false,"rental_uris":{"android":"levelo://app?vid=21bb0b99-45c2-4f72-9036-ecc8564215e2","ios":"levelo://app?vid=21bb0b99-45c2-4f72-9036-ecc8564215e2"},"vehicle_type_id":"4","last_reported":1729171072,"current_range_meters":28000,"station_id":"ce4bhqp2rcd13ifvqhog","pricing_plan_id":"cebpf4jnsgd1na2vs0mg"},{"bike_id":"55be5dde-3707-4116-be8f-e3d11f43ef39","system_id":"levelo_inurba_marseille","lat":43.2757,"lon":5.38406,"is_reserved":false,"is_disabled":false,"rental_uris":{"android":"levelo://app?vid=55be5dde-3707-4116-be8f-e3d11f43ef39","ios":"levelo://app?vid=55be5dde-3707-4116-be8f-e3d11f43ef39"},"vehicle_type_id":"4","last_reported":1729171072,"current_range_meters":20800,"station_id":"ce4bhh92rcd13ifvqfi0","pricing_plan_id":"cebpf4jnsgd1na2vs0mg"},{"bike_id":"83bcafb6-7740-4133-8b56-4bf302222f17","system_id":"levelo_inurba_marseille","lat":43.23965,"lon":5.36638,"is_reserved":false,"is_disabled":false,"rental_uris":{"android":"levelo://app?vid=83bcafb6-7740-4133-8b56-4bf302222f17","ios":"levelo://app?vid=83bcafb6-7740-4133-8b56-4bf302222f17"},"vehicle_type_id":"4","last_reported":1729171072,"current_range_meters":4000,"station_id":"ce4bhi12rcd13ifvqfp0","pricing_plan_id":"cebpf4jnsgd1na2vs0mg"},{"bike_id":"fc60f530-bdc8-4ee9-a5f7-488bbf3c4a7f","system_id":"levelo_inurba_marseille","lat":43.29051,"lon":5.37588,"is_reserved":false,"is_disabled":false,"rental_uris":{"android":"levelo://app?vid=fc60f530-bdc8-4ee9-a5f7-488bbf3c4a7f","ios":"levelo://app?vid=fc60f530-bdc8-4ee9-a5f7-488bbf3c4a7f"},"vehicle_type_id":"4","last_reported":1729171072,"current_range_meters":33200,"station_id":"ce4bh692rcd13ifvqe90","pricing_plan_id":"cebpf4jnsgd1na2vs0mg"},{"bike_id":"7772d39f-5e28-445c-af91-069b0cf63793","system_id":"levelo_inurba_marseille","lat":43.33747,"lon":5.37433,"is_reserved":false,"is_disabled":false,"rental_uris":{"android":"levelo://app?vid=7772d39f-5e28-445c-af91-069b0cf63793","ios":"levelo://app?vid=7772d39f-5e28-445c-af91-069b0cf63793"},"vehicle_type_id":"4","last_reported":1729171072,"current_range_meters":16800,"station_id":"","pricing_plan_id":"cebpf4jnsgd1na2vs0mg"},{"bike_id":"306d207a-e0b2-4571-813d-f41b5e3cc051","system_id":"levelo_inurba_marseille","lat":43.30308,"lon":5.36903,"is_reserved":false,"is_disabled":false,"rental_uris":{"android":"levelo://app?vid=306d207a-e0b2-4571-813d-f41b5e3cc051","ios":"levelo://app?vid=306d207a-e0b2-4571-813d-f41b5e3cc051"},"vehicle_type_id":"4","last_reported":1729171072,"current_range_meters":26800,"station_id":"ce4bgqh2rcd13ifvqc5g","pricing_plan_id":"cebpf4jnsgd1na2vs0mg"},{"bike_id":"3213665e-989c-4d22-9f5a-31c8522597dd","system_id":"levelo_inurba_marseille","lat":43.296,"lon":5.36142,"is_reserved":false,"is_disabled":false,"rental_uris":{"android":"levelo://app?vid=3213665e-989c-4d22-9f5a-31c8522597dd","ios":"levelo://app?vid=3213665e-989c-4d22-9f5a-31c8522597dd"},"vehicle_type_id":"4","last_reported":1729171072,"current_range_meters":28400,"station_id":"","pricing_plan_id":"cebpf4jnsgd1na2vs0mg"},{"bike_id":"a4d688d3-0dff-4f78-85aa-704a8f1700b8","system_id":"levelo_inurba_marseille","lat":43.31758,"lon":5.39009,"is_reserved":false,"is_disabled":false,"rental_uris":{"android":"levelo://app?vid=a4d688d3-0dff-4f78-85aa-704a8f1700b8","ios":"levelo://app?vid=a4d688d3-0dff-4f78-85aa-704a8f1700b8"},"vehicle_type_id":"4","last_reported":1729171072,"current_range_meters":28000,"station_id":"ce4bhqp2rcd13ifvqhng","pricing_plan_id":"cebpf4jnsgd1na2vs0mg"},{"bike_id":"ad431b63-9086-453d-8769-cb36e5514d09","system_id":"levelo_inurba_marseille","lat":43.29912,"lon":5.37484,"is_reserved":false,"is_disabled":false,"rental_uris":{"android":"levelo://app?vid=ad431b63-9086-453d-8769-cb36e5514d09","ios":"levelo://app?vid=ad431b63-9086-453d-8769-cb36e5514d09"},"vehicle_type_id":"4","last_reported":1729171072,"current_range_meters":26800,"station_id":"ce4bgjh2rcd13ifvqbg0","pricing_plan_id":"cebpf4jnsgd1na2vs0mg"},{"bike_id":"f3ff532f-bf34-44fd-ab2a-11de7aa441aa","system_id":"levelo_inurba_marseille","lat":43.24805,"lon":5.37458,"is_reserved":false,"is_disabled":false,"rental_uris":{"android":"levelo://app?vid=f3ff532f-bf34-44fd-ab2a-11de7aa441aa","ios":"levelo://app?vid=f3ff532f-bf34-44fd-ab2a-11de7aa441aa"},"vehicle_type_id":"4","last_reported":1729171072,"current_range_meters":36400,"station_id":"ce4bhgh2rcd13ifvqfb0","pricing_plan_id":"cebpf4jnsgd1na2vs0mg"},{"bike_id":"bf50d71c-390d-43f9-933f-7d7bfd69bb07","system_id":"levelo_inurba_marseille","lat":43.30558,"lon":5.36527,"is_reserved":false,"is_disabled":false,"rental_uris":{"android":"levelo://app?vid=bf50d71c-390d-43f9-933f-7d7bfd69bb07","ios":"levelo://app?vid=bf50d71c-390d-43f9-933f-7d7bfd69bb07"},"vehicle_type_id":"4","last_reported":1729171072,"current_range_meters":36800,"station_id":"ce4bgs12rcd13ifvqcag","pricing_plan_id":"cebpf4jnsgd1na2vs0mg"},{"bike_id":"1641b826-604a-4181-8231-dca386f637a6","system_id":"levelo_inurba_marseille","lat":43.2319,"lon":5.35555,"is_reserved":false,"is_disabled":false,"rental_uris":{"android":"levelo://app?vid=1641b826-604a-4181-8231-dca386f637a6","ios":"levelo://app?vid=1641b826-604a-4181-8231-dca386f637a6"},"vehicle_type_id":"4","last_reported":1729171072,"current_range_meters":34000,"station_id":"ce4bhu92rcd13ifvqi70","pricing_plan_id":"cebpf4jnsgd1na2vs0mg"},{"bike_id":"89211ee2-076f-4df3-92bd-cd8885f2e76d","system_id":"levelo_inurba_marseille","lat":43.231946,"lon":5.35551,"is_reserved":false,"is_disabled":false,"rental_uris":{"android":"levelo://app?vid=89211ee2-076f-4df3-92bd-cd8885f2e76d","ios":"levelo://app?vid=89211ee2-076f-4df3-92bd-cd8885f2e76d"},"vehicle_type_id":"4","last_reported":1729171072,"current_range_meters":33200,"station_id":"ce4bhu92rcd13ifvqi70","pricing_plan_id":"cebpf4jnsgd1na2vs0mg"},{"bike_id":"3de45cf7-2837-48d1-ab95-454dbe5d9b72","system_id":"levelo_inurba_marseille","lat":43.28716,"lon":5.37936,"is_reserved":false,"is_disabled":false,"rental_uris":{"android":"levelo://app?vid=3de45cf7-2837-48d1-ab95-454dbe5d9b72","ios":"levelo://app?vid=3de45cf7-2837-48d1-ab95-454dbe5d9b72"},"vehicle_type_id":"4","last_reported":1729171072,"current_range_meters":29600,"station_id":"ce4bh9p2rcd13ifvqec0","pricing_plan_id":"cebpf4jnsgd1na2vs0mg"},{"bike_id":"e7efc21f-25a8-4fc7-bf63-9a24ae482c4f","system_id":"levelo_inurba_marseille","lat":43.28462,"lon":5.35891,"is_reserved":false,"is_disabled":false,"rental_uris":{"android":"levelo://app?vid=e7efc21f-25a8-4fc7-bf63-9a24ae482c4f","ios":"levelo://app?vid=e7efc21f-25a8-4fc7-bf63-9a24ae482c4f"},"vehicle_type_id":"4","last_reported":1729171072,"current_range_meters":35200,"station_id":"ce4bhah2rcd13ifvqei0","pricing_plan_id":"cebpf4jnsgd1na2vs0mg"},{"bike_id":"32a49fe8-5752-4e25-9677-224e653ef32f","system_id":"levelo_inurba_marseille","lat":43.24083,"lon":5.37737,"is_reserved":false,"is_disabled":false,"rental_uris":{"android":"levelo://app?vid=32a49fe8-5752-4e25-9677-224e653ef32f","ios":"levelo://app?vid=32a49fe8-5752-4e25-9677-224e653ef32f"},"vehicle_type_id":"4","last_reported":1729171072,"current_range_meters":19200,"station_id":"ce4bhnp2rcd13ifvqgvg","pricing_plan_id":"cebpf4jnsgd1na2vs0mg"},{"bike_id":"d39a5687-1116-472f-a8fb-62c0d09c90d0","system_id":"levelo_inurba_marseille","lat":43.23152,"lon":5.43711,"is_reserved":false,"is_disabled":false,"rental_uris":{"android":"levelo://app?vid=d39a5687-1116-472f-a8fb-62c0d09c90d0","ios":"levelo://app?vid=d39a5687-1116-472f-a8fb-62c0d09c90d0"},"vehicle_type_id":"4","last_reported":1729171072,"current_range_meters":39200,"station_id":"ce4bhmp2rcd13ifvqgog","pricing_plan_id":"cebpf4jnsgd1na2vs0mg"},{"bike_id":"64a39502-91c7-4264-9c5a-3679f8f9b671","system_id":"levelo_inurba_marseille","lat":43.29977,"lon":5.38479,"is_reserved":false,"is_disabled":false,"rental_uris":{"android":"levelo://app?vid=64a39502-91c7-4264-9c5a-3679f8f9b671","ios":"levelo://app?vid=64a39502-91c7-4264-9c5a-3679f8f9b671"},"vehicle_type_id":"4","last_reported":1729171072,"current_range_meters":38000,"station_id":"ce4bgj92rcd13ifvqbd0","pricing_plan_id":"cebpf4jnsgd1na2vs0mg"},{"bike_id":"f88c7e01-bc8c-4735-8a37-e29425c30c87","system_id":"levelo_inurba_marseille","lat":43.23191,"lon":5.39988,"is_reserved":false,"is_disabled":false,"rental_uris":{"android":"levelo://app?vid=f88c7e01-bc8c-4735-8a37-e29425c30c87","ios":"levelo://app?vid=f88c7e01-bc8c-4735-8a37-e29425c30c87"},"vehicle_type_id":"4","last_reported":1729171072,"current_range_meters":12400,"station_id":"ce4bhn12rcd13ifvqgqg","pricing_plan_id":"cebpf4jnsgd1na2vs0mg"},{"bike_id":"ecb34647-7182-4824-bb3f-dc0c6b523c79","system_id":"levelo_inurba_marseille","lat":43.33759,"lon":5.3744,"is_reserved":false,"is_disabled":false,"rental_uris":{"android":"levelo://app?vid=ecb34647-7182-4824-bb3f-dc0c6b523c79","ios":"levelo://app?vid=ecb34647-7182-4824-bb3f-dc0c6b523c79"},"vehicle_type_id":"4","last_reported":1729171072,"current_range_meters":28400,"station_id":"","pricing_plan_id":"cebpf4jnsgd1na2vs0mg"},{"bike_id":"c8687817-23e8-4d53-870b-25e31ac622ca","system_id":"levelo_inurba_marseille","lat":43.28619,"lon":5.35101,"is_reserved":false,"is_disabled":false,"rental_uris":{"android":"levelo://app?vid=c8687817-23e8-4d53-870b-25e31ac622ca","ios":"levelo://app?vid=c8687817-23e8-4d53-870b-25e31ac622ca"},"vehicle_type_id":"4","last_reported":1729171072,"current_range_meters":20400,"station_id":"ce4bhch2rcd13ifvqeug","pricing_plan_id":"cebpf4jnsgd1na2vs0mg"},{"bike_id":"013aee33-85c0-4004-910f-f8c5e7881afb","system_id":"levelo_inurba_marseille","lat":43.26804,"lon":5.40267,"is_reserved":false,"is_disabled":false,"rental_uris":{"android":"levelo://app?vid=013aee33-85c0-4004-910f-f8c5e7881afb","ios":"levelo://app?vid=013aee33-85c0-4004-910f-f8c5e7881afb"},"vehicle_type_id":"4","last_reported":1729171072,"current_range_meters":37600,"station_id":"ce501612rcd8frsf0b60","pricing_plan_id":"cebpf4jnsgd1na2vs0mg"},{"bike_id":"8f9293e6-48bf-4d50-9b31-9f59dfa41171","system_id":"levelo_inurba_marseille","lat":43.3189,"lon":5.40727,"is_reserved":false,"is_disabled":false,"rental_uris":{"android":"levelo://app?vid=8f9293e6-48bf-4d50-9b31-9f59dfa41171","ios":"levelo://app?vid=8f9293e6-48bf-4d50-9b31-9f59dfa41171"},"vehicle_type_id":"4","last_reported":1729171072,"current_range_meters":37600,"station_id":"ce4bhq12rcd13ifvqhig","pricing_plan_id":"cebpf4jnsgd1na2vs0mg"},{"bike_id":"87440bd7-4730-412f-b52f-03b263c3d6ba","system_id":"levelo_inurba_marseille","lat":43.2319,"lon":5.35555,"is_reserved":false,"is_disabled":false,"rental_uris":{"android":"levelo://app?vid=87440bd7-4730-412f-b52f-03b263c3d6ba","ios":"levelo://app?vid=87440bd7-4730-412f-b52f-03b263c3d6ba"},"vehicle_type_id":"4","last_reported":1729171072,"current_range_meters":18800,"station_id":"ce4bhu92rcd13ifvqi70","pricing_plan_id":"cebpf4jnsgd1na2vs0mg"},{"bike_id":"8937c157-fc3b-4704-af92-e339d8163a54","system_id":"levelo_inurba_marseille","lat":43.29587,"lon":5.36735,"is_reserved":false,"is_disabled":false,"rental_uris":{"android":"levelo://app?vid=8937c157-fc3b-4704-af92-e339d8163a54","ios":"levelo://app?vid=8937c157-fc3b-4704-af92-e339d8163a54"},"vehicle_type_id":"4","last_reported":1729171072,"current_range_meters":23200,"station_id":"ce4bgph2rcd13ifvqc2g","pricing_plan_id":"cebpf4jnsgd1na2vs0mg"},{"bike_id":"fbfb8c6e-02a1-43e8-aea2-589f686f94d1","system_id":"levelo_inurba_marseille","lat":43.29299,"lon":5.37464,"is_reserved":false,"is_disabled":false,"rental_uris":{"android":"levelo://app?vid=fbfb8c6e-02a1-43e8-aea2-589f686f94d1","ios":"levelo://app?vid=fbfb8c6e-02a1-43e8-aea2-589f686f94d1"},"vehicle_type_id":"4","last_reported":1729171072,"current_range_meters":38400,"station_id":"ce4bgi12rcd13ifvqb70","pricing_plan_id":"cebpf4jnsgd1na2vs0mg"},{"bike_id":"a57e051e-cba3-4629-93a7-086ce79b55c2","system_id":"levelo_inurba_marseille","lat":43.26196,"lon":5.37449,"is_reserved":false,"is_disabled":false,"rental_uris":{"android":"levelo://app?vid=a57e051e-cba3-4629-93a7-086ce79b55c2","ios":"levelo://app?vid=a57e051e-cba3-4629-93a7-086ce79b55c2"},"vehicle_type_id":"4","last_reported":1729171072,"current_range_meters":32400,"station_id":"ce4bhgp2rcd13ifvqfc0","pricing_plan_id":"cebpf4jnsgd1na2vs0mg"},{"bike_id":"5b729bd0-1163-45cb-8714-df8bd314dc3c","system_id":"levelo_inurba_marseille","lat":43.30925,"lon":5.40145,"is_reserved":false,"is_disabled":false,"rental_uris":{"android":"levelo://app?vid=5b729bd0-1163-45cb-8714-df8bd314dc3c","ios":"levelo://app?vid=5b729bd0-1163-45cb-8714-df8bd314dc3c"},"vehicle_type_id":"4","last_reported":1729171072,"current_range_meters":18000,"station_id":"ce4bgvp2rcd13ifvqct0","pricing_plan_id":"cebpf4jnsgd1na2vs0mg"},{"bike_id":"e163b575-7bb5-4bee-a353-5c11eebe75ac","system_id":"levelo_inurba_marseille","lat":43.29299,"lon":5.37448,"is_reserved":false,"is_disabled":false,"rental_uris":{"android":"levelo://app?vid=e163b575-7bb5-4bee-a353-5c11eebe75ac","ios":"levelo://app?vid=e163b575-7bb5-4bee-a353-5c11eebe75ac"},"vehicle_type_id":"4","last_reported":1729171072,"current_range_meters":19600,"station_id":"ce4bgi12rcd13ifvqb70","pricing_plan_id":"cebpf4jnsgd1na2vs0mg"},{"bike_id":"e7f36768-34b8-4eaa-91a6-5ea8a6bfc3c7","system_id":"levelo_inurba_marseille","lat":43.24078,"lon":5.37743,"is_reserved":false,"is_disabled":false,"rental_uris":{"android":"levelo://app?vid=e7f36768-34b8-4eaa-91a6-5ea8a6bfc3c7","ios":"levelo://app?vid=e7f36768-34b8-4eaa-91a6-5ea8a6bfc3c7"},"vehicle_type_id":"4","last_reported":1729171072,"current_range_meters":8400,"station_id":"ce4bhnp2rcd13ifvqgvg","pricing_plan_id":"cebpf4jnsgd1na2vs0mg"},{"bike_id":"de6d2143-a2fa-4224-b65d-bdae5be8caff","system_id":"levelo_inurba_marseille","lat":43.31492,"lon":5.37311,"is_reserved":false,"is_disabled":false,"rental_uris":{"android":"levelo://app?vid=de6d2143-a2fa-4224-b65d-bdae5be8caff","ios":"levelo://app?vid=de6d2143-a2fa-4224-b65d-bdae5be8caff"},"vehicle_type_id":"4","last_reported":1729171072,"current_range_meters":24800,"station_id":"ce4bgt12rcd13ifvqcd0","pricing_plan_id":"cebpf4jnsgd1na2vs0mg"},{"bike_id":"db65d913-a142-43a7-b1c3-54dc85aadcca","system_id":"levelo_inurba_marseille","lat":43.24808,"lon":5.37451,"is_reserved":false,"is_disabled":false,"rental_uris":{"android":"levelo://app?vid=db65d913-a142-43a7-b1c3-54dc85aadcca","ios":"levelo://app?vid=db65d913-a142-43a7-b1c3-54dc85aadcca"},"vehicle_type_id":"4","last_reported":1729171072,"current_range_meters":24000,"station_id":"ce4bhgh2rcd13ifvqfb0","pricing_plan_id":"cebpf4jnsgd1na2vs0mg"},{"bike_id":"bf2089b0-26e1-414a-a423-b4e5749ee546","system_id":"levelo_inurba_marseille","lat":43.28413,"lon":5.34983,"is_reserved":false,"is_disabled":false,"rental_uris":{"android":"levelo://app?vid=bf2089b0-26e1-414a-a423-b4e5749ee546","ios":"levelo://app?vid=bf2089b0-26e1-414a-a423-b4e5749ee546"},"vehicle_type_id":"4","last_reported":1729171072,"current_range_meters":38800,"station_id":"ce4bhbh2rcd13ifvqepg","pricing_plan_id":"cebpf4jnsgd1na2vs0mg"},{"bike_id":"e54498e1-853a-4785-9616-38042a636c91","system_id":"levelo_inurba_marseille","lat":43.28934,"lon":5.36638,"is_reserved":false,"is_disabled":false,"rental_uris":{"android":"levelo://app?vid=e54498e1-853a-4785-9616-38042a636c91","ios":"levelo://app?vid=e54498e1-853a-4785-9616-38042a636c91"},"vehicle_type_id":"4","last_reported":1729171072,"current_range_meters":37600,"station_id":"ce4bhap2rcd13ifvqek0","pricing_plan_id":"cebpf4jnsgd1na2vs0mg"},{"bike_id":"c14ef5f2-0e25-4897-bdf5-11a8cb47f4b9","system_id":"levelo_inurba_marseille","lat":43.28419,"lon":5.34978,"is_reserved":false,"is_disabled":false,"rental_uris":{"android":"levelo://app?vid=c14ef5f2-0e25-4897-bdf5-11a8cb47f4b9","ios":"levelo://app?vid=c14ef5f2-0e25-4897-bdf5-11a8cb47f4b9"},"vehicle_type_id":"4","last_reported":1729171072,"current_range_meters":35600,"station_id":"ce4bhbh2rcd13ifvqepg","pricing_plan_id":"cebpf4jnsgd1na2vs0mg"},{"bike_id":"49c3db25-f66c-4541-ad54-af787a8b9e0e","system_id":"levelo_inurba_marseille","lat":43.27175,"lon":5.40979,"is_reserved":false,"is_disabled":false,"rental_uris":{"android":"levelo://app?vid=49c3db25-f66c-4541-ad54-af787a8b9e0e","ios":"levelo://app?vid=49c3db25-f66c-4541-ad54-af787a8b9e0e"},"vehicle_type_id":"4","last_reported":1729171072,"current_range_meters":39200,"station_id":"ce4bhl12rcd13ifvqgf0","pricing_plan_id":"cebpf4jnsgd1na2vs0mg"},{"bike_id":"f089d4a1-7823-433a-a1c5-4fe27519edd0","system_id":"levelo_inurba_marseille","lat":43.23964,"lon":5.3663,"is_reserved":false,"is_disabled":false,"rental_uris":{"android":"levelo://app?vid=f089d4a1-7823-433a-a1c5-4fe27519edd0","ios":"levelo://app?vid=f089d4a1-7823-433a-a1c5-4fe27519edd0"},"vehicle_type_id":"4","last_reported":1729171072,"current_range_meters":34800,"station_id":"ce4bhi12rcd13ifvqfp0","pricing_plan_id":"cebpf4jnsgd1na2vs0mg"},{"bike_id":"2901ff37-0119-4f7b-91fb-d7fdf0736260","system_id":"levelo_inurba_marseille","lat":43.2293,"lon":5.35374,"is_reserved":false,"is_disabled":false,"rental_uris":{"android":"levelo://app?vid=2901ff37-0119-4f7b-91fb-d7fdf0736260","ios":"levelo://app?vid=2901ff37-0119-4f7b-91fb-d7fdf0736260"},"vehicle_type_id":"4","last_reported":1729171072,"current_range_meters":31200,"station_id":"cpo3532slgdg3j2ikp40","pricing_plan_id":"cebpf4jnsgd1na2vs0mg"},{"bike_id":"29ff6803-379a-4a1b-b213-d7b7394493d9","system_id":"levelo_inurba_marseille","lat":43.27053,"lon":5.4026,"is_reserved":false,"is_disabled":false,"rental_uris":{"android":"levelo://app?vid=29ff6803-379a-4a1b-b213-d7b7394493d9","ios":"levelo://app?vid=29ff6803-379a-4a1b-b213-d7b7394493d9"},"vehicle_type_id":"4","last_reported":1729171072,"current_range_meters":38000,"station_id":"ce4bhk92rcd13ifvqgc0","pricing_plan_id":"cebpf4jnsgd1na2vs0mg"},{"bike_id":"9b4a4591-a436-4283-90c3-b4e88b98c8a0","system_id":"levelo_inurba_marseille","lat":43.24391,"lon":5.37053,"is_reserved":false,"is_disabled":false,"rental_uris":{"android":"levelo://app?vid=9b4a4591-a436-4283-90c3-b4e88b98c8a0","ios":"levelo://app?vid=9b4a4591-a436-4283-90c3-b4e88b98c8a0"},"vehicle_type_id":"4","last_reported":1729171072,"current_range_meters":25200,"station_id":"ce4bhhh2rcd13ifvqfk0","pricing_plan_id":"cebpf4jnsgd1na2vs0mg"},{"bike_id":"53f11546-ee0f-4227-921a-a57d93ed79b4","system_id":"levelo_inurba_marseille","lat":43.23151,"lon":5.4371,"is_reserved":false,"is_disabled":false,"rental_uris":{"android":"levelo://app?vid=53f11546-ee0f-4227-921a-a57d93ed79b4","ios":"levelo://app?vid=53f11546-ee0f-4227-921a-a57d93ed79b4"},"vehicle_type_id":"4","last_reported":1729171072,"current_range_meters":28800,"station_id":"ce4bhmp2rcd13ifvqgog","pricing_plan_id":"cebpf4jnsgd1na2vs0mg"},{"bike_id":"d7b43df6-e713-4bba-98bb-6a8cd01631fe","system_id":"levelo_inurba_marseille","lat":43.25497,"lon":5.37648,"is_reserved":false,"is_disabled":false,"rental_uris":{"android":"levelo://app?vid=d7b43df6-e713-4bba-98bb-6a8cd01631fe","ios":"levelo://app?vid=d7b43df6-e713-4bba-98bb-6a8cd01631fe"},"vehicle_type_id":"4","last_reported":1729171072,"current_range_meters":10000,"station_id":"ce4bhh12rcd13ifvqff0","pricing_plan_id":"cebpf4jnsgd1na2vs0mg"},{"bike_id":"25f491e5-d0ff-4e5e-94b3-5535a7d3231b","system_id":"levelo_inurba_marseille","lat":43.24551,"lon":5.39522,"is_reserved":false,"is_disabled":false,"rental_uris":{"android":"levelo://app?vid=25f491e5-d0ff-4e5e-94b3-5535a7d3231b","ios":"levelo://app?vid=25f491e5-d0ff-4e5e-94b3-5535a7d3231b"},"vehicle_type_id":"4","last_reported":1729171072,"current_range_meters":38800,"station_id":"ce4bhlp2rcd13ifvqgjg","pricing_plan_id":"cebpf4jnsgd1na2vs0mg"},{"bike_id":"226d8312-5bb8-4aba-8f94-5857debac0e3","system_id":"levelo_inurba_marseille","lat":43.27173,"lon":5.4099,"is_reserved":false,"is_disabled":false,"rental_uris":{"android":"levelo://app?vid=226d8312-5bb8-4aba-8f94-5857debac0e3","ios":"levelo://app?vid=226d8312-5bb8-4aba-8f94-5857debac0e3"},"vehicle_type_id":"4","last_reported":1729171072,"current_range_meters":39200,"station_id":"ce4bhl12rcd13ifvqgf0","pricing_plan_id":"cebpf4jnsgd1na2vs0mg"},{"bike_id":"06bb7500-aaac-4ac4-af5f-b0d62ba39584","system_id":"levelo_inurba_marseille","lat":43.30908,"lon":5.36856,"is_reserved":false,"is_disabled":false,"rental_uris":{"android":"levelo://app?vid=06bb7500-aaac-4ac4-af5f-b0d62ba39584","ios":"levelo://app?vid=06bb7500-aaac-4ac4-af5f-b0d62ba39584"},"vehicle_type_id":"4","last_reported":1729171072,"current_range_meters":39200,"station_id":"ce4bgn92rcd13ifvqbvg","pricing_plan_id":"cebpf4jnsgd1na2vs0mg"},{"bike_id":"e2023b7b-aecf-412d-9fa4-b1b5a96b9044","system_id":"levelo_inurba_marseille","lat":43.25107,"lon":5.40321,"is_reserved":false,"is_disabled":false,"rental_uris":{"android":"levelo://app?vid=e2023b7b-aecf-412d-9fa4-b1b5a96b9044","ios":"levelo://app?vid=e2023b7b-aecf-412d-9fa4-b1b5a96b9044"},"vehicle_type_id":"4","last_reported":1729171072,"current_range_meters":5600,"station_id":"ce4bhlh2rcd13ifvqgig","pricing_plan_id":"cebpf4jnsgd1na2vs0mg"},{"bike_id":"5b7d217b-b6a3-48b2-a7c0-1e484eaaea02","system_id":"levelo_inurba_marseille","lat":43.25936,"lon":5.40897,"is_reserved":false,"is_disabled":false,"rental_uris":{"android":"levelo://app?vid=5b7d217b-b6a3-48b2-a7c0-1e484eaaea02","ios":"levelo://app?vid=5b7d217b-b6a3-48b2-a7c0-1e484eaaea02"},"vehicle_type_id":"4","last_reported":1729171072,"current_range_meters":38400,"station_id":"ce4bhm92rcd13ifvqglg","pricing_plan_id":"cebpf4jnsgd1na2vs0mg"},{"bike_id":"292b9425-1372-40d4-bf0a-fe57aa779a41","system_id":"levelo_inurba_marseille","lat":43.23065,"lon":5.35492,"is_reserved":false,"is_disabled":false,"rental_uris":{"android":"levelo://app?vid=292b9425-1372-40d4-bf0a-fe57aa779a41","ios":"levelo://app?vid=292b9425-1372-40d4-bf0a-fe57aa779a41"},"vehicle_type_id":"4","last_reported":1729171072,"current_range_meters":24400,"station_id":"cpo3342slgdg3j2ifvpg","pricing_plan_id":"cebpf4jnsgd1na2vs0mg"},{"bike_id":"efeaea61-8512-4b75-bae8-c43941554118","system_id":"levelo_inurba_marseille","lat":43.29587,"lon":5.36739,"is_reserved":false,"is_disabled":false,"rental_uris":{"android":"levelo://app?vid=efeaea61-8512-4b75-bae8-c43941554118","ios":"levelo://app?vid=efeaea61-8512-4b75-bae8-c43941554118"},"vehicle_type_id":"4","last_reported":1729171072,"current_range_meters":28000,"station_id":"ce4bgph2rcd13ifvqc2g","pricing_plan_id":"cebpf4jnsgd1na2vs0mg"},{"bike_id":"19eeb32f-8657-43d6-a27e-ca690beaa840","system_id":"levelo_inurba_marseille","lat":43.32484,"lon":5.36553,"is_reserved":false,"is_disabled":false,"rental_uris":{"android":"levelo://app?vid=19eeb32f-8657-43d6-a27e-ca690beaa840","ios":"levelo://app?vid=19eeb32f-8657-43d6-a27e-ca690beaa840"},"vehicle_type_id":"4","last_reported":1729171072,"current_range_meters":38800,"station_id":"ce4bhs12rcd13ifvqhvg","pricing_plan_id":"cebpf4jnsgd1na2vs0mg"},{"bike_id":"cdbdc306-2882-40a2-a047-8389dcca1e39","system_id":"levelo_inurba_marseille","lat":43.27816,"lon":5.40713,"is_reserved":false,"is_disabled":false,"rental_uris":{"android":"levelo://app?vid=cdbdc306-2882-40a2-a047-8389dcca1e39","ios":"levelo://app?vid=cdbdc306-2882-40a2-a047-8389dcca1e39"},"vehicle_type_id":"4","last_reported":1729171072,"current_range_meters":14400,"station_id":"ce4bhnh2rcd13ifvqgtg","pricing_plan_id":"cebpf4jnsgd1na2vs0mg"},{"bike_id":"512de681-c1b2-4832-a97d-6c09c612c68d","system_id":"levelo_inurba_marseille","lat":43.29055,"lon":5.35907,"is_reserved":false,"is_disabled":false,"rental_uris":{"android":"levelo://app?vid=512de681-c1b2-4832-a97d-6c09c612c68d","ios":"levelo://app?vid=512de681-c1b2-4832-a97d-6c09c612c68d"},"vehicle_type_id":"4","last_reported":1729171072,"current_range_meters":36800,"station_id":"ce4bha92rcd13ifvqeg0","pricing_plan_id":"cebpf4jnsgd1na2vs0mg"},{"bike_id":"d4000f0c-6972-4458-a6ae-1140f816bc15","system_id":"levelo_inurba_marseille","lat":43.28344,"lon":5.38099,"is_reserved":false,"is_disabled":false,"rental_uris":{"android":"levelo://app?vid=d4000f0c-6972-4458-a6ae-1140f816bc15","ios":"levelo://app?vid=d4000f0c-6972-4458-a6ae-1140f816bc15"},"vehicle_type_id":"4","last_reported":1729171072,"current_range_meters":8400,"station_id":"ce4bh412rcd13ifvqdr0","pricing_plan_id":"cebpf4jnsgd1na2vs0mg"},{"bike_id":"73040c20-1227-4cec-95b9-8af8a3df40dc","system_id":"levelo_inurba_marseille","lat":43.26953,"lon":5.38644,"is_reserved":false,"is_disabled":false,"rental_uris":{"android":"levelo://app?vid=73040c20-1227-4cec-95b9-8af8a3df40dc","ios":"levelo://app?vid=73040c20-1227-4cec-95b9-8af8a3df40dc"},"vehicle_type_id":"4","last_reported":1729171072,"current_range_meters":11600,"station_id":"ce4bhh92rcd13ifvqfh0","pricing_plan_id":"cebpf4jnsgd1na2vs0mg"},{"bike_id":"5ab66e45-0165-4216-847f-4e1dfb4defc5","system_id":"levelo_inurba_marseille","lat":43.23155,"lon":5.437,"is_reserved":false,"is_disabled":false,"rental_uris":{"android":"levelo://app?vid=5ab66e45-0165-4216-847f-4e1dfb4defc5","ios":"levelo://app?vid=5ab66e45-0165-4216-847f-4e1dfb4defc5"},"vehicle_type_id":"4","last_reported":1729171072,"current_range_meters":36800,"station_id":"ce4bhmp2rcd13ifvqgog","pricing_plan_id":"cebpf4jnsgd1na2vs0mg"},{"bike_id":"29494dc5-4478-49b5-94e3-7fde110356be","system_id":"levelo_inurba_marseille","lat":43.32662,"lon":5.40986,"is_reserved":false,"is_disabled":false,"rental_uris":{"android":"levelo://app?vid=29494dc5-4478-49b5-94e3-7fde110356be","ios":"levelo://app?vid=29494dc5-4478-49b5-94e3-7fde110356be"},"vehicle_type_id":"4","last_reported":1729171072,"current_range_meters":26000,"station_id":"ce4bhpp2rcd13ifvqhgg","pricing_plan_id":"cebpf4jnsgd1na2vs0mg"},{"bike_id":"1f37b7e6-9139-4ccd-a095-e8bad37eaf87","system_id":"levelo_inurba_marseille","lat":43.25935,"lon":5.40904,"is_reserved":false,"is_disabled":false,"rental_uris":{"android":"levelo://app?vid=1f37b7e6-9139-4ccd-a095-e8bad37eaf87","ios":"levelo://app?vid=1f37b7e6-9139-4ccd-a095-e8bad37eaf87"},"vehicle_type_id":"4","last_reported":1729171072,"current_range_meters":14400,"station_id":"ce4bhm92rcd13ifvqglg","pricing_plan_id":"cebpf4jnsgd1na2vs0mg"},{"bike_id":"2a428259-c5b4-4c54-809d-d47d6ce7b4f0","system_id":"levelo_inurba_marseille","lat":43.29257,"lon":5.40913,"is_reserved":false,"is_disabled":false,"rental_uris":{"android":"levelo://app?vid=2a428259-c5b4-4c54-809d-d47d6ce7b4f0","ios":"levelo://app?vid=2a428259-c5b4-4c54-809d-d47d6ce7b4f0"},"vehicle_type_id":"4","last_reported":1729171072,"current_range_meters":30800,"station_id":"ce4bh192rcd13ifvqdc0","pricing_plan_id":"cebpf4jnsgd1na2vs0mg"},{"bike_id":"fc8ebf12-8464-484c-9070-25c7ca54790a","system_id":"levelo_inurba_marseille","lat":43.33025,"lon":5.39041,"is_reserved":false,"is_disabled":false,"rental_uris":{"android":"levelo://app?vid=fc8ebf12-8464-484c-9070-25c7ca54790a","ios":"levelo://app?vid=fc8ebf12-8464-484c-9070-25c7ca54790a"},"vehicle_type_id":"4","last_reported":1729171072,"current_range_meters":38400,"station_id":"ce4bhr92rcd13ifvqhrg","pricing_plan_id":"cebpf4jnsgd1na2vs0mg"},{"bike_id":"005117c0-90a3-4ee2-af58-362346745aa6","system_id":"levelo_inurba_marseille","lat":43.27379,"lon":5.36246,"is_reserved":false,"is_disabled":false,"rental_uris":{"android":"levelo://app?vid=005117c0-90a3-4ee2-af58-362346745aa6","ios":"levelo://app?vid=005117c0-90a3-4ee2-af58-362346745aa6"},"vehicle_type_id":"4","last_reported":1729171072,"current_range_meters":2800,"station_id":"ce4bhbh2rcd13ifvqeo0","pricing_plan_id":"cebpf4jnsgd1na2vs0mg"},{"bike_id":"54132333-de56-4421-a4cb-49ad49eb37a1","system_id":"levelo_inurba_marseille","lat":43.30247,"lon":5.40046,"is_reserved":false,"is_disabled":false,"rental_uris":{"android":"levelo://app?vid=54132333-de56-4421-a4cb-49ad49eb37a1","ios":"levelo://app?vid=54132333-de56-4421-a4cb-49ad49eb37a1"},"vehicle_type_id":"4","last_reported":1729171072,"current_range_meters":29600,"station_id":"ce4bgvh2rcd13ifvqcs0","pricing_plan_id":"cebpf4jnsgd1na2vs0mg"},{"bike_id":"7a1473d0-7da5-4f4a-99ac-fb672622eb44","system_id":"levelo_inurba_marseille","lat":43.24396,"lon":5.37051,"is_reserved":false,"is_disabled":false,"rental_uris":{"android":"levelo://app?vid=7a1473d0-7da5-4f4a-99ac-fb672622eb44","ios":"levelo://app?vid=7a1473d0-7da5-4f4a-99ac-fb672622eb44"},"vehicle_type_id":"4","last_reported":1729171072,"current_range_meters":13600,"station_id":"ce4bhhh2rcd13ifvqfk0","pricing_plan_id":"cebpf4jnsgd1na2vs0mg"},{"bike_id":"5b00b803-9fca-4e4f-b292-c98a358550d6","system_id":"levelo_inurba_marseille","lat":43.29065,"lon":5.37161,"is_reserved":false,"is_disabled":false,"rental_uris":{"android":"levelo://app?vid=5b00b803-9fca-4e4f-b292-c98a358550d6","ios":"levelo://app?vid=5b00b803-9fca-4e4f-b292-c98a358550d6"},"vehicle_type_id":"4","last_reported":1729171072,"current_range_meters":16800,"station_id":"ce4bh5p2rcd13ifvqe4g","pricing_plan_id":"cebpf4jnsgd1na2vs0mg"},{"bike_id":"5a673800-fe7e-445f-bd0e-ba4725b8a4e8","system_id":"levelo_inurba_marseille","lat":43.29547,"lon":5.42279,"is_reserved":false,"is_disabled":false,"rental_uris":{"android":"levelo://app?vid=5a673800-fe7e-445f-bd0e-ba4725b8a4e8","ios":"levelo://app?vid=5a673800-fe7e-445f-bd0e-ba4725b8a4e8"},"vehicle_type_id":"4","last_reported":1729171072,"current_range_meters":36000,"station_id":"ce4bhph2rcd13ifvqhdg","pricing_plan_id":"cebpf4jnsgd1na2vs0mg"},{"bike_id":"41781d3d-941e-4140-a86a-14bc69c69dfd","system_id":"levelo_inurba_marseille","lat":43.24083,"lon":5.37736,"is_reserved":false,"is_disabled":false,"rental_uris":{"android":"levelo://app?vid=41781d3d-941e-4140-a86a-14bc69c69dfd","ios":"levelo://app?vid=41781d3d-941e-4140-a86a-14bc69c69dfd"},"vehicle_type_id":"4","last_reported":1729171072,"current_range_meters":12800,"station_id":"ce4bhnp2rcd13ifvqgvg","pricing_plan_id":"cebpf4jnsgd1na2vs0mg"},{"bike_id":"9620fd44-1a5e-4cd0-b47f-1054b4c38ea0","system_id":"levelo_inurba_marseille","lat":43.30186,"lon":5.36608,"is_reserved":false,"is_disabled":false,"rental_uris":{"android":"levelo://app?vid=9620fd44-1a5e-4cd0-b47f-1054b4c38ea0","ios":"levelo://app?vid=9620fd44-1a5e-4cd0-b47f-1054b4c38ea0"},"vehicle_type_id":"4","last_reported":1729171072,"current_range_meters":32800,"station_id":"ce4bgrh2rcd13ifvqc8g","pricing_plan_id":"cebpf4jnsgd1na2vs0mg"},{"bike_id":"3664398f-378f-46f2-bd12-30042ad8db9d","system_id":"levelo_inurba_marseille","lat":43.23184,"lon":5.3998,"is_reserved":false,"is_disabled":false,"rental_uris":{"android":"levelo://app?vid=3664398f-378f-46f2-bd12-30042ad8db9d","ios":"levelo://app?vid=3664398f-378f-46f2-bd12-30042ad8db9d"},"vehicle_type_id":"4","last_reported":1729171072,"current_range_meters":35200,"station_id":"ce4bhn12rcd13ifvqgqg","pricing_plan_id":"cebpf4jnsgd1na2vs0mg"},{"bike_id":"507f454f-ca5c-4ce1-8d3e-3581fd751fa1","system_id":"levelo_inurba_marseille","lat":43.27813,"lon":5.40708,"is_reserved":false,"is_disabled":false,"rental_uris":{"android":"levelo://app?vid=507f454f-ca5c-4ce1-8d3e-3581fd751fa1","ios":"levelo://app?vid=507f454f-ca5c-4ce1-8d3e-3581fd751fa1"},"vehicle_type_id":"4","last_reported":1729171072,"current_range_meters":22800,"station_id":"ce4bhnh2rcd13ifvqgtg","pricing_plan_id":"cebpf4jnsgd1na2vs0mg"},{"bike_id":"aa7f96ed-cc48-4608-9ca7-688d7b972e79","system_id":"levelo_inurba_marseille","lat":43.29848,"lon":5.36285,"is_reserved":false,"is_disabled":false,"rental_uris":{"android":"levelo://app?vid=aa7f96ed-cc48-4608-9ca7-688d7b972e79","ios":"levelo://app?vid=aa7f96ed-cc48-4608-9ca7-688d7b972e79"},"vehicle_type_id":"4","last_reported":1729171072,"current_range_meters":27200,"station_id":"ce4bgpp2rcd13ifvqc3g","pricing_plan_id":"cebpf4jnsgd1na2vs0mg"},{"bike_id":"a9d80141-cb04-4f88-bcc5-9763572e3517","system_id":"levelo_inurba_marseille","lat":43.23194,"lon":5.35544,"is_reserved":false,"is_disabled":false,"rental_uris":{"android":"levelo://app?vid=a9d80141-cb04-4f88-bcc5-9763572e3517","ios":"levelo://app?vid=a9d80141-cb04-4f88-bcc5-9763572e3517"},"vehicle_type_id":"4","last_reported":1729171072,"current_range_meters":33200,"station_id":"ce4bhu92rcd13ifvqi70","pricing_plan_id":"cebpf4jnsgd1na2vs0mg"},{"bike_id":"e0db5bd3-d427-4f9e-b1f3-02dd007c7e39","system_id":"levelo_inurba_marseille","lat":43.24394,"lon":5.37055,"is_reserved":false,"is_disabled":false,"rental_uris":{"android":"levelo://app?vid=e0db5bd3-d427-4f9e-b1f3-02dd007c7e39","ios":"levelo://app?vid=e0db5bd3-d427-4f9e-b1f3-02dd007c7e39"},"vehicle_type_id":"4","last_reported":1729171072,"current_range_meters":20000,"station_id":"ce4bhhh2rcd13ifvqfk0","pricing_plan_id":"cebpf4jnsgd1na2vs0mg"},{"bike_id":"35a22db4-7e9d-4709-be91-f373b0a75e57","system_id":"levelo_inurba_marseille","lat":43.33756,"lon":5.37449,"is_reserved":false,"is_disabled":false,"rental_uris":{"android":"levelo://app?vid=35a22db4-7e9d-4709-be91-f373b0a75e57","ios":"levelo://app?vid=35a22db4-7e9d-4709-be91-f373b0a75e57"},"vehicle_type_id":"4","last_reported":1729171072,"current_range_meters":14400,"station_id":"","pricing_plan_id":"cebpf4jnsgd1na2vs0mg"},{"bike_id":"73c81c60-6324-48ed-a11c-a3be0f4dfdd1","system_id":"levelo_inurba_marseille","lat":43.27373,"lon":5.36262,"is_reserved":false,"is_disabled":false,"rental_uris":{"android":"levelo://app?vid=73c81c60-6324-48ed-a11c-a3be0f4dfdd1","ios":"levelo://app?vid=73c81c60-6324-48ed-a11c-a3be0f4dfdd1"},"vehicle_type_id":"4","last_reported":1729171072,"current_range_meters":11200,"station_id":"ce4bhbh2rcd13ifvqeo0","pricing_plan_id":"cebpf4jnsgd1na2vs0mg"},{"bike_id":"d9a2fbbd-da9e-440d-b920-37764bace61a","system_id":"levelo_inurba_marseille","lat":43.26954,"lon":5.38628,"is_reserved":false,"is_disabled":false,"rental_uris":{"android":"levelo://app?vid=d9a2fbbd-da9e-440d-b920-37764bace61a","ios":"levelo://app?vid=d9a2fbbd-da9e-440d-b920-37764bace61a"},"vehicle_type_id":"4","last_reported":1729171072,"current_range_meters":6000,"station_id":"ce4bhh92rcd13ifvqfh0","pricing_plan_id":"cebpf4jnsgd1na2vs0mg"},{"bike_id":"3ccc4e7b-dee9-4897-81c9-16461f19ee2b","system_id":"levelo_inurba_marseille","lat":43.2872,"lon":5.37928,"is_reserved":false,"is_disabled":false,"rental_uris":{"android":"levelo://app?vid=3ccc4e7b-dee9-4897-81c9-16461f19ee2b","ios":"levelo://app?vid=3ccc4e7b-dee9-4897-81c9-16461f19ee2b"},"vehicle_type_id":"4","last_reported":1729171072,"current_range_meters":40000,"station_id":"ce4bh9p2rcd13ifvqec0","pricing_plan_id":"cebpf4jnsgd1na2vs0mg"},{"bike_id":"4ce6a8a4-f543-406e-9b3b-bf69a485e2ff","system_id":"levelo_inurba_marseille","lat":43.24652,"lon":5.38894,"is_reserved":false,"is_disabled":false,"rental_uris":{"android":"levelo://app?vid=4ce6a8a4-f543-406e-9b3b-bf69a485e2ff","ios":"levelo://app?vid=4ce6a8a4-f543-406e-9b3b-bf69a485e2ff"},"vehicle_type_id":"4","last_reported":1729171072,"current_range_meters":32400,"station_id":"ce4bhg12rcd13ifvqf60","pricing_plan_id":"cebpf4jnsgd1na2vs0mg"},{"bike_id":"0b3e7fd6-2511-4337-b5d2-b8304124bef5","system_id":"levelo_inurba_marseille","lat":43.25936,"lon":5.40904,"is_reserved":false,"is_disabled":false,"rental_uris":{"android":"levelo://app?vid=0b3e7fd6-2511-4337-b5d2-b8304124bef5","ios":"levelo://app?vid=0b3e7fd6-2511-4337-b5d2-b8304124bef5"},"vehicle_type_id":"4","last_reported":1729171072,"current_range_meters":24800,"station_id":"ce4bhm92rcd13ifvqglg","pricing_plan_id":"cebpf4jnsgd1na2vs0mg"},{"bike_id":"d1a907d5-c214-4b4a-a5df-98c975e8ac20","system_id":"levelo_inurba_marseille","lat":43.294189,"lon":5.386278,"is_reserved":false,"is_disabled":false,"rental_uris":{"android":"levelo://app?vid=d1a907d5-c214-4b4a-a5df-98c975e8ac20","ios":"levelo://app?vid=d1a907d5-c214-4b4a-a5df-98c975e8ac20"},"vehicle_type_id":"4","last_reported":1729171072,"current_range_meters":12000,"station_id":"ce4bh2h2rcd13ifvqdh0","pricing_plan_id":"cebpf4jnsgd1na2vs0mg"},{"bike_id":"baf70069-8411-4af8-8e51-a77ed351827d","system_id":"levelo_inurba_marseille","lat":43.27564,"lon":5.38407,"is_reserved":false,"is_disabled":false,"rental_uris":{"android":"levelo://app?vid=baf70069-8411-4af8-8e51-a77ed351827d","ios":"levelo://app?vid=baf70069-8411-4af8-8e51-a77ed351827d"},"vehicle_type_id":"4","last_reported":1729171072,"current_range_meters":10800,"station_id":"ce4bhh92rcd13ifvqfi0","pricing_plan_id":"cebpf4jnsgd1na2vs0mg"},{"bike_id":"d41309ab-1a1f-4395-acaa-455483c3f8e1","system_id":"levelo_inurba_marseille","lat":43.23194,"lon":5.35559,"is_reserved":false,"is_disabled":false,"rental_uris":{"android":"levelo://app?vid=d41309ab-1a1f-4395-acaa-455483c3f8e1","ios":"levelo://app?vid=d41309ab-1a1f-4395-acaa-455483c3f8e1"},"vehicle_type_id":"4","last_reported":1729171072,"current_range_meters":36400,"station_id":"ce4bhu92rcd13ifvqi70","pricing_plan_id":"cebpf4jnsgd1na2vs0mg"},{"bike_id":"fc9cc624-b42b-48e4-8103-4b39b2ecb0b7","system_id":"levelo_inurba_marseille","lat":43.27811,"lon":5.40704,"is_reserved":false,"is_disabled":false,"rental_uris":{"android":"levelo://app?vid=fc9cc624-b42b-48e4-8103-4b39b2ecb0b7","ios":"levelo://app?vid=fc9cc624-b42b-48e4-8103-4b39b2ecb0b7"},"vehicle_type_id":"4","last_reported":1729171072,"current_range_meters":39200,"station_id":"ce4bhnh2rcd13ifvqgtg","pricing_plan_id":"cebpf4jnsgd1na2vs0mg"},{"bike_id":"3125f22b-abc1-4b84-8bf2-d6cfbe688a4a","system_id":"levelo_inurba_marseille","lat":43.29965,"lon":5.38479,"is_reserved":false,"is_disabled":false,"rental_uris":{"android":"levelo://app?vid=3125f22b-abc1-4b84-8bf2-d6cfbe688a4a","ios":"levelo://app?vid=3125f22b-abc1-4b84-8bf2-d6cfbe688a4a"},"vehicle_type_id":"4","last_reported":1729171072,"current_range_meters":39200,"station_id":"ce4bgj92rcd13ifvqbd0","pricing_plan_id":"cebpf4jnsgd1na2vs0mg"},{"bike_id":"b300face-31f3-43f7-93aa-140c9145e841","system_id":"levelo_inurba_marseille","lat":43.30912,"lon":5.36852,"is_reserved":false,"is_disabled":false,"rental_uris":{"android":"levelo://app?vid=b300face-31f3-43f7-93aa-140c9145e841","ios":"levelo://app?vid=b300face-31f3-43f7-93aa-140c9145e841"},"vehicle_type_id":"4","last_reported":1729171072,"current_range_meters":32800,"station_id":"ce4bgn92rcd13ifvqbvg","pricing_plan_id":"cebpf4jnsgd1na2vs0mg"},{"bike_id":"2dd21b36-b488-441a-a25c-f8c2af01cc94","system_id":"levelo_inurba_marseille","lat":43.30543,"lon":5.36533,"is_reserved":false,"is_disabled":false,"rental_uris":{"android":"levelo://app?vid=2dd21b36-b488-441a-a25c-f8c2af01cc94","ios":"levelo://app?vid=2dd21b36-b488-441a-a25c-f8c2af01cc94"},"vehicle_type_id":"4","last_reported":1729171072,"current_range_meters":26800,"station_id":"ce4bgs12rcd13ifvqcag","pricing_plan_id":"cebpf4jnsgd1na2vs0mg"},{"bike_id":"d7549997-4341-483a-8fd9-86b42a4b9e0d","system_id":"levelo_inurba_marseille","lat":43.31714,"lon":5.43707,"is_reserved":false,"is_disabled":false,"rental_uris":{"android":"levelo://app?vid=d7549997-4341-483a-8fd9-86b42a4b9e0d","ios":"levelo://app?vid=d7549997-4341-483a-8fd9-86b42a4b9e0d"},"vehicle_type_id":"4","last_reported":1729171072,"current_range_meters":36000,"station_id":"ce4bhp92rcd13ifvqhcg","pricing_plan_id":"cebpf4jnsgd1na2vs0mg"},{"bike_id":"a0c122e3-af93-4618-bbe9-09704639de9c","system_id":"levelo_inurba_marseille","lat":43.25935,"lon":5.40896,"is_reserved":false,"is_disabled":false,"rental_uris":{"android":"levelo://app?vid=a0c122e3-af93-4618-bbe9-09704639de9c","ios":"levelo://app?vid=a0c122e3-af93-4618-bbe9-09704639de9c"},"vehicle_type_id":"4","last_reported":1729171072,"current_range_meters":16000,"station_id":"ce4bhm92rcd13ifvqglg","pricing_plan_id":"cebpf4jnsgd1na2vs0mg"},{"bike_id":"a53d8f79-2027-4733-b280-3c4931dff1f5","system_id":"levelo_inurba_marseille","lat":43.239658,"lon":5.366264,"is_reserved":false,"is_disabled":false,"rental_uris":{"android":"levelo://app?vid=a53d8f79-2027-4733-b280-3c4931dff1f5","ios":"levelo://app?vid=a53d8f79-2027-4733-b280-3c4931dff1f5"},"vehicle_type_id":"4","last_reported":1729171072,"current_range_meters":30400,"station_id":"ce4bhi12rcd13ifvqfp0","pricing_plan_id":"cebpf4jnsgd1na2vs0mg"},{"bike_id":"a8daef43-5a21-4776-8b76-60c76a8caefc","system_id":"levelo_inurba_marseille","lat":43.27815,"lon":5.40704,"is_reserved":false,"is_disabled":false,"rental_uris":{"android":"levelo://app?vid=a8daef43-5a21-4776-8b76-60c76a8caefc","ios":"levelo://app?vid=a8daef43-5a21-4776-8b76-60c76a8caefc"},"vehicle_type_id":"4","last_reported":1729171072,"current_range_meters":6400,"station_id":"ce4bhnh2rcd13ifvqgtg","pricing_plan_id":"cebpf4jnsgd1na2vs0mg"},{"bike_id":"c034bb6e-bc71-4d55-bc8f-ba63cd332fe3","system_id":"levelo_inurba_marseille","lat":43.23152,"lon":5.43724,"is_reserved":false,"is_disabled":false,"rental_uris":{"android":"levelo://app?vid=c034bb6e-bc71-4d55-bc8f-ba63cd332fe3","ios":"levelo://app?vid=c034bb6e-bc71-4d55-bc8f-ba63cd332fe3"},"vehicle_type_id":"4","last_reported":1729171072,"current_range_meters":24400,"station_id":"ce4bhmp2rcd13ifvqgog","pricing_plan_id":"cebpf4jnsgd1na2vs0mg"},{"bike_id":"033a7f68-f273-426e-84a9-8a3b2c56f6f5","system_id":"levelo_inurba_marseille","lat":43.34466,"lon":5.39038,"is_reserved":false,"is_disabled":false,"rental_uris":{"android":"levelo://app?vid=033a7f68-f273-426e-84a9-8a3b2c56f6f5","ios":"levelo://app?vid=033a7f68-f273-426e-84a9-8a3b2c56f6f5"},"vehicle_type_id":"4","last_reported":1729171072,"current_range_meters":10000,"station_id":"","pricing_plan_id":"cebpf4jnsgd1na2vs0mg"},{"bike_id":"491e8794-df24-4aca-9830-f30af3dfef94","system_id":"levelo_inurba_marseille","lat":43.30162,"lon":5.38859,"is_reserved":false,"is_disabled":false,"rental_uris":{"android":"levelo://app?vid=491e8794-df24-4aca-9830-f30af3dfef94","ios":"levelo://app?vid=491e8794-df24-4aca-9830-f30af3dfef94"},"vehicle_type_id":"4","last_reported":1729171072,"current_range_meters":32400,"station_id":"ce4bgup2rcd13ifvqco0","pricing_plan_id":"cebpf4jnsgd1na2vs0mg"},{"bike_id":"3bf13e05-4503-43f3-a6a2-f38b743ff2ee","system_id":"levelo_inurba_marseille","lat":43.30918,"lon":5.3685,"is_reserved":false,"is_disabled":false,"rental_uris":{"android":"levelo://app?vid=3bf13e05-4503-43f3-a6a2-f38b743ff2ee","ios":"levelo://app?vid=3bf13e05-4503-43f3-a6a2-f38b743ff2ee"},"vehicle_type_id":"4","last_reported":1729171072,"current_range_meters":28400,"station_id":"ce4bgn92rcd13ifvqbvg","pricing_plan_id":"cebpf4jnsgd1na2vs0mg"},{"bike_id":"1af2813b-98a0-4b62-aaf8-89652b30f639","system_id":"levelo_inurba_marseille","lat":43.22934,"lon":5.35385,"is_reserved":false,"is_disabled":false,"rental_uris":{"android":"levelo://app?vid=1af2813b-98a0-4b62-aaf8-89652b30f639","ios":"levelo://app?vid=1af2813b-98a0-4b62-aaf8-89652b30f639"},"vehicle_type_id":"4","last_reported":1729171072,"current_range_meters":18800,"station_id":"cpo3532slgdg3j2ikp40","pricing_plan_id":"cebpf4jnsgd1na2vs0mg"},{"bike_id":"1e6a76d7-4d97-49cb-b4dd-678792ac237f","system_id":"levelo_inurba_marseille","lat":43.30124,"lon":5.39857,"is_reserved":false,"is_disabled":false,"rental_uris":{"android":"levelo://app?vid=1e6a76d7-4d97-49cb-b4dd-678792ac237f","ios":"levelo://app?vid=1e6a76d7-4d97-49cb-b4dd-678792ac237f"},"vehicle_type_id":"4","last_reported":1729171072,"current_range_meters":34000,"station_id":"ce4bh0h2rcd13ifvqd40","pricing_plan_id":"cebpf4jnsgd1na2vs0mg"},{"bike_id":"3f036ca2-87fd-4e7f-b1b9-ffc2f33ba3d5","system_id":"levelo_inurba_marseille","lat":43.31712,"lon":5.43704,"is_reserved":false,"is_disabled":false,"rental_uris":{"android":"levelo://app?vid=3f036ca2-87fd-4e7f-b1b9-ffc2f33ba3d5","ios":"levelo://app?vid=3f036ca2-87fd-4e7f-b1b9-ffc2f33ba3d5"},"vehicle_type_id":"4","last_reported":1729171072,"current_range_meters":8800,"station_id":"ce4bhp92rcd13ifvqhcg","pricing_plan_id":"cebpf4jnsgd1na2vs0mg"},{"bike_id":"7cfbc47a-cb4e-4eb6-b1ae-e6379f86dbaa","system_id":"levelo_inurba_marseille","lat":43.313259,"lon":5.396891,"is_reserved":false,"is_disabled":false,"rental_uris":{"android":"levelo://app?vid=7cfbc47a-cb4e-4eb6-b1ae-e6379f86dbaa","ios":"levelo://app?vid=7cfbc47a-cb4e-4eb6-b1ae-e6379f86dbaa"},"vehicle_type_id":"4","last_reported":1729171072,"current_range_meters":38800,"station_id":"ce4bgvp2rcd13ifvqcu0","pricing_plan_id":"cebpf4jnsgd1na2vs0mg"},{"bike_id":"f93454e1-a669-4c63-a4ca-b572042c7971","system_id":"levelo_inurba_marseille","lat":43.23198,"lon":5.35553,"is_reserved":false,"is_disabled":false,"rental_uris":{"android":"levelo://app?vid=f93454e1-a669-4c63-a4ca-b572042c7971","ios":"levelo://app?vid=f93454e1-a669-4c63-a4ca-b572042c7971"},"vehicle_type_id":"4","last_reported":1729171072,"current_range_meters":14000,"station_id":"ce4bhu92rcd13ifvqi70","pricing_plan_id":"cebpf4jnsgd1na2vs0mg"},{"bike_id":"57acc469-2633-4570-bce1-b2ec12a9e2c5","system_id":"levelo_inurba_marseille","lat":43.23153,"lon":5.43719,"is_reserved":false,"is_disabled":false,"rental_uris":{"android":"levelo://app?vid=57acc469-2633-4570-bce1-b2ec12a9e2c5","ios":"levelo://app?vid=57acc469-2633-4570-bce1-b2ec12a9e2c5"},"vehicle_type_id":"4","last_reported":1729171072,"current_range_meters":38800,"station_id":"ce4bhmp2rcd13ifvqgog","pricing_plan_id":"cebpf4jnsgd1na2vs0mg"},{"bike_id":"800ef758-bf60-49c8-b73e-c8477fb6ff28","system_id":"levelo_inurba_marseille","lat":43.24806,"lon":5.37458,"is_reserved":false,"is_disabled":false,"rental_uris":{"android":"levelo://app?vid=800ef758-bf60-49c8-b73e-c8477fb6ff28","ios":"levelo://app?vid=800ef758-bf60-49c8-b73e-c8477fb6ff28"},"vehicle_type_id":"4","last_reported":1729171072,"current_range_meters":37600,"station_id":"ce4bhgh2rcd13ifvqfb0","pricing_plan_id":"cebpf4jnsgd1na2vs0mg"},{"bike_id":"622729dd-e179-406e-bdd1-762a9b1a7b6f","system_id":"levelo_inurba_marseille","lat":43.28266,"lon":5.35059,"is_reserved":false,"is_disabled":false,"rental_uris":{"android":"levelo://app?vid=622729dd-e179-406e-bdd1-762a9b1a7b6f","ios":"levelo://app?vid=622729dd-e179-406e-bdd1-762a9b1a7b6f"},"vehicle_type_id":"4","last_reported":1729171072,"current_range_meters":28000,"station_id":"ce4bhbp2rcd13ifvqerg","pricing_plan_id":"cebpf4jnsgd1na2vs0mg"},{"bike_id":"4176bfed-bc20-46a1-a074-8074b301138d","system_id":"levelo_inurba_marseille","lat":43.32485,"lon":5.36561,"is_reserved":false,"is_disabled":false,"rental_uris":{"android":"levelo://app?vid=4176bfed-bc20-46a1-a074-8074b301138d","ios":"levelo://app?vid=4176bfed-bc20-46a1-a074-8074b301138d"},"vehicle_type_id":"4","last_reported":1729171072,"current_range_meters":38000,"station_id":"ce4bhs12rcd13ifvqhvg","pricing_plan_id":"cebpf4jnsgd1na2vs0mg"},{"bike_id":"e5443f6e-cf86-41b8-b509-b4b3b9d31612","system_id":"levelo_inurba_marseille","lat":43.31354,"lon":5.36722,"is_reserved":false,"is_disabled":false,"rental_uris":{"android":"levelo://app?vid=e5443f6e-cf86-41b8-b509-b4b3b9d31612","ios":"levelo://app?vid=e5443f6e-cf86-41b8-b509-b4b3b9d31612"},"vehicle_type_id":"4","last_reported":1729171072,"current_range_meters":38400,"station_id":"ce4bgr92rcd13ifvqc6g","pricing_plan_id":"cebpf4jnsgd1na2vs0mg"},