{"last_updated":1777561117,"ttl":60,"version":"2.2","data":{"bikes":[{"bike_id":"c3dd03d9-10e6-4514-8352-f783fd3b130e","system_id":"levelo_inurba_marseille","lat":43.27828,"lon":5.40691,"is_reserved":false,"is_disabled":false,"rental_uris":{"android":"levelo://app?vid=c3dd03d9-10e6-4514-8352-f783fd3b130e","ios":"levelo://app?vid=c3dd03d9-10e6-4514-8352-f783fd3b130e"},"vehicle_type_id":"4","last_reported":1777561118,"current_range_meters":2800,"station_id":"ce4bhnh2rcd13ifvqgtg","pricing_plan_id":"cebpf4jnsgd1na2vs0mg"},{"bike_id":"53d6fcee-a36c-438d-8323-8bfe4399c65c","system_id":"levelo_inurba_marseille","lat":43.27319,"lon":5.39053,"is_reserved":false,"is_disabled":false,"rental_uris":{"android":"levelo://app?vid=53d6fcee-a36c-438d-8323-8bfe4399c65c","ios":"levelo://app?vid=53d6fcee-a36c-438d-8323-8bfe4399c65c"},"vehicle_type_id":"4","last_reported":1777561118,"current_range_meters":2800,"station_id":"ce4bhgp2rcd13ifvqfe0","pricing_plan_id":"cebpf4jnsgd1na2vs0mg"},{"bike_id":"af3ac470-7cbc-42ca-9669-0fb5156b2b5b","system_id":"levelo_inurba_marseille","lat":43.27813,"lon":5.407184,"is_reserved":false,"is_disabled":false,"rental_uris":{"android":"levelo://app?vid=af3ac470-7cbc-42ca-9669-0fb5156b2b5b","ios":"levelo://app?vid=af3ac470-7cbc-42ca-9669-0fb5156b2b5b"},"vehicle_type_id":"4","last_reported":1777561118,"current_range_meters":2800,"station_id":"ce4bhnh2rcd13ifvqgtg","pricing_plan_id":"cebpf4jnsgd1na2vs0mg"},{"bike_id":"ba6f82cb-264c-4b92-af6e-b9963e732c14","system_id":"levelo_inurba_marseille","lat":43.26502,"lon":5.39561,"is_reserved":false,"is_disabled":false,"rental_uris":{"android":"levelo://app?vid=ba6f82cb-264c-4b92-af6e-b9963e732c14","ios":"levelo://app?vid=ba6f82cb-264c-4b92-af6e-b9963e732c14"},"vehicle_type_id":"4","last_reported":1777561118,"current_range_meters":2800,"station_id":"ce4bhi12rcd13ifvqfq0","pricing_plan_id":"cebpf4jnsgd1na2vs0mg"},{"bike_id":"17cf5ad6-3215-4454-970d-7b832f13b956","system_id":"levelo_inurba_marseille","lat":43.31061,"lon":5.36833,"is_reserved":false,"is_disabled":false,"rental_uris":{"android":"levelo://app?vid=17cf5ad6-3215-4454-970d-7b832f13b956","ios":"levelo://app?vid=17cf5ad6-3215-4454-970d-7b832f13b956"},"vehicle_type_id":"4","last_reported":1777561118,"current_range_meters":2800,"station_id":"","pricing_plan_id":"cebpf4jnsgd1na2vs0mg"},{"bike_id":"3d80f3c6-f394-4b9a-9d5a-186cb23f83aa","system_id":"levelo_inurba_marseille","lat":43.241723,"lon":5.397333,"is_reserved":false,"is_disabled":true,"rental_uris":{"android":"levelo://app?vid=3d80f3c6-f394-4b9a-9d5a-186cb23f83aa","ios":"levelo://app?vid=3d80f3c6-f394-4b9a-9d5a-186cb23f83aa"},"vehicle_type_id":"4","last_reported":1777561118,"current_range_meters":2800,"station_id":"ce4bhn12rcd13ifvqgqg","pricing_plan_id":"cebpf4jnsgd1na2vs0mg"},{"bike_id":"0b31fa18-b533-4e0d-9e08-e87496658245","system_id":"levelo_inurba_marseille","lat":43.31087,"lon":5.42431,"is_reserved":false,"is_disabled":false,"rental_uris":{"android":"levelo://app?vid=0b31fa18-b533-4e0d-9e08-e87496658245","ios":"levelo://app?vid=0b31fa18-b533-4e0d-9e08-e87496658245"},"vehicle_type_id":"4","last_reported":1777561118,"current_range_meters":3200,"station_id":"ce4bhp92rcd13ifvqhag","pricing_plan_id":"cebpf4jnsgd1na2vs0mg"},{"bike_id":"2c514eca-0c7c-4c54-8544-da1a555049b6","system_id":"levelo_inurba_marseille","lat":43.26523,"lon":5.36952,"is_reserved":false,"is_disabled":false,"rental_uris":{"android":"levelo://app?vid=2c514eca-0c7c-4c54-8544-da1a555049b6","ios":"levelo://app?vid=2c514eca-0c7c-4c54-8544-da1a555049b6"},"vehicle_type_id":"4","last_reported":1777561118,"current_range_meters":3200,"station_id":"","pricing_plan_id":"cebpf4jnsgd1na2vs0mg"},{"bike_id":"4d608b6a-75fe-47dc-949f-fbdbf43334bc","system_id":"levelo_inurba_marseille","lat":43.28956,"lon":5.39639,"is_reserved":false,"is_disabled":false,"rental_uris":{"android":"levelo://app?vid=4d608b6a-75fe-47dc-949f-fbdbf43334bc","ios":"levelo://app?vid=4d608b6a-75fe-47dc-949f-fbdbf43334bc"},"vehicle_type_id":"4","last_reported":1777561118,"current_range_meters":3200,"station_id":"ce4bh3h2rcd13ifvqdn0","pricing_plan_id":"cebpf4jnsgd1na2vs0mg"},{"bike_id":"cd735691-a8cf-469c-b880-28ec2dcf0dc2","system_id":"levelo_inurba_marseille","lat":43.33564,"lon":5.37501,"is_reserved":false,"is_disabled":false,"rental_uris":{"android":"levelo://app?vid=cd735691-a8cf-469c-b880-28ec2dcf0dc2","ios":"levelo://app?vid=cd735691-a8cf-469c-b880-28ec2dcf0dc2"},"vehicle_type_id":"4","last_reported":1777561118,"current_range_meters":3200,"station_id":"st_d46tts09ee8s73dlu43g","pricing_plan_id":"cebpf4jnsgd1na2vs0mg"},{"bike_id":"534b86ee-1949-4f7d-9331-c13616e47f8c","system_id":"levelo_inurba_marseille","lat":43.274965,"lon":5.424475,"is_reserved":false,"is_disabled":false,"rental_uris":{"android":"levelo://app?vid=534b86ee-1949-4f7d-9331-c13616e47f8c","ios":"levelo://app?vid=534b86ee-1949-4f7d-9331-c13616e47f8c"},"vehicle_type_id":"4","last_reported":1777561118,"current_range_meters":3200,"station_id":"ce4bhn92rcd13ifvqgrg","pricing_plan_id":"cebpf4jnsgd1na2vs0mg"},{"bike_id":"fbcee3b0-210c-4471-a2e2-e616ef170e4a","system_id":"levelo_inurba_marseille","lat":43.25583,"lon":5.38234,"is_reserved":false,"is_disabled":false,"rental_uris":{"android":"levelo://app?vid=fbcee3b0-210c-4471-a2e2-e616ef170e4a","ios":"levelo://app?vid=fbcee3b0-210c-4471-a2e2-e616ef170e4a"},"vehicle_type_id":"4","last_reported":1777561118,"current_range_meters":3200,"station_id":"ce4bhih2rcd13ifvqfs0","pricing_plan_id":"cebpf4jnsgd1na2vs0mg"},{"bike_id":"0397d355-e57e-46e7-97e4-52cb4f07ef47","system_id":"levelo_inurba_marseille","lat":43.29858,"lon":5.36291,"is_reserved":false,"is_disabled":true,"rental_uris":{"android":"levelo://app?vid=0397d355-e57e-46e7-97e4-52cb4f07ef47","ios":"levelo://app?vid=0397d355-e57e-46e7-97e4-52cb4f07ef47"},"vehicle_type_id":"4","last_reported":1777561118,"current_range_meters":3200,"station_id":"ce4bgpp2rcd13ifvqc3g","pricing_plan_id":"cebpf4jnsgd1na2vs0mg"},{"bike_id":"ced2ab09-5269-40aa-b146-1018bea7bd5f","system_id":"levelo_inurba_marseille","lat":43.29281,"lon":5.40139,"is_reserved":false,"is_disabled":false,"rental_uris":{"android":"levelo://app?vid=ced2ab09-5269-40aa-b146-1018bea7bd5f","ios":"levelo://app?vid=ced2ab09-5269-40aa-b146-1018bea7bd5f"},"vehicle_type_id":"4","last_reported":1777561118,"current_range_meters":3200,"station_id":"ce4bh312rcd13ifvqdk0","pricing_plan_id":"cebpf4jnsgd1na2vs0mg"},{"bike_id":"b2ccc937-9aa1-4bc4-9433-4dba96ec1ac5","system_id":"levelo_inurba_marseille","lat":43.32041,"lon":5.41568,"is_reserved":false,"is_disabled":false,"rental_uris":{"android":"levelo://app?vid=b2ccc937-9aa1-4bc4-9433-4dba96ec1ac5","ios":"levelo://app?vid=b2ccc937-9aa1-4bc4-9433-4dba96ec1ac5"},"vehicle_type_id":"4","last_reported":1777561118,"current_range_meters":3200,"station_id":"ce4bhq92rcd13ifvqhkg","pricing_plan_id":"cebpf4jnsgd1na2vs0mg"},{"bike_id":"651bc087-f0e1-4ae2-9148-2a135f8392a1","system_id":"levelo_inurba_marseille","lat":43.28681,"lon":5.38664,"is_reserved":false,"is_disabled":false,"rental_uris":{"android":"levelo://app?vid=651bc087-f0e1-4ae2-9148-2a135f8392a1","ios":"levelo://app?vid=651bc087-f0e1-4ae2-9148-2a135f8392a1"},"vehicle_type_id":"4","last_reported":1777561118,"current_range_meters":3600,"station_id":"ce4bh492rcd13ifvqdug","pricing_plan_id":"cebpf4jnsgd1na2vs0mg"},{"bike_id":"d1b0cfb9-74d2-4ee1-ab25-6099cdfdd0f2","system_id":"levelo_inurba_marseille","lat":43.28373,"lon":5.40108,"is_reserved":false,"is_disabled":false,"rental_uris":{"android":"levelo://app?vid=d1b0cfb9-74d2-4ee1-ab25-6099cdfdd0f2","ios":"levelo://app?vid=d1b0cfb9-74d2-4ee1-ab25-6099cdfdd0f2"},"vehicle_type_id":"4","last_reported":1777561118,"current_range_meters":3600,"station_id":"","pricing_plan_id":"cebpf4jnsgd1na2vs0mg"},{"bike_id":"930a3e56-ef44-4de8-9dc9-05c4ad58adf0","system_id":"levelo_inurba_marseille","lat":43.26214,"lon":5.38791,"is_reserved":false,"is_disabled":false,"rental_uris":{"android":"levelo://app?vid=930a3e56-ef44-4de8-9dc9-05c4ad58adf0","ios":"levelo://app?vid=930a3e56-ef44-4de8-9dc9-05c4ad58adf0"},"vehicle_type_id":"4","last_reported":1777561118,"current_range_meters":3600,"station_id":"","pricing_plan_id":"cebpf4jnsgd1na2vs0mg"},{"bike_id":"f46294cf-2810-4775-aa32-375ac5b6b513","system_id":"levelo_inurba_marseille","lat":43.32481,"lon":5.36565,"is_reserved":false,"is_disabled":false,"rental_uris":{"android":"levelo://app?vid=f46294cf-2810-4775-aa32-375ac5b6b513","ios":"levelo://app?vid=f46294cf-2810-4775-aa32-375ac5b6b513"},"vehicle_type_id":"4","last_reported":1777561118,"current_range_meters":3600,"station_id":"ce4bhs12rcd13ifvqhvg","pricing_plan_id":"cebpf4jnsgd1na2vs0mg"},{"bike_id":"b5592bc3-7c5d-4ba9-b1ae-b173928aef8c","system_id":"levelo_inurba_marseille","lat":43.28483,"lon":5.48389,"is_reserved":false,"is_disabled":false,"rental_uris":{"android":"levelo://app?vid=b5592bc3-7c5d-4ba9-b1ae-b173928aef8c","ios":"levelo://app?vid=b5592bc3-7c5d-4ba9-b1ae-b173928aef8c"},"vehicle_type_id":"4","last_reported":1777561118,"current_range_meters":4000,"station_id":"","pricing_plan_id":"cebpf4jnsgd1na2vs0mg"},{"bike_id":"d8de0a64-e3bb-4f89-8f07-313cae5af722","system_id":"levelo_inurba_marseille","lat":43.22565,"lon":5.41642,"is_reserved":false,"is_disabled":false,"rental_uris":{"android":"levelo://app?vid=d8de0a64-e3bb-4f89-8f07-313cae5af722","ios":"levelo://app?vid=d8de0a64-e3bb-4f89-8f07-313cae5af722"},"vehicle_type_id":"4","last_reported":1777561118,"current_range_meters":4000,"station_id":"st_d2o4gvlbi1j2169b742g","pricing_plan_id":"cebpf4jnsgd1na2vs0mg"},{"bike_id":"0438d68d-b4c6-4b23-a7e1-82657231ebe9","system_id":"levelo_inurba_marseille","lat":43.28481,"lon":5.48415,"is_reserved":false,"is_disabled":false,"rental_uris":{"android":"levelo://app?vid=0438d68d-b4c6-4b23-a7e1-82657231ebe9","ios":"levelo://app?vid=0438d68d-b4c6-4b23-a7e1-82657231ebe9"},"vehicle_type_id":"4","last_reported":1777561118,"current_range_meters":4000,"station_id":"","pricing_plan_id":"cebpf4jnsgd1na2vs0mg"},{"bike_id":"fc5f424f-d395-4e45-876c-75f6acd942c2","system_id":"levelo_inurba_marseille","lat":43.24818,"lon":5.37463,"is_reserved":false,"is_disabled":false,"rental_uris":{"android":"levelo://app?vid=fc5f424f-d395-4e45-876c-75f6acd942c2","ios":"levelo://app?vid=fc5f424f-d395-4e45-876c-75f6acd942c2"},"vehicle_type_id":"4","last_reported":1777561118,"current_range_meters":4000,"station_id":"ce4bhgh2rcd13ifvqfb0","pricing_plan_id":"cebpf4jnsgd1na2vs0mg"},{"bike_id":"a496669f-42ea-4ec8-b909-b71bb128370f","system_id":"levelo_inurba_marseille","lat":43.33562,"lon":5.37502,"is_reserved":false,"is_disabled":false,"rental_uris":{"android":"levelo://app?vid=a496669f-42ea-4ec8-b909-b71bb128370f","ios":"levelo://app?vid=a496669f-42ea-4ec8-b909-b71bb128370f"},"vehicle_type_id":"4","last_reported":1777561118,"current_range_meters":4000,"station_id":"st_d46tts09ee8s73dlu43g","pricing_plan_id":"cebpf4jnsgd1na2vs0mg"},{"bike_id":"a286749a-1a8f-42f0-ac39-6244b22ccbb9","system_id":"levelo_inurba_marseille","lat":43.29879,"lon":5.39742,"is_reserved":false,"is_disabled":false,"rental_uris":{"android":"levelo://app?vid=a286749a-1a8f-42f0-ac39-6244b22ccbb9","ios":"levelo://app?vid=a286749a-1a8f-42f0-ac39-6244b22ccbb9"},"vehicle_type_id":"4","last_reported":1777561118,"current_range_meters":4000,"station_id":"ce4bh0h2rcd13ifvqd50","pricing_plan_id":"cebpf4jnsgd1na2vs0mg"},{"bike_id":"f126df62-0e32-4422-ad2d-794326ca816d","system_id":"levelo_inurba_marseille","lat":43.27679,"lon":5.38913,"is_reserved":false,"is_disabled":true,"rental_uris":{"android":"levelo://app?vid=f126df62-0e32-4422-ad2d-794326ca816d","ios":"levelo://app?vid=f126df62-0e32-4422-ad2d-794326ca816d"},"vehicle_type_id":"4","last_reported":1777561118,"current_range_meters":4000,"station_id":"ce4bhi12rcd13ifvqfo0","pricing_plan_id":"cebpf4jnsgd1na2vs0mg"},{"bike_id":"b91f4f99-7987-40ea-afbb-1e1af65ec675","system_id":"levelo_inurba_marseille","lat":43.29439,"lon":5.40919,"is_reserved":false,"is_disabled":false,"rental_uris":{"android":"levelo://app?vid=b91f4f99-7987-40ea-afbb-1e1af65ec675","ios":"levelo://app?vid=b91f4f99-7987-40ea-afbb-1e1af65ec675"},"vehicle_type_id":"4","last_reported":1777561118,"current_range_meters":4000,"station_id":"","pricing_plan_id":"cebpf4jnsgd1na2vs0mg"},{"bike_id":"7e759e4a-e1b3-4094-849b-97d303a35c04","system_id":"levelo_inurba_marseille","lat":43.26558,"lon":5.39016,"is_reserved":false,"is_disabled":false,"rental_uris":{"android":"levelo://app?vid=7e759e4a-e1b3-4094-849b-97d303a35c04","ios":"levelo://app?vid=7e759e4a-e1b3-4094-849b-97d303a35c04"},"vehicle_type_id":"4","last_reported":1777561118,"current_range_meters":4000,"station_id":"ce4bhe12rcd13ifvqf30","pricing_plan_id":"cebpf4jnsgd1na2vs0mg"},{"bike_id":"f11cc162-ef2e-4215-b4e4-73a8f48a43ce","system_id":"levelo_inurba_marseille","lat":43.31899,"lon":5.36821,"is_reserved":false,"is_disabled":false,"rental_uris":{"android":"levelo://app?vid=f11cc162-ef2e-4215-b4e4-73a8f48a43ce","ios":"levelo://app?vid=f11cc162-ef2e-4215-b4e4-73a8f48a43ce"},"vehicle_type_id":"4","last_reported":1777561118,"current_range_meters":4000,"station_id":"st_d6o2h0d0559c73evc1b0","pricing_plan_id":"cebpf4jnsgd1na2vs0mg"},{"bike_id":"dde9cb7a-d2cd-49d4-9390-db18f4c0f172","system_id":"levelo_inurba_marseille","lat":43.337444,"lon":5.374475,"is_reserved":false,"is_disabled":false,"rental_uris":{"android":"levelo://app?vid=dde9cb7a-d2cd-49d4-9390-db18f4c0f172","ios":"levelo://app?vid=dde9cb7a-d2cd-49d4-9390-db18f4c0f172"},"vehicle_type_id":"4","last_reported":1777561118,"current_range_meters":4400,"station_id":"ce4bgj12rcd13ifvqbc0","pricing_plan_id":"cebpf4jnsgd1na2vs0mg"},{"bike_id":"d5bcac02-570c-4360-8cb4-e43dd96e6021","system_id":"levelo_inurba_marseille","lat":43.303,"lon":5.39206,"is_reserved":false,"is_disabled":false,"rental_uris":{"android":"levelo://app?vid=d5bcac02-570c-4360-8cb4-e43dd96e6021","ios":"levelo://app?vid=d5bcac02-570c-4360-8cb4-e43dd96e6021"},"vehicle_type_id":"4","last_reported":1777561118,"current_range_meters":4400,"station_id":"ce4bgkh2rcd13ifvqbk0","pricing_plan_id":"cebpf4jnsgd1na2vs0mg"},{"bike_id":"e8c45a74-740f-4fc5-b008-5dd3be21b931","system_id":"levelo_inurba_marseille","lat":43.31166,"lon":5.3807,"is_reserved":false,"is_disabled":false,"rental_uris":{"android":"levelo://app?vid=e8c45a74-740f-4fc5-b008-5dd3be21b931","ios":"levelo://app?vid=e8c45a74-740f-4fc5-b008-5dd3be21b931"},"vehicle_type_id":"4","last_reported":1777561118,"current_range_meters":4400,"station_id":"","pricing_plan_id":"cebpf4jnsgd1na2vs0mg"},{"bike_id":"acc57406-75de-43a2-a6ec-d941193f0be0","system_id":"levelo_inurba_marseille","lat":43.32356,"lon":5.36754,"is_reserved":false,"is_disabled":false,"rental_uris":{"android":"levelo://app?vid=acc57406-75de-43a2-a6ec-d941193f0be0","ios":"levelo://app?vid=acc57406-75de-43a2-a6ec-d941193f0be0"},"vehicle_type_id":"4","last_reported":1777561118,"current_range_meters":4400,"station_id":"ce4bhsh2rcd13ifvqi2g","pricing_plan_id":"cebpf4jnsgd1na2vs0mg"},{"bike_id":"b0fc715f-4a35-4272-9e2a-b10f7b105dc9","system_id":"levelo_inurba_marseille","lat":43.2934,"lon":5.44548,"is_reserved":false,"is_disabled":false,"rental_uris":{"android":"levelo://app?vid=b0fc715f-4a35-4272-9e2a-b10f7b105dc9","ios":"levelo://app?vid=b0fc715f-4a35-4272-9e2a-b10f7b105dc9"},"vehicle_type_id":"4","last_reported":1777561118,"current_range_meters":4400,"station_id":"","pricing_plan_id":"cebpf4jnsgd1na2vs0mg"},{"bike_id":"d5ec2fdd-ac7a-4823-9a74-33d66ee1f477","system_id":"levelo_inurba_marseille","lat":43.30557,"lon":5.36554,"is_reserved":false,"is_disabled":false,"rental_uris":{"android":"levelo://app?vid=d5ec2fdd-ac7a-4823-9a74-33d66ee1f477","ios":"levelo://app?vid=d5ec2fdd-ac7a-4823-9a74-33d66ee1f477"},"vehicle_type_id":"4","last_reported":1777561118,"current_range_meters":4400,"station_id":"ce4bgs12rcd13ifvqcag","pricing_plan_id":"cebpf4jnsgd1na2vs0mg"},{"bike_id":"4b04508f-dd7d-40f4-aa04-e897b83a481b","system_id":"levelo_inurba_marseille","lat":43.30215,"lon":5.36608,"is_reserved":false,"is_disabled":true,"rental_uris":{"android":"levelo://app?vid=4b04508f-dd7d-40f4-aa04-e897b83a481b","ios":"levelo://app?vid=4b04508f-dd7d-40f4-aa04-e897b83a481b"},"vehicle_type_id":"4","last_reported":1777561118,"current_range_meters":4400,"station_id":"ce4bgrh2rcd13ifvqc8g","pricing_plan_id":"cebpf4jnsgd1na2vs0mg"},{"bike_id":"4d3b0fb9-4fcc-46d7-8f90-81b232f0c7b3","system_id":"levelo_inurba_marseille","lat":43.30133,"lon":5.43097,"is_reserved":false,"is_disabled":false,"rental_uris":{"android":"levelo://app?vid=4d3b0fb9-4fcc-46d7-8f90-81b232f0c7b3","ios":"levelo://app?vid=4d3b0fb9-4fcc-46d7-8f90-81b232f0c7b3"},"vehicle_type_id":"4","last_reported":1777561118,"current_range_meters":4400,"station_id":"st_d3js3co5814s73ftftug","pricing_plan_id":"cebpf4jnsgd1na2vs0mg"},{"bike_id":"18a99860-0a60-48c6-b036-c1fb0ede6b3f","system_id":"levelo_inurba_marseille","lat":43.31366,"lon":5.38488,"is_reserved":false,"is_disabled":false,"rental_uris":{"android":"levelo://app?vid=18a99860-0a60-48c6-b036-c1fb0ede6b3f","ios":"levelo://app?vid=18a99860-0a60-48c6-b036-c1fb0ede6b3f"},"vehicle_type_id":"4","last_reported":1777561118,"current_range_meters":4400,"station_id":"ce4bgt92rcd13ifvqcf0","pricing_plan_id":"cebpf4jnsgd1na2vs0mg"},{"bike_id":"8829f460-aa5f-4233-9846-cd6731fc4acd","system_id":"levelo_inurba_marseille","lat":43.26983,"lon":5.40434,"is_reserved":false,"is_disabled":false,"rental_uris":{"android":"levelo://app?vid=8829f460-aa5f-4233-9846-cd6731fc4acd","ios":"levelo://app?vid=8829f460-aa5f-4233-9846-cd6731fc4acd"},"vehicle_type_id":"4","last_reported":1777561118,"current_range_meters":4800,"station_id":"","pricing_plan_id":"cebpf4jnsgd1na2vs0mg"},{"bike_id":"55dee2cc-1680-41d6-a156-117d3ed7ce2d","system_id":"levelo_inurba_marseille","lat":43.3133,"lon":5.39695,"is_reserved":false,"is_disabled":false,"rental_uris":{"android":"levelo://app?vid=55dee2cc-1680-41d6-a156-117d3ed7ce2d","ios":"levelo://app?vid=55dee2cc-1680-41d6-a156-117d3ed7ce2d"},"vehicle_type_id":"4","last_reported":1777561118,"current_range_meters":4800,"station_id":"ce4bgvp2rcd13ifvqcu0","pricing_plan_id":"cebpf4jnsgd1na2vs0mg"},{"bike_id":"bcc43550-16ad-4fd8-ba52-0354d34eaedf","system_id":"levelo_inurba_marseille","lat":43.29533,"lon":5.38546,"is_reserved":false,"is_disabled":false,"rental_uris":{"android":"levelo://app?vid=bcc43550-16ad-4fd8-ba52-0354d34eaedf","ios":"levelo://app?vid=bcc43550-16ad-4fd8-ba52-0354d34eaedf"},"vehicle_type_id":"4","last_reported":1777561118,"current_range_meters":4800,"station_id":"ce4bgih2rcd13ifvqba0","pricing_plan_id":"cebpf4jnsgd1na2vs0mg"},{"bike_id":"57ad44d7-3784-4ec4-88d6-1a95741d93a6","system_id":"levelo_inurba_marseille","lat":43.2759,"lon":5.39068,"is_reserved":false,"is_disabled":false,"rental_uris":{"android":"levelo://app?vid=57ad44d7-3784-4ec4-88d6-1a95741d93a6","ios":"levelo://app?vid=57ad44d7-3784-4ec4-88d6-1a95741d93a6"},"vehicle_type_id":"4","last_reported":1777561118,"current_range_meters":4800,"station_id":"","pricing_plan_id":"cebpf4jnsgd1na2vs0mg"},{"bike_id":"75b547ca-6d58-41b8-a9ae-72b2d1a49b26","system_id":"levelo_inurba_marseille","lat":43.292662,"lon":5.384417,"is_reserved":false,"is_disabled":false,"rental_uris":{"android":"levelo://app?vid=75b547ca-6d58-41b8-a9ae-72b2d1a49b26","ios":"levelo://app?vid=75b547ca-6d58-41b8-a9ae-72b2d1a49b26"},"vehicle_type_id":"4","last_reported":1777561118,"current_range_meters":4800,"station_id":"ce4bh692rcd13ifvqea0","pricing_plan_id":"cebpf4jnsgd1na2vs0mg"},{"bike_id":"cc1e803b-034a-4c47-8740-655b6f431e8d","system_id":"levelo_inurba_marseille","lat":43.27325,"lon":5.39084,"is_reserved":false,"is_disabled":false,"rental_uris":{"android":"levelo://app?vid=cc1e803b-034a-4c47-8740-655b6f431e8d","ios":"levelo://app?vid=cc1e803b-034a-4c47-8740-655b6f431e8d"},"vehicle_type_id":"4","last_reported":1777561118,"current_range_meters":4800,"station_id":"ce4bhgp2rcd13ifvqfe0","pricing_plan_id":"cebpf4jnsgd1na2vs0mg"},{"bike_id":"016377f6-f2b4-4063-8088-a9dc4b0f9279","system_id":"levelo_inurba_marseille","lat":43.2953,"lon":5.39427,"is_reserved":false,"is_disabled":false,"rental_uris":{"android":"levelo://app?vid=016377f6-f2b4-4063-8088-a9dc4b0f9279","ios":"levelo://app?vid=016377f6-f2b4-4063-8088-a9dc4b0f9279"},"vehicle_type_id":"4","last_reported":1777561118,"current_range_meters":4800,"station_id":"ce4bh292rcd13ifvqdf0","pricing_plan_id":"cebpf4jnsgd1na2vs0mg"},{"bike_id":"51da3078-3e80-430d-ab1e-671c9d8aa993","system_id":"levelo_inurba_marseille","lat":43.2973,"lon":5.37716,"is_reserved":false,"is_disabled":false,"rental_uris":{"android":"levelo://app?vid=51da3078-3e80-430d-ab1e-671c9d8aa993","ios":"levelo://app?vid=51da3078-3e80-430d-ab1e-671c9d8aa993"},"vehicle_type_id":"4","last_reported":1777561118,"current_range_meters":4800,"station_id":"ce4bgkh2rcd13ifvqbl0","pricing_plan_id":"cebpf4jnsgd1na2vs0mg"},{"bike_id":"4c4fd5bf-edd1-4e64-bbba-8e4e3d30b47b","system_id":"levelo_inurba_marseille","lat":43.2888,"lon":5.43087,"is_reserved":false,"is_disabled":false,"rental_uris":{"android":"levelo://app?vid=4c4fd5bf-edd1-4e64-bbba-8e4e3d30b47b","ios":"levelo://app?vid=4c4fd5bf-edd1-4e64-bbba-8e4e3d30b47b"},"vehicle_type_id":"4","last_reported":1777561118,"current_range_meters":4800,"station_id":"","pricing_plan_id":"cebpf4jnsgd1na2vs0mg"},{"bike_id":"5bb0905a-34b6-4de4-9ece-073d64bb49da","system_id":"levelo_inurba_marseille","lat":43.301245,"lon":5.39866,"is_reserved":false,"is_disabled":false,"rental_uris":{"android":"levelo://app?vid=5bb0905a-34b6-4de4-9ece-073d64bb49da","ios":"levelo://app?vid=5bb0905a-34b6-4de4-9ece-073d64bb49da"},"vehicle_type_id":"4","last_reported":1777561118,"current_range_meters":4800,"station_id":"ce4bh0h2rcd13ifvqd40","pricing_plan_id":"cebpf4jnsgd1na2vs0mg"},{"bike_id":"0e7c9dd4-7f04-4535-826c-51623fa2c990","system_id":"levelo_inurba_marseille","lat":43.28411,"lon":5.3499,"is_reserved":false,"is_disabled":false,"rental_uris":{"android":"levelo://app?vid=0e7c9dd4-7f04-4535-826c-51623fa2c990","ios":"levelo://app?vid=0e7c9dd4-7f04-4535-826c-51623fa2c990"},"vehicle_type_id":"4","last_reported":1777561118,"current_range_meters":4800,"station_id":"ce4bhbh2rcd13ifvqepg","pricing_plan_id":"cebpf4jnsgd1na2vs0mg"},{"bike_id":"60d77da4-6419-429b-9e7a-b2cf161a2f69","system_id":"levelo_inurba_marseille","lat":43.32642,"lon":5.39497,"is_reserved":false,"is_disabled":false,"rental_uris":{"android":"levelo://app?vid=60d77da4-6419-429b-9e7a-b2cf161a2f69","ios":"levelo://app?vid=60d77da4-6419-429b-9e7a-b2cf161a2f69"},"vehicle_type_id":"4","last_reported":1777561118,"current_range_meters":4800,"station_id":"","pricing_plan_id":"cebpf4jnsgd1na2vs0mg"},{"bike_id":"7a4f9c5b-0770-4973-b065-ff441b4f0ec4","system_id":"levelo_inurba_marseille","lat":43.28865,"lon":5.42526,"is_reserved":false,"is_disabled":false,"rental_uris":{"android":"levelo://app?vid=7a4f9c5b-0770-4973-b065-ff441b4f0ec4","ios":"levelo://app?vid=7a4f9c5b-0770-4973-b065-ff441b4f0ec4"},"vehicle_type_id":"4","last_reported":1777561118,"current_range_meters":5600,"station_id":"st_d3b462108ojc7389ooeg","pricing_plan_id":"cebpf4jnsgd1na2vs0mg"},{"bike_id":"262fc285-b6eb-4eda-9ac1-639b6caaacc5","system_id":"levelo_inurba_marseille","lat":43.32363,"lon":5.36739,"is_reserved":false,"is_disabled":false,"rental_uris":{"android":"levelo://app?vid=262fc285-b6eb-4eda-9ac1-639b6caaacc5","ios":"levelo://app?vid=262fc285-b6eb-4eda-9ac1-639b6caaacc5"},"vehicle_type_id":"4","last_reported":1777561118,"current_range_meters":5600,"station_id":"ce4bhsh2rcd13ifvqi2g","pricing_plan_id":"cebpf4jnsgd1na2vs0mg"},{"bike_id":"d97ed6ed-9254-4b2c-9752-a3aaf3378900","system_id":"levelo_inurba_marseille","lat":43.33554,"lon":5.3747,"is_reserved":false,"is_disabled":false,"rental_uris":{"android":"levelo://app?vid=d97ed6ed-9254-4b2c-9752-a3aaf3378900","ios":"levelo://app?vid=d97ed6ed-9254-4b2c-9752-a3aaf3378900"},"vehicle_type_id":"4","last_reported":1777561118,"current_range_meters":5600,"station_id":"st_d46tts09ee8s73dlu43g","pricing_plan_id":"cebpf4jnsgd1na2vs0mg"},{"bike_id":"97b35f5d-565a-44eb-9d8e-c00eafaf716a","system_id":"levelo_inurba_marseille","lat":43.301856,"lon":5.366312,"is_reserved":false,"is_disabled":false,"rental_uris":{"android":"levelo://app?vid=97b35f5d-565a-44eb-9d8e-c00eafaf716a","ios":"levelo://app?vid=97b35f5d-565a-44eb-9d8e-c00eafaf716a"},"vehicle_type_id":"4","last_reported":1777561118,"current_range_meters":5600,"station_id":"ce4bgrh2rcd13ifvqc8g","pricing_plan_id":"cebpf4jnsgd1na2vs0mg"},{"bike_id":"8b10ce4e-94a1-493f-970e-8ffc96babf75","system_id":"levelo_inurba_marseille","lat":43.31235,"lon":5.36859,"is_reserved":false,"is_disabled":false,"rental_uris":{"android":"levelo://app?vid=8b10ce4e-94a1-493f-970e-8ffc96babf75","ios":"levelo://app?vid=8b10ce4e-94a1-493f-970e-8ffc96babf75"},"vehicle_type_id":"4","last_reported":1777561118,"current_range_meters":5600,"station_id":"ce4bgl92rcd13ifvqbq0","pricing_plan_id":"cebpf4jnsgd1na2vs0mg"},{"bike_id":"c1995dfc-3d7a-44a7-990d-b8343c1a3752","system_id":"levelo_inurba_marseille","lat":43.27381,"lon":5.36257,"is_reserved":false,"is_disabled":false,"rental_uris":{"android":"levelo://app?vid=c1995dfc-3d7a-44a7-990d-b8343c1a3752","ios":"levelo://app?vid=c1995dfc-3d7a-44a7-990d-b8343c1a3752"},"vehicle_type_id":"4","last_reported":1777561118,"current_range_meters":5600,"station_id":"ce4bhbh2rcd13ifvqeo0","pricing_plan_id":"cebpf4jnsgd1na2vs0mg"},{"bike_id":"26335112-9b2a-4a27-9ec1-b93b9cc755ad","system_id":"levelo_inurba_marseille","lat":43.30849,"lon":5.4188,"is_reserved":false,"is_disabled":false,"rental_uris":{"android":"levelo://app?vid=26335112-9b2a-4a27-9ec1-b93b9cc755ad","ios":"levelo://app?vid=26335112-9b2a-4a27-9ec1-b93b9cc755ad"},"vehicle_type_id":"4","last_reported":1777561118,"current_range_meters":5600,"station_id":"","pricing_plan_id":"cebpf4jnsgd1na2vs0mg"},{"bike_id":"821adca6-ac71-4cac-8138-2c6a08b68fad","system_id":"levelo_inurba_marseille","lat":43.31252,"lon":5.36832,"is_reserved":false,"is_disabled":false,"rental_uris":{"android":"levelo://app?vid=821adca6-ac71-4cac-8138-2c6a08b68fad","ios":"levelo://app?vid=821adca6-ac71-4cac-8138-2c6a08b68fad"},"vehicle_type_id":"4","last_reported":1777561118,"current_range_meters":5600,"station_id":"ce4bgl92rcd13ifvqbq0","pricing_plan_id":"cebpf4jnsgd1na2vs0mg"},{"bike_id":"7be1f41f-3af6-4ad6-aa2c-ec8e06a68ee4","system_id":"levelo_inurba_marseille","lat":43.2952,"lon":5.39404,"is_reserved":false,"is_disabled":false,"rental_uris":{"android":"levelo://app?vid=7be1f41f-3af6-4ad6-aa2c-ec8e06a68ee4","ios":"levelo://app?vid=7be1f41f-3af6-4ad6-aa2c-ec8e06a68ee4"},"vehicle_type_id":"4","last_reported":1777561118,"current_range_meters":5600,"station_id":"ce4bh292rcd13ifvqdf0","pricing_plan_id":"cebpf4jnsgd1na2vs0mg"},{"bike_id":"3be4a7db-61a4-4555-aa09-c404800b0f79","system_id":"levelo_inurba_marseille","lat":43.3317,"lon":5.37707,"is_reserved":false,"is_disabled":false,"rental_uris":{"android":"levelo://app?vid=3be4a7db-61a4-4555-aa09-c404800b0f79","ios":"levelo://app?vid=3be4a7db-61a4-4555-aa09-c404800b0f79"},"vehicle_type_id":"4","last_reported":1777561118,"current_range_meters":5600,"station_id":"st_d46cu089ee8s73dldbu0","pricing_plan_id":"cebpf4jnsgd1na2vs0mg"},{"bike_id":"c836b09f-a666-4145-8191-473bc44c6a36","system_id":"levelo_inurba_marseille","lat":43.255772,"lon":5.382272,"is_reserved":false,"is_disabled":true,"rental_uris":{"android":"levelo://app?vid=c836b09f-a666-4145-8191-473bc44c6a36","ios":"levelo://app?vid=c836b09f-a666-4145-8191-473bc44c6a36"},"vehicle_type_id":"4","last_reported":1777561118,"current_range_meters":5600,"station_id":"ce4bhih2rcd13ifvqfs0","pricing_plan_id":"cebpf4jnsgd1na2vs0mg"},{"bike_id":"a0a9d254-b031-4207-86f6-6444db13bc7b","system_id":"levelo_inurba_marseille","lat":43.292676,"lon":5.384388,"is_reserved":false,"is_disabled":false,"rental_uris":{"android":"levelo://app?vid=a0a9d254-b031-4207-86f6-6444db13bc7b","ios":"levelo://app?vid=a0a9d254-b031-4207-86f6-6444db13bc7b"},"vehicle_type_id":"4","last_reported":1777561118,"current_range_meters":6000,"station_id":"ce4bh692rcd13ifvqea0","pricing_plan_id":"cebpf4jnsgd1na2vs0mg"},{"bike_id":"46523cb2-6b8e-455f-9277-3808cf80d4d2","system_id":"levelo_inurba_marseille","lat":43.337444,"lon":5.374475,"is_reserved":false,"is_disabled":true,"rental_uris":{"android":"levelo://app?vid=46523cb2-6b8e-455f-9277-3808cf80d4d2","ios":"levelo://app?vid=46523cb2-6b8e-455f-9277-3808cf80d4d2"},"vehicle_type_id":"4","last_reported":1777561118,"current_range_meters":6000,"station_id":"","pricing_plan_id":"cebpf4jnsgd1na2vs0mg"},{"bike_id":"6002189b-17d9-496e-9468-3e28ba4c5775","system_id":"levelo_inurba_marseille","lat":43.29531,"lon":5.37463,"is_reserved":false,"is_disabled":true,"rental_uris":{"android":"levelo://app?vid=6002189b-17d9-496e-9468-3e28ba4c5775","ios":"levelo://app?vid=6002189b-17d9-496e-9468-3e28ba4c5775"},"vehicle_type_id":"4","last_reported":1777561118,"current_range_meters":6000,"station_id":"ce4bgkp2rcd13ifvqbmg","pricing_plan_id":"cebpf4jnsgd1na2vs0mg"},{"bike_id":"160e418f-f550-431c-8292-fbceee2d8472","system_id":"levelo_inurba_marseille","lat":43.30127,"lon":5.43125,"is_reserved":false,"is_disabled":false,"rental_uris":{"android":"levelo://app?vid=160e418f-f550-431c-8292-fbceee2d8472","ios":"levelo://app?vid=160e418f-f550-431c-8292-fbceee2d8472"},"vehicle_type_id":"4","last_reported":1777561118,"current_range_meters":6000,"station_id":"st_d3js3co5814s73ftftug","pricing_plan_id":"cebpf4jnsgd1na2vs0mg"},{"bike_id":"9260db1b-0f83-49c8-82bd-b628478052b5","system_id":"levelo_inurba_marseille","lat":43.29683,"lon":5.37297,"is_reserved":false,"is_disabled":false,"rental_uris":{"android":"levelo://app?vid=9260db1b-0f83-49c8-82bd-b628478052b5","ios":"levelo://app?vid=9260db1b-0f83-49c8-82bd-b628478052b5"},"vehicle_type_id":"4","last_reported":1777561118,"current_range_meters":6000,"station_id":"ce4bgk12rcd13ifvqbj0","pricing_plan_id":"cebpf4jnsgd1na2vs0mg"},{"bike_id":"77f75c60-892a-4649-a02f-ed0f6c4d318d","system_id":"levelo_inurba_marseille","lat":43.28419,"lon":5.34984,"is_reserved":false,"is_disabled":false,"rental_uris":{"android":"levelo://app?vid=77f75c60-892a-4649-a02f-ed0f6c4d318d","ios":"levelo://app?vid=77f75c60-892a-4649-a02f-ed0f6c4d318d"},"vehicle_type_id":"4","last_reported":1777561118,"current_range_meters":6000,"station_id":"ce4bhbh2rcd13ifvqepg","pricing_plan_id":"cebpf4jnsgd1na2vs0mg"},{"bike_id":"fb8c173b-2f71-41cd-bc2b-c7d5b4747cf8","system_id":"levelo_inurba_marseille","lat":43.29261,"lon":5.38435,"is_reserved":false,"is_disabled":false,"rental_uris":{"android":"levelo://app?vid=fb8c173b-2f71-41cd-bc2b-c7d5b4747cf8","ios":"levelo://app?vid=fb8c173b-2f71-41cd-bc2b-c7d5b4747cf8"},"vehicle_type_id":"4","last_reported":1777561118,"current_range_meters":6000,"station_id":"ce4bh692rcd13ifvqea0","pricing_plan_id":"cebpf4jnsgd1na2vs0mg"},{"bike_id":"dd649e74-ed5e-4ce6-b6fc-191746436a7b","system_id":"levelo_inurba_marseille","lat":43.25086,"lon":5.4248,"is_reserved":false,"is_disabled":false,"rental_uris":{"android":"levelo://app?vid=dd649e74-ed5e-4ce6-b6fc-191746436a7b","ios":"levelo://app?vid=dd649e74-ed5e-4ce6-b6fc-191746436a7b"},"vehicle_type_id":"4","last_reported":1777561118,"current_range_meters":6000,"station_id":"","pricing_plan_id":"cebpf4jnsgd1na2vs0mg"},{"bike_id":"9b171422-a10e-441a-8d08-0b74298acb49","system_id":"levelo_inurba_marseille","lat":43.28604,"lon":5.37059,"is_reserved":false,"is_disabled":false,"rental_uris":{"android":"levelo://app?vid=9b171422-a10e-441a-8d08-0b74298acb49","ios":"levelo://app?vid=9b171422-a10e-441a-8d08-0b74298acb49"},"vehicle_type_id":"4","last_reported":1777561118,"current_range_meters":6000,"station_id":"ce4bht12rcd13ifvqi60","pricing_plan_id":"cebpf4jnsgd1na2vs0mg"},{"bike_id":"c10e9ddb-36f4-40a9-a01e-246729b8793e","system_id":"levelo_inurba_marseille","lat":43.23395,"lon":5.41247,"is_reserved":false,"is_disabled":false,"rental_uris":{"android":"levelo://app?vid=c10e9ddb-36f4-40a9-a01e-246729b8793e","ios":"levelo://app?vid=c10e9ddb-36f4-40a9-a01e-246729b8793e"},"vehicle_type_id":"4","last_reported":1777561118,"current_range_meters":6400,"station_id":"st_d75pvndhf9lc73cqq3eg","pricing_plan_id":"cebpf4jnsgd1na2vs0mg"},{"bike_id":"55c062cb-7615-4a33-8fe1-e52517cd6d1e","system_id":"levelo_inurba_marseille","lat":43.30896,"lon":5.37201,"is_reserved":false,"is_disabled":false,"rental_uris":{"android":"levelo://app?vid=55c062cb-7615-4a33-8fe1-e52517cd6d1e","ios":"levelo://app?vid=55c062cb-7615-4a33-8fe1-e52517cd6d1e"},"vehicle_type_id":"4","last_reported":1777561118,"current_range_meters":6400,"station_id":"ce4bguh2rcd13ifvqckg","pricing_plan_id":"cebpf4jnsgd1na2vs0mg"},{"bike_id":"efeb5fc7-7c46-495a-9675-41fa180a9d3a","system_id":"levelo_inurba_marseille","lat":43.24656,"lon":5.38906,"is_reserved":false,"is_disabled":false,"rental_uris":{"android":"levelo://app?vid=efeb5fc7-7c46-495a-9675-41fa180a9d3a","ios":"levelo://app?vid=efeb5fc7-7c46-495a-9675-41fa180a9d3a"},"vehicle_type_id":"4","last_reported":1777561118,"current_range_meters":6400,"station_id":"ce4bhg12rcd13ifvqf60","pricing_plan_id":"cebpf4jnsgd1na2vs0mg"},{"bike_id":"3762e39d-de20-4c04-a0a8-089a992a161d","system_id":"levelo_inurba_marseille","lat":43.29853,"lon":5.37102,"is_reserved":false,"is_disabled":false,"rental_uris":{"android":"levelo://app?vid=3762e39d-de20-4c04-a0a8-089a992a161d","ios":"levelo://app?vid=3762e39d-de20-4c04-a0a8-089a992a161d"},"vehicle_type_id":"4","last_reported":1777561118,"current_range_meters":6400,"station_id":"ce4bgop2rcd13ifvqc1g","pricing_plan_id":"cebpf4jnsgd1na2vs0mg"},{"bike_id":"ff952cf4-8dc8-4350-8501-210058cdd5fc","system_id":"levelo_inurba_marseille","lat":43.30162,"lon":5.38089,"is_reserved":false,"is_disabled":false,"rental_uris":{"android":"levelo://app?vid=ff952cf4-8dc8-4350-8501-210058cdd5fc","ios":"levelo://app?vid=ff952cf4-8dc8-4350-8501-210058cdd5fc"},"vehicle_type_id":"4","last_reported":1777561118,"current_range_meters":6400,"station_id":"ce4bgjp2rcd13ifvqbh0","pricing_plan_id":"cebpf4jnsgd1na2vs0mg"},{"bike_id":"df2e7696-5b77-4bfc-ad7b-fcd9fa940e53","system_id":"levelo_inurba_marseille","lat":43.29939,"lon":5.36527,"is_reserved":false,"is_disabled":false,"rental_uris":{"android":"levelo://app?vid=df2e7696-5b77-4bfc-ad7b-fcd9fa940e53","ios":"levelo://app?vid=df2e7696-5b77-4bfc-ad7b-fcd9fa940e53"},"vehicle_type_id":"4","last_reported":1777561118,"current_range_meters":6400,"station_id":"ce4bgm92rcd13ifvqbr0","pricing_plan_id":"cebpf4jnsgd1na2vs0mg"},{"bike_id":"871c2ea0-af64-423d-8759-bcf9650c2253","system_id":"levelo_inurba_marseille","lat":43.31989,"lon":5.38123,"is_reserved":false,"is_disabled":false,"rental_uris":{"android":"levelo://app?vid=871c2ea0-af64-423d-8759-bcf9650c2253","ios":"levelo://app?vid=871c2ea0-af64-423d-8759-bcf9650c2253"},"vehicle_type_id":"4","last_reported":1777561118,"current_range_meters":6400,"station_id":"ce4bhr12rcd13ifvqhpg","pricing_plan_id":"cebpf4jnsgd1na2vs0mg"},{"bike_id":"1779c4c0-f603-47b9-af0e-89fb3b794de1","system_id":"levelo_inurba_marseille","lat":43.23179,"lon":5.39992,"is_reserved":false,"is_disabled":false,"rental_uris":{"android":"levelo://app?vid=1779c4c0-f603-47b9-af0e-89fb3b794de1","ios":"levelo://app?vid=1779c4c0-f603-47b9-af0e-89fb3b794de1"},"vehicle_type_id":"4","last_reported":1777561118,"current_range_meters":6400,"station_id":"ce4bhn12rcd13ifvqgqg","pricing_plan_id":"cebpf4jnsgd1na2vs0mg"},{"bike_id":"a1aedc96-cb1a-422f-9edd-0baad6a92cb5","system_id":"levelo_inurba_marseille","lat":43.3028,"lon":5.37728,"is_reserved":false,"is_disabled":false,"rental_uris":{"android":"levelo://app?vid=a1aedc96-cb1a-422f-9edd-0baad6a92cb5","ios":"levelo://app?vid=a1aedc96-cb1a-422f-9edd-0baad6a92cb5"},"vehicle_type_id":"4","last_reported":1777561118,"current_range_meters":6400,"station_id":"ce4bguh2rcd13ifvqcj0","pricing_plan_id":"cebpf4jnsgd1na2vs0mg"},{"bike_id":"368d5396-dafa-493e-b98d-6e2ef22688af","system_id":"levelo_inurba_marseille","lat":43.29262,"lon":5.38433,"is_reserved":false,"is_disabled":false,"rental_uris":{"android":"levelo://app?vid=368d5396-dafa-493e-b98d-6e2ef22688af","ios":"levelo://app?vid=368d5396-dafa-493e-b98d-6e2ef22688af"},"vehicle_type_id":"4","last_reported":1777561118,"current_range_meters":6400,"station_id":"ce4bh692rcd13ifvqea0","pricing_plan_id":"cebpf4jnsgd1na2vs0mg"},{"bike_id":"90263632-d7cd-4a91-a11a-b4057217eafa","system_id":"levelo_inurba_marseille","lat":43.297968,"lon":5.403884,"is_reserved":false,"is_disabled":false,"rental_uris":{"android":"levelo://app?vid=90263632-d7cd-4a91-a11a-b4057217eafa","ios":"levelo://app?vid=90263632-d7cd-4a91-a11a-b4057217eafa"},"vehicle_type_id":"4","last_reported":1777561118,"current_range_meters":6400,"station_id":"ce4bh112rcd13ifvqd90","pricing_plan_id":"cebpf4jnsgd1na2vs0mg"},{"bike_id":"e039b976-15bf-43bd-9897-41542a0cb6f8","system_id":"levelo_inurba_marseille","lat":43.24474,"lon":5.42538,"is_reserved":false,"is_disabled":false,"rental_uris":{"android":"levelo://app?vid=e039b976-15bf-43bd-9897-41542a0cb6f8","ios":"levelo://app?vid=e039b976-15bf-43bd-9897-41542a0cb6f8"},"vehicle_type_id":"4","last_reported":1777561118,"current_range_meters":6400,"station_id":"st_d4a3vfp97mjs738cd8kg","pricing_plan_id":"cebpf4jnsgd1na2vs0mg"},{"bike_id":"3ceb6300-22b7-4a3d-b518-b0309fdfb59a","system_id":"levelo_inurba_marseille","lat":43.286149,"lon":5.398729,"is_reserved":false,"is_disabled":false,"rental_uris":{"android":"levelo://app?vid=3ceb6300-22b7-4a3d-b518-b0309fdfb59a","ios":"levelo://app?vid=3ceb6300-22b7-4a3d-b518-b0309fdfb59a"},"vehicle_type_id":"4","last_reported":1777561118,"current_range_meters":6800,"station_id":"st_d4a7ka997mjs738ck50g","pricing_plan_id":"cebpf4jnsgd1na2vs0mg"},{"bike_id":"aa1066a2-52ee-4b5e-9ea8-f5bfb38bf0a4","system_id":"levelo_inurba_marseille","lat":43.32345,"lon":5.3677,"is_reserved":false,"is_disabled":false,"rental_uris":{"android":"levelo://app?vid=aa1066a2-52ee-4b5e-9ea8-f5bfb38bf0a4","ios":"levelo://app?vid=aa1066a2-52ee-4b5e-9ea8-f5bfb38bf0a4"},"vehicle_type_id":"4","last_reported":1777561118,"current_range_meters":6800,"station_id":"ce4bhsh2rcd13ifvqi2g","pricing_plan_id":"cebpf4jnsgd1na2vs0mg"},{"bike_id":"9ac79960-6ea7-499d-96a2-8173e74749ce","system_id":"levelo_inurba_marseille","lat":43.32489,"lon":5.36584,"is_reserved":false,"is_disabled":false,"rental_uris":{"android":"levelo://app?vid=9ac79960-6ea7-499d-96a2-8173e74749ce","ios":"levelo://app?vid=9ac79960-6ea7-499d-96a2-8173e74749ce"},"vehicle_type_id":"4","last_reported":1777561118,"current_range_meters":6800,"station_id":"ce4bhs12rcd13ifvqhvg","pricing_plan_id":"cebpf4jnsgd1na2vs0mg"},{"bike_id":"b99d6fe4-b8e7-4ae2-a227-dc144b9f45f9","system_id":"levelo_inurba_marseille","lat":43.2918,"lon":5.38598,"is_reserved":false,"is_disabled":false,"rental_uris":{"android":"levelo://app?vid=b99d6fe4-b8e7-4ae2-a227-dc144b9f45f9","ios":"levelo://app?vid=b99d6fe4-b8e7-4ae2-a227-dc144b9f45f9"},"vehicle_type_id":"4","last_reported":1777561118,"current_range_meters":6800,"station_id":"","pricing_plan_id":"cebpf4jnsgd1na2vs0mg"},{"bike_id":"df94db11-2d96-4a37-98a4-183b1cb25c18","system_id":"levelo_inurba_marseille","lat":43.311557,"lon":5.387207,"is_reserved":false,"is_disabled":false,"rental_uris":{"android":"levelo://app?vid=df94db11-2d96-4a37-98a4-183b1cb25c18","ios":"levelo://app?vid=df94db11-2d96-4a37-98a4-183b1cb25c18"},"vehicle_type_id":"4","last_reported":1777561118,"current_range_meters":6800,"station_id":"ce4bgv12rcd13ifvqcp0","pricing_plan_id":"cebpf4jnsgd1na2vs0mg"},{"bike_id":"c2d3c152-eef5-44bd-9f72-ff670f052999","system_id":"levelo_inurba_marseille","lat":43.25588,"lon":5.38237,"is_reserved":false,"is_disabled":false,"rental_uris":{"android":"levelo://app?vid=c2d3c152-eef5-44bd-9f72-ff670f052999","ios":"levelo://app?vid=c2d3c152-eef5-44bd-9f72-ff670f052999"},"vehicle_type_id":"4","last_reported":1777561118,"current_range_meters":6800,"station_id":"ce4bhih2rcd13ifvqfs0","pricing_plan_id":"cebpf4jnsgd1na2vs0mg"},{"bike_id":"0df842e7-f5ea-4e18-8e92-4cbfe715702b","system_id":"levelo_inurba_marseille","lat":43.29245,"lon":5.38455,"is_reserved":false,"is_disabled":false,"rental_uris":{"android":"levelo://app?vid=0df842e7-f5ea-4e18-8e92-4cbfe715702b","ios":"levelo://app?vid=0df842e7-f5ea-4e18-8e92-4cbfe715702b"},"vehicle_type_id":"4","last_reported":1777561118,"current_range_meters":6800,"station_id":"ce4bh692rcd13ifvqea0","pricing_plan_id":"cebpf4jnsgd1na2vs0mg"},{"bike_id":"90edb539-3f5e-45c8-b023-08f06dfbd043","system_id":"levelo_inurba_marseille","lat":43.30155,"lon":5.38077,"is_reserved":false,"is_disabled":false,"rental_uris":{"android":"levelo://app?vid=90edb539-3f5e-45c8-b023-08f06dfbd043","ios":"levelo://app?vid=90edb539-3f5e-45c8-b023-08f06dfbd043"},"vehicle_type_id":"4","last_reported":1777561118,"current_range_meters":6800,"station_id":"ce4bgjp2rcd13ifvqbh0","pricing_plan_id":"cebpf4jnsgd1na2vs0mg"},{"bike_id":"8dd331a7-fb5f-49f0-98bd-5e07152fbb85","system_id":"levelo_inurba_marseille","lat":43.25949,"lon":5.40905,"is_reserved":false,"is_disabled":false,"rental_uris":{"android":"levelo://app?vid=8dd331a7-fb5f-49f0-98bd-5e07152fbb85","ios":"levelo://app?vid=8dd331a7-fb5f-49f0-98bd-5e07152fbb85"},"vehicle_type_id":"4","last_reported":1777561118,"current_range_meters":6800,"station_id":"ce4bhm92rcd13ifvqglg","pricing_plan_id":"cebpf4jnsgd1na2vs0mg"},{"bike_id":"e662ed97-ac12-48de-aa8a-9bef2a3f5bcf","system_id":"levelo_inurba_marseille","lat":43.30428,"lon":5.3975,"is_reserved":false,"is_disabled":false,"rental_uris":{"android":"levelo://app?vid=e662ed97-ac12-48de-aa8a-9bef2a3f5bcf","ios":"levelo://app?vid=e662ed97-ac12-48de-aa8a-9bef2a3f5bcf"},"vehicle_type_id":"4","last_reported":1777561118,"current_range_meters":6800,"station_id":"ce4bh092rcd13ifvqd20","pricing_plan_id":"cebpf4jnsgd1na2vs0mg"},{"bike_id":"91678251-0dc2-4a32-950d-1cd81af8140a","system_id":"levelo_inurba_marseille","lat":43.302,"lon":5.36617,"is_reserved":false,"is_disabled":false,"rental_uris":{"android":"levelo://app?vid=91678251-0dc2-4a32-950d-1cd81af8140a","ios":"levelo://app?vid=91678251-0dc2-4a32-950d-1cd81af8140a"},"vehicle_type_id":"4","last_reported":1777561118,"current_range_meters":6800,"station_id":"ce4bgrh2rcd13ifvqc8g","pricing_plan_id":"cebpf4jnsgd1na2vs0mg"},{"bike_id":"2f14a5cf-c802-45ab-bc76-a589fedee4c2","system_id":"levelo_inurba_marseille","lat":43.31507,"lon":5.37283,"is_reserved":false,"is_disabled":false,"rental_uris":{"android":"levelo://app?vid=2f14a5cf-c802-45ab-bc76-a589fedee4c2","ios":"levelo://app?vid=2f14a5cf-c802-45ab-bc76-a589fedee4c2"},"vehicle_type_id":"4","last_reported":1777561118,"current_range_meters":6800,"station_id":"ce4bgt12rcd13ifvqcd0","pricing_plan_id":"cebpf4jnsgd1na2vs0mg"},{"bike_id":"a2a694ab-bd57-45a8-a651-048e4cefae01","system_id":"levelo_inurba_marseille","lat":43.2871,"lon":5.46678,"is_reserved":false,"is_disabled":false,"rental_uris":{"android":"levelo://app?vid=a2a694ab-bd57-45a8-a651-048e4cefae01","ios":"levelo://app?vid=a2a694ab-bd57-45a8-a651-048e4cefae01"},"vehicle_type_id":"4","last_reported":1777561118,"current_range_meters":6800,"station_id":"st_d6tc3vkotcvc738tfjhg","pricing_plan_id":"cebpf4jnsgd1na2vs0mg"},{"bike_id":"2574e5b6-4803-4843-bbd6-59f2729e0d30","system_id":"levelo_inurba_marseille","lat":43.23158,"lon":5.4371,"is_reserved":false,"is_disabled":false,"rental_uris":{"android":"levelo://app?vid=2574e5b6-4803-4843-bbd6-59f2729e0d30","ios":"levelo://app?vid=2574e5b6-4803-4843-bbd6-59f2729e0d30"},"vehicle_type_id":"4","last_reported":1777561118,"current_range_meters":6800,"station_id":"ce4bhmp2rcd13ifvqgog","pricing_plan_id":"cebpf4jnsgd1na2vs0mg"},{"bike_id":"f22882dc-02f0-439d-bcd7-d3fa9cf662ce","system_id":"levelo_inurba_marseille","lat":43.30276,"lon":5.37733,"is_reserved":false,"is_disabled":false,"rental_uris":{"android":"levelo://app?vid=f22882dc-02f0-439d-bcd7-d3fa9cf662ce","ios":"levelo://app?vid=f22882dc-02f0-439d-bcd7-d3fa9cf662ce"},"vehicle_type_id":"4","last_reported":1777561118,"current_range_meters":6800,"station_id":"ce4bguh2rcd13ifvqcj0","pricing_plan_id":"cebpf4jnsgd1na2vs0mg"},{"bike_id":"76b76a5a-e9c0-44f3-94af-8de1a567c89d","system_id":"levelo_inurba_marseille","lat":43.22535,"lon":5.34839,"is_reserved":false,"is_disabled":false,"rental_uris":{"android":"levelo://app?vid=76b76a5a-e9c0-44f3-94af-8de1a567c89d","ios":"levelo://app?vid=76b76a5a-e9c0-44f3-94af-8de1a567c89d"},"vehicle_type_id":"4","last_reported":1777561118,"current_range_meters":6800,"station_id":"st_cvj5dfep6f1abm77gieg","pricing_plan_id":"cebpf4jnsgd1na2vs0mg"},{"bike_id":"95f47514-1d7f-4013-95fe-a0916f7cc45a","system_id":"levelo_inurba_marseille","lat":43.33602,"lon":5.37696,"is_reserved":false,"is_disabled":false,"rental_uris":{"android":"levelo://app?vid=95f47514-1d7f-4013-95fe-a0916f7cc45a","ios":"levelo://app?vid=95f47514-1d7f-4013-95fe-a0916f7cc45a"},"vehicle_type_id":"4","last_reported":1777561118,"current_range_meters":7200,"station_id":"","pricing_plan_id":"cebpf4jnsgd1na2vs0mg"},{"bike_id":"a5169939-c7ae-4b36-a3b7-8f3251554934","system_id":"levelo_inurba_marseille","lat":43.308245,"lon":5.394667,"is_reserved":false,"is_disabled":false,"rental_uris":{"android":"levelo://app?vid=a5169939-c7ae-4b36-a3b7-8f3251554934","ios":"levelo://app?vid=a5169939-c7ae-4b36-a3b7-8f3251554934"},"vehicle_type_id":"4","last_reported":1777561118,"current_range_meters":7200,"station_id":"ce4bgt12rcd13ifvqce0","pricing_plan_id":"cebpf4jnsgd1na2vs0mg"},{"bike_id":"c76a4b5d-7caf-4e63-804a-3df554f9e335","system_id":"levelo_inurba_marseille","lat":43.3013,"lon":5.39869,"is_reserved":false,"is_disabled":true,"rental_uris":{"android":"levelo://app?vid=c76a4b5d-7caf-4e63-804a-3df554f9e335","ios":"levelo://app?vid=c76a4b5d-7caf-4e63-804a-3df554f9e335"},"vehicle_type_id":"4","last_reported":1777561118,"current_range_meters":7200,"station_id":"ce4bh0h2rcd13ifvqd40","pricing_plan_id":"cebpf4jnsgd1na2vs0mg"},{"bike_id":"ddd52344-1495-4596-92df-f6dd26b4534f","system_id":"levelo_inurba_marseille","lat":43.29785,"lon":5.3708,"is_reserved":false,"is_disabled":false,"rental_uris":{"android":"levelo://app?vid=ddd52344-1495-4596-92df-f6dd26b4534f","ios":"levelo://app?vid=ddd52344-1495-4596-92df-f6dd26b4534f"},"vehicle_type_id":"4","last_reported":1777561118,"current_range_meters":7200,"station_id":"ce4bgop2rcd13ifvqc1g","pricing_plan_id":"cebpf4jnsgd1na2vs0mg"},{"bike_id":"b04a4ab1-ad02-4ba9-8c98-bd93ea2b5a7b","system_id":"levelo_inurba_marseille","lat":43.32092,"lon":5.43385,"is_reserved":false,"is_disabled":false,"rental_uris":{"android":"levelo://app?vid=b04a4ab1-ad02-4ba9-8c98-bd93ea2b5a7b","ios":"levelo://app?vid=b04a4ab1-ad02-4ba9-8c98-bd93ea2b5a7b"},"vehicle_type_id":"4","last_reported":1777561118,"current_range_meters":7200,"station_id":"","pricing_plan_id":"cebpf4jnsgd1na2vs0mg"},{"bike_id":"5ff83e24-614c-4682-b768-9f3bd4a17095","system_id":"levelo_inurba_marseille","lat":43.26233,"lon":5.38766,"is_reserved":false,"is_disabled":false,"rental_uris":{"android":"levelo://app?vid=5ff83e24-614c-4682-b768-9f3bd4a17095","ios":"levelo://app?vid=5ff83e24-614c-4682-b768-9f3bd4a17095"},"vehicle_type_id":"4","last_reported":1777561118,"current_range_meters":7200,"station_id":"","pricing_plan_id":"cebpf4jnsgd1na2vs0mg"},{"bike_id":"02cc035f-c4d6-4de5-a906-d5f184eac536","system_id":"levelo_inurba_marseille","lat":43.29916,"lon":5.3746,"is_reserved":false,"is_disabled":false,"rental_uris":{"android":"levelo://app?vid=02cc035f-c4d6-4de5-a906-d5f184eac536","ios":"levelo://app?vid=02cc035f-c4d6-4de5-a906-d5f184eac536"},"vehicle_type_id":"4","last_reported":1777561118,"current_range_meters":7200,"station_id":"ce4bgjh2rcd13ifvqbg0","pricing_plan_id":"cebpf4jnsgd1na2vs0mg"},{"bike_id":"b95935e1-f9eb-43c7-ad9c-aa899fe013d4","system_id":"levelo_inurba_marseille","lat":43.25021,"lon":5.38931,"is_reserved":false,"is_disabled":false,"rental_uris":{"android":"levelo://app?vid=b95935e1-f9eb-43c7-ad9c-aa899fe013d4","ios":"levelo://app?vid=b95935e1-f9eb-43c7-ad9c-aa899fe013d4"},"vehicle_type_id":"4","last_reported":1777561118,"current_range_meters":7200,"station_id":"ce4bhgp2rcd13ifvqfd0","pricing_plan_id":"cebpf4jnsgd1na2vs0mg"},{"bike_id":"d580219f-6289-459e-b6c8-186e2ecce599","system_id":"levelo_inurba_marseille","lat":43.23147,"lon":5.43782,"is_reserved":false,"is_disabled":false,"rental_uris":{"android":"levelo://app?vid=d580219f-6289-459e-b6c8-186e2ecce599","ios":"levelo://app?vid=d580219f-6289-459e-b6c8-186e2ecce599"},"vehicle_type_id":"4","last_reported":1777561118,"current_range_meters":7200,"station_id":"","pricing_plan_id":"cebpf4jnsgd1na2vs0mg"},{"bike_id":"96c1677c-ba34-44c4-b8f0-676f4f85c27f","system_id":"levelo_inurba_marseille","lat":43.29496,"lon":5.38807,"is_reserved":false,"is_disabled":false,"rental_uris":{"android":"levelo://app?vid=96c1677c-ba34-44c4-b8f0-676f4f85c27f","ios":"levelo://app?vid=96c1677c-ba34-44c4-b8f0-676f4f85c27f"},"vehicle_type_id":"4","last_reported":1777561118,"current_range_meters":7200,"station_id":"","pricing_plan_id":"cebpf4jnsgd1na2vs0mg"},{"bike_id":"7fd13eb4-6b4b-4218-8b5c-4bdd260be35d","system_id":"levelo_inurba_marseille","lat":43.29712,"lon":5.37717,"is_reserved":false,"is_disabled":false,"rental_uris":{"android":"levelo://app?vid=7fd13eb4-6b4b-4218-8b5c-4bdd260be35d","ios":"levelo://app?vid=7fd13eb4-6b4b-4218-8b5c-4bdd260be35d"},"vehicle_type_id":"4","last_reported":1777561118,"current_range_meters":7200,"station_id":"ce4bgkh2rcd13ifvqbl0","pricing_plan_id":"cebpf4jnsgd1na2vs0mg"},{"bike_id":"021651d2-4c60-4088-a359-b9197bac101e","system_id":"levelo_inurba_marseille","lat":43.29755,"lon":5.37941,"is_reserved":false,"is_disabled":false,"rental_uris":{"android":"levelo://app?vid=021651d2-4c60-4088-a359-b9197bac101e","ios":"levelo://app?vid=021651d2-4c60-4088-a359-b9197bac101e"},"vehicle_type_id":"4","last_reported":1777561118,"current_range_meters":7200,"station_id":"","pricing_plan_id":"cebpf4jnsgd1na2vs0mg"},{"bike_id":"dc1ba494-59da-4e6b-bc61-11f81204ebce","system_id":"levelo_inurba_marseille","lat":43.25399,"lon":5.41894,"is_reserved":false,"is_disabled":false,"rental_uris":{"android":"levelo://app?vid=dc1ba494-59da-4e6b-bc61-11f81204ebce","ios":"levelo://app?vid=dc1ba494-59da-4e6b-bc61-11f81204ebce"},"vehicle_type_id":"4","last_reported":1777561118,"current_range_meters":7200,"station_id":"","pricing_plan_id":"cebpf4jnsgd1na2vs0mg"},{"bike_id":"55e5d4fa-4f1a-4aa1-a53b-400fd597e79b","system_id":"levelo_inurba_marseille","lat":43.29279,"lon":5.40897,"is_reserved":false,"is_disabled":false,"rental_uris":{"android":"levelo://app?vid=55e5d4fa-4f1a-4aa1-a53b-400fd597e79b","ios":"levelo://app?vid=55e5d4fa-4f1a-4aa1-a53b-400fd597e79b"},"vehicle_type_id":"4","last_reported":1777561118,"current_range_meters":7200,"station_id":"ce4bh192rcd13ifvqdc0","pricing_plan_id":"cebpf4jnsgd1na2vs0mg"},{"bike_id":"a95acab3-e84a-4c0b-aca6-07e332ad1242","system_id":"levelo_inurba_marseille","lat":43.31369,"lon":5.3672,"is_reserved":false,"is_disabled":false,"rental_uris":{"android":"levelo://app?vid=a95acab3-e84a-4c0b-aca6-07e332ad1242","ios":"levelo://app?vid=a95acab3-e84a-4c0b-aca6-07e332ad1242"},"vehicle_type_id":"4","last_reported":1777561118,"current_range_meters":8000,"station_id":"ce4bgr92rcd13ifvqc6g","pricing_plan_id":"cebpf4jnsgd1na2vs0mg"},{"bike_id":"fd48847e-8e33-4edb-89cd-7fc9cf95a563","system_id":"levelo_inurba_marseille","lat":43.2959,"lon":5.36778,"is_reserved":false,"is_disabled":false,"rental_uris":{"android":"levelo://app?vid=fd48847e-8e33-4edb-89cd-7fc9cf95a563","ios":"levelo://app?vid=fd48847e-8e33-4edb-89cd-7fc9cf95a563"},"vehicle_type_id":"4","last_reported":1777561118,"current_range_meters":8000,"station_id":"ce4bgph2rcd13ifvqc2g","pricing_plan_id":"cebpf4jnsgd1na2vs0mg"},{"bike_id":"2db651d7-7b81-464a-bb48-581bf1e0c30d","system_id":"levelo_inurba_marseille","lat":43.24059,"lon":5.37791,"is_reserved":false,"is_disabled":false,"rental_uris":{"android":"levelo://app?vid=2db651d7-7b81-464a-bb48-581bf1e0c30d","ios":"levelo://app?vid=2db651d7-7b81-464a-bb48-581bf1e0c30d"},"vehicle_type_id":"4","last_reported":1777561118,"current_range_meters":8000,"station_id":"ce4bhnp2rcd13ifvqgvg","pricing_plan_id":"cebpf4jnsgd1na2vs0mg"},{"bike_id":"9c85ea94-e0db-4d3e-baca-fa152ee440d3","system_id":"levelo_inurba_marseille","lat":43.25577,"lon":5.382,"is_reserved":false,"is_disabled":false,"rental_uris":{"android":"levelo://app?vid=9c85ea94-e0db-4d3e-baca-fa152ee440d3","ios":"levelo://app?vid=9c85ea94-e0db-4d3e-baca-fa152ee440d3"},"vehicle_type_id":"4","last_reported":1777561118,"current_range_meters":8000,"station_id":"ce4bhih2rcd13ifvqfs0","pricing_plan_id":"cebpf4jnsgd1na2vs0mg"},{"bike_id":"827e9ab8-0a9d-4a62-b30e-9eb29e3546f6","system_id":"levelo_inurba_marseille","lat":43.27693,"lon":5.38913,"is_reserved":false,"is_disabled":false,"rental_uris":{"android":"levelo://app?vid=827e9ab8-0a9d-4a62-b30e-9eb29e3546f6","ios":"levelo://app?vid=827e9ab8-0a9d-4a62-b30e-9eb29e3546f6"},"vehicle_type_id":"4","last_reported":1777561118,"current_range_meters":8000,"station_id":"ce4bhi12rcd13ifvqfo0","pricing_plan_id":"cebpf4jnsgd1na2vs0mg"},{"bike_id":"2ee1db26-54a9-4a38-974b-0eb0bbac894f","system_id":"levelo_inurba_marseille","lat":43.29608,"lon":5.38092,"is_reserved":false,"is_disabled":true,"rental_uris":{"android":"levelo://app?vid=2ee1db26-54a9-4a38-974b-0eb0bbac894f","ios":"levelo://app?vid=2ee1db26-54a9-4a38-974b-0eb0bbac894f"},"vehicle_type_id":"4","last_reported":1777561118,"current_range_meters":8000,"station_id":"ce4bgl12rcd13ifvqbo0","pricing_plan_id":"cebpf4jnsgd1na2vs0mg"},{"bike_id":"4eafd67e-b3da-4f5a-899d-df1516d8935b","system_id":"levelo_inurba_marseille","lat":43.28633,"lon":5.35096,"is_reserved":false,"is_disabled":false,"rental_uris":{"android":"levelo://app?vid=4eafd67e-b3da-4f5a-899d-df1516d8935b","ios":"levelo://app?vid=4eafd67e-b3da-4f5a-899d-df1516d8935b"},"vehicle_type_id":"4","last_reported":1777561118,"current_range_meters":8000,"station_id":"ce4bhch2rcd13ifvqeug","pricing_plan_id":"cebpf4jnsgd1na2vs0mg"},{"bike_id":"0195b3a7-f19f-4649-864a-4c54bdc7ef80","system_id":"levelo_inurba_marseille","lat":43.337444,"lon":5.374475,"is_reserved":false,"is_disabled":false,"rental_uris":{"android":"levelo://app?vid=0195b3a7-f19f-4649-864a-4c54bdc7ef80","ios":"levelo://app?vid=0195b3a7-f19f-4649-864a-4c54bdc7ef80"},"vehicle_type_id":"4","last_reported":1777561118,"current_range_meters":8000,"station_id":"","pricing_plan_id":"cebpf4jnsgd1na2vs0mg"},{"bike_id":"8d3ae36d-04aa-43af-a285-3db217ca0803","system_id":"levelo_inurba_marseille","lat":43.24653,"lon":5.38882,"is_reserved":false,"is_disabled":false,"rental_uris":{"android":"levelo://app?vid=8d3ae36d-04aa-43af-a285-3db217ca0803","ios":"levelo://app?vid=8d3ae36d-04aa-43af-a285-3db217ca0803"},"vehicle_type_id":"4","last_reported":1777561118,"current_range_meters":8000,"station_id":"ce4bhg12rcd13ifvqf60","pricing_plan_id":"cebpf4jnsgd1na2vs0mg"},{"bike_id":"8ea852f6-7928-47da-af07-40bb0e92965d","system_id":"levelo_inurba_marseille","lat":43.29584,"lon":5.3824,"is_reserved":false,"is_disabled":false,"rental_uris":{"android":"levelo://app?vid=8ea852f6-7928-47da-af07-40bb0e92965d","ios":"levelo://app?vid=8ea852f6-7928-47da-af07-40bb0e92965d"},"vehicle_type_id":"4","last_reported":1777561118,"current_range_meters":8000,"station_id":"","pricing_plan_id":"cebpf4jnsgd1na2vs0mg"},{"bike_id":"fde28817-0a32-4ce6-9526-0c87334c9c2d","system_id":"levelo_inurba_marseille","lat":43.29595,"lon":5.36736,"is_reserved":false,"is_disabled":false,"rental_uris":{"android":"levelo://app?vid=fde28817-0a32-4ce6-9526-0c87334c9c2d","ios":"levelo://app?vid=fde28817-0a32-4ce6-9526-0c87334c9c2d"},"vehicle_type_id":"4","last_reported":1777561118,"current_range_meters":8000,"station_id":"ce4bgph2rcd13ifvqc2g","pricing_plan_id":"cebpf4jnsgd1na2vs0mg"},{"bike_id":"d2d2e7f5-75cd-42b3-8b6f-6203421c9e06","system_id":"levelo_inurba_marseille","lat":43.29199,"lon":5.3607,"is_reserved":false,"is_disabled":true,"rental_uris":{"android":"levelo://app?vid=d2d2e7f5-75cd-42b3-8b6f-6203421c9e06","ios":"levelo://app?vid=d2d2e7f5-75cd-42b3-8b6f-6203421c9e06"},"vehicle_type_id":"4","last_reported":1777561118,"current_range_meters":8000,"station_id":"ce4bhbh2rcd13ifvqeqg","pricing_plan_id":"cebpf4jnsgd1na2vs0mg"},{"bike_id":"50cc6683-a4a6-490d-87fd-8c2be5eaa529","system_id":"levelo_inurba_marseille","lat":43.27805,"lon":5.41525,"is_reserved":false,"is_disabled":false,"rental_uris":{"android":"levelo://app?vid=50cc6683-a4a6-490d-87fd-8c2be5eaa529","ios":"levelo://app?vid=50cc6683-a4a6-490d-87fd-8c2be5eaa529"},"vehicle_type_id":"4","last_reported":1777561118,"current_range_meters":8000,"station_id":"","pricing_plan_id":"cebpf4jnsgd1na2vs0mg"},{"bike_id":"f0c5a700-363f-4dfe-99b3-e6c87c7f3004","system_id":"levelo_inurba_marseille","lat":43.28623,"lon":5.3988,"is_reserved":false,"is_disabled":false,"rental_uris":{"android":"levelo://app?vid=f0c5a700-363f-4dfe-99b3-e6c87c7f3004","ios":"levelo://app?vid=f0c5a700-363f-4dfe-99b3-e6c87c7f3004"},"vehicle_type_id":"4","last_reported":1777561118,"current_range_meters":8000,"station_id":"st_d4a7ka997mjs738ck50g","pricing_plan_id":"cebpf4jnsgd1na2vs0mg"},{"bike_id":"35d52814-ee3c-4be4-acb1-0eb11971a1c7","system_id":"levelo_inurba_marseille","lat":43.29517,"lon":5.37511,"is_reserved":false,"is_disabled":false,"rental_uris":{"android":"levelo://app?vid=35d52814-ee3c-4be4-acb1-0eb11971a1c7","ios":"levelo://app?vid=35d52814-ee3c-4be4-acb1-0eb11971a1c7"},"vehicle_type_id":"4","last_reported":1777561118,"current_range_meters":8000,"station_id":"ce4bgkp2rcd13ifvqbmg","pricing_plan_id":"cebpf4jnsgd1na2vs0mg"},{"bike_id":"d42f38af-20a5-404f-b75f-8ad5e87205de","system_id":"levelo_inurba_marseille","lat":43.284603,"lon":5.358849,"is_reserved":false,"is_disabled":false,"rental_uris":{"android":"levelo://app?vid=d42f38af-20a5-404f-b75f-8ad5e87205de","ios":"levelo://app?vid=d42f38af-20a5-404f-b75f-8ad5e87205de"},"vehicle_type_id":"4","last_reported":1777561118,"current_range_meters":8000,"station_id":"ce4bhah2rcd13ifvqei0","pricing_plan_id":"cebpf4jnsgd1na2vs0mg"},{"bike_id":"bbcb741c-c179-4dd8-bcfd-3993e38d7ce0","system_id":"levelo_inurba_marseille","lat":43.28606,"lon":5.3707,"is_reserved":false,"is_disabled":false,"rental_uris":{"android":"levelo://app?vid=bbcb741c-c179-4dd8-bcfd-3993e38d7ce0","ios":"levelo://app?vid=bbcb741c-c179-4dd8-bcfd-3993e38d7ce0"},"vehicle_type_id":"4","last_reported":1777561118,"current_range_meters":8000,"station_id":"ce4bht12rcd13ifvqi60","pricing_plan_id":"cebpf4jnsgd1na2vs0mg"},{"bike_id":"d5cda9f5-de5e-48fd-b8fa-56c4fdce3a61","system_id":"levelo_inurba_marseille","lat":43.30468,"lon":5.36554,"is_reserved":false,"is_disabled":false,"rental_uris":{"android":"levelo://app?vid=d5cda9f5-de5e-48fd-b8fa-56c4fdce3a61","ios":"levelo://app?vid=d5cda9f5-de5e-48fd-b8fa-56c4fdce3a61"},"vehicle_type_id":"4","last_reported":1777561118,"current_range_meters":8000,"station_id":"","pricing_plan_id":"cebpf4jnsgd1na2vs0mg"},{"bike_id":"b3a0c7ef-eaef-4e8c-be67-257dd8855170","system_id":"levelo_inurba_marseille","lat":43.29544,"lon":5.37508,"is_reserved":false,"is_disabled":false,"rental_uris":{"android":"levelo://app?vid=b3a0c7ef-eaef-4e8c-be67-257dd8855170","ios":"levelo://app?vid=b3a0c7ef-eaef-4e8c-be67-257dd8855170"},"vehicle_type_id":"4","last_reported":1777561118,"current_range_meters":8000,"station_id":"ce4bgkp2rcd13ifvqbmg","pricing_plan_id":"cebpf4jnsgd1na2vs0mg"},{"bike_id":"f3fd2c77-6e7a-4a7b-baa5-ca367c64df4c","system_id":"levelo_inurba_marseille","lat":43.27925,"lon":5.39589,"is_reserved":false,"is_disabled":false,"rental_uris":{"android":"levelo://app?vid=f3fd2c77-6e7a-4a7b-baa5-ca367c64df4c","ios":"levelo://app?vid=f3fd2c77-6e7a-4a7b-baa5-ca367c64df4c"},"vehicle_type_id":"4","last_reported":1777561118,"current_range_meters":8400,"station_id":"ce4bhf92rcd13ifvqf40","pricing_plan_id":"cebpf4jnsgd1na2vs0mg"},{"bike_id":"68fac483-974f-4949-9fb9-a118517f5717","system_id":"levelo_inurba_marseille","lat":43.2893,"lon":5.38403,"is_reserved":false,"is_disabled":false,"rental_uris":{"android":"levelo://app?vid=68fac483-974f-4949-9fb9-a118517f5717","ios":"levelo://app?vid=68fac483-974f-4949-9fb9-a118517f5717"},"vehicle_type_id":"4","last_reported":1777561118,"current_range_meters":8400,"station_id":"ce4bh612rcd13ifvqe6g","pricing_plan_id":"cebpf4jnsgd1na2vs0mg"},{"bike_id":"335fc8dc-ad2f-4253-b0e2-b10d3d2d0173","system_id":"levelo_inurba_marseille","lat":43.28486,"lon":5.38572,"is_reserved":false,"is_disabled":true,"rental_uris":{"android":"levelo://app?vid=335fc8dc-ad2f-4253-b0e2-b10d3d2d0173","ios":"levelo://app?vid=335fc8dc-ad2f-4253-b0e2-b10d3d2d0173"},"vehicle_type_id":"4","last_reported":1777561118,"current_range_meters":8400,"station_id":"ce4bh8p2rcd13ifvqeb0","pricing_plan_id":"cebpf4jnsgd1na2vs0mg"},{"bike_id":"5b80e16c-1f87-44b0-bb58-ad90cb094a37","system_id":"levelo_inurba_marseille","lat":43.29903,"lon":5.42177,"is_reserved":false,"is_disabled":false,"rental_uris":{"android":"levelo://app?vid=5b80e16c-1f87-44b0-bb58-ad90cb094a37","ios":"levelo://app?vid=5b80e16c-1f87-44b0-bb58-ad90cb094a37"},"vehicle_type_id":"4","last_reported":1777561118,"current_range_meters":8400,"station_id":"st_d6tc004otcvc738tfe70","pricing_plan_id":"cebpf4jnsgd1na2vs0mg"},{"bike_id":"37728412-9808-4848-87a6-e43dab59174b","system_id":"levelo_inurba_marseille","lat":43.27179,"lon":5.40997,"is_reserved":false,"is_disabled":false,"rental_uris":{"android":"levelo://app?vid=37728412-9808-4848-87a6-e43dab59174b","ios":"levelo://app?vid=37728412-9808-4848-87a6-e43dab59174b"},"vehicle_type_id":"4","last_reported":1777561118,"current_range_meters":8400,"station_id":"ce4bhl12rcd13ifvqgf0","pricing_plan_id":"cebpf4jnsgd1na2vs0mg"},{"bike_id":"5cc847c3-c7ab-4803-a64a-cfb2e18548c3","system_id":"levelo_inurba_marseille","lat":43.2964,"lon":5.37145,"is_reserved":false,"is_disabled":false,"rental_uris":{"android":"levelo://app?vid=5cc847c3-c7ab-4803-a64a-cfb2e18548c3","ios":"levelo://app?vid=5cc847c3-c7ab-4803-a64a-cfb2e18548c3"},"vehicle_type_id":"4","last_reported":1777561118,"current_range_meters":8400,"station_id":"ce4bgnh2rcd13ifvqc0g","pricing_plan_id":"cebpf4jnsgd1na2vs0mg"},{"bike_id":"cf15e873-0f46-4a6d-938c-7d34189690a9","system_id":"levelo_inurba_marseille","lat":43.25495,"lon":5.37648,"is_reserved":false,"is_disabled":false,"rental_uris":{"android":"levelo://app?vid=cf15e873-0f46-4a6d-938c-7d34189690a9","ios":"levelo://app?vid=cf15e873-0f46-4a6d-938c-7d34189690a9"},"vehicle_type_id":"4","last_reported":1777561118,"current_range_meters":8400,"station_id":"ce4bhh12rcd13ifvqff0","pricing_plan_id":"cebpf4jnsgd1na2vs0mg"},{"bike_id":"a9fdc35f-bdd3-4025-896f-985c490ec39f","system_id":"levelo_inurba_marseille","lat":43.30158,"lon":5.37444,"is_reserved":false,"is_disabled":false,"rental_uris":{"android":"levelo://app?vid=a9fdc35f-bdd3-4025-896f-985c490ec39f","ios":"levelo://app?vid=a9fdc35f-bdd3-4025-896f-985c490ec39f"},"vehicle_type_id":"4","last_reported":1777561118,"current_range_meters":8400,"station_id":"ce4bgs92rcd13ifvqcc0","pricing_plan_id":"cebpf4jnsgd1na2vs0mg"},{"bike_id":"275f0e36-65c4-489f-bd62-ec5e03923f09","system_id":"levelo_inurba_marseille","lat":43.22558,"lon":5.41638,"is_reserved":false,"is_disabled":false,"rental_uris":{"android":"levelo://app?vid=275f0e36-65c4-489f-bd62-ec5e03923f09","ios":"levelo://app?vid=275f0e36-65c4-489f-bd62-ec5e03923f09"},"vehicle_type_id":"4","last_reported":1777561118,"current_range_meters":8400,"station_id":"st_d2o4gvlbi1j2169b742g","pricing_plan_id":"cebpf4jnsgd1na2vs0mg"},{"bike_id":"d488526e-5fe3-4e46-ae1e-8f0caa6fb51e","system_id":"levelo_inurba_marseille","lat":43.25586,"lon":5.38239,"is_reserved":false,"is_disabled":false,"rental_uris":{"android":"levelo://app?vid=d488526e-5fe3-4e46-ae1e-8f0caa6fb51e","ios":"levelo://app?vid=d488526e-5fe3-4e46-ae1e-8f0caa6fb51e"},"vehicle_type_id":"4","last_reported":1777561118,"current_range_meters":8400,"station_id":"ce4bhih2rcd13ifvqfs0","pricing_plan_id":"cebpf4jnsgd1na2vs0mg"},{"bike_id":"bd381285-9688-4b86-bb58-500e4f0f2544","system_id":"levelo_inurba_marseille","lat":43.23312,"lon":5.39987,"is_reserved":false,"is_disabled":false,"rental_uris":{"android":"levelo://app?vid=bd381285-9688-4b86-bb58-500e4f0f2544","ios":"levelo://app?vid=bd381285-9688-4b86-bb58-500e4f0f2544"},"vehicle_type_id":"4","last_reported":1777561118,"current_range_meters":8400,"station_id":"","pricing_plan_id":"cebpf4jnsgd1na2vs0mg"},{"bike_id":"65dcd980-6fe9-4c7d-822c-075ad32b715a","system_id":"levelo_inurba_marseille","lat":43.23799,"lon":5.3664,"is_reserved":false,"is_disabled":false,"rental_uris":{"android":"levelo://app?vid=65dcd980-6fe9-4c7d-822c-075ad32b715a","ios":"levelo://app?vid=65dcd980-6fe9-4c7d-822c-075ad32b715a"},"vehicle_type_id":"4","last_reported":1777561118,"current_range_meters":8400,"station_id":"st_d3nk18o9ro0c73en2l3g","pricing_plan_id":"cebpf4jnsgd1na2vs0mg"},{"bike_id":"41caa364-25fc-475f-9c53-97a6cb892a35","system_id":"levelo_inurba_marseille","lat":43.299771,"lon":5.384878,"is_reserved":false,"is_disabled":true,"rental_uris":{"android":"levelo://app?vid=41caa364-25fc-475f-9c53-97a6cb892a35","ios":"levelo://app?vid=41caa364-25fc-475f-9c53-97a6cb892a35"},"vehicle_type_id":"4","last_reported":1777561118,"current_range_meters":8400,"station_id":"ce4bgj92rcd13ifvqbd0","pricing_plan_id":"cebpf4jnsgd1na2vs0mg"},{"bike_id":"8fa57484-cf44-41c4-8d70-59cbef57463b","system_id":"levelo_inurba_marseille","lat":43.25004,"lon":5.38937,"is_reserved":false,"is_disabled":false,"rental_uris":{"android":"levelo://app?vid=8fa57484-cf44-41c4-8d70-59cbef57463b","ios":"levelo://app?vid=8fa57484-cf44-41c4-8d70-59cbef57463b"},"vehicle_type_id":"4","last_reported":1777561118,"current_range_meters":8400,"station_id":"ce4bhgp2rcd13ifvqfd0","pricing_plan_id":"cebpf4jnsgd1na2vs0mg"},{"bike_id":"b2b5924c-ae57-4d04-8872-ff1b2babdda2","system_id":"levelo_inurba_marseille","lat":43.29791,"lon":5.38067,"is_reserved":false,"is_disabled":false,"rental_uris":{"android":"levelo://app?vid=b2b5924c-ae57-4d04-8872-ff1b2babdda2","ios":"levelo://app?vid=b2b5924c-ae57-4d04-8872-ff1b2babdda2"},"vehicle_type_id":"4","last_reported":1777561118,"current_range_meters":8400,"station_id":"ce4bgip2rcd13ifvqbb0","pricing_plan_id":"cebpf4jnsgd1na2vs0mg"},{"bike_id":"775f03e0-4e4e-4e8d-bc0e-ea765d642104","system_id":"levelo_inurba_marseille","lat":43.2972,"lon":5.37697,"is_reserved":false,"is_disabled":false,"rental_uris":{"android":"levelo://app?vid=775f03e0-4e4e-4e8d-bc0e-ea765d642104","ios":"levelo://app?vid=775f03e0-4e4e-4e8d-bc0e-ea765d642104"},"vehicle_type_id":"4","last_reported":1777561118,"current_range_meters":8400,"station_id":"ce4bgkh2rcd13ifvqbl0","pricing_plan_id":"cebpf4jnsgd1na2vs0mg"},{"bike_id":"e0bdf730-60a1-42f7-bbbe-b131347e64a1","system_id":"levelo_inurba_marseille","lat":43.31062,"lon":5.37169,"is_reserved":false,"is_disabled":false,"rental_uris":{"android":"levelo://app?vid=e0bdf730-60a1-42f7-bbbe-b131347e64a1","ios":"levelo://app?vid=e0bdf730-60a1-42f7-bbbe-b131347e64a1"},"vehicle_type_id":"4","last_reported":1777561118,"current_range_meters":8400,"station_id":"st_d4kl2rp97mjs73e7tdfg","pricing_plan_id":"cebpf4jnsgd1na2vs0mg"},{"bike_id":"6f9f6743-1f9d-4d5c-a9cf-76fa60560c59","system_id":"levelo_inurba_marseille","lat":43.23065,"lon":5.35487,"is_reserved":false,"is_disabled":false,"rental_uris":{"android":"levelo://app?vid=6f9f6743-1f9d-4d5c-a9cf-76fa60560c59","ios":"levelo://app?vid=6f9f6743-1f9d-4d5c-a9cf-76fa60560c59"},"vehicle_type_id":"4","last_reported":1777561118,"current_range_meters":8400,"station_id":"cpo3342slgdg3j2ifvpg","pricing_plan_id":"cebpf4jnsgd1na2vs0mg"},{"bike_id":"7d0fd0b8-10eb-4c5f-8af7-9e6fa7704ba4","system_id":"levelo_inurba_marseille","lat":43.24388,"lon":5.37046,"is_reserved":false,"is_disabled":false,"rental_uris":{"android":"levelo://app?vid=7d0fd0b8-10eb-4c5f-8af7-9e6fa7704ba4","ios":"levelo://app?vid=7d0fd0b8-10eb-4c5f-8af7-9e6fa7704ba4"},"vehicle_type_id":"4","last_reported":1777561118,"current_range_meters":8400,"station_id":"ce4bhhh2rcd13ifvqfk0","pricing_plan_id":"cebpf4jnsgd1na2vs0mg"},{"bike_id":"c1f3e66f-f40e-48b2-b2db-2c855a1b5964","system_id":"levelo_inurba_marseille","lat":43.3044,"lon":5.38886,"is_reserved":false,"is_disabled":false,"rental_uris":{"android":"levelo://app?vid=c1f3e66f-f40e-48b2-b2db-2c855a1b5964","ios":"levelo://app?vid=c1f3e66f-f40e-48b2-b2db-2c855a1b5964"},"vehicle_type_id":"4","last_reported":1777561118,"current_range_meters":8400,"station_id":"ce4bgk12rcd13ifvqbi0","pricing_plan_id":"cebpf4jnsgd1na2vs0mg"},{"bike_id":"3cea0b81-8e00-4313-9a94-6d323474e65f","system_id":"levelo_inurba_marseille","lat":43.26567,"lon":5.39015,"is_reserved":false,"is_disabled":false,"rental_uris":{"android":"levelo://app?vid=3cea0b81-8e00-4313-9a94-6d323474e65f","ios":"levelo://app?vid=3cea0b81-8e00-4313-9a94-6d323474e65f"},"vehicle_type_id":"4","last_reported":1777561118,"current_range_meters":8400,"station_id":"ce4bhe12rcd13ifvqf30","pricing_plan_id":"cebpf4jnsgd1na2vs0mg"},{"bike_id":"4d26e890-9e5c-410e-98e4-5bf91a618030","system_id":"levelo_inurba_marseille","lat":43.25583,"lon":5.38212,"is_reserved":false,"is_disabled":false,"rental_uris":{"android":"levelo://app?vid=4d26e890-9e5c-410e-98e4-5bf91a618030","ios":"levelo://app?vid=4d26e890-9e5c-410e-98e4-5bf91a618030"},"vehicle_type_id":"4","last_reported":1777561118,"current_range_meters":8800,"station_id":"ce4bhih2rcd13ifvqfs0","pricing_plan_id":"cebpf4jnsgd1na2vs0mg"},{"bike_id":"615e3db1-9e04-4fa0-a690-2f8adc4d7bb6","system_id":"levelo_inurba_marseille","lat":43.23191,"lon":5.35565,"is_reserved":false,"is_disabled":false,"rental_uris":{"android":"levelo://app?vid=615e3db1-9e04-4fa0-a690-2f8adc4d7bb6","ios":"levelo://app?vid=615e3db1-9e04-4fa0-a690-2f8adc4d7bb6"},"vehicle_type_id":"4","last_reported":1777561118,"current_range_meters":8800,"station_id":"ce4bhu92rcd13ifvqi70","pricing_plan_id":"cebpf4jnsgd1na2vs0mg"},{"bike_id":"b0d595b9-7c67-4713-9ca5-bce73f5b56b5","system_id":"levelo_inurba_marseille","lat":43.31337,"lon":5.36712,"is_reserved":false,"is_disabled":false,"rental_uris":{"android":"levelo://app?vid=b0d595b9-7c67-4713-9ca5-bce73f5b56b5","ios":"levelo://app?vid=b0d595b9-7c67-4713-9ca5-bce73f5b56b5"},"vehicle_type_id":"4","last_reported":1777561118,"current_range_meters":8800,"station_id":"ce4bgr92rcd13ifvqc6g","pricing_plan_id":"cebpf4jnsgd1na2vs0mg"},{"bike_id":"6d232a0e-f116-4caa-b7d8-4f9d4fab4a0b","system_id":"levelo_inurba_marseille","lat":43.30558,"lon":5.36521,"is_reserved":false,"is_disabled":true,"rental_uris":{"android":"levelo://app?vid=6d232a0e-f116-4caa-b7d8-4f9d4fab4a0b","ios":"levelo://app?vid=6d232a0e-f116-4caa-b7d8-4f9d4fab4a0b"},"vehicle_type_id":"4","last_reported":1777561118,"current_range_meters":8800,"station_id":"ce4bgs12rcd13ifvqcag","pricing_plan_id":"cebpf4jnsgd1na2vs0mg"},{"bike_id":"95c6de37-8084-4661-a3ba-b34a18678f02","system_id":"levelo_inurba_marseille","lat":43.24549,"lon":5.39525,"is_reserved":false,"is_disabled":false,"rental_uris":{"android":"levelo://app?vid=95c6de37-8084-4661-a3ba-b34a18678f02","ios":"levelo://app?vid=95c6de37-8084-4661-a3ba-b34a18678f02"},"vehicle_type_id":"4","last_reported":1777561118,"current_range_meters":8800,"station_id":"ce4bhlp2rcd13ifvqgjg","pricing_plan_id":"cebpf4jnsgd1na2vs0mg"},{"bike_id":"e3d0e9d9-cbeb-4e7b-aa61-dfc4941f4180","system_id":"levelo_inurba_marseille","lat":43.32069,"lon":5.36848,"is_reserved":false,"is_disabled":false,"rental_uris":{"android":"levelo://app?vid=e3d0e9d9-cbeb-4e7b-aa61-dfc4941f4180","ios":"levelo://app?vid=e3d0e9d9-cbeb-4e7b-aa61-dfc4941f4180"},"vehicle_type_id":"4","last_reported":1777561118,"current_range_meters":8800,"station_id":"","pricing_plan_id":"cebpf4jnsgd1na2vs0mg"},{"bike_id":"05d708f7-5a61-469e-8a69-44a881dfab1b","system_id":"levelo_inurba_marseille","lat":43.2961,"lon":5.38102,"is_reserved":false,"is_disabled":false,"rental_uris":{"android":"levelo://app?vid=05d708f7-5a61-469e-8a69-44a881dfab1b","ios":"levelo://app?vid=05d708f7-5a61-469e-8a69-44a881dfab1b"},"vehicle_type_id":"4","last_reported":1777561118,"current_range_meters":8800,"station_id":"ce4bgl12rcd13ifvqbo0","pricing_plan_id":"cebpf4jnsgd1na2vs0mg"},{"bike_id":"a5e387fa-49b5-4a17-a925-09d5f690af8f","system_id":"levelo_inurba_marseille","lat":43.32123,"lon":5.36761,"is_reserved":false,"is_disabled":false,"rental_uris":{"android":"levelo://app?vid=a5e387fa-49b5-4a17-a925-09d5f690af8f","ios":"levelo://app?vid=a5e387fa-49b5-4a17-a925-09d5f690af8f"},"vehicle_type_id":"4","last_reported":1777561118,"current_range_meters":8800,"station_id":"ce4bhrh2rcd13ifvqhug","pricing_plan_id":"cebpf4jnsgd1na2vs0mg"},{"bike_id":"fe8198b3-0094-4103-8ea4-875c5185ac23","system_id":"levelo_inurba_marseille","lat":43.29256,"lon":5.40923,"is_reserved":false,"is_disabled":false,"rental_uris":{"android":"levelo://app?vid=fe8198b3-0094-4103-8ea4-875c5185ac23","ios":"levelo://app?vid=fe8198b3-0094-4103-8ea4-875c5185ac23"},"vehicle_type_id":"4","last_reported":1777561118,"current_range_meters":8800,"station_id":"ce4bh192rcd13ifvqdc0","pricing_plan_id":"cebpf4jnsgd1na2vs0mg"},{"bike_id":"1b0bf771-2564-481c-a55c-1ce9a1dc1606","system_id":"levelo_inurba_marseille","lat":43.29623,"lon":5.37169,"is_reserved":false,"is_disabled":false,"rental_uris":{"android":"levelo://app?vid=1b0bf771-2564-481c-a55c-1ce9a1dc1606","ios":"levelo://app?vid=1b0bf771-2564-481c-a55c-1ce9a1dc1606"},"vehicle_type_id":"4","last_reported":1777561118,"current_range_meters":8800,"station_id":"ce4bgnh2rcd13ifvqc0g","pricing_plan_id":"cebpf4jnsgd1na2vs0mg"},{"bike_id":"e9f0555a-f24a-41a9-b317-db897a6e89f3","system_id":"levelo_inurba_marseille","lat":43.24167,"lon":5.363922,"is_reserved":false,"is_disabled":false,"rental_uris":{"android":"levelo://app?vid=e9f0555a-f24a-41a9-b317-db897a6e89f3","ios":"levelo://app?vid=e9f0555a-f24a-41a9-b317-db897a6e89f3"},"vehicle_type_id":"4","last_reported":1777561118,"current_range_meters":8800,"station_id":"cpo36qri1sfpv3e86is0","pricing_plan_id":"cebpf4jnsgd1na2vs0mg"},{"bike_id":"46611baa-2233-47d3-a307-4123f065b079","system_id":"levelo_inurba_marseille","lat":43.28517,"lon":5.48314,"is_reserved":false,"is_disabled":false,"rental_uris":{"android":"levelo://app?vid=46611baa-2233-47d3-a307-4123f065b079","ios":"levelo://app?vid=46611baa-2233-47d3-a307-4123f065b079"},"vehicle_type_id":"4","last_reported":1777561118,"current_range_meters":8800,"station_id":"","pricing_plan_id":"cebpf4jnsgd1na2vs0mg"},{"bike_id":"15ccd033-9a9c-47d6-a972-ff6689c29eee","system_id":"levelo_inurba_marseille","lat":43.32352,"lon":5.36714,"is_reserved":false,"is_disabled":false,"rental_uris":{"android":"levelo://app?vid=15ccd033-9a9c-47d6-a972-ff6689c29eee","ios":"levelo://app?vid=15ccd033-9a9c-47d6-a972-ff6689c29eee"},"vehicle_type_id":"4","last_reported":1777561118,"current_range_meters":8800,"station_id":"ce4bhsh2rcd13ifvqi2g","pricing_plan_id":"cebpf4jnsgd1na2vs0mg"},{"bike_id":"60cc15f1-7959-41ab-98fd-ec67de969f20","system_id":"levelo_inurba_marseille","lat":43.27061,"lon":5.40264,"is_reserved":false,"is_disabled":false,"rental_uris":{"android":"levelo://app?vid=60cc15f1-7959-41ab-98fd-ec67de969f20","ios":"levelo://app?vid=60cc15f1-7959-41ab-98fd-ec67de969f20"},"vehicle_type_id":"4","last_reported":1777561118,"current_range_meters":8800,"station_id":"ce4bhk92rcd13ifvqgc0","pricing_plan_id":"cebpf4jnsgd1na2vs0mg"},{"bike_id":"e018f895-5771-4f44-b64f-db1b733c0c56","system_id":"levelo_inurba_marseille","lat":43.23763,"lon":5.43068,"is_reserved":false,"is_disabled":false,"rental_uris":{"android":"levelo://app?vid=e018f895-5771-4f44-b64f-db1b733c0c56","ios":"levelo://app?vid=e018f895-5771-4f44-b64f-db1b733c0c56"},"vehicle_type_id":"4","last_reported":1777561118,"current_range_meters":8800,"station_id":"","pricing_plan_id":"cebpf4jnsgd1na2vs0mg"},{"bike_id":"5df17b2f-00fe-47f7-8036-f873ff9b2045","system_id":"levelo_inurba_marseille","lat":43.30895,"lon":5.39679,"is_reserved":false,"is_disabled":false,"rental_uris":{"android":"levelo://app?vid=5df17b2f-00fe-47f7-8036-f873ff9b2045","ios":"levelo://app?vid=5df17b2f-00fe-47f7-8036-f873ff9b2045"},"vehicle_type_id":"4","last_reported":1777561118,"current_range_meters":8800,"station_id":"ce4bh012rcd13ifvqcv0","pricing_plan_id":"cebpf4jnsgd1na2vs0mg"},{"bike_id":"d193cfeb-a038-436f-91b9-4221c91e3d89","system_id":"levelo_inurba_marseille","lat":43.27488,"lon":5.41589,"is_reserved":false,"is_disabled":true,"rental_uris":{"android":"levelo://app?vid=d193cfeb-a038-436f-91b9-4221c91e3d89","ios":"levelo://app?vid=d193cfeb-a038-436f-91b9-4221c91e3d89"},"vehicle_type_id":"4","last_reported":1777561118,"current_range_meters":8800,"station_id":"st_d6im8g6chgec73a5pndg","pricing_plan_id":"cebpf4jnsgd1na2vs0mg"},{"bike_id":"cfbf3059-fd7e-4626-bbb7-f76607be3dd8","system_id":"levelo_inurba_marseille","lat":43.30558,"lon":5.36744,"is_reserved":false,"is_disabled":true,"rental_uris":{"android":"levelo://app?vid=cfbf3059-fd7e-4626-bbb7-f76607be3dd8","ios":"levelo://app?vid=cfbf3059-fd7e-4626-bbb7-f76607be3dd8"},"vehicle_type_id":"4","last_reported":1777561118,"current_range_meters":8800,"station_id":"ce4bgrp2rcd13ifvqc9g","pricing_plan_id":"cebpf4jnsgd1na2vs0mg"},{"bike_id":"d5555d2c-756d-4594-84c9-7a47e33dbe78","system_id":"levelo_inurba_marseille","lat":43.27653,"lon":5.35871,"is_reserved":false,"is_disabled":false,"rental_uris":{"android":"levelo://app?vid=d5555d2c-756d-4594-84c9-7a47e33dbe78","ios":"levelo://app?vid=d5555d2c-756d-4594-84c9-7a47e33dbe78"},"vehicle_type_id":"4","last_reported":1777561118,"current_range_meters":8800,"station_id":"","pricing_plan_id":"cebpf4jnsgd1na2vs0mg"},{"bike_id":"b90c1d01-6a44-4d47-adc9-f51f5ae2109b","system_id":"levelo_inurba_marseille","lat":43.22565,"lon":5.4162,"is_reserved":false,"is_disabled":false,"rental_uris":{"android":"levelo://app?vid=b90c1d01-6a44-4d47-adc9-f51f5ae2109b","ios":"levelo://app?vid=b90c1d01-6a44-4d47-adc9-f51f5ae2109b"},"vehicle_type_id":"4","last_reported":1777561118,"current_range_meters":8800,"station_id":"st_d2o4gvlbi1j2169b742g","pricing_plan_id":"cebpf4jnsgd1na2vs0mg"},{"bike_id":"af1b1885-3ec2-4c50-81d6-6de81ba4119f","system_id":"levelo_inurba_marseille","lat":43.29385,"lon":5.3624,"is_reserved":false,"is_disabled":false,"rental_uris":{"android":"levelo://app?vid=af1b1885-3ec2-4c50-81d6-6de81ba4119f","ios":"levelo://app?vid=af1b1885-3ec2-4c50-81d6-6de81ba4119f"},"vehicle_type_id":"4","last_reported":1777561118,"current_range_meters":8800,"station_id":"","pricing_plan_id":"cebpf4jnsgd1na2vs0mg"},{"bike_id":"a8483a05-e652-437c-864d-0a9d370b8bff","system_id":"levelo_inurba_marseille","lat":43.24801,"lon":5.37456,"is_reserved":false,"is_disabled":false,"rental_uris":{"android":"levelo://app?vid=a8483a05-e652-437c-864d-0a9d370b8bff","ios":"levelo://app?vid=a8483a05-e652-437c-864d-0a9d370b8bff"},"vehicle_type_id":"4","last_reported":1777561118,"current_range_meters":8800,"station_id":"ce4bhgh2rcd13ifvqfb0","pricing_plan_id":"cebpf4jnsgd1na2vs0mg"},{"bike_id":"5e0a0988-eb6a-4582-a2d9-70ed2cc4aaae","system_id":"levelo_inurba_marseille","lat":43.31288,"lon":5.40166,"is_reserved":false,"is_disabled":false,"rental_uris":{"android":"levelo://app?vid=5e0a0988-eb6a-4582-a2d9-70ed2cc4aaae","ios":"levelo://app?vid=5e0a0988-eb6a-4582-a2d9-70ed2cc4aaae"},"vehicle_type_id":"4","last_reported":1777561118,"current_range_meters":8800,"station_id":"ce4bh092rcd13ifvqd30","pricing_plan_id":"cebpf4jnsgd1na2vs0mg"},{"bike_id":"3ae19c8d-7993-4bce-8a56-bc8493cb10a6","system_id":"levelo_inurba_marseille","lat":43.22559,"lon":5.41628,"is_reserved":false,"is_disabled":false,"rental_uris":{"android":"levelo://app?vid=3ae19c8d-7993-4bce-8a56-bc8493cb10a6","ios":"levelo://app?vid=3ae19c8d-7993-4bce-8a56-bc8493cb10a6"},"vehicle_type_id":"4","last_reported":1777561118,"current_range_meters":9200,"station_id":"st_d2o4gvlbi1j2169b742g","pricing_plan_id":"cebpf4jnsgd1na2vs0mg"},{"bike_id":"5ac7aced-733d-49b9-8f19-751e6a0310b5","system_id":"levelo_inurba_marseille","lat":43.30937,"lon":5.40149,"is_reserved":false,"is_disabled":false,"rental_uris":{"android":"levelo://app?vid=5ac7aced-733d-49b9-8f19-751e6a0310b5","ios":"levelo://app?vid=5ac7aced-733d-49b9-8f19-751e6a0310b5"},"vehicle_type_id":"4","last_reported":1777561118,"current_range_meters":9200,"station_id":"ce4bgvp2rcd13ifvqct0","pricing_plan_id":"cebpf4jnsgd1na2vs0mg"},{"bike_id":"9730be44-8b9b-4ee9-82ea-bbc7cc1f457d","system_id":"levelo_inurba_marseille","lat":43.29529,"lon":5.38523,"is_reserved":false,"is_disabled":false,"rental_uris":{"android":"levelo://app?vid=9730be44-8b9b-4ee9-82ea-bbc7cc1f457d","ios":"levelo://app?vid=9730be44-8b9b-4ee9-82ea-bbc7cc1f457d"},"vehicle_type_id":"4","last_reported":1777561118,"current_range_meters":9200,"station_id":"ce4bgih2rcd13ifvqba0","pricing_plan_id":"cebpf4jnsgd1na2vs0mg"},{"bike_id":"1dc803a7-ca06-4b19-a122-1835a508b670","system_id":"levelo_inurba_marseille","lat":43.2417,"lon":5.36397,"is_reserved":false,"is_disabled":false,"rental_uris":{"android":"levelo://app?vid=1dc803a7-ca06-4b19-a122-1835a508b670","ios":"levelo://app?vid=1dc803a7-ca06-4b19-a122-1835a508b670"},"vehicle_type_id":"4","last_reported":1777561118,"current_range_meters":9200,"station_id":"cpo36qri1sfpv3e86is0","pricing_plan_id":"cebpf4jnsgd1na2vs0mg"},{"bike_id":"fd9e5329-a2f4-4f84-bfd1-18c9bcce0a45","system_id":"levelo_inurba_marseille","lat":43.29035,"lon":5.3757,"is_reserved":false,"is_disabled":false,"rental_uris":{"android":"levelo://app?vid=fd9e5329-a2f4-4f84-bfd1-18c9bcce0a45","ios":"levelo://app?vid=fd9e5329-a2f4-4f84-bfd1-18c9bcce0a45"},"vehicle_type_id":"4","last_reported":1777561118,"current_range_meters":9200,"station_id":"ce4bh692rcd13ifvqe90","pricing_plan_id":"cebpf4jnsgd1na2vs0mg"},{"bike_id":"662d3ade-7838-42e9-9b62-a1e5749bd144","system_id":"levelo_inurba_marseille","lat":43.2873,"lon":5.46689,"is_reserved":false,"is_disabled":false,"rental_uris":{"android":"levelo://app?vid=662d3ade-7838-42e9-9b62-a1e5749bd144","ios":"levelo://app?vid=662d3ade-7838-42e9-9b62-a1e5749bd144"},"vehicle_type_id":"4","last_reported":1777561118,"current_range_meters":9200,"station_id":"st_d6tc3vkotcvc738tfjhg","pricing_plan_id":"cebpf4jnsgd1na2vs0mg"},{"bike_id":"398f3248-7362-4af9-a2ab-073d3def34c4","system_id":"levelo_inurba_marseille","lat":43.30788,"lon":5.37661,"is_reserved":false,"is_disabled":false,"rental_uris":{"android":"levelo://app?vid=398f3248-7362-4af9-a2ab-073d3def34c4","ios":"levelo://app?vid=398f3248-7362-4af9-a2ab-073d3def34c4"},"vehicle_type_id":"4","last_reported":1777561118,"current_range_meters":9200,"station_id":"ce4bgv92rcd13ifvqcq0","pricing_plan_id":"cebpf4jnsgd1na2vs0mg"},{"bike_id":"5719672b-6e96-43f1-891e-407b602a15ad","system_id":"levelo_inurba_marseille","lat":43.30926,"lon":5.40158,"is_reserved":false,"is_disabled":false,"rental_uris":{"android":"levelo://app?vid=5719672b-6e96-43f1-891e-407b602a15ad","ios":"levelo://app?vid=5719672b-6e96-43f1-891e-407b602a15ad"},"vehicle_type_id":"4","last_reported":1777561118,"current_range_meters":9200,"station_id":"ce4bgvp2rcd13ifvqct0","pricing_plan_id":"cebpf4jnsgd1na2vs0mg"},{"bike_id":"f9eb50d5-d054-4c0f-aee3-d895e67d99f0","system_id":"levelo_inurba_marseille","lat":43.27822,"lon":5.40712,"is_reserved":false,"is_disabled":false,"rental_uris":{"android":"levelo://app?vid=f9eb50d5-d054-4c0f-aee3-d895e67d99f0","ios":"levelo://app?vid=f9eb50d5-d054-4c0f-aee3-d895e67d99f0"},"vehicle_type_id":"4","last_reported":1777561118,"current_range_meters":9200,"station_id":"ce4bhnh2rcd13ifvqgtg","pricing_plan_id":"cebpf4jnsgd1na2vs0mg"},{"bike_id":"73b4ac51-6d12-43bc-b829-a81e0a897ec1","system_id":"levelo_inurba_marseille","lat":43.28837,"lon":5.39263,"is_reserved":false,"is_disabled":false,"rental_uris":{"android":"levelo://app?vid=73b4ac51-6d12-43bc-b829-a81e0a897ec1","ios":"levelo://app?vid=73b4ac51-6d12-43bc-b829-a81e0a897ec1"},"vehicle_type_id":"4","last_reported":1777561118,"current_range_meters":9200,"station_id":"ce4bh2p2rcd13ifvqdi0","pricing_plan_id":"cebpf4jnsgd1na2vs0mg"},{"bike_id":"6c33eaec-7524-4765-a3b4-3421cf14e6ae","system_id":"levelo_inurba_marseille","lat":43.28483,"lon":5.48379,"is_reserved":false,"is_disabled":false,"rental_uris":{"android":"levelo://app?vid=6c33eaec-7524-4765-a3b4-3421cf14e6ae","ios":"levelo://app?vid=6c33eaec-7524-4765-a3b4-3421cf14e6ae"},"vehicle_type_id":"4","last_reported":1777561118,"current_range_meters":9200,"station_id":"","pricing_plan_id":"cebpf4jnsgd1na2vs0mg"},{"bike_id":"5f7abd0e-8c64-49e9-b83c-d7b9753f80e0","system_id":"levelo_inurba_marseille","lat":43.28469,"lon":5.35891,"is_reserved":false,"is_disabled":false,"rental_uris":{"android":"levelo://app?vid=5f7abd0e-8c64-49e9-b83c-d7b9753f80e0","ios":"levelo://app?vid=5f7abd0e-8c64-49e9-b83c-d7b9753f80e0"},"vehicle_type_id":"4","last_reported":1777561118,"current_range_meters":9200,"station_id":"ce4bhah2rcd13ifvqei0","pricing_plan_id":"cebpf4jnsgd1na2vs0mg"},{"bike_id":"e1d48a27-4548-46ff-b83f-b101c352d53d","system_id":"levelo_inurba_marseille","lat":43.305275,"lon":5.384224,"is_reserved":false,"is_disabled":false,"rental_uris":{"android":"levelo://app?vid=e1d48a27-4548-46ff-b83f-b101c352d53d","ios":"levelo://app?vid=e1d48a27-4548-46ff-b83f-b101c352d53d"},"vehicle_type_id":"4","last_reported":1777561118,"current_range_meters":9200,"station_id":"ce4bgg92rcd13ifvqb30","pricing_plan_id":"cebpf4jnsgd1na2vs0mg"},{"bike_id":"9af80983-7303-4488-a030-6e14bff4a386","system_id":"levelo_inurba_marseille","lat":43.27537,"lon":5.38433,"is_reserved":false,"is_disabled":false,"rental_uris":{"android":"levelo://app?vid=9af80983-7303-4488-a030-6e14bff4a386","ios":"levelo://app?vid=9af80983-7303-4488-a030-6e14bff4a386"},"vehicle_type_id":"4","last_reported":1777561118,"current_range_meters":9200,"station_id":"ce4bhh92rcd13ifvqfi0","pricing_plan_id":"cebpf4jnsgd1na2vs0mg"},{"bike_id":"12db932e-a058-4af8-b0da-d76c0831a431","system_id":"levelo_inurba_marseille","lat":43.31277,"lon":5.36827,"is_reserved":false,"is_disabled":false,"rental_uris":{"android":"levelo://app?vid=12db932e-a058-4af8-b0da-d76c0831a431","ios":"levelo://app?vid=12db932e-a058-4af8-b0da-d76c0831a431"},"vehicle_type_id":"4","last_reported":1777561118,"current_range_meters":9200,"station_id":"ce4bgl92rcd13ifvqbq0","pricing_plan_id":"cebpf4jnsgd1na2vs0mg"},{"bike_id":"f55b556b-6e5c-46a7-a495-44fe77bdf097","system_id":"levelo_inurba_marseille","lat":43.304583,"lon":5.379059,"is_reserved":false,"is_disabled":false,"rental_uris":{"android":"levelo://app?vid=f55b556b-6e5c-46a7-a495-44fe77bdf097","ios":"levelo://app?vid=f55b556b-6e5c-46a7-a495-44fe77bdf097"},"vehicle_type_id":"4","last_reported":1777561118,"current_range_meters":9200,"station_id":"ce4bgup2rcd13ifvqcn0","pricing_plan_id":"cebpf4jnsgd1na2vs0mg"},{"bike_id":"4bad1cf2-8fc8-44f6-97c7-1fba9e672fa1","system_id":"levelo_inurba_marseille","lat":43.29726,"lon":5.37693,"is_reserved":false,"is_disabled":false,"rental_uris":{"android":"levelo://app?vid=4bad1cf2-8fc8-44f6-97c7-1fba9e672fa1","ios":"levelo://app?vid=4bad1cf2-8fc8-44f6-97c7-1fba9e672fa1"},"vehicle_type_id":"4","last_reported":1777561118,"current_range_meters":9200,"station_id":"ce4bgkh2rcd13ifvqbl0","pricing_plan_id":"cebpf4jnsgd1na2vs0mg"},{"bike_id":"6a515d24-1d9b-4fac-82a3-abc574093f73","system_id":"levelo_inurba_marseille","lat":43.28468,"lon":5.35883,"is_reserved":false,"is_disabled":false,"rental_uris":{"android":"levelo://app?vid=6a515d24-1d9b-4fac-82a3-abc574093f73","ios":"levelo://app?vid=6a515d24-1d9b-4fac-82a3-abc574093f73"},"vehicle_type_id":"4","last_reported":1777561118,"current_range_meters":9200,"station_id":"ce4bhah2rcd13ifvqei0","pricing_plan_id":"cebpf4jnsgd1na2vs0mg"},{"bike_id":"cf756aed-771f-48de-b6e4-695766cf71a3","system_id":"levelo_inurba_marseille","lat":43.30967,"lon":5.39723,"is_reserved":false,"is_disabled":false,"rental_uris":{"android":"levelo://app?vid=cf756aed-771f-48de-b6e4-695766cf71a3","ios":"levelo://app?vid=cf756aed-771f-48de-b6e4-695766cf71a3"},"vehicle_type_id":"4","last_reported":1777561118,"current_range_meters":9200,"station_id":"","pricing_plan_id":"cebpf4jnsgd1na2vs0mg"},{"bike_id":"777b5b2a-7d7d-4308-8581-4b69e8a2d556","system_id":"levelo_inurba_marseille","lat":43.3235,"lon":5.36746,"is_reserved":false,"is_disabled":false,"rental_uris":{"android":"levelo://app?vid=777b5b2a-7d7d-4308-8581-4b69e8a2d556","ios":"levelo://app?vid=777b5b2a-7d7d-4308-8581-4b69e8a2d556"},"vehicle_type_id":"4","last_reported":1777561118,"current_range_meters":9600,"station_id":"ce4bhsh2rcd13ifvqi2g","pricing_plan_id":"cebpf4jnsgd1na2vs0mg"},{"bike_id":"85efa3be-6bca-4715-b039-9c444985fd48","system_id":"levelo_inurba_marseille","lat":43.28949,"lon":5.36398,"is_reserved":false,"is_disabled":false,"rental_uris":{"android":"levelo://app?vid=85efa3be-6bca-4715-b039-9c444985fd48","ios":"levelo://app?vid=85efa3be-6bca-4715-b039-9c444985fd48"},"vehicle_type_id":"4","last_reported":1777561118,"current_range_meters":9600,"station_id":"ce4bhc92rcd13ifvqetg","pricing_plan_id":"cebpf4jnsgd1na2vs0mg"},{"bike_id":"7035b5a6-1369-4a14-b7d3-38824f0e81cf","system_id":"levelo_inurba_marseille","lat":43.31395,"lon":5.36723,"is_reserved":false,"is_disabled":false,"rental_uris":{"android":"levelo://app?vid=7035b5a6-1369-4a14-b7d3-38824f0e81cf","ios":"levelo://app?vid=7035b5a6-1369-4a14-b7d3-38824f0e81cf"},"vehicle_type_id":"4","last_reported":1777561118,"current_range_meters":9600,"station_id":"","pricing_plan_id":"cebpf4jnsgd1na2vs0mg"},{"bike_id":"401b410f-b7ac-4b07-b991-bc206dd7c0fb","system_id":"levelo_inurba_marseille","lat":43.29567,"lon":5.37486,"is_reserved":false,"is_disabled":false,"rental_uris":{"android":"levelo://app?vid=401b410f-b7ac-4b07-b991-bc206dd7c0fb","ios":"levelo://app?vid=401b410f-b7ac-4b07-b991-bc206dd7c0fb"},"vehicle_type_id":"4","last_reported":1777561118,"current_range_meters":9600,"station_id":"ce4bgh92rcd13ifvqb50","pricing_plan_id":"cebpf4jnsgd1na2vs0mg"},{"bike_id":"3a7990e1-60d4-43aa-ae9f-f2207881247c","system_id":"levelo_inurba_marseille","lat":43.29809,"lon":5.38078,"is_reserved":false,"is_disabled":false,"rental_uris":{"android":"levelo://app?vid=3a7990e1-60d4-43aa-ae9f-f2207881247c","ios":"levelo://app?vid=3a7990e1-60d4-43aa-ae9f-f2207881247c"},"vehicle_type_id":"4","last_reported":1777561118,"current_range_meters":9600,"station_id":"ce4bgip2rcd13ifvqbb0","pricing_plan_id":"cebpf4jnsgd1na2vs0mg"},{"bike_id":"3e37a766-0224-460c-ab40-46eb5e15117f","system_id":"levelo_inurba_marseille","lat":43.25577,"lon":5.3825,"is_reserved":false,"is_disabled":false,"rental_uris":{"android":"levelo://app?vid=3e37a766-0224-460c-ab40-46eb5e15117f","ios":"levelo://app?vid=3e37a766-0224-460c-ab40-46eb5e15117f"},"vehicle_type_id":"4","last_reported":1777561118,"current_range_meters":9600,"station_id":"ce4bhih2rcd13ifvqfs0","pricing_plan_id":"cebpf4jnsgd1na2vs0mg"},{"bike_id":"4e90327b-8b7f-477c-a97d-0f655fec2d1c","system_id":"levelo_inurba_marseille","lat":43.27382,"lon":5.36255,"is_reserved":false,"is_disabled":false,"rental_uris":{"android":"levelo://app?vid=4e90327b-8b7f-477c-a97d-0f655fec2d1c","ios":"levelo://app?vid=4e90327b-8b7f-477c-a97d-0f655fec2d1c"},"vehicle_type_id":"4","last_reported":1777561118,"current_range_meters":9600,"station_id":"ce4bhbh2rcd13ifvqeo0","pricing_plan_id":"cebpf4jnsgd1na2vs0mg"},{"bike_id":"c7969dbe-1082-4f6f-bca8-de46a1b07950","system_id":"levelo_inurba_marseille","lat":43.31375,"lon":5.36608,"is_reserved":false,"is_disabled":false,"rental_uris":{"android":"levelo://app?vid=c7969dbe-1082-4f6f-bca8-de46a1b07950","ios":"levelo://app?vid=c7969dbe-1082-4f6f-bca8-de46a1b07950"},"vehicle_type_id":"4","last_reported":1777561118,"current_range_meters":9600,"station_id":"","pricing_plan_id":"cebpf4jnsgd1na2vs0mg"},{"bike_id":"2b845581-5c2e-49d2-ab39-39ba192a85fc","system_id":"levelo_inurba_marseille","lat":43.29535,"lon":5.37509,"is_reserved":false,"is_disabled":false,"rental_uris":{"android":"levelo://app?vid=2b845581-5c2e-49d2-ab39-39ba192a85fc","ios":"levelo://app?vid=2b845581-5c2e-49d2-ab39-39ba192a85fc"},"vehicle_type_id":"4","last_reported":1777561118,"current_range_meters":9600,"station_id":"ce4bgkp2rcd13ifvqbmg","pricing_plan_id":"cebpf4jnsgd1na2vs0mg"},{"bike_id":"0c665311-ab6f-4f8b-b438-49b1824647c3","system_id":"levelo_inurba_marseille","lat":43.29537,"lon":5.37502,"is_reserved":false,"is_disabled":false,"rental_uris":{"android":"levelo://app?vid=0c665311-ab6f-4f8b-b438-49b1824647c3","ios":"levelo://app?vid=0c665311-ab6f-4f8b-b438-49b1824647c3"},"vehicle_type_id":"4","last_reported":1777561118,"current_range_meters":9600,"station_id":"ce4bgkp2rcd13ifvqbmg","pricing_plan_id":"cebpf4jnsgd1na2vs0mg"},{"bike_id":"4077a670-3554-4e6e-bf95-b8ed91302ebb","system_id":"levelo_inurba_marseille","lat":43.2418,"lon":5.39731,"is_reserved":false,"is_disabled":false,"rental_uris":{"android":"levelo://app?vid=4077a670-3554-4e6e-bf95-b8ed91302ebb","ios":"levelo://app?vid=4077a670-3554-4e6e-bf95-b8ed91302ebb"},"vehicle_type_id":"4","last_reported":1777561118,"current_range_meters":9600,"station_id":"ce4bhn12rcd13ifvqgpg","pricing_plan_id":"cebpf4jnsgd1na2vs0mg"},{"bike_id":"24eabd38-01f1-49e3-9b96-d24bb03f2e53","system_id":"levelo_inurba_marseille","lat":43.24809,"lon":5.37449,"is_reserved":false,"is_disabled":false,"rental_uris":{"android":"levelo://app?vid=24eabd38-01f1-49e3-9b96-d24bb03f2e53","ios":"levelo://app?vid=24eabd38-01f1-49e3-9b96-d24bb03f2e53"},"vehicle_type_id":"4","last_reported":1777561118,"current_range_meters":9600,"station_id":"ce4bhgh2rcd13ifvqfb0","pricing_plan_id":"cebpf4jnsgd1na2vs0mg"},{"bike_id":"3bab5da5-8f04-429e-a8cc-b94afa4e8e70","system_id":"levelo_inurba_marseille","lat":43.22569,"lon":5.41634,"is_reserved":false,"is_disabled":false,"rental_uris":{"android":"levelo://app?vid=3bab5da5-8f04-429e-a8cc-b94afa4e8e70","ios":"levelo://app?vid=3bab5da5-8f04-429e-a8cc-b94afa4e8e70"},"vehicle_type_id":"4","last_reported":1777561118,"current_range_meters":9600,"station_id":"st_d2o4gvlbi1j2169b742g","pricing_plan_id":"cebpf4jnsgd1na2vs0mg"},{"bike_id":"63cf4435-6895-46c9-96b0-447e33f9e9f9","system_id":"levelo_inurba_marseille","lat":43.31704,"lon":5.37792,"is_reserved":false,"is_disabled":false,"rental_uris":{"android":"levelo://app?vid=63cf4435-6895-46c9-96b0-447e33f9e9f9","ios":"levelo://app?vid=63cf4435-6895-46c9-96b0-447e33f9e9f9"},"vehicle_type_id":"4","last_reported":1777561118,"current_range_meters":9600,"station_id":"ce4bgth2rcd13ifvqch0","pricing_plan_id":"cebpf4jnsgd1na2vs0mg"},{"bike_id":"a2e7ecd5-df1f-430f-9c93-90f55336ee1f","system_id":"levelo_inurba_marseille","lat":43.30271,"lon":5.37727,"is_reserved":false,"is_disabled":false,"rental_uris":{"android":"levelo://app?vid=a2e7ecd5-df1f-430f-9c93-90f55336ee1f","ios":"levelo://app?vid=a2e7ecd5-df1f-430f-9c93-90f55336ee1f"},"vehicle_type_id":"4","last_reported":1777561118,"current_range_meters":9600,"station_id":"ce4bguh2rcd13ifvqcj0","pricing_plan_id":"cebpf4jnsgd1na2vs0mg"},{"bike_id":"269e547c-707c-4f34-9586-bd4dcbeed6ee","system_id":"levelo_inurba_marseille","lat":43.28135,"lon":5.382,"is_reserved":false,"is_disabled":false,"rental_uris":{"android":"levelo://app?vid=269e547c-707c-4f34-9586-bd4dcbeed6ee","ios":"levelo://app?vid=269e547c-707c-4f34-9586-bd4dcbeed6ee"},"vehicle_type_id":"4","last_reported":1777561118,"current_range_meters":9600,"station_id":"","pricing_plan_id":"cebpf4jnsgd1na2vs0mg"},{"bike_id":"717a40ed-ae8b-4c63-8865-dbef0cac8261","system_id":"levelo_inurba_marseille","lat":43.30919,"lon":5.40151,"is_reserved":false,"is_disabled":false,"rental_uris":{"android":"levelo://app?vid=717a40ed-ae8b-4c63-8865-dbef0cac8261","ios":"levelo://app?vid=717a40ed-ae8b-4c63-8865-dbef0cac8261"},"vehicle_type_id":"4","last_reported":1777561118,"current_range_meters":9600,"station_id":"ce4bgvp2rcd13ifvqct0","pricing_plan_id":"cebpf4jnsgd1na2vs0mg"},{"bike_id":"e992959d-a856-4103-b127-9b597b91a45a","system_id":"levelo_inurba_marseille","lat":43.24478,"lon":5.42537,"is_reserved":false,"is_disabled":false,"rental_uris":{"android":"levelo://app?vid=e992959d-a856-4103-b127-9b597b91a45a","ios":"levelo://app?vid=e992959d-a856-4103-b127-9b597b91a45a"},"vehicle_type_id":"4","last_reported":1777561118,"current_range_meters":9600,"station_id":"st_d4a3vfp97mjs738cd8kg","pricing_plan_id":"cebpf4jnsgd1na2vs0mg"},{"bike_id":"e2f1f09e-9f77-4533-a07b-540daf6d7603","system_id":"levelo_inurba_marseille","lat":43.305563,"lon":5.365674,"is_reserved":false,"is_disabled":false,"rental_uris":{"android":"levelo://app?vid=e2f1f09e-9f77-4533-a07b-540daf6d7603","ios":"levelo://app?vid=e2f1f09e-9f77-4533-a07b-540daf6d7603"},"vehicle_type_id":"4","last_reported":1777561118,"current_range_meters":9600,"station_id":"ce4bgs12rcd13ifvqcag","pricing_plan_id":"cebpf4jnsgd1na2vs0mg"},{"bike_id":"868b7ebc-db88-4150-ad85-aaa81300ba0a","system_id":"levelo_inurba_marseille","lat":43.302933,"lon":5.392227,"is_reserved":false,"is_disabled":false,"rental_uris":{"android":"levelo://app?vid=868b7ebc-db88-4150-ad85-aaa81300ba0a","ios":"levelo://app?vid=868b7ebc-db88-4150-ad85-aaa81300ba0a"},"vehicle_type_id":"4","last_reported":1777561118,"current_range_meters":9600,"station_id":"ce4bgkh2rcd13ifvqbk0","pricing_plan_id":"cebpf4jnsgd1na2vs0mg"},{"bike_id":"b523adde-c1af-44da-98e3-23f5e04a208c","system_id":"levelo_inurba_marseille","lat":43.32114,"lon":5.36775,"is_reserved":false,"is_disabled":false,"rental_uris":{"android":"levelo://app?vid=b523adde-c1af-44da-98e3-23f5e04a208c","ios":"levelo://app?vid=b523adde-c1af-44da-98e3-23f5e04a208c"},"vehicle_type_id":"4","last_reported":1777561118,"current_range_meters":9600,"station_id":"ce4bhrh2rcd13ifvqhug","pricing_plan_id":"cebpf4jnsgd1na2vs0mg"},{"bike_id":"c12385b6-d673-4982-bd4f-f7be2413ea34","system_id":"levelo_inurba_marseille","lat":43.29054,"lon":5.35668,"is_reserved":false,"is_disabled":false,"rental_uris":{"android":"levelo://app?vid=c12385b6-d673-4982-bd4f-f7be2413ea34","ios":"levelo://app?vid=c12385b6-d673-4982-bd4f-f7be2413ea34"},"vehicle_type_id":"4","last_reported":1777561118,"current_range_meters":9600,"station_id":"","pricing_plan_id":"cebpf4jnsgd1na2vs0mg"},{"bike_id":"a844376f-c1df-4fda-85d7-08848a70bf3c","system_id":"levelo_inurba_marseille","lat":43.33567,"lon":5.37495,"is_reserved":false,"is_disabled":false,"rental_uris":{"android":"levelo://app?vid=a844376f-c1df-4fda-85d7-08848a70bf3c","ios":"levelo://app?vid=a844376f-c1df-4fda-85d7-08848a70bf3c"},"vehicle_type_id":"4","last_reported":1777561118,"current_range_meters":9600,"station_id":"st_d46tts09ee8s73dlu43g","pricing_plan_id":"cebpf4jnsgd1na2vs0mg"},{"bike_id":"1ddea849-88ac-454c-9e84-5043fdde5dda","system_id":"levelo_inurba_marseille","lat":43.25581,"lon":5.38255,"is_reserved":false,"is_disabled":false,"rental_uris":{"android":"levelo://app?vid=1ddea849-88ac-454c-9e84-5043fdde5dda","ios":"levelo://app?vid=1ddea849-88ac-454c-9e84-5043fdde5dda"},"vehicle_type_id":"4","last_reported":1777561118,"current_range_meters":9600,"station_id":"ce4bhih2rcd13ifvqfs0","pricing_plan_id":"cebpf4jnsgd1na2vs0mg"},{"bike_id":"b9ee1931-3a78-42a7-8824-fe6485c2e562","system_id":"levelo_inurba_marseille","lat":43.32371,"lon":5.38882,"is_reserved":false,"is_disabled":false,"rental_uris":{"android":"levelo://app?vid=b9ee1931-3a78-42a7-8824-fe6485c2e562","ios":"levelo://app?vid=b9ee1931-3a78-42a7-8824-fe6485c2e562"},"vehicle_type_id":"4","last_reported":1777561118,"current_range_meters":9600,"station_id":"ce4bhqp2rcd13ifvqhog","pricing_plan_id":"cebpf4jnsgd1na2vs0mg"},{"bike_id":"9810c688-dd4d-4380-adc9-9557450d055b","system_id":"levelo_inurba_marseille","lat":43.28483,"lon":5.48396,"is_reserved":false,"is_disabled":false,"rental_uris":{"android":"levelo://app?vid=9810c688-dd4d-4380-adc9-9557450d055b","ios":"levelo://app?vid=9810c688-dd4d-4380-adc9-9557450d055b"},"vehicle_type_id":"4","last_reported":1777561118,"current_range_meters":9600,"station_id":"st_d3svhcjqgbts73a3dn0g","pricing_plan_id":"cebpf4jnsgd1na2vs0mg"},{"bike_id":"2e424ef8-6a15-46e1-896c-56725bdb3140","system_id":"levelo_inurba_marseille","lat":43.31175,"lon":5.38714,"is_reserved":false,"is_disabled":false,"rental_uris":{"android":"levelo://app?vid=2e424ef8-6a15-46e1-896c-56725bdb3140","ios":"levelo://app?vid=2e424ef8-6a15-46e1-896c-56725bdb3140"},