{"last_updated":1737727685,"ttl":60,"version":"2.2","data":{"bikes":[{"bike_id":"71025e83-daff-40eb-8f70-b8e1fc9300fb","system_id":"levelo_inurba_marseille","lat":43.229294,"lon":5.35389,"is_reserved":false,"is_disabled":false,"rental_uris":{"android":"levelo://app?vid=71025e83-daff-40eb-8f70-b8e1fc9300fb","ios":"levelo://app?vid=71025e83-daff-40eb-8f70-b8e1fc9300fb"},"vehicle_type_id":"4","last_reported":1737727685,"current_range_meters":38800,"station_id":"cpo3532slgdg3j2ikp40","pricing_plan_id":"cebpf4jnsgd1na2vs0mg"},{"bike_id":"f0484877-b138-4617-a95b-28fe454637b4","system_id":"levelo_inurba_marseille","lat":43.29587,"lon":5.3773,"is_reserved":false,"is_disabled":false,"rental_uris":{"android":"levelo://app?vid=f0484877-b138-4617-a95b-28fe454637b4","ios":"levelo://app?vid=f0484877-b138-4617-a95b-28fe454637b4"},"vehicle_type_id":"4","last_reported":1737727685,"current_range_meters":25600,"station_id":"ce4bgi92rcd13ifvqb90","pricing_plan_id":"cebpf4jnsgd1na2vs0mg"},{"bike_id":"13508af3-59d7-43ca-901f-9de1438fa104","system_id":"levelo_inurba_marseille","lat":43.28887,"lon":5.38411,"is_reserved":false,"is_disabled":false,"rental_uris":{"android":"levelo://app?vid=13508af3-59d7-43ca-901f-9de1438fa104","ios":"levelo://app?vid=13508af3-59d7-43ca-901f-9de1438fa104"},"vehicle_type_id":"4","last_reported":1737727685,"current_range_meters":9600,"station_id":"ce4bhb92rcd13ifvqen0","pricing_plan_id":"cebpf4jnsgd1na2vs0mg"},{"bike_id":"abae30d7-015c-45d0-baf7-7bebb0c952c3","system_id":"levelo_inurba_marseille","lat":43.22936,"lon":5.35376,"is_reserved":false,"is_disabled":false,"rental_uris":{"android":"levelo://app?vid=abae30d7-015c-45d0-baf7-7bebb0c952c3","ios":"levelo://app?vid=abae30d7-015c-45d0-baf7-7bebb0c952c3"},"vehicle_type_id":"4","last_reported":1737727685,"current_range_meters":39200,"station_id":"cpo3532slgdg3j2ikp40","pricing_plan_id":"cebpf4jnsgd1na2vs0mg"},{"bike_id":"5ca1b0d9-e907-4880-8a5c-e9faab2c55a0","system_id":"levelo_inurba_marseille","lat":43.30559,"lon":5.36526,"is_reserved":false,"is_disabled":false,"rental_uris":{"android":"levelo://app?vid=5ca1b0d9-e907-4880-8a5c-e9faab2c55a0","ios":"levelo://app?vid=5ca1b0d9-e907-4880-8a5c-e9faab2c55a0"},"vehicle_type_id":"4","last_reported":1737727685,"current_range_meters":8800,"station_id":"ce4bgs12rcd13ifvqcag","pricing_plan_id":"cebpf4jnsgd1na2vs0mg"},{"bike_id":"7cf735bb-8134-492a-9917-0758b4117da3","system_id":"levelo_inurba_marseille","lat":43.29912,"lon":5.38143,"is_reserved":false,"is_disabled":false,"rental_uris":{"android":"levelo://app?vid=7cf735bb-8134-492a-9917-0758b4117da3","ios":"levelo://app?vid=7cf735bb-8134-492a-9917-0758b4117da3"},"vehicle_type_id":"4","last_reported":1737727685,"current_range_meters":26000,"station_id":"ce4bgj12rcd13ifvqbc0","pricing_plan_id":"cebpf4jnsgd1na2vs0mg"},{"bike_id":"0793f05d-0029-4d54-a0fe-9c0436426db5","system_id":"levelo_inurba_marseille","lat":43.23198,"lon":5.35544,"is_reserved":false,"is_disabled":false,"rental_uris":{"android":"levelo://app?vid=0793f05d-0029-4d54-a0fe-9c0436426db5","ios":"levelo://app?vid=0793f05d-0029-4d54-a0fe-9c0436426db5"},"vehicle_type_id":"4","last_reported":1737727685,"current_range_meters":28400,"station_id":"ce4bhu92rcd13ifvqi70","pricing_plan_id":"cebpf4jnsgd1na2vs0mg"},{"bike_id":"bf0caff8-c761-4304-9e8e-493fff0c2c72","system_id":"levelo_inurba_marseille","lat":43.27207,"lon":5.39184,"is_reserved":false,"is_disabled":false,"rental_uris":{"android":"levelo://app?vid=bf0caff8-c761-4304-9e8e-493fff0c2c72","ios":"levelo://app?vid=bf0caff8-c761-4304-9e8e-493fff0c2c72"},"vehicle_type_id":"4","last_reported":1737727685,"current_range_meters":12800,"station_id":"ce4bhhp2rcd13ifvqfm0","pricing_plan_id":"cebpf4jnsgd1na2vs0mg"},{"bike_id":"b3652e62-0380-4387-9478-0d519e935d2f","system_id":"levelo_inurba_marseille","lat":43.31113,"lon":5.37777,"is_reserved":false,"is_disabled":false,"rental_uris":{"android":"levelo://app?vid=b3652e62-0380-4387-9478-0d519e935d2f","ios":"levelo://app?vid=b3652e62-0380-4387-9478-0d519e935d2f"},"vehicle_type_id":"4","last_reported":1737727685,"current_range_meters":30400,"station_id":"ce4bgt92rcd13ifvqcg0","pricing_plan_id":"cebpf4jnsgd1na2vs0mg"},{"bike_id":"eb97554e-9784-452b-b85e-e8331efd4fe5","system_id":"levelo_inurba_marseille","lat":43.31436,"lon":5.36713,"is_reserved":false,"is_disabled":false,"rental_uris":{"android":"levelo://app?vid=eb97554e-9784-452b-b85e-e8331efd4fe5","ios":"levelo://app?vid=eb97554e-9784-452b-b85e-e8331efd4fe5"},"vehicle_type_id":"4","last_reported":1737727685,"current_range_meters":38800,"station_id":"","pricing_plan_id":"cebpf4jnsgd1na2vs0mg"},{"bike_id":"cb0ff26d-12db-4f4f-8a1e-edf0f3766303","system_id":"levelo_inurba_marseille","lat":43.3122,"lon":5.36851,"is_reserved":false,"is_disabled":false,"rental_uris":{"android":"levelo://app?vid=cb0ff26d-12db-4f4f-8a1e-edf0f3766303","ios":"levelo://app?vid=cb0ff26d-12db-4f4f-8a1e-edf0f3766303"},"vehicle_type_id":"4","last_reported":1737727685,"current_range_meters":18800,"station_id":"ce4bgl92rcd13ifvqbq0","pricing_plan_id":"cebpf4jnsgd1na2vs0mg"},{"bike_id":"6d80f215-ddf3-4448-abd9-11f3b32ea7fe","system_id":"levelo_inurba_marseille","lat":43.3109,"lon":5.42438,"is_reserved":false,"is_disabled":false,"rental_uris":{"android":"levelo://app?vid=6d80f215-ddf3-4448-abd9-11f3b32ea7fe","ios":"levelo://app?vid=6d80f215-ddf3-4448-abd9-11f3b32ea7fe"},"vehicle_type_id":"4","last_reported":1737727685,"current_range_meters":9200,"station_id":"ce4bhp92rcd13ifvqhag","pricing_plan_id":"cebpf4jnsgd1na2vs0mg"},{"bike_id":"025728b7-b6ec-4eb1-921e-b5a83c942a9b","system_id":"levelo_inurba_marseille","lat":43.30147,"lon":5.38075,"is_reserved":false,"is_disabled":false,"rental_uris":{"android":"levelo://app?vid=025728b7-b6ec-4eb1-921e-b5a83c942a9b","ios":"levelo://app?vid=025728b7-b6ec-4eb1-921e-b5a83c942a9b"},"vehicle_type_id":"4","last_reported":1737727685,"current_range_meters":34800,"station_id":"ce4bgjp2rcd13ifvqbh0","pricing_plan_id":"cebpf4jnsgd1na2vs0mg"},{"bike_id":"22ea9929-e21c-42f0-b68b-01dd0b91aa91","system_id":"levelo_inurba_marseille","lat":43.28899,"lon":5.36384,"is_reserved":false,"is_disabled":false,"rental_uris":{"android":"levelo://app?vid=22ea9929-e21c-42f0-b68b-01dd0b91aa91","ios":"levelo://app?vid=22ea9929-e21c-42f0-b68b-01dd0b91aa91"},"vehicle_type_id":"4","last_reported":1737727685,"current_range_meters":38800,"station_id":"","pricing_plan_id":"cebpf4jnsgd1na2vs0mg"},{"bike_id":"6e0e02f5-b0ae-450f-ad77-51511a2e44cf","system_id":"levelo_inurba_marseille","lat":43.30944,"lon":5.40191,"is_reserved":false,"is_disabled":true,"rental_uris":{"android":"levelo://app?vid=6e0e02f5-b0ae-450f-ad77-51511a2e44cf","ios":"levelo://app?vid=6e0e02f5-b0ae-450f-ad77-51511a2e44cf"},"vehicle_type_id":"4","last_reported":1737727685,"current_range_meters":25200,"station_id":"ce4bgvp2rcd13ifvqct0","pricing_plan_id":"cebpf4jnsgd1na2vs0mg"},{"bike_id":"367c1a4d-e3ef-4cc4-8a53-e7c1e322176a","system_id":"levelo_inurba_marseille","lat":43.301486,"lon":5.380877,"is_reserved":false,"is_disabled":false,"rental_uris":{"android":"levelo://app?vid=367c1a4d-e3ef-4cc4-8a53-e7c1e322176a","ios":"levelo://app?vid=367c1a4d-e3ef-4cc4-8a53-e7c1e322176a"},"vehicle_type_id":"4","last_reported":1737727685,"current_range_meters":39200,"station_id":"ce4bgjp2rcd13ifvqbh0","pricing_plan_id":"cebpf4jnsgd1na2vs0mg"},{"bike_id":"637cf45d-cd8a-4700-9a5f-fca22f97ab8f","system_id":"levelo_inurba_marseille","lat":43.27566,"lon":5.38399,"is_reserved":false,"is_disabled":false,"rental_uris":{"android":"levelo://app?vid=637cf45d-cd8a-4700-9a5f-fca22f97ab8f","ios":"levelo://app?vid=637cf45d-cd8a-4700-9a5f-fca22f97ab8f"},"vehicle_type_id":"4","last_reported":1737727685,"current_range_meters":39200,"station_id":"ce4bhh92rcd13ifvqfi0","pricing_plan_id":"cebpf4jnsgd1na2vs0mg"},{"bike_id":"e58551c5-5dc6-4272-b534-0ae34232ab0d","system_id":"levelo_inurba_marseille","lat":43.22931,"lon":5.35375,"is_reserved":false,"is_disabled":false,"rental_uris":{"android":"levelo://app?vid=e58551c5-5dc6-4272-b534-0ae34232ab0d","ios":"levelo://app?vid=e58551c5-5dc6-4272-b534-0ae34232ab0d"},"vehicle_type_id":"4","last_reported":1737727685,"current_range_meters":9600,"station_id":"cpo3532slgdg3j2ikp40","pricing_plan_id":"cebpf4jnsgd1na2vs0mg"},{"bike_id":"3169bea1-794e-4a56-bb06-3b17a235f305","system_id":"levelo_inurba_marseille","lat":43.25717,"lon":5.41113,"is_reserved":false,"is_disabled":false,"rental_uris":{"android":"levelo://app?vid=3169bea1-794e-4a56-bb06-3b17a235f305","ios":"levelo://app?vid=3169bea1-794e-4a56-bb06-3b17a235f305"},"vehicle_type_id":"4","last_reported":1737727685,"current_range_meters":38800,"station_id":"ce4bhkp2rcd13ifvqgd0","pricing_plan_id":"cebpf4jnsgd1na2vs0mg"},{"bike_id":"0f2a1312-e97a-449a-abfd-7818dd55f40f","system_id":"levelo_inurba_marseille","lat":43.32487,"lon":5.36558,"is_reserved":false,"is_disabled":false,"rental_uris":{"android":"levelo://app?vid=0f2a1312-e97a-449a-abfd-7818dd55f40f","ios":"levelo://app?vid=0f2a1312-e97a-449a-abfd-7818dd55f40f"},"vehicle_type_id":"4","last_reported":1737727685,"current_range_meters":18000,"station_id":"ce4bhs12rcd13ifvqhvg","pricing_plan_id":"cebpf4jnsgd1na2vs0mg"},{"bike_id":"056ed343-b9c5-4ee1-9000-c71459c47098","system_id":"levelo_inurba_marseille","lat":43.31731,"lon":5.40477,"is_reserved":false,"is_disabled":true,"rental_uris":{"android":"levelo://app?vid=056ed343-b9c5-4ee1-9000-c71459c47098","ios":"levelo://app?vid=056ed343-b9c5-4ee1-9000-c71459c47098"},"vehicle_type_id":"4","last_reported":1737727685,"current_range_meters":32000,"station_id":"","pricing_plan_id":"cebpf4jnsgd1na2vs0mg"},{"bike_id":"0f91c880-c9fc-4ac9-8972-986b782da834","system_id":"levelo_inurba_marseille","lat":43.29084,"lon":5.37232,"is_reserved":false,"is_disabled":false,"rental_uris":{"android":"levelo://app?vid=0f91c880-c9fc-4ac9-8972-986b782da834","ios":"levelo://app?vid=0f91c880-c9fc-4ac9-8972-986b782da834"},"vehicle_type_id":"4","last_reported":1737727685,"current_range_meters":36400,"station_id":"","pricing_plan_id":"cebpf4jnsgd1na2vs0mg"},{"bike_id":"8436acf0-1f80-41e1-8a4e-9bea51bc7fa6","system_id":"levelo_inurba_marseille","lat":43.30554,"lon":5.38417,"is_reserved":false,"is_disabled":false,"rental_uris":{"android":"levelo://app?vid=8436acf0-1f80-41e1-8a4e-9bea51bc7fa6","ios":"levelo://app?vid=8436acf0-1f80-41e1-8a4e-9bea51bc7fa6"},"vehicle_type_id":"4","last_reported":1737727685,"current_range_meters":38000,"station_id":"ce4bgg92rcd13ifvqb30","pricing_plan_id":"cebpf4jnsgd1na2vs0mg"},{"bike_id":"aca73e7e-fdc6-4173-80c4-6af15e95aff7","system_id":"levelo_inurba_marseille","lat":43.30145,"lon":5.38075,"is_reserved":false,"is_disabled":false,"rental_uris":{"android":"levelo://app?vid=aca73e7e-fdc6-4173-80c4-6af15e95aff7","ios":"levelo://app?vid=aca73e7e-fdc6-4173-80c4-6af15e95aff7"},"vehicle_type_id":"4","last_reported":1737727685,"current_range_meters":22800,"station_id":"ce4bgjp2rcd13ifvqbh0","pricing_plan_id":"cebpf4jnsgd1na2vs0mg"},{"bike_id":"7d01c9c2-01d8-4b93-841d-cd56a6790539","system_id":"levelo_inurba_marseille","lat":43.27176,"lon":5.40999,"is_reserved":false,"is_disabled":false,"rental_uris":{"android":"levelo://app?vid=7d01c9c2-01d8-4b93-841d-cd56a6790539","ios":"levelo://app?vid=7d01c9c2-01d8-4b93-841d-cd56a6790539"},"vehicle_type_id":"4","last_reported":1737727685,"current_range_meters":36000,"station_id":"ce4bhl12rcd13ifvqgf0","pricing_plan_id":"cebpf4jnsgd1na2vs0mg"},{"bike_id":"6ef9b078-758c-484c-88ff-72c3a69da2c0","system_id":"levelo_inurba_marseille","lat":43.33614,"lon":5.41006,"is_reserved":false,"is_disabled":false,"rental_uris":{"android":"levelo://app?vid=6ef9b078-758c-484c-88ff-72c3a69da2c0","ios":"levelo://app?vid=6ef9b078-758c-484c-88ff-72c3a69da2c0"},"vehicle_type_id":"4","last_reported":1737727685,"current_range_meters":38800,"station_id":"ce4bhqh2rcd13ifvqhmg","pricing_plan_id":"cebpf4jnsgd1na2vs0mg"},{"bike_id":"348d67ba-2781-43f3-ad02-99affac5e7a3","system_id":"levelo_inurba_marseille","lat":43.32662,"lon":5.41025,"is_reserved":false,"is_disabled":false,"rental_uris":{"android":"levelo://app?vid=348d67ba-2781-43f3-ad02-99affac5e7a3","ios":"levelo://app?vid=348d67ba-2781-43f3-ad02-99affac5e7a3"},"vehicle_type_id":"4","last_reported":1737727685,"current_range_meters":12000,"station_id":"ce4bhpp2rcd13ifvqhgg","pricing_plan_id":"cebpf4jnsgd1na2vs0mg"},{"bike_id":"7dafa7e7-757d-4898-abdf-cf5305599df2","system_id":"levelo_inurba_marseille","lat":43.29902,"lon":5.3749,"is_reserved":false,"is_disabled":false,"rental_uris":{"android":"levelo://app?vid=7dafa7e7-757d-4898-abdf-cf5305599df2","ios":"levelo://app?vid=7dafa7e7-757d-4898-abdf-cf5305599df2"},"vehicle_type_id":"4","last_reported":1737727685,"current_range_meters":8000,"station_id":"ce4bgjh2rcd13ifvqbg0","pricing_plan_id":"cebpf4jnsgd1na2vs0mg"},{"bike_id":"679b5402-f3cd-4b3a-851f-dbba5c1dbf66","system_id":"levelo_inurba_marseille","lat":43.29005,"lon":5.35605,"is_reserved":false,"is_disabled":false,"rental_uris":{"android":"levelo://app?vid=679b5402-f3cd-4b3a-851f-dbba5c1dbf66","ios":"levelo://app?vid=679b5402-f3cd-4b3a-851f-dbba5c1dbf66"},"vehicle_type_id":"4","last_reported":1737727685,"current_range_meters":32400,"station_id":"ce4bhb92rcd13ifvqen0","pricing_plan_id":"cebpf4jnsgd1na2vs0mg"},{"bike_id":"0fe514b9-c5bc-4d9d-92f5-76d9f8a1817e","system_id":"levelo_inurba_marseille","lat":43.28267,"lon":5.35059,"is_reserved":false,"is_disabled":false,"rental_uris":{"android":"levelo://app?vid=0fe514b9-c5bc-4d9d-92f5-76d9f8a1817e","ios":"levelo://app?vid=0fe514b9-c5bc-4d9d-92f5-76d9f8a1817e"},"vehicle_type_id":"4","last_reported":1737727685,"current_range_meters":6400,"station_id":"ce4bhbp2rcd13ifvqerg","pricing_plan_id":"cebpf4jnsgd1na2vs0mg"},{"bike_id":"4976480c-cdc2-4ba7-911a-6ff0383cca59","system_id":"levelo_inurba_marseille","lat":43.28946,"lon":5.39608,"is_reserved":false,"is_disabled":false,"rental_uris":{"android":"levelo://app?vid=4976480c-cdc2-4ba7-911a-6ff0383cca59","ios":"levelo://app?vid=4976480c-cdc2-4ba7-911a-6ff0383cca59"},"vehicle_type_id":"4","last_reported":1737727685,"current_range_meters":39200,"station_id":"ce4bh3h2rcd13ifvqdn0","pricing_plan_id":"cebpf4jnsgd1na2vs0mg"},{"bike_id":"76405985-5f5b-4382-aa14-60330cf5d3cb","system_id":"levelo_inurba_marseille","lat":43.3205,"lon":5.41541,"is_reserved":false,"is_disabled":false,"rental_uris":{"android":"levelo://app?vid=76405985-5f5b-4382-aa14-60330cf5d3cb","ios":"levelo://app?vid=76405985-5f5b-4382-aa14-60330cf5d3cb"},"vehicle_type_id":"4","last_reported":1737727685,"current_range_meters":30000,"station_id":"ce4bhq92rcd13ifvqhkg","pricing_plan_id":"cebpf4jnsgd1na2vs0mg"},{"bike_id":"3a6f15c1-7a8d-4b09-ab29-7846089a8eaf","system_id":"levelo_inurba_marseille","lat":43.29004,"lon":5.35505,"is_reserved":false,"is_disabled":false,"rental_uris":{"android":"levelo://app?vid=3a6f15c1-7a8d-4b09-ab29-7846089a8eaf","ios":"levelo://app?vid=3a6f15c1-7a8d-4b09-ab29-7846089a8eaf"},"vehicle_type_id":"4","last_reported":1737727685,"current_range_meters":38800,"station_id":"ce4bhb92rcd13ifvqen0","pricing_plan_id":"cebpf4jnsgd1na2vs0mg"},{"bike_id":"b47ad29b-efe1-44b0-8ebf-a7133ff31f80","system_id":"levelo_inurba_marseille","lat":43.29522,"lon":5.3941,"is_reserved":false,"is_disabled":false,"rental_uris":{"android":"levelo://app?vid=b47ad29b-efe1-44b0-8ebf-a7133ff31f80","ios":"levelo://app?vid=b47ad29b-efe1-44b0-8ebf-a7133ff31f80"},"vehicle_type_id":"4","last_reported":1737727685,"current_range_meters":17600,"station_id":"ce4bh292rcd13ifvqdf0","pricing_plan_id":"cebpf4jnsgd1na2vs0mg"},{"bike_id":"997c6f87-635b-4ed1-bc96-d47aeefe5cc8","system_id":"levelo_inurba_marseille","lat":43.28113,"lon":5.37853,"is_reserved":false,"is_disabled":true,"rental_uris":{"android":"levelo://app?vid=997c6f87-635b-4ed1-bc96-d47aeefe5cc8","ios":"levelo://app?vid=997c6f87-635b-4ed1-bc96-d47aeefe5cc8"},"vehicle_type_id":"4","last_reported":1737727685,"current_range_meters":400,"station_id":"ce4bha12rcd13ifvqee0","pricing_plan_id":"cebpf4jnsgd1na2vs0mg"},{"bike_id":"b214cadd-e18d-499d-bd11-205c2e43cccd","system_id":"levelo_inurba_marseille","lat":43.32107,"lon":5.36771,"is_reserved":false,"is_disabled":false,"rental_uris":{"android":"levelo://app?vid=b214cadd-e18d-499d-bd11-205c2e43cccd","ios":"levelo://app?vid=b214cadd-e18d-499d-bd11-205c2e43cccd"},"vehicle_type_id":"4","last_reported":1737727685,"current_range_meters":30400,"station_id":"ce4bhrh2rcd13ifvqhug","pricing_plan_id":"cebpf4jnsgd1na2vs0mg"},{"bike_id":"e179efed-9719-4409-8d7a-7ac74947d312","system_id":"levelo_inurba_marseille","lat":43.24071,"lon":5.37702,"is_reserved":false,"is_disabled":false,"rental_uris":{"android":"levelo://app?vid=e179efed-9719-4409-8d7a-7ac74947d312","ios":"levelo://app?vid=e179efed-9719-4409-8d7a-7ac74947d312"},"vehicle_type_id":"4","last_reported":1737727685,"current_range_meters":15200,"station_id":"ce4bhnp2rcd13ifvqgvg","pricing_plan_id":"cebpf4jnsgd1na2vs0mg"},{"bike_id":"61911627-aff3-49b3-8d7a-ea9f5e77eca7","system_id":"levelo_inurba_marseille","lat":43.2893,"lon":5.36628,"is_reserved":false,"is_disabled":false,"rental_uris":{"android":"levelo://app?vid=61911627-aff3-49b3-8d7a-ea9f5e77eca7","ios":"levelo://app?vid=61911627-aff3-49b3-8d7a-ea9f5e77eca7"},"vehicle_type_id":"4","last_reported":1737727685,"current_range_meters":32800,"station_id":"ce4bhap2rcd13ifvqek0","pricing_plan_id":"cebpf4jnsgd1na2vs0mg"},{"bike_id":"c491b9d7-9629-4215-bdb7-4fec9c846c78","system_id":"levelo_inurba_marseille","lat":43.3176,"lon":5.39014,"is_reserved":false,"is_disabled":false,"rental_uris":{"android":"levelo://app?vid=c491b9d7-9629-4215-bdb7-4fec9c846c78","ios":"levelo://app?vid=c491b9d7-9629-4215-bdb7-4fec9c846c78"},"vehicle_type_id":"4","last_reported":1737727685,"current_range_meters":36400,"station_id":"ce4bhqp2rcd13ifvqhng","pricing_plan_id":"cebpf4jnsgd1na2vs0mg"},{"bike_id":"7e47f404-af0f-45fe-82e0-fbcc8350a698","system_id":"levelo_inurba_marseille","lat":43.23063,"lon":5.35499,"is_reserved":false,"is_disabled":false,"rental_uris":{"android":"levelo://app?vid=7e47f404-af0f-45fe-82e0-fbcc8350a698","ios":"levelo://app?vid=7e47f404-af0f-45fe-82e0-fbcc8350a698"},"vehicle_type_id":"4","last_reported":1737727685,"current_range_meters":12400,"station_id":"cpo3342slgdg3j2ifvpg","pricing_plan_id":"cebpf4jnsgd1na2vs0mg"},{"bike_id":"f31c6a14-aeb6-480f-a9ec-92087ec19ba3","system_id":"levelo_inurba_marseille","lat":43.30575,"lon":5.36538,"is_reserved":false,"is_disabled":false,"rental_uris":{"android":"levelo://app?vid=f31c6a14-aeb6-480f-a9ec-92087ec19ba3","ios":"levelo://app?vid=f31c6a14-aeb6-480f-a9ec-92087ec19ba3"},"vehicle_type_id":"4","last_reported":1737727685,"current_range_meters":15200,"station_id":"ce4bgs12rcd13ifvqcag","pricing_plan_id":"cebpf4jnsgd1na2vs0mg"},{"bike_id":"3fbcca13-9928-4c88-aff6-e6d57fc48c42","system_id":"levelo_inurba_marseille","lat":43.29262,"lon":5.4092,"is_reserved":false,"is_disabled":false,"rental_uris":{"android":"levelo://app?vid=3fbcca13-9928-4c88-aff6-e6d57fc48c42","ios":"levelo://app?vid=3fbcca13-9928-4c88-aff6-e6d57fc48c42"},"vehicle_type_id":"4","last_reported":1737727685,"current_range_meters":12000,"station_id":"ce4bh192rcd13ifvqdc0","pricing_plan_id":"cebpf4jnsgd1na2vs0mg"},{"bike_id":"8e70d7bb-e740-4db0-b9cd-47e15173c075","system_id":"levelo_inurba_marseille","lat":43.30947,"lon":5.39035,"is_reserved":false,"is_disabled":true,"rental_uris":{"android":"levelo://app?vid=8e70d7bb-e740-4db0-b9cd-47e15173c075","ios":"levelo://app?vid=8e70d7bb-e740-4db0-b9cd-47e15173c075"},"vehicle_type_id":"4","last_reported":1737727685,"current_range_meters":800,"station_id":"ce4bgup2rcd13ifvqco0","pricing_plan_id":"cebpf4jnsgd1na2vs0mg"},{"bike_id":"be86d3f9-a8fa-4cc8-af16-6b8534331eb6","system_id":"levelo_inurba_marseille","lat":43.31327,"lon":5.36782,"is_reserved":false,"is_disabled":false,"rental_uris":{"android":"levelo://app?vid=be86d3f9-a8fa-4cc8-af16-6b8534331eb6","ios":"levelo://app?vid=be86d3f9-a8fa-4cc8-af16-6b8534331eb6"},"vehicle_type_id":"4","last_reported":1737727685,"current_range_meters":32000,"station_id":"","pricing_plan_id":"cebpf4jnsgd1na2vs0mg"},{"bike_id":"7218d20e-6ade-4c14-9f86-3a45d86de5b5","system_id":"levelo_inurba_marseille","lat":43.28374,"lon":5.38622,"is_reserved":false,"is_disabled":false,"rental_uris":{"android":"levelo://app?vid=7218d20e-6ade-4c14-9f86-3a45d86de5b5","ios":"levelo://app?vid=7218d20e-6ade-4c14-9f86-3a45d86de5b5"},"vehicle_type_id":"4","last_reported":1737727685,"current_range_meters":35200,"station_id":"ce4bh492rcd13ifvqdvg","pricing_plan_id":"cebpf4jnsgd1na2vs0mg"},{"bike_id":"0bc71879-f319-4ffa-a1d8-dc0c68ac136c","system_id":"levelo_inurba_marseille","lat":43.2963,"lon":5.3716,"is_reserved":false,"is_disabled":false,"rental_uris":{"android":"levelo://app?vid=0bc71879-f319-4ffa-a1d8-dc0c68ac136c","ios":"levelo://app?vid=0bc71879-f319-4ffa-a1d8-dc0c68ac136c"},"vehicle_type_id":"4","last_reported":1737727685,"current_range_meters":17600,"station_id":"ce4bgnh2rcd13ifvqc0g","pricing_plan_id":"cebpf4jnsgd1na2vs0mg"},{"bike_id":"26103d86-85c8-4212-a459-a0d77584a130","system_id":"levelo_inurba_marseille","lat":43.25498,"lon":5.37652,"is_reserved":false,"is_disabled":false,"rental_uris":{"android":"levelo://app?vid=26103d86-85c8-4212-a459-a0d77584a130","ios":"levelo://app?vid=26103d86-85c8-4212-a459-a0d77584a130"},"vehicle_type_id":"4","last_reported":1737727685,"current_range_meters":20800,"station_id":"ce4bhh12rcd13ifvqff0","pricing_plan_id":"cebpf4jnsgd1na2vs0mg"},{"bike_id":"6d1c7757-cbfa-452f-8195-daacd34f212b","system_id":"levelo_inurba_marseille","lat":43.23065,"lon":5.35492,"is_reserved":false,"is_disabled":true,"rental_uris":{"android":"levelo://app?vid=6d1c7757-cbfa-452f-8195-daacd34f212b","ios":"levelo://app?vid=6d1c7757-cbfa-452f-8195-daacd34f212b"},"vehicle_type_id":"4","last_reported":1737727685,"current_range_meters":800,"station_id":"cpo3342slgdg3j2ifvpg","pricing_plan_id":"cebpf4jnsgd1na2vs0mg"},{"bike_id":"f21cb485-de69-4cd7-b75a-a98e5ec1d243","system_id":"levelo_inurba_marseille","lat":43.28665,"lon":5.38676,"is_reserved":false,"is_disabled":false,"rental_uris":{"android":"levelo://app?vid=f21cb485-de69-4cd7-b75a-a98e5ec1d243","ios":"levelo://app?vid=f21cb485-de69-4cd7-b75a-a98e5ec1d243"},"vehicle_type_id":"4","last_reported":1737727685,"current_range_meters":8000,"station_id":"ce4bh492rcd13ifvqdug","pricing_plan_id":"cebpf4jnsgd1na2vs0mg"},{"bike_id":"2564c0de-58fc-4c88-89df-c0dad47b5784","system_id":"levelo_inurba_marseille","lat":43.29631,"lon":5.4059,"is_reserved":false,"is_disabled":false,"rental_uris":{"android":"levelo://app?vid=2564c0de-58fc-4c88-89df-c0dad47b5784","ios":"levelo://app?vid=2564c0de-58fc-4c88-89df-c0dad47b5784"},"vehicle_type_id":"4","last_reported":1737727685,"current_range_meters":24800,"station_id":"ce4bh0h2rcd13ifvqd60","pricing_plan_id":"cebpf4jnsgd1na2vs0mg"},{"bike_id":"c24e43f8-35b2-47fa-a77f-1a6fa1cd9848","system_id":"levelo_inurba_marseille","lat":43.28343,"lon":5.38106,"is_reserved":false,"is_disabled":false,"rental_uris":{"android":"levelo://app?vid=c24e43f8-35b2-47fa-a77f-1a6fa1cd9848","ios":"levelo://app?vid=c24e43f8-35b2-47fa-a77f-1a6fa1cd9848"},"vehicle_type_id":"4","last_reported":1737727685,"current_range_meters":20800,"station_id":"ce4bh412rcd13ifvqdr0","pricing_plan_id":"cebpf4jnsgd1na2vs0mg"},{"bike_id":"f253fc82-7ca1-4c38-a41a-566478bb536e","system_id":"levelo_inurba_marseille","lat":43.28059,"lon":5.36929,"is_reserved":false,"is_disabled":false,"rental_uris":{"android":"levelo://app?vid=f253fc82-7ca1-4c38-a41a-566478bb536e","ios":"levelo://app?vid=f253fc82-7ca1-4c38-a41a-566478bb536e"},"vehicle_type_id":"4","last_reported":1737727685,"current_range_meters":36000,"station_id":"ce4bha12rcd13ifvqef0","pricing_plan_id":"cebpf4jnsgd1na2vs0mg"},{"bike_id":"9838cc78-2b53-49d3-ae13-82df62c4fd64","system_id":"levelo_inurba_marseille","lat":43.28432,"lon":5.40934,"is_reserved":false,"is_disabled":true,"rental_uris":{"android":"levelo://app?vid=9838cc78-2b53-49d3-ae13-82df62c4fd64","ios":"levelo://app?vid=9838cc78-2b53-49d3-ae13-82df62c4fd64"},"vehicle_type_id":"4","last_reported":1737727685,"current_range_meters":800,"station_id":"","pricing_plan_id":"cebpf4jnsgd1na2vs0mg"},{"bike_id":"bf096a89-ee72-4f37-85bd-7b3cf9f0cb41","system_id":"levelo_inurba_marseille","lat":43.31931,"lon":5.37893,"is_reserved":false,"is_disabled":false,"rental_uris":{"android":"levelo://app?vid=bf096a89-ee72-4f37-85bd-7b3cf9f0cb41","ios":"levelo://app?vid=bf096a89-ee72-4f37-85bd-7b3cf9f0cb41"},"vehicle_type_id":"4","last_reported":1737727685,"current_range_meters":35200,"station_id":"","pricing_plan_id":"cebpf4jnsgd1na2vs0mg"},{"bike_id":"41a6bb9c-77a1-4db5-9d9c-5a801f4c91cc","system_id":"levelo_inurba_marseille","lat":43.2466,"lon":5.38159,"is_reserved":false,"is_disabled":false,"rental_uris":{"android":"levelo://app?vid=41a6bb9c-77a1-4db5-9d9c-5a801f4c91cc","ios":"levelo://app?vid=41a6bb9c-77a1-4db5-9d9c-5a801f4c91cc"},"vehicle_type_id":"4","last_reported":1737727685,"current_range_meters":11600,"station_id":"ce4bhih2rcd13ifvqfr0","pricing_plan_id":"cebpf4jnsgd1na2vs0mg"},{"bike_id":"11410044-3034-4881-b749-c4d08783cac0","system_id":"levelo_inurba_marseille","lat":43.28085,"lon":5.39679,"is_reserved":false,"is_disabled":false,"rental_uris":{"android":"levelo://app?vid=11410044-3034-4881-b749-c4d08783cac0","ios":"levelo://app?vid=11410044-3034-4881-b749-c4d08783cac0"},"vehicle_type_id":"4","last_reported":1737727685,"current_range_meters":9600,"station_id":"ce4bho12rcd13ifvqh2g","pricing_plan_id":"cebpf4jnsgd1na2vs0mg"},{"bike_id":"8e7bc3c1-5d5c-46d7-be1a-98294d0f2ae4","system_id":"levelo_inurba_marseille","lat":43.25864,"lon":5.39899,"is_reserved":false,"is_disabled":false,"rental_uris":{"android":"levelo://app?vid=8e7bc3c1-5d5c-46d7-be1a-98294d0f2ae4","ios":"levelo://app?vid=8e7bc3c1-5d5c-46d7-be1a-98294d0f2ae4"},"vehicle_type_id":"4","last_reported":1737727685,"current_range_meters":6400,"station_id":"ce4bhl92rcd13ifvqghg","pricing_plan_id":"cebpf4jnsgd1na2vs0mg"},{"bike_id":"f8e7dff2-9a80-403c-84ca-ecb7d12b188e","system_id":"levelo_inurba_marseille","lat":43.2962,"lon":5.37711,"is_reserved":false,"is_disabled":false,"rental_uris":{"android":"levelo://app?vid=f8e7dff2-9a80-403c-84ca-ecb7d12b188e","ios":"levelo://app?vid=f8e7dff2-9a80-403c-84ca-ecb7d12b188e"},"vehicle_type_id":"4","last_reported":1737727685,"current_range_meters":27200,"station_id":"ce4bgi92rcd13ifvqb90","pricing_plan_id":"cebpf4jnsgd1na2vs0mg"},{"bike_id":"96bd59ea-dbbd-49c2-b26b-9369c7ed90ac","system_id":"levelo_inurba_marseille","lat":43.30462,"lon":5.37903,"is_reserved":false,"is_disabled":false,"rental_uris":{"android":"levelo://app?vid=96bd59ea-dbbd-49c2-b26b-9369c7ed90ac","ios":"levelo://app?vid=96bd59ea-dbbd-49c2-b26b-9369c7ed90ac"},"vehicle_type_id":"4","last_reported":1737727685,"current_range_meters":38000,"station_id":"ce4bgup2rcd13ifvqcn0","pricing_plan_id":"cebpf4jnsgd1na2vs0mg"},{"bike_id":"c964a905-9270-455d-8da3-260e623933e5","system_id":"levelo_inurba_marseille","lat":43.2669,"lon":5.38275,"is_reserved":false,"is_disabled":false,"rental_uris":{"android":"levelo://app?vid=c964a905-9270-455d-8da3-260e623933e5","ios":"levelo://app?vid=c964a905-9270-455d-8da3-260e623933e5"},"vehicle_type_id":"4","last_reported":1737727685,"current_range_meters":38800,"station_id":"ce4bhg92rcd13ifvqf90","pricing_plan_id":"cebpf4jnsgd1na2vs0mg"},{"bike_id":"acef03d8-97d1-48ef-9d3a-64066f1db0ec","system_id":"levelo_inurba_marseille","lat":43.28155,"lon":5.42643,"is_reserved":false,"is_disabled":false,"rental_uris":{"android":"levelo://app?vid=acef03d8-97d1-48ef-9d3a-64066f1db0ec","ios":"levelo://app?vid=acef03d8-97d1-48ef-9d3a-64066f1db0ec"},"vehicle_type_id":"4","last_reported":1737727685,"current_range_meters":36800,"station_id":"ce4bhnh2rcd13ifvqgug","pricing_plan_id":"cebpf4jnsgd1na2vs0mg"},{"bike_id":"2068ce80-1659-42b4-945e-19e0e5710b37","system_id":"levelo_inurba_marseille","lat":43.29744,"lon":5.36608,"is_reserved":false,"is_disabled":false,"rental_uris":{"android":"levelo://app?vid=2068ce80-1659-42b4-945e-19e0e5710b37","ios":"levelo://app?vid=2068ce80-1659-42b4-945e-19e0e5710b37"},"vehicle_type_id":"4","last_reported":1737727685,"current_range_meters":38800,"station_id":"ce4bgn12rcd13ifvqbt0","pricing_plan_id":"cebpf4jnsgd1na2vs0mg"},{"bike_id":"c0df63a5-409a-4548-90bc-467eb4865fe0","system_id":"levelo_inurba_marseille","lat":43.30306,"lon":5.36925,"is_reserved":false,"is_disabled":true,"rental_uris":{"android":"levelo://app?vid=c0df63a5-409a-4548-90bc-467eb4865fe0","ios":"levelo://app?vid=c0df63a5-409a-4548-90bc-467eb4865fe0"},"vehicle_type_id":"4","last_reported":1737727685,"current_range_meters":400,"station_id":"ce4bgqh2rcd13ifvqc5g","pricing_plan_id":"cebpf4jnsgd1na2vs0mg"},{"bike_id":"0d523cb4-824a-4f30-9f94-216dd58ad552","system_id":"levelo_inurba_marseille","lat":43.31991,"lon":5.38107,"is_reserved":false,"is_disabled":false,"rental_uris":{"android":"levelo://app?vid=0d523cb4-824a-4f30-9f94-216dd58ad552","ios":"levelo://app?vid=0d523cb4-824a-4f30-9f94-216dd58ad552"},"vehicle_type_id":"4","last_reported":1737727685,"current_range_meters":39200,"station_id":"ce4bhr12rcd13ifvqhpg","pricing_plan_id":"cebpf4jnsgd1na2vs0mg"},{"bike_id":"b1350c89-a295-42ef-b3a2-f01d5d977dd1","system_id":"levelo_inurba_marseille","lat":43.30163,"lon":5.38086,"is_reserved":false,"is_disabled":false,"rental_uris":{"android":"levelo://app?vid=b1350c89-a295-42ef-b3a2-f01d5d977dd1","ios":"levelo://app?vid=b1350c89-a295-42ef-b3a2-f01d5d977dd1"},"vehicle_type_id":"4","last_reported":1737727685,"current_range_meters":16400,"station_id":"ce4bgjp2rcd13ifvqbh0","pricing_plan_id":"cebpf4jnsgd1na2vs0mg"},{"bike_id":"5f2c0c87-0fad-479b-a16f-7e7c4f720c82","system_id":"levelo_inurba_marseille","lat":43.32665,"lon":5.41001,"is_reserved":false,"is_disabled":false,"rental_uris":{"android":"levelo://app?vid=5f2c0c87-0fad-479b-a16f-7e7c4f720c82","ios":"levelo://app?vid=5f2c0c87-0fad-479b-a16f-7e7c4f720c82"},"vehicle_type_id":"4","last_reported":1737727685,"current_range_meters":9600,"station_id":"ce4bhpp2rcd13ifvqhgg","pricing_plan_id":"cebpf4jnsgd1na2vs0mg"},{"bike_id":"b5c17b1d-88fa-4ac1-b8d0-4683e1e91b87","system_id":"levelo_inurba_marseille","lat":43.30637,"lon":5.4009,"is_reserved":false,"is_disabled":false,"rental_uris":{"android":"levelo://app?vid=b5c17b1d-88fa-4ac1-b8d0-4683e1e91b87","ios":"levelo://app?vid=b5c17b1d-88fa-4ac1-b8d0-4683e1e91b87"},"vehicle_type_id":"4","last_reported":1737727685,"current_range_meters":18000,"station_id":"ce4bh112rcd13ifvqda0","pricing_plan_id":"cebpf4jnsgd1na2vs0mg"},{"bike_id":"8c2b8941-505d-4ab0-ac26-1f219db1069b","system_id":"levelo_inurba_marseille","lat":43.29913,"lon":5.37472,"is_reserved":false,"is_disabled":false,"rental_uris":{"android":"levelo://app?vid=8c2b8941-505d-4ab0-ac26-1f219db1069b","ios":"levelo://app?vid=8c2b8941-505d-4ab0-ac26-1f219db1069b"},"vehicle_type_id":"4","last_reported":1737727685,"current_range_meters":25600,"station_id":"ce4bgjh2rcd13ifvqbg0","pricing_plan_id":"cebpf4jnsgd1na2vs0mg"},{"bike_id":"32e81628-da76-4705-88bd-2fbd5802e7f3","system_id":"levelo_inurba_marseille","lat":43.28272,"lon":5.35067,"is_reserved":false,"is_disabled":false,"rental_uris":{"android":"levelo://app?vid=32e81628-da76-4705-88bd-2fbd5802e7f3","ios":"levelo://app?vid=32e81628-da76-4705-88bd-2fbd5802e7f3"},"vehicle_type_id":"4","last_reported":1737727685,"current_range_meters":11600,"station_id":"ce4bhbp2rcd13ifvqerg","pricing_plan_id":"cebpf4jnsgd1na2vs0mg"},{"bike_id":"347dd29e-9a9e-4a37-8ddd-6e2050aaff03","system_id":"levelo_inurba_marseille","lat":43.337319,"lon":5.392036,"is_reserved":false,"is_disabled":false,"rental_uris":{"android":"levelo://app?vid=347dd29e-9a9e-4a37-8ddd-6e2050aaff03","ios":"levelo://app?vid=347dd29e-9a9e-4a37-8ddd-6e2050aaff03"},"vehicle_type_id":"4","last_reported":1737727685,"current_range_meters":38000,"station_id":"ce4bhr92rcd13ifvqhsg","pricing_plan_id":"cebpf4jnsgd1na2vs0mg"},{"bike_id":"f275ebe6-1a69-4f3c-9164-01179e7481f0","system_id":"levelo_inurba_marseille","lat":43.30792,"lon":5.38165,"is_reserved":false,"is_disabled":false,"rental_uris":{"android":"levelo://app?vid=f275ebe6-1a69-4f3c-9164-01179e7481f0","ios":"levelo://app?vid=f275ebe6-1a69-4f3c-9164-01179e7481f0"},"vehicle_type_id":"4","last_reported":1737727685,"current_range_meters":2000,"station_id":"ce4bgt12rcd13ifvqce0","pricing_plan_id":"cebpf4jnsgd1na2vs0mg"},{"bike_id":"d7dbec56-3cb4-42dd-970e-b1e8e7b8f352","system_id":"levelo_inurba_marseille","lat":43.26689,"lon":5.38266,"is_reserved":false,"is_disabled":false,"rental_uris":{"android":"levelo://app?vid=d7dbec56-3cb4-42dd-970e-b1e8e7b8f352","ios":"levelo://app?vid=d7dbec56-3cb4-42dd-970e-b1e8e7b8f352"},"vehicle_type_id":"4","last_reported":1737727685,"current_range_meters":39200,"station_id":"ce4bhg92rcd13ifvqf90","pricing_plan_id":"cebpf4jnsgd1na2vs0mg"},{"bike_id":"68f2ccb3-f174-4230-b667-71cfa289852c","system_id":"levelo_inurba_marseille","lat":43.28078,"lon":5.39661,"is_reserved":false,"is_disabled":false,"rental_uris":{"android":"levelo://app?vid=68f2ccb3-f174-4230-b667-71cfa289852c","ios":"levelo://app?vid=68f2ccb3-f174-4230-b667-71cfa289852c"},"vehicle_type_id":"4","last_reported":1737727685,"current_range_meters":39200,"station_id":"ce4bho12rcd13ifvqh2g","pricing_plan_id":"cebpf4jnsgd1na2vs0mg"},{"bike_id":"f8ea2046-cba1-432a-b3c5-e15c802e7278","system_id":"levelo_inurba_marseille","lat":43.2386,"lon":5.36316,"is_reserved":false,"is_disabled":false,"rental_uris":{"android":"levelo://app?vid=f8ea2046-cba1-432a-b3c5-e15c802e7278","ios":"levelo://app?vid=f8ea2046-cba1-432a-b3c5-e15c802e7278"},"vehicle_type_id":"4","last_reported":1737727685,"current_range_meters":32800,"station_id":"","pricing_plan_id":"cebpf4jnsgd1na2vs0mg"},{"bike_id":"90b8a1b1-ad54-458d-9362-f5197bbdf048","system_id":"levelo_inurba_marseille","lat":43.229235,"lon":5.353851,"is_reserved":false,"is_disabled":false,"rental_uris":{"android":"levelo://app?vid=90b8a1b1-ad54-458d-9362-f5197bbdf048","ios":"levelo://app?vid=90b8a1b1-ad54-458d-9362-f5197bbdf048"},"vehicle_type_id":"4","last_reported":1737727685,"current_range_meters":38800,"station_id":"cpo3532slgdg3j2ikp40","pricing_plan_id":"cebpf4jnsgd1na2vs0mg"},{"bike_id":"cebd03b8-a014-4c00-96a2-7707513f0d2e","system_id":"levelo_inurba_marseille","lat":43.24077,"lon":5.37752,"is_reserved":false,"is_disabled":false,"rental_uris":{"android":"levelo://app?vid=cebd03b8-a014-4c00-96a2-7707513f0d2e","ios":"levelo://app?vid=cebd03b8-a014-4c00-96a2-7707513f0d2e"},"vehicle_type_id":"4","last_reported":1737727685,"current_range_meters":22000,"station_id":"ce4bhnp2rcd13ifvqgvg","pricing_plan_id":"cebpf4jnsgd1na2vs0mg"},{"bike_id":"ac331144-232c-43b7-9c44-ec84952821c0","system_id":"levelo_inurba_marseille","lat":43.2917,"lon":5.37152,"is_reserved":false,"is_disabled":false,"rental_uris":{"android":"levelo://app?vid=ac331144-232c-43b7-9c44-ec84952821c0","ios":"levelo://app?vid=ac331144-232c-43b7-9c44-ec84952821c0"},"vehicle_type_id":"4","last_reported":1737727685,"current_range_meters":37600,"station_id":"ce4bha92rcd13ifvqeh0","pricing_plan_id":"cebpf4jnsgd1na2vs0mg"},{"bike_id":"aeed93c1-1251-421e-800b-4599ccc76163","system_id":"levelo_inurba_marseille","lat":43.30282,"lon":5.37685,"is_reserved":false,"is_disabled":false,"rental_uris":{"android":"levelo://app?vid=aeed93c1-1251-421e-800b-4599ccc76163","ios":"levelo://app?vid=aeed93c1-1251-421e-800b-4599ccc76163"},"vehicle_type_id":"4","last_reported":1737727685,"current_range_meters":27200,"station_id":"ce4bguh2rcd13ifvqcj0","pricing_plan_id":"cebpf4jnsgd1na2vs0mg"},{"bike_id":"3d7e2def-7f22-4c76-94e3-d6127e08c603","system_id":"levelo_inurba_marseille","lat":43.29528,"lon":5.37505,"is_reserved":false,"is_disabled":false,"rental_uris":{"android":"levelo://app?vid=3d7e2def-7f22-4c76-94e3-d6127e08c603","ios":"levelo://app?vid=3d7e2def-7f22-4c76-94e3-d6127e08c603"},"vehicle_type_id":"4","last_reported":1737727685,"current_range_meters":17200,"station_id":"ce4bgkp2rcd13ifvqbmg","pricing_plan_id":"cebpf4jnsgd1na2vs0mg"},{"bike_id":"bb2db7cf-fb84-43f4-9c35-5216dad9ffdd","system_id":"levelo_inurba_marseille","lat":43.2846,"lon":5.35907,"is_reserved":false,"is_disabled":false,"rental_uris":{"android":"levelo://app?vid=bb2db7cf-fb84-43f4-9c35-5216dad9ffdd","ios":"levelo://app?vid=bb2db7cf-fb84-43f4-9c35-5216dad9ffdd"},"vehicle_type_id":"4","last_reported":1737727685,"current_range_meters":32400,"station_id":"ce4bhah2rcd13ifvqei0","pricing_plan_id":"cebpf4jnsgd1na2vs0mg"},{"bike_id":"8dc3e11f-53bc-4a08-bbe7-fe59403f5dd7","system_id":"levelo_inurba_marseille","lat":43.295145,"lon":5.375015,"is_reserved":false,"is_disabled":false,"rental_uris":{"android":"levelo://app?vid=8dc3e11f-53bc-4a08-bbe7-fe59403f5dd7","ios":"levelo://app?vid=8dc3e11f-53bc-4a08-bbe7-fe59403f5dd7"},"vehicle_type_id":"4","last_reported":1737727685,"current_range_meters":30400,"station_id":"ce4bgkp2rcd13ifvqbmg","pricing_plan_id":"cebpf4jnsgd1na2vs0mg"},{"bike_id":"a7c06c28-8421-4c83-81f0-f6765b9b02ab","system_id":"levelo_inurba_marseille","lat":43.30663,"lon":5.40096,"is_reserved":false,"is_disabled":false,"rental_uris":{"android":"levelo://app?vid=a7c06c28-8421-4c83-81f0-f6765b9b02ab","ios":"levelo://app?vid=a7c06c28-8421-4c83-81f0-f6765b9b02ab"},"vehicle_type_id":"4","last_reported":1737727685,"current_range_meters":27200,"station_id":"ce4bgip2rcd13ifvqbb0","pricing_plan_id":"cebpf4jnsgd1na2vs0mg"},{"bike_id":"2f9056aa-e2f5-4804-8730-cdb4f864d832","system_id":"levelo_inurba_marseille","lat":43.29416,"lon":5.3863,"is_reserved":false,"is_disabled":false,"rental_uris":{"android":"levelo://app?vid=2f9056aa-e2f5-4804-8730-cdb4f864d832","ios":"levelo://app?vid=2f9056aa-e2f5-4804-8730-cdb4f864d832"},"vehicle_type_id":"4","last_reported":1737727685,"current_range_meters":30400,"station_id":"ce4bh2h2rcd13ifvqdh0","pricing_plan_id":"cebpf4jnsgd1na2vs0mg"},{"bike_id":"ce90fea6-ff2a-4d0b-bd4f-45ced0acf4c0","system_id":"levelo_inurba_marseille","lat":43.32359,"lon":5.36729,"is_reserved":false,"is_disabled":false,"rental_uris":{"android":"levelo://app?vid=ce90fea6-ff2a-4d0b-bd4f-45ced0acf4c0","ios":"levelo://app?vid=ce90fea6-ff2a-4d0b-bd4f-45ced0acf4c0"},"vehicle_type_id":"4","last_reported":1737727685,"current_range_meters":8000,"station_id":"ce4bhsh2rcd13ifvqi2g","pricing_plan_id":"cebpf4jnsgd1na2vs0mg"},{"bike_id":"a4b30308-87e3-4d2d-b823-f29e8de7f8d6","system_id":"levelo_inurba_marseille","lat":43.30582,"lon":5.38431,"is_reserved":false,"is_disabled":false,"rental_uris":{"android":"levelo://app?vid=a4b30308-87e3-4d2d-b823-f29e8de7f8d6","ios":"levelo://app?vid=a4b30308-87e3-4d2d-b823-f29e8de7f8d6"},"vehicle_type_id":"4","last_reported":1737727685,"current_range_meters":38800,"station_id":"ce4bgg92rcd13ifvqb30","pricing_plan_id":"cebpf4jnsgd1na2vs0mg"},{"bike_id":"a5085c9e-42dd-4758-9ef9-ea13c3f02b13","system_id":"levelo_inurba_marseille","lat":43.29234,"lon":5.39321,"is_reserved":false,"is_disabled":false,"rental_uris":{"android":"levelo://app?vid=a5085c9e-42dd-4758-9ef9-ea13c3f02b13","ios":"levelo://app?vid=a5085c9e-42dd-4758-9ef9-ea13c3f02b13"},"vehicle_type_id":"4","last_reported":1737727685,"current_range_meters":38400,"station_id":"ce4bh192rcd13ifvqdd0","pricing_plan_id":"cebpf4jnsgd1na2vs0mg"},{"bike_id":"399bd6f9-9d2d-42e4-8e26-63c33d5a5c28","system_id":"levelo_inurba_marseille","lat":43.29719,"lon":5.37684,"is_reserved":false,"is_disabled":false,"rental_uris":{"android":"levelo://app?vid=399bd6f9-9d2d-42e4-8e26-63c33d5a5c28","ios":"levelo://app?vid=399bd6f9-9d2d-42e4-8e26-63c33d5a5c28"},"vehicle_type_id":"4","last_reported":1737727685,"current_range_meters":26000,"station_id":"ce4bgkh2rcd13ifvqbl0","pricing_plan_id":"cebpf4jnsgd1na2vs0mg"},{"bike_id":"08ddc84c-0cf0-43b6-8658-02e253c04c3a","system_id":"levelo_inurba_marseille","lat":43.30151,"lon":5.38077,"is_reserved":false,"is_disabled":false,"rental_uris":{"android":"levelo://app?vid=08ddc84c-0cf0-43b6-8658-02e253c04c3a","ios":"levelo://app?vid=08ddc84c-0cf0-43b6-8658-02e253c04c3a"},"vehicle_type_id":"4","last_reported":1737727685,"current_range_meters":32400,"station_id":"ce4bgjp2rcd13ifvqbh0","pricing_plan_id":"cebpf4jnsgd1na2vs0mg"},{"bike_id":"cf6285a9-f75c-4f38-bb8a-70ce67a4ee67","system_id":"levelo_inurba_marseille","lat":43.25826,"lon":5.39426,"is_reserved":false,"is_disabled":true,"rental_uris":{"android":"levelo://app?vid=cf6285a9-f75c-4f38-bb8a-70ce67a4ee67","ios":"levelo://app?vid=cf6285a9-f75c-4f38-bb8a-70ce67a4ee67"},"vehicle_type_id":"4","last_reported":1737727685,"current_range_meters":1200,"station_id":"ce4bhip2rcd13ifvqft0","pricing_plan_id":"cebpf4jnsgd1na2vs0mg"},{"bike_id":"2adfa857-69f2-473f-add8-67be9eb9122e","system_id":"levelo_inurba_marseille","lat":43.267,"lon":5.38268,"is_reserved":false,"is_disabled":false,"rental_uris":{"android":"levelo://app?vid=2adfa857-69f2-473f-add8-67be9eb9122e","ios":"levelo://app?vid=2adfa857-69f2-473f-add8-67be9eb9122e"},"vehicle_type_id":"4","last_reported":1737727685,"current_range_meters":38400,"station_id":"ce4bhg92rcd13ifvqf90","pricing_plan_id":"cebpf4jnsgd1na2vs0mg"},{"bike_id":"78b03264-0c2d-45b5-9b0a-cf7cc454c0c6","system_id":"levelo_inurba_marseille","lat":43.32485,"lon":5.36585,"is_reserved":false,"is_disabled":false,"rental_uris":{"android":"levelo://app?vid=78b03264-0c2d-45b5-9b0a-cf7cc454c0c6","ios":"levelo://app?vid=78b03264-0c2d-45b5-9b0a-cf7cc454c0c6"},"vehicle_type_id":"4","last_reported":1737727685,"current_range_meters":36800,"station_id":"ce4bhs12rcd13ifvqhvg","pricing_plan_id":"cebpf4jnsgd1na2vs0mg"},{"bike_id":"a5f7b0ec-6daa-4e15-b0da-df118092518f","system_id":"levelo_inurba_marseille","lat":43.2314,"lon":5.43683,"is_reserved":false,"is_disabled":false,"rental_uris":{"android":"levelo://app?vid=a5f7b0ec-6daa-4e15-b0da-df118092518f","ios":"levelo://app?vid=a5f7b0ec-6daa-4e15-b0da-df118092518f"},"vehicle_type_id":"4","last_reported":1737727685,"current_range_meters":8000,"station_id":"ce4bhmp2rcd13ifvqgog","pricing_plan_id":"cebpf4jnsgd1na2vs0mg"},{"bike_id":"610b06d9-d6b8-493e-925e-29958eda2fc5","system_id":"levelo_inurba_marseille","lat":43.2737,"lon":5.36248,"is_reserved":false,"is_disabled":false,"rental_uris":{"android":"levelo://app?vid=610b06d9-d6b8-493e-925e-29958eda2fc5","ios":"levelo://app?vid=610b06d9-d6b8-493e-925e-29958eda2fc5"},"vehicle_type_id":"4","last_reported":1737727685,"current_range_meters":39200,"station_id":"ce4bhbh2rcd13ifvqeo0","pricing_plan_id":"cebpf4jnsgd1na2vs0mg"},{"bike_id":"9840a83d-1bab-46f1-89c9-f05e08ee23ea","system_id":"levelo_inurba_marseille","lat":43.30803,"lon":5.43513,"is_reserved":false,"is_disabled":false,"rental_uris":{"android":"levelo://app?vid=9840a83d-1bab-46f1-89c9-f05e08ee23ea","ios":"levelo://app?vid=9840a83d-1bab-46f1-89c9-f05e08ee23ea"},"vehicle_type_id":"4","last_reported":1737727685,"current_range_meters":24400,"station_id":"ce4bhph2rcd13ifvqheg","pricing_plan_id":"cebpf4jnsgd1na2vs0mg"},{"bike_id":"023f02e4-d42e-4077-b6f9-04bbb5191eab","system_id":"levelo_inurba_marseille","lat":43.26796,"lon":5.39424,"is_reserved":false,"is_disabled":false,"rental_uris":{"android":"levelo://app?vid=023f02e4-d42e-4077-b6f9-04bbb5191eab","ios":"levelo://app?vid=023f02e4-d42e-4077-b6f9-04bbb5191eab"},"vehicle_type_id":"4","last_reported":1737727685,"current_range_meters":28400,"station_id":"ce4bhh12rcd13ifvqfg0","pricing_plan_id":"cebpf4jnsgd1na2vs0mg"},{"bike_id":"86e74e3b-996a-4975-88d9-d5a7ed191bca","system_id":"levelo_inurba_marseille","lat":43.30588,"lon":5.3661,"is_reserved":false,"is_disabled":false,"rental_uris":{"android":"levelo://app?vid=86e74e3b-996a-4975-88d9-d5a7ed191bca","ios":"levelo://app?vid=86e74e3b-996a-4975-88d9-d5a7ed191bca"},"vehicle_type_id":"4","last_reported":1737727685,"current_range_meters":38800,"station_id":"ce4bgs12rcd13ifvqcag","pricing_plan_id":"cebpf4jnsgd1na2vs0mg"},{"bike_id":"d343207a-e626-4c4b-9459-03ea3bbf0835","system_id":"levelo_inurba_marseille","lat":43.3014,"lon":5.37407,"is_reserved":false,"is_disabled":false,"rental_uris":{"android":"levelo://app?vid=d343207a-e626-4c4b-9459-03ea3bbf0835","ios":"levelo://app?vid=d343207a-e626-4c4b-9459-03ea3bbf0835"},"vehicle_type_id":"4","last_reported":1737727685,"current_range_meters":24800,"station_id":"ce4bgs92rcd13ifvqcc0","pricing_plan_id":"cebpf4jnsgd1na2vs0mg"},{"bike_id":"2f8162cd-03ff-45ad-bf09-11062068c91e","system_id":"levelo_inurba_marseille","lat":43.30603,"lon":5.37231,"is_reserved":false,"is_disabled":false,"rental_uris":{"android":"levelo://app?vid=2f8162cd-03ff-45ad-bf09-11062068c91e","ios":"levelo://app?vid=2f8162cd-03ff-45ad-bf09-11062068c91e"},"vehicle_type_id":"4","last_reported":1737727685,"current_range_meters":34000,"station_id":"ce4bgqh2rcd13ifvqc4g","pricing_plan_id":"cebpf4jnsgd1na2vs0mg"},{"bike_id":"f8d47279-9ba1-467f-a5c2-954f8bee37fb","system_id":"levelo_inurba_marseille","lat":43.32539,"lon":5.41467,"is_reserved":false,"is_disabled":false,"rental_uris":{"android":"levelo://app?vid=f8d47279-9ba1-467f-a5c2-954f8bee37fb","ios":"levelo://app?vid=f8d47279-9ba1-467f-a5c2-954f8bee37fb"},"vehicle_type_id":"4","last_reported":1737727685,"current_range_meters":38800,"station_id":"ce4bhq12rcd13ifvqhhg","pricing_plan_id":"cebpf4jnsgd1na2vs0mg"},{"bike_id":"2afdcabe-dcc3-4e0e-b5ed-4c6ae62d4c73","system_id":"levelo_inurba_marseille","lat":43.29535,"lon":5.37511,"is_reserved":false,"is_disabled":false,"rental_uris":{"android":"levelo://app?vid=2afdcabe-dcc3-4e0e-b5ed-4c6ae62d4c73","ios":"levelo://app?vid=2afdcabe-dcc3-4e0e-b5ed-4c6ae62d4c73"},"vehicle_type_id":"4","last_reported":1737727685,"current_range_meters":32400,"station_id":"ce4bgkp2rcd13ifvqbmg","pricing_plan_id":"cebpf4jnsgd1na2vs0mg"},{"bike_id":"c9d3d75f-a4b9-4903-88df-7e14dd239622","system_id":"levelo_inurba_marseille","lat":43.25498,"lon":5.37648,"is_reserved":false,"is_disabled":true,"rental_uris":{"android":"levelo://app?vid=c9d3d75f-a4b9-4903-88df-7e14dd239622","ios":"levelo://app?vid=c9d3d75f-a4b9-4903-88df-7e14dd239622"},"vehicle_type_id":"4","last_reported":1737727685,"current_range_meters":0,"station_id":"ce4bhh12rcd13ifvqff0","pricing_plan_id":"cebpf4jnsgd1na2vs0mg"},{"bike_id":"85c4b304-0a15-4fc1-b75d-cfc16b5afe60","system_id":"levelo_inurba_marseille","lat":43.22937,"lon":5.35387,"is_reserved":false,"is_disabled":false,"rental_uris":{"android":"levelo://app?vid=85c4b304-0a15-4fc1-b75d-cfc16b5afe60","ios":"levelo://app?vid=85c4b304-0a15-4fc1-b75d-cfc16b5afe60"},"vehicle_type_id":"4","last_reported":1737727685,"current_range_meters":38800,"station_id":"cpo3532slgdg3j2ikp40","pricing_plan_id":"cebpf4jnsgd1na2vs0mg"},{"bike_id":"72bca693-6299-400e-8130-c642ac080ed7","system_id":"levelo_inurba_marseille","lat":43.31705,"lon":5.437,"is_reserved":false,"is_disabled":false,"rental_uris":{"android":"levelo://app?vid=72bca693-6299-400e-8130-c642ac080ed7","ios":"levelo://app?vid=72bca693-6299-400e-8130-c642ac080ed7"},"vehicle_type_id":"4","last_reported":1737727685,"current_range_meters":39200,"station_id":"ce4bhp92rcd13ifvqhcg","pricing_plan_id":"cebpf4jnsgd1na2vs0mg"},{"bike_id":"4b50d96f-1b11-4ffb-b7f5-d554c8eb5ef9","system_id":"levelo_inurba_marseille","lat":43.29604,"lon":5.37737,"is_reserved":false,"is_disabled":false,"rental_uris":{"android":"levelo://app?vid=4b50d96f-1b11-4ffb-b7f5-d554c8eb5ef9","ios":"levelo://app?vid=4b50d96f-1b11-4ffb-b7f5-d554c8eb5ef9"},"vehicle_type_id":"4","last_reported":1737727685,"current_range_meters":38000,"station_id":"ce4bgi92rcd13ifvqb90","pricing_plan_id":"cebpf4jnsgd1na2vs0mg"},{"bike_id":"f2e3b5c2-d077-4514-b020-0850f3051bdb","system_id":"levelo_inurba_marseille","lat":43.29581,"lon":5.37741,"is_reserved":false,"is_disabled":false,"rental_uris":{"android":"levelo://app?vid=f2e3b5c2-d077-4514-b020-0850f3051bdb","ios":"levelo://app?vid=f2e3b5c2-d077-4514-b020-0850f3051bdb"},"vehicle_type_id":"4","last_reported":1737727685,"current_range_meters":38800,"station_id":"ce4bgi92rcd13ifvqb90","pricing_plan_id":"cebpf4jnsgd1na2vs0mg"},{"bike_id":"2aeb1fe7-2455-4a37-a484-bbbf324c7cf2","system_id":"levelo_inurba_marseille","lat":43.32104,"lon":5.36787,"is_reserved":false,"is_disabled":false,"rental_uris":{"android":"levelo://app?vid=2aeb1fe7-2455-4a37-a484-bbbf324c7cf2","ios":"levelo://app?vid=2aeb1fe7-2455-4a37-a484-bbbf324c7cf2"},"vehicle_type_id":"4","last_reported":1737727685,"current_range_meters":7200,"station_id":"ce4bhrh2rcd13ifvqhug","pricing_plan_id":"cebpf4jnsgd1na2vs0mg"},{"bike_id":"9249f55d-6126-4db1-bbf5-ef1b2b1d4d2e","system_id":"levelo_inurba_marseille","lat":43.262,"lon":5.37931,"is_reserved":false,"is_disabled":false,"rental_uris":{"android":"levelo://app?vid=9249f55d-6126-4db1-bbf5-ef1b2b1d4d2e","ios":"levelo://app?vid=9249f55d-6126-4db1-bbf5-ef1b2b1d4d2e"},"vehicle_type_id":"4","last_reported":1737727685,"current_range_meters":6800,"station_id":"ce4bhjp2rcd13ifvqg90","pricing_plan_id":"cebpf4jnsgd1na2vs0mg"},{"bike_id":"7adee84c-870a-46b5-b69e-0c07649ea134","system_id":"levelo_inurba_marseille","lat":43.33673,"lon":5.39065,"is_reserved":false,"is_disabled":false,"rental_uris":{"android":"levelo://app?vid=7adee84c-870a-46b5-b69e-0c07649ea134","ios":"levelo://app?vid=7adee84c-870a-46b5-b69e-0c07649ea134"},"vehicle_type_id":"4","last_reported":1737727685,"current_range_meters":14400,"station_id":"ce4bhr92rcd13ifvqhsg","pricing_plan_id":"cebpf4jnsgd1na2vs0mg"},{"bike_id":"1d51cb01-b3d9-4cd3-98cf-a30cf755d9d6","system_id":"levelo_inurba_marseille","lat":43.3086,"lon":5.36742,"is_reserved":false,"is_disabled":false,"rental_uris":{"android":"levelo://app?vid=1d51cb01-b3d9-4cd3-98cf-a30cf755d9d6","ios":"levelo://app?vid=1d51cb01-b3d9-4cd3-98cf-a30cf755d9d6"},"vehicle_type_id":"4","last_reported":1737727685,"current_range_meters":28000,"station_id":"","pricing_plan_id":"cebpf4jnsgd1na2vs0mg"},{"bike_id":"7a55f28a-5a5b-4ca4-9825-dee123c17d08","system_id":"levelo_inurba_marseille","lat":43.32094,"lon":5.36744,"is_reserved":false,"is_disabled":false,"rental_uris":{"android":"levelo://app?vid=7a55f28a-5a5b-4ca4-9825-dee123c17d08","ios":"levelo://app?vid=7a55f28a-5a5b-4ca4-9825-dee123c17d08"},"vehicle_type_id":"4","last_reported":1737727685,"current_range_meters":37600,"station_id":"ce4bhrh2rcd13ifvqhug","pricing_plan_id":"cebpf4jnsgd1na2vs0mg"},{"bike_id":"fa8d78eb-e4d3-478c-924c-1bcea3e36896","system_id":"levelo_inurba_marseille","lat":43.27309,"lon":5.3908,"is_reserved":false,"is_disabled":false,"rental_uris":{"android":"levelo://app?vid=fa8d78eb-e4d3-478c-924c-1bcea3e36896","ios":"levelo://app?vid=fa8d78eb-e4d3-478c-924c-1bcea3e36896"},"vehicle_type_id":"4","last_reported":1737727685,"current_range_meters":38800,"station_id":"ce4bhgp2rcd13ifvqfe0","pricing_plan_id":"cebpf4jnsgd1na2vs0mg"},{"bike_id":"ffe2742c-407f-46b3-8ff8-4a379a0d59c5","system_id":"levelo_inurba_marseille","lat":43.25504,"lon":5.37654,"is_reserved":false,"is_disabled":false,"rental_uris":{"android":"levelo://app?vid=ffe2742c-407f-46b3-8ff8-4a379a0d59c5","ios":"levelo://app?vid=ffe2742c-407f-46b3-8ff8-4a379a0d59c5"},"vehicle_type_id":"4","last_reported":1737727685,"current_range_meters":39200,"station_id":"ce4bhh12rcd13ifvqff0","pricing_plan_id":"cebpf4jnsgd1na2vs0mg"},{"bike_id":"2b1e0dda-6b2a-4529-addf-f76226c429bf","system_id":"levelo_inurba_marseille","lat":43.28856,"lon":5.39324,"is_reserved":false,"is_disabled":false,"rental_uris":{"android":"levelo://app?vid=2b1e0dda-6b2a-4529-addf-f76226c429bf","ios":"levelo://app?vid=2b1e0dda-6b2a-4529-addf-f76226c429bf"},"vehicle_type_id":"4","last_reported":1737727685,"current_range_meters":36800,"station_id":"ce4bh2p2rcd13ifvqdi0","pricing_plan_id":"cebpf4jnsgd1na2vs0mg"},{"bike_id":"d1fd2ae7-5482-45b5-bcfc-33cd0daefc2f","system_id":"levelo_inurba_marseille","lat":43.29277,"lon":5.36843,"is_reserved":false,"is_disabled":false,"rental_uris":{"android":"levelo://app?vid=d1fd2ae7-5482-45b5-bcfc-33cd0daefc2f","ios":"levelo://app?vid=d1fd2ae7-5482-45b5-bcfc-33cd0daefc2f"},"vehicle_type_id":"4","last_reported":1737727685,"current_range_meters":10800,"station_id":"ce4bhbp2rcd13ifvqesg","pricing_plan_id":"cebpf4jnsgd1na2vs0mg"},{"bike_id":"35614ed7-a0df-4792-bca2-a1978fcd9fab","system_id":"levelo_inurba_marseille","lat":43.30814,"lon":5.43522,"is_reserved":false,"is_disabled":false,"rental_uris":{"android":"levelo://app?vid=35614ed7-a0df-4792-bca2-a1978fcd9fab","ios":"levelo://app?vid=35614ed7-a0df-4792-bca2-a1978fcd9fab"},"vehicle_type_id":"4","last_reported":1737727685,"current_range_meters":38000,"station_id":"ce4bhph2rcd13ifvqheg","pricing_plan_id":"cebpf4jnsgd1na2vs0mg"},{"bike_id":"c2b1d898-8d95-4b49-b324-a24f4f18a4a0","system_id":"levelo_inurba_marseille","lat":43.32485,"lon":5.41473,"is_reserved":false,"is_disabled":false,"rental_uris":{"android":"levelo://app?vid=c2b1d898-8d95-4b49-b324-a24f4f18a4a0","ios":"levelo://app?vid=c2b1d898-8d95-4b49-b324-a24f4f18a4a0"},"vehicle_type_id":"4","last_reported":1737727685,"current_range_meters":36000,"station_id":"ce4bhq12rcd13ifvqhhg","pricing_plan_id":"cebpf4jnsgd1na2vs0mg"},{"bike_id":"c4bc9673-4c21-45f8-aaf7-c6b820b9a20d","system_id":"levelo_inurba_marseille","lat":43.27299,"lon":5.39077,"is_reserved":false,"is_disabled":false,"rental_uris":{"android":"levelo://app?vid=c4bc9673-4c21-45f8-aaf7-c6b820b9a20d","ios":"levelo://app?vid=c4bc9673-4c21-45f8-aaf7-c6b820b9a20d"},"vehicle_type_id":"4","last_reported":1737727685,"current_range_meters":30000,"station_id":"ce4bhgp2rcd13ifvqfe0","pricing_plan_id":"cebpf4jnsgd1na2vs0mg"},{"bike_id":"c54e2cdb-17af-4e0f-8c88-aed74c10e6da","system_id":"levelo_inurba_marseille","lat":43.30636,"lon":5.40095,"is_reserved":false,"is_disabled":false,"rental_uris":{"android":"levelo://app?vid=c54e2cdb-17af-4e0f-8c88-aed74c10e6da","ios":"levelo://app?vid=c54e2cdb-17af-4e0f-8c88-aed74c10e6da"},"vehicle_type_id":"4","last_reported":1737727685,"current_range_meters":20400,"station_id":"ce4bh112rcd13ifvqda0","pricing_plan_id":"cebpf4jnsgd1na2vs0mg"},{"bike_id":"09057ee2-1d0a-4d63-80bf-e8c03b010258","system_id":"levelo_inurba_marseille","lat":43.29914,"lon":5.38158,"is_reserved":false,"is_disabled":false,"rental_uris":{"android":"levelo://app?vid=09057ee2-1d0a-4d63-80bf-e8c03b010258","ios":"levelo://app?vid=09057ee2-1d0a-4d63-80bf-e8c03b010258"},"vehicle_type_id":"4","last_reported":1737727685,"current_range_meters":38800,"station_id":"ce4bgj12rcd13ifvqbc0","pricing_plan_id":"cebpf4jnsgd1na2vs0mg"},{"bike_id":"5bee970e-55e4-45cd-9813-21f9bc57e761","system_id":"levelo_inurba_marseille","lat":43.31329,"lon":5.39696,"is_reserved":false,"is_disabled":false,"rental_uris":{"android":"levelo://app?vid=5bee970e-55e4-45cd-9813-21f9bc57e761","ios":"levelo://app?vid=5bee970e-55e4-45cd-9813-21f9bc57e761"},"vehicle_type_id":"4","last_reported":1737727685,"current_range_meters":3600,"station_id":"ce4bgvp2rcd13ifvqcu0","pricing_plan_id":"cebpf4jnsgd1na2vs0mg"},{"bike_id":"85411516-6be2-4df9-a75f-bfddb23079f0","system_id":"levelo_inurba_marseille","lat":43.30536,"lon":5.38423,"is_reserved":false,"is_disabled":false,"rental_uris":{"android":"levelo://app?vid=85411516-6be2-4df9-a75f-bfddb23079f0","ios":"levelo://app?vid=85411516-6be2-4df9-a75f-bfddb23079f0"},"vehicle_type_id":"4","last_reported":1737727685,"current_range_meters":18800,"station_id":"ce4bgg92rcd13ifvqb30","pricing_plan_id":"cebpf4jnsgd1na2vs0mg"},{"bike_id":"5f760866-c598-4660-b386-c9c889f0733e","system_id":"levelo_inurba_marseille","lat":43.26052,"lon":5.3941,"is_reserved":false,"is_disabled":false,"rental_uris":{"android":"levelo://app?vid=5f760866-c598-4660-b386-c9c889f0733e","ios":"levelo://app?vid=5f760866-c598-4660-b386-c9c889f0733e"},"vehicle_type_id":"4","last_reported":1737727685,"current_range_meters":38800,"station_id":"ce4bhh92rcd13ifvqfj0","pricing_plan_id":"cebpf4jnsgd1na2vs0mg"},{"bike_id":"55b20604-4cf8-4f50-b839-84e960529479","system_id":"levelo_inurba_marseille","lat":43.30133,"lon":5.39861,"is_reserved":false,"is_disabled":false,"rental_uris":{"android":"levelo://app?vid=55b20604-4cf8-4f50-b839-84e960529479","ios":"levelo://app?vid=55b20604-4cf8-4f50-b839-84e960529479"},"vehicle_type_id":"4","last_reported":1737727685,"current_range_meters":8000,"station_id":"ce4bh0h2rcd13ifvqd40","pricing_plan_id":"cebpf4jnsgd1na2vs0mg"},{"bike_id":"dca7396c-192d-4247-bc53-b1f87e22543b","system_id":"levelo_inurba_marseille","lat":43.30136,"lon":5.39867,"is_reserved":false,"is_disabled":false,"rental_uris":{"android":"levelo://app?vid=dca7396c-192d-4247-bc53-b1f87e22543b","ios":"levelo://app?vid=dca7396c-192d-4247-bc53-b1f87e22543b"},"vehicle_type_id":"4","last_reported":1737727685,"current_range_meters":38400,"station_id":"ce4bh0h2rcd13ifvqd40","pricing_plan_id":"cebpf4jnsgd1na2vs0mg"},{"bike_id":"60b77f9a-69f2-41c5-8a09-8b846889dcac","system_id":"levelo_inurba_marseille","lat":43.29839,"lon":5.3627,"is_reserved":false,"is_disabled":false,"rental_uris":{"android":"levelo://app?vid=60b77f9a-69f2-41c5-8a09-8b846889dcac","ios":"levelo://app?vid=60b77f9a-69f2-41c5-8a09-8b846889dcac"},"vehicle_type_id":"4","last_reported":1737727685,"current_range_meters":26000,"station_id":"ce4bgpp2rcd13ifvqc3g","pricing_plan_id":"cebpf4jnsgd1na2vs0mg"},{"bike_id":"4f8ebbf2-cc33-405d-ba5f-be41b234b0ec","system_id":"levelo_inurba_marseille","lat":43.31359,"lon":5.38498,"is_reserved":false,"is_disabled":false,"rental_uris":{"android":"levelo://app?vid=4f8ebbf2-cc33-405d-ba5f-be41b234b0ec","ios":"levelo://app?vid=4f8ebbf2-cc33-405d-ba5f-be41b234b0ec"},"vehicle_type_id":"4","last_reported":1737727685,"current_range_meters":4000,"station_id":"ce4bgt92rcd13ifvqcf0","pricing_plan_id":"cebpf4jnsgd1na2vs0mg"},{"bike_id":"bce5b737-eb70-4339-9352-9b379016152f","system_id":"levelo_inurba_marseille","lat":43.30163,"lon":5.37416,"is_reserved":false,"is_disabled":false,"rental_uris":{"android":"levelo://app?vid=bce5b737-eb70-4339-9352-9b379016152f","ios":"levelo://app?vid=bce5b737-eb70-4339-9352-9b379016152f"},"vehicle_type_id":"4","last_reported":1737727685,"current_range_meters":38000,"station_id":"ce4bgs92rcd13ifvqcc0","pricing_plan_id":"cebpf4jnsgd1na2vs0mg"},{"bike_id":"c5332c32-f726-4644-b824-15429296eaca","system_id":"levelo_inurba_marseille","lat":43.25488,"lon":5.37604,"is_reserved":false,"is_disabled":false,"rental_uris":{"android":"levelo://app?vid=c5332c32-f726-4644-b824-15429296eaca","ios":"levelo://app?vid=c5332c32-f726-4644-b824-15429296eaca"},"vehicle_type_id":"4","last_reported":1737727685,"current_range_meters":22400,"station_id":"ce4bhh12rcd13ifvqff0","pricing_plan_id":"cebpf4jnsgd1na2vs0mg"},{"bike_id":"8ae4b2f4-6d2b-401d-8573-75540cef5fc5","system_id":"levelo_inurba_marseille","lat":43.29684,"lon":5.3729,"is_reserved":false,"is_disabled":false,"rental_uris":{"android":"levelo://app?vid=8ae4b2f4-6d2b-401d-8573-75540cef5fc5","ios":"levelo://app?vid=8ae4b2f4-6d2b-401d-8573-75540cef5fc5"},"vehicle_type_id":"4","last_reported":1737727685,"current_range_meters":36800,"station_id":"ce4bgk12rcd13ifvqbj0","pricing_plan_id":"cebpf4jnsgd1na2vs0mg"},{"bike_id":"c43e1550-7770-4a3c-b79f-723d89b586de","system_id":"levelo_inurba_marseille","lat":43.29594,"lon":5.381,"is_reserved":false,"is_disabled":false,"rental_uris":{"android":"levelo://app?vid=c43e1550-7770-4a3c-b79f-723d89b586de","ios":"levelo://app?vid=c43e1550-7770-4a3c-b79f-723d89b586de"},"vehicle_type_id":"4","last_reported":1737727685,"current_range_meters":27200,"station_id":"ce4bgl12rcd13ifvqbo0","pricing_plan_id":"cebpf4jnsgd1na2vs0mg"},{"bike_id":"9863b7f9-4316-4322-9f6c-3cc66b0448e2","system_id":"levelo_inurba_marseille","lat":43.279439,"lon":5.389008,"is_reserved":false,"is_disabled":true,"rental_uris":{"android":"levelo://app?vid=9863b7f9-4316-4322-9f6c-3cc66b0448e2","ios":"levelo://app?vid=9863b7f9-4316-4322-9f6c-3cc66b0448e2"},"vehicle_type_id":"4","last_reported":1737727685,"current_range_meters":20000,"station_id":"","pricing_plan_id":"cebpf4jnsgd1na2vs0mg"},{"bike_id":"da5d9e2a-6569-4e24-a1b1-a8b0dd28c817","system_id":"levelo_inurba_marseille","lat":43.32505,"lon":5.41446,"is_reserved":false,"is_disabled":false,"rental_uris":{"android":"levelo://app?vid=da5d9e2a-6569-4e24-a1b1-a8b0dd28c817","ios":"levelo://app?vid=da5d9e2a-6569-4e24-a1b1-a8b0dd28c817"},"vehicle_type_id":"4","last_reported":1737727685,"current_range_meters":36400,"station_id":"ce4bhq12rcd13ifvqhhg","pricing_plan_id":"cebpf4jnsgd1na2vs0mg"},{"bike_id":"b6469807-58db-4201-ae75-21723f2a516a","system_id":"levelo_inurba_marseille","lat":43.26563,"lon":5.38989,"is_reserved":false,"is_disabled":false,"rental_uris":{"android":"levelo://app?vid=b6469807-58db-4201-ae75-21723f2a516a","ios":"levelo://app?vid=b6469807-58db-4201-ae75-21723f2a516a"},"vehicle_type_id":"4","last_reported":1737727685,"current_range_meters":38800,"station_id":"ce4bhe12rcd13ifvqf30","pricing_plan_id":"cebpf4jnsgd1na2vs0mg"},{"bike_id":"03a88346-5d38-4a15-bb0b-5a5c5ad8fd1e","system_id":"levelo_inurba_marseille","lat":43.29224,"lon":5.36072,"is_reserved":false,"is_disabled":false,"rental_uris":{"android":"levelo://app?vid=03a88346-5d38-4a15-bb0b-5a5c5ad8fd1e","ios":"levelo://app?vid=03a88346-5d38-4a15-bb0b-5a5c5ad8fd1e"},"vehicle_type_id":"4","last_reported":1737727685,"current_range_meters":9200,"station_id":"ce4bhbh2rcd13ifvqeqg","pricing_plan_id":"cebpf4jnsgd1na2vs0mg"},{"bike_id":"1451baee-679d-4d56-b07f-349b5e186d75","system_id":"levelo_inurba_marseille","lat":43.287187,"lon":5.379363,"is_reserved":false,"is_disabled":false,"rental_uris":{"android":"levelo://app?vid=1451baee-679d-4d56-b07f-349b5e186d75","ios":"levelo://app?vid=1451baee-679d-4d56-b07f-349b5e186d75"},"vehicle_type_id":"4","last_reported":1737727685,"current_range_meters":24000,"station_id":"ce4bh9p2rcd13ifvqec0","pricing_plan_id":"cebpf4jnsgd1na2vs0mg"},{"bike_id":"d830a3c3-4eac-45db-9962-0cce1e47df79","system_id":"levelo_inurba_marseille","lat":43.28153,"lon":5.4265,"is_reserved":false,"is_disabled":false,"rental_uris":{"android":"levelo://app?vid=d830a3c3-4eac-45db-9962-0cce1e47df79","ios":"levelo://app?vid=d830a3c3-4eac-45db-9962-0cce1e47df79"},"vehicle_type_id":"4","last_reported":1737727685,"current_range_meters":11200,"station_id":"ce4bhnh2rcd13ifvqgug","pricing_plan_id":"cebpf4jnsgd1na2vs0mg"},{"bike_id":"eb82a4fa-b45d-4357-8410-47675bcbc568","system_id":"levelo_inurba_marseille","lat":43.29604,"lon":5.3675,"is_reserved":false,"is_disabled":false,"rental_uris":{"android":"levelo://app?vid=eb82a4fa-b45d-4357-8410-47675bcbc568","ios":"levelo://app?vid=eb82a4fa-b45d-4357-8410-47675bcbc568"},"vehicle_type_id":"4","last_reported":1737727685,"current_range_meters":38800,"station_id":"ce4bgph2rcd13ifvqc2g","pricing_plan_id":"cebpf4jnsgd1na2vs0mg"},{"bike_id":"fb96c333-d038-4b1c-9f7d-d3a5abfa6e1c","system_id":"levelo_inurba_marseille","lat":43.324831,"lon":5.365742,"is_reserved":false,"is_disabled":false,"rental_uris":{"android":"levelo://app?vid=fb96c333-d038-4b1c-9f7d-d3a5abfa6e1c","ios":"levelo://app?vid=fb96c333-d038-4b1c-9f7d-d3a5abfa6e1c"},"vehicle_type_id":"4","last_reported":1737727685,"current_range_meters":20400,"station_id":"ce4bhs12rcd13ifvqhvg","pricing_plan_id":"cebpf4jnsgd1na2vs0mg"},{"bike_id":"00e1d855-2733-4980-a589-bd48cdd9ffb4","system_id":"levelo_inurba_marseille","lat":43.28029,"lon":5.38668,"is_reserved":false,"is_disabled":false,"rental_uris":{"android":"levelo://app?vid=00e1d855-2733-4980-a589-bd48cdd9ffb4","ios":"levelo://app?vid=00e1d855-2733-4980-a589-bd48cdd9ffb4"},"vehicle_type_id":"4","last_reported":1737727685,"current_range_meters":2800,"station_id":"ce4bhh12rcd13ifvqff0","pricing_plan_id":"cebpf4jnsgd1na2vs0mg"},{"bike_id":"934196af-5ffb-4509-b6e8-608b435748a6","system_id":"levelo_inurba_marseille","lat":43.31538,"lon":5.38036,"is_reserved":false,"is_disabled":false,"rental_uris":{"android":"levelo://app?vid=934196af-5ffb-4509-b6e8-608b435748a6","ios":"levelo://app?vid=934196af-5ffb-4509-b6e8-608b435748a6"},"vehicle_type_id":"4","last_reported":1737727685,"current_range_meters":38000,"station_id":"ce4bhsp2rcd13ifvqi50","pricing_plan_id":"cebpf4jnsgd1na2vs0mg"},{"bike_id":"c400706d-11d8-4109-af7f-04e1a2259d9b","system_id":"levelo_inurba_marseille","lat":43.29907,"lon":5.43668,"is_reserved":false,"is_disabled":false,"rental_uris":{"android":"levelo://app?vid=c400706d-11d8-4109-af7f-04e1a2259d9b","ios":"levelo://app?vid=c400706d-11d8-4109-af7f-04e1a2259d9b"},"vehicle_type_id":"4","last_reported":1737727685,"current_range_meters":6400,"station_id":"ce4bhpp2rcd13ifvqhfg","pricing_plan_id":"cebpf4jnsgd1na2vs0mg"},{"bike_id":"71f52d6b-b04a-44ac-bcaf-49c5bd066bef","system_id":"levelo_inurba_marseille","lat":43.26694,"lon":5.38266,"is_reserved":false,"is_disabled":false,"rental_uris":{"android":"levelo://app?vid=71f52d6b-b04a-44ac-bcaf-49c5bd066bef","ios":"levelo://app?vid=71f52d6b-b04a-44ac-bcaf-49c5bd066bef"},"vehicle_type_id":"4","last_reported":1737727685,"current_range_meters":38000,"station_id":"ce4bhg92rcd13ifvqf90","pricing_plan_id":"cebpf4jnsgd1na2vs0mg"},{"bike_id":"2010e529-df67-4b55-8c45-87076498f2d5","system_id":"levelo_inurba_marseille","lat":43.337444,"lon":5.374475,"is_reserved":false,"is_disabled":false,"rental_uris":{"android":"levelo://app?vid=2010e529-df67-4b55-8c45-87076498f2d5","ios":"levelo://app?vid=2010e529-df67-4b55-8c45-87076498f2d5"},"vehicle_type_id":"4","last_reported":1737727685,"current_range_meters":33600,"station_id":"ce4bh0h2rcd13ifvqd60","pricing_plan_id":"cebpf4jnsgd1na2vs0mg"},{"bike_id":"5472cc75-d955-498b-8ae6-058e90d06ac7","system_id":"levelo_inurba_marseille","lat":43.28153,"lon":5.42653,"is_reserved":false,"is_disabled":false,"rental_uris":{"android":"levelo://app?vid=5472cc75-d955-498b-8ae6-058e90d06ac7","ios":"levelo://app?vid=5472cc75-d955-498b-8ae6-058e90d06ac7"},"vehicle_type_id":"4","last_reported":1737727685,"current_range_meters":13600,"station_id":"ce4bhnh2rcd13ifvqgug","pricing_plan_id":"cebpf4jnsgd1na2vs0mg"},{"bike_id":"7c78a755-c7f5-4f07-a96b-621451d47948","system_id":"levelo_inurba_marseille","lat":43.29913,"lon":5.43692,"is_reserved":false,"is_disabled":false,"rental_uris":{"android":"levelo://app?vid=7c78a755-c7f5-4f07-a96b-621451d47948","ios":"levelo://app?vid=7c78a755-c7f5-4f07-a96b-621451d47948"},"vehicle_type_id":"4","last_reported":1737727685,"current_range_meters":8000,"station_id":"ce4bhpp2rcd13ifvqhfg","pricing_plan_id":"cebpf4jnsgd1na2vs0mg"},{"bike_id":"32b6ca88-74ef-44ca-8cf1-8c56cd1b9220","system_id":"levelo_inurba_marseille","lat":43.26688,"lon":5.38254,"is_reserved":false,"is_disabled":false,"rental_uris":{"android":"levelo://app?vid=32b6ca88-74ef-44ca-8cf1-8c56cd1b9220","ios":"levelo://app?vid=32b6ca88-74ef-44ca-8cf1-8c56cd1b9220"},"vehicle_type_id":"4","last_reported":1737727685,"current_range_meters":8000,"station_id":"ce4bhg92rcd13ifvqf90","pricing_plan_id":"cebpf4jnsgd1na2vs0mg"},{"bike_id":"e23e161c-2daa-4daa-8bdb-54016901a11c","system_id":"levelo_inurba_marseille","lat":43.26929,"lon":5.38915,"is_reserved":false,"is_disabled":false,"rental_uris":{"android":"levelo://app?vid=e23e161c-2daa-4daa-8bdb-54016901a11c","ios":"levelo://app?vid=e23e161c-2daa-4daa-8bdb-54016901a11c"},"vehicle_type_id":"4","last_reported":1737727685,"current_range_meters":33200,"station_id":"ce4bhhh2rcd13ifvqfl0","pricing_plan_id":"cebpf4jnsgd1na2vs0mg"},{"bike_id":"81481363-ee60-4805-9da0-e33c51b4f172","system_id":"levelo_inurba_marseille","lat":43.28451,"lon":5.3919,"is_reserved":false,"is_disabled":false,"rental_uris":{"android":"levelo://app?vid=81481363-ee60-4805-9da0-e33c51b4f172","ios":"levelo://app?vid=81481363-ee60-4805-9da0-e33c51b4f172"},"vehicle_type_id":"4","last_reported":1737727685,"current_range_meters":32000,"station_id":"ce4bhoh2rcd13ifvqh5g","pricing_plan_id":"cebpf4jnsgd1na2vs0mg"},{"bike_id":"10cd753b-5827-4714-96fc-bf0b4a457f1a","system_id":"levelo_inurba_marseille","lat":43.27994,"lon":5.40007,"is_reserved":false,"is_disabled":false,"rental_uris":{"android":"levelo://app?vid=10cd753b-5827-4714-96fc-bf0b4a457f1a","ios":"levelo://app?vid=10cd753b-5827-4714-96fc-bf0b4a457f1a"},"vehicle_type_id":"4","last_reported":1737727685,"current_range_meters":26800,"station_id":"ce4bho92rcd13ifvqh4g","pricing_plan_id":"cebpf4jnsgd1na2vs0mg"},{"bike_id":"924bb50b-5c31-4cab-ad43-1f80bc71824c","system_id":"levelo_inurba_marseille","lat":43.28936,"lon":5.36638,"is_reserved":false,"is_disabled":false,"rental_uris":{"android":"levelo://app?vid=924bb50b-5c31-4cab-ad43-1f80bc71824c","ios":"levelo://app?vid=924bb50b-5c31-4cab-ad43-1f80bc71824c"},"vehicle_type_id":"4","last_reported":1737727685,"current_range_meters":38400,"station_id":"ce4bhap2rcd13ifvqek0","pricing_plan_id":"cebpf4jnsgd1na2vs0mg"},{"bike_id":"90641815-0e8d-49ee-aabe-c4612267b049","system_id":"levelo_inurba_marseille","lat":43.28597,"lon":5.3951,"is_reserved":false,"is_disabled":false,"rental_uris":{"android":"levelo://app?vid=90641815-0e8d-49ee-aabe-c4612267b049","ios":"levelo://app?vid=90641815-0e8d-49ee-aabe-c4612267b049"},"vehicle_type_id":"4","last_reported":1737727685,"current_range_meters":25600,"station_id":"ce4bh292rcd13ifvqdg0","pricing_plan_id":"cebpf4jnsgd1na2vs0mg"},{"bike_id":"24539067-0f96-40bc-a45b-93beff39aa9d","system_id":"levelo_inurba_marseille","lat":43.24178,"lon":5.39729,"is_reserved":false,"is_disabled":false,"rental_uris":{"android":"levelo://app?vid=24539067-0f96-40bc-a45b-93beff39aa9d","ios":"levelo://app?vid=24539067-0f96-40bc-a45b-93beff39aa9d"},"vehicle_type_id":"4","last_reported":1737727685,"current_range_meters":24000,"station_id":"ce4bhn12rcd13ifvqgpg","pricing_plan_id":"cebpf4jnsgd1na2vs0mg"},{"bike_id":"4a13ea03-ec6c-4773-aab6-bf9a860cd9fc","system_id":"levelo_inurba_marseille","lat":43.27899,"lon":5.38009,"is_reserved":false,"is_disabled":false,"rental_uris":{"android":"levelo://app?vid=4a13ea03-ec6c-4773-aab6-bf9a860cd9fc","ios":"levelo://app?vid=4a13ea03-ec6c-4773-aab6-bf9a860cd9fc"},"vehicle_type_id":"4","last_reported":1737727685,"current_range_meters":38800,"station_id":"ce4bhf92rcd13ifvqf50","pricing_plan_id":"cebpf4jnsgd1na2vs0mg"},{"bike_id":"fb6c295d-1724-4d33-a3c9-a298a0f0c5f2","system_id":"levelo_inurba_marseille","lat":43.28714,"lon":5.37924,"is_reserved":false,"is_disabled":false,"rental_uris":{"android":"levelo://app?vid=fb6c295d-1724-4d33-a3c9-a298a0f0c5f2","ios":"levelo://app?vid=fb6c295d-1724-4d33-a3c9-a298a0f0c5f2"},"vehicle_type_id":"4","last_reported":1737727685,"current_range_meters":18800,"station_id":"ce4bh9p2rcd13ifvqec0","pricing_plan_id":"cebpf4jnsgd1na2vs0mg"},{"bike_id":"73f0a483-06c6-43e4-8150-96acc4952fc2","system_id":"levelo_inurba_marseille","lat":43.30624,"lon":5.37229,"is_reserved":false,"is_disabled":false,"rental_uris":{"android":"levelo://app?vid=73f0a483-06c6-43e4-8150-96acc4952fc2","ios":"levelo://app?vid=73f0a483-06c6-43e4-8150-96acc4952fc2"},"vehicle_type_id":"4","last_reported":1737727685,"current_range_meters":27600,"station_id":"ce4bgqh2rcd13ifvqc4g","pricing_plan_id":"cebpf4jnsgd1na2vs0mg"},{"bike_id":"0f6f1f28-264c-42b7-9014-efb1bc5cfecb","system_id":"levelo_inurba_marseille","lat":43.29934,"lon":5.37478,"is_reserved":false,"is_disabled":false,"rental_uris":{"android":"levelo://app?vid=0f6f1f28-264c-42b7-9014-efb1bc5cfecb","ios":"levelo://app?vid=0f6f1f28-264c-42b7-9014-efb1bc5cfecb"},"vehicle_type_id":"4","last_reported":1737727685,"current_range_meters":39200,"station_id":"ce4bgjh2rcd13ifvqbg0","pricing_plan_id":"cebpf4jnsgd1na2vs0mg"},{"bike_id":"1c042460-752b-42ae-84f8-35d4bdb9aca8","system_id":"levelo_inurba_marseille","lat":43.26816,"lon":5.40247,"is_reserved":false,"is_disabled":false,"rental_uris":{"android":"levelo://app?vid=1c042460-752b-42ae-84f8-35d4bdb9aca8","ios":"levelo://app?vid=1c042460-752b-42ae-84f8-35d4bdb9aca8"},"vehicle_type_id":"4","last_reported":1737727685,"current_range_meters":30000,"station_id":"ce501612rcd8frsf0b60","pricing_plan_id":"cebpf4jnsgd1na2vs0mg"},{"bike_id":"2d09f6c2-0a95-42dd-b273-6c37bca47794","system_id":"levelo_inurba_marseille","lat":43.29915,"lon":5.37477,"is_reserved":false,"is_disabled":false,"rental_uris":{"android":"levelo://app?vid=2d09f6c2-0a95-42dd-b273-6c37bca47794","ios":"levelo://app?vid=2d09f6c2-0a95-42dd-b273-6c37bca47794"},"vehicle_type_id":"4","last_reported":1737727685,"current_range_meters":38800,"station_id":"ce4bgjh2rcd13ifvqbg0","pricing_plan_id":"cebpf4jnsgd1na2vs0mg"},{"bike_id":"4c6ace24-8fa1-4251-bdd2-2f7b7944df6a","system_id":"levelo_inurba_marseille","lat":43.29239,"lon":5.40908,"is_reserved":false,"is_disabled":false,"rental_uris":{"android":"levelo://app?vid=4c6ace24-8fa1-4251-bdd2-2f7b7944df6a","ios":"levelo://app?vid=4c6ace24-8fa1-4251-bdd2-2f7b7944df6a"},"vehicle_type_id":"4","last_reported":1737727685,"current_range_meters":36000,"station_id":"ce4bh192rcd13ifvqdc0","pricing_plan_id":"cebpf4jnsgd1na2vs0mg"},{"bike_id":"fe3679b4-09f6-4e41-9aae-9d00892cb93e","system_id":"levelo_inurba_marseille","lat":43.23207,"lon":5.35551,"is_reserved":false,"is_disabled":false,"rental_uris":{"android":"levelo://app?vid=fe3679b4-09f6-4e41-9aae-9d00892cb93e","ios":"levelo://app?vid=fe3679b4-09f6-4e41-9aae-9d00892cb93e"},"vehicle_type_id":"4","last_reported":1737727685,"current_range_meters":18000,"station_id":"ce4bhu92rcd13ifvqi70","pricing_plan_id":"cebpf4jnsgd1na2vs0mg"},{"bike_id":"470fde41-13ac-4742-8050-30c08ae8d5d5","system_id":"levelo_inurba_marseille","lat":43.31121,"lon":5.37761,"is_reserved":false,"is_disabled":false,"rental_uris":{"android":"levelo://app?vid=470fde41-13ac-4742-8050-30c08ae8d5d5","ios":"levelo://app?vid=470fde41-13ac-4742-8050-30c08ae8d5d5"},"vehicle_type_id":"4","last_reported":1737727685,"current_range_meters":30800,"station_id":"ce4bgt92rcd13ifvqcg0","pricing_plan_id":"cebpf4jnsgd1na2vs0mg"},{"bike_id":"13ff516e-16cf-4543-8540-9030b8b296b4","system_id":"levelo_inurba_marseille","lat":43.23202,"lon":5.35548,"is_reserved":false,"is_disabled":false,"rental_uris":{"android":"levelo://app?vid=13ff516e-16cf-4543-8540-9030b8b296b4","ios":"levelo://app?vid=13ff516e-16cf-4543-8540-9030b8b296b4"},"vehicle_type_id":"4","last_reported":1737727685,"current_range_meters":25200,"station_id":"ce4bhu92rcd13ifvqi70","pricing_plan_id":"cebpf4jnsgd1na2vs0mg"},{"bike_id":"639b392a-f817-4b6e-ba22-962f157403c0","system_id":"levelo_inurba_marseille","lat":43.2961,"lon":5.3811,"is_reserved":false,"is_disabled":false,"rental_uris":{"android":"levelo://app?vid=639b392a-f817-4b6e-ba22-962f157403c0","ios":"levelo://app?vid=639b392a-f817-4b6e-ba22-962f157403c0"},"vehicle_type_id":"4","last_reported":1737727685,"current_range_meters":11200,"station_id":"ce4bgl12rcd13ifvqbo0","pricing_plan_id":"cebpf4jnsgd1na2vs0mg"},{"bike_id":"7c5742b4-6005-4de6-a3cf-df4c9e88d63b","system_id":"levelo_inurba_marseille","lat":43.28275,"lon":5.35069,"is_reserved":false,"is_disabled":false,"rental_uris":{"android":"levelo://app?vid=7c5742b4-6005-4de6-a3cf-df4c9e88d63b","ios":"levelo://app?vid=7c5742b4-6005-4de6-a3cf-df4c9e88d63b"},"vehicle_type_id":"4","last_reported":1737727685,"current_range_meters":5600,"station_id":"ce4bhbp2rcd13ifvqerg","pricing_plan_id":"cebpf4jnsgd1na2vs0mg"},{"bike_id":"02c32972-2589-4dd4-8b7a-da5539e1cade","system_id":"levelo_inurba_marseille","lat":43.31756,"lon":5.39018,"is_reserved":false,"is_disabled":false,"rental_uris":{"android":"levelo://app?vid=02c32972-2589-4dd4-8b7a-da5539e1cade","ios":"levelo://app?vid=02c32972-2589-4dd4-8b7a-da5539e1cade"},"vehicle_type_id":"4","last_reported":1737727685,"current_range_meters":38000,"station_id":"ce4bhqp2rcd13ifvqhng","pricing_plan_id":"cebpf4jnsgd1na2vs0mg"},{"bike_id":"8a151ccc-edf6-40ab-a6a3-42b4ac96f698","system_id":"levelo_inurba_marseille","lat":43.28267,"lon":5.3507,"is_reserved":false,"is_disabled":false,"rental_uris":{"android":"levelo://app?vid=8a151ccc-edf6-40ab-a6a3-42b4ac96f698","ios":"levelo://app?vid=8a151ccc-edf6-40ab-a6a3-42b4ac96f698"},"vehicle_type_id":"4","last_reported":1737727685,"current_range_meters":24000,"station_id":"ce4bhbp2rcd13ifvqerg","pricing_plan_id":"cebpf4jnsgd1na2vs0mg"},{"bike_id":"80e9ec6a-f16c-487d-88af-a1d1066d5d8f","system_id":"levelo_inurba_marseille","lat":43.25866,"lon":5.39901,"is_reserved":false,"is_disabled":false,"rental_uris":{"android":"levelo://app?vid=80e9ec6a-f16c-487d-88af-a1d1066d5d8f","ios":"levelo://app?vid=80e9ec6a-f16c-487d-88af-a1d1066d5d8f"},"vehicle_type_id":"4","last_reported":1737727685,"current_range_meters":14400,"station_id":"ce4bhl92rcd13ifvqghg","pricing_plan_id":"cebpf4jnsgd1na2vs0mg"},{"bike_id":"c07ffe20-21f2-4b01-b153-b7e93fc6ba8d","system_id":"levelo_inurba_marseille","lat":43.31726,"lon":5.42401,"is_reserved":false,"is_disabled":true,"rental_uris":{"android":"levelo://app?vid=c07ffe20-21f2-4b01-b153-b7e93fc6ba8d","ios":"levelo://app?vid=c07ffe20-21f2-4b01-b153-b7e93fc6ba8d"},"vehicle_type_id":"4","last_reported":1737727685,"current_range_meters":1200,"station_id":"ce4bhp92rcd13ifvqhbg","pricing_plan_id":"cebpf4jnsgd1na2vs0mg"},{"bike_id":"d96b3434-2cc6-4c2e-a560-763e1b71f3ae","system_id":"levelo_inurba_marseille","lat":43.24998,"lon":5.38936,"is_reserved":false,"is_disabled":false,"rental_uris":{"android":"levelo://app?vid=d96b3434-2cc6-4c2e-a560-763e1b71f3ae","ios":"levelo://app?vid=d96b3434-2cc6-4c2e-a560-763e1b71f3ae"},"vehicle_type_id":"4","last_reported":1737727685,"current_range_meters":16800,"station_id":"ce4bhgp2rcd13ifvqfd0","pricing_plan_id":"cebpf4jnsgd1na2vs0mg"},{"bike_id":"2ae1a011-e4fd-483d-9166-3ddacb41769e","system_id":"levelo_inurba_marseille","lat":43.29787,"lon":5.39343,"is_reserved":false,"is_disabled":true,"rental_uris":{"android":"levelo://app?vid=2ae1a011-e4fd-483d-9166-3ddacb41769e","ios":"levelo://app?vid=2ae1a011-e4fd-483d-9166-3ddacb41769e"},"vehicle_type_id":"4","last_reported":1737727685,"current_range_meters":2000,"station_id":"chh1huq6cuj3fo74tm60","pricing_plan_id":"cebpf4jnsgd1na2vs0mg"},{"bike_id":"2856cb9d-ffef-49cf-bb76-128179dfc919","system_id":"levelo_inurba_marseille","lat":43.31496,"lon":5.37291,"is_reserved":false,"is_disabled":false,"rental_uris":{"android":"levelo://app?vid=2856cb9d-ffef-49cf-bb76-128179dfc919","ios":"levelo://app?vid=2856cb9d-ffef-49cf-bb76-128179dfc919"},"vehicle_type_id":"4","last_reported":1737727685,"current_range_meters":38800,"station_id":"ce4bgt12rcd13ifvqcd0","pricing_plan_id":"cebpf4jnsgd1na2vs0mg"},{"bike_id":"8263b869-2897-4aec-bb52-47e72d21bc1d","system_id":"levelo_inurba_marseille","lat":43.29271,"lon":5.40911,"is_reserved":false,"is_disabled":false,"rental_uris":{"android":"levelo://app?vid=8263b869-2897-4aec-bb52-47e72d21bc1d","ios":"levelo://app?vid=8263b869-2897-4aec-bb52-47e72d21bc1d"},"vehicle_type_id":"4","last_reported":1737727685,"current_range_meters":38800,"station_id":"ce4bh192rcd13ifvqdc0","pricing_plan_id":"cebpf4jnsgd1na2vs0mg"},{"bike_id":"45b366a6-6abc-4401-bb9e-1aee69db2cae","system_id":"levelo_inurba_marseille","lat":43.28092,"lon":5.39661,"is_reserved":false,"is_disabled":false,"rental_uris":{"android":"levelo://app?vid=45b366a6-6abc-4401-bb9e-1aee69db2cae","ios":"levelo://app?vid=45b366a6-6abc-4401-bb9e-1aee69db2cae"},"vehicle_type_id":"4","last_reported":1737727685,"current_range_meters":32000,"station_id":"ce4bho12rcd13ifvqh2g","pricing_plan_id":"cebpf4jnsgd1na2vs0mg"},{"bike_id":"d04f7cea-c0f0-4bfc-a0c7-6e2585e0e91a","system_id":"levelo_inurba_marseille","lat":43.2869,"lon":5.39336,"is_reserved":false,"is_disabled":false,"rental_uris":{"android":"levelo://app?vid=d04f7cea-c0f0-4bfc-a0c7-6e2585e0e91a","ios":"levelo://app?vid=d04f7cea-c0f0-4bfc-a0c7-6e2585e0e91a"},"vehicle_type_id":"4","last_reported":1737727685,"current_range_meters":36000,"station_id":"","pricing_plan_id":"cebpf4jnsgd1na2vs0mg"},{"bike_id":"8d6c105b-a979-4d49-9ed9-36a139435b82","system_id":"levelo_inurba_marseille","lat":43.29807,"lon":5.38113,"is_reserved":false,"is_disabled":false,"rental_uris":{"android":"levelo://app?vid=8d6c105b-a979-4d49-9ed9-36a139435b82","ios":"levelo://app?vid=8d6c105b-a979-4d49-9ed9-36a139435b82"},"vehicle_type_id":"4","last_reported":1737727685,"current_range_meters":6800,"station_id":"ce4bgip2rcd13ifvqbb0","pricing_plan_id":"cebpf4jnsgd1na2vs0mg"},{"bike_id":"421d447e-f137-48f8-b50a-3cef6ba73d00","system_id":"levelo_inurba_marseille","lat":43.32359,"lon":5.3675,"is_reserved":false,"is_disabled":false,"rental_uris":{"android":"levelo://app?vid=421d447e-f137-48f8-b50a-3cef6ba73d00","ios":"levelo://app?vid=421d447e-f137-48f8-b50a-3cef6ba73d00"},"vehicle_type_id":"4","last_reported":1737727685,"current_range_meters":9600,"station_id":"ce4bhsh2rcd13ifvqi2g","pricing_plan_id":"cebpf4jnsgd1na2vs0mg"},{"bike_id":"816285b9-576b-4f8d-9307-04455007c47f","system_id":"levelo_inurba_marseille","lat":43.2893,"lon":5.36412,"is_reserved":false,"is_disabled":false,"rental_uris":{"android":"levelo://app?vid=816285b9-576b-4f8d-9307-04455007c47f","ios":"levelo://app?vid=816285b9-576b-4f8d-9307-04455007c47f"},"vehicle_type_id":"4","last_reported":1737727685,"current_range_meters":3200,"station_id":"ce4bhc92rcd13ifvqetg","pricing_plan_id":"cebpf4jnsgd1na2vs0mg"},{"bike_id":"ce302ca7-6256-4780-b4dd-85427aeed738","system_id":"levelo_inurba_marseille","lat":43.28617,"lon":5.35106,"is_reserved":false,"is_disabled":false,"rental_uris":{"android":"levelo://app?vid=ce302ca7-6256-4780-b4dd-85427aeed738","ios":"levelo://app?vid=ce302ca7-6256-4780-b4dd-85427aeed738"},"vehicle_type_id":"4","last_reported":1737727685,"current_range_meters":22000,"station_id":"ce4bhch2rcd13ifvqeug","pricing_plan_id":"cebpf4jnsgd1na2vs0mg"},{"bike_id":"7d3ec4a4-a871-4e70-812e-3a50339058c0","system_id":"levelo_inurba_marseille","lat":43.23193,"lon":5.3556,"is_reserved":false,"is_disabled":false,"rental_uris":{"android":"levelo://app?vid=7d3ec4a4-a871-4e70-812e-3a50339058c0","ios":"levelo://app?vid=7d3ec4a4-a871-4e70-812e-3a50339058c0"},"vehicle_type_id":"4","last_reported":1737727685,"current_range_meters":9600,"station_id":"ce4bhu92rcd13ifvqi70","pricing_plan_id":"cebpf4jnsgd1na2vs0mg"},{"bike_id":"75495e7c-20bd-4569-84c6-35df34ab244d","system_id":"levelo_inurba_marseille","lat":43.29889,"lon":5.43661,"is_reserved":false,"is_disabled":true,"rental_uris":{"android":"levelo://app?vid=75495e7c-20bd-4569-84c6-35df34ab244d","ios":"levelo://app?vid=75495e7c-20bd-4569-84c6-35df34ab244d"},"vehicle_type_id":"4","last_reported":1737727685,"current_range_meters":0,"station_id":"ce4bhpp2rcd13ifvqhfg","pricing_plan_id":"cebpf4jnsgd1na2vs0mg"},{"bike_id":"504c6de4-294f-4a27-a0ad-f24fa453ed39","system_id":"levelo_inurba_marseille","lat":43.30142,"lon":5.39859,"is_reserved":false,"is_disabled":false,"rental_uris":{"android":"levelo://app?vid=504c6de4-294f-4a27-a0ad-f24fa453ed39","ios":"levelo://app?vid=504c6de4-294f-4a27-a0ad-f24fa453ed39"},"vehicle_type_id":"4","last_reported":1737727685,"current_range_meters":35600,"station_id":"ce4bh0h2rcd13ifvqd40","pricing_plan_id":"cebpf4jnsgd1na2vs0mg"},{"bike_id":"2693e099-578a-4462-b03c-cb6a658dc0f3","system_id":"levelo_inurba_marseille","lat":43.29909,"lon":5.43672,"is_reserved":false,"is_disabled":false,"rental_uris":{"android":"levelo://app?vid=2693e099-578a-4462-b03c-cb6a658dc0f3","ios":"levelo://app?vid=2693e099-578a-4462-b03c-cb6a658dc0f3"},"vehicle_type_id":"4","last_reported":1737727685,"current_range_meters":38800,"station_id":"ce4bhpp2rcd13ifvqhfg","pricing_plan_id":"cebpf4jnsgd1na2vs0mg"},{"bike_id":"03880916-e8bb-4cce-8046-018510058e48","system_id":"levelo_inurba_marseille","lat":43.29515,"lon":5.37509,"is_reserved":false,"is_disabled":false,"rental_uris":{"android":"levelo://app?vid=03880916-e8bb-4cce-8046-018510058e48","ios":"levelo://app?vid=03880916-e8bb-4cce-8046-018510058e48"},"vehicle_type_id":"4","last_reported":1737727685,"current_range_meters":18800,"station_id":"ce4bgkp2rcd13ifvqbmg","pricing_plan_id":"cebpf4jnsgd1na2vs0mg"},{"bike_id":"88919f82-3764-434c-902e-e2dd244c1696","system_id":"levelo_inurba_marseille","lat":43.29812,"lon":5.38092,"is_reserved":false,"is_disabled":false,"rental_uris":{"android":"levelo://app?vid=88919f82-3764-434c-902e-e2dd244c1696","ios":"levelo://app?vid=88919f82-3764-434c-902e-e2dd244c1696"},"vehicle_type_id":"4","last_reported":1737727685,"current_range_meters":22800,"station_id":"ce4bgip2rcd13ifvqbb0","pricing_plan_id":"cebpf4jnsgd1na2vs0mg"},{"bike_id":"0683b8fa-bf66-4a85-b23f-305b1ef8e2c5","system_id":"levelo_inurba_marseille","lat":43.2989,"lon":5.4365,"is_reserved":false,"is_disabled":true,"rental_uris":{"android":"levelo://app?vid=0683b8fa-bf66-4a85-b23f-305b1ef8e2c5","ios":"levelo://app?vid=0683b8fa-bf66-4a85-b23f-305b1ef8e2c5"},"vehicle_type_id":"4","last_reported":1737727685,"current_range_meters":800,"station_id":"ce4bhpp2rcd13ifvqhfg","pricing_plan_id":"cebpf4jnsgd1na2vs0mg"},{"bike_id":"7e3c1bd6-7159-4a2b-9bbd-c2724d8e2f1d","system_id":"levelo_inurba_marseille","lat":43.31344,"lon":5.36716,"is_reserved":false,"is_disabled":false,"rental_uris":{"android":"levelo://app?vid=7e3c1bd6-7159-4a2b-9bbd-c2724d8e2f1d","ios":"levelo://app?vid=7e3c1bd6-7159-4a2b-9bbd-c2724d8e2f1d"},"vehicle_type_id":"4","last_reported":1737727685,"current_range_meters":19200,"station_id":"ce4bgr92rcd13ifvqc6g","pricing_plan_id":"cebpf4jnsgd1na2vs0mg"},{"bike_id":"b6663470-0bb2-4d25-96c5-fa533bc2c675","system_id":"levelo_inurba_marseille","lat":43.33726,"lon":5.39186,"is_reserved":false,"is_disabled":false,"rental_uris":{"android":"levelo://app?vid=b6663470-0bb2-4d25-96c5-fa533bc2c675","ios":"levelo://app?vid=b6663470-0bb2-4d25-96c5-fa533bc2c675"},"vehicle_type_id":"4","last_reported":1737727685,"current_range_meters":39200,"station_id":"ce4bhr92rcd13ifvqhsg","pricing_plan_id":"cebpf4jnsgd1na2vs0mg"},{"bike_id":"837769fd-9d92-459c-b084-9b32015f62ae","system_id":"levelo_inurba_marseille","lat":43.28923,"lon":5.38393,"is_reserved":false,"is_disabled":false,"rental_uris":{"android":"levelo://app?vid=837769fd-9d92-459c-b084-9b32015f62ae","ios":"levelo://app?vid=837769fd-9d92-459c-b084-9b32015f62ae"},"vehicle_type_id":"4","last_reported":1737727685,"current_range_meters":24400,"station_id":"ce4bh612rcd13ifvqe6g","pricing_plan_id":"cebpf4jnsgd1na2vs0mg"},{"bike_id":"55fa9a63-1046-4c0c-8d88-973abc543598","system_id":"levelo_inurba_marseille","lat":43.25015,"lon":5.38928,"is_reserved":false,"is_disabled":false,"rental_uris":{"android":"levelo://app?vid=55fa9a63-1046-4c0c-8d88-973abc543598","ios":"levelo://app?vid=55fa9a63-1046-4c0c-8d88-973abc543598"},"vehicle_type_id":"4","last_reported":1737727685,"current_range_meters":14800,"station_id":"ce4bhgp2rcd13ifvqfd0","pricing_plan_id":"cebpf4jnsgd1na2vs0mg"},{"bike_id":"f2634dfd-433a-4fb1-9182-d818c9aae462","system_id":"levelo_inurba_marseille","lat":43.29627,"lon":5.37739,"is_reserved":false,"is_disabled":false,"rental_uris":{"android":"levelo://app?vid=f2634dfd-433a-4fb1-9182-d818c9aae462","ios":"levelo://app?vid=f2634dfd-433a-4fb1-9182-d818c9aae462"},"vehicle_type_id":"4","last_reported":1737727685,"current_range_meters":22800,"station_id":"ce4bgi92rcd13ifvqb90","pricing_plan_id":"cebpf4jnsgd1na2vs0mg"},{"bike_id":"f3e1e0cc-e386-4335-a525-4da71585ccf5","system_id":"levelo_inurba_marseille","lat":43.32556,"lon":5.4142,"is_reserved":false,"is_disabled":false,"rental_uris":{"android":"levelo://app?vid=f3e1e0cc-e386-4335-a525-4da71585ccf5","ios":"levelo://app?vid=f3e1e0cc-e386-4335-a525-4da71585ccf5"},"vehicle_type_id":"4","last_reported":1737727685,"current_range_meters":38800,"station_id":"ce4bhq12rcd13ifvqhhg","pricing_plan_id":"cebpf4jnsgd1na2vs0mg"},{"bike_id":"cba064fd-960d-49db-9c3e-d44224ddb378","system_id":"levelo_inurba_marseille","lat":43.30948,"lon":5.39058,"is_reserved":false,"is_disabled":false,"rental_uris":{"android":"levelo://app?vid=cba064fd-960d-49db-9c3e-d44224ddb378","ios":"levelo://app?vid=cba064fd-960d-49db-9c3e-d44224ddb378"},"vehicle_type_id":"4","last_reported":1737727685,"current_range_meters":9200,"station_id":"ce4bgup2rcd13ifvqco0","pricing_plan_id":"cebpf4jnsgd1na2vs0mg"},{"bike_id":"f7149591-9b6b-4426-9acf-ae4359e39ffe","system_id":"levelo_inurba_marseille","lat":43.30534,"lon":5.38423,"is_reserved":false,"is_disabled":false,"rental_uris":{"android":"levelo://app?vid=f7149591-9b6b-4426-9acf-ae4359e39ffe","ios":"levelo://app?vid=f7149591-9b6b-4426-9acf-ae4359e39ffe"},"vehicle_type_id":"4","last_reported":1737727685,"current_range_meters":39200,"station_id":"ce4bgg92rcd13ifvqb30","pricing_plan_id":"cebpf4jnsgd1na2vs0mg"},{"bike_id":"51b0771d-93d5-4386-8936-39724ec5b829","system_id":"levelo_inurba_marseille","lat":43.27964,"lon":5.38739,"is_reserved":false,"is_disabled":false,"rental_uris":{"android":"levelo://app?vid=51b0771d-93d5-4386-8936-39724ec5b829","ios":"levelo://app?vid=51b0771d-93d5-4386-8936-39724ec5b829"},"vehicle_type_id":"4","last_reported":1737727685,"current_range_meters":38800,"station_id":"ce4bhg12rcd13ifvqf80","pricing_plan_id":"cebpf4jnsgd1na2vs0mg"},{"bike_id":"69516ad1-668c-4504-883e-fcf74a59aa68","system_id":"levelo_inurba_marseille","lat":43.29815,"lon":5.38088,"is_reserved":false,"is_disabled":false,"rental_uris":{"android":"levelo://app?vid=69516ad1-668c-4504-883e-fcf74a59aa68","ios":"levelo://app?vid=69516ad1-668c-4504-883e-fcf74a59aa68"},"vehicle_type_id":"4","last_reported":1737727685,"current_range_meters":9200,"station_id":"ce4bgip2rcd13ifvqbb0","pricing_plan_id":"cebpf4jnsgd1na2vs0mg"},{"bike_id":"38b434d1-5619-472d-a4da-f4f1255b9ba6","system_id":"levelo_inurba_marseille","lat":43.29301,"lon":5.37454,"is_reserved":false,"is_disabled":false,"rental_uris":{"android":"levelo://app?vid=38b434d1-5619-472d-a4da-f4f1255b9ba6","ios":"levelo://app?vid=38b434d1-5619-472d-a4da-f4f1255b9ba6"},"vehicle_type_id":"4","last_reported":1737727685,"current_range_meters":17200,"station_id":"ce4bgi12rcd13ifvqb70","pricing_plan_id":"cebpf4jnsgd1na2vs0mg"},{"bike_id":"033e3539-4f4c-4fa3-ad37-9f1909d3f28c","system_id":"levelo_inurba_marseille","lat":43.29811,"lon":5.40399,"is_reserved":false,"is_disabled":false,"rental_uris":{"android":"levelo://app?vid=033e3539-4f4c-4fa3-ad37-9f1909d3f28c","ios":"levelo://app?vid=033e3539-4f4c-4fa3-ad37-9f1909d3f28c"},"vehicle_type_id":"4","last_reported":1737727685,"current_range_meters":36400,"station_id":"ce4bh112rcd13ifvqd90","pricing_plan_id":"cebpf4jnsgd1na2vs0mg"},{"bike_id":"3b217922-083f-4d9a-9446-215ef637689d","system_id":"levelo_inurba_marseille","lat":43.29107,"lon":5.38148,"is_reserved":false,"is_disabled":true,"rental_uris":{"android":"levelo://app?vid=3b217922-083f-4d9a-9446-215ef637689d","ios":"levelo://app?vid=3b217922-083f-4d9a-9446-215ef637689d"},"vehicle_type_id":"4","last_reported":1737727685,"current_range_meters":1600,"station_id":"ce4bh512rcd13ifvqe2g","pricing_plan_id":"cebpf4jnsgd1na2vs0mg"},{"bike_id":"4c4f250f-bd2f-4d27-9cb0-9af1e3584693","system_id":"levelo_inurba_marseille","lat":43.26686,"lon":5.38278,"is_reserved":false,"is_disabled":false,"rental_uris":{"android":"levelo://app?vid=4c4f250f-bd2f-4d27-9cb0-9af1e3584693","ios":"levelo://app?vid=4c4f250f-bd2f-4d27-9cb0-9af1e3584693"},"vehicle_type_id":"4","last_reported":1737727685,"current_range_meters":38400,"station_id":"ce4bhg92rcd13ifvqf90","pricing_plan_id":"cebpf4jnsgd1na2vs0mg"},{"bike_id":"ce9ebb56-3c7b-4850-b47a-bb65e19e9fbf","system_id":"levelo_inurba_marseille","lat":43.28977,"lon":5.37824,"is_reserved":false,"is_disabled":false,"rental_uris":{"android":"levelo://app?vid=ce9ebb56-3c7b-4850-b47a-bb65e19e9fbf","ios":"levelo://app?vid=ce9ebb56-3c7b-4850-b47a-bb65e19e9fbf"},"vehicle_type_id":"4","last_reported":1737727685,"current_range_meters":24400,"station_id":"ce4bh9p2rcd13ifvqed0","pricing_plan_id":"cebpf4jnsgd1na2vs0mg"},{"bike_id":"706e28c8-944b-42b5-b67a-5c63ea2b7c60","system_id":"levelo_inurba_marseille","lat":43.30536,"lon":5.38432,"is_reserved":false,"is_disabled":false,"rental_uris":{"android":"levelo://app?vid=706e28c8-944b-42b5-b67a-5c63ea2b7c60","ios":"levelo://app?vid=706e28c8-944b-42b5-b67a-5c63ea2b7c60"},"vehicle_type_id":"4","last_reported":1737727685,"current_range_meters":38400,"station_id":"ce4bgg92rcd13ifvqb30","pricing_plan_id":"cebpf4jnsgd1na2vs0mg"},{"bike_id":"576b8657-d5e2-4d23-9b1e-461b2180cd28","system_id":"levelo_inurba_marseille","lat":43.22938,"lon":5.35384,"is_reserved":false,"is_disabled":false,"rental_uris":{"android":"levelo://app?vid=576b8657-d5e2-4d23-9b1e-461b2180cd28","ios":"levelo://app?vid=576b8657-d5e2-4d23-9b1e-461b2180cd28"},"vehicle_type_id":"4","last_reported":1737727685,"current_range_meters":38800,"station_id":"cpo3532slgdg3j2ikp40","pricing_plan_id":"cebpf4jnsgd1na2vs0mg"},{"bike_id":"ada32ec9-9634-44c1-88de-ab524e871415","system_id":"levelo_inurba_marseille","lat":43.25085,"lon":5.3951,"is_reserved":false,"is_disabled":false,"rental_uris":{"android":"levelo://app?vid=ada32ec9-9634-44c1-88de-ab524e871415","ios":"levelo://app?vid=ada32ec9-9634-44c1-88de-ab524e871415"},"vehicle_type_id":"4","last_reported":1737727685,"current_range_meters":33600,"station_id":"ce4bhm12rcd13ifvqgkg","pricing_plan_id":"cebpf4jnsgd1na2vs0mg"},{"bike_id":"8681b4f0-f70d-4ae9-bc77-525a728117e8","system_id":"levelo_inurba_marseille","lat":43.27378,"lon":5.36253,"is_reserved":false,"is_disabled":true,"rental_uris":{"android":"levelo://app?vid=8681b4f0-f70d-4ae9-bc77-525a728117e8","ios":"levelo://app?vid=8681b4f0-f70d-4ae9-bc77-525a728117e8"},"vehicle_type_id":"4","last_reported":1737727685,"current_range_meters":0,"station_id":"ce4bhbh2rcd13ifvqeo0","pricing_plan_id":"cebpf4jnsgd1na2vs0mg"},{"bike_id":"ad0f4505-3ad3-4518-bb21-e12b5dbd17b0","system_id":"levelo_inurba_marseille","lat":43.27071,"lon":5.42296,"is_reserved":false,"is_disabled":true,"rental_uris":{"android":"levelo://app?vid=ad0f4505-3ad3-4518-bb21-e12b5dbd17b0","ios":"levelo://app?vid=ad0f4505-3ad3-4518-bb21-e12b5dbd17b0"},"vehicle_type_id":"4","last_reported":1737727685,"current_range_meters":1600,"station_id":"ce4bhk92rcd13ifvqgb0","pricing_plan_id":"cebpf4jnsgd1na2vs0mg"},{"bike_id":"65bf9402-f876-4b88-adaf-b40cf3b01798","system_id":"levelo_inurba_marseille","lat":43.27335,"lon":5.39084,"is_reserved":false,"is_disabled":true,"rental_uris":{"android":"levelo://app?vid=65bf9402-f876-4b88-adaf-b40cf3b01798","ios":"levelo://app?vid=65bf9402-f876-4b88-adaf-b40cf3b01798"},"vehicle_type_id":"4","last_reported":1737727685,"current_range_meters":0,"station_id":"ce4bhgp2rcd13ifvqfe0","pricing_plan_id":"cebpf4jnsgd1na2vs0mg"},{"bike_id":"976bb1af-3331-456b-8830-fcd0b79a9cca","system_id":"levelo_inurba_marseille","lat":43.27615,"lon":5.36105,"is_reserved":false,"is_disabled":false,"rental_uris":{"android":"levelo://app?vid=976bb1af-3331-456b-8830-fcd0b79a9cca","ios":"levelo://app?vid=976bb1af-3331-456b-8830-fcd0b79a9cca"},"vehicle_type_id":"4","last_reported":1737727685,"current_range_meters":4800,"station_id":"ce4bgj92rcd13ifvqbe0","pricing_plan_id":"cebpf4jnsgd1na2vs0mg"},{"bike_id":"6f6afcea-9bb6-4cc3-920e-a0c271844489","system_id":"levelo_inurba_marseille","lat":43.29423,"lon":5.38618,"is_reserved":false,"is_disabled":false,"rental_uris":{"android":"levelo://app?vid=6f6afcea-9bb6-4cc3-920e-a0c271844489","ios":"levelo://app?vid=6f6afcea-9bb6-4cc3-920e-a0c271844489"},"vehicle_type_id":"4","last_reported":1737727685,"current_range_meters":28000,"station_id":"ce4bh2h2rcd13ifvqdh0","pricing_plan_id":"cebpf4jnsgd1na2vs0mg"},{"bike_id":"a494a549-33b5-428c-a42d-6ebaf317ff34","system_id":"levelo_inurba_marseille","lat":43.28925,"lon":5.3839,"is_reserved":false,"is_disabled":false,"rental_uris":{"android":"levelo://app?vid=a494a549-33b5-428c-a42d-6ebaf317ff34","ios":"levelo://app?vid=a494a549-33b5-428c-a42d-6ebaf317ff34"},"vehicle_type_id":"4","last_reported":1737727685,"current_range_meters":14400,"station_id":"ce4bh612rcd13ifvqe6g","pricing_plan_id":"cebpf4jnsgd1na2vs0mg"},{"bike_id":"0c184a37-ed1e-49f8-9878-651470ae5991","system_id":"levelo_inurba_marseille","lat":43.29628,"lon":5.37164,"is_reserved":false,"is_disabled":false,"rental_uris":{"android":"levelo://app?vid=0c184a37-ed1e-49f8-9878-651470ae5991","ios":"levelo://app?vid=0c184a37-ed1e-49f8-9878-651470ae5991"},"vehicle_type_id":"4","last_reported":1737727685,"current_range_meters":16800,"station_id":"ce4bgnh2rcd13ifvqc0g","pricing_plan_id":"cebpf4jnsgd1na2vs0mg"},{"bike_id":"a6ed32e1-5f77-48e1-a52f-af930b732239","system_id":"levelo_inurba_marseille","lat":43.31727,"lon":5.42405,"is_reserved":false,"is_disabled":false,"rental_uris":{"android":"levelo://app?vid=a6ed32e1-5f77-48e1-a52f-af930b732239","ios":"levelo://app?vid=a6ed32e1-5f77-48e1-a52f-af930b732239"},"vehicle_type_id":"4","last_reported":1737727685,"current_range_meters":38800,"station_id":"ce4bhp92rcd13ifvqhbg","pricing_plan_id":"cebpf4jnsgd1na2vs0mg"},{"bike_id":"b1f83aae-ce91-43c1-908a-3715b1c271cd","system_id":"levelo_inurba_marseille","lat":43.32365,"lon":5.38893,"is_reserved":false,"is_disabled":true,"rental_uris":{"android":"levelo://app?vid=b1f83aae-ce91-43c1-908a-3715b1c271cd","ios":"levelo://app?vid=b1f83aae-ce91-43c1-908a-3715b1c271cd"},"vehicle_type_id":"4","last_reported":1737727685,"current_range_meters":0,"station_id":"ce4bhqp2rcd13ifvqhog","pricing_plan_id":"cebpf4jnsgd1na2vs0mg"},{"bike_id":"8e684fe1-e823-4367-81c0-b3c2dedc805b","system_id":"levelo_inurba_marseille","lat":43.29643,"lon":5.37168,"is_reserved":false,"is_disabled":false,"rental_uris":{"android":"levelo://app?vid=8e684fe1-e823-4367-81c0-b3c2dedc805b","ios":"levelo://app?vid=8e684fe1-e823-4367-81c0-b3c2dedc805b"},"vehicle_type_id":"4","last_reported":1737727685,"current_range_meters":39200,"station_id":"ce4bgnh2rcd13ifvqc0g","pricing_plan_id":"cebpf4jnsgd1na2vs0mg"},{"bike_id":"f10ee8bd-0798-445c-a435-cbdbde7b3b5e","system_id":"levelo_inurba_marseille","lat":43.28724,"lon":5.37941,"is_reserved":false,"is_disabled":false,"rental_uris":{"android":"levelo://app?vid=f10ee8bd-0798-445c-a435-cbdbde7b3b5e","ios":"levelo://app?vid=f10ee8bd-0798-445c-a435-cbdbde7b3b5e"},"vehicle_type_id":"4","last_reported":1737727685,"current_range_meters":23200,"station_id":"ce4bh9p2rcd13ifvqec0","pricing_plan_id":"cebpf4jnsgd1na2vs0mg"},{"bike_id":"bbe4b18f-7ef3-4078-baab-b4768076a631","system_id":"levelo_inurba_marseille","lat":43.28346,"lon":5.3812,"is_reserved":false,"is_disabled":false,"rental_uris":{"android":"levelo://app?vid=bbe4b18f-7ef3-4078-baab-b4768076a631","ios":"levelo://app?vid=bbe4b18f-7ef3-4078-baab-b4768076a631"},"vehicle_type_id":"4","last_reported":1737727685,"current_range_meters":37600,"station_id":"ce4bh412rcd13ifvqdr0","pricing_plan_id":"cebpf4jnsgd1na2vs0mg"},{"bike_id":"439a30cc-d24d-40ce-b418-f7804d9cb82a","system_id":"levelo_inurba_marseille","lat":43.28936,"lon":5.36377,"is_reserved":false,"is_disabled":false,"rental_uris":{"android":"levelo://app?vid=439a30cc-d24d-40ce-b418-f7804d9cb82a","ios":"levelo://app?vid=439a30cc-d24d-40ce-b418-f7804d9cb82a"},"vehicle_type_id":"4","last_reported":1737727685,"current_range_meters":5600,"station_id":"ce4bhc92rcd13ifvqetg","pricing_plan_id":"cebpf4jnsgd1na2vs0mg"},{"bike_id":"26f57c93-90d3-499c-84dd-7bf9c697aea6","system_id":"levelo_inurba_marseille","lat":43.29529,"lon":5.38551,"is_reserved":false,"is_disabled":false,"rental_uris":{"android":"levelo://app?vid=26f57c93-90d3-499c-84dd-7bf9c697aea6","ios":"levelo://app?vid=26f57c93-90d3-499c-84dd-7bf9c697aea6"},"vehicle_type_id":"4","last_reported":1737727685,"current_range_meters":36800,"station_id":"ce4bgih2rcd13ifvqba0","pricing_plan_id":"cebpf4jnsgd1na2vs0mg"},{"bike_id":"72695028-071c-41ad-afd4-1821945e44c6","system_id":"levelo_inurba_marseille","lat":43.28935,"lon":5.3663,"is_reserved":false,"is_disabled":false,"rental_uris":{"android":"levelo://app?vid=72695028-071c-41ad-afd4-1821945e44c6","ios":"levelo://app?vid=72695028-071c-41ad-afd4-1821945e44c6"},"vehicle_type_id":"4","last_reported":1737727685,"current_range_meters":39200,"station_id":"ce4bhap2rcd13ifvqek0","pricing_plan_id":"cebpf4jnsgd1na2vs0mg"},{"bike_id":"f5ab3a3f-24b7-4b75-aef5-71ef0630f0e3","system_id":"levelo_inurba_marseille","lat":43.28943,"lon":5.39633,"is_reserved":false,"is_disabled":false,"rental_uris":{"android":"levelo://app?vid=f5ab3a3f-24b7-4b75-aef5-71ef0630f0e3","ios":"levelo://app?vid=f5ab3a3f-24b7-4b75-aef5-71ef0630f0e3"},"vehicle_type_id":"4","last_reported":1737727685,"current_range_meters":24400,"station_id":"ce4bh3h2rcd13ifvqdn0","pricing_plan_id":"cebpf4jnsgd1na2vs0mg"},