{"last_updated":1773221527,"ttl":60,"version":"2.2","data":{"bikes":[{"bike_id":"ead3593f-fa2e-4a2b-924f-b78da0a491ce","system_id":"levelo_inurba_marseille","lat":43.30132,"lon":5.37421,"is_reserved":false,"is_disabled":false,"rental_uris":{"android":"levelo://app?vid=ead3593f-fa2e-4a2b-924f-b78da0a491ce","ios":"levelo://app?vid=ead3593f-fa2e-4a2b-924f-b78da0a491ce"},"vehicle_type_id":"4","last_reported":1773221528,"current_range_meters":39200,"station_id":"ce4bgs92rcd13ifvqcc0","pricing_plan_id":"cebpf4jnsgd1na2vs0mg"},{"bike_id":"3dec1967-a2d4-4b31-91e4-8f35aaaccd28","system_id":"levelo_inurba_marseille","lat":43.30874,"lon":5.3686,"is_reserved":false,"is_disabled":false,"rental_uris":{"android":"levelo://app?vid=3dec1967-a2d4-4b31-91e4-8f35aaaccd28","ios":"levelo://app?vid=3dec1967-a2d4-4b31-91e4-8f35aaaccd28"},"vehicle_type_id":"4","last_reported":1773221528,"current_range_meters":39200,"station_id":"ce4bgn92rcd13ifvqbvg","pricing_plan_id":"cebpf4jnsgd1na2vs0mg"},{"bike_id":"05e93773-9c85-4161-99c1-b96593794e37","system_id":"levelo_inurba_marseille","lat":43.29038,"lon":5.3996,"is_reserved":false,"is_disabled":false,"rental_uris":{"android":"levelo://app?vid=05e93773-9c85-4161-99c1-b96593794e37","ios":"levelo://app?vid=05e93773-9c85-4161-99c1-b96593794e37"},"vehicle_type_id":"4","last_reported":1773221528,"current_range_meters":30800,"station_id":"ce4bh392rcd13ifvqdm0","pricing_plan_id":"cebpf4jnsgd1na2vs0mg"},{"bike_id":"ccc1cd5b-0d83-4be5-bc94-8798d4c7b6ab","system_id":"levelo_inurba_marseille","lat":43.30538,"lon":5.36529,"is_reserved":false,"is_disabled":false,"rental_uris":{"android":"levelo://app?vid=ccc1cd5b-0d83-4be5-bc94-8798d4c7b6ab","ios":"levelo://app?vid=ccc1cd5b-0d83-4be5-bc94-8798d4c7b6ab"},"vehicle_type_id":"4","last_reported":1773221528,"current_range_meters":10000,"station_id":"ce4bgs12rcd13ifvqcag","pricing_plan_id":"cebpf4jnsgd1na2vs0mg"},{"bike_id":"beb344ca-4534-4ba9-9c05-5bf124c258c5","system_id":"levelo_inurba_marseille","lat":43.29302,"lon":5.4015,"is_reserved":false,"is_disabled":false,"rental_uris":{"android":"levelo://app?vid=beb344ca-4534-4ba9-9c05-5bf124c258c5","ios":"levelo://app?vid=beb344ca-4534-4ba9-9c05-5bf124c258c5"},"vehicle_type_id":"4","last_reported":1773221528,"current_range_meters":12800,"station_id":"ce4bh312rcd13ifvqdk0","pricing_plan_id":"cebpf4jnsgd1na2vs0mg"},{"bike_id":"42e10ec5-887c-403e-bb2a-345f5f4847db","system_id":"levelo_inurba_marseille","lat":43.25005,"lon":5.38925,"is_reserved":false,"is_disabled":false,"rental_uris":{"android":"levelo://app?vid=42e10ec5-887c-403e-bb2a-345f5f4847db","ios":"levelo://app?vid=42e10ec5-887c-403e-bb2a-345f5f4847db"},"vehicle_type_id":"4","last_reported":1773221528,"current_range_meters":34000,"station_id":"ce4bhgp2rcd13ifvqfd0","pricing_plan_id":"cebpf4jnsgd1na2vs0mg"},{"bike_id":"5061e64b-7a6f-416d-95f6-434ea56b6a99","system_id":"levelo_inurba_marseille","lat":43.3464,"lon":5.36722,"is_reserved":false,"is_disabled":false,"rental_uris":{"android":"levelo://app?vid=5061e64b-7a6f-416d-95f6-434ea56b6a99","ios":"levelo://app?vid=5061e64b-7a6f-416d-95f6-434ea56b6a99"},"vehicle_type_id":"4","last_reported":1773221528,"current_range_meters":30000,"station_id":"","pricing_plan_id":"cebpf4jnsgd1na2vs0mg"},{"bike_id":"2e0998c3-285b-4a51-9d8a-491c28e4b524","system_id":"levelo_inurba_marseille","lat":43.27826,"lon":5.40724,"is_reserved":false,"is_disabled":true,"rental_uris":{"android":"levelo://app?vid=2e0998c3-285b-4a51-9d8a-491c28e4b524","ios":"levelo://app?vid=2e0998c3-285b-4a51-9d8a-491c28e4b524"},"vehicle_type_id":"4","last_reported":1773221528,"current_range_meters":30800,"station_id":"ce4bhnh2rcd13ifvqgtg","pricing_plan_id":"cebpf4jnsgd1na2vs0mg"},{"bike_id":"9faea34b-1c48-4a1b-8f51-2bafe5184a50","system_id":"levelo_inurba_marseille","lat":43.2848,"lon":5.48383,"is_reserved":false,"is_disabled":false,"rental_uris":{"android":"levelo://app?vid=9faea34b-1c48-4a1b-8f51-2bafe5184a50","ios":"levelo://app?vid=9faea34b-1c48-4a1b-8f51-2bafe5184a50"},"vehicle_type_id":"4","last_reported":1773221528,"current_range_meters":35600,"station_id":"st_d3svhcjqgbts73a3dn0g","pricing_plan_id":"cebpf4jnsgd1na2vs0mg"},{"bike_id":"3ed7cc46-dfe0-48b3-b403-50ad5ae704c8","system_id":"levelo_inurba_marseille","lat":43.29932,"lon":5.36526,"is_reserved":false,"is_disabled":false,"rental_uris":{"android":"levelo://app?vid=3ed7cc46-dfe0-48b3-b403-50ad5ae704c8","ios":"levelo://app?vid=3ed7cc46-dfe0-48b3-b403-50ad5ae704c8"},"vehicle_type_id":"4","last_reported":1773221528,"current_range_meters":35600,"station_id":"ce4bgm92rcd13ifvqbr0","pricing_plan_id":"cebpf4jnsgd1na2vs0mg"},{"bike_id":"d427d34d-e739-4c0f-a843-74b85111544b","system_id":"levelo_inurba_marseille","lat":43.33162,"lon":5.37688,"is_reserved":false,"is_disabled":false,"rental_uris":{"android":"levelo://app?vid=d427d34d-e739-4c0f-a843-74b85111544b","ios":"levelo://app?vid=d427d34d-e739-4c0f-a843-74b85111544b"},"vehicle_type_id":"4","last_reported":1773221528,"current_range_meters":28400,"station_id":"st_d46cu089ee8s73dldbu0","pricing_plan_id":"cebpf4jnsgd1na2vs0mg"},{"bike_id":"f8c71ea2-bafc-4c25-8fba-9c4f4612dbff","system_id":"levelo_inurba_marseille","lat":43.29793,"lon":5.40406,"is_reserved":false,"is_disabled":false,"rental_uris":{"android":"levelo://app?vid=f8c71ea2-bafc-4c25-8fba-9c4f4612dbff","ios":"levelo://app?vid=f8c71ea2-bafc-4c25-8fba-9c4f4612dbff"},"vehicle_type_id":"4","last_reported":1773221528,"current_range_meters":38000,"station_id":"ce4bh112rcd13ifvqd90","pricing_plan_id":"cebpf4jnsgd1na2vs0mg"},{"bike_id":"c943c8f2-fd97-497f-b02c-47e60712859d","system_id":"levelo_inurba_marseille","lat":43.25846,"lon":5.39452,"is_reserved":false,"is_disabled":false,"rental_uris":{"android":"levelo://app?vid=c943c8f2-fd97-497f-b02c-47e60712859d","ios":"levelo://app?vid=c943c8f2-fd97-497f-b02c-47e60712859d"},"vehicle_type_id":"4","last_reported":1773221528,"current_range_meters":28000,"station_id":"ce4bhip2rcd13ifvqft0","pricing_plan_id":"cebpf4jnsgd1na2vs0mg"},{"bike_id":"b62be4eb-4a5e-4a6f-92a7-2da931c160d2","system_id":"levelo_inurba_marseille","lat":43.30137,"lon":5.37394,"is_reserved":false,"is_disabled":false,"rental_uris":{"android":"levelo://app?vid=b62be4eb-4a5e-4a6f-92a7-2da931c160d2","ios":"levelo://app?vid=b62be4eb-4a5e-4a6f-92a7-2da931c160d2"},"vehicle_type_id":"4","last_reported":1773221528,"current_range_meters":28400,"station_id":"ce4bgs92rcd13ifvqcc0","pricing_plan_id":"cebpf4jnsgd1na2vs0mg"},{"bike_id":"fbf9381a-109c-4c90-8318-1ee8539cbd40","system_id":"levelo_inurba_marseille","lat":43.30286,"lon":5.36915,"is_reserved":false,"is_disabled":false,"rental_uris":{"android":"levelo://app?vid=fbf9381a-109c-4c90-8318-1ee8539cbd40","ios":"levelo://app?vid=fbf9381a-109c-4c90-8318-1ee8539cbd40"},"vehicle_type_id":"4","last_reported":1773221528,"current_range_meters":23200,"station_id":"ce4bgqh2rcd13ifvqc5g","pricing_plan_id":"cebpf4jnsgd1na2vs0mg"},{"bike_id":"63aca6ef-d155-4097-bdd2-67385409e872","system_id":"levelo_inurba_marseille","lat":43.29975,"lon":5.38489,"is_reserved":false,"is_disabled":true,"rental_uris":{"android":"levelo://app?vid=63aca6ef-d155-4097-bdd2-67385409e872","ios":"levelo://app?vid=63aca6ef-d155-4097-bdd2-67385409e872"},"vehicle_type_id":"4","last_reported":1773221528,"current_range_meters":0,"station_id":"","pricing_plan_id":"cebpf4jnsgd1na2vs0mg"},{"bike_id":"e06f31ba-4239-4f51-b31e-8def2528240c","system_id":"levelo_inurba_marseille","lat":43.29612,"lon":5.37737,"is_reserved":false,"is_disabled":false,"rental_uris":{"android":"levelo://app?vid=e06f31ba-4239-4f51-b31e-8def2528240c","ios":"levelo://app?vid=e06f31ba-4239-4f51-b31e-8def2528240c"},"vehicle_type_id":"4","last_reported":1773221528,"current_range_meters":22000,"station_id":"","pricing_plan_id":"cebpf4jnsgd1na2vs0mg"},{"bike_id":"4be35303-a285-477a-a9f7-112d75dc7eb6","system_id":"levelo_inurba_marseille","lat":43.30947,"lon":5.39044,"is_reserved":false,"is_disabled":false,"rental_uris":{"android":"levelo://app?vid=4be35303-a285-477a-a9f7-112d75dc7eb6","ios":"levelo://app?vid=4be35303-a285-477a-a9f7-112d75dc7eb6"},"vehicle_type_id":"4","last_reported":1773221528,"current_range_meters":40000,"station_id":"ce4bgup2rcd13ifvqco0","pricing_plan_id":"cebpf4jnsgd1na2vs0mg"},{"bike_id":"521b17ad-a068-4b4d-b455-9f5f2eb198df","system_id":"levelo_inurba_marseille","lat":43.29263,"lon":5.37642,"is_reserved":false,"is_disabled":false,"rental_uris":{"android":"levelo://app?vid=521b17ad-a068-4b4d-b455-9f5f2eb198df","ios":"levelo://app?vid=521b17ad-a068-4b4d-b455-9f5f2eb198df"},"vehicle_type_id":"4","last_reported":1773221528,"current_range_meters":20800,"station_id":"ce4bgi12rcd13ifvqb80","pricing_plan_id":"cebpf4jnsgd1na2vs0mg"},{"bike_id":"93f3bbca-10f8-4fdf-8ca9-d7edbda02bc6","system_id":"levelo_inurba_marseille","lat":43.33609,"lon":5.41014,"is_reserved":false,"is_disabled":false,"rental_uris":{"android":"levelo://app?vid=93f3bbca-10f8-4fdf-8ca9-d7edbda02bc6","ios":"levelo://app?vid=93f3bbca-10f8-4fdf-8ca9-d7edbda02bc6"},"vehicle_type_id":"4","last_reported":1773221528,"current_range_meters":38800,"station_id":"ce4bhqh2rcd13ifvqhmg","pricing_plan_id":"cebpf4jnsgd1na2vs0mg"},{"bike_id":"7cd54066-eb78-4dce-b8dd-730bb15ff9ac","system_id":"levelo_inurba_marseille","lat":43.25939,"lon":5.40895,"is_reserved":false,"is_disabled":false,"rental_uris":{"android":"levelo://app?vid=7cd54066-eb78-4dce-b8dd-730bb15ff9ac","ios":"levelo://app?vid=7cd54066-eb78-4dce-b8dd-730bb15ff9ac"},"vehicle_type_id":"4","last_reported":1773221528,"current_range_meters":22000,"station_id":"ce4bhm92rcd13ifvqglg","pricing_plan_id":"cebpf4jnsgd1na2vs0mg"},{"bike_id":"606a3246-fcd6-444c-baa9-1f21befb1483","system_id":"levelo_inurba_marseille","lat":43.28749,"lon":5.37925,"is_reserved":false,"is_disabled":false,"rental_uris":{"android":"levelo://app?vid=606a3246-fcd6-444c-baa9-1f21befb1483","ios":"levelo://app?vid=606a3246-fcd6-444c-baa9-1f21befb1483"},"vehicle_type_id":"4","last_reported":1773221528,"current_range_meters":32400,"station_id":"ce4bh9p2rcd13ifvqec0","pricing_plan_id":"cebpf4jnsgd1na2vs0mg"},{"bike_id":"145be154-1961-4507-9feb-83f30ea10cc5","system_id":"levelo_inurba_marseille","lat":43.31544,"lon":5.38037,"is_reserved":false,"is_disabled":false,"rental_uris":{"android":"levelo://app?vid=145be154-1961-4507-9feb-83f30ea10cc5","ios":"levelo://app?vid=145be154-1961-4507-9feb-83f30ea10cc5"},"vehicle_type_id":"4","last_reported":1773221528,"current_range_meters":38000,"station_id":"ce4bhsp2rcd13ifvqi50","pricing_plan_id":"cebpf4jnsgd1na2vs0mg"},{"bike_id":"25ee8f06-2f70-477f-b0c9-11049b05cb6a","system_id":"levelo_inurba_marseille","lat":43.27498,"lon":5.42455,"is_reserved":false,"is_disabled":false,"rental_uris":{"android":"levelo://app?vid=25ee8f06-2f70-477f-b0c9-11049b05cb6a","ios":"levelo://app?vid=25ee8f06-2f70-477f-b0c9-11049b05cb6a"},"vehicle_type_id":"4","last_reported":1773221528,"current_range_meters":24000,"station_id":"ce4bhn92rcd13ifvqgrg","pricing_plan_id":"cebpf4jnsgd1na2vs0mg"},{"bike_id":"2ae42dd6-1c2d-422f-b349-05cc8dc2420e","system_id":"levelo_inurba_marseille","lat":43.25014,"lon":5.3893,"is_reserved":false,"is_disabled":false,"rental_uris":{"android":"levelo://app?vid=2ae42dd6-1c2d-422f-b349-05cc8dc2420e","ios":"levelo://app?vid=2ae42dd6-1c2d-422f-b349-05cc8dc2420e"},"vehicle_type_id":"4","last_reported":1773221528,"current_range_meters":36400,"station_id":"ce4bhgp2rcd13ifvqfd0","pricing_plan_id":"cebpf4jnsgd1na2vs0mg"},{"bike_id":"a63517d9-4acf-454c-8ecb-261b0e42bb01","system_id":"levelo_inurba_marseille","lat":43.30289,"lon":5.369,"is_reserved":false,"is_disabled":false,"rental_uris":{"android":"levelo://app?vid=a63517d9-4acf-454c-8ecb-261b0e42bb01","ios":"levelo://app?vid=a63517d9-4acf-454c-8ecb-261b0e42bb01"},"vehicle_type_id":"4","last_reported":1773221528,"current_range_meters":40000,"station_id":"ce4bgqh2rcd13ifvqc5g","pricing_plan_id":"cebpf4jnsgd1na2vs0mg"},{"bike_id":"2823fa1c-4e82-4d56-9f79-52166d93f3e5","system_id":"levelo_inurba_marseille","lat":43.29327,"lon":5.37145,"is_reserved":false,"is_disabled":false,"rental_uris":{"android":"levelo://app?vid=2823fa1c-4e82-4d56-9f79-52166d93f3e5","ios":"levelo://app?vid=2823fa1c-4e82-4d56-9f79-52166d93f3e5"},"vehicle_type_id":"4","last_reported":1773221528,"current_range_meters":40000,"station_id":"ce4bgh92rcd13ifvqb40","pricing_plan_id":"cebpf4jnsgd1na2vs0mg"},{"bike_id":"4035076b-e1f7-4550-ba18-40b5d2e4f17a","system_id":"levelo_inurba_marseille","lat":43.27511,"lon":5.39527,"is_reserved":false,"is_disabled":false,"rental_uris":{"android":"levelo://app?vid=4035076b-e1f7-4550-ba18-40b5d2e4f17a","ios":"levelo://app?vid=4035076b-e1f7-4550-ba18-40b5d2e4f17a"},"vehicle_type_id":"4","last_reported":1773221528,"current_range_meters":8800,"station_id":"","pricing_plan_id":"cebpf4jnsgd1na2vs0mg"},{"bike_id":"182a33c2-192b-4c16-af77-c32682d4109b","system_id":"levelo_inurba_marseille","lat":43.24131,"lon":5.39708,"is_reserved":false,"is_disabled":false,"rental_uris":{"android":"levelo://app?vid=182a33c2-192b-4c16-af77-c32682d4109b","ios":"levelo://app?vid=182a33c2-192b-4c16-af77-c32682d4109b"},"vehicle_type_id":"4","last_reported":1773221528,"current_range_meters":36400,"station_id":"ce4bhn12rcd13ifvqgpg","pricing_plan_id":"cebpf4jnsgd1na2vs0mg"},{"bike_id":"eb02f236-05c3-467a-8a2a-614e8f02443f","system_id":"levelo_inurba_marseille","lat":43.29546,"lon":5.37541,"is_reserved":false,"is_disabled":false,"rental_uris":{"android":"levelo://app?vid=eb02f236-05c3-467a-8a2a-614e8f02443f","ios":"levelo://app?vid=eb02f236-05c3-467a-8a2a-614e8f02443f"},"vehicle_type_id":"4","last_reported":1773221528,"current_range_meters":36800,"station_id":"ce4bgkp2rcd13ifvqbmg","pricing_plan_id":"cebpf4jnsgd1na2vs0mg"},{"bike_id":"05c16352-feed-4113-aa76-9fec155cb647","system_id":"levelo_inurba_marseille","lat":43.28948,"lon":5.36643,"is_reserved":false,"is_disabled":false,"rental_uris":{"android":"levelo://app?vid=05c16352-feed-4113-aa76-9fec155cb647","ios":"levelo://app?vid=05c16352-feed-4113-aa76-9fec155cb647"},"vehicle_type_id":"4","last_reported":1773221528,"current_range_meters":35600,"station_id":"ce4bhap2rcd13ifvqek0","pricing_plan_id":"cebpf4jnsgd1na2vs0mg"},{"bike_id":"94ecc346-3888-4801-96b7-afa97a11f6a0","system_id":"levelo_inurba_marseille","lat":43.24549,"lon":5.39521,"is_reserved":false,"is_disabled":false,"rental_uris":{"android":"levelo://app?vid=94ecc346-3888-4801-96b7-afa97a11f6a0","ios":"levelo://app?vid=94ecc346-3888-4801-96b7-afa97a11f6a0"},"vehicle_type_id":"4","last_reported":1773221528,"current_range_meters":12800,"station_id":"ce4bhlp2rcd13ifvqgjg","pricing_plan_id":"cebpf4jnsgd1na2vs0mg"},{"bike_id":"c80708f5-c9c0-4a3b-b544-7dd6a5a20df3","system_id":"levelo_inurba_marseille","lat":43.27324,"lon":5.39098,"is_reserved":false,"is_disabled":false,"rental_uris":{"android":"levelo://app?vid=c80708f5-c9c0-4a3b-b544-7dd6a5a20df3","ios":"levelo://app?vid=c80708f5-c9c0-4a3b-b544-7dd6a5a20df3"},"vehicle_type_id":"4","last_reported":1773221528,"current_range_meters":39200,"station_id":"ce4bhgp2rcd13ifvqfe0","pricing_plan_id":"cebpf4jnsgd1na2vs0mg"},{"bike_id":"3a993606-eb1a-49ad-8c38-bbbf6b12074b","system_id":"levelo_inurba_marseille","lat":43.29533,"lon":5.37517,"is_reserved":false,"is_disabled":false,"rental_uris":{"android":"levelo://app?vid=3a993606-eb1a-49ad-8c38-bbbf6b12074b","ios":"levelo://app?vid=3a993606-eb1a-49ad-8c38-bbbf6b12074b"},"vehicle_type_id":"4","last_reported":1773221528,"current_range_meters":39200,"station_id":"ce4bgkp2rcd13ifvqbmg","pricing_plan_id":"cebpf4jnsgd1na2vs0mg"},{"bike_id":"faa6004d-cd41-4008-8bcc-b182163123b5","system_id":"levelo_inurba_marseille","lat":43.24167,"lon":5.36398,"is_reserved":false,"is_disabled":false,"rental_uris":{"android":"levelo://app?vid=faa6004d-cd41-4008-8bcc-b182163123b5","ios":"levelo://app?vid=faa6004d-cd41-4008-8bcc-b182163123b5"},"vehicle_type_id":"4","last_reported":1773221528,"current_range_meters":12000,"station_id":"cpo36qri1sfpv3e86is0","pricing_plan_id":"cebpf4jnsgd1na2vs0mg"},{"bike_id":"643a041d-3faf-4dc4-a3ad-d2cb17d6236c","system_id":"levelo_inurba_marseille","lat":43.29991,"lon":5.37471,"is_reserved":false,"is_disabled":false,"rental_uris":{"android":"levelo://app?vid=643a041d-3faf-4dc4-a3ad-d2cb17d6236c","ios":"levelo://app?vid=643a041d-3faf-4dc4-a3ad-d2cb17d6236c"},"vehicle_type_id":"4","last_reported":1773221528,"current_range_meters":37600,"station_id":"","pricing_plan_id":"cebpf4jnsgd1na2vs0mg"},{"bike_id":"92a4b2d7-7dcf-450b-a2fe-b3e764946902","system_id":"levelo_inurba_marseille","lat":43.3061,"lon":5.40125,"is_reserved":false,"is_disabled":false,"rental_uris":{"android":"levelo://app?vid=92a4b2d7-7dcf-450b-a2fe-b3e764946902","ios":"levelo://app?vid=92a4b2d7-7dcf-450b-a2fe-b3e764946902"},"vehicle_type_id":"4","last_reported":1773221528,"current_range_meters":20000,"station_id":"ce4bh112rcd13ifvqda0","pricing_plan_id":"cebpf4jnsgd1na2vs0mg"},{"bike_id":"a98a2ffa-f3fb-4c8b-86b7-609f1d5345a7","system_id":"levelo_inurba_marseille","lat":43.30275,"lon":5.36932,"is_reserved":false,"is_disabled":false,"rental_uris":{"android":"levelo://app?vid=a98a2ffa-f3fb-4c8b-86b7-609f1d5345a7","ios":"levelo://app?vid=a98a2ffa-f3fb-4c8b-86b7-609f1d5345a7"},"vehicle_type_id":"4","last_reported":1773221528,"current_range_meters":29600,"station_id":"ce4bgqh2rcd13ifvqc5g","pricing_plan_id":"cebpf4jnsgd1na2vs0mg"},{"bike_id":"90c21d76-cccc-4252-975d-3a89242c8302","system_id":"levelo_inurba_marseille","lat":43.30621,"lon":5.37216,"is_reserved":false,"is_disabled":false,"rental_uris":{"android":"levelo://app?vid=90c21d76-cccc-4252-975d-3a89242c8302","ios":"levelo://app?vid=90c21d76-cccc-4252-975d-3a89242c8302"},"vehicle_type_id":"4","last_reported":1773221528,"current_range_meters":39200,"station_id":"ce4bgqh2rcd13ifvqc4g","pricing_plan_id":"cebpf4jnsgd1na2vs0mg"},{"bike_id":"17ce7070-d813-4eaf-a544-6259968aa271","system_id":"levelo_inurba_marseille","lat":43.31077,"lon":5.36836,"is_reserved":false,"is_disabled":false,"rental_uris":{"android":"levelo://app?vid=17ce7070-d813-4eaf-a544-6259968aa271","ios":"levelo://app?vid=17ce7070-d813-4eaf-a544-6259968aa271"},"vehicle_type_id":"4","last_reported":1773221528,"current_range_meters":8800,"station_id":"","pricing_plan_id":"cebpf4jnsgd1na2vs0mg"},{"bike_id":"bd397dac-97a0-4bb3-82c1-a84a04fd6c02","system_id":"levelo_inurba_marseille","lat":43.2718,"lon":5.39165,"is_reserved":false,"is_disabled":false,"rental_uris":{"android":"levelo://app?vid=bd397dac-97a0-4bb3-82c1-a84a04fd6c02","ios":"levelo://app?vid=bd397dac-97a0-4bb3-82c1-a84a04fd6c02"},"vehicle_type_id":"4","last_reported":1773221528,"current_range_meters":36800,"station_id":"ce4bhhp2rcd13ifvqfm0","pricing_plan_id":"cebpf4jnsgd1na2vs0mg"},{"bike_id":"84edac93-97f0-4f16-980c-7e1b057bc44a","system_id":"levelo_inurba_marseille","lat":43.25864,"lon":5.39411,"is_reserved":false,"is_disabled":false,"rental_uris":{"android":"levelo://app?vid=84edac93-97f0-4f16-980c-7e1b057bc44a","ios":"levelo://app?vid=84edac93-97f0-4f16-980c-7e1b057bc44a"},"vehicle_type_id":"4","last_reported":1773221528,"current_range_meters":27200,"station_id":"","pricing_plan_id":"cebpf4jnsgd1na2vs0mg"},{"bike_id":"16ced00d-b75b-480f-bfe3-587817c52078","system_id":"levelo_inurba_marseille","lat":43.24659,"lon":5.38902,"is_reserved":false,"is_disabled":false,"rental_uris":{"android":"levelo://app?vid=16ced00d-b75b-480f-bfe3-587817c52078","ios":"levelo://app?vid=16ced00d-b75b-480f-bfe3-587817c52078"},"vehicle_type_id":"4","last_reported":1773221528,"current_range_meters":38800,"station_id":"ce4bhg12rcd13ifvqf60","pricing_plan_id":"cebpf4jnsgd1na2vs0mg"},{"bike_id":"095740f3-4e12-4adb-8a1a-03aa33c9cd08","system_id":"levelo_inurba_marseille","lat":43.2656,"lon":5.37299,"is_reserved":false,"is_disabled":false,"rental_uris":{"android":"levelo://app?vid=095740f3-4e12-4adb-8a1a-03aa33c9cd08","ios":"levelo://app?vid=095740f3-4e12-4adb-8a1a-03aa33c9cd08"},"vehicle_type_id":"4","last_reported":1773221528,"current_range_meters":14000,"station_id":"ce4bhg12rcd13ifvqf70","pricing_plan_id":"cebpf4jnsgd1na2vs0mg"},{"bike_id":"07d667a1-20cd-44c6-a08f-d51c851309d8","system_id":"levelo_inurba_marseille","lat":43.29736,"lon":5.37084,"is_reserved":false,"is_disabled":false,"rental_uris":{"android":"levelo://app?vid=07d667a1-20cd-44c6-a08f-d51c851309d8","ios":"levelo://app?vid=07d667a1-20cd-44c6-a08f-d51c851309d8"},"vehicle_type_id":"4","last_reported":1773221528,"current_range_meters":25600,"station_id":"","pricing_plan_id":"cebpf4jnsgd1na2vs0mg"},{"bike_id":"566d1d1a-0852-4e0d-907b-e1334e0d6bf9","system_id":"levelo_inurba_marseille","lat":43.23786,"lon":5.36632,"is_reserved":false,"is_disabled":false,"rental_uris":{"android":"levelo://app?vid=566d1d1a-0852-4e0d-907b-e1334e0d6bf9","ios":"levelo://app?vid=566d1d1a-0852-4e0d-907b-e1334e0d6bf9"},"vehicle_type_id":"4","last_reported":1773221528,"current_range_meters":14800,"station_id":"st_d3nk18o9ro0c73en2l3g","pricing_plan_id":"cebpf4jnsgd1na2vs0mg"},{"bike_id":"ba4d6291-f191-48b7-a6a8-ceee01b66f96","system_id":"levelo_inurba_marseille","lat":43.2813,"lon":5.38227,"is_reserved":false,"is_disabled":false,"rental_uris":{"android":"levelo://app?vid=ba4d6291-f191-48b7-a6a8-ceee01b66f96","ios":"levelo://app?vid=ba4d6291-f191-48b7-a6a8-ceee01b66f96"},"vehicle_type_id":"4","last_reported":1773221528,"current_range_meters":22400,"station_id":"","pricing_plan_id":"cebpf4jnsgd1na2vs0mg"},{"bike_id":"dd6d12c4-c00c-4021-839a-f38c2ba6c7b9","system_id":"levelo_inurba_marseille","lat":43.27216,"lon":5.39208,"is_reserved":false,"is_disabled":false,"rental_uris":{"android":"levelo://app?vid=dd6d12c4-c00c-4021-839a-f38c2ba6c7b9","ios":"levelo://app?vid=dd6d12c4-c00c-4021-839a-f38c2ba6c7b9"},"vehicle_type_id":"4","last_reported":1773221528,"current_range_meters":39200,"station_id":"ce4bhhp2rcd13ifvqfm0","pricing_plan_id":"cebpf4jnsgd1na2vs0mg"},{"bike_id":"a4e65aba-5311-41c6-8eda-43e691c93b83","system_id":"levelo_inurba_marseille","lat":43.29958,"lon":5.38502,"is_reserved":false,"is_disabled":false,"rental_uris":{"android":"levelo://app?vid=a4e65aba-5311-41c6-8eda-43e691c93b83","ios":"levelo://app?vid=a4e65aba-5311-41c6-8eda-43e691c93b83"},"vehicle_type_id":"4","last_reported":1773221528,"current_range_meters":28800,"station_id":"ce4bgj92rcd13ifvqbd0","pricing_plan_id":"cebpf4jnsgd1na2vs0mg"},{"bike_id":"13f5d6ee-b5b6-4f72-86db-f808654551b8","system_id":"levelo_inurba_marseille","lat":43.29896,"lon":5.43663,"is_reserved":false,"is_disabled":true,"rental_uris":{"android":"levelo://app?vid=13f5d6ee-b5b6-4f72-86db-f808654551b8","ios":"levelo://app?vid=13f5d6ee-b5b6-4f72-86db-f808654551b8"},"vehicle_type_id":"4","last_reported":1773221528,"current_range_meters":29600,"station_id":"ce4bhpp2rcd13ifvqhfg","pricing_plan_id":"cebpf4jnsgd1na2vs0mg"},{"bike_id":"1c573354-cf53-44d3-9111-eb37080df88e","system_id":"levelo_inurba_marseille","lat":43.31545,"lon":5.37345,"is_reserved":false,"is_disabled":false,"rental_uris":{"android":"levelo://app?vid=1c573354-cf53-44d3-9111-eb37080df88e","ios":"levelo://app?vid=1c573354-cf53-44d3-9111-eb37080df88e"},"vehicle_type_id":"4","last_reported":1773221528,"current_range_meters":18000,"station_id":"","pricing_plan_id":"cebpf4jnsgd1na2vs0mg"},{"bike_id":"4681a970-3332-4681-8ab0-503cc4b97467","system_id":"levelo_inurba_marseille","lat":43.2731,"lon":5.39092,"is_reserved":false,"is_disabled":false,"rental_uris":{"android":"levelo://app?vid=4681a970-3332-4681-8ab0-503cc4b97467","ios":"levelo://app?vid=4681a970-3332-4681-8ab0-503cc4b97467"},"vehicle_type_id":"4","last_reported":1773221528,"current_range_meters":39200,"station_id":"ce4bhgp2rcd13ifvqfe0","pricing_plan_id":"cebpf4jnsgd1na2vs0mg"},{"bike_id":"8b783c91-f0ea-46f4-943f-be57fd8cd390","system_id":"levelo_inurba_marseille","lat":43.25945,"lon":5.40906,"is_reserved":false,"is_disabled":false,"rental_uris":{"android":"levelo://app?vid=8b783c91-f0ea-46f4-943f-be57fd8cd390","ios":"levelo://app?vid=8b783c91-f0ea-46f4-943f-be57fd8cd390"},"vehicle_type_id":"4","last_reported":1773221528,"current_range_meters":14400,"station_id":"ce4bhm92rcd13ifvqglg","pricing_plan_id":"cebpf4jnsgd1na2vs0mg"},{"bike_id":"d9ae451b-394d-4600-bc8e-250781c8b682","system_id":"levelo_inurba_marseille","lat":43.26572,"lon":5.37277,"is_reserved":false,"is_disabled":false,"rental_uris":{"android":"levelo://app?vid=d9ae451b-394d-4600-bc8e-250781c8b682","ios":"levelo://app?vid=d9ae451b-394d-4600-bc8e-250781c8b682"},"vehicle_type_id":"4","last_reported":1773221528,"current_range_meters":16000,"station_id":"ce4bhg12rcd13ifvqf70","pricing_plan_id":"cebpf4jnsgd1na2vs0mg"},{"bike_id":"c33732c3-34b3-43cf-9550-258c10091c04","system_id":"levelo_inurba_marseille","lat":43.299,"lon":5.42113,"is_reserved":false,"is_disabled":false,"rental_uris":{"android":"levelo://app?vid=c33732c3-34b3-43cf-9550-258c10091c04","ios":"levelo://app?vid=c33732c3-34b3-43cf-9550-258c10091c04"},"vehicle_type_id":"4","last_reported":1773221528,"current_range_meters":38000,"station_id":"","pricing_plan_id":"cebpf4jnsgd1na2vs0mg"},{"bike_id":"17b09d81-d149-4724-af91-a2adea08448a","system_id":"levelo_inurba_marseille","lat":43.2933,"lon":5.37146,"is_reserved":false,"is_disabled":false,"rental_uris":{"android":"levelo://app?vid=17b09d81-d149-4724-af91-a2adea08448a","ios":"levelo://app?vid=17b09d81-d149-4724-af91-a2adea08448a"},"vehicle_type_id":"4","last_reported":1773221528,"current_range_meters":28800,"station_id":"ce4bgh92rcd13ifvqb40","pricing_plan_id":"cebpf4jnsgd1na2vs0mg"},{"bike_id":"c0f5bd4a-cbc2-427a-92f0-0be45de4abfd","system_id":"levelo_inurba_marseille","lat":43.28531,"lon":5.44116,"is_reserved":false,"is_disabled":false,"rental_uris":{"android":"levelo://app?vid=c0f5bd4a-cbc2-427a-92f0-0be45de4abfd","ios":"levelo://app?vid=c0f5bd4a-cbc2-427a-92f0-0be45de4abfd"},"vehicle_type_id":"4","last_reported":1773221528,"current_range_meters":6400,"station_id":"st_d3j3df2ikq2c7380ej80","pricing_plan_id":"cebpf4jnsgd1na2vs0mg"},{"bike_id":"9acb9c36-c39f-4423-9d70-4561b4f2ce90","system_id":"levelo_inurba_marseille","lat":43.30335,"lon":5.42526,"is_reserved":false,"is_disabled":false,"rental_uris":{"android":"levelo://app?vid=9acb9c36-c39f-4423-9d70-4561b4f2ce90","ios":"levelo://app?vid=9acb9c36-c39f-4423-9d70-4561b4f2ce90"},"vehicle_type_id":"4","last_reported":1773221528,"current_range_meters":36400,"station_id":"","pricing_plan_id":"cebpf4jnsgd1na2vs0mg"},{"bike_id":"9361e921-3adb-44ab-82c7-577f09a13f38","system_id":"levelo_inurba_marseille","lat":43.24176,"lon":5.39734,"is_reserved":false,"is_disabled":false,"rental_uris":{"android":"levelo://app?vid=9361e921-3adb-44ab-82c7-577f09a13f38","ios":"levelo://app?vid=9361e921-3adb-44ab-82c7-577f09a13f38"},"vehicle_type_id":"4","last_reported":1773221528,"current_range_meters":40000,"station_id":"ce4bhn12rcd13ifvqgpg","pricing_plan_id":"cebpf4jnsgd1na2vs0mg"},{"bike_id":"6eaf328c-de35-4b3f-8c0e-4c90d9499b4b","system_id":"levelo_inurba_marseille","lat":43.32119,"lon":5.36771,"is_reserved":false,"is_disabled":false,"rental_uris":{"android":"levelo://app?vid=6eaf328c-de35-4b3f-8c0e-4c90d9499b4b","ios":"levelo://app?vid=6eaf328c-de35-4b3f-8c0e-4c90d9499b4b"},"vehicle_type_id":"4","last_reported":1773221528,"current_range_meters":38400,"station_id":"ce4bhrh2rcd13ifvqhug","pricing_plan_id":"cebpf4jnsgd1na2vs0mg"},{"bike_id":"a5eb7e2e-f45f-42c7-8ba3-bf76c2472338","system_id":"levelo_inurba_marseille","lat":43.30207,"lon":5.39438,"is_reserved":false,"is_disabled":false,"rental_uris":{"android":"levelo://app?vid=a5eb7e2e-f45f-42c7-8ba3-bf76c2472338","ios":"levelo://app?vid=a5eb7e2e-f45f-42c7-8ba3-bf76c2472338"},"vehicle_type_id":"4","last_reported":1773221528,"current_range_meters":24800,"station_id":"ce4bh0p2rcd13ifvqd70","pricing_plan_id":"cebpf4jnsgd1na2vs0mg"},{"bike_id":"bb4d2406-b5bc-49be-9f7c-f47fcdbe593b","system_id":"levelo_inurba_marseille","lat":43.3056,"lon":5.36709,"is_reserved":false,"is_disabled":true,"rental_uris":{"android":"levelo://app?vid=bb4d2406-b5bc-49be-9f7c-f47fcdbe593b","ios":"levelo://app?vid=bb4d2406-b5bc-49be-9f7c-f47fcdbe593b"},"vehicle_type_id":"4","last_reported":1773221528,"current_range_meters":38400,"station_id":"ce4bgrp2rcd13ifvqc9g","pricing_plan_id":"cebpf4jnsgd1na2vs0mg"},{"bike_id":"fda7a845-f92c-419b-81b8-71eaee9a407d","system_id":"levelo_inurba_marseille","lat":43.29502,"lon":5.37513,"is_reserved":false,"is_disabled":false,"rental_uris":{"android":"levelo://app?vid=fda7a845-f92c-419b-81b8-71eaee9a407d","ios":"levelo://app?vid=fda7a845-f92c-419b-81b8-71eaee9a407d"},"vehicle_type_id":"4","last_reported":1773221528,"current_range_meters":39200,"station_id":"ce4bgkp2rcd13ifvqbmg","pricing_plan_id":"cebpf4jnsgd1na2vs0mg"},{"bike_id":"5f72350b-2c43-4ae3-97f1-1beffc338161","system_id":"levelo_inurba_marseille","lat":43.23966,"lon":5.3663,"is_reserved":false,"is_disabled":false,"rental_uris":{"android":"levelo://app?vid=5f72350b-2c43-4ae3-97f1-1beffc338161","ios":"levelo://app?vid=5f72350b-2c43-4ae3-97f1-1beffc338161"},"vehicle_type_id":"4","last_reported":1773221528,"current_range_meters":40000,"station_id":"ce4bhi12rcd13ifvqfp0","pricing_plan_id":"cebpf4jnsgd1na2vs0mg"},{"bike_id":"00adc013-06bc-44f0-92b9-114da8a17fc8","system_id":"levelo_inurba_marseille","lat":43.29662,"lon":5.39356,"is_reserved":false,"is_disabled":false,"rental_uris":{"android":"levelo://app?vid=00adc013-06bc-44f0-92b9-114da8a17fc8","ios":"levelo://app?vid=00adc013-06bc-44f0-92b9-114da8a17fc8"},"vehicle_type_id":"4","last_reported":1773221528,"current_range_meters":9200,"station_id":"","pricing_plan_id":"cebpf4jnsgd1na2vs0mg"},{"bike_id":"a9f2a214-0b28-434f-a80c-334d78dcfe7c","system_id":"levelo_inurba_marseille","lat":43.29249,"lon":5.36056,"is_reserved":false,"is_disabled":false,"rental_uris":{"android":"levelo://app?vid=a9f2a214-0b28-434f-a80c-334d78dcfe7c","ios":"levelo://app?vid=a9f2a214-0b28-434f-a80c-334d78dcfe7c"},"vehicle_type_id":"4","last_reported":1773221528,"current_range_meters":38800,"station_id":"ce4bhbh2rcd13ifvqeqg","pricing_plan_id":"cebpf4jnsgd1na2vs0mg"},{"bike_id":"73355373-2d2c-4850-beb6-f530137cdd8e","system_id":"levelo_inurba_marseille","lat":43.33152,"lon":5.37691,"is_reserved":false,"is_disabled":false,"rental_uris":{"android":"levelo://app?vid=73355373-2d2c-4850-beb6-f530137cdd8e","ios":"levelo://app?vid=73355373-2d2c-4850-beb6-f530137cdd8e"},"vehicle_type_id":"4","last_reported":1773221528,"current_range_meters":17600,"station_id":"st_d46cu089ee8s73dldbu0","pricing_plan_id":"cebpf4jnsgd1na2vs0mg"},{"bike_id":"f27be3cb-d5fc-4498-8e52-861d9b4aac8e","system_id":"levelo_inurba_marseille","lat":43.24811,"lon":5.37453,"is_reserved":false,"is_disabled":false,"rental_uris":{"android":"levelo://app?vid=f27be3cb-d5fc-4498-8e52-861d9b4aac8e","ios":"levelo://app?vid=f27be3cb-d5fc-4498-8e52-861d9b4aac8e"},"vehicle_type_id":"4","last_reported":1773221528,"current_range_meters":38400,"station_id":"ce4bhgh2rcd13ifvqfb0","pricing_plan_id":"cebpf4jnsgd1na2vs0mg"},{"bike_id":"3d7b1bec-2a06-47da-a7d0-796cda99d14f","system_id":"levelo_inurba_marseille","lat":43.27074,"lon":5.38303,"is_reserved":false,"is_disabled":false,"rental_uris":{"android":"levelo://app?vid=3d7b1bec-2a06-47da-a7d0-796cda99d14f","ios":"levelo://app?vid=3d7b1bec-2a06-47da-a7d0-796cda99d14f"},"vehicle_type_id":"4","last_reported":1773221528,"current_range_meters":20000,"station_id":"st_d3n2fo6cfp8s73cte1j0","pricing_plan_id":"cebpf4jnsgd1na2vs0mg"},{"bike_id":"571cdadb-645f-4884-a710-d1e512ca8e71","system_id":"levelo_inurba_marseille","lat":43.31355,"lon":5.36705,"is_reserved":false,"is_disabled":false,"rental_uris":{"android":"levelo://app?vid=571cdadb-645f-4884-a710-d1e512ca8e71","ios":"levelo://app?vid=571cdadb-645f-4884-a710-d1e512ca8e71"},"vehicle_type_id":"4","last_reported":1773221528,"current_range_meters":38000,"station_id":"ce4bgr92rcd13ifvqc6g","pricing_plan_id":"cebpf4jnsgd1na2vs0mg"},{"bike_id":"a3c89552-882d-48ad-8e51-cea3f92560f0","system_id":"levelo_inurba_marseille","lat":43.30953,"lon":5.39039,"is_reserved":false,"is_disabled":false,"rental_uris":{"android":"levelo://app?vid=a3c89552-882d-48ad-8e51-cea3f92560f0","ios":"levelo://app?vid=a3c89552-882d-48ad-8e51-cea3f92560f0"},"vehicle_type_id":"4","last_reported":1773221528,"current_range_meters":11200,"station_id":"ce4bgup2rcd13ifvqco0","pricing_plan_id":"cebpf4jnsgd1na2vs0mg"},{"bike_id":"2386054f-29f0-4bbb-b4c5-1b35b953f1c0","system_id":"levelo_inurba_marseille","lat":43.24983,"lon":5.38917,"is_reserved":false,"is_disabled":false,"rental_uris":{"android":"levelo://app?vid=2386054f-29f0-4bbb-b4c5-1b35b953f1c0","ios":"levelo://app?vid=2386054f-29f0-4bbb-b4c5-1b35b953f1c0"},"vehicle_type_id":"4","last_reported":1773221528,"current_range_meters":39200,"station_id":"ce4bhgp2rcd13ifvqfd0","pricing_plan_id":"cebpf4jnsgd1na2vs0mg"},{"bike_id":"937372f5-5b7b-47bc-8f0c-ea6079dd82b4","system_id":"levelo_inurba_marseille","lat":43.25939,"lon":5.40912,"is_reserved":false,"is_disabled":false,"rental_uris":{"android":"levelo://app?vid=937372f5-5b7b-47bc-8f0c-ea6079dd82b4","ios":"levelo://app?vid=937372f5-5b7b-47bc-8f0c-ea6079dd82b4"},"vehicle_type_id":"4","last_reported":1773221528,"current_range_meters":9600,"station_id":"ce4bhm92rcd13ifvqglg","pricing_plan_id":"cebpf4jnsgd1na2vs0mg"},{"bike_id":"dd854777-f378-4132-94e6-63027cc18b82","system_id":"levelo_inurba_marseille","lat":43.29727,"lon":5.41059,"is_reserved":false,"is_disabled":false,"rental_uris":{"android":"levelo://app?vid=dd854777-f378-4132-94e6-63027cc18b82","ios":"levelo://app?vid=dd854777-f378-4132-94e6-63027cc18b82"},"vehicle_type_id":"4","last_reported":1773221528,"current_range_meters":29600,"station_id":"","pricing_plan_id":"cebpf4jnsgd1na2vs0mg"},{"bike_id":"b20f4d36-77aa-4553-9f9c-f7e45a6ac65b","system_id":"levelo_inurba_marseille","lat":43.30154,"lon":5.39825,"is_reserved":false,"is_disabled":false,"rental_uris":{"android":"levelo://app?vid=b20f4d36-77aa-4553-9f9c-f7e45a6ac65b","ios":"levelo://app?vid=b20f4d36-77aa-4553-9f9c-f7e45a6ac65b"},"vehicle_type_id":"4","last_reported":1773221528,"current_range_meters":17200,"station_id":"ce4bh0h2rcd13ifvqd40","pricing_plan_id":"cebpf4jnsgd1na2vs0mg"},{"bike_id":"8bb61b0a-3b8c-41ed-b28b-1ae38f2e8b15","system_id":"levelo_inurba_marseille","lat":43.27068,"lon":5.40251,"is_reserved":false,"is_disabled":false,"rental_uris":{"android":"levelo://app?vid=8bb61b0a-3b8c-41ed-b28b-1ae38f2e8b15","ios":"levelo://app?vid=8bb61b0a-3b8c-41ed-b28b-1ae38f2e8b15"},"vehicle_type_id":"4","last_reported":1773221528,"current_range_meters":28400,"station_id":"ce4bhk92rcd13ifvqgc0","pricing_plan_id":"cebpf4jnsgd1na2vs0mg"},{"bike_id":"003d1d08-fcf1-4e48-b79d-cd47497b0244","system_id":"levelo_inurba_marseille","lat":43.29577,"lon":5.37482,"is_reserved":false,"is_disabled":true,"rental_uris":{"android":"levelo://app?vid=003d1d08-fcf1-4e48-b79d-cd47497b0244","ios":"levelo://app?vid=003d1d08-fcf1-4e48-b79d-cd47497b0244"},"vehicle_type_id":"4","last_reported":1773221528,"current_range_meters":36000,"station_id":"ce4bgh92rcd13ifvqb50","pricing_plan_id":"cebpf4jnsgd1na2vs0mg"},{"bike_id":"532f1fe9-6384-4056-88f3-ddfdd084688a","system_id":"levelo_inurba_marseille","lat":43.29811,"lon":5.4188,"is_reserved":false,"is_disabled":false,"rental_uris":{"android":"levelo://app?vid=532f1fe9-6384-4056-88f3-ddfdd084688a","ios":"levelo://app?vid=532f1fe9-6384-4056-88f3-ddfdd084688a"},"vehicle_type_id":"4","last_reported":1773221528,"current_range_meters":30400,"station_id":"","pricing_plan_id":"cebpf4jnsgd1na2vs0mg"},{"bike_id":"7b13b3db-41b1-4922-a06b-13fea874a109","system_id":"levelo_inurba_marseille","lat":43.31274,"lon":5.36828,"is_reserved":false,"is_disabled":false,"rental_uris":{"android":"levelo://app?vid=7b13b3db-41b1-4922-a06b-13fea874a109","ios":"levelo://app?vid=7b13b3db-41b1-4922-a06b-13fea874a109"},"vehicle_type_id":"4","last_reported":1773221528,"current_range_meters":28400,"station_id":"ce4bgl92rcd13ifvqbq0","pricing_plan_id":"cebpf4jnsgd1na2vs0mg"},{"bike_id":"3c8d6bce-d9c4-4269-82c6-7e6f35ffe4b3","system_id":"levelo_inurba_marseille","lat":43.29626,"lon":5.37476,"is_reserved":false,"is_disabled":false,"rental_uris":{"android":"levelo://app?vid=3c8d6bce-d9c4-4269-82c6-7e6f35ffe4b3","ios":"levelo://app?vid=3c8d6bce-d9c4-4269-82c6-7e6f35ffe4b3"},"vehicle_type_id":"4","last_reported":1773221528,"current_range_meters":10000,"station_id":"","pricing_plan_id":"cebpf4jnsgd1na2vs0mg"},{"bike_id":"af54dd39-b9bb-475e-a865-ef76c9332c4b","system_id":"levelo_inurba_marseille","lat":43.28393,"lon":5.38195,"is_reserved":false,"is_disabled":false,"rental_uris":{"android":"levelo://app?vid=af54dd39-b9bb-475e-a865-ef76c9332c4b","ios":"levelo://app?vid=af54dd39-b9bb-475e-a865-ef76c9332c4b"},"vehicle_type_id":"4","last_reported":1773221528,"current_range_meters":30400,"station_id":"","pricing_plan_id":"cebpf4jnsgd1na2vs0mg"},{"bike_id":"5ff4eed9-cc94-417e-b8b0-f370f495b41d","system_id":"levelo_inurba_marseille","lat":43.28215,"lon":5.42643,"is_reserved":false,"is_disabled":false,"rental_uris":{"android":"levelo://app?vid=5ff4eed9-cc94-417e-b8b0-f370f495b41d","ios":"levelo://app?vid=5ff4eed9-cc94-417e-b8b0-f370f495b41d"},"vehicle_type_id":"4","last_reported":1773221528,"current_range_meters":24000,"station_id":"","pricing_plan_id":"cebpf4jnsgd1na2vs0mg"},{"bike_id":"6aeb7065-db05-40b4-8e52-d2ac15dbfc8c","system_id":"levelo_inurba_marseille","lat":43.29014,"lon":5.35613,"is_reserved":false,"is_disabled":false,"rental_uris":{"android":"levelo://app?vid=6aeb7065-db05-40b4-8e52-d2ac15dbfc8c","ios":"levelo://app?vid=6aeb7065-db05-40b4-8e52-d2ac15dbfc8c"},"vehicle_type_id":"4","last_reported":1773221528,"current_range_meters":32800,"station_id":"ce4bhb92rcd13ifvqen0","pricing_plan_id":"cebpf4jnsgd1na2vs0mg"},{"bike_id":"9c43543f-fc19-4ea8-90b0-d1837be6e5d0","system_id":"levelo_inurba_marseille","lat":43.2656,"lon":5.37293,"is_reserved":false,"is_disabled":false,"rental_uris":{"android":"levelo://app?vid=9c43543f-fc19-4ea8-90b0-d1837be6e5d0","ios":"levelo://app?vid=9c43543f-fc19-4ea8-90b0-d1837be6e5d0"},"vehicle_type_id":"4","last_reported":1773221528,"current_range_meters":39200,"station_id":"ce4bhg12rcd13ifvqf70","pricing_plan_id":"cebpf4jnsgd1na2vs0mg"},{"bike_id":"b94c3b6d-7912-4bb7-bd16-b874ff101a3d","system_id":"levelo_inurba_marseille","lat":43.24806,"lon":5.37451,"is_reserved":false,"is_disabled":false,"rental_uris":{"android":"levelo://app?vid=b94c3b6d-7912-4bb7-bd16-b874ff101a3d","ios":"levelo://app?vid=b94c3b6d-7912-4bb7-bd16-b874ff101a3d"},"vehicle_type_id":"4","last_reported":1773221528,"current_range_meters":28800,"station_id":"ce4bhgh2rcd13ifvqfb0","pricing_plan_id":"cebpf4jnsgd1na2vs0mg"},{"bike_id":"970809fc-638f-4dd8-8681-afeba7b131fe","system_id":"levelo_inurba_marseille","lat":43.265528,"lon":5.372876,"is_reserved":false,"is_disabled":false,"rental_uris":{"android":"levelo://app?vid=970809fc-638f-4dd8-8681-afeba7b131fe","ios":"levelo://app?vid=970809fc-638f-4dd8-8681-afeba7b131fe"},"vehicle_type_id":"4","last_reported":1773221528,"current_range_meters":2800,"station_id":"ce4bhg12rcd13ifvqf70","pricing_plan_id":"cebpf4jnsgd1na2vs0mg"},{"bike_id":"05f10376-920a-4e54-ab2d-37940827b657","system_id":"levelo_inurba_marseille","lat":43.32118,"lon":5.3678,"is_reserved":false,"is_disabled":false,"rental_uris":{"android":"levelo://app?vid=05f10376-920a-4e54-ab2d-37940827b657","ios":"levelo://app?vid=05f10376-920a-4e54-ab2d-37940827b657"},"vehicle_type_id":"4","last_reported":1773221528,"current_range_meters":32000,"station_id":"ce4bhrh2rcd13ifvqhug","pricing_plan_id":"cebpf4jnsgd1na2vs0mg"},{"bike_id":"7de6ca69-27cb-4f01-b0b4-5059a464752e","system_id":"levelo_inurba_marseille","lat":43.26689,"lon":5.38272,"is_reserved":false,"is_disabled":false,"rental_uris":{"android":"levelo://app?vid=7de6ca69-27cb-4f01-b0b4-5059a464752e","ios":"levelo://app?vid=7de6ca69-27cb-4f01-b0b4-5059a464752e"},"vehicle_type_id":"4","last_reported":1773221528,"current_range_meters":39200,"station_id":"ce4bhg92rcd13ifvqf90","pricing_plan_id":"cebpf4jnsgd1na2vs0mg"},{"bike_id":"1571cd23-3e05-4a34-a3fd-964238daee25","system_id":"levelo_inurba_marseille","lat":43.31191,"lon":5.36873,"is_reserved":false,"is_disabled":false,"rental_uris":{"android":"levelo://app?vid=1571cd23-3e05-4a34-a3fd-964238daee25","ios":"levelo://app?vid=1571cd23-3e05-4a34-a3fd-964238daee25"},"vehicle_type_id":"4","last_reported":1773221528,"current_range_meters":39200,"station_id":"ce4bgl92rcd13ifvqbq0","pricing_plan_id":"cebpf4jnsgd1na2vs0mg"},{"bike_id":"55bd5bac-e5e3-4912-aac3-69de96a3e316","system_id":"levelo_inurba_marseille","lat":43.32496,"lon":5.38271,"is_reserved":false,"is_disabled":false,"rental_uris":{"android":"levelo://app?vid=55bd5bac-e5e3-4912-aac3-69de96a3e316","ios":"levelo://app?vid=55bd5bac-e5e3-4912-aac3-69de96a3e316"},"vehicle_type_id":"4","last_reported":1773221528,"current_range_meters":19200,"station_id":"st_d4asgbiv49dc73anf9m0","pricing_plan_id":"cebpf4jnsgd1na2vs0mg"},{"bike_id":"ff7bc7f2-7e0b-4064-8199-044e49fbc425","system_id":"levelo_inurba_marseille","lat":43.29861,"lon":5.36283,"is_reserved":false,"is_disabled":false,"rental_uris":{"android":"levelo://app?vid=ff7bc7f2-7e0b-4064-8199-044e49fbc425","ios":"levelo://app?vid=ff7bc7f2-7e0b-4064-8199-044e49fbc425"},"vehicle_type_id":"4","last_reported":1773221528,"current_range_meters":39200,"station_id":"ce4bgpp2rcd13ifvqc3g","pricing_plan_id":"cebpf4jnsgd1na2vs0mg"},{"bike_id":"54b4edaa-4eb5-4701-b972-9c0f8b9dfbbf","system_id":"levelo_inurba_marseille","lat":43.29613,"lon":5.377,"is_reserved":false,"is_disabled":true,"rental_uris":{"android":"levelo://app?vid=54b4edaa-4eb5-4701-b972-9c0f8b9dfbbf","ios":"levelo://app?vid=54b4edaa-4eb5-4701-b972-9c0f8b9dfbbf"},"vehicle_type_id":"4","last_reported":1773221528,"current_range_meters":26800,"station_id":"ce4bgi92rcd13ifvqb90","pricing_plan_id":"cebpf4jnsgd1na2vs0mg"},{"bike_id":"712d2224-9001-4f6f-bfdc-af9c778b9081","system_id":"levelo_inurba_marseille","lat":43.22561,"lon":5.41626,"is_reserved":false,"is_disabled":true,"rental_uris":{"android":"levelo://app?vid=712d2224-9001-4f6f-bfdc-af9c778b9081","ios":"levelo://app?vid=712d2224-9001-4f6f-bfdc-af9c778b9081"},"vehicle_type_id":"4","last_reported":1773221528,"current_range_meters":0,"station_id":"st_d2o4gvlbi1j2169b742g","pricing_plan_id":"cebpf4jnsgd1na2vs0mg"},{"bike_id":"2301d092-fcd2-45f3-804a-bf87c6aa69a3","system_id":"levelo_inurba_marseille","lat":43.29563,"lon":5.3762,"is_reserved":false,"is_disabled":false,"rental_uris":{"android":"levelo://app?vid=2301d092-fcd2-45f3-804a-bf87c6aa69a3","ios":"levelo://app?vid=2301d092-fcd2-45f3-804a-bf87c6aa69a3"},"vehicle_type_id":"4","last_reported":1773221528,"current_range_meters":19200,"station_id":"","pricing_plan_id":"cebpf4jnsgd1na2vs0mg"},{"bike_id":"61a991f1-1c61-4cf7-8c66-0365b5426fe3","system_id":"levelo_inurba_marseille","lat":43.25593,"lon":5.38229,"is_reserved":false,"is_disabled":false,"rental_uris":{"android":"levelo://app?vid=61a991f1-1c61-4cf7-8c66-0365b5426fe3","ios":"levelo://app?vid=61a991f1-1c61-4cf7-8c66-0365b5426fe3"},"vehicle_type_id":"4","last_reported":1773221528,"current_range_meters":30800,"station_id":"ce4bhih2rcd13ifvqfs0","pricing_plan_id":"cebpf4jnsgd1na2vs0mg"},{"bike_id":"3cb4118e-249f-4f7f-8bd1-0ddb85d3d47f","system_id":"levelo_inurba_marseille","lat":43.29829,"lon":5.41415,"is_reserved":false,"is_disabled":false,"rental_uris":{"android":"levelo://app?vid=3cb4118e-249f-4f7f-8bd1-0ddb85d3d47f","ios":"levelo://app?vid=3cb4118e-249f-4f7f-8bd1-0ddb85d3d47f"},"vehicle_type_id":"4","last_reported":1773221528,"current_range_meters":38400,"station_id":"","pricing_plan_id":"cebpf4jnsgd1na2vs0mg"},{"bike_id":"251e7265-6da3-486f-9540-4813a6799da8","system_id":"levelo_inurba_marseille","lat":43.29127,"lon":5.35594,"is_reserved":false,"is_disabled":false,"rental_uris":{"android":"levelo://app?vid=251e7265-6da3-486f-9540-4813a6799da8","ios":"levelo://app?vid=251e7265-6da3-486f-9540-4813a6799da8"},"vehicle_type_id":"4","last_reported":1773221528,"current_range_meters":9200,"station_id":"","pricing_plan_id":"cebpf4jnsgd1na2vs0mg"},{"bike_id":"78ccdb19-13f7-409b-8044-f74ab6a3fb78","system_id":"levelo_inurba_marseille","lat":43.2466,"lon":5.38167,"is_reserved":false,"is_disabled":false,"rental_uris":{"android":"levelo://app?vid=78ccdb19-13f7-409b-8044-f74ab6a3fb78","ios":"levelo://app?vid=78ccdb19-13f7-409b-8044-f74ab6a3fb78"},"vehicle_type_id":"4","last_reported":1773221528,"current_range_meters":39200,"station_id":"ce4bhih2rcd13ifvqfr0","pricing_plan_id":"cebpf4jnsgd1na2vs0mg"},{"bike_id":"73f0ddae-b1a2-4563-8525-198b54b4d9b2","system_id":"levelo_inurba_marseille","lat":43.27057,"lon":5.40263,"is_reserved":false,"is_disabled":false,"rental_uris":{"android":"levelo://app?vid=73f0ddae-b1a2-4563-8525-198b54b4d9b2","ios":"levelo://app?vid=73f0ddae-b1a2-4563-8525-198b54b4d9b2"},"vehicle_type_id":"4","last_reported":1773221528,"current_range_meters":22000,"station_id":"ce4bhk92rcd13ifvqgc0","pricing_plan_id":"cebpf4jnsgd1na2vs0mg"},{"bike_id":"896440e6-cef8-4268-bb86-ac2c6e2de747","system_id":"levelo_inurba_marseille","lat":43.28475,"lon":5.48398,"is_reserved":false,"is_disabled":false,"rental_uris":{"android":"levelo://app?vid=896440e6-cef8-4268-bb86-ac2c6e2de747","ios":"levelo://app?vid=896440e6-cef8-4268-bb86-ac2c6e2de747"},"vehicle_type_id":"4","last_reported":1773221528,"current_range_meters":30800,"station_id":"","pricing_plan_id":"cebpf4jnsgd1na2vs0mg"},{"bike_id":"144d0f12-8c50-4356-9304-ba9c305ea568","system_id":"levelo_inurba_marseille","lat":43.31261,"lon":5.36839,"is_reserved":false,"is_disabled":false,"rental_uris":{"android":"levelo://app?vid=144d0f12-8c50-4356-9304-ba9c305ea568","ios":"levelo://app?vid=144d0f12-8c50-4356-9304-ba9c305ea568"},"vehicle_type_id":"4","last_reported":1773221528,"current_range_meters":27200,"station_id":"ce4bgl92rcd13ifvqbq0","pricing_plan_id":"cebpf4jnsgd1na2vs0mg"},{"bike_id":"536e4253-28c1-4e4f-ba07-998ca885fbee","system_id":"levelo_inurba_marseille","lat":43.29325,"lon":5.37158,"is_reserved":false,"is_disabled":false,"rental_uris":{"android":"levelo://app?vid=536e4253-28c1-4e4f-ba07-998ca885fbee","ios":"levelo://app?vid=536e4253-28c1-4e4f-ba07-998ca885fbee"},"vehicle_type_id":"4","last_reported":1773221528,"current_range_meters":35600,"station_id":"ce4bgh92rcd13ifvqb40","pricing_plan_id":"cebpf4jnsgd1na2vs0mg"},{"bike_id":"2c1215f2-9624-4e50-bbbb-a53264cdd31e","system_id":"levelo_inurba_marseille","lat":43.28462,"lon":5.48398,"is_reserved":false,"is_disabled":false,"rental_uris":{"android":"levelo://app?vid=2c1215f2-9624-4e50-bbbb-a53264cdd31e","ios":"levelo://app?vid=2c1215f2-9624-4e50-bbbb-a53264cdd31e"},"vehicle_type_id":"4","last_reported":1773221528,"current_range_meters":28400,"station_id":"","pricing_plan_id":"cebpf4jnsgd1na2vs0mg"},{"bike_id":"31a93519-28f1-476c-ba55-d456fc31a5f1","system_id":"levelo_inurba_marseille","lat":43.27329,"lon":5.391,"is_reserved":false,"is_disabled":false,"rental_uris":{"android":"levelo://app?vid=31a93519-28f1-476c-ba55-d456fc31a5f1","ios":"levelo://app?vid=31a93519-28f1-476c-ba55-d456fc31a5f1"},"vehicle_type_id":"4","last_reported":1773221528,"current_range_meters":32000,"station_id":"ce4bhgp2rcd13ifvqfe0","pricing_plan_id":"cebpf4jnsgd1na2vs0mg"},{"bike_id":"c1db54c2-038e-4f3d-a503-c0e3fc6c96ed","system_id":"levelo_inurba_marseille","lat":43.33536,"lon":5.37465,"is_reserved":false,"is_disabled":false,"rental_uris":{"android":"levelo://app?vid=c1db54c2-038e-4f3d-a503-c0e3fc6c96ed","ios":"levelo://app?vid=c1db54c2-038e-4f3d-a503-c0e3fc6c96ed"},"vehicle_type_id":"4","last_reported":1773221528,"current_range_meters":14400,"station_id":"st_d46tts09ee8s73dlu43g","pricing_plan_id":"cebpf4jnsgd1na2vs0mg"},{"bike_id":"a0ab89fd-d4e3-4039-8377-577b0acf001d","system_id":"levelo_inurba_marseille","lat":43.2439,"lon":5.44097,"is_reserved":false,"is_disabled":true,"rental_uris":{"android":"levelo://app?vid=a0ab89fd-d4e3-4039-8377-577b0acf001d","ios":"levelo://app?vid=a0ab89fd-d4e3-4039-8377-577b0acf001d"},"vehicle_type_id":"4","last_reported":1773221528,"current_range_meters":10800,"station_id":"","pricing_plan_id":"cebpf4jnsgd1na2vs0mg"},{"bike_id":"afeb14e3-42fe-4258-a560-6657dac6ced8","system_id":"levelo_inurba_marseille","lat":43.25741,"lon":5.41111,"is_reserved":false,"is_disabled":false,"rental_uris":{"android":"levelo://app?vid=afeb14e3-42fe-4258-a560-6657dac6ced8","ios":"levelo://app?vid=afeb14e3-42fe-4258-a560-6657dac6ced8"},"vehicle_type_id":"4","last_reported":1773221528,"current_range_meters":21600,"station_id":"ce4bhkp2rcd13ifvqgd0","pricing_plan_id":"cebpf4jnsgd1na2vs0mg"},{"bike_id":"3848849f-8b5c-4f22-abad-8aa3329f0d32","system_id":"levelo_inurba_marseille","lat":43.31347,"lon":5.36721,"is_reserved":false,"is_disabled":false,"rental_uris":{"android":"levelo://app?vid=3848849f-8b5c-4f22-abad-8aa3329f0d32","ios":"levelo://app?vid=3848849f-8b5c-4f22-abad-8aa3329f0d32"},"vehicle_type_id":"4","last_reported":1773221528,"current_range_meters":39200,"station_id":"ce4bgr92rcd13ifvqc6g","pricing_plan_id":"cebpf4jnsgd1na2vs0mg"},{"bike_id":"c9fdec63-7232-4c40-8487-75579466936b","system_id":"levelo_inurba_marseille","lat":43.2668,"lon":5.38241,"is_reserved":false,"is_disabled":false,"rental_uris":{"android":"levelo://app?vid=c9fdec63-7232-4c40-8487-75579466936b","ios":"levelo://app?vid=c9fdec63-7232-4c40-8487-75579466936b"},"vehicle_type_id":"4","last_reported":1773221528,"current_range_meters":29600,"station_id":"ce4bhg92rcd13ifvqf90","pricing_plan_id":"cebpf4jnsgd1na2vs0mg"},{"bike_id":"e0efbd74-c6b5-487f-aa50-769b175e7286","system_id":"levelo_inurba_marseille","lat":43.23155,"lon":5.43719,"is_reserved":false,"is_disabled":false,"rental_uris":{"android":"levelo://app?vid=e0efbd74-c6b5-487f-aa50-769b175e7286","ios":"levelo://app?vid=e0efbd74-c6b5-487f-aa50-769b175e7286"},"vehicle_type_id":"4","last_reported":1773221528,"current_range_meters":17200,"station_id":"ce4bhmp2rcd13ifvqgog","pricing_plan_id":"cebpf4jnsgd1na2vs0mg"},{"bike_id":"e8b7d766-9ece-4870-a1b8-5b316a1b8e67","system_id":"levelo_inurba_marseille","lat":43.22579,"lon":5.41636,"is_reserved":false,"is_disabled":false,"rental_uris":{"android":"levelo://app?vid=e8b7d766-9ece-4870-a1b8-5b316a1b8e67","ios":"levelo://app?vid=e8b7d766-9ece-4870-a1b8-5b316a1b8e67"},"vehicle_type_id":"4","last_reported":1773221528,"current_range_meters":19600,"station_id":"st_d2o4gvlbi1j2169b742g","pricing_plan_id":"cebpf4jnsgd1na2vs0mg"},{"bike_id":"4b52f3c2-1a29-4bf7-865c-54086eea9fe5","system_id":"levelo_inurba_marseille","lat":43.27827,"lon":5.39215,"is_reserved":false,"is_disabled":false,"rental_uris":{"android":"levelo://app?vid=4b52f3c2-1a29-4bf7-865c-54086eea9fe5","ios":"levelo://app?vid=4b52f3c2-1a29-4bf7-865c-54086eea9fe5"},"vehicle_type_id":"4","last_reported":1773221528,"current_range_meters":39200,"station_id":"ce4bhjp2rcd13ifvqga0","pricing_plan_id":"cebpf4jnsgd1na2vs0mg"},{"bike_id":"7fec08d5-ee68-460a-ac18-925555054430","system_id":"levelo_inurba_marseille","lat":43.24174,"lon":5.36385,"is_reserved":false,"is_disabled":false,"rental_uris":{"android":"levelo://app?vid=7fec08d5-ee68-460a-ac18-925555054430","ios":"levelo://app?vid=7fec08d5-ee68-460a-ac18-925555054430"},"vehicle_type_id":"4","last_reported":1773221528,"current_range_meters":17200,"station_id":"cpo36qri1sfpv3e86is0","pricing_plan_id":"cebpf4jnsgd1na2vs0mg"},{"bike_id":"e7ede997-8031-4ef1-ae70-21cfb8a06e17","system_id":"levelo_inurba_marseille","lat":43.325,"lon":5.38295,"is_reserved":false,"is_disabled":false,"rental_uris":{"android":"levelo://app?vid=e7ede997-8031-4ef1-ae70-21cfb8a06e17","ios":"levelo://app?vid=e7ede997-8031-4ef1-ae70-21cfb8a06e17"},"vehicle_type_id":"4","last_reported":1773221528,"current_range_meters":33600,"station_id":"st_d4asgbiv49dc73anf9m0","pricing_plan_id":"cebpf4jnsgd1na2vs0mg"},{"bike_id":"8649da40-2768-48b2-9c2c-b9c2c7d914e4","system_id":"levelo_inurba_marseille","lat":43.33606,"lon":5.40963,"is_reserved":false,"is_disabled":false,"rental_uris":{"android":"levelo://app?vid=8649da40-2768-48b2-9c2c-b9c2c7d914e4","ios":"levelo://app?vid=8649da40-2768-48b2-9c2c-b9c2c7d914e4"},"vehicle_type_id":"4","last_reported":1773221528,"current_range_meters":40000,"station_id":"ce4bhqh2rcd13ifvqhmg","pricing_plan_id":"cebpf4jnsgd1na2vs0mg"},{"bike_id":"fbacc4e2-20d2-440b-8334-f840b8c13084","system_id":"levelo_inurba_marseille","lat":43.23163,"lon":5.43692,"is_reserved":false,"is_disabled":false,"rental_uris":{"android":"levelo://app?vid=fbacc4e2-20d2-440b-8334-f840b8c13084","ios":"levelo://app?vid=fbacc4e2-20d2-440b-8334-f840b8c13084"},"vehicle_type_id":"4","last_reported":1773221528,"current_range_meters":24000,"station_id":"ce4bhmp2rcd13ifvqgog","pricing_plan_id":"cebpf4jnsgd1na2vs0mg"},{"bike_id":"f7b16eeb-70bf-4a32-98a7-5cd2f4e6be4f","system_id":"levelo_inurba_marseille","lat":43.30378,"lon":5.42489,"is_reserved":false,"is_disabled":false,"rental_uris":{"android":"levelo://app?vid=f7b16eeb-70bf-4a32-98a7-5cd2f4e6be4f","ios":"levelo://app?vid=f7b16eeb-70bf-4a32-98a7-5cd2f4e6be4f"},"vehicle_type_id":"4","last_reported":1773221528,"current_range_meters":30800,"station_id":"ce4bhoh2rcd13ifvqh6g","pricing_plan_id":"cebpf4jnsgd1na2vs0mg"},{"bike_id":"07a96d34-f015-4fa1-9007-671989f64e13","system_id":"levelo_inurba_marseille","lat":43.29799,"lon":5.40406,"is_reserved":false,"is_disabled":true,"rental_uris":{"android":"levelo://app?vid=07a96d34-f015-4fa1-9007-671989f64e13","ios":"levelo://app?vid=07a96d34-f015-4fa1-9007-671989f64e13"},"vehicle_type_id":"4","last_reported":1773221528,"current_range_meters":39200,"station_id":"ce4bh112rcd13ifvqd90","pricing_plan_id":"cebpf4jnsgd1na2vs0mg"},{"bike_id":"d936ee88-e6c5-41eb-94c9-c0f089a32b91","system_id":"levelo_inurba_marseille","lat":43.31206,"lon":5.37699,"is_reserved":false,"is_disabled":false,"rental_uris":{"android":"levelo://app?vid=d936ee88-e6c5-41eb-94c9-c0f089a32b91","ios":"levelo://app?vid=d936ee88-e6c5-41eb-94c9-c0f089a32b91"},"vehicle_type_id":"4","last_reported":1773221528,"current_range_meters":33600,"station_id":"","pricing_plan_id":"cebpf4jnsgd1na2vs0mg"},{"bike_id":"64db144a-07de-49ea-9432-4bcd2298dea1","system_id":"levelo_inurba_marseille","lat":43.26693,"lon":5.38259,"is_reserved":false,"is_disabled":false,"rental_uris":{"android":"levelo://app?vid=64db144a-07de-49ea-9432-4bcd2298dea1","ios":"levelo://app?vid=64db144a-07de-49ea-9432-4bcd2298dea1"},"vehicle_type_id":"4","last_reported":1773221528,"current_range_meters":18000,"station_id":"ce4bhg92rcd13ifvqf90","pricing_plan_id":"cebpf4jnsgd1na2vs0mg"},{"bike_id":"6c4cf459-9d91-4f06-98a0-e2caa263890b","system_id":"levelo_inurba_marseille","lat":43.29371,"lon":5.37865,"is_reserved":false,"is_disabled":true,"rental_uris":{"android":"levelo://app?vid=6c4cf459-9d91-4f06-98a0-e2caa263890b","ios":"levelo://app?vid=6c4cf459-9d91-4f06-98a0-e2caa263890b"},"vehicle_type_id":"4","last_reported":1773221528,"current_range_meters":26000,"station_id":"ce4bgjh2rcd13ifvqbf0","pricing_plan_id":"cebpf4jnsgd1na2vs0mg"},{"bike_id":"8818f14b-1671-4f8e-94c0-552bc8e74dd4","system_id":"levelo_inurba_marseille","lat":43.32531,"lon":5.4148,"is_reserved":false,"is_disabled":false,"rental_uris":{"android":"levelo://app?vid=8818f14b-1671-4f8e-94c0-552bc8e74dd4","ios":"levelo://app?vid=8818f14b-1671-4f8e-94c0-552bc8e74dd4"},"vehicle_type_id":"4","last_reported":1773221528,"current_range_meters":37600,"station_id":"ce4bhq12rcd13ifvqhhg","pricing_plan_id":"cebpf4jnsgd1na2vs0mg"},{"bike_id":"1c6d8a9c-5142-453f-83da-91ca8f641afa","system_id":"levelo_inurba_marseille","lat":43.30942,"lon":5.39063,"is_reserved":false,"is_disabled":false,"rental_uris":{"android":"levelo://app?vid=1c6d8a9c-5142-453f-83da-91ca8f641afa","ios":"levelo://app?vid=1c6d8a9c-5142-453f-83da-91ca8f641afa"},"vehicle_type_id":"4","last_reported":1773221528,"current_range_meters":24800,"station_id":"ce4bgup2rcd13ifvqco0","pricing_plan_id":"cebpf4jnsgd1na2vs0mg"},{"bike_id":"302da97d-6164-4efb-a8ae-be5297c8f943","system_id":"levelo_inurba_marseille","lat":43.292789,"lon":5.368483,"is_reserved":false,"is_disabled":false,"rental_uris":{"android":"levelo://app?vid=302da97d-6164-4efb-a8ae-be5297c8f943","ios":"levelo://app?vid=302da97d-6164-4efb-a8ae-be5297c8f943"},"vehicle_type_id":"4","last_reported":1773221528,"current_range_meters":26800,"station_id":"ce4bhbp2rcd13ifvqesg","pricing_plan_id":"cebpf4jnsgd1na2vs0mg"},{"bike_id":"794f959c-f1b8-45bf-aaff-93adbc53443c","system_id":"levelo_inurba_marseille","lat":43.30489,"lon":5.3792,"is_reserved":false,"is_disabled":false,"rental_uris":{"android":"levelo://app?vid=794f959c-f1b8-45bf-aaff-93adbc53443c","ios":"levelo://app?vid=794f959c-f1b8-45bf-aaff-93adbc53443c"},"vehicle_type_id":"4","last_reported":1773221528,"current_range_meters":9600,"station_id":"ce4bgup2rcd13ifvqcn0","pricing_plan_id":"cebpf4jnsgd1na2vs0mg"},{"bike_id":"f62cbee2-12e5-4cdd-bfbc-04088f9f32fa","system_id":"levelo_inurba_marseille","lat":43.28484,"lon":5.48386,"is_reserved":false,"is_disabled":false,"rental_uris":{"android":"levelo://app?vid=f62cbee2-12e5-4cdd-bfbc-04088f9f32fa","ios":"levelo://app?vid=f62cbee2-12e5-4cdd-bfbc-04088f9f32fa"},"vehicle_type_id":"4","last_reported":1773221528,"current_range_meters":22000,"station_id":"","pricing_plan_id":"cebpf4jnsgd1na2vs0mg"},{"bike_id":"7ac56760-0833-4a18-a6cf-5947e0e74876","system_id":"levelo_inurba_marseille","lat":43.26556,"lon":5.37315,"is_reserved":false,"is_disabled":false,"rental_uris":{"android":"levelo://app?vid=7ac56760-0833-4a18-a6cf-5947e0e74876","ios":"levelo://app?vid=7ac56760-0833-4a18-a6cf-5947e0e74876"},"vehicle_type_id":"4","last_reported":1773221528,"current_range_meters":39200,"station_id":"ce4bhg12rcd13ifvqf70","pricing_plan_id":"cebpf4jnsgd1na2vs0mg"},{"bike_id":"93664cea-8a8e-43de-8703-e7ab61aea72a","system_id":"levelo_inurba_marseille","lat":43.3016,"lon":5.38077,"is_reserved":false,"is_disabled":false,"rental_uris":{"android":"levelo://app?vid=93664cea-8a8e-43de-8703-e7ab61aea72a","ios":"levelo://app?vid=93664cea-8a8e-43de-8703-e7ab61aea72a"},"vehicle_type_id":"4","last_reported":1773221528,"current_range_meters":32800,"station_id":"ce4bgjp2rcd13ifvqbh0","pricing_plan_id":"cebpf4jnsgd1na2vs0mg"},{"bike_id":"681fca49-d7d0-4d64-ba5f-a1615360789c","system_id":"levelo_inurba_marseille","lat":43.25813,"lon":5.39425,"is_reserved":false,"is_disabled":false,"rental_uris":{"android":"levelo://app?vid=681fca49-d7d0-4d64-ba5f-a1615360789c","ios":"levelo://app?vid=681fca49-d7d0-4d64-ba5f-a1615360789c"},"vehicle_type_id":"4","last_reported":1773221528,"current_range_meters":37600,"station_id":"ce4bhip2rcd13ifvqft0","pricing_plan_id":"cebpf4jnsgd1na2vs0mg"},{"bike_id":"7598225d-71d0-4e34-b44c-6811ba09ab67","system_id":"levelo_inurba_marseille","lat":43.27667,"lon":5.38892,"is_reserved":false,"is_disabled":false,"rental_uris":{"android":"levelo://app?vid=7598225d-71d0-4e34-b44c-6811ba09ab67","ios":"levelo://app?vid=7598225d-71d0-4e34-b44c-6811ba09ab67"},"vehicle_type_id":"4","last_reported":1773221528,"current_range_meters":9200,"station_id":"ce4bhi12rcd13ifvqfo0","pricing_plan_id":"cebpf4jnsgd1na2vs0mg"},{"bike_id":"ba3a231f-10a0-4302-b0e7-08f11861cd04","system_id":"levelo_inurba_marseille","lat":43.28477,"lon":5.48401,"is_reserved":false,"is_disabled":false,"rental_uris":{"android":"levelo://app?vid=ba3a231f-10a0-4302-b0e7-08f11861cd04","ios":"levelo://app?vid=ba3a231f-10a0-4302-b0e7-08f11861cd04"},"vehicle_type_id":"4","last_reported":1773221528,"current_range_meters":38800,"station_id":"","pricing_plan_id":"cebpf4jnsgd1na2vs0mg"},{"bike_id":"0b3a6178-c659-4afa-a1c1-935435363474","system_id":"levelo_inurba_marseille","lat":43.23983,"lon":5.36651,"is_reserved":false,"is_disabled":false,"rental_uris":{"android":"levelo://app?vid=0b3a6178-c659-4afa-a1c1-935435363474","ios":"levelo://app?vid=0b3a6178-c659-4afa-a1c1-935435363474"},"vehicle_type_id":"4","last_reported":1773221528,"current_range_meters":40000,"station_id":"ce4bhi12rcd13ifvqfp0","pricing_plan_id":"cebpf4jnsgd1na2vs0mg"},{"bike_id":"c4127bf1-754a-4c52-a275-55f16ba90528","system_id":"levelo_inurba_marseille","lat":43.27953,"lon":5.41046,"is_reserved":false,"is_disabled":false,"rental_uris":{"android":"levelo://app?vid=c4127bf1-754a-4c52-a275-55f16ba90528","ios":"levelo://app?vid=c4127bf1-754a-4c52-a275-55f16ba90528"},"vehicle_type_id":"4","last_reported":1773221528,"current_range_meters":30000,"station_id":"ce4bhnp2rcd13ifvqh0g","pricing_plan_id":"cebpf4jnsgd1na2vs0mg"},{"bike_id":"352c9f7d-89b4-42e5-9e2e-76d972a274bd","system_id":"levelo_inurba_marseille","lat":43.29731,"lon":5.42537,"is_reserved":false,"is_disabled":false,"rental_uris":{"android":"levelo://app?vid=352c9f7d-89b4-42e5-9e2e-76d972a274bd","ios":"levelo://app?vid=352c9f7d-89b4-42e5-9e2e-76d972a274bd"},"vehicle_type_id":"4","last_reported":1773221528,"current_range_meters":11200,"station_id":"","pricing_plan_id":"cebpf4jnsgd1na2vs0mg"},{"bike_id":"04a17b6d-7ebf-4022-9d3a-a2dd2cbb9c97","system_id":"levelo_inurba_marseille","lat":43.30549,"lon":5.36693,"is_reserved":false,"is_disabled":false,"rental_uris":{"android":"levelo://app?vid=04a17b6d-7ebf-4022-9d3a-a2dd2cbb9c97","ios":"levelo://app?vid=04a17b6d-7ebf-4022-9d3a-a2dd2cbb9c97"},"vehicle_type_id":"4","last_reported":1773221528,"current_range_meters":40000,"station_id":"ce4bgrp2rcd13ifvqc9g","pricing_plan_id":"cebpf4jnsgd1na2vs0mg"},{"bike_id":"bfee60c3-8b74-4c9f-aef3-67f690ec877a","system_id":"levelo_inurba_marseille","lat":43.30317,"lon":5.36904,"is_reserved":false,"is_disabled":false,"rental_uris":{"android":"levelo://app?vid=bfee60c3-8b74-4c9f-aef3-67f690ec877a","ios":"levelo://app?vid=bfee60c3-8b74-4c9f-aef3-67f690ec877a"},"vehicle_type_id":"4","last_reported":1773221528,"current_range_meters":14400,"station_id":"ce4bgqh2rcd13ifvqc5g","pricing_plan_id":"cebpf4jnsgd1na2vs0mg"},{"bike_id":"c59a5209-1b70-42df-8250-859beecf23e1","system_id":"levelo_inurba_marseille","lat":43.23173,"lon":5.3554,"is_reserved":false,"is_disabled":false,"rental_uris":{"android":"levelo://app?vid=c59a5209-1b70-42df-8250-859beecf23e1","ios":"levelo://app?vid=c59a5209-1b70-42df-8250-859beecf23e1"},"vehicle_type_id":"4","last_reported":1773221528,"current_range_meters":36800,"station_id":"ce4bhu92rcd13ifvqi70","pricing_plan_id":"cebpf4jnsgd1na2vs0mg"},{"bike_id":"f336589f-866f-46c6-b212-a692ab2ba293","system_id":"levelo_inurba_marseille","lat":43.29665,"lon":5.37163,"is_reserved":false,"is_disabled":false,"rental_uris":{"android":"levelo://app?vid=f336589f-866f-46c6-b212-a692ab2ba293","ios":"levelo://app?vid=f336589f-866f-46c6-b212-a692ab2ba293"},"vehicle_type_id":"4","last_reported":1773221528,"current_range_meters":16000,"station_id":"","pricing_plan_id":"cebpf4jnsgd1na2vs0mg"},{"bike_id":"d13ae41f-1224-4d27-a050-452912f1b0e1","system_id":"levelo_inurba_marseille","lat":43.26221,"lon":5.37456,"is_reserved":false,"is_disabled":false,"rental_uris":{"android":"levelo://app?vid=d13ae41f-1224-4d27-a050-452912f1b0e1","ios":"levelo://app?vid=d13ae41f-1224-4d27-a050-452912f1b0e1"},"vehicle_type_id":"4","last_reported":1773221528,"current_range_meters":35200,"station_id":"ce4bhgp2rcd13ifvqfc0","pricing_plan_id":"cebpf4jnsgd1na2vs0mg"},{"bike_id":"fed428a6-a508-4132-94d7-783075e10fe3","system_id":"levelo_inurba_marseille","lat":43.32362,"lon":5.36744,"is_reserved":false,"is_disabled":false,"rental_uris":{"android":"levelo://app?vid=fed428a6-a508-4132-94d7-783075e10fe3","ios":"levelo://app?vid=fed428a6-a508-4132-94d7-783075e10fe3"},"vehicle_type_id":"4","last_reported":1773221528,"current_range_meters":36000,"station_id":"ce4bhsh2rcd13ifvqi2g","pricing_plan_id":"cebpf4jnsgd1na2vs0mg"},{"bike_id":"f6545503-27b5-4b93-88a9-f87285a5fc50","system_id":"levelo_inurba_marseille","lat":43.30141,"lon":5.38072,"is_reserved":false,"is_disabled":false,"rental_uris":{"android":"levelo://app?vid=f6545503-27b5-4b93-88a9-f87285a5fc50","ios":"levelo://app?vid=f6545503-27b5-4b93-88a9-f87285a5fc50"},"vehicle_type_id":"4","last_reported":1773221528,"current_range_meters":24800,"station_id":"ce4bgjp2rcd13ifvqbh0","pricing_plan_id":"cebpf4jnsgd1na2vs0mg"},{"bike_id":"b77fb604-0801-47d9-99a2-3844aa44df9a","system_id":"levelo_inurba_marseille","lat":43.25347,"lon":5.42191,"is_reserved":false,"is_disabled":false,"rental_uris":{"android":"levelo://app?vid=b77fb604-0801-47d9-99a2-3844aa44df9a","ios":"levelo://app?vid=b77fb604-0801-47d9-99a2-3844aa44df9a"},"vehicle_type_id":"4","last_reported":1773221528,"current_range_meters":28800,"station_id":"st_d2m65c5bi1j21697t3ng","pricing_plan_id":"cebpf4jnsgd1na2vs0mg"},{"bike_id":"dcad9259-a4d3-4cc7-94fc-0c8a7321317d","system_id":"levelo_inurba_marseille","lat":43.27071,"lon":5.38315,"is_reserved":false,"is_disabled":false,"rental_uris":{"android":"levelo://app?vid=dcad9259-a4d3-4cc7-94fc-0c8a7321317d","ios":"levelo://app?vid=dcad9259-a4d3-4cc7-94fc-0c8a7321317d"},"vehicle_type_id":"4","last_reported":1773221528,"current_range_meters":30400,"station_id":"st_d3n2fo6cfp8s73cte1j0","pricing_plan_id":"cebpf4jnsgd1na2vs0mg"},{"bike_id":"54dedf02-9946-4658-9e75-e2e8b7cf4198","system_id":"levelo_inurba_marseille","lat":43.24161,"lon":5.36415,"is_reserved":false,"is_disabled":false,"rental_uris":{"android":"levelo://app?vid=54dedf02-9946-4658-9e75-e2e8b7cf4198","ios":"levelo://app?vid=54dedf02-9946-4658-9e75-e2e8b7cf4198"},"vehicle_type_id":"4","last_reported":1773221528,"current_range_meters":18800,"station_id":"cpo36qri1sfpv3e86is0","pricing_plan_id":"cebpf4jnsgd1na2vs0mg"},{"bike_id":"16fce51b-761c-456a-9844-de0d7986c901","system_id":"levelo_inurba_marseille","lat":43.2963,"lon":5.37162,"is_reserved":false,"is_disabled":false,"rental_uris":{"android":"levelo://app?vid=16fce51b-761c-456a-9844-de0d7986c901","ios":"levelo://app?vid=16fce51b-761c-456a-9844-de0d7986c901"},"vehicle_type_id":"4","last_reported":1773221528,"current_range_meters":36400,"station_id":"ce4bgnh2rcd13ifvqc0g","pricing_plan_id":"cebpf4jnsgd1na2vs0mg"},{"bike_id":"65fb7e73-27fb-4983-8d0d-7baefc4dbf16","system_id":"levelo_inurba_marseille","lat":43.24381,"lon":5.37051,"is_reserved":false,"is_disabled":false,"rental_uris":{"android":"levelo://app?vid=65fb7e73-27fb-4983-8d0d-7baefc4dbf16","ios":"levelo://app?vid=65fb7e73-27fb-4983-8d0d-7baefc4dbf16"},"vehicle_type_id":"4","last_reported":1773221528,"current_range_meters":9600,"station_id":"ce4bhhh2rcd13ifvqfk0","pricing_plan_id":"cebpf4jnsgd1na2vs0mg"},{"bike_id":"0bd65bd6-432d-4f03-9bc1-a502b4962690","system_id":"levelo_inurba_marseille","lat":43.29302,"lon":5.37436,"is_reserved":false,"is_disabled":false,"rental_uris":{"android":"levelo://app?vid=0bd65bd6-432d-4f03-9bc1-a502b4962690","ios":"levelo://app?vid=0bd65bd6-432d-4f03-9bc1-a502b4962690"},"vehicle_type_id":"4","last_reported":1773221528,"current_range_meters":29600,"station_id":"ce4bgi12rcd13ifvqb70","pricing_plan_id":"cebpf4jnsgd1na2vs0mg"},{"bike_id":"b6942993-6967-4f6c-b7e8-d4ca854e4d0e","system_id":"levelo_inurba_marseille","lat":43.24987,"lon":5.38936,"is_reserved":false,"is_disabled":false,"rental_uris":{"android":"levelo://app?vid=b6942993-6967-4f6c-b7e8-d4ca854e4d0e","ios":"levelo://app?vid=b6942993-6967-4f6c-b7e8-d4ca854e4d0e"},"vehicle_type_id":"4","last_reported":1773221528,"current_range_meters":40000,"station_id":"ce4bhgp2rcd13ifvqfd0","pricing_plan_id":"cebpf4jnsgd1na2vs0mg"},{"bike_id":"ab7ff63f-6e72-4cc3-bfe2-7bb52c7057bf","system_id":"levelo_inurba_marseille","lat":43.29046,"lon":5.39997,"is_reserved":false,"is_disabled":false,"rental_uris":{"android":"levelo://app?vid=ab7ff63f-6e72-4cc3-bfe2-7bb52c7057bf","ios":"levelo://app?vid=ab7ff63f-6e72-4cc3-bfe2-7bb52c7057bf"},"vehicle_type_id":"4","last_reported":1773221528,"current_range_meters":4000,"station_id":"ce4bh392rcd13ifvqdm0","pricing_plan_id":"cebpf4jnsgd1na2vs0mg"},{"bike_id":"a540b441-3928-4042-84dc-78cbd8de6fd0","system_id":"levelo_inurba_marseille","lat":43.24402,"lon":5.37066,"is_reserved":false,"is_disabled":false,"rental_uris":{"android":"levelo://app?vid=a540b441-3928-4042-84dc-78cbd8de6fd0","ios":"levelo://app?vid=a540b441-3928-4042-84dc-78cbd8de6fd0"},"vehicle_type_id":"4","last_reported":1773221528,"current_range_meters":34800,"station_id":"ce4bhhh2rcd13ifvqfk0","pricing_plan_id":"cebpf4jnsgd1na2vs0mg"},{"bike_id":"dab334e7-a2a6-4a95-aea0-00ba8c9b639d","system_id":"levelo_inurba_marseille","lat":43.28419,"lon":5.34994,"is_reserved":false,"is_disabled":false,"rental_uris":{"android":"levelo://app?vid=dab334e7-a2a6-4a95-aea0-00ba8c9b639d","ios":"levelo://app?vid=dab334e7-a2a6-4a95-aea0-00ba8c9b639d"},"vehicle_type_id":"4","last_reported":1773221528,"current_range_meters":14800,"station_id":"ce4bhbh2rcd13ifvqepg","pricing_plan_id":"cebpf4jnsgd1na2vs0mg"},{"bike_id":"4a415183-4d40-452c-9d2d-b724e2dfa905","system_id":"levelo_inurba_marseille","lat":43.292655,"lon":5.368456,"is_reserved":false,"is_disabled":false,"rental_uris":{"android":"levelo://app?vid=4a415183-4d40-452c-9d2d-b724e2dfa905","ios":"levelo://app?vid=4a415183-4d40-452c-9d2d-b724e2dfa905"},"vehicle_type_id":"4","last_reported":1773221528,"current_range_meters":32400,"station_id":"ce4bhbp2rcd13ifvqesg","pricing_plan_id":"cebpf4jnsgd1na2vs0mg"},{"bike_id":"2ac129ef-0500-4e15-8179-6818cd0eb7ac","system_id":"levelo_inurba_marseille","lat":43.27056,"lon":5.42291,"is_reserved":false,"is_disabled":false,"rental_uris":{"android":"levelo://app?vid=2ac129ef-0500-4e15-8179-6818cd0eb7ac","ios":"levelo://app?vid=2ac129ef-0500-4e15-8179-6818cd0eb7ac"},"vehicle_type_id":"4","last_reported":1773221528,"current_range_meters":8800,"station_id":"ce4bhk92rcd13ifvqgb0","pricing_plan_id":"cebpf4jnsgd1na2vs0mg"},{"bike_id":"09b51f1e-4608-4273-bc57-8753e2939ff2","system_id":"levelo_inurba_marseille","lat":43.29924,"lon":5.36558,"is_reserved":false,"is_disabled":false,"rental_uris":{"android":"levelo://app?vid=09b51f1e-4608-4273-bc57-8753e2939ff2","ios":"levelo://app?vid=09b51f1e-4608-4273-bc57-8753e2939ff2"},"vehicle_type_id":"4","last_reported":1773221528,"current_range_meters":33600,"station_id":"ce4bgm92rcd13ifvqbr0","pricing_plan_id":"cebpf4jnsgd1na2vs0mg"},{"bike_id":"412ebc32-5589-4f6e-8ac6-13ac9134d8c4","system_id":"levelo_inurba_marseille","lat":43.279694,"lon":5.387333,"is_reserved":false,"is_disabled":false,"rental_uris":{"android":"levelo://app?vid=412ebc32-5589-4f6e-8ac6-13ac9134d8c4","ios":"levelo://app?vid=412ebc32-5589-4f6e-8ac6-13ac9134d8c4"},"vehicle_type_id":"4","last_reported":1773221528,"current_range_meters":14400,"station_id":"ce4bhg12rcd13ifvqf80","pricing_plan_id":"cebpf4jnsgd1na2vs0mg"},{"bike_id":"02b6a88d-0d97-4f65-94e5-a6918763d252","system_id":"levelo_inurba_marseille","lat":43.30166,"lon":5.38093,"is_reserved":false,"is_disabled":false,"rental_uris":{"android":"levelo://app?vid=02b6a88d-0d97-4f65-94e5-a6918763d252","ios":"levelo://app?vid=02b6a88d-0d97-4f65-94e5-a6918763d252"},"vehicle_type_id":"4","last_reported":1773221528,"current_range_meters":22800,"station_id":"ce4bgjp2rcd13ifvqbh0","pricing_plan_id":"cebpf4jnsgd1na2vs0mg"},{"bike_id":"42ad98ee-dfe1-4261-a276-fba11b95eb9e","system_id":"levelo_inurba_marseille","lat":43.26192,"lon":5.37448,"is_reserved":false,"is_disabled":false,"rental_uris":{"android":"levelo://app?vid=42ad98ee-dfe1-4261-a276-fba11b95eb9e","ios":"levelo://app?vid=42ad98ee-dfe1-4261-a276-fba11b95eb9e"},"vehicle_type_id":"4","last_reported":1773221528,"current_range_meters":37600,"station_id":"ce4bhgp2rcd13ifvqfc0","pricing_plan_id":"cebpf4jnsgd1na2vs0mg"},{"bike_id":"5d35e186-9ea2-469b-87a9-367aebad843f","system_id":"levelo_inurba_marseille","lat":43.24203,"lon":5.39696,"is_reserved":false,"is_disabled":false,"rental_uris":{"android":"levelo://app?vid=5d35e186-9ea2-469b-87a9-367aebad843f","ios":"levelo://app?vid=5d35e186-9ea2-469b-87a9-367aebad843f"},"vehicle_type_id":"4","last_reported":1773221528,"current_range_meters":6800,"station_id":"ce4bhn12rcd13ifvqgpg","pricing_plan_id":"cebpf4jnsgd1na2vs0mg"},{"bike_id":"da8163bf-a494-4792-912b-7a9e8c51c23b","system_id":"levelo_inurba_marseille","lat":43.23935,"lon":5.36641,"is_reserved":false,"is_disabled":false,"rental_uris":{"android":"levelo://app?vid=da8163bf-a494-4792-912b-7a9e8c51c23b","ios":"levelo://app?vid=da8163bf-a494-4792-912b-7a9e8c51c23b"},"vehicle_type_id":"4","last_reported":1773221528,"current_range_meters":7200,"station_id":"ce4bhi12rcd13ifvqfp0","pricing_plan_id":"cebpf4jnsgd1na2vs0mg"},{"bike_id":"1075c92f-b28d-4d46-9e6c-490281aeb606","system_id":"levelo_inurba_marseille","lat":43.30953,"lon":5.39054,"is_reserved":false,"is_disabled":false,"rental_uris":{"android":"levelo://app?vid=1075c92f-b28d-4d46-9e6c-490281aeb606","ios":"levelo://app?vid=1075c92f-b28d-4d46-9e6c-490281aeb606"},"vehicle_type_id":"4","last_reported":1773221528,"current_range_meters":7200,"station_id":"ce4bgup2rcd13ifvqco0","pricing_plan_id":"cebpf4jnsgd1na2vs0mg"},{"bike_id":"0a2f9b28-6219-4106-b011-3026133a767c","system_id":"levelo_inurba_marseille","lat":43.29632,"lon":5.38082,"is_reserved":false,"is_disabled":true,"rental_uris":{"android":"levelo://app?vid=0a2f9b28-6219-4106-b011-3026133a767c","ios":"levelo://app?vid=0a2f9b28-6219-4106-b011-3026133a767c"},"vehicle_type_id":"4","last_reported":1773221528,"current_range_meters":21600,"station_id":"ce4bgl12rcd13ifvqbo0","pricing_plan_id":"cebpf4jnsgd1na2vs0mg"},{"bike_id":"bd229546-df75-4fd8-8621-20f25664587b","system_id":"levelo_inurba_marseille","lat":43.29219,"lon":5.36069,"is_reserved":false,"is_disabled":false,"rental_uris":{"android":"levelo://app?vid=bd229546-df75-4fd8-8621-20f25664587b","ios":"levelo://app?vid=bd229546-df75-4fd8-8621-20f25664587b"},"vehicle_type_id":"4","last_reported":1773221528,"current_range_meters":16400,"station_id":"ce4bhbh2rcd13ifvqeqg","pricing_plan_id":"cebpf4jnsgd1na2vs0mg"},{"bike_id":"333c1115-21ab-4cac-9273-ad709bdfe532","system_id":"levelo_inurba_marseille","lat":43.27492,"lon":5.42466,"is_reserved":false,"is_disabled":false,"rental_uris":{"android":"levelo://app?vid=333c1115-21ab-4cac-9273-ad709bdfe532","ios":"levelo://app?vid=333c1115-21ab-4cac-9273-ad709bdfe532"},"vehicle_type_id":"4","last_reported":1773221528,"current_range_meters":38000,"station_id":"ce4bhn92rcd13ifvqgrg","pricing_plan_id":"cebpf4jnsgd1na2vs0mg"},{"bike_id":"21a9c6d2-9b6a-4921-81ca-12c4669f1294","system_id":"levelo_inurba_marseille","lat":43.28131,"lon":5.42654,"is_reserved":false,"is_disabled":false,"rental_uris":{"android":"levelo://app?vid=21a9c6d2-9b6a-4921-81ca-12c4669f1294","ios":"levelo://app?vid=21a9c6d2-9b6a-4921-81ca-12c4669f1294"},"vehicle_type_id":"4","last_reported":1773221528,"current_range_meters":38400,"station_id":"ce4bhnh2rcd13ifvqgug","pricing_plan_id":"cebpf4jnsgd1na2vs0mg"},{"bike_id":"474db209-38e8-4330-b23e-0b51d90d5f0a","system_id":"levelo_inurba_marseille","lat":43.29556,"lon":5.42277,"is_reserved":false,"is_disabled":false,"rental_uris":{"android":"levelo://app?vid=474db209-38e8-4330-b23e-0b51d90d5f0a","ios":"levelo://app?vid=474db209-38e8-4330-b23e-0b51d90d5f0a"},"vehicle_type_id":"4","last_reported":1773221528,"current_range_meters":39200,"station_id":"ce4bhph2rcd13ifvqhdg","pricing_plan_id":"cebpf4jnsgd1na2vs0mg"},{"bike_id":"34566683-1a91-4f28-ac95-e27905863bfc","system_id":"levelo_inurba_marseille","lat":43.23132,"lon":5.43722,"is_reserved":false,"is_disabled":false,"rental_uris":{"android":"levelo://app?vid=34566683-1a91-4f28-ac95-e27905863bfc","ios":"levelo://app?vid=34566683-1a91-4f28-ac95-e27905863bfc"},"vehicle_type_id":"4","last_reported":1773221528,"current_range_meters":28000,"station_id":"ce4bhmp2rcd13ifvqgog","pricing_plan_id":"cebpf4jnsgd1na2vs0mg"},{"bike_id":"6cae4123-98da-4634-92b6-af0438bffd7b","system_id":"levelo_inurba_marseille","lat":43.24814,"lon":5.37456,"is_reserved":false,"is_disabled":false,"rental_uris":{"android":"levelo://app?vid=6cae4123-98da-4634-92b6-af0438bffd7b","ios":"levelo://app?vid=6cae4123-98da-4634-92b6-af0438bffd7b"},"vehicle_type_id":"4","last_reported":1773221528,"current_range_meters":14000,"station_id":"ce4bhgh2rcd13ifvqfb0","pricing_plan_id":"cebpf4jnsgd1na2vs0mg"},{"bike_id":"2eee30ea-315f-4991-bfc9-942adaa5abc4","system_id":"levelo_inurba_marseille","lat":43.29771,"lon":5.42775,"is_reserved":false,"is_disabled":false,"rental_uris":{"android":"levelo://app?vid=2eee30ea-315f-4991-bfc9-942adaa5abc4","ios":"levelo://app?vid=2eee30ea-315f-4991-bfc9-942adaa5abc4"},"vehicle_type_id":"4","last_reported":1773221528,"current_range_meters":30800,"station_id":"st_d3md5207bmas73dh9klg","pricing_plan_id":"cebpf4jnsgd1na2vs0mg"},{"bike_id":"7567ece7-d0eb-41af-8836-79be3883e346","system_id":"levelo_inurba_marseille","lat":43.27223,"lon":5.39205,"is_reserved":false,"is_disabled":false,"rental_uris":{"android":"levelo://app?vid=7567ece7-d0eb-41af-8836-79be3883e346","ios":"levelo://app?vid=7567ece7-d0eb-41af-8836-79be3883e346"},"vehicle_type_id":"4","last_reported":1773221528,"current_range_meters":27200,"station_id":"ce4bhhp2rcd13ifvqfm0","pricing_plan_id":"cebpf4jnsgd1na2vs0mg"},{"bike_id":"a8cec461-37aa-4545-98e4-ad56cc5c20a4","system_id":"levelo_inurba_marseille","lat":43.30612,"lon":5.37226,"is_reserved":false,"is_disabled":false,"rental_uris":{"android":"levelo://app?vid=a8cec461-37aa-4545-98e4-ad56cc5c20a4","ios":"levelo://app?vid=a8cec461-37aa-4545-98e4-ad56cc5c20a4"},"vehicle_type_id":"4","last_reported":1773221528,"current_range_meters":29600,"station_id":"ce4bgqh2rcd13ifvqc4g","pricing_plan_id":"cebpf4jnsgd1na2vs0mg"},{"bike_id":"ceb85dfd-9fcd-4b77-9f66-3415af1cb0f5","system_id":"levelo_inurba_marseille","lat":43.30147,"lon":5.38098,"is_reserved":false,"is_disabled":false,"rental_uris":{"android":"levelo://app?vid=ceb85dfd-9fcd-4b77-9f66-3415af1cb0f5","ios":"levelo://app?vid=ceb85dfd-9fcd-4b77-9f66-3415af1cb0f5"},"vehicle_type_id":"4","last_reported":1773221528,"current_range_meters":28800,"station_id":"ce4bgjp2rcd13ifvqbh0","pricing_plan_id":"cebpf4jnsgd1na2vs0mg"},{"bike_id":"5bdbc14c-8a8e-4222-b808-7e7039628b00","system_id":"levelo_inurba_marseille","lat":43.24063,"lon":5.37761,"is_reserved":false,"is_disabled":false,"rental_uris":{"android":"levelo://app?vid=5bdbc14c-8a8e-4222-b808-7e7039628b00","ios":"levelo://app?vid=5bdbc14c-8a8e-4222-b808-7e7039628b00"},"vehicle_type_id":"4","last_reported":1773221528,"current_range_meters":29600,"station_id":"ce4bhnp2rcd13ifvqgvg","pricing_plan_id":"cebpf4jnsgd1na2vs0mg"},{"bike_id":"03291abc-73ac-4ff3-8dcb-7fe7e70a1ff6","system_id":"levelo_inurba_marseille","lat":43.30323,"lon":5.40441,"is_reserved":false,"is_disabled":false,"rental_uris":{"android":"levelo://app?vid=03291abc-73ac-4ff3-8dcb-7fe7e70a1ff6","ios":"levelo://app?vid=03291abc-73ac-4ff3-8dcb-7fe7e70a1ff6"},"vehicle_type_id":"4","last_reported":1773221528,"current_range_meters":30400,"station_id":"ce4bh012rcd13ifvqd10","pricing_plan_id":"cebpf4jnsgd1na2vs0mg"},{"bike_id":"4eb01288-23f5-4e80-9a9a-837bb161c164","system_id":"levelo_inurba_marseille","lat":43.27081,"lon":5.383,"is_reserved":false,"is_disabled":false,"rental_uris":{"android":"levelo://app?vid=4eb01288-23f5-4e80-9a9a-837bb161c164","ios":"levelo://app?vid=4eb01288-23f5-4e80-9a9a-837bb161c164"},"vehicle_type_id":"4","last_reported":1773221528,"current_range_meters":36800,"station_id":"st_d3n2fo6cfp8s73cte1j0","pricing_plan_id":"cebpf4jnsgd1na2vs0mg"},{"bike_id":"faec2436-d48c-4b11-8b30-20bb4a2e1087","system_id":"levelo_inurba_marseille","lat":43.27317,"lon":5.3908,"is_reserved":false,"is_disabled":false,"rental_uris":{"android":"levelo://app?vid=faec2436-d48c-4b11-8b30-20bb4a2e1087","ios":"levelo://app?vid=faec2436-d48c-4b11-8b30-20bb4a2e1087"},"vehicle_type_id":"4","last_reported":1773221528,"current_range_meters":38000,"station_id":"ce4bhgp2rcd13ifvqfe0","pricing_plan_id":"cebpf4jnsgd1na2vs0mg"},{"bike_id":"c96e1200-e668-4876-b095-554d0eccd42c","system_id":"levelo_inurba_marseille","lat":43.29888,"lon":5.39736,"is_reserved":false,"is_disabled":false,"rental_uris":{"android":"levelo://app?vid=c96e1200-e668-4876-b095-554d0eccd42c","ios":"levelo://app?vid=c96e1200-e668-4876-b095-554d0eccd42c"},"vehicle_type_id":"4","last_reported":1773221528,"current_range_meters":30400,"station_id":"ce4bh0h2rcd13ifvqd50","pricing_plan_id":"cebpf4jnsgd1na2vs0mg"},{"bike_id":"a63d22a1-9803-47da-97c5-9eb5069b8019","system_id":"levelo_inurba_marseille","lat":43.25817,"lon":5.39404,"is_reserved":false,"is_disabled":false,"rental_uris":{"android":"levelo://app?vid=a63d22a1-9803-47da-97c5-9eb5069b8019","ios":"levelo://app?vid=a63d22a1-9803-47da-97c5-9eb5069b8019"},"vehicle_type_id":"4","last_reported":1773221528,"current_range_meters":39200,"station_id":"ce4bhip2rcd13ifvqft0","pricing_plan_id":"cebpf4jnsgd1na2vs0mg"},{"bike_id":"893e0a49-3615-4028-ba62-16f7e52631a3","system_id":"levelo_inurba_marseille","lat":43.31385,"lon":5.36681,"is_reserved":false,"is_disabled":false,"rental_uris":{"android":"levelo://app?vid=893e0a49-3615-4028-ba62-16f7e52631a3","ios":"levelo://app?vid=893e0a49-3615-4028-ba62-16f7e52631a3"},"vehicle_type_id":"4","last_reported":1773221528,"current_range_meters":23200,"station_id":"","pricing_plan_id":"cebpf4jnsgd1na2vs0mg"},{"bike_id":"712f73a5-ccbd-4df8-a2bf-f8199628c205","system_id":"levelo_inurba_marseille","lat":43.25941,"lon":5.40909,"is_reserved":false,"is_disabled":false,"rental_uris":{"android":"levelo://app?vid=712f73a5-ccbd-4df8-a2bf-f8199628c205","ios":"levelo://app?vid=712f73a5-ccbd-4df8-a2bf-f8199628c205"},"vehicle_type_id":"4","last_reported":1773221528,"current_range_meters":3600,"station_id":"ce4bhm92rcd13ifvqglg","pricing_plan_id":"cebpf4jnsgd1na2vs0mg"},{"bike_id":"9d6efacc-c622-40b7-bfd4-f89a7f92c29b","system_id":"levelo_inurba_marseille","lat":43.30943,"lon":5.3903,"is_reserved":false,"is_disabled":false,"rental_uris":{"android":"levelo://app?vid=9d6efacc-c622-40b7-bfd4-f89a7f92c29b","ios":"levelo://app?vid=9d6efacc-c622-40b7-bfd4-f89a7f92c29b"},"vehicle_type_id":"4","last_reported":1773221528,"current_range_meters":32800,"station_id":"ce4bgup2rcd13ifvqco0","pricing_plan_id":"cebpf4jnsgd1na2vs0mg"},{"bike_id":"8b2e521b-1101-44fe-9d4a-0344f080c81c","system_id":"levelo_inurba_marseille","lat":43.28479,"lon":5.48397,"is_reserved":false,"is_disabled":false,"rental_uris":{"android":"levelo://app?vid=8b2e521b-1101-44fe-9d4a-0344f080c81c","ios":"levelo://app?vid=8b2e521b-1101-44fe-9d4a-0344f080c81c"},"vehicle_type_id":"4","last_reported":1773221528,"current_range_meters":37600,"station_id":"","pricing_plan_id":"cebpf4jnsgd1na2vs0mg"},{"bike_id":"47211649-8614-4b6a-9490-eec4357ab879","system_id":"levelo_inurba_marseille","lat":43.276665,"lon":5.388783,"is_reserved":false,"is_disabled":false,"rental_uris":{"android":"levelo://app?vid=47211649-8614-4b6a-9490-eec4357ab879","ios":"levelo://app?vid=47211649-8614-4b6a-9490-eec4357ab879"},"vehicle_type_id":"4","last_reported":1773221528,"current_range_meters":39200,"station_id":"","pricing_plan_id":"cebpf4jnsgd1na2vs0mg"},{"bike_id":"1697678c-c8a4-4c47-ade7-901915c540a8","system_id":"levelo_inurba_marseille","lat":43.296,"lon":5.38088,"is_reserved":false,"is_disabled":true,"rental_uris":{"android":"levelo://app?vid=1697678c-c8a4-4c47-ade7-901915c540a8","ios":"levelo://app?vid=1697678c-c8a4-4c47-ade7-901915c540a8"},"vehicle_type_id":"4","last_reported":1773221528,"current_range_meters":7200,"station_id":"ce4bgl12rcd13ifvqbo0","pricing_plan_id":"cebpf4jnsgd1na2vs0mg"},{"bike_id":"c218a525-9f9c-4fa7-ade2-984f84feab52","system_id":"levelo_inurba_marseille","lat":43.30944,"lon":5.36861,"is_reserved":false,"is_disabled":false,"rental_uris":{"android":"levelo://app?vid=c218a525-9f9c-4fa7-ade2-984f84feab52","ios":"levelo://app?vid=c218a525-9f9c-4fa7-ade2-984f84feab52"},"vehicle_type_id":"4","last_reported":1773221528,"current_range_meters":38000,"station_id":"ce4bgn92rcd13ifvqbvg","pricing_plan_id":"cebpf4jnsgd1na2vs0mg"},{"bike_id":"25a2c351-9abb-465c-bb2f-4a1726dd6af2","system_id":"levelo_inurba_marseille","lat":43.26944,"lon":5.38641,"is_reserved":false,"is_disabled":false,"rental_uris":{"android":"levelo://app?vid=25a2c351-9abb-465c-bb2f-4a1726dd6af2","ios":"levelo://app?vid=25a2c351-9abb-465c-bb2f-4a1726dd6af2"},"vehicle_type_id":"4","last_reported":1773221528,"current_range_meters":26000,"station_id":"ce4bhh92rcd13ifvqfh0","pricing_plan_id":"cebpf4jnsgd1na2vs0mg"},{"bike_id":"9f771103-8db9-4e4d-8970-6580b0d7771b","system_id":"levelo_inurba_marseille","lat":43.30534,"lon":5.36721,"is_reserved":false,"is_disabled":false,"rental_uris":{"android":"levelo://app?vid=9f771103-8db9-4e4d-8970-6580b0d7771b","ios":"levelo://app?vid=9f771103-8db9-4e4d-8970-6580b0d7771b"},"vehicle_type_id":"4","last_reported":1773221528,"current_range_meters":25200,"station_id":"ce4bgrp2rcd13ifvqc9g","pricing_plan_id":"cebpf4jnsgd1na2vs0mg"},{"bike_id":"a57425b6-7a5a-4daa-9aa4-1e8080046804","system_id":"levelo_inurba_marseille","lat":43.27176,"lon":5.4099,"is_reserved":false,"is_disabled":false,"rental_uris":{"android":"levelo://app?vid=a57425b6-7a5a-4daa-9aa4-1e8080046804","ios":"levelo://app?vid=a57425b6-7a5a-4daa-9aa4-1e8080046804"},"vehicle_type_id":"4","last_reported":1773221528,"current_range_meters":34800,"station_id":"ce4bhl12rcd13ifvqgf0","pricing_plan_id":"cebpf4jnsgd1na2vs0mg"},{"bike_id":"765f5e16-d35c-470b-b744-77989723487c","system_id":"levelo_inurba_marseille","lat":43.30953,"lon":5.39034,"is_reserved":false,"is_disabled":false,"rental_uris":{"android":"levelo://app?vid=765f5e16-d35c-470b-b744-77989723487c","ios":"levelo://app?vid=765f5e16-d35c-470b-b744-77989723487c"},"vehicle_type_id":"4","last_reported":1773221528,"current_range_meters":25200,"station_id":"ce4bgup2rcd13ifvqco0","pricing_plan_id":"cebpf4jnsgd1na2vs0mg"},{"bike_id":"5055d132-7a0b-4e55-9b5f-a4ed0ef8f32c","system_id":"levelo_inurba_marseille","lat":43.2408,"lon":5.37726,"is_reserved":false,"is_disabled":false,"rental_uris":{"android":"levelo://app?vid=5055d132-7a0b-4e55-9b5f-a4ed0ef8f32c","ios":"levelo://app?vid=5055d132-7a0b-4e55-9b5f-a4ed0ef8f32c"},"vehicle_type_id":"4","last_reported":1773221528,"current_range_meters":16400,"station_id":"ce4bhnp2rcd13ifvqgvg","pricing_plan_id":"cebpf4jnsgd1na2vs0mg"},{"bike_id":"2436638b-fa42-4103-b807-af930e438fa3","system_id":"levelo_inurba_marseille","lat":43.24648,"lon":5.38893,"is_reserved":false,"is_disabled":false,"rental_uris":{"android":"levelo://app?vid=2436638b-fa42-4103-b807-af930e438fa3","ios":"levelo://app?vid=2436638b-fa42-4103-b807-af930e438fa3"},"vehicle_type_id":"4","last_reported":1773221528,"current_range_meters":14400,"station_id":"ce4bhg12rcd13ifvqf60","pricing_plan_id":"cebpf4jnsgd1na2vs0mg"},{"bike_id":"84f24c4f-c2e8-44eb-93b8-496d29da2656","system_id":"levelo_inurba_marseille","lat":43.30935,"lon":5.36865,"is_reserved":false,"is_disabled":false,"rental_uris":{"android":"levelo://app?vid=84f24c4f-c2e8-44eb-93b8-496d29da2656","ios":"levelo://app?vid=84f24c4f-c2e8-44eb-93b8-496d29da2656"},"vehicle_type_id":"4","last_reported":1773221528,"current_range_meters":35600,"station_id":"ce4bgn92rcd13ifvqbvg","pricing_plan_id":"cebpf4jnsgd1na2vs0mg"},{"bike_id":"480dce08-33bc-4b31-aee3-1a36b1cf7f09","system_id":"levelo_inurba_marseille","lat":43.33548,"lon":5.37468,"is_reserved":false,"is_disabled":false,"rental_uris":{"android":"levelo://app?vid=480dce08-33bc-4b31-aee3-1a36b1cf7f09","ios":"levelo://app?vid=480dce08-33bc-4b31-aee3-1a36b1cf7f09"},"vehicle_type_id":"4","last_reported":1773221528,"current_range_meters":33600,"station_id":"st_d46tts09ee8s73dlu43g","pricing_plan_id":"cebpf4jnsgd1na2vs0mg"},{"bike_id":"9683c60a-dfca-4bee-baf8-d62d4e08aa82","system_id":"levelo_inurba_marseille","lat":43.30899,"lon":5.37177,"is_reserved":false,"is_disabled":false,"rental_uris":{"android":"levelo://app?vid=9683c60a-dfca-4bee-baf8-d62d4e08aa82","ios":"levelo://app?vid=9683c60a-dfca-4bee-baf8-d62d4e08aa82"},"vehicle_type_id":"4","last_reported":1773221528,"current_range_meters":17200,"station_id":"ce4bguh2rcd13ifvqckg","pricing_plan_id":"cebpf4jnsgd1na2vs0mg"},{"bike_id":"629a5b04-9225-42cf-b2f9-d31afe3f11aa","system_id":"levelo_inurba_marseille","lat":43.26545,"lon":5.37291,"is_reserved":false,"is_disabled":false,"rental_uris":{"android":"levelo://app?vid=629a5b04-9225-42cf-b2f9-d31afe3f11aa","ios":"levelo://app?vid=629a5b04-9225-42cf-b2f9-d31afe3f11aa"},"vehicle_type_id":"4","last_reported":1773221528,"current_range_meters":39200,"station_id":"ce4bhg12rcd13ifvqf70","pricing_plan_id":"cebpf4jnsgd1na2vs0mg"},{"bike_id":"26a6b2e2-002a-4072-a1a2-b594f4e8b66c","system_id":"levelo_inurba_marseille","lat":43.295628,"lon":5.375213,"is_reserved":false,"is_disabled":false,"rental_uris":{"android":"levelo://app?vid=26a6b2e2-002a-4072-a1a2-b594f4e8b66c","ios":"levelo://app?vid=26a6b2e2-002a-4072-a1a2-b594f4e8b66c"},"vehicle_type_id":"4","last_reported":1773221528,"current_range_meters":30000,"station_id":"","pricing_plan_id":"cebpf4jnsgd1na2vs0mg"},{"bike_id":"c0f412de-40e6-4a94-a5dd-7c358ceb2433","system_id":"levelo_inurba_marseille","lat":43.2318,"lon":5.39991,"is_reserved":false,"is_disabled":false,"rental_uris":{"android":"levelo://app?vid=c0f412de-40e6-4a94-a5dd-7c358ceb2433","ios":"levelo://app?vid=c0f412de-40e6-4a94-a5dd-7c358ceb2433"},"vehicle_type_id":"4","last_reported":1773221528,"current_range_meters":38800,"station_id":"ce4bhn12rcd13ifvqgqg","pricing_plan_id":"cebpf4jnsgd1na2vs0mg"},{"bike_id":"34442958-43b2-4a68-9875-0a9f86e4ffcd","system_id":"levelo_inurba_marseille","lat":43.31036,"lon":5.37159,"is_reserved":false,"is_disabled":false,"rental_uris":{"android":"levelo://app?vid=34442958-43b2-4a68-9875-0a9f86e4ffcd","ios":"levelo://app?vid=34442958-43b2-4a68-9875-0a9f86e4ffcd"},"vehicle_type_id":"4","last_reported":1773221528,"current_range_meters":35600,"station_id":"st_d4kl2rp97mjs73e7tdfg","pricing_plan_id":"cebpf4jnsgd1na2vs0mg"},{"bike_id":"18e13506-47ec-472b-952c-0cda623df6f9","system_id":"levelo_inurba_marseille","lat":43.27248,"lon":5.39163,"is_reserved":false,"is_disabled":false,"rental_uris":{"android":"levelo://app?vid=18e13506-47ec-472b-952c-0cda623df6f9","ios":"levelo://app?vid=18e13506-47ec-472b-952c-0cda623df6f9"},"vehicle_type_id":"4","last_reported":1773221528,"current_range_meters":39200,"station_id":"ce4bhhp2rcd13ifvqfm0","pricing_plan_id":"cebpf4jnsgd1na2vs0mg"},{"bike_id":"fd7d5543-5a5d-41d6-9fce-f29d16997315","system_id":"levelo_inurba_marseille","lat":43.24953,"lon":5.40493,"is_reserved":false,"is_disabled":false,"rental_uris":{"android":"levelo://app?vid=fd7d5543-5a5d-41d6-9fce-f29d16997315","ios":"levelo://app?vid=fd7d5543-5a5d-41d6-9fce-f29d16997315"},"vehicle_type_id":"4","last_reported":1773221528,"current_range_meters":31200,"station_id":"st_d2ngiaodas8pm72gd1h0","pricing_plan_id":"cebpf4jnsgd1na2vs0mg"},{"bike_id":"231581b3-46e8-4052-85e7-dfb6a3c34fca","system_id":"levelo_inurba_marseille","lat":43.319,"lon":5.40723,"is_reserved":false,"is_disabled":true,"rental_uris":{"android":"levelo://app?vid=231581b3-46e8-4052-85e7-dfb6a3c34fca","ios":"levelo://app?vid=231581b3-46e8-4052-85e7-dfb6a3c34fca"},"vehicle_type_id":"4","last_reported":1773221528,"current_range_meters":35600,"station_id":"ce4bhq12rcd13ifvqhig","pricing_plan_id":"cebpf4jnsgd1na2vs0mg"},{"bike_id":"3b115ee3-0f3c-4a49-8a38-cee8c9bed173","system_id":"levelo_inurba_marseille","lat":43.26822,"lon":5.39393,"is_reserved":false,"is_disabled":false,"rental_uris":{"android":"levelo://app?vid=3b115ee3-0f3c-4a49-8a38-cee8c9bed173","ios":"levelo://app?vid=3b115ee3-0f3c-4a49-8a38-cee8c9bed173"},"vehicle_type_id":"4","last_reported":1773221528,"current_range_meters":38800,"station_id":"ce4bhh12rcd13ifvqfg0","pricing_plan_id":"cebpf4jnsgd1na2vs0mg"},{"bike_id":"634c5174-2fd8-4a2f-9cd6-07b26ccaa62c","system_id":"levelo_inurba_marseille","lat":43.23168,"lon":5.40001,"is_reserved":false,"is_disabled":false,"rental_uris":{"android":"levelo://app?vid=634c5174-2fd8-4a2f-9cd6-07b26ccaa62c","ios":"levelo://app?vid=634c5174-2fd8-4a2f-9cd6-07b26ccaa62c"},"vehicle_type_id":"4","last_reported":1773221528,"current_range_meters":30400,"station_id":"ce4bhn12rcd13ifvqgqg","pricing_plan_id":"cebpf4jnsgd1na2vs0mg"},{"bike_id":"208e77d7-12ce-4d68-ad29-6d45eaf722f6","system_id":"levelo_inurba_marseille","lat":43.28472,"lon":5.48401,"is_reserved":false,"is_disabled":false,"rental_uris":{"android":"levelo://app?vid=208e77d7-12ce-4d68-ad29-6d45eaf722f6","ios":"levelo://app?vid=208e77d7-12ce-4d68-ad29-6d45eaf722f6"},"vehicle_type_id":"4","last_reported":1773221528,"current_range_meters":8800,"station_id":"st_d3svhcjqgbts73a3dn0g","pricing_plan_id":"cebpf4jnsgd1na2vs0mg"},{"bike_id":"354b5bda-3949-4498-85b6-eb76538c91b8","system_id":"levelo_inurba_marseille","lat":43.30902,"lon":5.37188,"is_reserved":false,"is_disabled":false,"rental_uris":{"android":"levelo://app?vid=354b5bda-3949-4498-85b6-eb76538c91b8","ios":"levelo://app?vid=354b5bda-3949-4498-85b6-eb76538c91b8"},"vehicle_type_id":"4","last_reported":1773221528,"current_range_meters":39200,"station_id":"ce4bguh2rcd13ifvqckg","pricing_plan_id":"cebpf4jnsgd1na2vs0mg"},{"bike_id":"31eab7aa-d2ff-4d19-8af0-c2c63f0c6b5f","system_id":"levelo_inurba_marseille","lat":43.2319,"lon":5.35571,"is_reserved":false,"is_disabled":false,"rental_uris":{"android":"levelo://app?vid=31eab7aa-d2ff-4d19-8af0-c2c63f0c6b5f","ios":"levelo://app?vid=31eab7aa-d2ff-4d19-8af0-c2c63f0c6b5f"},"vehicle_type_id":"4","last_reported":1773221528,"current_range_meters":25600,"station_id":"ce4bhu92rcd13ifvqi70","pricing_plan_id":"cebpf4jnsgd1na2vs0mg"},{"bike_id":"79ecbdb9-5889-49c2-82c8-d38b79c305e0","system_id":"levelo_inurba_marseille","lat":43.32122,"lon":5.36775,"is_reserved":false,"is_disabled":false,"rental_uris":{"android":"levelo://app?vid=79ecbdb9-5889-49c2-82c8-d38b79c305e0","ios":"levelo://app?vid=79ecbdb9-5889-49c2-82c8-d38b79c305e0"},"vehicle_type_id":"4","last_reported":1773221528,"current_range_meters":2800,"station_id":"ce4bhrh2rcd13ifvqhug","pricing_plan_id":"cebpf4jnsgd1na2vs0mg"},{"bike_id":"39213f40-76b1-4795-8bb1-d4971a70523a","system_id":"levelo_inurba_marseille","lat":43.27993,"lon":5.40011,"is_reserved":false,"is_disabled":false,"rental_uris":{"android":"levelo://app?vid=39213f40-76b1-4795-8bb1-d4971a70523a","ios":"levelo://app?vid=39213f40-76b1-4795-8bb1-d4971a70523a"},"vehicle_type_id":"4","last_reported":1773221528,"current_range_meters":31200,"station_id":"ce4bho92rcd13ifvqh4g","pricing_plan_id":"cebpf4jnsgd1na2vs0mg"},{"bike_id":"6ed2579b-f5de-4d3b-9ebf-1f39021367ee","system_id":"levelo_inurba_marseille","lat":43.27213,"lon":5.3917,"is_reserved":false,"is_disabled":false,"rental_uris":{"android":"levelo://app?vid=6ed2579b-f5de-4d3b-9ebf-1f39021367ee","ios":"levelo://app?vid=6ed2579b-f5de-4d3b-9ebf-1f39021367ee"},"vehicle_type_id":"4","last_reported":1773221528,"current_range_meters":37600,"station_id":"ce4bhhp2rcd13ifvqfm0","pricing_plan_id":"cebpf4jnsgd1na2vs0mg"},{"bike_id":"b4c716cd-68f1-44df-8d2b-b4a8e564f9e1","system_id":"levelo_inurba_marseille","lat":43.3092,"lon":5.37196,"is_reserved":false,"is_disabled":false,"rental_uris":{"android":"levelo://app?vid=b4c716cd-68f1-44df-8d2b-b4a8e564f9e1","ios":"levelo://app?vid=b4c716cd-68f1-44df-8d2b-b4a8e564f9e1"},"vehicle_type_id":"4","last_reported":1773221528,"current_range_meters":18800,"station_id":"ce4bguh2rcd13ifvqckg","pricing_plan_id":"cebpf4jnsgd1na2vs0mg"},{"bike_id":"531af1f4-c05d-44d3-b0db-af9c9ec2582b","system_id":"levelo_inurba_marseille","lat":43.2994,"lon":5.36538,"is_reserved":false,"is_disabled":false,"rental_uris":{"android":"levelo://app?vid=531af1f4-c05d-44d3-b0db-af9c9ec2582b","ios":"levelo://app?vid=531af1f4-c05d-44d3-b0db-af9c9ec2582b"},"vehicle_type_id":"4","last_reported":1773221528,"current_range_meters":30400,"station_id":"ce4bgm92rcd13ifvqbr0","pricing_plan_id":"cebpf4jnsgd1na2vs0mg"},{"bike_id":"358135ca-c3f5-4edc-b039-6456adc8657b","system_id":"levelo_inurba_marseille","lat":43.26689,"lon":5.38243,"is_reserved":false,"is_disabled":false,"rental_uris":{"android":"levelo://app?vid=358135ca-c3f5-4edc-b039-6456adc8657b","ios":"levelo://app?vid=358135ca-c3f5-4edc-b039-6456adc8657b"},"vehicle_type_id":"4","last_reported":1773221528,"current_range_meters":19600,"station_id":"ce4bhg92rcd13ifvqf90","pricing_plan_id":"cebpf4jnsgd1na2vs0mg"},{"bike_id":"7c42dbe7-f0ed-42a5-ac14-629246608362","system_id":"levelo_inurba_marseille","lat":43.3123,"lon":5.3686,"is_reserved":false,"is_disabled":false,"rental_uris":{"android":"levelo://app?vid=7c42dbe7-f0ed-42a5-ac14-629246608362","ios":"levelo://app?vid=7c42dbe7-f0ed-42a5-ac14-629246608362"},"vehicle_type_id":"4","last_reported":1773221528,"current_range_meters":36800,"station_id":"ce4bgl92rcd13ifvqbq0","pricing_plan_id":"cebpf4jnsgd1na2vs0mg"},{"bike_id":"a0aa8461-cd6a-4db7-9d35-4a39cc18dc6b","system_id":"levelo_inurba_marseille","lat":43.30513,"lon":5.36647,"is_reserved":false,"is_disabled":true,"rental_uris":{"android":"levelo://app?vid=a0aa8461-cd6a-4db7-9d35-4a39cc18dc6b","ios":"levelo://app?vid=a0aa8461-cd6a-4db7-9d35-4a39cc18dc6b"},"vehicle_type_id":"4","last_reported":1773221528,"current_range_meters":26800,"station_id":"","pricing_plan_id":"cebpf4jnsgd1na2vs0mg"},{"bike_id":"122daf15-e5de-4005-b987-3d5b56ed7244","system_id":"levelo_inurba_marseille","lat":43.29225,"lon":5.36051,"is_reserved":false,"is_disabled":false,"rental_uris":{"android":"levelo://app?vid=122daf15-e5de-4005-b987-3d5b56ed7244","ios":"levelo://app?vid=122daf15-e5de-4005-b987-3d5b56ed7244"},"vehicle_type_id":"4","last_reported":1773221528,"current_range_meters":36800,"station_id":"ce4bhbh2rcd13ifvqeqg","pricing_plan_id":"cebpf4jnsgd1na2vs0mg"},{"bike_id":"2577d371-c061-468a-9c16-f42c2764a051","system_id":"levelo_inurba_marseille","lat":43.27356,"lon":5.39115,"is_reserved":false,"is_disabled":false,"rental_uris":{"android":"levelo://app?vid=2577d371-c061-468a-9c16-f42c2764a051","ios":"levelo://app?vid=2577d371-c061-468a-9c16-f42c2764a051"},"vehicle_type_id":"4","last_reported":1773221528,"current_range_meters":24800,"station_id":"","pricing_plan_id":"cebpf4jnsgd1na2vs0mg"},{"bike_id":"dd0d75fc-3907-4432-8475-b1d1b788aadb","system_id":"levelo_inurba_marseille","lat":43.30141,"lon":5.38095,"is_reserved":false,"is_disabled":false,"rental_uris":{"android":"levelo://app?vid=dd0d75fc-3907-4432-8475-b1d1b788aadb","ios":"levelo://app?vid=dd0d75fc-3907-4432-8475-b1d1b788aadb"},"vehicle_type_id":"4","last_reported":1773221528,"current_range_meters":25200,"station_id":"ce4bgjp2rcd13ifvqbh0","pricing_plan_id":"cebpf4jnsgd1na2vs0mg"},{"bike_id":"6b41a219-32bf-4113-b301-48dc7a990838","system_id":"levelo_inurba_marseille","lat":43.29815,"lon":5.44071,"is_reserved":false,"is_disabled":true,"rental_uris":{"android":"levelo://app?vid=6b41a219-32bf-4113-b301-48dc7a990838","ios":"levelo://app?vid=6b41a219-32bf-4113-b301-48dc7a990838"},"vehicle_type_id":"4","last_reported":1773221528,"current_range_meters":0,"station_id":"st_d3jp68qikq2c7381ktn0","pricing_plan_id":"cebpf4jnsgd1na2vs0mg"},{"bike_id":"3c5f9fc9-6c03-4527-85fa-ee20ae245c46","system_id":"levelo_inurba_marseille","lat":43.31036,"lon":5.37191,"is_reserved":false,"is_disabled":false,"rental_uris":{"android":"levelo://app?vid=3c5f9fc9-6c03-4527-85fa-ee20ae245c46","ios":"levelo://app?vid=3c5f9fc9-6c03-4527-85fa-ee20ae245c46"},"vehicle_type_id":"4","last_reported":1773221528,"current_range_meters":39200,"station_id":"st_d4kl2rp97mjs73e7tdfg","pricing_plan_id":"cebpf4jnsgd1na2vs0mg"},{"bike_id":"4164d970-9387-4571-a484-190ff6193b27","system_id":"levelo_inurba_marseille","lat":43.25588,"lon":5.38236,"is_reserved":false,"is_disabled":false,"rental_uris":{"android":"levelo://app?vid=4164d970-9387-4571-a484-190ff6193b27","ios":"levelo://app?vid=4164d970-9387-4571-a484-190ff6193b27"},"vehicle_type_id":"4","last_reported":1773221528,"current_range_meters":39200,"station_id":"ce4bhih2rcd13ifvqfs0","pricing_plan_id":"cebpf4jnsgd1na2vs0mg"},{"bike_id":"2b63a029-e2e4-4870-b2ff-57547637fc6d","system_id":"levelo_inurba_marseille","lat":43.3095,"lon":5.39045,"is_reserved":false,"is_disabled":false,"rental_uris":{"android":"levelo://app?vid=2b63a029-e2e4-4870-b2ff-57547637fc6d","ios":"levelo://app?vid=2b63a029-e2e4-4870-b2ff-57547637fc6d"},"vehicle_type_id":"4","last_reported":1773221528,"current_range_meters":40000,"station_id":"ce4bgup2rcd13ifvqco0","pricing_plan_id":"cebpf4jnsgd1na2vs0mg"},