{"last_updated":1739787041,"ttl":60,"version":"2.2","data":{"bikes":[{"bike_id":"bc8d1a60-2173-4746-9bbb-0e5a22979fc8","system_id":"levelo_inurba_marseille","lat":43.337444,"lon":5.374475,"is_reserved":false,"is_disabled":false,"rental_uris":{"android":"levelo://app?vid=bc8d1a60-2173-4746-9bbb-0e5a22979fc8","ios":"levelo://app?vid=bc8d1a60-2173-4746-9bbb-0e5a22979fc8"},"vehicle_type_id":"4","last_reported":1739787041,"current_range_meters":31200,"station_id":"","pricing_plan_id":"cebpf4jnsgd1na2vs0mg"},{"bike_id":"040bf6da-b374-40b3-b70a-0f85f37b58a3","system_id":"levelo_inurba_marseille","lat":43.29254,"lon":5.40146,"is_reserved":false,"is_disabled":true,"rental_uris":{"android":"levelo://app?vid=040bf6da-b374-40b3-b70a-0f85f37b58a3","ios":"levelo://app?vid=040bf6da-b374-40b3-b70a-0f85f37b58a3"},"vehicle_type_id":"4","last_reported":1739787041,"current_range_meters":28400,"station_id":"ce4bh312rcd13ifvqdk0","pricing_plan_id":"cebpf4jnsgd1na2vs0mg"},{"bike_id":"4c9b3cbd-180d-4666-96a3-6b8a70377a68","system_id":"levelo_inurba_marseille","lat":43.25903,"lon":5.40934,"is_reserved":false,"is_disabled":false,"rental_uris":{"android":"levelo://app?vid=4c9b3cbd-180d-4666-96a3-6b8a70377a68","ios":"levelo://app?vid=4c9b3cbd-180d-4666-96a3-6b8a70377a68"},"vehicle_type_id":"4","last_reported":1739787041,"current_range_meters":29600,"station_id":"ce4bhm92rcd13ifvqglg","pricing_plan_id":"cebpf4jnsgd1na2vs0mg"},{"bike_id":"f661b7e0-1628-4b53-9b0f-1de5abd25562","system_id":"levelo_inurba_marseille","lat":43.29944,"lon":5.3655,"is_reserved":false,"is_disabled":false,"rental_uris":{"android":"levelo://app?vid=f661b7e0-1628-4b53-9b0f-1de5abd25562","ios":"levelo://app?vid=f661b7e0-1628-4b53-9b0f-1de5abd25562"},"vehicle_type_id":"4","last_reported":1739787041,"current_range_meters":27200,"station_id":"ce4bgm92rcd13ifvqbr0","pricing_plan_id":"cebpf4jnsgd1na2vs0mg"},{"bike_id":"7469474e-7669-4ff7-a897-230566c296b2","system_id":"levelo_inurba_marseille","lat":43.28488,"lon":5.38416,"is_reserved":false,"is_disabled":false,"rental_uris":{"android":"levelo://app?vid=7469474e-7669-4ff7-a897-230566c296b2","ios":"levelo://app?vid=7469474e-7669-4ff7-a897-230566c296b2"},"vehicle_type_id":"4","last_reported":1739787041,"current_range_meters":38000,"station_id":"ce4bh512rcd13ifvqe3g","pricing_plan_id":"cebpf4jnsgd1na2vs0mg"},{"bike_id":"f8120ae0-0b24-4f39-b196-0810104ccd64","system_id":"levelo_inurba_marseille","lat":43.29858,"lon":5.36275,"is_reserved":false,"is_disabled":false,"rental_uris":{"android":"levelo://app?vid=f8120ae0-0b24-4f39-b196-0810104ccd64","ios":"levelo://app?vid=f8120ae0-0b24-4f39-b196-0810104ccd64"},"vehicle_type_id":"4","last_reported":1739787041,"current_range_meters":39200,"station_id":"ce4bgpp2rcd13ifvqc3g","pricing_plan_id":"cebpf4jnsgd1na2vs0mg"},{"bike_id":"7b655b1e-ef86-4a6a-8c4a-25bbaa3b752b","system_id":"levelo_inurba_marseille","lat":43.28155,"lon":5.4265,"is_reserved":false,"is_disabled":false,"rental_uris":{"android":"levelo://app?vid=7b655b1e-ef86-4a6a-8c4a-25bbaa3b752b","ios":"levelo://app?vid=7b655b1e-ef86-4a6a-8c4a-25bbaa3b752b"},"vehicle_type_id":"4","last_reported":1739787041,"current_range_meters":7200,"station_id":"ce4bhnh2rcd13ifvqgug","pricing_plan_id":"cebpf4jnsgd1na2vs0mg"},{"bike_id":"37e20a21-32b1-4cda-a102-3ecf8c845e2f","system_id":"levelo_inurba_marseille","lat":43.30502,"lon":5.36729,"is_reserved":false,"is_disabled":false,"rental_uris":{"android":"levelo://app?vid=37e20a21-32b1-4cda-a102-3ecf8c845e2f","ios":"levelo://app?vid=37e20a21-32b1-4cda-a102-3ecf8c845e2f"},"vehicle_type_id":"4","last_reported":1739787041,"current_range_meters":38800,"station_id":"ce4bgrp2rcd13ifvqc9g","pricing_plan_id":"cebpf4jnsgd1na2vs0mg"},{"bike_id":"137aea31-7c3d-45c4-8052-84bc4ab0dd1d","system_id":"levelo_inurba_marseille","lat":43.23151,"lon":5.43721,"is_reserved":false,"is_disabled":false,"rental_uris":{"android":"levelo://app?vid=137aea31-7c3d-45c4-8052-84bc4ab0dd1d","ios":"levelo://app?vid=137aea31-7c3d-45c4-8052-84bc4ab0dd1d"},"vehicle_type_id":"4","last_reported":1739787041,"current_range_meters":38800,"station_id":"ce4bhmp2rcd13ifvqgog","pricing_plan_id":"cebpf4jnsgd1na2vs0mg"},{"bike_id":"c9e0c673-4db4-4e67-b564-f0866a4aa60b","system_id":"levelo_inurba_marseille","lat":43.23202,"lon":5.35543,"is_reserved":false,"is_disabled":false,"rental_uris":{"android":"levelo://app?vid=c9e0c673-4db4-4e67-b564-f0866a4aa60b","ios":"levelo://app?vid=c9e0c673-4db4-4e67-b564-f0866a4aa60b"},"vehicle_type_id":"4","last_reported":1739787041,"current_range_meters":34800,"station_id":"ce4bhu92rcd13ifvqi70","pricing_plan_id":"cebpf4jnsgd1na2vs0mg"},{"bike_id":"cefb2918-f029-4e2a-bb4a-e616096a6436","system_id":"levelo_inurba_marseille","lat":43.30553,"lon":5.36525,"is_reserved":false,"is_disabled":false,"rental_uris":{"android":"levelo://app?vid=cefb2918-f029-4e2a-bb4a-e616096a6436","ios":"levelo://app?vid=cefb2918-f029-4e2a-bb4a-e616096a6436"},"vehicle_type_id":"4","last_reported":1739787041,"current_range_meters":35600,"station_id":"ce4bgs12rcd13ifvqcag","pricing_plan_id":"cebpf4jnsgd1na2vs0mg"},{"bike_id":"60a1cfac-ebb4-46c2-904e-36700c5b7d54","system_id":"levelo_inurba_marseille","lat":43.30147,"lon":5.37416,"is_reserved":false,"is_disabled":false,"rental_uris":{"android":"levelo://app?vid=60a1cfac-ebb4-46c2-904e-36700c5b7d54","ios":"levelo://app?vid=60a1cfac-ebb4-46c2-904e-36700c5b7d54"},"vehicle_type_id":"4","last_reported":1739787041,"current_range_meters":18000,"station_id":"ce4bgs92rcd13ifvqcc0","pricing_plan_id":"cebpf4jnsgd1na2vs0mg"},{"bike_id":"004e861b-496e-4924-9a9f-83a6af0b78bf","system_id":"levelo_inurba_marseille","lat":43.32468,"lon":5.3656,"is_reserved":false,"is_disabled":false,"rental_uris":{"android":"levelo://app?vid=004e861b-496e-4924-9a9f-83a6af0b78bf","ios":"levelo://app?vid=004e861b-496e-4924-9a9f-83a6af0b78bf"},"vehicle_type_id":"4","last_reported":1739787041,"current_range_meters":15200,"station_id":"ce4bhs12rcd13ifvqhvg","pricing_plan_id":"cebpf4jnsgd1na2vs0mg"},{"bike_id":"dca443e5-1221-4853-83eb-44e28c746c21","system_id":"levelo_inurba_marseille","lat":43.29209,"lon":5.37139,"is_reserved":false,"is_disabled":false,"rental_uris":{"android":"levelo://app?vid=dca443e5-1221-4853-83eb-44e28c746c21","ios":"levelo://app?vid=dca443e5-1221-4853-83eb-44e28c746c21"},"vehicle_type_id":"4","last_reported":1739787041,"current_range_meters":38400,"station_id":"ce4bha92rcd13ifvqeh0","pricing_plan_id":"cebpf4jnsgd1na2vs0mg"},{"bike_id":"942a1531-dd91-46c3-8655-4a3baa12f206","system_id":"levelo_inurba_marseille","lat":43.3052,"lon":5.3654,"is_reserved":false,"is_disabled":false,"rental_uris":{"android":"levelo://app?vid=942a1531-dd91-46c3-8655-4a3baa12f206","ios":"levelo://app?vid=942a1531-dd91-46c3-8655-4a3baa12f206"},"vehicle_type_id":"4","last_reported":1739787041,"current_range_meters":36000,"station_id":"ce4bgs12rcd13ifvqcag","pricing_plan_id":"cebpf4jnsgd1na2vs0mg"},{"bike_id":"26a17947-bae0-49a0-a0e6-dbcc7c3eae9e","system_id":"levelo_inurba_marseille","lat":43.24817,"lon":5.41828,"is_reserved":false,"is_disabled":false,"rental_uris":{"android":"levelo://app?vid=26a17947-bae0-49a0-a0e6-dbcc7c3eae9e","ios":"levelo://app?vid=26a17947-bae0-49a0-a0e6-dbcc7c3eae9e"},"vehicle_type_id":"4","last_reported":1739787041,"current_range_meters":26000,"station_id":"","pricing_plan_id":"cebpf4jnsgd1na2vs0mg"},{"bike_id":"0594397e-5b4a-4bc1-9dae-734c570709eb","system_id":"levelo_inurba_marseille","lat":43.27806,"lon":5.407037,"is_reserved":false,"is_disabled":false,"rental_uris":{"android":"levelo://app?vid=0594397e-5b4a-4bc1-9dae-734c570709eb","ios":"levelo://app?vid=0594397e-5b4a-4bc1-9dae-734c570709eb"},"vehicle_type_id":"4","last_reported":1739787041,"current_range_meters":38400,"station_id":"ce4bhnh2rcd13ifvqgtg","pricing_plan_id":"cebpf4jnsgd1na2vs0mg"},{"bike_id":"3d119f7e-598c-4ee5-af25-41604854cde7","system_id":"levelo_inurba_marseille","lat":43.29724,"lon":5.36612,"is_reserved":false,"is_disabled":false,"rental_uris":{"android":"levelo://app?vid=3d119f7e-598c-4ee5-af25-41604854cde7","ios":"levelo://app?vid=3d119f7e-598c-4ee5-af25-41604854cde7"},"vehicle_type_id":"4","last_reported":1739787041,"current_range_meters":38800,"station_id":"ce4bgn12rcd13ifvqbt0","pricing_plan_id":"cebpf4jnsgd1na2vs0mg"},{"bike_id":"0c5ce7e5-fa8b-4002-b643-0a75a136b919","system_id":"levelo_inurba_marseille","lat":43.29048,"lon":5.39982,"is_reserved":false,"is_disabled":false,"rental_uris":{"android":"levelo://app?vid=0c5ce7e5-fa8b-4002-b643-0a75a136b919","ios":"levelo://app?vid=0c5ce7e5-fa8b-4002-b643-0a75a136b919"},"vehicle_type_id":"4","last_reported":1739787041,"current_range_meters":36400,"station_id":"ce4bh392rcd13ifvqdm0","pricing_plan_id":"cebpf4jnsgd1na2vs0mg"},{"bike_id":"d53cb7d1-9cb1-4d48-a4e1-e897f4832524","system_id":"levelo_inurba_marseille","lat":43.28453,"lon":5.39193,"is_reserved":false,"is_disabled":false,"rental_uris":{"android":"levelo://app?vid=d53cb7d1-9cb1-4d48-a4e1-e897f4832524","ios":"levelo://app?vid=d53cb7d1-9cb1-4d48-a4e1-e897f4832524"},"vehicle_type_id":"4","last_reported":1739787041,"current_range_meters":38800,"station_id":"ce4bhoh2rcd13ifvqh5g","pricing_plan_id":"cebpf4jnsgd1na2vs0mg"},{"bike_id":"d4a193d2-215b-480b-9b02-f23112d400ba","system_id":"levelo_inurba_marseille","lat":43.30315,"lon":5.36902,"is_reserved":false,"is_disabled":false,"rental_uris":{"android":"levelo://app?vid=d4a193d2-215b-480b-9b02-f23112d400ba","ios":"levelo://app?vid=d4a193d2-215b-480b-9b02-f23112d400ba"},"vehicle_type_id":"4","last_reported":1739787041,"current_range_meters":24000,"station_id":"ce4bgqh2rcd13ifvqc5g","pricing_plan_id":"cebpf4jnsgd1na2vs0mg"},{"bike_id":"780fdccd-5a22-4079-9bd2-3857db17bb06","system_id":"levelo_inurba_marseille","lat":43.30441,"lon":5.39752,"is_reserved":false,"is_disabled":false,"rental_uris":{"android":"levelo://app?vid=780fdccd-5a22-4079-9bd2-3857db17bb06","ios":"levelo://app?vid=780fdccd-5a22-4079-9bd2-3857db17bb06"},"vehicle_type_id":"4","last_reported":1739787041,"current_range_meters":39200,"station_id":"ce4bh092rcd13ifvqd20","pricing_plan_id":"cebpf4jnsgd1na2vs0mg"},{"bike_id":"af4b6d01-8222-491c-a4cb-9d777ff30ae8","system_id":"levelo_inurba_marseille","lat":43.27304,"lon":5.39118,"is_reserved":false,"is_disabled":false,"rental_uris":{"android":"levelo://app?vid=af4b6d01-8222-491c-a4cb-9d777ff30ae8","ios":"levelo://app?vid=af4b6d01-8222-491c-a4cb-9d777ff30ae8"},"vehicle_type_id":"4","last_reported":1739787041,"current_range_meters":38800,"station_id":"ce4bhgp2rcd13ifvqfe0","pricing_plan_id":"cebpf4jnsgd1na2vs0mg"},{"bike_id":"203cb50c-f523-4751-a888-ed09dffb881e","system_id":"levelo_inurba_marseille","lat":43.26504,"lon":5.39555,"is_reserved":false,"is_disabled":true,"rental_uris":{"android":"levelo://app?vid=203cb50c-f523-4751-a888-ed09dffb881e","ios":"levelo://app?vid=203cb50c-f523-4751-a888-ed09dffb881e"},"vehicle_type_id":"4","last_reported":1739787041,"current_range_meters":0,"station_id":"ce4bhi12rcd13ifvqfq0","pricing_plan_id":"cebpf4jnsgd1na2vs0mg"},{"bike_id":"2821d2ff-3fc8-480e-81a3-1928b04e4a1d","system_id":"levelo_inurba_marseille","lat":43.32106,"lon":5.40973,"is_reserved":false,"is_disabled":false,"rental_uris":{"android":"levelo://app?vid=2821d2ff-3fc8-480e-81a3-1928b04e4a1d","ios":"levelo://app?vid=2821d2ff-3fc8-480e-81a3-1928b04e4a1d"},"vehicle_type_id":"4","last_reported":1739787041,"current_range_meters":6800,"station_id":"","pricing_plan_id":"cebpf4jnsgd1na2vs0mg"},{"bike_id":"8047b060-b144-4fed-a8cb-8616d953f2d5","system_id":"levelo_inurba_marseille","lat":43.23146,"lon":5.43717,"is_reserved":false,"is_disabled":false,"rental_uris":{"android":"levelo://app?vid=8047b060-b144-4fed-a8cb-8616d953f2d5","ios":"levelo://app?vid=8047b060-b144-4fed-a8cb-8616d953f2d5"},"vehicle_type_id":"4","last_reported":1739787041,"current_range_meters":24400,"station_id":"ce4bhmp2rcd13ifvqgog","pricing_plan_id":"cebpf4jnsgd1na2vs0mg"},{"bike_id":"d48b880c-5787-4eca-994b-610c9fc548ed","system_id":"levelo_inurba_marseille","lat":43.24161,"lon":5.36392,"is_reserved":false,"is_disabled":false,"rental_uris":{"android":"levelo://app?vid=d48b880c-5787-4eca-994b-610c9fc548ed","ios":"levelo://app?vid=d48b880c-5787-4eca-994b-610c9fc548ed"},"vehicle_type_id":"4","last_reported":1739787041,"current_range_meters":38000,"station_id":"cpo36qri1sfpv3e86is0","pricing_plan_id":"cebpf4jnsgd1na2vs0mg"},{"bike_id":"34c66d3d-b5aa-4bec-ab71-66b17e80e2a1","system_id":"levelo_inurba_marseille","lat":43.32271,"lon":5.38321,"is_reserved":false,"is_disabled":false,"rental_uris":{"android":"levelo://app?vid=34c66d3d-b5aa-4bec-ab71-66b17e80e2a1","ios":"levelo://app?vid=34c66d3d-b5aa-4bec-ab71-66b17e80e2a1"},"vehicle_type_id":"4","last_reported":1739787041,"current_range_meters":38800,"station_id":"ce4bhr12rcd13ifvqhqg","pricing_plan_id":"cebpf4jnsgd1na2vs0mg"},{"bike_id":"a4086f16-18bf-41c0-9517-08c5a8deab50","system_id":"levelo_inurba_marseille","lat":43.29939,"lon":5.37191,"is_reserved":false,"is_disabled":false,"rental_uris":{"android":"levelo://app?vid=a4086f16-18bf-41c0-9517-08c5a8deab50","ios":"levelo://app?vid=a4086f16-18bf-41c0-9517-08c5a8deab50"},"vehicle_type_id":"4","last_reported":1739787041,"current_range_meters":30000,"station_id":"ce4bgr92rcd13ifvqc7g","pricing_plan_id":"cebpf4jnsgd1na2vs0mg"},{"bike_id":"d70671ef-d257-4f15-9ecc-a2bfef9e5adc","system_id":"levelo_inurba_marseille","lat":43.24996,"lon":5.38929,"is_reserved":false,"is_disabled":false,"rental_uris":{"android":"levelo://app?vid=d70671ef-d257-4f15-9ecc-a2bfef9e5adc","ios":"levelo://app?vid=d70671ef-d257-4f15-9ecc-a2bfef9e5adc"},"vehicle_type_id":"4","last_reported":1739787041,"current_range_meters":30400,"station_id":"ce4bhgp2rcd13ifvqfd0","pricing_plan_id":"cebpf4jnsgd1na2vs0mg"},{"bike_id":"940ffad1-8d03-466c-a361-1bdb8859eb0e","system_id":"levelo_inurba_marseille","lat":43.28613,"lon":5.35104,"is_reserved":false,"is_disabled":true,"rental_uris":{"android":"levelo://app?vid=940ffad1-8d03-466c-a361-1bdb8859eb0e","ios":"levelo://app?vid=940ffad1-8d03-466c-a361-1bdb8859eb0e"},"vehicle_type_id":"4","last_reported":1739787041,"current_range_meters":0,"station_id":"ce4bhch2rcd13ifvqeug","pricing_plan_id":"cebpf4jnsgd1na2vs0mg"},{"bike_id":"91e20a00-0a61-4c4d-ac1e-de492ad0d12a","system_id":"levelo_inurba_marseille","lat":43.29537,"lon":5.375,"is_reserved":false,"is_disabled":false,"rental_uris":{"android":"levelo://app?vid=91e20a00-0a61-4c4d-ac1e-de492ad0d12a","ios":"levelo://app?vid=91e20a00-0a61-4c4d-ac1e-de492ad0d12a"},"vehicle_type_id":"4","last_reported":1739787041,"current_range_meters":18000,"station_id":"ce4bgkp2rcd13ifvqbmg","pricing_plan_id":"cebpf4jnsgd1na2vs0mg"},{"bike_id":"86a75285-7243-40ee-925b-d20bf72a6a49","system_id":"levelo_inurba_marseille","lat":43.29813,"lon":5.36269,"is_reserved":false,"is_disabled":false,"rental_uris":{"android":"levelo://app?vid=86a75285-7243-40ee-925b-d20bf72a6a49","ios":"levelo://app?vid=86a75285-7243-40ee-925b-d20bf72a6a49"},"vehicle_type_id":"4","last_reported":1739787041,"current_range_meters":38400,"station_id":"ce4bgpp2rcd13ifvqc3g","pricing_plan_id":"cebpf4jnsgd1na2vs0mg"},{"bike_id":"1f0657bb-7196-41de-84fc-c834bbf90b28","system_id":"levelo_inurba_marseille","lat":43.280799,"lon":5.396496,"is_reserved":false,"is_disabled":true,"rental_uris":{"android":"levelo://app?vid=1f0657bb-7196-41de-84fc-c834bbf90b28","ios":"levelo://app?vid=1f0657bb-7196-41de-84fc-c834bbf90b28"},"vehicle_type_id":"4","last_reported":1739787041,"current_range_meters":38400,"station_id":"ce4bho12rcd13ifvqh2g","pricing_plan_id":"cebpf4jnsgd1na2vs0mg"},{"bike_id":"247c1236-c075-44ea-b5b4-16cb770d23ed","system_id":"levelo_inurba_marseille","lat":43.28612,"lon":5.35104,"is_reserved":false,"is_disabled":false,"rental_uris":{"android":"levelo://app?vid=247c1236-c075-44ea-b5b4-16cb770d23ed","ios":"levelo://app?vid=247c1236-c075-44ea-b5b4-16cb770d23ed"},"vehicle_type_id":"4","last_reported":1739787041,"current_range_meters":19200,"station_id":"ce4bhch2rcd13ifvqeug","pricing_plan_id":"cebpf4jnsgd1na2vs0mg"},{"bike_id":"fe95f88b-8914-4de1-9146-683dcbb7a9f6","system_id":"levelo_inurba_marseille","lat":43.26969,"lon":5.3893,"is_reserved":false,"is_disabled":false,"rental_uris":{"android":"levelo://app?vid=fe95f88b-8914-4de1-9146-683dcbb7a9f6","ios":"levelo://app?vid=fe95f88b-8914-4de1-9146-683dcbb7a9f6"},"vehicle_type_id":"4","last_reported":1739787041,"current_range_meters":38000,"station_id":"ce4bhhh2rcd13ifvqfl0","pricing_plan_id":"cebpf4jnsgd1na2vs0mg"},{"bike_id":"edda1ad3-82ad-41f9-8e9c-88195b92dd49","system_id":"levelo_inurba_marseille","lat":43.31775,"lon":5.38813,"is_reserved":false,"is_disabled":false,"rental_uris":{"android":"levelo://app?vid=edda1ad3-82ad-41f9-8e9c-88195b92dd49","ios":"levelo://app?vid=edda1ad3-82ad-41f9-8e9c-88195b92dd49"},"vehicle_type_id":"4","last_reported":1739787041,"current_range_meters":9600,"station_id":"","pricing_plan_id":"cebpf4jnsgd1na2vs0mg"},{"bike_id":"25060e1a-5203-4347-9af4-8a268b99fbd8","system_id":"levelo_inurba_marseille","lat":43.27211,"lon":5.39185,"is_reserved":false,"is_disabled":false,"rental_uris":{"android":"levelo://app?vid=25060e1a-5203-4347-9af4-8a268b99fbd8","ios":"levelo://app?vid=25060e1a-5203-4347-9af4-8a268b99fbd8"},"vehicle_type_id":"4","last_reported":1739787041,"current_range_meters":22800,"station_id":"ce4bhhp2rcd13ifvqfm0","pricing_plan_id":"cebpf4jnsgd1na2vs0mg"},{"bike_id":"d1406852-fd4d-4f3f-b868-95fa220b828c","system_id":"levelo_inurba_marseille","lat":43.33743,"lon":5.39191,"is_reserved":false,"is_disabled":false,"rental_uris":{"android":"levelo://app?vid=d1406852-fd4d-4f3f-b868-95fa220b828c","ios":"levelo://app?vid=d1406852-fd4d-4f3f-b868-95fa220b828c"},"vehicle_type_id":"4","last_reported":1739787041,"current_range_meters":38000,"station_id":"ce4bhr92rcd13ifvqhsg","pricing_plan_id":"cebpf4jnsgd1na2vs0mg"},{"bike_id":"d22faca5-39f2-4b06-850d-35bc4c9ce167","system_id":"levelo_inurba_marseille","lat":43.27999,"lon":5.40012,"is_reserved":false,"is_disabled":false,"rental_uris":{"android":"levelo://app?vid=d22faca5-39f2-4b06-850d-35bc4c9ce167","ios":"levelo://app?vid=d22faca5-39f2-4b06-850d-35bc4c9ce167"},"vehicle_type_id":"4","last_reported":1739787041,"current_range_meters":34800,"station_id":"ce4bho92rcd13ifvqh4g","pricing_plan_id":"cebpf4jnsgd1na2vs0mg"},{"bike_id":"f92e748a-9f9b-4e54-8084-07e33515f3d5","system_id":"levelo_inurba_marseille","lat":43.27071,"lon":5.39347,"is_reserved":false,"is_disabled":true,"rental_uris":{"android":"levelo://app?vid=f92e748a-9f9b-4e54-8084-07e33515f3d5","ios":"levelo://app?vid=f92e748a-9f9b-4e54-8084-07e33515f3d5"},"vehicle_type_id":"4","last_reported":1739787041,"current_range_meters":0,"station_id":"","pricing_plan_id":"cebpf4jnsgd1na2vs0mg"},{"bike_id":"a5358878-409b-4db3-a1b5-4039bc8762f9","system_id":"levelo_inurba_marseille","lat":43.30199,"lon":5.36616,"is_reserved":false,"is_disabled":false,"rental_uris":{"android":"levelo://app?vid=a5358878-409b-4db3-a1b5-4039bc8762f9","ios":"levelo://app?vid=a5358878-409b-4db3-a1b5-4039bc8762f9"},"vehicle_type_id":"4","last_reported":1739787041,"current_range_meters":38400,"station_id":"ce4bgrh2rcd13ifvqc8g","pricing_plan_id":"cebpf4jnsgd1na2vs0mg"},{"bike_id":"61c73a54-49d6-4fa7-b217-7afcb63b46fa","system_id":"levelo_inurba_marseille","lat":43.28043,"lon":5.36941,"is_reserved":false,"is_disabled":false,"rental_uris":{"android":"levelo://app?vid=61c73a54-49d6-4fa7-b217-7afcb63b46fa","ios":"levelo://app?vid=61c73a54-49d6-4fa7-b217-7afcb63b46fa"},"vehicle_type_id":"4","last_reported":1739787041,"current_range_meters":36400,"station_id":"ce4bha12rcd13ifvqef0","pricing_plan_id":"cebpf4jnsgd1na2vs0mg"},{"bike_id":"0809db98-0251-44cb-a2d0-a22913af607e","system_id":"levelo_inurba_marseille","lat":43.28275,"lon":5.35078,"is_reserved":false,"is_disabled":false,"rental_uris":{"android":"levelo://app?vid=0809db98-0251-44cb-a2d0-a22913af607e","ios":"levelo://app?vid=0809db98-0251-44cb-a2d0-a22913af607e"},"vehicle_type_id":"4","last_reported":1739787041,"current_range_meters":38800,"station_id":"ce4bhbp2rcd13ifvqerg","pricing_plan_id":"cebpf4jnsgd1na2vs0mg"},{"bike_id":"27cf4bdf-1b70-4c5c-9ce7-07c6d0184702","system_id":"levelo_inurba_marseille","lat":43.26201,"lon":5.37932,"is_reserved":false,"is_disabled":false,"rental_uris":{"android":"levelo://app?vid=27cf4bdf-1b70-4c5c-9ce7-07c6d0184702","ios":"levelo://app?vid=27cf4bdf-1b70-4c5c-9ce7-07c6d0184702"},"vehicle_type_id":"4","last_reported":1739787041,"current_range_meters":38000,"station_id":"ce4bhjp2rcd13ifvqg90","pricing_plan_id":"cebpf4jnsgd1na2vs0mg"},{"bike_id":"438f7e42-84e9-4231-af83-3020c73767bd","system_id":"levelo_inurba_marseille","lat":43.30923,"lon":5.36883,"is_reserved":false,"is_disabled":false,"rental_uris":{"android":"levelo://app?vid=438f7e42-84e9-4231-af83-3020c73767bd","ios":"levelo://app?vid=438f7e42-84e9-4231-af83-3020c73767bd"},"vehicle_type_id":"4","last_reported":1739787041,"current_range_meters":30400,"station_id":"ce4bgn92rcd13ifvqbvg","pricing_plan_id":"cebpf4jnsgd1na2vs0mg"},{"bike_id":"ea01f0d6-5a6b-429c-9d59-9891c2bba261","system_id":"levelo_inurba_marseille","lat":43.25073,"lon":5.39512,"is_reserved":false,"is_disabled":false,"rental_uris":{"android":"levelo://app?vid=ea01f0d6-5a6b-429c-9d59-9891c2bba261","ios":"levelo://app?vid=ea01f0d6-5a6b-429c-9d59-9891c2bba261"},"vehicle_type_id":"4","last_reported":1739787041,"current_range_meters":8800,"station_id":"ce4bhm12rcd13ifvqgkg","pricing_plan_id":"cebpf4jnsgd1na2vs0mg"},{"bike_id":"c9b67ae2-c749-4781-9675-d73b56e2660e","system_id":"levelo_inurba_marseille","lat":43.30419,"lon":5.3976,"is_reserved":false,"is_disabled":false,"rental_uris":{"android":"levelo://app?vid=c9b67ae2-c749-4781-9675-d73b56e2660e","ios":"levelo://app?vid=c9b67ae2-c749-4781-9675-d73b56e2660e"},"vehicle_type_id":"4","last_reported":1739787041,"current_range_meters":38000,"station_id":"ce4bh092rcd13ifvqd20","pricing_plan_id":"cebpf4jnsgd1na2vs0mg"},{"bike_id":"9cf8e6d9-67b8-441b-8ab4-08ef8560d2b0","system_id":"levelo_inurba_marseille","lat":43.33514,"lon":5.35585,"is_reserved":false,"is_disabled":true,"rental_uris":{"android":"levelo://app?vid=9cf8e6d9-67b8-441b-8ab4-08ef8560d2b0","ios":"levelo://app?vid=9cf8e6d9-67b8-441b-8ab4-08ef8560d2b0"},"vehicle_type_id":"4","last_reported":1739787041,"current_range_meters":0,"station_id":"","pricing_plan_id":"cebpf4jnsgd1na2vs0mg"},{"bike_id":"b5fa89f3-eccf-42db-839b-52bfd51017e5","system_id":"levelo_inurba_marseille","lat":43.30898,"lon":5.36863,"is_reserved":false,"is_disabled":false,"rental_uris":{"android":"levelo://app?vid=b5fa89f3-eccf-42db-839b-52bfd51017e5","ios":"levelo://app?vid=b5fa89f3-eccf-42db-839b-52bfd51017e5"},"vehicle_type_id":"4","last_reported":1739787041,"current_range_meters":23200,"station_id":"ce4bgn92rcd13ifvqbvg","pricing_plan_id":"cebpf4jnsgd1na2vs0mg"},{"bike_id":"211847e2-34d6-4dc9-978c-d9044398d207","system_id":"levelo_inurba_marseille","lat":43.30141,"lon":5.38093,"is_reserved":false,"is_disabled":false,"rental_uris":{"android":"levelo://app?vid=211847e2-34d6-4dc9-978c-d9044398d207","ios":"levelo://app?vid=211847e2-34d6-4dc9-978c-d9044398d207"},"vehicle_type_id":"4","last_reported":1739787041,"current_range_meters":33200,"station_id":"ce4bgjp2rcd13ifvqbh0","pricing_plan_id":"cebpf4jnsgd1na2vs0mg"},{"bike_id":"fcd177e2-f13a-488d-91fa-66f2d7f21487","system_id":"levelo_inurba_marseille","lat":43.27202,"lon":5.39189,"is_reserved":false,"is_disabled":false,"rental_uris":{"android":"levelo://app?vid=fcd177e2-f13a-488d-91fa-66f2d7f21487","ios":"levelo://app?vid=fcd177e2-f13a-488d-91fa-66f2d7f21487"},"vehicle_type_id":"4","last_reported":1739787041,"current_range_meters":30400,"station_id":"ce4bhhp2rcd13ifvqfm0","pricing_plan_id":"cebpf4jnsgd1na2vs0mg"},{"bike_id":"be3306be-a748-418d-8f2d-22ba15c8991d","system_id":"levelo_inurba_marseille","lat":43.30895,"lon":5.3686,"is_reserved":false,"is_disabled":false,"rental_uris":{"android":"levelo://app?vid=be3306be-a748-418d-8f2d-22ba15c8991d","ios":"levelo://app?vid=be3306be-a748-418d-8f2d-22ba15c8991d"},"vehicle_type_id":"4","last_reported":1739787041,"current_range_meters":37600,"station_id":"ce4bgn92rcd13ifvqbvg","pricing_plan_id":"cebpf4jnsgd1na2vs0mg"},{"bike_id":"dbd212c7-9372-41c0-b2c1-a6104d7e3419","system_id":"levelo_inurba_marseille","lat":43.27332,"lon":5.39113,"is_reserved":false,"is_disabled":false,"rental_uris":{"android":"levelo://app?vid=dbd212c7-9372-41c0-b2c1-a6104d7e3419","ios":"levelo://app?vid=dbd212c7-9372-41c0-b2c1-a6104d7e3419"},"vehicle_type_id":"4","last_reported":1739787041,"current_range_meters":38800,"station_id":"ce4bhgp2rcd13ifvqfe0","pricing_plan_id":"cebpf4jnsgd1na2vs0mg"},{"bike_id":"fa829a28-0d39-4f0a-9c08-112c6b4cee0e","system_id":"levelo_inurba_marseille","lat":43.26689,"lon":5.38273,"is_reserved":false,"is_disabled":false,"rental_uris":{"android":"levelo://app?vid=fa829a28-0d39-4f0a-9c08-112c6b4cee0e","ios":"levelo://app?vid=fa829a28-0d39-4f0a-9c08-112c6b4cee0e"},"vehicle_type_id":"4","last_reported":1739787041,"current_range_meters":22400,"station_id":"ce4bhg92rcd13ifvqf90","pricing_plan_id":"cebpf4jnsgd1na2vs0mg"},{"bike_id":"247cb5eb-2117-44c6-80ec-139b2b6ba888","system_id":"levelo_inurba_marseille","lat":43.29632,"lon":5.37753,"is_reserved":false,"is_disabled":false,"rental_uris":{"android":"levelo://app?vid=247cb5eb-2117-44c6-80ec-139b2b6ba888","ios":"levelo://app?vid=247cb5eb-2117-44c6-80ec-139b2b6ba888"},"vehicle_type_id":"4","last_reported":1739787041,"current_range_meters":24800,"station_id":"ce4bgi92rcd13ifvqb90","pricing_plan_id":"cebpf4jnsgd1na2vs0mg"},{"bike_id":"699b4ead-7083-4b29-85c3-471cfd54f9e5","system_id":"levelo_inurba_marseille","lat":43.29798,"lon":5.40414,"is_reserved":false,"is_disabled":true,"rental_uris":{"android":"levelo://app?vid=699b4ead-7083-4b29-85c3-471cfd54f9e5","ios":"levelo://app?vid=699b4ead-7083-4b29-85c3-471cfd54f9e5"},"vehicle_type_id":"4","last_reported":1739787041,"current_range_meters":38800,"station_id":"ce4bh112rcd13ifvqd90","pricing_plan_id":"cebpf4jnsgd1na2vs0mg"},{"bike_id":"95d1ba99-ee4d-447e-b8b0-cdcc6cc7c13c","system_id":"levelo_inurba_marseille","lat":43.30564,"lon":5.36537,"is_reserved":false,"is_disabled":false,"rental_uris":{"android":"levelo://app?vid=95d1ba99-ee4d-447e-b8b0-cdcc6cc7c13c","ios":"levelo://app?vid=95d1ba99-ee4d-447e-b8b0-cdcc6cc7c13c"},"vehicle_type_id":"4","last_reported":1739787041,"current_range_meters":36800,"station_id":"ce4bgs12rcd13ifvqcag","pricing_plan_id":"cebpf4jnsgd1na2vs0mg"},{"bike_id":"51ab7186-5043-4bed-baca-73708608a302","system_id":"levelo_inurba_marseille","lat":43.29584,"lon":5.37026,"is_reserved":false,"is_disabled":true,"rental_uris":{"android":"levelo://app?vid=51ab7186-5043-4bed-baca-73708608a302","ios":"levelo://app?vid=51ab7186-5043-4bed-baca-73708608a302"},"vehicle_type_id":"4","last_reported":1739787041,"current_range_meters":0,"station_id":"","pricing_plan_id":"cebpf4jnsgd1na2vs0mg"},{"bike_id":"9760b051-4e9e-4125-bdb3-bbff49eb6279","system_id":"levelo_inurba_marseille","lat":43.316335,"lon":5.404781,"is_reserved":false,"is_disabled":false,"rental_uris":{"android":"levelo://app?vid=9760b051-4e9e-4125-bdb3-bbff49eb6279","ios":"levelo://app?vid=9760b051-4e9e-4125-bdb3-bbff49eb6279"},"vehicle_type_id":"4","last_reported":1739787041,"current_range_meters":8400,"station_id":"","pricing_plan_id":"cebpf4jnsgd1na2vs0mg"},{"bike_id":"c5559994-20bc-48c5-9397-a0a5bf13f2e6","system_id":"levelo_inurba_marseille","lat":43.25865,"lon":5.39905,"is_reserved":false,"is_disabled":true,"rental_uris":{"android":"levelo://app?vid=c5559994-20bc-48c5-9397-a0a5bf13f2e6","ios":"levelo://app?vid=c5559994-20bc-48c5-9397-a0a5bf13f2e6"},"vehicle_type_id":"4","last_reported":1739787041,"current_range_meters":6400,"station_id":"ce4bhl92rcd13ifvqghg","pricing_plan_id":"cebpf4jnsgd1na2vs0mg"},{"bike_id":"20aa5b23-fbe5-4790-ad90-ddc22f8f839f","system_id":"levelo_inurba_marseille","lat":43.24165,"lon":5.364,"is_reserved":false,"is_disabled":false,"rental_uris":{"android":"levelo://app?vid=20aa5b23-fbe5-4790-ad90-ddc22f8f839f","ios":"levelo://app?vid=20aa5b23-fbe5-4790-ad90-ddc22f8f839f"},"vehicle_type_id":"4","last_reported":1739787041,"current_range_meters":24800,"station_id":"cpo36qri1sfpv3e86is0","pricing_plan_id":"cebpf4jnsgd1na2vs0mg"},{"bike_id":"2ff8b780-16f3-4ad1-831b-38959d816378","system_id":"levelo_inurba_marseille","lat":43.30287,"lon":5.3771,"is_reserved":false,"is_disabled":false,"rental_uris":{"android":"levelo://app?vid=2ff8b780-16f3-4ad1-831b-38959d816378","ios":"levelo://app?vid=2ff8b780-16f3-4ad1-831b-38959d816378"},"vehicle_type_id":"4","last_reported":1739787041,"current_range_meters":30000,"station_id":"ce4bguh2rcd13ifvqcj0","pricing_plan_id":"cebpf4jnsgd1na2vs0mg"},{"bike_id":"505bf071-ba9c-4a3e-9ed9-67c34ca9bd00","system_id":"levelo_inurba_marseille","lat":43.29958,"lon":5.37167,"is_reserved":false,"is_disabled":false,"rental_uris":{"android":"levelo://app?vid=505bf071-ba9c-4a3e-9ed9-67c34ca9bd00","ios":"levelo://app?vid=505bf071-ba9c-4a3e-9ed9-67c34ca9bd00"},"vehicle_type_id":"4","last_reported":1739787041,"current_range_meters":39200,"station_id":"ce4bgr92rcd13ifvqc7g","pricing_plan_id":"cebpf4jnsgd1na2vs0mg"},{"bike_id":"c40e2cb9-b89c-4dbd-956b-535ef79f1d37","system_id":"levelo_inurba_marseille","lat":43.24811,"lon":5.37455,"is_reserved":false,"is_disabled":false,"rental_uris":{"android":"levelo://app?vid=c40e2cb9-b89c-4dbd-956b-535ef79f1d37","ios":"levelo://app?vid=c40e2cb9-b89c-4dbd-956b-535ef79f1d37"},"vehicle_type_id":"4","last_reported":1739787041,"current_range_meters":14400,"station_id":"ce4bhgh2rcd13ifvqfb0","pricing_plan_id":"cebpf4jnsgd1na2vs0mg"},{"bike_id":"1cfed0a3-4e80-48b9-b340-1345babb74fe","system_id":"levelo_inurba_marseille","lat":43.30907,"lon":5.36843,"is_reserved":false,"is_disabled":false,"rental_uris":{"android":"levelo://app?vid=1cfed0a3-4e80-48b9-b340-1345babb74fe","ios":"levelo://app?vid=1cfed0a3-4e80-48b9-b340-1345babb74fe"},"vehicle_type_id":"4","last_reported":1739787041,"current_range_meters":26800,"station_id":"ce4bgn92rcd13ifvqbvg","pricing_plan_id":"cebpf4jnsgd1na2vs0mg"},{"bike_id":"9541c854-11de-42b4-992f-6bf4d1f6b2b4","system_id":"levelo_inurba_marseille","lat":43.26681,"lon":5.38273,"is_reserved":false,"is_disabled":false,"rental_uris":{"android":"levelo://app?vid=9541c854-11de-42b4-992f-6bf4d1f6b2b4","ios":"levelo://app?vid=9541c854-11de-42b4-992f-6bf4d1f6b2b4"},"vehicle_type_id":"4","last_reported":1739787041,"current_range_meters":27200,"station_id":"ce4bhg92rcd13ifvqf90","pricing_plan_id":"cebpf4jnsgd1na2vs0mg"},{"bike_id":"8e082123-44d3-4c10-a511-39dde5e690c7","system_id":"levelo_inurba_marseille","lat":43.24806,"lon":5.37456,"is_reserved":false,"is_disabled":false,"rental_uris":{"android":"levelo://app?vid=8e082123-44d3-4c10-a511-39dde5e690c7","ios":"levelo://app?vid=8e082123-44d3-4c10-a511-39dde5e690c7"},"vehicle_type_id":"4","last_reported":1739787041,"current_range_meters":38400,"station_id":"ce4bhgh2rcd13ifvqfb0","pricing_plan_id":"cebpf4jnsgd1na2vs0mg"},{"bike_id":"4afd05b5-41e1-4012-b907-304d88773920","system_id":"levelo_inurba_marseille","lat":43.23971,"lon":5.36629,"is_reserved":false,"is_disabled":false,"rental_uris":{"android":"levelo://app?vid=4afd05b5-41e1-4012-b907-304d88773920","ios":"levelo://app?vid=4afd05b5-41e1-4012-b907-304d88773920"},"vehicle_type_id":"4","last_reported":1739787041,"current_range_meters":32800,"station_id":"ce4bhi12rcd13ifvqfp0","pricing_plan_id":"cebpf4jnsgd1na2vs0mg"},{"bike_id":"c01b8a5d-8792-4724-9b6c-520e94811d62","system_id":"levelo_inurba_marseille","lat":43.30319,"lon":5.39208,"is_reserved":false,"is_disabled":false,"rental_uris":{"android":"levelo://app?vid=c01b8a5d-8792-4724-9b6c-520e94811d62","ios":"levelo://app?vid=c01b8a5d-8792-4724-9b6c-520e94811d62"},"vehicle_type_id":"4","last_reported":1739787041,"current_range_meters":36800,"station_id":"ce4bgkh2rcd13ifvqbk0","pricing_plan_id":"cebpf4jnsgd1na2vs0mg"},{"bike_id":"af02ac68-734a-4337-a76f-2d6f15936fdf","system_id":"levelo_inurba_marseille","lat":43.31748,"lon":5.38897,"is_reserved":false,"is_disabled":false,"rental_uris":{"android":"levelo://app?vid=af02ac68-734a-4337-a76f-2d6f15936fdf","ios":"levelo://app?vid=af02ac68-734a-4337-a76f-2d6f15936fdf"},"vehicle_type_id":"4","last_reported":1739787041,"current_range_meters":38000,"station_id":"","pricing_plan_id":"cebpf4jnsgd1na2vs0mg"},{"bike_id":"bce60756-9e4c-4e13-87ee-d8aebefdf04d","system_id":"levelo_inurba_marseille","lat":43.26936,"lon":5.3865,"is_reserved":false,"is_disabled":false,"rental_uris":{"android":"levelo://app?vid=bce60756-9e4c-4e13-87ee-d8aebefdf04d","ios":"levelo://app?vid=bce60756-9e4c-4e13-87ee-d8aebefdf04d"},"vehicle_type_id":"4","last_reported":1739787041,"current_range_meters":39200,"station_id":"ce4bhh92rcd13ifvqfh0","pricing_plan_id":"cebpf4jnsgd1na2vs0mg"},{"bike_id":"1f334960-2a33-46d4-8f61-cbc89b5e905b","system_id":"levelo_inurba_marseille","lat":43.30352,"lon":5.37724,"is_reserved":false,"is_disabled":false,"rental_uris":{"android":"levelo://app?vid=1f334960-2a33-46d4-8f61-cbc89b5e905b","ios":"levelo://app?vid=1f334960-2a33-46d4-8f61-cbc89b5e905b"},"vehicle_type_id":"4","last_reported":1739787041,"current_range_meters":39200,"station_id":"ce4bguh2rcd13ifvqcj0","pricing_plan_id":"cebpf4jnsgd1na2vs0mg"},{"bike_id":"ad5f1c82-c1b5-4a02-9072-42375867f461","system_id":"levelo_inurba_marseille","lat":43.31171,"lon":5.38721,"is_reserved":false,"is_disabled":false,"rental_uris":{"android":"levelo://app?vid=ad5f1c82-c1b5-4a02-9072-42375867f461","ios":"levelo://app?vid=ad5f1c82-c1b5-4a02-9072-42375867f461"},"vehicle_type_id":"4","last_reported":1739787041,"current_range_meters":36800,"station_id":"ce4bgv12rcd13ifvqcp0","pricing_plan_id":"cebpf4jnsgd1na2vs0mg"},{"bike_id":"fb8e804a-78cb-4125-aa55-c544ab3b908f","system_id":"levelo_inurba_marseille","lat":43.30319,"lon":5.36908,"is_reserved":false,"is_disabled":false,"rental_uris":{"android":"levelo://app?vid=fb8e804a-78cb-4125-aa55-c544ab3b908f","ios":"levelo://app?vid=fb8e804a-78cb-4125-aa55-c544ab3b908f"},"vehicle_type_id":"4","last_reported":1739787041,"current_range_meters":37600,"station_id":"ce4bgqh2rcd13ifvqc5g","pricing_plan_id":"cebpf4jnsgd1na2vs0mg"},{"bike_id":"397f7144-3e20-4f61-9149-2720265fc375","system_id":"levelo_inurba_marseille","lat":43.240753,"lon":5.377557,"is_reserved":false,"is_disabled":false,"rental_uris":{"android":"levelo://app?vid=397f7144-3e20-4f61-9149-2720265fc375","ios":"levelo://app?vid=397f7144-3e20-4f61-9149-2720265fc375"},"vehicle_type_id":"4","last_reported":1739787041,"current_range_meters":30800,"station_id":"ce4bhnp2rcd13ifvqgvg","pricing_plan_id":"cebpf4jnsgd1na2vs0mg"},{"bike_id":"e11183b2-c1b1-4304-9b12-b80fb4ad0290","system_id":"levelo_inurba_marseille","lat":43.29057,"lon":5.39983,"is_reserved":false,"is_disabled":true,"rental_uris":{"android":"levelo://app?vid=e11183b2-c1b1-4304-9b12-b80fb4ad0290","ios":"levelo://app?vid=e11183b2-c1b1-4304-9b12-b80fb4ad0290"},"vehicle_type_id":"4","last_reported":1739787041,"current_range_meters":38000,"station_id":"ce4bh392rcd13ifvqdm0","pricing_plan_id":"cebpf4jnsgd1na2vs0mg"},{"bike_id":"e7940778-1415-4b92-8f1f-eb7b2e5880dd","system_id":"levelo_inurba_marseille","lat":43.2972,"lon":5.37698,"is_reserved":false,"is_disabled":false,"rental_uris":{"android":"levelo://app?vid=e7940778-1415-4b92-8f1f-eb7b2e5880dd","ios":"levelo://app?vid=e7940778-1415-4b92-8f1f-eb7b2e5880dd"},"vehicle_type_id":"4","last_reported":1739787041,"current_range_meters":28800,"station_id":"ce4bgkh2rcd13ifvqbl0","pricing_plan_id":"cebpf4jnsgd1na2vs0mg"},{"bike_id":"457a030d-6858-4f7a-8278-228571f059fd","system_id":"levelo_inurba_marseille","lat":43.23144,"lon":5.43729,"is_reserved":false,"is_disabled":false,"rental_uris":{"android":"levelo://app?vid=457a030d-6858-4f7a-8278-228571f059fd","ios":"levelo://app?vid=457a030d-6858-4f7a-8278-228571f059fd"},"vehicle_type_id":"4","last_reported":1739787041,"current_range_meters":38800,"station_id":"ce4bhmp2rcd13ifvqgog","pricing_plan_id":"cebpf4jnsgd1na2vs0mg"},{"bike_id":"e35a9395-0bf1-4f5f-a592-11033722b6ab","system_id":"levelo_inurba_marseille","lat":43.33733,"lon":5.39196,"is_reserved":false,"is_disabled":false,"rental_uris":{"android":"levelo://app?vid=e35a9395-0bf1-4f5f-a592-11033722b6ab","ios":"levelo://app?vid=e35a9395-0bf1-4f5f-a592-11033722b6ab"},"vehicle_type_id":"4","last_reported":1739787041,"current_range_meters":38800,"station_id":"ce4bhr92rcd13ifvqhsg","pricing_plan_id":"cebpf4jnsgd1na2vs0mg"},{"bike_id":"87ee90cc-5174-462f-8597-349c2314f08b","system_id":"levelo_inurba_marseille","lat":43.27313,"lon":5.39083,"is_reserved":false,"is_disabled":false,"rental_uris":{"android":"levelo://app?vid=87ee90cc-5174-462f-8597-349c2314f08b","ios":"levelo://app?vid=87ee90cc-5174-462f-8597-349c2314f08b"},"vehicle_type_id":"4","last_reported":1739787041,"current_range_meters":38800,"station_id":"ce4bhgp2rcd13ifvqfe0","pricing_plan_id":"cebpf4jnsgd1na2vs0mg"},{"bike_id":"fd88037f-64a1-4c89-b0ee-2f6fba03aeb3","system_id":"levelo_inurba_marseille","lat":43.3042,"lon":5.39759,"is_reserved":false,"is_disabled":false,"rental_uris":{"android":"levelo://app?vid=fd88037f-64a1-4c89-b0ee-2f6fba03aeb3","ios":"levelo://app?vid=fd88037f-64a1-4c89-b0ee-2f6fba03aeb3"},"vehicle_type_id":"4","last_reported":1739787041,"current_range_meters":34000,"station_id":"ce4bh092rcd13ifvqd20","pricing_plan_id":"cebpf4jnsgd1na2vs0mg"},{"bike_id":"d505ae6b-8401-49d2-a7e3-85c98bc77f1c","system_id":"levelo_inurba_marseille","lat":43.32345,"lon":5.40617,"is_reserved":false,"is_disabled":false,"rental_uris":{"android":"levelo://app?vid=d505ae6b-8401-49d2-a7e3-85c98bc77f1c","ios":"levelo://app?vid=d505ae6b-8401-49d2-a7e3-85c98bc77f1c"},"vehicle_type_id":"4","last_reported":1739787041,"current_range_meters":14400,"station_id":"ce4bhq92rcd13ifvqhjg","pricing_plan_id":"cebpf4jnsgd1na2vs0mg"},{"bike_id":"9ef51e36-6b91-4370-b608-25268899d671","system_id":"levelo_inurba_marseille","lat":43.27784,"lon":5.40688,"is_reserved":false,"is_disabled":false,"rental_uris":{"android":"levelo://app?vid=9ef51e36-6b91-4370-b608-25268899d671","ios":"levelo://app?vid=9ef51e36-6b91-4370-b608-25268899d671"},"vehicle_type_id":"4","last_reported":1739787041,"current_range_meters":38800,"station_id":"ce4bhnh2rcd13ifvqgtg","pricing_plan_id":"cebpf4jnsgd1na2vs0mg"},{"bike_id":"6408b994-ae56-4e32-95b9-cb0502299b0f","system_id":"levelo_inurba_marseille","lat":43.29563,"lon":5.42295,"is_reserved":false,"is_disabled":false,"rental_uris":{"android":"levelo://app?vid=6408b994-ae56-4e32-95b9-cb0502299b0f","ios":"levelo://app?vid=6408b994-ae56-4e32-95b9-cb0502299b0f"},"vehicle_type_id":"4","last_reported":1739787041,"current_range_meters":35600,"station_id":"ce4bhph2rcd13ifvqhdg","pricing_plan_id":"cebpf4jnsgd1na2vs0mg"},{"bike_id":"e87d3a2a-e0eb-491b-a724-860180a65cab","system_id":"levelo_inurba_marseille","lat":43.27268,"lon":5.40081,"is_reserved":false,"is_disabled":false,"rental_uris":{"android":"levelo://app?vid=e87d3a2a-e0eb-491b-a724-860180a65cab","ios":"levelo://app?vid=e87d3a2a-e0eb-491b-a724-860180a65cab"},"vehicle_type_id":"4","last_reported":1739787041,"current_range_meters":14000,"station_id":"","pricing_plan_id":"cebpf4jnsgd1na2vs0mg"},{"bike_id":"9e546870-51eb-411e-8421-79b0a01e5bc8","system_id":"levelo_inurba_marseille","lat":43.27622,"lon":5.36101,"is_reserved":false,"is_disabled":false,"rental_uris":{"android":"levelo://app?vid=9e546870-51eb-411e-8421-79b0a01e5bc8","ios":"levelo://app?vid=9e546870-51eb-411e-8421-79b0a01e5bc8"},"vehicle_type_id":"4","last_reported":1739787041,"current_range_meters":38000,"station_id":"ce4bgj92rcd13ifvqbe0","pricing_plan_id":"cebpf4jnsgd1na2vs0mg"},{"bike_id":"cdf1f2ce-635c-4468-bd78-49e7b9ff353a","system_id":"levelo_inurba_marseille","lat":43.2963,"lon":5.40601,"is_reserved":false,"is_disabled":false,"rental_uris":{"android":"levelo://app?vid=cdf1f2ce-635c-4468-bd78-49e7b9ff353a","ios":"levelo://app?vid=cdf1f2ce-635c-4468-bd78-49e7b9ff353a"},"vehicle_type_id":"4","last_reported":1739787041,"current_range_meters":33600,"station_id":"ce4bh0h2rcd13ifvqd60","pricing_plan_id":"cebpf4jnsgd1na2vs0mg"},{"bike_id":"417b0c20-2f02-46f3-bb58-667c147610ba","system_id":"levelo_inurba_marseille","lat":43.2985,"lon":5.36286,"is_reserved":false,"is_disabled":false,"rental_uris":{"android":"levelo://app?vid=417b0c20-2f02-46f3-bb58-667c147610ba","ios":"levelo://app?vid=417b0c20-2f02-46f3-bb58-667c147610ba"},"vehicle_type_id":"4","last_reported":1739787041,"current_range_meters":39200,"station_id":"ce4bgpp2rcd13ifvqc3g","pricing_plan_id":"cebpf4jnsgd1na2vs0mg"},{"bike_id":"ee43bc7e-9079-4a6e-9474-660b79c448e1","system_id":"levelo_inurba_marseille","lat":43.22936,"lon":5.35365,"is_reserved":false,"is_disabled":false,"rental_uris":{"android":"levelo://app?vid=ee43bc7e-9079-4a6e-9474-660b79c448e1","ios":"levelo://app?vid=ee43bc7e-9079-4a6e-9474-660b79c448e1"},"vehicle_type_id":"4","last_reported":1739787041,"current_range_meters":27600,"station_id":"cpo3532slgdg3j2ikp40","pricing_plan_id":"cebpf4jnsgd1na2vs0mg"},{"bike_id":"f364e7fd-b7af-4331-9c85-154b4666d931","system_id":"levelo_inurba_marseille","lat":43.28433,"lon":5.35015,"is_reserved":false,"is_disabled":true,"rental_uris":{"android":"levelo://app?vid=f364e7fd-b7af-4331-9c85-154b4666d931","ios":"levelo://app?vid=f364e7fd-b7af-4331-9c85-154b4666d931"},"vehicle_type_id":"4","last_reported":1739787041,"current_range_meters":0,"station_id":"ce4bhbh2rcd13ifvqepg","pricing_plan_id":"cebpf4jnsgd1na2vs0mg"},{"bike_id":"60a2a38a-efcb-4c75-8c54-8b39cc4fa25a","system_id":"levelo_inurba_marseille","lat":43.29064,"lon":5.35927,"is_reserved":false,"is_disabled":false,"rental_uris":{"android":"levelo://app?vid=60a2a38a-efcb-4c75-8c54-8b39cc4fa25a","ios":"levelo://app?vid=60a2a38a-efcb-4c75-8c54-8b39cc4fa25a"},"vehicle_type_id":"4","last_reported":1739787041,"current_range_meters":35200,"station_id":"ce4bha92rcd13ifvqeg0","pricing_plan_id":"cebpf4jnsgd1na2vs0mg"},{"bike_id":"8abf6f0d-5de7-48d9-9297-23c5626d0360","system_id":"levelo_inurba_marseille","lat":43.30807,"lon":5.38168,"is_reserved":false,"is_disabled":false,"rental_uris":{"android":"levelo://app?vid=8abf6f0d-5de7-48d9-9297-23c5626d0360","ios":"levelo://app?vid=8abf6f0d-5de7-48d9-9297-23c5626d0360"},"vehicle_type_id":"4","last_reported":1739787041,"current_range_meters":32400,"station_id":"ce4bgt12rcd13ifvqce0","pricing_plan_id":"cebpf4jnsgd1na2vs0mg"},{"bike_id":"7df33989-9cd1-4583-a90f-25c190f648b5","system_id":"levelo_inurba_marseille","lat":43.29405,"lon":5.38629,"is_reserved":false,"is_disabled":false,"rental_uris":{"android":"levelo://app?vid=7df33989-9cd1-4583-a90f-25c190f648b5","ios":"levelo://app?vid=7df33989-9cd1-4583-a90f-25c190f648b5"},"vehicle_type_id":"4","last_reported":1739787041,"current_range_meters":27600,"station_id":"ce4bh2h2rcd13ifvqdh0","pricing_plan_id":"cebpf4jnsgd1na2vs0mg"},{"bike_id":"525e8ae5-1a59-4c86-aa47-74b4347d29ca","system_id":"levelo_inurba_marseille","lat":43.249959,"lon":5.389304,"is_reserved":false,"is_disabled":false,"rental_uris":{"android":"levelo://app?vid=525e8ae5-1a59-4c86-aa47-74b4347d29ca","ios":"levelo://app?vid=525e8ae5-1a59-4c86-aa47-74b4347d29ca"},"vehicle_type_id":"4","last_reported":1739787041,"current_range_meters":30800,"station_id":"ce4bhgp2rcd13ifvqfd0","pricing_plan_id":"cebpf4jnsgd1na2vs0mg"},{"bike_id":"05f82d89-fa80-4f7f-95e3-de8829322c89","system_id":"levelo_inurba_marseille","lat":43.25502,"lon":5.37688,"is_reserved":false,"is_disabled":true,"rental_uris":{"android":"levelo://app?vid=05f82d89-fa80-4f7f-95e3-de8829322c89","ios":"levelo://app?vid=05f82d89-fa80-4f7f-95e3-de8829322c89"},"vehicle_type_id":"4","last_reported":1739787041,"current_range_meters":28400,"station_id":"ce4bhh12rcd13ifvqff0","pricing_plan_id":"cebpf4jnsgd1na2vs0mg"},{"bike_id":"0971801d-b899-4c4b-b1c4-7e4e383e8915","system_id":"levelo_inurba_marseille","lat":43.3055,"lon":5.36549,"is_reserved":false,"is_disabled":true,"rental_uris":{"android":"levelo://app?vid=0971801d-b899-4c4b-b1c4-7e4e383e8915","ios":"levelo://app?vid=0971801d-b899-4c4b-b1c4-7e4e383e8915"},"vehicle_type_id":"4","last_reported":1739787041,"current_range_meters":1200,"station_id":"ce4bgs12rcd13ifvqcag","pricing_plan_id":"cebpf4jnsgd1na2vs0mg"},{"bike_id":"1599ebd0-8cf6-4d54-aa07-3559b51dcbd3","system_id":"levelo_inurba_marseille","lat":43.2984,"lon":5.3627,"is_reserved":false,"is_disabled":false,"rental_uris":{"android":"levelo://app?vid=1599ebd0-8cf6-4d54-aa07-3559b51dcbd3","ios":"levelo://app?vid=1599ebd0-8cf6-4d54-aa07-3559b51dcbd3"},"vehicle_type_id":"4","last_reported":1739787041,"current_range_meters":36000,"station_id":"ce4bgpp2rcd13ifvqc3g","pricing_plan_id":"cebpf4jnsgd1na2vs0mg"},{"bike_id":"281b84f3-58f9-4822-a666-06aa2e562366","system_id":"levelo_inurba_marseille","lat":43.241613,"lon":5.364085,"is_reserved":false,"is_disabled":false,"rental_uris":{"android":"levelo://app?vid=281b84f3-58f9-4822-a666-06aa2e562366","ios":"levelo://app?vid=281b84f3-58f9-4822-a666-06aa2e562366"},"vehicle_type_id":"4","last_reported":1739787041,"current_range_meters":23200,"station_id":"cpo36qri1sfpv3e86is0","pricing_plan_id":"cebpf4jnsgd1na2vs0mg"},{"bike_id":"f58c78ee-fb4b-4848-9574-1fd30425a15a","system_id":"levelo_inurba_marseille","lat":43.32486,"lon":5.36562,"is_reserved":false,"is_disabled":false,"rental_uris":{"android":"levelo://app?vid=f58c78ee-fb4b-4848-9574-1fd30425a15a","ios":"levelo://app?vid=f58c78ee-fb4b-4848-9574-1fd30425a15a"},"vehicle_type_id":"4","last_reported":1739787041,"current_range_meters":28000,"station_id":"ce4bhs12rcd13ifvqhvg","pricing_plan_id":"cebpf4jnsgd1na2vs0mg"},{"bike_id":"1765052d-810e-49de-b00a-684cec5c7a7b","system_id":"levelo_inurba_marseille","lat":43.29006,"lon":5.35607,"is_reserved":false,"is_disabled":false,"rental_uris":{"android":"levelo://app?vid=1765052d-810e-49de-b00a-684cec5c7a7b","ios":"levelo://app?vid=1765052d-810e-49de-b00a-684cec5c7a7b"},"vehicle_type_id":"4","last_reported":1739787041,"current_range_meters":38400,"station_id":"ce4bhb92rcd13ifvqen0","pricing_plan_id":"cebpf4jnsgd1na2vs0mg"},{"bike_id":"ad464612-ddad-49fc-a807-b87bef42b41a","system_id":"levelo_inurba_marseille","lat":43.31198,"lon":5.36849,"is_reserved":false,"is_disabled":false,"rental_uris":{"android":"levelo://app?vid=ad464612-ddad-49fc-a807-b87bef42b41a","ios":"levelo://app?vid=ad464612-ddad-49fc-a807-b87bef42b41a"},"vehicle_type_id":"4","last_reported":1739787041,"current_range_meters":39200,"station_id":"ce4bgl92rcd13ifvqbq0","pricing_plan_id":"cebpf4jnsgd1na2vs0mg"},{"bike_id":"53f82566-4296-41e4-a4d9-e5d9121a4a6e","system_id":"levelo_inurba_marseille","lat":43.30567,"lon":5.3843,"is_reserved":false,"is_disabled":false,"rental_uris":{"android":"levelo://app?vid=53f82566-4296-41e4-a4d9-e5d9121a4a6e","ios":"levelo://app?vid=53f82566-4296-41e4-a4d9-e5d9121a4a6e"},"vehicle_type_id":"4","last_reported":1739787041,"current_range_meters":13600,"station_id":"ce4bgg92rcd13ifvqb30","pricing_plan_id":"cebpf4jnsgd1na2vs0mg"},{"bike_id":"5a9e4965-0ff0-43b9-a7b3-623db5c7b058","system_id":"levelo_inurba_marseille","lat":43.30542,"lon":5.36702,"is_reserved":false,"is_disabled":false,"rental_uris":{"android":"levelo://app?vid=5a9e4965-0ff0-43b9-a7b3-623db5c7b058","ios":"levelo://app?vid=5a9e4965-0ff0-43b9-a7b3-623db5c7b058"},"vehicle_type_id":"4","last_reported":1739787041,"current_range_meters":24000,"station_id":"ce4bgrp2rcd13ifvqc9g","pricing_plan_id":"cebpf4jnsgd1na2vs0mg"},{"bike_id":"06d8bc70-1b69-4c2c-b808-e4ae97d1cdfc","system_id":"levelo_inurba_marseille","lat":43.24053,"lon":5.37737,"is_reserved":false,"is_disabled":false,"rental_uris":{"android":"levelo://app?vid=06d8bc70-1b69-4c2c-b808-e4ae97d1cdfc","ios":"levelo://app?vid=06d8bc70-1b69-4c2c-b808-e4ae97d1cdfc"},"vehicle_type_id":"4","last_reported":1739787041,"current_range_meters":28800,"station_id":"ce4bhnp2rcd13ifvqgvg","pricing_plan_id":"cebpf4jnsgd1na2vs0mg"},{"bike_id":"6fb40c2e-d850-4416-9ca7-6b5b687b4f03","system_id":"levelo_inurba_marseille","lat":43.27204,"lon":5.39185,"is_reserved":false,"is_disabled":false,"rental_uris":{"android":"levelo://app?vid=6fb40c2e-d850-4416-9ca7-6b5b687b4f03","ios":"levelo://app?vid=6fb40c2e-d850-4416-9ca7-6b5b687b4f03"},"vehicle_type_id":"4","last_reported":1739787041,"current_range_meters":39200,"station_id":"ce4bhhp2rcd13ifvqfm0","pricing_plan_id":"cebpf4jnsgd1na2vs0mg"},{"bike_id":"917b1dc0-adb2-4903-84ef-22990e0daa55","system_id":"levelo_inurba_marseille","lat":43.30421,"lon":5.41289,"is_reserved":false,"is_disabled":false,"rental_uris":{"android":"levelo://app?vid=917b1dc0-adb2-4903-84ef-22990e0daa55","ios":"levelo://app?vid=917b1dc0-adb2-4903-84ef-22990e0daa55"},"vehicle_type_id":"4","last_reported":1739787041,"current_range_meters":29600,"station_id":"ce4bhop2rcd13ifvqh8g","pricing_plan_id":"cebpf4jnsgd1na2vs0mg"},{"bike_id":"70e39e3f-dcb0-45af-a9eb-7ed85a8c3f1c","system_id":"levelo_inurba_marseille","lat":43.2962,"lon":5.37741,"is_reserved":false,"is_disabled":false,"rental_uris":{"android":"levelo://app?vid=70e39e3f-dcb0-45af-a9eb-7ed85a8c3f1c","ios":"levelo://app?vid=70e39e3f-dcb0-45af-a9eb-7ed85a8c3f1c"},"vehicle_type_id":"4","last_reported":1739787041,"current_range_meters":35600,"station_id":"ce4bgi92rcd13ifvqb90","pricing_plan_id":"cebpf4jnsgd1na2vs0mg"},{"bike_id":"03eba1d0-92c1-4e6e-a4d0-7c546f2439c0","system_id":"levelo_inurba_marseille","lat":43.337444,"lon":5.374475,"is_reserved":false,"is_disabled":true,"rental_uris":{"android":"levelo://app?vid=03eba1d0-92c1-4e6e-a4d0-7c546f2439c0","ios":"levelo://app?vid=03eba1d0-92c1-4e6e-a4d0-7c546f2439c0"},"vehicle_type_id":"4","last_reported":1739787041,"current_range_meters":0,"station_id":"","pricing_plan_id":"cebpf4jnsgd1na2vs0mg"},{"bike_id":"7670b8ae-6f61-4d26-b077-17100b95f8ab","system_id":"levelo_inurba_marseille","lat":43.28413,"lon":5.39203,"is_reserved":false,"is_disabled":true,"rental_uris":{"android":"levelo://app?vid=7670b8ae-6f61-4d26-b077-17100b95f8ab","ios":"levelo://app?vid=7670b8ae-6f61-4d26-b077-17100b95f8ab"},"vehicle_type_id":"4","last_reported":1739787041,"current_range_meters":24800,"station_id":"ce4bhoh2rcd13ifvqh5g","pricing_plan_id":"cebpf4jnsgd1na2vs0mg"},{"bike_id":"38ee41ae-9cfe-413e-87bb-654ec783f4a8","system_id":"levelo_inurba_marseille","lat":43.30313,"lon":5.36906,"is_reserved":false,"is_disabled":false,"rental_uris":{"android":"levelo://app?vid=38ee41ae-9cfe-413e-87bb-654ec783f4a8","ios":"levelo://app?vid=38ee41ae-9cfe-413e-87bb-654ec783f4a8"},"vehicle_type_id":"4","last_reported":1739787041,"current_range_meters":24400,"station_id":"ce4bgqh2rcd13ifvqc5g","pricing_plan_id":"cebpf4jnsgd1na2vs0mg"},{"bike_id":"8c6e1647-a201-42d6-9e2c-07bf21681fa3","system_id":"levelo_inurba_marseille","lat":43.31905,"lon":5.40746,"is_reserved":false,"is_disabled":true,"rental_uris":{"android":"levelo://app?vid=8c6e1647-a201-42d6-9e2c-07bf21681fa3","ios":"levelo://app?vid=8c6e1647-a201-42d6-9e2c-07bf21681fa3"},"vehicle_type_id":"4","last_reported":1739787041,"current_range_meters":12800,"station_id":"ce4bhq12rcd13ifvqhig","pricing_plan_id":"cebpf4jnsgd1na2vs0mg"},{"bike_id":"1428769c-6a51-4357-b831-06dcccd012d2","system_id":"levelo_inurba_marseille","lat":43.25938,"lon":5.40903,"is_reserved":false,"is_disabled":false,"rental_uris":{"android":"levelo://app?vid=1428769c-6a51-4357-b831-06dcccd012d2","ios":"levelo://app?vid=1428769c-6a51-4357-b831-06dcccd012d2"},"vehicle_type_id":"4","last_reported":1739787041,"current_range_meters":28000,"station_id":"ce4bhm92rcd13ifvqglg","pricing_plan_id":"cebpf4jnsgd1na2vs0mg"},{"bike_id":"d7bb91c7-1e6c-4011-85a2-08678dbfba66","system_id":"levelo_inurba_marseille","lat":43.24389,"lon":5.37085,"is_reserved":false,"is_disabled":false,"rental_uris":{"android":"levelo://app?vid=d7bb91c7-1e6c-4011-85a2-08678dbfba66","ios":"levelo://app?vid=d7bb91c7-1e6c-4011-85a2-08678dbfba66"},"vehicle_type_id":"4","last_reported":1739787041,"current_range_meters":36400,"station_id":"ce4bhhh2rcd13ifvqfk0","pricing_plan_id":"cebpf4jnsgd1na2vs0mg"},{"bike_id":"3072f897-eca5-4deb-9197-a5eaad9f155e","system_id":"levelo_inurba_marseille","lat":43.27426,"lon":5.3942,"is_reserved":false,"is_disabled":false,"rental_uris":{"android":"levelo://app?vid=3072f897-eca5-4deb-9197-a5eaad9f155e","ios":"levelo://app?vid=3072f897-eca5-4deb-9197-a5eaad9f155e"},"vehicle_type_id":"4","last_reported":1739787041,"current_range_meters":32800,"station_id":"ce4bhdp2rcd13ifvqf20","pricing_plan_id":"cebpf4jnsgd1na2vs0mg"},{"bike_id":"fa2a02cb-36bf-4e6e-9ea5-518b37f5029e","system_id":"levelo_inurba_marseille","lat":43.29731,"lon":5.37697,"is_reserved":false,"is_disabled":false,"rental_uris":{"android":"levelo://app?vid=fa2a02cb-36bf-4e6e-9ea5-518b37f5029e","ios":"levelo://app?vid=fa2a02cb-36bf-4e6e-9ea5-518b37f5029e"},"vehicle_type_id":"4","last_reported":1739787041,"current_range_meters":17600,"station_id":"ce4bgkh2rcd13ifvqbl0","pricing_plan_id":"cebpf4jnsgd1na2vs0mg"},{"bike_id":"3cd29302-39d1-4f5c-be95-070ace935484","system_id":"levelo_inurba_marseille","lat":43.26489,"lon":5.39542,"is_reserved":false,"is_disabled":true,"rental_uris":{"android":"levelo://app?vid=3cd29302-39d1-4f5c-be95-070ace935484","ios":"levelo://app?vid=3cd29302-39d1-4f5c-be95-070ace935484"},"vehicle_type_id":"4","last_reported":1739787041,"current_range_meters":0,"station_id":"ce4bhi12rcd13ifvqfq0","pricing_plan_id":"cebpf4jnsgd1na2vs0mg"},{"bike_id":"7ee746f8-97bb-4e29-810d-aa5ff9067df7","system_id":"levelo_inurba_marseille","lat":43.29629,"lon":5.37713,"is_reserved":false,"is_disabled":false,"rental_uris":{"android":"levelo://app?vid=7ee746f8-97bb-4e29-810d-aa5ff9067df7","ios":"levelo://app?vid=7ee746f8-97bb-4e29-810d-aa5ff9067df7"},"vehicle_type_id":"4","last_reported":1739787041,"current_range_meters":36000,"station_id":"ce4bgi92rcd13ifvqb90","pricing_plan_id":"cebpf4jnsgd1na2vs0mg"},{"bike_id":"c6b315e0-2e46-4bd2-bfa4-0989eb9aacd4","system_id":"levelo_inurba_marseille","lat":43.337444,"lon":5.374475,"is_reserved":false,"is_disabled":false,"rental_uris":{"android":"levelo://app?vid=c6b315e0-2e46-4bd2-bfa4-0989eb9aacd4","ios":"levelo://app?vid=c6b315e0-2e46-4bd2-bfa4-0989eb9aacd4"},"vehicle_type_id":"4","last_reported":1739787041,"current_range_meters":36800,"station_id":"","pricing_plan_id":"cebpf4jnsgd1na2vs0mg"},{"bike_id":"8c2cb4e7-cc7a-458e-beca-ed80b12306ff","system_id":"levelo_inurba_marseille","lat":43.30117,"lon":5.3987,"is_reserved":false,"is_disabled":true,"rental_uris":{"android":"levelo://app?vid=8c2cb4e7-cc7a-458e-beca-ed80b12306ff","ios":"levelo://app?vid=8c2cb4e7-cc7a-458e-beca-ed80b12306ff"},"vehicle_type_id":"4","last_reported":1739787041,"current_range_meters":0,"station_id":"ce4bh0h2rcd13ifvqd40","pricing_plan_id":"cebpf4jnsgd1na2vs0mg"},{"bike_id":"bd1fbd17-5ecd-4c2a-9290-d1ffd1a70214","system_id":"levelo_inurba_marseille","lat":43.29556,"lon":5.42296,"is_reserved":false,"is_disabled":false,"rental_uris":{"android":"levelo://app?vid=bd1fbd17-5ecd-4c2a-9290-d1ffd1a70214","ios":"levelo://app?vid=bd1fbd17-5ecd-4c2a-9290-d1ffd1a70214"},"vehicle_type_id":"4","last_reported":1739787041,"current_range_meters":25200,"station_id":"ce4bhph2rcd13ifvqhdg","pricing_plan_id":"cebpf4jnsgd1na2vs0mg"},{"bike_id":"4a967575-c32f-481c-8f1b-30d107b8f3c7","system_id":"levelo_inurba_marseille","lat":43.27943,"lon":5.38689,"is_reserved":false,"is_disabled":false,"rental_uris":{"android":"levelo://app?vid=4a967575-c32f-481c-8f1b-30d107b8f3c7","ios":"levelo://app?vid=4a967575-c32f-481c-8f1b-30d107b8f3c7"},"vehicle_type_id":"4","last_reported":1739787041,"current_range_meters":39200,"station_id":"ce4bhg12rcd13ifvqf80","pricing_plan_id":"cebpf4jnsgd1na2vs0mg"},{"bike_id":"7e599e9a-65c4-4b36-95de-afb6868bf6df","system_id":"levelo_inurba_marseille","lat":43.28945,"lon":5.36641,"is_reserved":false,"is_disabled":false,"rental_uris":{"android":"levelo://app?vid=7e599e9a-65c4-4b36-95de-afb6868bf6df","ios":"levelo://app?vid=7e599e9a-65c4-4b36-95de-afb6868bf6df"},"vehicle_type_id":"4","last_reported":1739787041,"current_range_meters":38800,"station_id":"ce4bhap2rcd13ifvqek0","pricing_plan_id":"cebpf4jnsgd1na2vs0mg"},{"bike_id":"d2e01317-2950-420e-b1aa-8f1e4398c1e8","system_id":"levelo_inurba_marseille","lat":43.23199,"lon":5.35563,"is_reserved":false,"is_disabled":false,"rental_uris":{"android":"levelo://app?vid=d2e01317-2950-420e-b1aa-8f1e4398c1e8","ios":"levelo://app?vid=d2e01317-2950-420e-b1aa-8f1e4398c1e8"},"vehicle_type_id":"4","last_reported":1739787041,"current_range_meters":37600,"station_id":"ce4bhu92rcd13ifvqi70","pricing_plan_id":"cebpf4jnsgd1na2vs0mg"},{"bike_id":"99b60497-417a-4e6c-9e27-ce3655ce5e57","system_id":"levelo_inurba_marseille","lat":43.30679,"lon":5.4007,"is_reserved":false,"is_disabled":true,"rental_uris":{"android":"levelo://app?vid=99b60497-417a-4e6c-9e27-ce3655ce5e57","ios":"levelo://app?vid=99b60497-417a-4e6c-9e27-ce3655ce5e57"},"vehicle_type_id":"4","last_reported":1739787041,"current_range_meters":20000,"station_id":"ce4bh112rcd13ifvqda0","pricing_plan_id":"cebpf4jnsgd1na2vs0mg"},{"bike_id":"12a7f8b1-def8-4ee4-b134-55f20479f8a4","system_id":"levelo_inurba_marseille","lat":43.29388,"lon":5.3786,"is_reserved":false,"is_disabled":false,"rental_uris":{"android":"levelo://app?vid=12a7f8b1-def8-4ee4-b134-55f20479f8a4","ios":"levelo://app?vid=12a7f8b1-def8-4ee4-b134-55f20479f8a4"},"vehicle_type_id":"4","last_reported":1739787041,"current_range_meters":24400,"station_id":"ce4bgjh2rcd13ifvqbf0","pricing_plan_id":"cebpf4jnsgd1na2vs0mg"},{"bike_id":"fdbe1c87-3470-4d42-a2f8-e6c80454708a","system_id":"levelo_inurba_marseille","lat":43.239657,"lon":5.366329,"is_reserved":false,"is_disabled":false,"rental_uris":{"android":"levelo://app?vid=fdbe1c87-3470-4d42-a2f8-e6c80454708a","ios":"levelo://app?vid=fdbe1c87-3470-4d42-a2f8-e6c80454708a"},"vehicle_type_id":"4","last_reported":1739787041,"current_range_meters":38400,"station_id":"ce4bhi12rcd13ifvqfp0","pricing_plan_id":"cebpf4jnsgd1na2vs0mg"},{"bike_id":"71c7c498-0318-45af-b3a3-d37cd45b4df6","system_id":"levelo_inurba_marseille","lat":43.25076,"lon":5.39493,"is_reserved":false,"is_disabled":false,"rental_uris":{"android":"levelo://app?vid=71c7c498-0318-45af-b3a3-d37cd45b4df6","ios":"levelo://app?vid=71c7c498-0318-45af-b3a3-d37cd45b4df6"},"vehicle_type_id":"4","last_reported":1739787041,"current_range_meters":39200,"station_id":"ce4bhm12rcd13ifvqgkg","pricing_plan_id":"cebpf4jnsgd1na2vs0mg"},{"bike_id":"d63b7867-53a4-4bca-be72-b856d1cbea50","system_id":"levelo_inurba_marseille","lat":43.23955,"lon":5.36614,"is_reserved":false,"is_disabled":false,"rental_uris":{"android":"levelo://app?vid=d63b7867-53a4-4bca-be72-b856d1cbea50","ios":"levelo://app?vid=d63b7867-53a4-4bca-be72-b856d1cbea50"},"vehicle_type_id":"4","last_reported":1739787041,"current_range_meters":16800,"station_id":"ce4bhi12rcd13ifvqfp0","pricing_plan_id":"cebpf4jnsgd1na2vs0mg"},{"bike_id":"537f657e-805d-4d6c-80a4-61eb10dff17a","system_id":"levelo_inurba_marseille","lat":43.23143,"lon":5.43727,"is_reserved":false,"is_disabled":false,"rental_uris":{"android":"levelo://app?vid=537f657e-805d-4d6c-80a4-61eb10dff17a","ios":"levelo://app?vid=537f657e-805d-4d6c-80a4-61eb10dff17a"},"vehicle_type_id":"4","last_reported":1739787041,"current_range_meters":26800,"station_id":"ce4bhmp2rcd13ifvqgog","pricing_plan_id":"cebpf4jnsgd1na2vs0mg"},{"bike_id":"57a5c251-6123-470e-813e-a9340a0256fe","system_id":"levelo_inurba_marseille","lat":43.24167,"lon":5.36409,"is_reserved":false,"is_disabled":false,"rental_uris":{"android":"levelo://app?vid=57a5c251-6123-470e-813e-a9340a0256fe","ios":"levelo://app?vid=57a5c251-6123-470e-813e-a9340a0256fe"},"vehicle_type_id":"4","last_reported":1739787041,"current_range_meters":38000,"station_id":"cpo36qri1sfpv3e86is0","pricing_plan_id":"cebpf4jnsgd1na2vs0mg"},{"bike_id":"1ea141da-264c-47ee-846e-fd24ef27a30f","system_id":"levelo_inurba_marseille","lat":43.291755,"lon":5.37162,"is_reserved":false,"is_disabled":false,"rental_uris":{"android":"levelo://app?vid=1ea141da-264c-47ee-846e-fd24ef27a30f","ios":"levelo://app?vid=1ea141da-264c-47ee-846e-fd24ef27a30f"},"vehicle_type_id":"4","last_reported":1739787041,"current_range_meters":38400,"station_id":"ce4bha92rcd13ifvqeh0","pricing_plan_id":"cebpf4jnsgd1na2vs0mg"},{"bike_id":"22556006-c61a-4c12-b88c-1cf7a191b38d","system_id":"levelo_inurba_marseille","lat":43.2849,"lon":5.38424,"is_reserved":false,"is_disabled":false,"rental_uris":{"android":"levelo://app?vid=22556006-c61a-4c12-b88c-1cf7a191b38d","ios":"levelo://app?vid=22556006-c61a-4c12-b88c-1cf7a191b38d"},"vehicle_type_id":"4","last_reported":1739787041,"current_range_meters":24400,"station_id":"ce4bh512rcd13ifvqe3g","pricing_plan_id":"cebpf4jnsgd1na2vs0mg"},{"bike_id":"27823819-3a1f-42dd-8df7-b6ed3ae2b70c","system_id":"levelo_inurba_marseille","lat":43.25008,"lon":5.38936,"is_reserved":false,"is_disabled":false,"rental_uris":{"android":"levelo://app?vid=27823819-3a1f-42dd-8df7-b6ed3ae2b70c","ios":"levelo://app?vid=27823819-3a1f-42dd-8df7-b6ed3ae2b70c"},"vehicle_type_id":"4","last_reported":1739787041,"current_range_meters":39200,"station_id":"ce4bhgp2rcd13ifvqfd0","pricing_plan_id":"cebpf4jnsgd1na2vs0mg"},{"bike_id":"02db7a28-fc2d-4a4a-92a0-cec040e64718","system_id":"levelo_inurba_marseille","lat":43.23966,"lon":5.36633,"is_reserved":false,"is_disabled":true,"rental_uris":{"android":"levelo://app?vid=02db7a28-fc2d-4a4a-92a0-cec040e64718","ios":"levelo://app?vid=02db7a28-fc2d-4a4a-92a0-cec040e64718"},"vehicle_type_id":"4","last_reported":1739787041,"current_range_meters":38400,"station_id":"ce4bhi12rcd13ifvqfp0","pricing_plan_id":"cebpf4jnsgd1na2vs0mg"},{"bike_id":"27fbcd38-3682-44f0-9f9d-db06e5243fd4","system_id":"levelo_inurba_marseille","lat":43.29319,"lon":5.37175,"is_reserved":false,"is_disabled":false,"rental_uris":{"android":"levelo://app?vid=27fbcd38-3682-44f0-9f9d-db06e5243fd4","ios":"levelo://app?vid=27fbcd38-3682-44f0-9f9d-db06e5243fd4"},"vehicle_type_id":"4","last_reported":1739787041,"current_range_meters":34800,"station_id":"ce4bgh92rcd13ifvqb40","pricing_plan_id":"cebpf4jnsgd1na2vs0mg"},{"bike_id":"6f820518-8b07-484a-8c43-5d5451e338e7","system_id":"levelo_inurba_marseille","lat":43.231995,"lon":5.355585,"is_reserved":false,"is_disabled":false,"rental_uris":{"android":"levelo://app?vid=6f820518-8b07-484a-8c43-5d5451e338e7","ios":"levelo://app?vid=6f820518-8b07-484a-8c43-5d5451e338e7"},"vehicle_type_id":"4","last_reported":1739787041,"current_range_meters":26000,"station_id":"ce4bhu92rcd13ifvqi70","pricing_plan_id":"cebpf4jnsgd1na2vs0mg"},{"bike_id":"e9df70a0-1b8c-4c51-a61c-68ff2e71de13","system_id":"levelo_inurba_marseille","lat":43.2307,"lon":5.35505,"is_reserved":false,"is_disabled":true,"rental_uris":{"android":"levelo://app?vid=e9df70a0-1b8c-4c51-a61c-68ff2e71de13","ios":"levelo://app?vid=e9df70a0-1b8c-4c51-a61c-68ff2e71de13"},"vehicle_type_id":"4","last_reported":1739787041,"current_range_meters":0,"station_id":"cpo3342slgdg3j2ifvpg","pricing_plan_id":"cebpf4jnsgd1na2vs0mg"},{"bike_id":"a9435078-b37d-4b66-8ba3-351df71c7743","system_id":"levelo_inurba_marseille","lat":43.25901,"lon":5.4089,"is_reserved":false,"is_disabled":false,"rental_uris":{"android":"levelo://app?vid=a9435078-b37d-4b66-8ba3-351df71c7743","ios":"levelo://app?vid=a9435078-b37d-4b66-8ba3-351df71c7743"},"vehicle_type_id":"4","last_reported":1739787041,"current_range_meters":16000,"station_id":"ce4bhm92rcd13ifvqglg","pricing_plan_id":"cebpf4jnsgd1na2vs0mg"},{"bike_id":"a3b76a23-e719-4cac-9132-63d31b15a8de","system_id":"levelo_inurba_marseille","lat":43.24163,"lon":5.3639,"is_reserved":false,"is_disabled":false,"rental_uris":{"android":"levelo://app?vid=a3b76a23-e719-4cac-9132-63d31b15a8de","ios":"levelo://app?vid=a3b76a23-e719-4cac-9132-63d31b15a8de"},"vehicle_type_id":"4","last_reported":1739787041,"current_range_meters":20400,"station_id":"cpo36qri1sfpv3e86is0","pricing_plan_id":"cebpf4jnsgd1na2vs0mg"},{"bike_id":"779deb1f-aa5b-49dd-898c-85e1c50d1236","system_id":"levelo_inurba_marseille","lat":43.2795,"lon":5.38713,"is_reserved":false,"is_disabled":false,"rental_uris":{"android":"levelo://app?vid=779deb1f-aa5b-49dd-898c-85e1c50d1236","ios":"levelo://app?vid=779deb1f-aa5b-49dd-898c-85e1c50d1236"},"vehicle_type_id":"4","last_reported":1739787041,"current_range_meters":12800,"station_id":"ce4bhg12rcd13ifvqf80","pricing_plan_id":"cebpf4jnsgd1na2vs0mg"},{"bike_id":"9bc7b052-58dd-4c47-ad3a-4593c0d171fb","system_id":"levelo_inurba_marseille","lat":43.25955,"lon":5.4093,"is_reserved":false,"is_disabled":false,"rental_uris":{"android":"levelo://app?vid=9bc7b052-58dd-4c47-ad3a-4593c0d171fb","ios":"levelo://app?vid=9bc7b052-58dd-4c47-ad3a-4593c0d171fb"},"vehicle_type_id":"4","last_reported":1739787041,"current_range_meters":35600,"station_id":"ce4bhm92rcd13ifvqglg","pricing_plan_id":"cebpf4jnsgd1na2vs0mg"},{"bike_id":"0c2be91c-a793-42b2-b79f-a401efe395e6","system_id":"levelo_inurba_marseille","lat":43.26677,"lon":5.38268,"is_reserved":false,"is_disabled":false,"rental_uris":{"android":"levelo://app?vid=0c2be91c-a793-42b2-b79f-a401efe395e6","ios":"levelo://app?vid=0c2be91c-a793-42b2-b79f-a401efe395e6"},"vehicle_type_id":"4","last_reported":1739787041,"current_range_meters":25200,"station_id":"ce4bhg92rcd13ifvqf90","pricing_plan_id":"cebpf4jnsgd1na2vs0mg"},{"bike_id":"23f4d644-5da8-4f63-9fcd-b616fc0f6637","system_id":"levelo_inurba_marseille","lat":43.26949,"lon":5.38636,"is_reserved":false,"is_disabled":false,"rental_uris":{"android":"levelo://app?vid=23f4d644-5da8-4f63-9fcd-b616fc0f6637","ios":"levelo://app?vid=23f4d644-5da8-4f63-9fcd-b616fc0f6637"},"vehicle_type_id":"4","last_reported":1739787041,"current_range_meters":24400,"station_id":"ce4bhh92rcd13ifvqfh0","pricing_plan_id":"cebpf4jnsgd1na2vs0mg"},{"bike_id":"79e68a4f-419a-4af7-92c7-1257a14dad6f","system_id":"levelo_inurba_marseille","lat":43.25923,"lon":5.4089,"is_reserved":false,"is_disabled":false,"rental_uris":{"android":"levelo://app?vid=79e68a4f-419a-4af7-92c7-1257a14dad6f","ios":"levelo://app?vid=79e68a4f-419a-4af7-92c7-1257a14dad6f"},"vehicle_type_id":"4","last_reported":1739787041,"current_range_meters":23200,"station_id":"ce4bhm92rcd13ifvqglg","pricing_plan_id":"cebpf4jnsgd1na2vs0mg"},{"bike_id":"ec80d936-f97c-458c-8a78-ab2480c6cc41","system_id":"levelo_inurba_marseille","lat":43.24179,"lon":5.39744,"is_reserved":false,"is_disabled":false,"rental_uris":{"android":"levelo://app?vid=ec80d936-f97c-458c-8a78-ab2480c6cc41","ios":"levelo://app?vid=ec80d936-f97c-458c-8a78-ab2480c6cc41"},"vehicle_type_id":"4","last_reported":1739787041,"current_range_meters":4800,"station_id":"ce4bhn12rcd13ifvqgpg","pricing_plan_id":"cebpf4jnsgd1na2vs0mg"},{"bike_id":"82f93201-9ddb-4e09-abcb-9f6f41679371","system_id":"levelo_inurba_marseille","lat":43.24176,"lon":5.36426,"is_reserved":false,"is_disabled":false,"rental_uris":{"android":"levelo://app?vid=82f93201-9ddb-4e09-abcb-9f6f41679371","ios":"levelo://app?vid=82f93201-9ddb-4e09-abcb-9f6f41679371"},"vehicle_type_id":"4","last_reported":1739787041,"current_range_meters":6400,"station_id":"cpo36qri1sfpv3e86is0","pricing_plan_id":"cebpf4jnsgd1na2vs0mg"},{"bike_id":"ddb23a78-9168-40a6-adc0-5279f44ac004","system_id":"levelo_inurba_marseille","lat":43.26702,"lon":5.38276,"is_reserved":false,"is_disabled":false,"rental_uris":{"android":"levelo://app?vid=ddb23a78-9168-40a6-adc0-5279f44ac004","ios":"levelo://app?vid=ddb23a78-9168-40a6-adc0-5279f44ac004"},"vehicle_type_id":"4","last_reported":1739787041,"current_range_meters":33200,"station_id":"ce4bhg92rcd13ifvqf90","pricing_plan_id":"cebpf4jnsgd1na2vs0mg"},{"bike_id":"b6112bcd-864b-4f0c-b299-30dd1c48135e","system_id":"levelo_inurba_marseille","lat":43.28342,"lon":5.38112,"is_reserved":false,"is_disabled":false,"rental_uris":{"android":"levelo://app?vid=b6112bcd-864b-4f0c-b299-30dd1c48135e","ios":"levelo://app?vid=b6112bcd-864b-4f0c-b299-30dd1c48135e"},"vehicle_type_id":"4","last_reported":1739787041,"current_range_meters":15200,"station_id":"ce4bh412rcd13ifvqdr0","pricing_plan_id":"cebpf4jnsgd1na2vs0mg"},{"bike_id":"ca4a1c0d-ebef-4c94-8a72-3aef289df059","system_id":"levelo_inurba_marseille","lat":43.25014,"lon":5.38929,"is_reserved":false,"is_disabled":false,"rental_uris":{"android":"levelo://app?vid=ca4a1c0d-ebef-4c94-8a72-3aef289df059","ios":"levelo://app?vid=ca4a1c0d-ebef-4c94-8a72-3aef289df059"},"vehicle_type_id":"4","last_reported":1739787041,"current_range_meters":38000,"station_id":"ce4bhgp2rcd13ifvqfd0","pricing_plan_id":"cebpf4jnsgd1na2vs0mg"},{"bike_id":"c08cecba-34c4-4327-bae4-0d32c6d3c1be","system_id":"levelo_inurba_marseille","lat":43.26567,"lon":5.3901,"is_reserved":false,"is_disabled":false,"rental_uris":{"android":"levelo://app?vid=c08cecba-34c4-4327-bae4-0d32c6d3c1be","ios":"levelo://app?vid=c08cecba-34c4-4327-bae4-0d32c6d3c1be"},"vehicle_type_id":"4","last_reported":1739787041,"current_range_meters":24400,"station_id":"ce4bhe12rcd13ifvqf30","pricing_plan_id":"cebpf4jnsgd1na2vs0mg"},{"bike_id":"3e9432a6-e37c-4121-8898-d0d58ef57823","system_id":"levelo_inurba_marseille","lat":43.26558,"lon":5.39543,"is_reserved":false,"is_disabled":false,"rental_uris":{"android":"levelo://app?vid=3e9432a6-e37c-4121-8898-d0d58ef57823","ios":"levelo://app?vid=3e9432a6-e37c-4121-8898-d0d58ef57823"},"vehicle_type_id":"4","last_reported":1739787041,"current_range_meters":39200,"station_id":"ce4bhi12rcd13ifvqfq0","pricing_plan_id":"cebpf4jnsgd1na2vs0mg"},{"bike_id":"58e5841d-dfa7-41e7-ae3e-2946dce5e439","system_id":"levelo_inurba_marseille","lat":43.28618,"lon":5.35106,"is_reserved":false,"is_disabled":false,"rental_uris":{"android":"levelo://app?vid=58e5841d-dfa7-41e7-ae3e-2946dce5e439","ios":"levelo://app?vid=58e5841d-dfa7-41e7-ae3e-2946dce5e439"},"vehicle_type_id":"4","last_reported":1739787041,"current_range_meters":39200,"station_id":"ce4bhch2rcd13ifvqeug","pricing_plan_id":"cebpf4jnsgd1na2vs0mg"},{"bike_id":"973c8ef3-f0cf-4cce-96c0-743cbabe953e","system_id":"levelo_inurba_marseille","lat":43.25015,"lon":5.38934,"is_reserved":false,"is_disabled":false,"rental_uris":{"android":"levelo://app?vid=973c8ef3-f0cf-4cce-96c0-743cbabe953e","ios":"levelo://app?vid=973c8ef3-f0cf-4cce-96c0-743cbabe953e"},"vehicle_type_id":"4","last_reported":1739787041,"current_range_meters":9600,"station_id":"ce4bhgp2rcd13ifvqfd0","pricing_plan_id":"cebpf4jnsgd1na2vs0mg"},{"bike_id":"dd45e90b-e39f-46bc-a1b6-39ba97bb32a9","system_id":"levelo_inurba_marseille","lat":43.30794,"lon":5.38149,"is_reserved":false,"is_disabled":false,"rental_uris":{"android":"levelo://app?vid=dd45e90b-e39f-46bc-a1b6-39ba97bb32a9","ios":"levelo://app?vid=dd45e90b-e39f-46bc-a1b6-39ba97bb32a9"},"vehicle_type_id":"4","last_reported":1739787041,"current_range_meters":38400,"station_id":"ce4bgt12rcd13ifvqce0","pricing_plan_id":"cebpf4jnsgd1na2vs0mg"},{"bike_id":"cee4484a-586a-4bbb-8fe1-60f3ca703c13","system_id":"levelo_inurba_marseille","lat":43.30299,"lon":5.37724,"is_reserved":false,"is_disabled":false,"rental_uris":{"android":"levelo://app?vid=cee4484a-586a-4bbb-8fe1-60f3ca703c13","ios":"levelo://app?vid=cee4484a-586a-4bbb-8fe1-60f3ca703c13"},"vehicle_type_id":"4","last_reported":1739787041,"current_range_meters":36400,"station_id":"ce4bguh2rcd13ifvqcj0","pricing_plan_id":"cebpf4jnsgd1na2vs0mg"},{"bike_id":"f5658f85-1a7a-4052-9e59-82e960904dcd","system_id":"levelo_inurba_marseille","lat":43.27676,"lon":5.38926,"is_reserved":false,"is_disabled":false,"rental_uris":{"android":"levelo://app?vid=f5658f85-1a7a-4052-9e59-82e960904dcd","ios":"levelo://app?vid=f5658f85-1a7a-4052-9e59-82e960904dcd"},"vehicle_type_id":"4","last_reported":1739787041,"current_range_meters":38400,"station_id":"ce4bhi12rcd13ifvqfo0","pricing_plan_id":"cebpf4jnsgd1na2vs0mg"},{"bike_id":"4869ada7-b0c9-47db-96a1-20321d16768a","system_id":"levelo_inurba_marseille","lat":43.29025,"lon":5.37568,"is_reserved":false,"is_disabled":false,"rental_uris":{"android":"levelo://app?vid=4869ada7-b0c9-47db-96a1-20321d16768a","ios":"levelo://app?vid=4869ada7-b0c9-47db-96a1-20321d16768a"},"vehicle_type_id":"4","last_reported":1739787041,"current_range_meters":31200,"station_id":"ce4bh692rcd13ifvqe90","pricing_plan_id":"cebpf4jnsgd1na2vs0mg"},{"bike_id":"2807a9bd-241b-4d44-9dc5-726459bdefcf","system_id":"levelo_inurba_marseille","lat":43.27313,"lon":5.39106,"is_reserved":false,"is_disabled":false,"rental_uris":{"android":"levelo://app?vid=2807a9bd-241b-4d44-9dc5-726459bdefcf","ios":"levelo://app?vid=2807a9bd-241b-4d44-9dc5-726459bdefcf"},"vehicle_type_id":"4","last_reported":1739787041,"current_range_meters":32800,"station_id":"ce4bhgp2rcd13ifvqfe0","pricing_plan_id":"cebpf4jnsgd1na2vs0mg"},{"bike_id":"d511c3fa-d5f4-4a0f-91ee-268d02b5310f","system_id":"levelo_inurba_marseille","lat":43.28612,"lon":5.35103,"is_reserved":false,"is_disabled":true,"rental_uris":{"android":"levelo://app?vid=d511c3fa-d5f4-4a0f-91ee-268d02b5310f","ios":"levelo://app?vid=d511c3fa-d5f4-4a0f-91ee-268d02b5310f"},"vehicle_type_id":"4","last_reported":1739787041,"current_range_meters":11600,"station_id":"ce4bhch2rcd13ifvqeug","pricing_plan_id":"cebpf4jnsgd1na2vs0mg"},{"bike_id":"c36c6340-fdb1-4d8a-917a-90df5718342f","system_id":"levelo_inurba_marseille","lat":43.24079,"lon":5.37753,"is_reserved":false,"is_disabled":false,"rental_uris":{"android":"levelo://app?vid=c36c6340-fdb1-4d8a-917a-90df5718342f","ios":"levelo://app?vid=c36c6340-fdb1-4d8a-917a-90df5718342f"},"vehicle_type_id":"4","last_reported":1739787041,"current_range_meters":24000,"station_id":"ce4bhnp2rcd13ifvqgvg","pricing_plan_id":"cebpf4jnsgd1na2vs0mg"},{"bike_id":"2bf3e7e9-fedd-4191-a086-eebaa5d994ff","system_id":"levelo_inurba_marseille","lat":43.26545,"lon":5.3728,"is_reserved":false,"is_disabled":false,"rental_uris":{"android":"levelo://app?vid=2bf3e7e9-fedd-4191-a086-eebaa5d994ff","ios":"levelo://app?vid=2bf3e7e9-fedd-4191-a086-eebaa5d994ff"},"vehicle_type_id":"4","last_reported":1739787041,"current_range_meters":34000,"station_id":"ce4bhg12rcd13ifvqf70","pricing_plan_id":"cebpf4jnsgd1na2vs0mg"},{"bike_id":"8d9d393c-2b8d-4a0f-81c7-f266f756929d","system_id":"levelo_inurba_marseille","lat":43.30437,"lon":5.38868,"is_reserved":false,"is_disabled":false,"rental_uris":{"android":"levelo://app?vid=8d9d393c-2b8d-4a0f-81c7-f266f756929d","ios":"levelo://app?vid=8d9d393c-2b8d-4a0f-81c7-f266f756929d"},"vehicle_type_id":"4","last_reported":1739787041,"current_range_meters":33200,"station_id":"ce4bgk12rcd13ifvqbi0","pricing_plan_id":"cebpf4jnsgd1na2vs0mg"},{"bike_id":"f00620ae-2110-4dbd-a2e7-cd7bf13fe429","system_id":"levelo_inurba_marseille","lat":43.23187,"lon":5.39999,"is_reserved":false,"is_disabled":true,"rental_uris":{"android":"levelo://app?vid=f00620ae-2110-4dbd-a2e7-cd7bf13fe429","ios":"levelo://app?vid=f00620ae-2110-4dbd-a2e7-cd7bf13fe429"},"vehicle_type_id":"4","last_reported":1739787041,"current_range_meters":32800,"station_id":"ce4bhn12rcd13ifvqgqg","pricing_plan_id":"cebpf4jnsgd1na2vs0mg"},{"bike_id":"05df7975-71a5-4cd7-9732-f6e0ff429d46","system_id":"levelo_inurba_marseille","lat":43.29561,"lon":5.42266,"is_reserved":false,"is_disabled":false,"rental_uris":{"android":"levelo://app?vid=05df7975-71a5-4cd7-9732-f6e0ff429d46","ios":"levelo://app?vid=05df7975-71a5-4cd7-9732-f6e0ff429d46"},"vehicle_type_id":"4","last_reported":1739787041,"current_range_meters":24000,"station_id":"ce4bhph2rcd13ifvqhdg","pricing_plan_id":"cebpf4jnsgd1na2vs0mg"},{"bike_id":"72522205-7464-4d1a-9d33-b51300250d6c","system_id":"levelo_inurba_marseille","lat":43.30455,"lon":5.3889,"is_reserved":false,"is_disabled":false,"rental_uris":{"android":"levelo://app?vid=72522205-7464-4d1a-9d33-b51300250d6c","ios":"levelo://app?vid=72522205-7464-4d1a-9d33-b51300250d6c"},"vehicle_type_id":"4","last_reported":1739787041,"current_range_meters":37600,"station_id":"ce4bgk12rcd13ifvqbi0","pricing_plan_id":"cebpf4jnsgd1na2vs0mg"},{"bike_id":"ddf1d674-41d6-443f-b0f1-1da7df267862","system_id":"levelo_inurba_marseille","lat":43.23058,"lon":5.35516,"is_reserved":false,"is_disabled":false,"rental_uris":{"android":"levelo://app?vid=ddf1d674-41d6-443f-b0f1-1da7df267862","ios":"levelo://app?vid=ddf1d674-41d6-443f-b0f1-1da7df267862"},"vehicle_type_id":"4","last_reported":1739787041,"current_range_meters":10800,"station_id":"cpo3342slgdg3j2ifvpg","pricing_plan_id":"cebpf4jnsgd1na2vs0mg"},{"bike_id":"59897d86-c0b3-4acb-bf89-133a9364e1f4","system_id":"levelo_inurba_marseille","lat":43.23049,"lon":5.35525,"is_reserved":false,"is_disabled":true,"rental_uris":{"android":"levelo://app?vid=59897d86-c0b3-4acb-bf89-133a9364e1f4","ios":"levelo://app?vid=59897d86-c0b3-4acb-bf89-133a9364e1f4"},"vehicle_type_id":"4","last_reported":1739787041,"current_range_meters":33600,"station_id":"cpo3342slgdg3j2ifvpg","pricing_plan_id":"cebpf4jnsgd1na2vs0mg"},{"bike_id":"813ff0c0-cc00-46d7-8494-366c16823804","system_id":"levelo_inurba_marseille","lat":43.29849,"lon":5.3629,"is_reserved":false,"is_disabled":false,"rental_uris":{"android":"levelo://app?vid=813ff0c0-cc00-46d7-8494-366c16823804","ios":"levelo://app?vid=813ff0c0-cc00-46d7-8494-366c16823804"},"vehicle_type_id":"4","last_reported":1739787041,"current_range_meters":3600,"station_id":"ce4bgpp2rcd13ifvqc3g","pricing_plan_id":"cebpf4jnsgd1na2vs0mg"},{"bike_id":"e324a313-35fe-4676-ac00-cc2b4e95db85","system_id":"levelo_inurba_marseille","lat":43.23153,"lon":5.43727,"is_reserved":false,"is_disabled":false,"rental_uris":{"android":"levelo://app?vid=e324a313-35fe-4676-ac00-cc2b4e95db85","ios":"levelo://app?vid=e324a313-35fe-4676-ac00-cc2b4e95db85"},"vehicle_type_id":"4","last_reported":1739787041,"current_range_meters":27200,"station_id":"ce4bhmp2rcd13ifvqgog","pricing_plan_id":"cebpf4jnsgd1na2vs0mg"},{"bike_id":"cc9daadb-ebf8-42fa-be55-657601a581fa","system_id":"levelo_inurba_marseille","lat":43.30924,"lon":5.37177,"is_reserved":false,"is_disabled":false,"rental_uris":{"android":"levelo://app?vid=cc9daadb-ebf8-42fa-be55-657601a581fa","ios":"levelo://app?vid=cc9daadb-ebf8-42fa-be55-657601a581fa"},"vehicle_type_id":"4","last_reported":1739787041,"current_range_meters":36800,"station_id":"ce4bguh2rcd13ifvqckg","pricing_plan_id":"cebpf4jnsgd1na2vs0mg"},{"bike_id":"e6806870-1029-41fc-b091-11e346b78753","system_id":"levelo_inurba_marseille","lat":43.30307,"lon":5.3689,"is_reserved":false,"is_disabled":false,"rental_uris":{"android":"levelo://app?vid=e6806870-1029-41fc-b091-11e346b78753","ios":"levelo://app?vid=e6806870-1029-41fc-b091-11e346b78753"},"vehicle_type_id":"4","last_reported":1739787041,"current_range_meters":36000,"station_id":"ce4bgqh2rcd13ifvqc5g","pricing_plan_id":"cebpf4jnsgd1na2vs0mg"},{"bike_id":"3a1544f6-34d6-4fe6-add4-e74b0c9fa382","system_id":"levelo_inurba_marseille","lat":43.30238,"lon":5.39472,"is_reserved":false,"is_disabled":false,"rental_uris":{"android":"levelo://app?vid=3a1544f6-34d6-4fe6-add4-e74b0c9fa382","ios":"levelo://app?vid=3a1544f6-34d6-4fe6-add4-e74b0c9fa382"},"vehicle_type_id":"4","last_reported":1739787041,"current_range_meters":38000,"station_id":"ce4bh0p2rcd13ifvqd70","pricing_plan_id":"cebpf4jnsgd1na2vs0mg"},{"bike_id":"5fc8cb93-5aac-44eb-bd48-e64d187b761e","system_id":"levelo_inurba_marseille","lat":43.28842,"lon":5.39339,"is_reserved":false,"is_disabled":true,"rental_uris":{"android":"levelo://app?vid=5fc8cb93-5aac-44eb-bd48-e64d187b761e","ios":"levelo://app?vid=5fc8cb93-5aac-44eb-bd48-e64d187b761e"},"vehicle_type_id":"4","last_reported":1739787041,"current_range_meters":14400,"station_id":"ce4bh2p2rcd13ifvqdi0","pricing_plan_id":"cebpf4jnsgd1na2vs0mg"},{"bike_id":"4bc50c17-9aeb-4487-a054-afb81c6c63dc","system_id":"levelo_inurba_marseille","lat":43.27621,"lon":5.36102,"is_reserved":false,"is_disabled":true,"rental_uris":{"android":"levelo://app?vid=4bc50c17-9aeb-4487-a054-afb81c6c63dc","ios":"levelo://app?vid=4bc50c17-9aeb-4487-a054-afb81c6c63dc"},"vehicle_type_id":"4","last_reported":1739787041,"current_range_meters":24800,"station_id":"ce4bgj92rcd13ifvqbe0","pricing_plan_id":"cebpf4jnsgd1na2vs0mg"},{"bike_id":"7f016960-9541-467a-a3bb-ad4666367ddf","system_id":"levelo_inurba_marseille","lat":43.29029,"lon":5.37549,"is_reserved":false,"is_disabled":false,"rental_uris":{"android":"levelo://app?vid=7f016960-9541-467a-a3bb-ad4666367ddf","ios":"levelo://app?vid=7f016960-9541-467a-a3bb-ad4666367ddf"},"vehicle_type_id":"4","last_reported":1739787041,"current_range_meters":29600,"station_id":"ce4bh692rcd13ifvqe90","pricing_plan_id":"cebpf4jnsgd1na2vs0mg"},{"bike_id":"2c8b8a41-5401-4b3a-be72-574e3bbf0407","system_id":"levelo_inurba_marseille","lat":43.29872,"lon":5.36504,"is_reserved":false,"is_disabled":false,"rental_uris":{"android":"levelo://app?vid=2c8b8a41-5401-4b3a-be72-574e3bbf0407","ios":"levelo://app?vid=2c8b8a41-5401-4b3a-be72-574e3bbf0407"},"vehicle_type_id":"4","last_reported":1739787041,"current_range_meters":28800,"station_id":"ce4bgm92rcd13ifvqbr0","pricing_plan_id":"cebpf4jnsgd1na2vs0mg"},{"bike_id":"58778bf6-4387-47ee-8a30-a2b159673f5d","system_id":"levelo_inurba_marseille","lat":43.28491,"lon":5.3856,"is_reserved":false,"is_disabled":false,"rental_uris":{"android":"levelo://app?vid=58778bf6-4387-47ee-8a30-a2b159673f5d","ios":"levelo://app?vid=58778bf6-4387-47ee-8a30-a2b159673f5d"},"vehicle_type_id":"4","last_reported":1739787041,"current_range_meters":38000,"station_id":"ce4bh8p2rcd13ifvqeb0","pricing_plan_id":"cebpf4jnsgd1na2vs0mg"},{"bike_id":"20dc10c3-0d87-46d9-abf0-251ba8dc0a20","system_id":"levelo_inurba_marseille","lat":43.30304,"lon":5.37708,"is_reserved":false,"is_disabled":false,"rental_uris":{"android":"levelo://app?vid=20dc10c3-0d87-46d9-abf0-251ba8dc0a20","ios":"levelo://app?vid=20dc10c3-0d87-46d9-abf0-251ba8dc0a20"},"vehicle_type_id":"4","last_reported":1739787041,"current_range_meters":38800,"station_id":"ce4bguh2rcd13ifvqcj0","pricing_plan_id":"cebpf4jnsgd1na2vs0mg"},{"bike_id":"f097ff0b-72ea-4d89-8f0e-2edef239ff08","system_id":"levelo_inurba_marseille","lat":43.25583,"lon":5.38227,"is_reserved":false,"is_disabled":false,"rental_uris":{"android":"levelo://app?vid=f097ff0b-72ea-4d89-8f0e-2edef239ff08","ios":"levelo://app?vid=f097ff0b-72ea-4d89-8f0e-2edef239ff08"},"vehicle_type_id":"4","last_reported":1739787041,"current_range_meters":38800,"station_id":"ce4bhih2rcd13ifvqfs0","pricing_plan_id":"cebpf4jnsgd1na2vs0mg"},{"bike_id":"db005d7a-f4b5-4116-b44b-8385fd098023","system_id":"levelo_inurba_marseille","lat":43.27211,"lon":5.39186,"is_reserved":false,"is_disabled":false,"rental_uris":{"android":"levelo://app?vid=db005d7a-f4b5-4116-b44b-8385fd098023","ios":"levelo://app?vid=db005d7a-f4b5-4116-b44b-8385fd098023"},"vehicle_type_id":"4","last_reported":1739787041,"current_range_meters":17600,"station_id":"ce4bhhp2rcd13ifvqfm0","pricing_plan_id":"cebpf4jnsgd1na2vs0mg"},{"bike_id":"fd205e53-fd95-4b6d-8071-a6136e725122","system_id":"levelo_inurba_marseille","lat":43.24394,"lon":5.37061,"is_reserved":false,"is_disabled":false,"rental_uris":{"android":"levelo://app?vid=fd205e53-fd95-4b6d-8071-a6136e725122","ios":"levelo://app?vid=fd205e53-fd95-4b6d-8071-a6136e725122"},"vehicle_type_id":"4","last_reported":1739787041,"current_range_meters":19600,"station_id":"ce4bhhh2rcd13ifvqfk0","pricing_plan_id":"cebpf4jnsgd1na2vs0mg"},{"bike_id":"91e27922-e676-45ea-94da-baf83d9c520d","system_id":"levelo_inurba_marseille","lat":43.28057,"lon":5.36945,"is_reserved":false,"is_disabled":true,"rental_uris":{"android":"levelo://app?vid=91e27922-e676-45ea-94da-baf83d9c520d","ios":"levelo://app?vid=91e27922-e676-45ea-94da-baf83d9c520d"},"vehicle_type_id":"4","last_reported":1739787041,"current_range_meters":30000,"station_id":"ce4bha12rcd13ifvqef0","pricing_plan_id":"cebpf4jnsgd1na2vs0mg"},{"bike_id":"43b994d8-54a7-4215-8f33-79cd8d0dd7d1","system_id":"levelo_inurba_marseille","lat":43.30165,"lon":5.3809,"is_reserved":false,"is_disabled":false,"rental_uris":{"android":"levelo://app?vid=43b994d8-54a7-4215-8f33-79cd8d0dd7d1","ios":"levelo://app?vid=43b994d8-54a7-4215-8f33-79cd8d0dd7d1"},"vehicle_type_id":"4","last_reported":1739787041,"current_range_meters":16800,"station_id":"ce4bgjp2rcd13ifvqbh0","pricing_plan_id":"cebpf4jnsgd1na2vs0mg"},{"bike_id":"b8d59589-c626-4928-a7da-716f4f630662","system_id":"levelo_inurba_marseille","lat":43.29977,"lon":5.37174,"is_reserved":false,"is_disabled":false,"rental_uris":{"android":"levelo://app?vid=b8d59589-c626-4928-a7da-716f4f630662","ios":"levelo://app?vid=b8d59589-c626-4928-a7da-716f4f630662"},"vehicle_type_id":"4","last_reported":1739787041,"current_range_meters":39200,"station_id":"ce4bgr92rcd13ifvqc7g","pricing_plan_id":"cebpf4jnsgd1na2vs0mg"},{"bike_id":"e4f088f9-e3e8-4f82-824b-eaedfe8505d4","system_id":"levelo_inurba_marseille","lat":43.2687,"lon":5.40377,"is_reserved":false,"is_disabled":true,"rental_uris":{"android":"levelo://app?vid=e4f088f9-e3e8-4f82-824b-eaedfe8505d4","ios":"levelo://app?vid=e4f088f9-e3e8-4f82-824b-eaedfe8505d4"},"vehicle_type_id":"4","last_reported":1739787041,"current_range_meters":26800,"station_id":"","pricing_plan_id":"cebpf4jnsgd1na2vs0mg"},{"bike_id":"9a5b1617-6302-4da6-9d8c-45383e399553","system_id":"levelo_inurba_marseille","lat":43.28489,"lon":5.38534,"is_reserved":false,"is_disabled":false,"rental_uris":{"android":"levelo://app?vid=9a5b1617-6302-4da6-9d8c-45383e399553","ios":"levelo://app?vid=9a5b1617-6302-4da6-9d8c-45383e399553"},"vehicle_type_id":"4","last_reported":1739787041,"current_range_meters":38400,"station_id":"ce4bh8p2rcd13ifvqeb0","pricing_plan_id":"cebpf4jnsgd1na2vs0mg"},{"bike_id":"9bcc3779-160f-4f11-a908-15bc41b1ac43","system_id":"levelo_inurba_marseille","lat":43.27986,"lon":5.4003,"is_reserved":false,"is_disabled":true,"rental_uris":{"android":"levelo://app?vid=9bcc3779-160f-4f11-a908-15bc41b1ac43","ios":"levelo://app?vid=9bcc3779-160f-4f11-a908-15bc41b1ac43"},"vehicle_type_id":"4","last_reported":1739787041,"current_range_meters":0,"station_id":"ce4bho92rcd13ifvqh4g","pricing_plan_id":"cebpf4jnsgd1na2vs0mg"},{"bike_id":"e58e3e7e-4b99-43ae-be6f-acd9337c3c5f","system_id":"levelo_inurba_marseille","lat":43.23974,"lon":5.36611,"is_reserved":false,"is_disabled":false,"rental_uris":{"android":"levelo://app?vid=e58e3e7e-4b99-43ae-be6f-acd9337c3c5f","ios":"levelo://app?vid=e58e3e7e-4b99-43ae-be6f-acd9337c3c5f"},"vehicle_type_id":"4","last_reported":1739787041,"current_range_meters":28000,"station_id":"ce4bhi12rcd13ifvqfp0","pricing_plan_id":"cebpf4jnsgd1na2vs0mg"},{"bike_id":"7fa2f52d-aa55-4da7-8f6c-d8bd07556923","system_id":"levelo_inurba_marseille","lat":43.26205,"lon":5.37943,"is_reserved":false,"is_disabled":false,"rental_uris":{"android":"levelo://app?vid=7fa2f52d-aa55-4da7-8f6c-d8bd07556923","ios":"levelo://app?vid=7fa2f52d-aa55-4da7-8f6c-d8bd07556923"},"vehicle_type_id":"4","last_reported":1739787041,"current_range_meters":36800,"station_id":"ce4bhjp2rcd13ifvqg90","pricing_plan_id":"cebpf4jnsgd1na2vs0mg"},{"bike_id":"32c16816-bf22-45bf-bae6-15a3b36aa2ac","system_id":"levelo_inurba_marseille","lat":43.26922,"lon":5.39282,"is_reserved":false,"is_disabled":false,"rental_uris":{"android":"levelo://app?vid=32c16816-bf22-45bf-bae6-15a3b36aa2ac","ios":"levelo://app?vid=32c16816-bf22-45bf-bae6-15a3b36aa2ac"},"vehicle_type_id":"4","last_reported":1739787041,"current_range_meters":38800,"station_id":"","pricing_plan_id":"cebpf4jnsgd1na2vs0mg"},{"bike_id":"0a8131f0-8aa1-442f-a102-dd6461b5c6ed","system_id":"levelo_inurba_marseille","lat":43.24213,"lon":5.39723,"is_reserved":false,"is_disabled":false,"rental_uris":{"android":"levelo://app?vid=0a8131f0-8aa1-442f-a102-dd6461b5c6ed","ios":"levelo://app?vid=0a8131f0-8aa1-442f-a102-dd6461b5c6ed"},"vehicle_type_id":"4","last_reported":1739787041,"current_range_meters":37600,"station_id":"ce4bhn12rcd13ifvqgpg","pricing_plan_id":"cebpf4jnsgd1na2vs0mg"},{"bike_id":"727cdbd7-c9a0-4e88-913c-02358a9dd8f7","system_id":"levelo_inurba_marseille","lat":43.25933,"lon":5.40918,"is_reserved":false,"is_disabled":false,"rental_uris":{"android":"levelo://app?vid=727cdbd7-c9a0-4e88-913c-02358a9dd8f7","ios":"levelo://app?vid=727cdbd7-c9a0-4e88-913c-02358a9dd8f7"},"vehicle_type_id":"4","last_reported":1739787041,"current_range_meters":34000,"station_id":"ce4bhm92rcd13ifvqglg","pricing_plan_id":"cebpf4jnsgd1na2vs0mg"},{"bike_id":"453b5d03-74b1-4b80-b3f1-f8af80ba4690","system_id":"levelo_inurba_marseille","lat":43.24164,"lon":5.36401,"is_reserved":false,"is_disabled":false,"rental_uris":{"android":"levelo://app?vid=453b5d03-74b1-4b80-b3f1-f8af80ba4690","ios":"levelo://app?vid=453b5d03-74b1-4b80-b3f1-f8af80ba4690"},"vehicle_type_id":"4","last_reported":1739787041,"current_range_meters":9200,"station_id":"cpo36qri1sfpv3e86is0","pricing_plan_id":"cebpf4jnsgd1na2vs0mg"},{"bike_id":"bde553f2-70d0-41e9-baa1-398a72761238","system_id":"levelo_inurba_marseille","lat":43.29038,"lon":5.39976,"is_reserved":false,"is_disabled":false,"rental_uris":{"android":"levelo://app?vid=bde553f2-70d0-41e9-baa1-398a72761238","ios":"levelo://app?vid=bde553f2-70d0-41e9-baa1-398a72761238"},"vehicle_type_id":"4","last_reported":1739787041,"current_range_meters":5600,"station_id":"ce4bh392rcd13ifvqdm0","pricing_plan_id":"cebpf4jnsgd1na2vs0mg"},{"bike_id":"ebe990a8-e57c-4f7d-af7a-1993a8eb7359","system_id":"levelo_inurba_marseille","lat":43.26215,"lon":5.37443,"is_reserved":false,"is_disabled":false,"rental_uris":{"android":"levelo://app?vid=ebe990a8-e57c-4f7d-af7a-1993a8eb7359","ios":"levelo://app?vid=ebe990a8-e57c-4f7d-af7a-1993a8eb7359"},"vehicle_type_id":"4","last_reported":1739787041,"current_range_meters":24800,"station_id":"ce4bhgp2rcd13ifvqfc0","pricing_plan_id":"cebpf4jnsgd1na2vs0mg"},{"bike_id":"2dea0667-1db6-4775-857f-894e60e0a4c7","system_id":"levelo_inurba_marseille","lat":43.30415,"lon":5.39757,"is_reserved":false,"is_disabled":true,"rental_uris":{"android":"levelo://app?vid=2dea0667-1db6-4775-857f-894e60e0a4c7","ios":"levelo://app?vid=2dea0667-1db6-4775-857f-894e60e0a4c7"},"vehicle_type_id":"4","last_reported":1739787041,"current_range_meters":24800,"station_id":"ce4bh092rcd13ifvqd20","pricing_plan_id":"cebpf4jnsgd1na2vs0mg"},{"bike_id":"6ecf9c7c-ca14-4c2e-8998-d9f0947fc21c","system_id":"levelo_inurba_marseille","lat":43.23166,"lon":5.43719,"is_reserved":false,"is_disabled":false,"rental_uris":{"android":"levelo://app?vid=6ecf9c7c-ca14-4c2e-8998-d9f0947fc21c","ios":"levelo://app?vid=6ecf9c7c-ca14-4c2e-8998-d9f0947fc21c"},"vehicle_type_id":"4","last_reported":1739787041,"current_range_meters":39200,"station_id":"ce4bhmp2rcd13ifvqgog","pricing_plan_id":"cebpf4jnsgd1na2vs0mg"},{"bike_id":"2e2e7460-0ef6-4d74-bce0-183916712611","system_id":"levelo_inurba_marseille","lat":43.28616,"lon":5.35102,"is_reserved":false,"is_disabled":false,"rental_uris":{"android":"levelo://app?vid=2e2e7460-0ef6-4d74-bce0-183916712611","ios":"levelo://app?vid=2e2e7460-0ef6-4d74-bce0-183916712611"},"vehicle_type_id":"4","last_reported":1739787041,"current_range_meters":38800,"station_id":"ce4bhch2rcd13ifvqeug","pricing_plan_id":"cebpf4jnsgd1na2vs0mg"},{"bike_id":"ad4af932-f51b-41b8-983b-7e431dcc24a9","system_id":"levelo_inurba_marseille","lat":43.337444,"lon":5.374475,"is_reserved":false,"is_disabled":true,"rental_uris":{"android":"levelo://app?vid=ad4af932-f51b-41b8-983b-7e431dcc24a9","ios":"levelo://app?vid=ad4af932-f51b-41b8-983b-7e431dcc24a9"},"vehicle_type_id":"4","last_reported":1739787041,"current_range_meters":0,"station_id":"","pricing_plan_id":"cebpf4jnsgd1na2vs0mg"},{"bike_id":"4cd0c43b-0ef8-4e84-8be3-cb1ec934a55f","system_id":"levelo_inurba_marseille","lat":43.29732,"lon":5.37685,"is_reserved":false,"is_disabled":false,"rental_uris":{"android":"levelo://app?vid=4cd0c43b-0ef8-4e84-8be3-cb1ec934a55f","ios":"levelo://app?vid=4cd0c43b-0ef8-4e84-8be3-cb1ec934a55f"},"vehicle_type_id":"4","last_reported":1739787041,"current_range_meters":36000,"station_id":"ce4bgkh2rcd13ifvqbl0","pricing_plan_id":"cebpf4jnsgd1na2vs0mg"},{"bike_id":"b9941600-19bd-4523-9639-f06f43483ba6","system_id":"levelo_inurba_marseille","lat":43.23968,"lon":5.36643,"is_reserved":false,"is_disabled":false,"rental_uris":{"android":"levelo://app?vid=b9941600-19bd-4523-9639-f06f43483ba6","ios":"levelo://app?vid=b9941600-19bd-4523-9639-f06f43483ba6"},"vehicle_type_id":"4","last_reported":1739787041,"current_range_meters":38800,"station_id":"ce4bhi12rcd13ifvqfp0","pricing_plan_id":"cebpf4jnsgd1na2vs0mg"},{"bike_id":"168fe2b7-b127-4d10-ac64-54bd473fef6d","system_id":"levelo_inurba_marseille","lat":43.3055,"lon":5.36721,"is_reserved":false,"is_disabled":false,"rental_uris":{"android":"levelo://app?vid=168fe2b7-b127-4d10-ac64-54bd473fef6d","ios":"levelo://app?vid=168fe2b7-b127-4d10-ac64-54bd473fef6d"},"vehicle_type_id":"4","last_reported":1739787041,"current_range_meters":7200,"station_id":"ce4bgrp2rcd13ifvqc9g","pricing_plan_id":"cebpf4jnsgd1na2vs0mg"},{"bike_id":"fdc44a81-4378-4278-85c1-c043fb927a68","system_id":"levelo_inurba_marseille","lat":43.2721,"lon":5.39181,"is_reserved":false,"is_disabled":false,"rental_uris":{"android":"levelo://app?vid=fdc44a81-4378-4278-85c1-c043fb927a68","ios":"levelo://app?vid=fdc44a81-4378-4278-85c1-c043fb927a68"},"vehicle_type_id":"4","last_reported":1739787041,"current_range_meters":31200,"station_id":"ce4bhhp2rcd13ifvqfm0","pricing_plan_id":"cebpf4jnsgd1na2vs0mg"},{"bike_id":"81ec488e-3038-4bdb-9b14-0cc70825f743","system_id":"levelo_inurba_marseille","lat":43.23398,"lon":5.40483,"is_reserved":false,"is_disabled":false,"rental_uris":{"android":"levelo://app?vid=81ec488e-3038-4bdb-9b14-0cc70825f743","ios":"levelo://app?vid=81ec488e-3038-4bdb-9b14-0cc70825f743"},"vehicle_type_id":"4","last_reported":1739787041,"current_range_meters":25600,"station_id":"","pricing_plan_id":"cebpf4jnsgd1na2vs0mg"},{"bike_id":"aeb403d4-9cef-44b2-b32c-cb912f49efa3","system_id":"levelo_inurba_marseille","lat":43.2321,"lon":5.35564,"is_reserved":false,"is_disabled":false,"rental_uris":{"android":"levelo://app?vid=aeb403d4-9cef-44b2-b32c-cb912f49efa3","ios":"levelo://app?vid=aeb403d4-9cef-44b2-b32c-cb912f49efa3"},"vehicle_type_id":"4","last_reported":1739787041,"current_range_meters":26000,"station_id":"ce4bhu92rcd13ifvqi70","pricing_plan_id":"cebpf4jnsgd1na2vs0mg"},{"bike_id":"590236d5-84f2-402a-b653-b81bf0ae5768","system_id":"levelo_inurba_marseille","lat":43.29847,"lon":5.36287,"is_reserved":false,"is_disabled":false,"rental_uris":{"android":"levelo://app?vid=590236d5-84f2-402a-b653-b81bf0ae5768","ios":"levelo://app?vid=590236d5-84f2-402a-b653-b81bf0ae5768"},"vehicle_type_id":"4","last_reported":1739787041,"current_range_meters":33600,"station_id":"ce4bgpp2rcd13ifvqc3g","pricing_plan_id":"cebpf4jnsgd1na2vs0mg"},{"bike_id":"6e9279e1-a299-42cb-b26a-80dd0bd04fc9","system_id":"levelo_inurba_marseille","lat":43.3119,"lon":5.36784,"is_reserved":false,"is_disabled":false,"rental_uris":{"android":"levelo://app?vid=6e9279e1-a299-42cb-b26a-80dd0bd04fc9","ios":"levelo://app?vid=6e9279e1-a299-42cb-b26a-80dd0bd04fc9"},"vehicle_type_id":"4","last_reported":1739787041,"current_range_meters":11600,"station_id":"","pricing_plan_id":"cebpf4jnsgd1na2vs0mg"},{"bike_id":"07112172-5230-4fda-8e15-6e0038406856","system_id":"levelo_inurba_marseille","lat":43.3154,"lon":5.37302,"is_reserved":false,"is_disabled":false,"rental_uris":{"android":"levelo://app?vid=07112172-5230-4fda-8e15-6e0038406856","ios":"levelo://app?vid=07112172-5230-4fda-8e15-6e0038406856"},"vehicle_type_id":"4","last_reported":1739787041,"current_range_meters":33200,"station_id":"","pricing_plan_id":"cebpf4jnsgd1na2vs0mg"},{"bike_id":"5d5c467a-b4b5-45e5-99ca-e9a7b7662256","system_id":"levelo_inurba_marseille","lat":43.24678,"lon":5.38172,"is_reserved":false,"is_disabled":false,"rental_uris":{"android":"levelo://app?vid=5d5c467a-b4b5-45e5-99ca-e9a7b7662256","ios":"levelo://app?vid=5d5c467a-b4b5-45e5-99ca-e9a7b7662256"},"vehicle_type_id":"4","last_reported":1739787041,"current_range_meters":38800,"station_id":"ce4bhih2rcd13ifvqfr0","pricing_plan_id":"cebpf4jnsgd1na2vs0mg"},{"bike_id":"acb0f161-b784-4b95-8c0a-dd4c3474b068","system_id":"levelo_inurba_marseille","lat":43.29525,"lon":5.38544,"is_reserved":false,"is_disabled":true,"rental_uris":{"android":"levelo://app?vid=acb0f161-b784-4b95-8c0a-dd4c3474b068","ios":"levelo://app?vid=acb0f161-b784-4b95-8c0a-dd4c3474b068"},"vehicle_type_id":"4","last_reported":1739787041,"current_range_meters":0,"station_id":"ce4bgih2rcd13ifvqba0","pricing_plan_id":"cebpf4jnsgd1na2vs0mg"},{"bike_id":"2e1ea3ec-5284-4631-8449-fb3cd1434ac5","system_id":"levelo_inurba_marseille","lat":43.23153,"lon":5.43719,"is_reserved":false,"is_disabled":false,"rental_uris":{"android":"levelo://app?vid=2e1ea3ec-5284-4631-8449-fb3cd1434ac5","ios":"levelo://app?vid=2e1ea3ec-5284-4631-8449-fb3cd1434ac5"},"vehicle_type_id":"4","last_reported":1739787041,"current_range_meters":38000,"station_id":"ce4bhmp2rcd13ifvqgog","pricing_plan_id":"cebpf4jnsgd1na2vs0mg"},{"bike_id":"95acebc1-624d-4df6-bbdb-5c9c74d4694f","system_id":"levelo_inurba_marseille","lat":43.26548,"lon":5.37278,"is_reserved":false,"is_disabled":false,"rental_uris":{"android":"levelo://app?vid=95acebc1-624d-4df6-bbdb-5c9c74d4694f","ios":"levelo://app?vid=95acebc1-624d-4df6-bbdb-5c9c74d4694f"},"vehicle_type_id":"4","last_reported":1739787041,"current_range_meters":30000,"station_id":"ce4bhg12rcd13ifvqf70","pricing_plan_id":"cebpf4jnsgd1na2vs0mg"},{"bike_id":"9e80de14-1bbe-4926-94bc-a0555828d0c3","system_id":"levelo_inurba_marseille","lat":43.27846,"lon":5.39213,"is_reserved":false,"is_disabled":false,"rental_uris":{"android":"levelo://app?vid=9e80de14-1bbe-4926-94bc-a0555828d0c3","ios":"levelo://app?vid=9e80de14-1bbe-4926-94bc-a0555828d0c3"},"vehicle_type_id":"4","last_reported":1739787041,"current_range_meters":32400,"station_id":"ce4bhjp2rcd13ifvqga0","pricing_plan_id":"cebpf4jnsgd1na2vs0mg"},{"bike_id":"d19696ac-00e8-42df-a7b6-61028176685c","system_id":"levelo_inurba_marseille","lat":43.30933,"lon":5.36841,"is_reserved":false,"is_disabled":false,"rental_uris":{"android":"levelo://app?vid=d19696ac-00e8-42df-a7b6-61028176685c","ios":"levelo://app?vid=d19696ac-00e8-42df-a7b6-61028176685c"},"vehicle_type_id":"4","last_reported":1739787041,"current_range_meters":38800,"station_id":"ce4bgn92rcd13ifvqbvg","pricing_plan_id":"cebpf4jnsgd1na2vs0mg"},{"bike_id":"16e87eaf-701e-4260-b0ef-3f1c66e4c7d7","system_id":"levelo_inurba_marseille","lat":43.3247,"lon":5.365706,"is_reserved":false,"is_disabled":false,"rental_uris":{"android":"levelo://app?vid=16e87eaf-701e-4260-b0ef-3f1c66e4c7d7","ios":"levelo://app?vid=16e87eaf-701e-4260-b0ef-3f1c66e4c7d7"},"vehicle_type_id":"4","last_reported":1739787041,"current_range_meters":35200,"station_id":"ce4bhs12rcd13ifvqhvg","pricing_plan_id":"cebpf4jnsgd1na2vs0mg"},{"bike_id":"af6cbbc5-bf71-4f0e-bb28-e2a02e8c1755","system_id":"levelo_inurba_marseille","lat":43.33022,"lon":5.39044,"is_reserved":false,"is_disabled":false,"rental_uris":{"android":"levelo://app?vid=af6cbbc5-bf71-4f0e-bb28-e2a02e8c1755","ios":"levelo://app?vid=af6cbbc5-bf71-4f0e-bb28-e2a02e8c1755"},"vehicle_type_id":"4","last_reported":1739787041,"current_range_meters":35200,"station_id":"ce4bhr92rcd13ifvqhrg","pricing_plan_id":"cebpf4jnsgd1na2vs0mg"},{"bike_id":"5a7ddc57-f6d2-4f79-98c9-089e1b24b133","system_id":"levelo_inurba_marseille","lat":43.2987,"lon":5.39729,"is_reserved":false,"is_disabled":false,"rental_uris":{"android":"levelo://app?vid=5a7ddc57-f6d2-4f79-98c9-089e1b24b133","ios":"levelo://app?vid=5a7ddc57-f6d2-4f79-98c9-089e1b24b133"},"vehicle_type_id":"4","last_reported":1739787041,"current_range_meters":25200,"station_id":"ce4bh0h2rcd13ifvqd50","pricing_plan_id":"cebpf4jnsgd1na2vs0mg"},{"bike_id":"4eea1e5c-d259-43c6-9667-1afb6a4cbb3f","system_id":"levelo_inurba_marseille","lat":43.30284,"lon":5.36934,"is_reserved":false,"is_disabled":false,"rental_uris":{"android":"levelo://app?vid=4eea1e5c-d259-43c6-9667-1afb6a4cbb3f","ios":"levelo://app?vid=4eea1e5c-d259-43c6-9667-1afb6a4cbb3f"},"vehicle_type_id":"4","last_reported":1739787041,"current_range_meters":25600,"station_id":"ce4bgqh2rcd13ifvqc5g","pricing_plan_id":"cebpf4jnsgd1na2vs0mg"},{"bike_id":"6628a8d3-7971-406a-9be9-6d82f0558713","system_id":"levelo_inurba_marseille","lat":43.301348,"lon":5.374166,"is_reserved":false,"is_disabled":false,"rental_uris":{"android":"levelo://app?vid=6628a8d3-7971-406a-9be9-6d82f0558713","ios":"levelo://app?vid=6628a8d3-7971-406a-9be9-6d82f0558713"},