{"last_updated":1728238216,"ttl":60,"version":"2.2","data":{"bikes":[{"bike_id":"6dfe646a-1d59-458e-a351-73e41db2a61c","system_id":"levelo_inurba_marseille","lat":43.31887,"lon":5.40744,"is_reserved":false,"is_disabled":false,"rental_uris":{"android":"levelo://app?vid=6dfe646a-1d59-458e-a351-73e41db2a61c","ios":"levelo://app?vid=6dfe646a-1d59-458e-a351-73e41db2a61c"},"vehicle_type_id":"4","last_reported":1728238216,"current_range_meters":4800,"station_id":"ce4bhq12rcd13ifvqhig","pricing_plan_id":"cebpf4jnsgd1na2vs0mg"},{"bike_id":"1683a247-7daa-4167-ac82-a263e4f3cd5b","system_id":"levelo_inurba_marseille","lat":43.25087,"lon":5.39528,"is_reserved":false,"is_disabled":false,"rental_uris":{"android":"levelo://app?vid=1683a247-7daa-4167-ac82-a263e4f3cd5b","ios":"levelo://app?vid=1683a247-7daa-4167-ac82-a263e4f3cd5b"},"vehicle_type_id":"4","last_reported":1728238216,"current_range_meters":19200,"station_id":"ce4bhm12rcd13ifvqgkg","pricing_plan_id":"cebpf4jnsgd1na2vs0mg"},{"bike_id":"ffb50058-5078-4c2d-89a8-70983b69fe9b","system_id":"levelo_inurba_marseille","lat":43.284007,"lon":5.37523,"is_reserved":false,"is_disabled":false,"rental_uris":{"android":"levelo://app?vid=ffb50058-5078-4c2d-89a8-70983b69fe9b","ios":"levelo://app?vid=ffb50058-5078-4c2d-89a8-70983b69fe9b"},"vehicle_type_id":"4","last_reported":1728238216,"current_range_meters":28400,"station_id":"ce4bh412rcd13ifvqds0","pricing_plan_id":"cebpf4jnsgd1na2vs0mg"},{"bike_id":"fcc56730-3c72-4870-849a-77c8955fe703","system_id":"levelo_inurba_marseille","lat":43.26536,"lon":5.3904,"is_reserved":false,"is_disabled":false,"rental_uris":{"android":"levelo://app?vid=fcc56730-3c72-4870-849a-77c8955fe703","ios":"levelo://app?vid=fcc56730-3c72-4870-849a-77c8955fe703"},"vehicle_type_id":"4","last_reported":1728238216,"current_range_meters":38400,"station_id":"ce4bhe12rcd13ifvqf30","pricing_plan_id":"cebpf4jnsgd1na2vs0mg"},{"bike_id":"07d432b9-404b-43e5-8aed-9265d6827336","system_id":"levelo_inurba_marseille","lat":43.24392,"lon":5.37054,"is_reserved":false,"is_disabled":false,"rental_uris":{"android":"levelo://app?vid=07d432b9-404b-43e5-8aed-9265d6827336","ios":"levelo://app?vid=07d432b9-404b-43e5-8aed-9265d6827336"},"vehicle_type_id":"4","last_reported":1728238216,"current_range_meters":32000,"station_id":"ce4bhhh2rcd13ifvqfk0","pricing_plan_id":"cebpf4jnsgd1na2vs0mg"},{"bike_id":"3edccbad-c604-40df-acb2-6e9d91b67298","system_id":"levelo_inurba_marseille","lat":43.21341,"lon":5.34943,"is_reserved":false,"is_disabled":false,"rental_uris":{"android":"levelo://app?vid=3edccbad-c604-40df-acb2-6e9d91b67298","ios":"levelo://app?vid=3edccbad-c604-40df-acb2-6e9d91b67298"},"vehicle_type_id":"4","last_reported":1728238216,"current_range_meters":28000,"station_id":"crv51consjfaj9uu89c0","pricing_plan_id":"cebpf4jnsgd1na2vs0mg"},{"bike_id":"31b4e2c0-56c1-466f-ae1f-64a36a7dc8a6","system_id":"levelo_inurba_marseille","lat":43.2407,"lon":5.37776,"is_reserved":false,"is_disabled":false,"rental_uris":{"android":"levelo://app?vid=31b4e2c0-56c1-466f-ae1f-64a36a7dc8a6","ios":"levelo://app?vid=31b4e2c0-56c1-466f-ae1f-64a36a7dc8a6"},"vehicle_type_id":"4","last_reported":1728238216,"current_range_meters":14000,"station_id":"ce4bhnp2rcd13ifvqgvg","pricing_plan_id":"cebpf4jnsgd1na2vs0mg"},{"bike_id":"5ebdd39c-1faa-48bb-b34e-20793e0aa7ff","system_id":"levelo_inurba_marseille","lat":43.23063,"lon":5.35499,"is_reserved":false,"is_disabled":false,"rental_uris":{"android":"levelo://app?vid=5ebdd39c-1faa-48bb-b34e-20793e0aa7ff","ios":"levelo://app?vid=5ebdd39c-1faa-48bb-b34e-20793e0aa7ff"},"vehicle_type_id":"4","last_reported":1728238216,"current_range_meters":34000,"station_id":"cpo3342slgdg3j2ifvpg","pricing_plan_id":"cebpf4jnsgd1na2vs0mg"},{"bike_id":"53aed260-8a8b-48a9-a9a5-ec999fb04e11","system_id":"levelo_inurba_marseille","lat":43.25118,"lon":5.40321,"is_reserved":false,"is_disabled":false,"rental_uris":{"android":"levelo://app?vid=53aed260-8a8b-48a9-a9a5-ec999fb04e11","ios":"levelo://app?vid=53aed260-8a8b-48a9-a9a5-ec999fb04e11"},"vehicle_type_id":"4","last_reported":1728238216,"current_range_meters":38800,"station_id":"ce4bhlh2rcd13ifvqgig","pricing_plan_id":"cebpf4jnsgd1na2vs0mg"},{"bike_id":"db425efc-0f8e-41d0-a95f-f9ddd26c0b59","system_id":"levelo_inurba_marseille","lat":43.30914,"lon":5.38043,"is_reserved":false,"is_disabled":false,"rental_uris":{"android":"levelo://app?vid=db425efc-0f8e-41d0-a95f-f9ddd26c0b59","ios":"levelo://app?vid=db425efc-0f8e-41d0-a95f-f9ddd26c0b59"},"vehicle_type_id":"4","last_reported":1728238216,"current_range_meters":38400,"station_id":"ce4bgt92rcd13ifvqcg0","pricing_plan_id":"cebpf4jnsgd1na2vs0mg"},{"bike_id":"e9195809-69f2-467d-8c80-7bfe6c06325c","system_id":"levelo_inurba_marseille","lat":43.297971,"lon":5.404036,"is_reserved":false,"is_disabled":false,"rental_uris":{"android":"levelo://app?vid=e9195809-69f2-467d-8c80-7bfe6c06325c","ios":"levelo://app?vid=e9195809-69f2-467d-8c80-7bfe6c06325c"},"vehicle_type_id":"4","last_reported":1728238216,"current_range_meters":36400,"station_id":"ce4bh112rcd13ifvqd90","pricing_plan_id":"cebpf4jnsgd1na2vs0mg"},{"bike_id":"1ad003a9-be67-4652-b1c6-a0312551fb2c","system_id":"levelo_inurba_marseille","lat":43.2866,"lon":5.36347,"is_reserved":false,"is_disabled":false,"rental_uris":{"android":"levelo://app?vid=1ad003a9-be67-4652-b1c6-a0312551fb2c","ios":"levelo://app?vid=1ad003a9-be67-4652-b1c6-a0312551fb2c"},"vehicle_type_id":"4","last_reported":1728238216,"current_range_meters":32400,"station_id":"ce4bhah2rcd13ifvqej0","pricing_plan_id":"cebpf4jnsgd1na2vs0mg"},{"bike_id":"3d3e93be-8a67-4628-9af2-2661c9a0daa4","system_id":"levelo_inurba_marseille","lat":43.22936,"lon":5.35381,"is_reserved":false,"is_disabled":false,"rental_uris":{"android":"levelo://app?vid=3d3e93be-8a67-4628-9af2-2661c9a0daa4","ios":"levelo://app?vid=3d3e93be-8a67-4628-9af2-2661c9a0daa4"},"vehicle_type_id":"4","last_reported":1728238216,"current_range_meters":36000,"station_id":"cpo3532slgdg3j2ikp40","pricing_plan_id":"cebpf4jnsgd1na2vs0mg"},{"bike_id":"83bd8e08-648e-4fc6-8901-05219804adac","system_id":"levelo_inurba_marseille","lat":43.22936,"lon":5.35378,"is_reserved":false,"is_disabled":false,"rental_uris":{"android":"levelo://app?vid=83bd8e08-648e-4fc6-8901-05219804adac","ios":"levelo://app?vid=83bd8e08-648e-4fc6-8901-05219804adac"},"vehicle_type_id":"4","last_reported":1728238216,"current_range_meters":29600,"station_id":"cpo3532slgdg3j2ikp40","pricing_plan_id":"cebpf4jnsgd1na2vs0mg"},{"bike_id":"ba1b3c02-e4c1-4a58-b229-cf59f4f91c13","system_id":"levelo_inurba_marseille","lat":43.30421,"lon":5.41286,"is_reserved":false,"is_disabled":false,"rental_uris":{"android":"levelo://app?vid=ba1b3c02-e4c1-4a58-b229-cf59f4f91c13","ios":"levelo://app?vid=ba1b3c02-e4c1-4a58-b229-cf59f4f91c13"},"vehicle_type_id":"4","last_reported":1728238216,"current_range_meters":8000,"station_id":"ce4bhop2rcd13ifvqh8g","pricing_plan_id":"cebpf4jnsgd1na2vs0mg"},{"bike_id":"6266ab0d-036e-4351-aec4-c2f2013119e5","system_id":"levelo_inurba_marseille","lat":43.32484,"lon":5.36577,"is_reserved":false,"is_disabled":false,"rental_uris":{"android":"levelo://app?vid=6266ab0d-036e-4351-aec4-c2f2013119e5","ios":"levelo://app?vid=6266ab0d-036e-4351-aec4-c2f2013119e5"},"vehicle_type_id":"4","last_reported":1728238216,"current_range_meters":38800,"station_id":"ce4bhs12rcd13ifvqhvg","pricing_plan_id":"cebpf4jnsgd1na2vs0mg"},{"bike_id":"81b07a05-4c57-4e76-99d6-5f6e3acbb201","system_id":"levelo_inurba_marseille","lat":43.23061,"lon":5.35496,"is_reserved":false,"is_disabled":false,"rental_uris":{"android":"levelo://app?vid=81b07a05-4c57-4e76-99d6-5f6e3acbb201","ios":"levelo://app?vid=81b07a05-4c57-4e76-99d6-5f6e3acbb201"},"vehicle_type_id":"4","last_reported":1728238216,"current_range_meters":17200,"station_id":"cpo3342slgdg3j2ifvpg","pricing_plan_id":"cebpf4jnsgd1na2vs0mg"},{"bike_id":"740d99a1-8608-4232-9f64-2019b1ce428e","system_id":"levelo_inurba_marseille","lat":43.30955,"lon":5.39035,"is_reserved":false,"is_disabled":false,"rental_uris":{"android":"levelo://app?vid=740d99a1-8608-4232-9f64-2019b1ce428e","ios":"levelo://app?vid=740d99a1-8608-4232-9f64-2019b1ce428e"},"vehicle_type_id":"4","last_reported":1728238216,"current_range_meters":30800,"station_id":"ce4bgup2rcd13ifvqco0","pricing_plan_id":"cebpf4jnsgd1na2vs0mg"},{"bike_id":"a612acab-c65c-4383-8220-be2e975105bc","system_id":"levelo_inurba_marseille","lat":43.254669,"lon":5.410233,"is_reserved":false,"is_disabled":false,"rental_uris":{"android":"levelo://app?vid=a612acab-c65c-4383-8220-be2e975105bc","ios":"levelo://app?vid=a612acab-c65c-4383-8220-be2e975105bc"},"vehicle_type_id":"4","last_reported":1728238216,"current_range_meters":7200,"station_id":"","pricing_plan_id":"cebpf4jnsgd1na2vs0mg"},{"bike_id":"7b5acb30-7728-4d2f-b8de-cc88114cf385","system_id":"levelo_inurba_marseille","lat":43.23157,"lon":5.43722,"is_reserved":false,"is_disabled":false,"rental_uris":{"android":"levelo://app?vid=7b5acb30-7728-4d2f-b8de-cc88114cf385","ios":"levelo://app?vid=7b5acb30-7728-4d2f-b8de-cc88114cf385"},"vehicle_type_id":"4","last_reported":1728238216,"current_range_meters":26000,"station_id":"ce4bhmp2rcd13ifvqgog","pricing_plan_id":"cebpf4jnsgd1na2vs0mg"},{"bike_id":"d685cdd8-2cc7-41fe-ac8f-064af163f6fd","system_id":"levelo_inurba_marseille","lat":43.27562,"lon":5.38425,"is_reserved":false,"is_disabled":false,"rental_uris":{"android":"levelo://app?vid=d685cdd8-2cc7-41fe-ac8f-064af163f6fd","ios":"levelo://app?vid=d685cdd8-2cc7-41fe-ac8f-064af163f6fd"},"vehicle_type_id":"4","last_reported":1728238216,"current_range_meters":10000,"station_id":"ce4bhh92rcd13ifvqfi0","pricing_plan_id":"cebpf4jnsgd1na2vs0mg"},{"bike_id":"67dd937e-3c09-4833-b8b1-6e61c38f1488","system_id":"levelo_inurba_marseille","lat":43.29967,"lon":5.41326,"is_reserved":false,"is_disabled":false,"rental_uris":{"android":"levelo://app?vid=67dd937e-3c09-4833-b8b1-6e61c38f1488","ios":"levelo://app?vid=67dd937e-3c09-4833-b8b1-6e61c38f1488"},"vehicle_type_id":"4","last_reported":1728238216,"current_range_meters":37600,"station_id":"ce4bhp12rcd13ifvqh9g","pricing_plan_id":"cebpf4jnsgd1na2vs0mg"},{"bike_id":"249ba857-c21a-4cf9-b612-6eace3a3311f","system_id":"levelo_inurba_marseille","lat":43.270675,"lon":5.422747,"is_reserved":false,"is_disabled":false,"rental_uris":{"android":"levelo://app?vid=249ba857-c21a-4cf9-b612-6eace3a3311f","ios":"levelo://app?vid=249ba857-c21a-4cf9-b612-6eace3a3311f"},"vehicle_type_id":"4","last_reported":1728238216,"current_range_meters":25200,"station_id":"ce4bhk92rcd13ifvqgb0","pricing_plan_id":"cebpf4jnsgd1na2vs0mg"},{"bike_id":"32ab325a-0e98-4bb3-809c-c26d46577549","system_id":"levelo_inurba_marseille","lat":43.22932,"lon":5.35386,"is_reserved":false,"is_disabled":false,"rental_uris":{"android":"levelo://app?vid=32ab325a-0e98-4bb3-809c-c26d46577549","ios":"levelo://app?vid=32ab325a-0e98-4bb3-809c-c26d46577549"},"vehicle_type_id":"4","last_reported":1728238216,"current_range_meters":25600,"station_id":"cpo3532slgdg3j2ikp40","pricing_plan_id":"cebpf4jnsgd1na2vs0mg"},{"bike_id":"21814611-01da-4a56-bde2-76253f0cdaa1","system_id":"levelo_inurba_marseille","lat":43.27074,"lon":5.42284,"is_reserved":false,"is_disabled":false,"rental_uris":{"android":"levelo://app?vid=21814611-01da-4a56-bde2-76253f0cdaa1","ios":"levelo://app?vid=21814611-01da-4a56-bde2-76253f0cdaa1"},"vehicle_type_id":"4","last_reported":1728238216,"current_range_meters":38800,"station_id":"ce4bhk92rcd13ifvqgb0","pricing_plan_id":"cebpf4jnsgd1na2vs0mg"},{"bike_id":"5a7d0c5a-2b02-4bfc-a21c-1ef75bd28d01","system_id":"levelo_inurba_marseille","lat":43.27318,"lon":5.39081,"is_reserved":false,"is_disabled":false,"rental_uris":{"android":"levelo://app?vid=5a7d0c5a-2b02-4bfc-a21c-1ef75bd28d01","ios":"levelo://app?vid=5a7d0c5a-2b02-4bfc-a21c-1ef75bd28d01"},"vehicle_type_id":"4","last_reported":1728238216,"current_range_meters":10800,"station_id":"ce4bhgp2rcd13ifvqfe0","pricing_plan_id":"cebpf4jnsgd1na2vs0mg"},{"bike_id":"03ebdfef-60b9-4383-b780-f6e10ef5dff9","system_id":"levelo_inurba_marseille","lat":43.33755,"lon":5.37455,"is_reserved":false,"is_disabled":false,"rental_uris":{"android":"levelo://app?vid=03ebdfef-60b9-4383-b780-f6e10ef5dff9","ios":"levelo://app?vid=03ebdfef-60b9-4383-b780-f6e10ef5dff9"},"vehicle_type_id":"4","last_reported":1728238216,"current_range_meters":26000,"station_id":"","pricing_plan_id":"cebpf4jnsgd1na2vs0mg"},{"bike_id":"2a34dffa-58de-40fa-b6cb-c59c82cee1f7","system_id":"levelo_inurba_marseille","lat":43.26414,"lon":5.40554,"is_reserved":false,"is_disabled":false,"rental_uris":{"android":"levelo://app?vid=2a34dffa-58de-40fa-b6cb-c59c82cee1f7","ios":"levelo://app?vid=2a34dffa-58de-40fa-b6cb-c59c82cee1f7"},"vehicle_type_id":"4","last_reported":1728238216,"current_range_meters":12000,"station_id":"","pricing_plan_id":"cebpf4jnsgd1na2vs0mg"},{"bike_id":"0188133f-a829-46bc-83bf-4a858c857d38","system_id":"levelo_inurba_marseille","lat":43.27072,"lon":5.42281,"is_reserved":false,"is_disabled":false,"rental_uris":{"android":"levelo://app?vid=0188133f-a829-46bc-83bf-4a858c857d38","ios":"levelo://app?vid=0188133f-a829-46bc-83bf-4a858c857d38"},"vehicle_type_id":"4","last_reported":1728238216,"current_range_meters":32000,"station_id":"ce4bhk92rcd13ifvqgb0","pricing_plan_id":"cebpf4jnsgd1na2vs0mg"},{"bike_id":"8c4ede2a-8479-4951-912b-e9104b176599","system_id":"levelo_inurba_marseille","lat":43.33721,"lon":5.39206,"is_reserved":false,"is_disabled":false,"rental_uris":{"android":"levelo://app?vid=8c4ede2a-8479-4951-912b-e9104b176599","ios":"levelo://app?vid=8c4ede2a-8479-4951-912b-e9104b176599"},"vehicle_type_id":"4","last_reported":1728238216,"current_range_meters":6800,"station_id":"ce4bhr92rcd13ifvqhsg","pricing_plan_id":"cebpf4jnsgd1na2vs0mg"},{"bike_id":"b606995e-0091-4cf3-a9dd-e3db4c3b65c6","system_id":"levelo_inurba_marseille","lat":43.30135,"lon":5.39873,"is_reserved":false,"is_disabled":false,"rental_uris":{"android":"levelo://app?vid=b606995e-0091-4cf3-a9dd-e3db4c3b65c6","ios":"levelo://app?vid=b606995e-0091-4cf3-a9dd-e3db4c3b65c6"},"vehicle_type_id":"4","last_reported":1728238216,"current_range_meters":3600,"station_id":"ce4bh0h2rcd13ifvqd40","pricing_plan_id":"cebpf4jnsgd1na2vs0mg"},{"bike_id":"4018fa26-9a2a-4214-af21-76b3667a940b","system_id":"levelo_inurba_marseille","lat":43.337624,"lon":5.374328,"is_reserved":false,"is_disabled":false,"rental_uris":{"android":"levelo://app?vid=4018fa26-9a2a-4214-af21-76b3667a940b","ios":"levelo://app?vid=4018fa26-9a2a-4214-af21-76b3667a940b"},"vehicle_type_id":"4","last_reported":1728238216,"current_range_meters":27200,"station_id":"","pricing_plan_id":"cebpf4jnsgd1na2vs0mg"},{"bike_id":"1c171f7c-ff3e-4912-9b7b-48ee5d0e2652","system_id":"levelo_inurba_marseille","lat":43.30599,"lon":5.39368,"is_reserved":false,"is_disabled":false,"rental_uris":{"android":"levelo://app?vid=1c171f7c-ff3e-4912-9b7b-48ee5d0e2652","ios":"levelo://app?vid=1c171f7c-ff3e-4912-9b7b-48ee5d0e2652"},"vehicle_type_id":"4","last_reported":1728238216,"current_range_meters":38800,"station_id":"ce4bh0p2rcd13ifvqd80","pricing_plan_id":"cebpf4jnsgd1na2vs0mg"},{"bike_id":"47eac1fe-2ca6-4418-8b2f-3564461491d6","system_id":"levelo_inurba_marseille","lat":43.27926,"lon":5.39586,"is_reserved":false,"is_disabled":false,"rental_uris":{"android":"levelo://app?vid=47eac1fe-2ca6-4418-8b2f-3564461491d6","ios":"levelo://app?vid=47eac1fe-2ca6-4418-8b2f-3564461491d6"},"vehicle_type_id":"4","last_reported":1728238216,"current_range_meters":29600,"station_id":"ce4bhf92rcd13ifvqf40","pricing_plan_id":"cebpf4jnsgd1na2vs0mg"},{"bike_id":"35db5aab-a536-4286-87d7-90ec43783f24","system_id":"levelo_inurba_marseille","lat":43.23194,"lon":5.35551,"is_reserved":false,"is_disabled":false,"rental_uris":{"android":"levelo://app?vid=35db5aab-a536-4286-87d7-90ec43783f24","ios":"levelo://app?vid=35db5aab-a536-4286-87d7-90ec43783f24"},"vehicle_type_id":"4","last_reported":1728238216,"current_range_meters":38800,"station_id":"ce4bhu92rcd13ifvqi70","pricing_plan_id":"cebpf4jnsgd1na2vs0mg"},{"bike_id":"ac7477e2-647f-4698-b2f1-05ac6bd7ca79","system_id":"levelo_inurba_marseille","lat":43.27375,"lon":5.36266,"is_reserved":false,"is_disabled":false,"rental_uris":{"android":"levelo://app?vid=ac7477e2-647f-4698-b2f1-05ac6bd7ca79","ios":"levelo://app?vid=ac7477e2-647f-4698-b2f1-05ac6bd7ca79"},"vehicle_type_id":"4","last_reported":1728238216,"current_range_meters":32000,"station_id":"ce4bhbh2rcd13ifvqeo0","pricing_plan_id":"cebpf4jnsgd1na2vs0mg"},{"bike_id":"b22cc370-28d2-4b93-8c00-bdeaf9046871","system_id":"levelo_inurba_marseille","lat":43.31493,"lon":5.37307,"is_reserved":false,"is_disabled":false,"rental_uris":{"android":"levelo://app?vid=b22cc370-28d2-4b93-8c00-bdeaf9046871","ios":"levelo://app?vid=b22cc370-28d2-4b93-8c00-bdeaf9046871"},"vehicle_type_id":"4","last_reported":1728238216,"current_range_meters":39200,"station_id":"ce4bgt12rcd13ifvqcd0","pricing_plan_id":"cebpf4jnsgd1na2vs0mg"},{"bike_id":"8337a30c-604f-4009-babc-119eaa06ea86","system_id":"levelo_inurba_marseille","lat":43.295373,"lon":5.385811,"is_reserved":false,"is_disabled":false,"rental_uris":{"android":"levelo://app?vid=8337a30c-604f-4009-babc-119eaa06ea86","ios":"levelo://app?vid=8337a30c-604f-4009-babc-119eaa06ea86"},"vehicle_type_id":"4","last_reported":1728238216,"current_range_meters":3200,"station_id":"ce4bgih2rcd13ifvqba0","pricing_plan_id":"cebpf4jnsgd1na2vs0mg"},{"bike_id":"62dfd99c-f976-4937-b2d0-5b50f5ae699f","system_id":"levelo_inurba_marseille","lat":43.24169,"lon":5.36401,"is_reserved":false,"is_disabled":false,"rental_uris":{"android":"levelo://app?vid=62dfd99c-f976-4937-b2d0-5b50f5ae699f","ios":"levelo://app?vid=62dfd99c-f976-4937-b2d0-5b50f5ae699f"},"vehicle_type_id":"4","last_reported":1728238216,"current_range_meters":14800,"station_id":"cpo36qri1sfpv3e86is0","pricing_plan_id":"cebpf4jnsgd1na2vs0mg"},{"bike_id":"66e01dd3-c980-4fa4-860a-1aec4121f8d0","system_id":"levelo_inurba_marseille","lat":43.288704,"lon":5.359765,"is_reserved":false,"is_disabled":false,"rental_uris":{"android":"levelo://app?vid=66e01dd3-c980-4fa4-860a-1aec4121f8d0","ios":"levelo://app?vid=66e01dd3-c980-4fa4-860a-1aec4121f8d0"},"vehicle_type_id":"4","last_reported":1728238216,"current_range_meters":16400,"station_id":"ce4bhap2rcd13ifvqek0","pricing_plan_id":"cebpf4jnsgd1na2vs0mg"},{"bike_id":"a419d6f3-292c-4f6d-8f1f-8c25841d19b3","system_id":"levelo_inurba_marseille","lat":43.29896,"lon":5.38167,"is_reserved":false,"is_disabled":false,"rental_uris":{"android":"levelo://app?vid=a419d6f3-292c-4f6d-8f1f-8c25841d19b3","ios":"levelo://app?vid=a419d6f3-292c-4f6d-8f1f-8c25841d19b3"},"vehicle_type_id":"4","last_reported":1728238216,"current_range_meters":18000,"station_id":"ce4bgj12rcd13ifvqbc0","pricing_plan_id":"cebpf4jnsgd1na2vs0mg"},{"bike_id":"491813ec-5bcd-4eda-acb2-c01ccb4e9894","system_id":"levelo_inurba_marseille","lat":43.33766,"lon":5.37457,"is_reserved":false,"is_disabled":false,"rental_uris":{"android":"levelo://app?vid=491813ec-5bcd-4eda-acb2-c01ccb4e9894","ios":"levelo://app?vid=491813ec-5bcd-4eda-acb2-c01ccb4e9894"},"vehicle_type_id":"4","last_reported":1728238216,"current_range_meters":26000,"station_id":"","pricing_plan_id":"cebpf4jnsgd1na2vs0mg"},{"bike_id":"6cc0fae9-41d8-4a6b-9070-8ba788a2f70a","system_id":"levelo_inurba_marseille","lat":43.24073,"lon":5.37769,"is_reserved":false,"is_disabled":false,"rental_uris":{"android":"levelo://app?vid=6cc0fae9-41d8-4a6b-9070-8ba788a2f70a","ios":"levelo://app?vid=6cc0fae9-41d8-4a6b-9070-8ba788a2f70a"},"vehicle_type_id":"4","last_reported":1728238216,"current_range_meters":4400,"station_id":"ce4bhnp2rcd13ifvqgvg","pricing_plan_id":"cebpf4jnsgd1na2vs0mg"},{"bike_id":"8066cbd9-6f5f-4c8b-82e0-670217342883","system_id":"levelo_inurba_marseille","lat":43.245405,"lon":5.395192,"is_reserved":false,"is_disabled":false,"rental_uris":{"android":"levelo://app?vid=8066cbd9-6f5f-4c8b-82e0-670217342883","ios":"levelo://app?vid=8066cbd9-6f5f-4c8b-82e0-670217342883"},"vehicle_type_id":"4","last_reported":1728238216,"current_range_meters":32400,"station_id":"ce4bhlp2rcd13ifvqgjg","pricing_plan_id":"cebpf4jnsgd1na2vs0mg"},{"bike_id":"870ecdbf-3528-4277-82a5-269de3374c1c","system_id":"levelo_inurba_marseille","lat":43.27075,"lon":5.42283,"is_reserved":false,"is_disabled":false,"rental_uris":{"android":"levelo://app?vid=870ecdbf-3528-4277-82a5-269de3374c1c","ios":"levelo://app?vid=870ecdbf-3528-4277-82a5-269de3374c1c"},"vehicle_type_id":"4","last_reported":1728238216,"current_range_meters":38800,"station_id":"ce4bhk92rcd13ifvqgb0","pricing_plan_id":"cebpf4jnsgd1na2vs0mg"},{"bike_id":"a7c8a6a7-5a32-4a07-be5d-f4b583728d14","system_id":"levelo_inurba_marseille","lat":43.27558,"lon":5.38432,"is_reserved":false,"is_disabled":false,"rental_uris":{"android":"levelo://app?vid=a7c8a6a7-5a32-4a07-be5d-f4b583728d14","ios":"levelo://app?vid=a7c8a6a7-5a32-4a07-be5d-f4b583728d14"},"vehicle_type_id":"4","last_reported":1728238216,"current_range_meters":3600,"station_id":"ce4bhh92rcd13ifvqfi0","pricing_plan_id":"cebpf4jnsgd1na2vs0mg"},{"bike_id":"baba7691-81ff-4c7d-90d9-c89eba9696cb","system_id":"levelo_inurba_marseille","lat":43.25929,"lon":5.40921,"is_reserved":false,"is_disabled":false,"rental_uris":{"android":"levelo://app?vid=baba7691-81ff-4c7d-90d9-c89eba9696cb","ios":"levelo://app?vid=baba7691-81ff-4c7d-90d9-c89eba9696cb"},"vehicle_type_id":"4","last_reported":1728238216,"current_range_meters":30400,"station_id":"ce4bhm92rcd13ifvqglg","pricing_plan_id":"cebpf4jnsgd1na2vs0mg"},{"bike_id":"3a201e2c-98b4-4764-90d8-6bb4ed2bcd0d","system_id":"levelo_inurba_marseille","lat":43.28736,"lon":5.39977,"is_reserved":false,"is_disabled":false,"rental_uris":{"android":"levelo://app?vid=3a201e2c-98b4-4764-90d8-6bb4ed2bcd0d","ios":"levelo://app?vid=3a201e2c-98b4-4764-90d8-6bb4ed2bcd0d"},"vehicle_type_id":"4","last_reported":1728238216,"current_range_meters":7200,"station_id":"ce4bho92rcd13ifvqh3g","pricing_plan_id":"cebpf4jnsgd1na2vs0mg"},{"bike_id":"295ba97e-c082-48bf-a3b8-8688d8f64e2b","system_id":"levelo_inurba_marseille","lat":43.29622,"lon":5.37712,"is_reserved":false,"is_disabled":false,"rental_uris":{"android":"levelo://app?vid=295ba97e-c082-48bf-a3b8-8688d8f64e2b","ios":"levelo://app?vid=295ba97e-c082-48bf-a3b8-8688d8f64e2b"},"vehicle_type_id":"4","last_reported":1728238216,"current_range_meters":10000,"station_id":"ce4bgi92rcd13ifvqb90","pricing_plan_id":"cebpf4jnsgd1na2vs0mg"},{"bike_id":"70a048a7-8332-48a2-a5fe-96a72eb55076","system_id":"levelo_inurba_marseille","lat":43.29535,"lon":5.39023,"is_reserved":false,"is_disabled":false,"rental_uris":{"android":"levelo://app?vid=70a048a7-8332-48a2-a5fe-96a72eb55076","ios":"levelo://app?vid=70a048a7-8332-48a2-a5fe-96a72eb55076"},"vehicle_type_id":"4","last_reported":1728238216,"current_range_meters":27600,"station_id":"ce4bh3p2rcd13ifvqdp0","pricing_plan_id":"cebpf4jnsgd1na2vs0mg"},{"bike_id":"d6b7888b-acec-4287-a11b-2d01ea404094","system_id":"levelo_inurba_marseille","lat":43.24389,"lon":5.37058,"is_reserved":false,"is_disabled":false,"rental_uris":{"android":"levelo://app?vid=d6b7888b-acec-4287-a11b-2d01ea404094","ios":"levelo://app?vid=d6b7888b-acec-4287-a11b-2d01ea404094"},"vehicle_type_id":"4","last_reported":1728238216,"current_range_meters":20800,"station_id":"ce4bhhh2rcd13ifvqfk0","pricing_plan_id":"cebpf4jnsgd1na2vs0mg"},{"bike_id":"d23ddbe4-840b-4d6d-8e13-a20922334a77","system_id":"levelo_inurba_marseille","lat":43.32486,"lon":5.36555,"is_reserved":false,"is_disabled":false,"rental_uris":{"android":"levelo://app?vid=d23ddbe4-840b-4d6d-8e13-a20922334a77","ios":"levelo://app?vid=d23ddbe4-840b-4d6d-8e13-a20922334a77"},"vehicle_type_id":"4","last_reported":1728238216,"current_range_meters":38800,"station_id":"ce4bhs12rcd13ifvqhvg","pricing_plan_id":"cebpf4jnsgd1na2vs0mg"},{"bike_id":"6ae7d0e0-1623-4439-8d68-fec3c5db110c","system_id":"levelo_inurba_marseille","lat":43.22932,"lon":5.35378,"is_reserved":false,"is_disabled":false,"rental_uris":{"android":"levelo://app?vid=6ae7d0e0-1623-4439-8d68-fec3c5db110c","ios":"levelo://app?vid=6ae7d0e0-1623-4439-8d68-fec3c5db110c"},"vehicle_type_id":"4","last_reported":1728238216,"current_range_meters":36400,"station_id":"cpo3532slgdg3j2ikp40","pricing_plan_id":"cebpf4jnsgd1na2vs0mg"},{"bike_id":"f51a1cd9-722c-4aa4-b66f-c5a822ca2894","system_id":"levelo_inurba_marseille","lat":43.26784,"lon":5.39414,"is_reserved":false,"is_disabled":false,"rental_uris":{"android":"levelo://app?vid=f51a1cd9-722c-4aa4-b66f-c5a822ca2894","ios":"levelo://app?vid=f51a1cd9-722c-4aa4-b66f-c5a822ca2894"},"vehicle_type_id":"4","last_reported":1728238216,"current_range_meters":3600,"station_id":"ce4bhh12rcd13ifvqfg0","pricing_plan_id":"cebpf4jnsgd1na2vs0mg"},{"bike_id":"4af55307-045f-4c66-a045-a91d88bb4c16","system_id":"levelo_inurba_marseille","lat":43.22931,"lon":5.35376,"is_reserved":false,"is_disabled":false,"rental_uris":{"android":"levelo://app?vid=4af55307-045f-4c66-a045-a91d88bb4c16","ios":"levelo://app?vid=4af55307-045f-4c66-a045-a91d88bb4c16"},"vehicle_type_id":"4","last_reported":1728238216,"current_range_meters":30000,"station_id":"cpo3532slgdg3j2ikp40","pricing_plan_id":"cebpf4jnsgd1na2vs0mg"},{"bike_id":"e1b524e6-03eb-4607-981b-c6c2b07008ab","system_id":"levelo_inurba_marseille","lat":43.24667,"lon":5.38172,"is_reserved":false,"is_disabled":false,"rental_uris":{"android":"levelo://app?vid=e1b524e6-03eb-4607-981b-c6c2b07008ab","ios":"levelo://app?vid=e1b524e6-03eb-4607-981b-c6c2b07008ab"},"vehicle_type_id":"4","last_reported":1728238216,"current_range_meters":4400,"station_id":"ce4bhih2rcd13ifvqfr0","pricing_plan_id":"cebpf4jnsgd1na2vs0mg"},{"bike_id":"16d63a31-af36-456a-8d95-703a8a50df9c","system_id":"levelo_inurba_marseille","lat":43.29299,"lon":5.37465,"is_reserved":false,"is_disabled":false,"rental_uris":{"android":"levelo://app?vid=16d63a31-af36-456a-8d95-703a8a50df9c","ios":"levelo://app?vid=16d63a31-af36-456a-8d95-703a8a50df9c"},"vehicle_type_id":"4","last_reported":1728238216,"current_range_meters":25200,"station_id":"ce4bgi12rcd13ifvqb70","pricing_plan_id":"cebpf4jnsgd1na2vs0mg"},{"bike_id":"13a35d1a-1c21-4cdd-9282-17040c700716","system_id":"levelo_inurba_marseille","lat":43.32536,"lon":5.41443,"is_reserved":false,"is_disabled":false,"rental_uris":{"android":"levelo://app?vid=13a35d1a-1c21-4cdd-9282-17040c700716","ios":"levelo://app?vid=13a35d1a-1c21-4cdd-9282-17040c700716"},"vehicle_type_id":"4","last_reported":1728238216,"current_range_meters":33600,"station_id":"ce4bhq12rcd13ifvqhhg","pricing_plan_id":"cebpf4jnsgd1na2vs0mg"},{"bike_id":"7e3fe2b8-fdda-436a-bdfe-f13bcf035eb4","system_id":"levelo_inurba_marseille","lat":43.28692,"lon":5.37405,"is_reserved":false,"is_disabled":false,"rental_uris":{"android":"levelo://app?vid=7e3fe2b8-fdda-436a-bdfe-f13bcf035eb4","ios":"levelo://app?vid=7e3fe2b8-fdda-436a-bdfe-f13bcf035eb4"},"vehicle_type_id":"4","last_reported":1728238216,"current_range_meters":29600,"station_id":"ce4bh3p2rcd13ifvqdq0","pricing_plan_id":"cebpf4jnsgd1na2vs0mg"},{"bike_id":"265b6257-cac5-4700-be81-5022c39ebf02","system_id":"levelo_inurba_marseille","lat":43.245893,"lon":5.395137,"is_reserved":false,"is_disabled":false,"rental_uris":{"android":"levelo://app?vid=265b6257-cac5-4700-be81-5022c39ebf02","ios":"levelo://app?vid=265b6257-cac5-4700-be81-5022c39ebf02"},"vehicle_type_id":"4","last_reported":1728238216,"current_range_meters":30800,"station_id":"ce4bhlp2rcd13ifvqgjg","pricing_plan_id":"cebpf4jnsgd1na2vs0mg"},{"bike_id":"9994d3a1-3328-49bb-80f8-339faa611237","system_id":"levelo_inurba_marseille","lat":43.28576,"lon":5.39502,"is_reserved":false,"is_disabled":false,"rental_uris":{"android":"levelo://app?vid=9994d3a1-3328-49bb-80f8-339faa611237","ios":"levelo://app?vid=9994d3a1-3328-49bb-80f8-339faa611237"},"vehicle_type_id":"4","last_reported":1728238216,"current_range_meters":7200,"station_id":"ce4bh292rcd13ifvqdg0","pricing_plan_id":"cebpf4jnsgd1na2vs0mg"},{"bike_id":"458f5828-3d56-4435-88db-2bbc4971abb9","system_id":"levelo_inurba_marseille","lat":43.23179,"lon":5.39994,"is_reserved":false,"is_disabled":false,"rental_uris":{"android":"levelo://app?vid=458f5828-3d56-4435-88db-2bbc4971abb9","ios":"levelo://app?vid=458f5828-3d56-4435-88db-2bbc4971abb9"},"vehicle_type_id":"4","last_reported":1728238216,"current_range_meters":19200,"station_id":"ce4bhn12rcd13ifvqgqg","pricing_plan_id":"cebpf4jnsgd1na2vs0mg"},{"bike_id":"611aea00-faf5-454a-be2f-c5ec07b3fa97","system_id":"levelo_inurba_marseille","lat":43.31686,"lon":5.40474,"is_reserved":false,"is_disabled":false,"rental_uris":{"android":"levelo://app?vid=611aea00-faf5-454a-be2f-c5ec07b3fa97","ios":"levelo://app?vid=611aea00-faf5-454a-be2f-c5ec07b3fa97"},"vehicle_type_id":"4","last_reported":1728238216,"current_range_meters":9600,"station_id":"ce4bh012rcd13ifvqd00","pricing_plan_id":"cebpf4jnsgd1na2vs0mg"},{"bike_id":"97ef281f-c717-429c-a078-d6a368902950","system_id":"levelo_inurba_marseille","lat":43.21347,"lon":5.34941,"is_reserved":false,"is_disabled":false,"rental_uris":{"android":"levelo://app?vid=97ef281f-c717-429c-a078-d6a368902950","ios":"levelo://app?vid=97ef281f-c717-429c-a078-d6a368902950"},"vehicle_type_id":"4","last_reported":1728238216,"current_range_meters":24000,"station_id":"crv51consjfaj9uu89c0","pricing_plan_id":"cebpf4jnsgd1na2vs0mg"},{"bike_id":"19567248-4cf6-4760-8327-7d22d1bb7ee2","system_id":"levelo_inurba_marseille","lat":43.2886,"lon":5.35855,"is_reserved":false,"is_disabled":false,"rental_uris":{"android":"levelo://app?vid=19567248-4cf6-4760-8327-7d22d1bb7ee2","ios":"levelo://app?vid=19567248-4cf6-4760-8327-7d22d1bb7ee2"},"vehicle_type_id":"4","last_reported":1728238216,"current_range_meters":14000,"station_id":"ce4bhb12rcd13ifvqem0","pricing_plan_id":"cebpf4jnsgd1na2vs0mg"},{"bike_id":"5fc71de8-51c6-4977-ab35-bac20c38e473","system_id":"levelo_inurba_marseille","lat":43.30651,"lon":5.40093,"is_reserved":false,"is_disabled":false,"rental_uris":{"android":"levelo://app?vid=5fc71de8-51c6-4977-ab35-bac20c38e473","ios":"levelo://app?vid=5fc71de8-51c6-4977-ab35-bac20c38e473"},"vehicle_type_id":"4","last_reported":1728238216,"current_range_meters":28800,"station_id":"ce4bh112rcd13ifvqda0","pricing_plan_id":"cebpf4jnsgd1na2vs0mg"},{"bike_id":"151050ac-5d7c-4081-98f2-0912dcc16c5b","system_id":"levelo_inurba_marseille","lat":43.285065,"lon":5.384082,"is_reserved":false,"is_disabled":false,"rental_uris":{"android":"levelo://app?vid=151050ac-5d7c-4081-98f2-0912dcc16c5b","ios":"levelo://app?vid=151050ac-5d7c-4081-98f2-0912dcc16c5b"},"vehicle_type_id":"4","last_reported":1728238216,"current_range_meters":6400,"station_id":"ce4bh512rcd13ifvqe3g","pricing_plan_id":"cebpf4jnsgd1na2vs0mg"},{"bike_id":"fa55c749-85a0-463c-8ba8-0b49617413d7","system_id":"levelo_inurba_marseille","lat":43.31489,"lon":5.37317,"is_reserved":false,"is_disabled":false,"rental_uris":{"android":"levelo://app?vid=fa55c749-85a0-463c-8ba8-0b49617413d7","ios":"levelo://app?vid=fa55c749-85a0-463c-8ba8-0b49617413d7"},"vehicle_type_id":"4","last_reported":1728238216,"current_range_meters":28800,"station_id":"ce4bgt12rcd13ifvqcd0","pricing_plan_id":"cebpf4jnsgd1na2vs0mg"},{"bike_id":"190548a0-05d5-4bdb-bc1f-d4a1ad9e157a","system_id":"levelo_inurba_marseille","lat":43.27995,"lon":5.41658,"is_reserved":false,"is_disabled":false,"rental_uris":{"android":"levelo://app?vid=190548a0-05d5-4bdb-bc1f-d4a1ad9e157a","ios":"levelo://app?vid=190548a0-05d5-4bdb-bc1f-d4a1ad9e157a"},"vehicle_type_id":"4","last_reported":1728238216,"current_range_meters":12800,"station_id":"ce4bho12rcd13ifvqh1g","pricing_plan_id":"cebpf4jnsgd1na2vs0mg"},{"bike_id":"304f0f46-778c-4448-8270-d4d4de7ea60c","system_id":"levelo_inurba_marseille","lat":43.27915,"lon":5.39582,"is_reserved":false,"is_disabled":false,"rental_uris":{"android":"levelo://app?vid=304f0f46-778c-4448-8270-d4d4de7ea60c","ios":"levelo://app?vid=304f0f46-778c-4448-8270-d4d4de7ea60c"},"vehicle_type_id":"4","last_reported":1728238216,"current_range_meters":12800,"station_id":"ce4bhf92rcd13ifvqf40","pricing_plan_id":"cebpf4jnsgd1na2vs0mg"},{"bike_id":"8ab34a30-55c6-4dd9-8378-d3c7bd7c01ef","system_id":"levelo_inurba_marseille","lat":43.28159,"lon":5.42651,"is_reserved":false,"is_disabled":false,"rental_uris":{"android":"levelo://app?vid=8ab34a30-55c6-4dd9-8378-d3c7bd7c01ef","ios":"levelo://app?vid=8ab34a30-55c6-4dd9-8378-d3c7bd7c01ef"},"vehicle_type_id":"4","last_reported":1728238216,"current_range_meters":32800,"station_id":"ce4bhnh2rcd13ifvqgug","pricing_plan_id":"cebpf4jnsgd1na2vs0mg"},{"bike_id":"b2ee7e2f-43a2-4a7e-a754-77d0f53ad9a9","system_id":"levelo_inurba_marseille","lat":43.245731,"lon":5.395274,"is_reserved":false,"is_disabled":false,"rental_uris":{"android":"levelo://app?vid=b2ee7e2f-43a2-4a7e-a754-77d0f53ad9a9","ios":"levelo://app?vid=b2ee7e2f-43a2-4a7e-a754-77d0f53ad9a9"},"vehicle_type_id":"4","last_reported":1728238216,"current_range_meters":10800,"station_id":"ce4bhlp2rcd13ifvqgjg","pricing_plan_id":"cebpf4jnsgd1na2vs0mg"},{"bike_id":"05ddab4b-2219-453e-b9f6-9211ae63c830","system_id":"levelo_inurba_marseille","lat":43.21343,"lon":5.34943,"is_reserved":false,"is_disabled":false,"rental_uris":{"android":"levelo://app?vid=05ddab4b-2219-453e-b9f6-9211ae63c830","ios":"levelo://app?vid=05ddab4b-2219-453e-b9f6-9211ae63c830"},"vehicle_type_id":"4","last_reported":1728238216,"current_range_meters":32000,"station_id":"crv51consjfaj9uu89c0","pricing_plan_id":"cebpf4jnsgd1na2vs0mg"},{"bike_id":"5d2a3c82-ce5e-4bfd-9db2-8c13cff9ecd9","system_id":"levelo_inurba_marseille","lat":43.29796,"lon":5.38114,"is_reserved":false,"is_disabled":false,"rental_uris":{"android":"levelo://app?vid=5d2a3c82-ce5e-4bfd-9db2-8c13cff9ecd9","ios":"levelo://app?vid=5d2a3c82-ce5e-4bfd-9db2-8c13cff9ecd9"},"vehicle_type_id":"4","last_reported":1728238216,"current_range_meters":16800,"station_id":"ce4bgip2rcd13ifvqbb0","pricing_plan_id":"cebpf4jnsgd1na2vs0mg"},{"bike_id":"d0ca1193-12e8-4ac2-9a60-4ae6e0040151","system_id":"levelo_inurba_marseille","lat":43.22932,"lon":5.35386,"is_reserved":false,"is_disabled":false,"rental_uris":{"android":"levelo://app?vid=d0ca1193-12e8-4ac2-9a60-4ae6e0040151","ios":"levelo://app?vid=d0ca1193-12e8-4ac2-9a60-4ae6e0040151"},"vehicle_type_id":"4","last_reported":1728238216,"current_range_meters":27200,"station_id":"cpo3532slgdg3j2ikp40","pricing_plan_id":"cebpf4jnsgd1na2vs0mg"},{"bike_id":"6407b479-b396-4c54-b65c-1df4d77faf38","system_id":"levelo_inurba_marseille","lat":43.25079,"lon":5.39522,"is_reserved":false,"is_disabled":false,"rental_uris":{"android":"levelo://app?vid=6407b479-b396-4c54-b65c-1df4d77faf38","ios":"levelo://app?vid=6407b479-b396-4c54-b65c-1df4d77faf38"},"vehicle_type_id":"4","last_reported":1728238216,"current_range_meters":27600,"station_id":"ce4bhm12rcd13ifvqgkg","pricing_plan_id":"cebpf4jnsgd1na2vs0mg"},{"bike_id":"a35fd4f4-64ed-4448-b17c-4216706395eb","system_id":"levelo_inurba_marseille","lat":43.28409,"lon":5.37539,"is_reserved":false,"is_disabled":false,"rental_uris":{"android":"levelo://app?vid=a35fd4f4-64ed-4448-b17c-4216706395eb","ios":"levelo://app?vid=a35fd4f4-64ed-4448-b17c-4216706395eb"},"vehicle_type_id":"4","last_reported":1728238216,"current_range_meters":22800,"station_id":"ce4bh412rcd13ifvqds0","pricing_plan_id":"cebpf4jnsgd1na2vs0mg"},{"bike_id":"380c5f96-892b-4149-92a5-e6b8bb4f7a4f","system_id":"levelo_inurba_marseille","lat":43.28657,"lon":5.36365,"is_reserved":false,"is_disabled":false,"rental_uris":{"android":"levelo://app?vid=380c5f96-892b-4149-92a5-e6b8bb4f7a4f","ios":"levelo://app?vid=380c5f96-892b-4149-92a5-e6b8bb4f7a4f"},"vehicle_type_id":"4","last_reported":1728238216,"current_range_meters":27600,"station_id":"ce4bhah2rcd13ifvqej0","pricing_plan_id":"cebpf4jnsgd1na2vs0mg"},{"bike_id":"c78d1d7d-780c-46f6-85a6-762b38230c1e","system_id":"levelo_inurba_marseille","lat":43.30461,"lon":5.37917,"is_reserved":false,"is_disabled":false,"rental_uris":{"android":"levelo://app?vid=c78d1d7d-780c-46f6-85a6-762b38230c1e","ios":"levelo://app?vid=c78d1d7d-780c-46f6-85a6-762b38230c1e"},"vehicle_type_id":"4","last_reported":1728238216,"current_range_meters":21600,"station_id":"ce4bgup2rcd13ifvqcn0","pricing_plan_id":"cebpf4jnsgd1na2vs0mg"},{"bike_id":"eba9c0da-6c41-40c3-b552-d07fed04867f","system_id":"levelo_inurba_marseille","lat":43.29522,"lon":5.39059,"is_reserved":false,"is_disabled":false,"rental_uris":{"android":"levelo://app?vid=eba9c0da-6c41-40c3-b552-d07fed04867f","ios":"levelo://app?vid=eba9c0da-6c41-40c3-b552-d07fed04867f"},"vehicle_type_id":"4","last_reported":1728238216,"current_range_meters":23200,"station_id":"ce4bh3p2rcd13ifvqdp0","pricing_plan_id":"cebpf4jnsgd1na2vs0mg"},{"bike_id":"18cab30f-71a4-424c-a58a-1028931912e7","system_id":"levelo_inurba_marseille","lat":43.27812,"lon":5.40702,"is_reserved":false,"is_disabled":false,"rental_uris":{"android":"levelo://app?vid=18cab30f-71a4-424c-a58a-1028931912e7","ios":"levelo://app?vid=18cab30f-71a4-424c-a58a-1028931912e7"},"vehicle_type_id":"4","last_reported":1728238216,"current_range_meters":29600,"station_id":"ce4bhnh2rcd13ifvqgtg","pricing_plan_id":"cebpf4jnsgd1na2vs0mg"},{"bike_id":"ffc8f193-3be2-4d04-ab9c-6d729d508fcc","system_id":"levelo_inurba_marseille","lat":43.26567,"lon":5.39017,"is_reserved":false,"is_disabled":false,"rental_uris":{"android":"levelo://app?vid=ffc8f193-3be2-4d04-ab9c-6d729d508fcc","ios":"levelo://app?vid=ffc8f193-3be2-4d04-ab9c-6d729d508fcc"},"vehicle_type_id":"4","last_reported":1728238216,"current_range_meters":3600,"station_id":"ce4bhe12rcd13ifvqf30","pricing_plan_id":"cebpf4jnsgd1na2vs0mg"},{"bike_id":"6d3c1e43-5c8a-4230-8095-c6491ca61f7d","system_id":"levelo_inurba_marseille","lat":43.29234,"lon":5.36207,"is_reserved":false,"is_disabled":false,"rental_uris":{"android":"levelo://app?vid=6d3c1e43-5c8a-4230-8095-c6491ca61f7d","ios":"levelo://app?vid=6d3c1e43-5c8a-4230-8095-c6491ca61f7d"},"vehicle_type_id":"4","last_reported":1728238216,"current_range_meters":16400,"station_id":"ce4bhbh2rcd13ifvqeqg","pricing_plan_id":"cebpf4jnsgd1na2vs0mg"},{"bike_id":"b93d00a6-19a0-4c88-a41a-175cfd71e538","system_id":"levelo_inurba_marseille","lat":43.29794,"lon":5.38224,"is_reserved":false,"is_disabled":false,"rental_uris":{"android":"levelo://app?vid=b93d00a6-19a0-4c88-a41a-175cfd71e538","ios":"levelo://app?vid=b93d00a6-19a0-4c88-a41a-175cfd71e538"},"vehicle_type_id":"4","last_reported":1728238216,"current_range_meters":28000,"station_id":"ce4bgk12rcd13ifvqbi0","pricing_plan_id":"cebpf4jnsgd1na2vs0mg"},{"bike_id":"938c0b2b-b190-463d-8c16-5b634969d4b1","system_id":"levelo_inurba_marseille","lat":43.27844,"lon":5.39212,"is_reserved":false,"is_disabled":false,"rental_uris":{"android":"levelo://app?vid=938c0b2b-b190-463d-8c16-5b634969d4b1","ios":"levelo://app?vid=938c0b2b-b190-463d-8c16-5b634969d4b1"},"vehicle_type_id":"4","last_reported":1728238216,"current_range_meters":16800,"station_id":"ce4bhjp2rcd13ifvqga0","pricing_plan_id":"cebpf4jnsgd1na2vs0mg"},{"bike_id":"9742dd28-1dc6-444e-bc4d-96a8ef90b66a","system_id":"levelo_inurba_marseille","lat":43.298,"lon":5.40408,"is_reserved":false,"is_disabled":false,"rental_uris":{"android":"levelo://app?vid=9742dd28-1dc6-444e-bc4d-96a8ef90b66a","ios":"levelo://app?vid=9742dd28-1dc6-444e-bc4d-96a8ef90b66a"},"vehicle_type_id":"4","last_reported":1728238216,"current_range_meters":20400,"station_id":"ce4bh112rcd13ifvqd90","pricing_plan_id":"cebpf4jnsgd1na2vs0mg"},{"bike_id":"868318d4-a236-40f8-a711-b321a8ebdfbc","system_id":"levelo_inurba_marseille","lat":43.25573,"lon":5.38226,"is_reserved":false,"is_disabled":false,"rental_uris":{"android":"levelo://app?vid=868318d4-a236-40f8-a711-b321a8ebdfbc","ios":"levelo://app?vid=868318d4-a236-40f8-a711-b321a8ebdfbc"},"vehicle_type_id":"4","last_reported":1728238216,"current_range_meters":30400,"station_id":"ce4bhih2rcd13ifvqfs0","pricing_plan_id":"cebpf4jnsgd1na2vs0mg"},{"bike_id":"fbe2db3f-9b7b-451a-ad48-131ae931cad3","system_id":"levelo_inurba_marseille","lat":43.25726,"lon":5.41118,"is_reserved":false,"is_disabled":false,"rental_uris":{"android":"levelo://app?vid=fbe2db3f-9b7b-451a-ad48-131ae931cad3","ios":"levelo://app?vid=fbe2db3f-9b7b-451a-ad48-131ae931cad3"},"vehicle_type_id":"4","last_reported":1728238216,"current_range_meters":14000,"station_id":"ce4bhkp2rcd13ifvqgd0","pricing_plan_id":"cebpf4jnsgd1na2vs0mg"},{"bike_id":"490889b1-cee9-4892-9db5-299333956c90","system_id":"levelo_inurba_marseille","lat":43.34143,"lon":5.40906,"is_reserved":false,"is_disabled":false,"rental_uris":{"android":"levelo://app?vid=490889b1-cee9-4892-9db5-299333956c90","ios":"levelo://app?vid=490889b1-cee9-4892-9db5-299333956c90"},"vehicle_type_id":"4","last_reported":1728238216,"current_range_meters":38000,"station_id":"ce4bhqh2rcd13ifvqhlg","pricing_plan_id":"cebpf4jnsgd1na2vs0mg"},{"bike_id":"ea30e775-8466-430d-96e1-a121d270f1bd","system_id":"levelo_inurba_marseille","lat":43.24642,"lon":5.38901,"is_reserved":false,"is_disabled":false,"rental_uris":{"android":"levelo://app?vid=ea30e775-8466-430d-96e1-a121d270f1bd","ios":"levelo://app?vid=ea30e775-8466-430d-96e1-a121d270f1bd"},"vehicle_type_id":"4","last_reported":1728238216,"current_range_meters":38800,"station_id":"ce4bhg12rcd13ifvqf60","pricing_plan_id":"cebpf4jnsgd1na2vs0mg"},{"bike_id":"917df244-6e02-4792-ad79-e43675737cb9","system_id":"levelo_inurba_marseille","lat":43.29631,"lon":5.40601,"is_reserved":false,"is_disabled":false,"rental_uris":{"android":"levelo://app?vid=917df244-6e02-4792-ad79-e43675737cb9","ios":"levelo://app?vid=917df244-6e02-4792-ad79-e43675737cb9"},"vehicle_type_id":"4","last_reported":1728238216,"current_range_meters":32000,"station_id":"ce4bh0h2rcd13ifvqd60","pricing_plan_id":"cebpf4jnsgd1na2vs0mg"},{"bike_id":"4378a0dd-7ddd-4246-9294-1e2af02e0700","system_id":"levelo_inurba_marseille","lat":43.23196,"lon":5.35552,"is_reserved":false,"is_disabled":false,"rental_uris":{"android":"levelo://app?vid=4378a0dd-7ddd-4246-9294-1e2af02e0700","ios":"levelo://app?vid=4378a0dd-7ddd-4246-9294-1e2af02e0700"},"vehicle_type_id":"4","last_reported":1728238216,"current_range_meters":8800,"station_id":"ce4bhu92rcd13ifvqi70","pricing_plan_id":"cebpf4jnsgd1na2vs0mg"},{"bike_id":"595b10ee-5414-45d6-ad62-a9286a9c3a5b","system_id":"levelo_inurba_marseille","lat":43.3089,"lon":5.39657,"is_reserved":false,"is_disabled":false,"rental_uris":{"android":"levelo://app?vid=595b10ee-5414-45d6-ad62-a9286a9c3a5b","ios":"levelo://app?vid=595b10ee-5414-45d6-ad62-a9286a9c3a5b"},"vehicle_type_id":"4","last_reported":1728238216,"current_range_meters":28000,"station_id":"ce4bh012rcd13ifvqcv0","pricing_plan_id":"cebpf4jnsgd1na2vs0mg"},{"bike_id":"ccf4b8b7-f29c-4131-8981-2492bd5db336","system_id":"levelo_inurba_marseille","lat":43.29197,"lon":5.35816,"is_reserved":false,"is_disabled":false,"rental_uris":{"android":"levelo://app?vid=ccf4b8b7-f29c-4131-8981-2492bd5db336","ios":"levelo://app?vid=ccf4b8b7-f29c-4131-8981-2492bd5db336"},"vehicle_type_id":"4","last_reported":1728238216,"current_range_meters":38000,"station_id":"ce4bhb12rcd13ifvqel0","pricing_plan_id":"cebpf4jnsgd1na2vs0mg"},{"bike_id":"256fa177-60ee-45a2-a2aa-de47baeac3b4","system_id":"levelo_inurba_marseille","lat":43.32213,"lon":5.4136,"is_reserved":false,"is_disabled":false,"rental_uris":{"android":"levelo://app?vid=256fa177-60ee-45a2-a2aa-de47baeac3b4","ios":"levelo://app?vid=256fa177-60ee-45a2-a2aa-de47baeac3b4"},"vehicle_type_id":"4","last_reported":1728238216,"current_range_meters":36400,"station_id":"","pricing_plan_id":"cebpf4jnsgd1na2vs0mg"},{"bike_id":"19657177-a128-445d-88b3-9f9f9bff6229","system_id":"levelo_inurba_marseille","lat":43.251107,"lon":5.403208,"is_reserved":false,"is_disabled":false,"rental_uris":{"android":"levelo://app?vid=19657177-a128-445d-88b3-9f9f9bff6229","ios":"levelo://app?vid=19657177-a128-445d-88b3-9f9f9bff6229"},"vehicle_type_id":"4","last_reported":1728238216,"current_range_meters":27600,"station_id":"ce4bhlh2rcd13ifvqgig","pricing_plan_id":"cebpf4jnsgd1na2vs0mg"},{"bike_id":"98fab8a1-a284-40da-8df2-14f71a37d57b","system_id":"levelo_inurba_marseille","lat":43.22935,"lon":5.35402,"is_reserved":false,"is_disabled":false,"rental_uris":{"android":"levelo://app?vid=98fab8a1-a284-40da-8df2-14f71a37d57b","ios":"levelo://app?vid=98fab8a1-a284-40da-8df2-14f71a37d57b"},"vehicle_type_id":"4","last_reported":1728238216,"current_range_meters":30800,"station_id":"","pricing_plan_id":"cebpf4jnsgd1na2vs0mg"},{"bike_id":"ca497d73-ca95-45d5-92b1-f420a9b2ab33","system_id":"levelo_inurba_marseille","lat":43.315125,"lon":5.39779,"is_reserved":false,"is_disabled":false,"rental_uris":{"android":"levelo://app?vid=ca497d73-ca95-45d5-92b1-f420a9b2ab33","ios":"levelo://app?vid=ca497d73-ca95-45d5-92b1-f420a9b2ab33"},"vehicle_type_id":"4","last_reported":1728238216,"current_range_meters":6800,"station_id":"ce4bgvp2rcd13ifvqcu0","pricing_plan_id":"cebpf4jnsgd1na2vs0mg"},{"bike_id":"21288de7-f927-43a6-aeff-787f443177ba","system_id":"levelo_inurba_marseille","lat":43.2791,"lon":5.37994,"is_reserved":false,"is_disabled":false,"rental_uris":{"android":"levelo://app?vid=21288de7-f927-43a6-aeff-787f443177ba","ios":"levelo://app?vid=21288de7-f927-43a6-aeff-787f443177ba"},"vehicle_type_id":"4","last_reported":1728238216,"current_range_meters":17200,"station_id":"ce4bhf92rcd13ifvqf50","pricing_plan_id":"cebpf4jnsgd1na2vs0mg"},{"bike_id":"93d45870-2e1c-4ed1-9664-7b219a4ed443","system_id":"levelo_inurba_marseille","lat":43.22926,"lon":5.3538,"is_reserved":false,"is_disabled":false,"rental_uris":{"android":"levelo://app?vid=93d45870-2e1c-4ed1-9664-7b219a4ed443","ios":"levelo://app?vid=93d45870-2e1c-4ed1-9664-7b219a4ed443"},"vehicle_type_id":"4","last_reported":1728238216,"current_range_meters":38800,"station_id":"cpo3532slgdg3j2ikp40","pricing_plan_id":"cebpf4jnsgd1na2vs0mg"},{"bike_id":"8ed6fb8c-e60e-4747-a05d-5c4d429ec8c0","system_id":"levelo_inurba_marseille","lat":43.33023,"lon":5.39047,"is_reserved":false,"is_disabled":false,"rental_uris":{"android":"levelo://app?vid=8ed6fb8c-e60e-4747-a05d-5c4d429ec8c0","ios":"levelo://app?vid=8ed6fb8c-e60e-4747-a05d-5c4d429ec8c0"},"vehicle_type_id":"4","last_reported":1728238216,"current_range_meters":11200,"station_id":"ce4bhr92rcd13ifvqhrg","pricing_plan_id":"cebpf4jnsgd1na2vs0mg"},{"bike_id":"83e1df73-b38b-4bf7-a974-8db3dbafa2a0","system_id":"levelo_inurba_marseille","lat":43.29259,"lon":5.36845,"is_reserved":false,"is_disabled":false,"rental_uris":{"android":"levelo://app?vid=83e1df73-b38b-4bf7-a974-8db3dbafa2a0","ios":"levelo://app?vid=83e1df73-b38b-4bf7-a974-8db3dbafa2a0"},"vehicle_type_id":"4","last_reported":1728238216,"current_range_meters":16000,"station_id":"","pricing_plan_id":"cebpf4jnsgd1na2vs0mg"},{"bike_id":"6e512044-ef12-457b-bcca-26bd86c5618a","system_id":"levelo_inurba_marseille","lat":43.23058,"lon":5.35498,"is_reserved":false,"is_disabled":false,"rental_uris":{"android":"levelo://app?vid=6e512044-ef12-457b-bcca-26bd86c5618a","ios":"levelo://app?vid=6e512044-ef12-457b-bcca-26bd86c5618a"},"vehicle_type_id":"4","last_reported":1728238216,"current_range_meters":38800,"station_id":"cpo3342slgdg3j2ifvpg","pricing_plan_id":"cebpf4jnsgd1na2vs0mg"},{"bike_id":"ad7d3ccf-7135-4bb3-9992-fea58cbba237","system_id":"levelo_inurba_marseille","lat":43.301606,"lon":5.380869,"is_reserved":false,"is_disabled":false,"rental_uris":{"android":"levelo://app?vid=ad7d3ccf-7135-4bb3-9992-fea58cbba237","ios":"levelo://app?vid=ad7d3ccf-7135-4bb3-9992-fea58cbba237"},"vehicle_type_id":"4","last_reported":1728238216,"current_range_meters":32800,"station_id":"ce4bgh92rcd13ifvqb40","pricing_plan_id":"cebpf4jnsgd1na2vs0mg"},{"bike_id":"1daf6bc6-248f-4980-92ab-f936f7f1b893","system_id":"levelo_inurba_marseille","lat":43.2871,"lon":5.39998,"is_reserved":false,"is_disabled":false,"rental_uris":{"android":"levelo://app?vid=1daf6bc6-248f-4980-92ab-f936f7f1b893","ios":"levelo://app?vid=1daf6bc6-248f-4980-92ab-f936f7f1b893"},"vehicle_type_id":"4","last_reported":1728238216,"current_range_meters":11200,"station_id":"ce4bho92rcd13ifvqh3g","pricing_plan_id":"cebpf4jnsgd1na2vs0mg"},{"bike_id":"270b90ca-7521-4165-af49-e1c727e5fa34","system_id":"levelo_inurba_marseille","lat":43.21346,"lon":5.34939,"is_reserved":false,"is_disabled":false,"rental_uris":{"android":"levelo://app?vid=270b90ca-7521-4165-af49-e1c727e5fa34","ios":"levelo://app?vid=270b90ca-7521-4165-af49-e1c727e5fa34"},"vehicle_type_id":"4","last_reported":1728238216,"current_range_meters":33200,"station_id":"crv51consjfaj9uu89c0","pricing_plan_id":"cebpf4jnsgd1na2vs0mg"},{"bike_id":"611d6115-26cb-4221-ba38-d0cfdcb796c1","system_id":"levelo_inurba_marseille","lat":43.2804,"lon":5.36956,"is_reserved":false,"is_disabled":false,"rental_uris":{"android":"levelo://app?vid=611d6115-26cb-4221-ba38-d0cfdcb796c1","ios":"levelo://app?vid=611d6115-26cb-4221-ba38-d0cfdcb796c1"},"vehicle_type_id":"4","last_reported":1728238216,"current_range_meters":24000,"station_id":"ce4bha12rcd13ifvqef0","pricing_plan_id":"cebpf4jnsgd1na2vs0mg"},{"bike_id":"34ac7827-1c47-41f0-bfc5-ffc601f09d86","system_id":"levelo_inurba_marseille","lat":43.28995,"lon":5.35612,"is_reserved":false,"is_disabled":false,"rental_uris":{"android":"levelo://app?vid=34ac7827-1c47-41f0-bfc5-ffc601f09d86","ios":"levelo://app?vid=34ac7827-1c47-41f0-bfc5-ffc601f09d86"},"vehicle_type_id":"4","last_reported":1728238216,"current_range_meters":32400,"station_id":"ce4bhb92rcd13ifvqen0","pricing_plan_id":"cebpf4jnsgd1na2vs0mg"},{"bike_id":"469f1566-ba28-4d97-a048-35bc56e7cc9e","system_id":"levelo_inurba_marseille","lat":43.29268,"lon":5.3844,"is_reserved":false,"is_disabled":false,"rental_uris":{"android":"levelo://app?vid=469f1566-ba28-4d97-a048-35bc56e7cc9e","ios":"levelo://app?vid=469f1566-ba28-4d97-a048-35bc56e7cc9e"},"vehicle_type_id":"4","last_reported":1728238216,"current_range_meters":6000,"station_id":"ce4bh692rcd13ifvqea0","pricing_plan_id":"cebpf4jnsgd1na2vs0mg"},{"bike_id":"9c9b19c4-3677-4a6b-8660-8a1615725cc5","system_id":"levelo_inurba_marseille","lat":43.30186,"lon":5.36638,"is_reserved":false,"is_disabled":false,"rental_uris":{"android":"levelo://app?vid=9c9b19c4-3677-4a6b-8660-8a1615725cc5","ios":"levelo://app?vid=9c9b19c4-3677-4a6b-8660-8a1615725cc5"},"vehicle_type_id":"4","last_reported":1728238216,"current_range_meters":21600,"station_id":"ce4bgrh2rcd13ifvqc8g","pricing_plan_id":"cebpf4jnsgd1na2vs0mg"},{"bike_id":"71655210-1562-464f-9484-f1100bdcf0c3","system_id":"levelo_inurba_marseille","lat":43.30141,"lon":5.387808,"is_reserved":false,"is_disabled":false,"rental_uris":{"android":"levelo://app?vid=71655210-1562-464f-9484-f1100bdcf0c3","ios":"levelo://app?vid=71655210-1562-464f-9484-f1100bdcf0c3"},"vehicle_type_id":"4","last_reported":1728238216,"current_range_meters":38800,"station_id":"ce4bghh2rcd13ifvqb60","pricing_plan_id":"cebpf4jnsgd1na2vs0mg"},{"bike_id":"ca5f4c34-3469-41d3-9f12-b240f1be893e","system_id":"levelo_inurba_marseille","lat":43.22928,"lon":5.35382,"is_reserved":false,"is_disabled":false,"rental_uris":{"android":"levelo://app?vid=ca5f4c34-3469-41d3-9f12-b240f1be893e","ios":"levelo://app?vid=ca5f4c34-3469-41d3-9f12-b240f1be893e"},"vehicle_type_id":"4","last_reported":1728238216,"current_range_meters":19600,"station_id":"cpo3532slgdg3j2ikp40","pricing_plan_id":"cebpf4jnsgd1na2vs0mg"},{"bike_id":"53203371-a11b-4b6e-b65f-0e513d85c5b5","system_id":"levelo_inurba_marseille","lat":43.25121,"lon":5.40322,"is_reserved":false,"is_disabled":false,"rental_uris":{"android":"levelo://app?vid=53203371-a11b-4b6e-b65f-0e513d85c5b5","ios":"levelo://app?vid=53203371-a11b-4b6e-b65f-0e513d85c5b5"},"vehicle_type_id":"4","last_reported":1728238216,"current_range_meters":17600,"station_id":"ce4bhlh2rcd13ifvqgig","pricing_plan_id":"cebpf4jnsgd1na2vs0mg"},{"bike_id":"ed8128ed-279a-432d-932e-e41d6b811693","system_id":"levelo_inurba_marseille","lat":43.29855,"lon":5.37156,"is_reserved":false,"is_disabled":false,"rental_uris":{"android":"levelo://app?vid=ed8128ed-279a-432d-932e-e41d6b811693","ios":"levelo://app?vid=ed8128ed-279a-432d-932e-e41d6b811693"},"vehicle_type_id":"4","last_reported":1728238216,"current_range_meters":33200,"station_id":"","pricing_plan_id":"cebpf4jnsgd1na2vs0mg"},{"bike_id":"0185d637-9ca2-4656-a790-f72f9e456699","system_id":"levelo_inurba_marseille","lat":43.298516,"lon":5.388276,"is_reserved":false,"is_disabled":false,"rental_uris":{"android":"levelo://app?vid=0185d637-9ca2-4656-a790-f72f9e456699","ios":"levelo://app?vid=0185d637-9ca2-4656-a790-f72f9e456699"},"vehicle_type_id":"4","last_reported":1728238216,"current_range_meters":36000,"station_id":"ce4bgup2rcd13ifvqcn0","pricing_plan_id":"cebpf4jnsgd1na2vs0mg"},{"bike_id":"3edbc444-be55-4f06-b001-2e99882f8c0b","system_id":"levelo_inurba_marseille","lat":43.32647,"lon":5.41003,"is_reserved":false,"is_disabled":false,"rental_uris":{"android":"levelo://app?vid=3edbc444-be55-4f06-b001-2e99882f8c0b","ios":"levelo://app?vid=3edbc444-be55-4f06-b001-2e99882f8c0b"},"vehicle_type_id":"4","last_reported":1728238216,"current_range_meters":2800,"station_id":"ce4bhpp2rcd13ifvqhgg","pricing_plan_id":"cebpf4jnsgd1na2vs0mg"},{"bike_id":"85081b74-3c48-4b75-b6b6-b181683e784a","system_id":"levelo_inurba_marseille","lat":43.25727,"lon":5.41117,"is_reserved":false,"is_disabled":false,"rental_uris":{"android":"levelo://app?vid=85081b74-3c48-4b75-b6b6-b181683e784a","ios":"levelo://app?vid=85081b74-3c48-4b75-b6b6-b181683e784a"},"vehicle_type_id":"4","last_reported":1728238216,"current_range_meters":38000,"station_id":"ce4bhkp2rcd13ifvqgd0","pricing_plan_id":"cebpf4jnsgd1na2vs0mg"},{"bike_id":"79b73136-5891-4da9-980f-333a60a347b8","system_id":"levelo_inurba_marseille","lat":43.29891,"lon":5.43672,"is_reserved":false,"is_disabled":false,"rental_uris":{"android":"levelo://app?vid=79b73136-5891-4da9-980f-333a60a347b8","ios":"levelo://app?vid=79b73136-5891-4da9-980f-333a60a347b8"},"vehicle_type_id":"4","last_reported":1728238216,"current_range_meters":39200,"station_id":"ce4bhpp2rcd13ifvqhfg","pricing_plan_id":"cebpf4jnsgd1na2vs0mg"},{"bike_id":"88bc79bc-000a-4a43-8d3b-868b14963c8c","system_id":"levelo_inurba_marseille","lat":43.27817,"lon":5.40715,"is_reserved":false,"is_disabled":false,"rental_uris":{"android":"levelo://app?vid=88bc79bc-000a-4a43-8d3b-868b14963c8c","ios":"levelo://app?vid=88bc79bc-000a-4a43-8d3b-868b14963c8c"},"vehicle_type_id":"4","last_reported":1728238216,"current_range_meters":37600,"station_id":"ce4bhnh2rcd13ifvqgtg","pricing_plan_id":"cebpf4jnsgd1na2vs0mg"},{"bike_id":"245c3020-fd47-4c9a-8c6c-086cafaaacc4","system_id":"levelo_inurba_marseille","lat":43.29594,"lon":5.38111,"is_reserved":false,"is_disabled":false,"rental_uris":{"android":"levelo://app?vid=245c3020-fd47-4c9a-8c6c-086cafaaacc4","ios":"levelo://app?vid=245c3020-fd47-4c9a-8c6c-086cafaaacc4"},"vehicle_type_id":"4","last_reported":1728238216,"current_range_meters":28400,"station_id":"ce4bgl12rcd13ifvqbo0","pricing_plan_id":"cebpf4jnsgd1na2vs0mg"},{"bike_id":"7cba0374-be77-4d49-8476-e0da3cccc891","system_id":"levelo_inurba_marseille","lat":43.21347,"lon":5.34938,"is_reserved":false,"is_disabled":false,"rental_uris":{"android":"levelo://app?vid=7cba0374-be77-4d49-8476-e0da3cccc891","ios":"levelo://app?vid=7cba0374-be77-4d49-8476-e0da3cccc891"},"vehicle_type_id":"4","last_reported":1728238216,"current_range_meters":30800,"station_id":"crv51consjfaj9uu89c0","pricing_plan_id":"cebpf4jnsgd1na2vs0mg"},{"bike_id":"de7b61ce-9a77-48b8-b281-c8a3b04be6be","system_id":"levelo_inurba_marseille","lat":43.30631,"lon":5.36635,"is_reserved":false,"is_disabled":false,"rental_uris":{"android":"levelo://app?vid=de7b61ce-9a77-48b8-b281-c8a3b04be6be","ios":"levelo://app?vid=de7b61ce-9a77-48b8-b281-c8a3b04be6be"},"vehicle_type_id":"4","last_reported":1728238216,"current_range_meters":28000,"station_id":"","pricing_plan_id":"cebpf4jnsgd1na2vs0mg"},{"bike_id":"d0f999e2-85b5-4009-bc94-0921606f50d6","system_id":"levelo_inurba_marseille","lat":43.29198,"lon":5.3931,"is_reserved":false,"is_disabled":false,"rental_uris":{"android":"levelo://app?vid=d0f999e2-85b5-4009-bc94-0921606f50d6","ios":"levelo://app?vid=d0f999e2-85b5-4009-bc94-0921606f50d6"},"vehicle_type_id":"4","last_reported":1728238216,"current_range_meters":3200,"station_id":"ce4bh192rcd13ifvqdd0","pricing_plan_id":"cebpf4jnsgd1na2vs0mg"},{"bike_id":"24741916-9a19-4c9f-b82f-689e154008bc","system_id":"levelo_inurba_marseille","lat":43.21351,"lon":5.34938,"is_reserved":false,"is_disabled":false,"rental_uris":{"android":"levelo://app?vid=24741916-9a19-4c9f-b82f-689e154008bc","ios":"levelo://app?vid=24741916-9a19-4c9f-b82f-689e154008bc"},"vehicle_type_id":"4","last_reported":1728238216,"current_range_meters":2800,"station_id":"crv51consjfaj9uu89c0","pricing_plan_id":"cebpf4jnsgd1na2vs0mg"},{"bike_id":"30ddbded-5659-4dab-923a-675b388cc90d","system_id":"levelo_inurba_marseille","lat":43.26783,"lon":5.39419,"is_reserved":false,"is_disabled":false,"rental_uris":{"android":"levelo://app?vid=30ddbded-5659-4dab-923a-675b388cc90d","ios":"levelo://app?vid=30ddbded-5659-4dab-923a-675b388cc90d"},"vehicle_type_id":"4","last_reported":1728238216,"current_range_meters":2800,"station_id":"ce4bhh12rcd13ifvqfg0","pricing_plan_id":"cebpf4jnsgd1na2vs0mg"},{"bike_id":"d6a904eb-96a5-4bea-a586-e8aaeedf5f4c","system_id":"levelo_inurba_marseille","lat":43.25722,"lon":5.41108,"is_reserved":false,"is_disabled":false,"rental_uris":{"android":"levelo://app?vid=d6a904eb-96a5-4bea-a586-e8aaeedf5f4c","ios":"levelo://app?vid=d6a904eb-96a5-4bea-a586-e8aaeedf5f4c"},"vehicle_type_id":"4","last_reported":1728238216,"current_range_meters":38400,"station_id":"ce4bhkp2rcd13ifvqgd0","pricing_plan_id":"cebpf4jnsgd1na2vs0mg"},{"bike_id":"09fb0b57-2324-4bd9-a741-e90822f89c25","system_id":"levelo_inurba_marseille","lat":43.2407,"lon":5.37763,"is_reserved":false,"is_disabled":false,"rental_uris":{"android":"levelo://app?vid=09fb0b57-2324-4bd9-a741-e90822f89c25","ios":"levelo://app?vid=09fb0b57-2324-4bd9-a741-e90822f89c25"},"vehicle_type_id":"4","last_reported":1728238216,"current_range_meters":8000,"station_id":"ce4bhnp2rcd13ifvqgvg","pricing_plan_id":"cebpf4jnsgd1na2vs0mg"},{"bike_id":"539a8254-3d91-43f9-b766-968e4868cfa5","system_id":"levelo_inurba_marseille","lat":43.297,"lon":5.36616,"is_reserved":false,"is_disabled":false,"rental_uris":{"android":"levelo://app?vid=539a8254-3d91-43f9-b766-968e4868cfa5","ios":"levelo://app?vid=539a8254-3d91-43f9-b766-968e4868cfa5"},"vehicle_type_id":"4","last_reported":1728238216,"current_range_meters":17200,"station_id":"ce4bgn12rcd13ifvqbt0","pricing_plan_id":"cebpf4jnsgd1na2vs0mg"},{"bike_id":"94ae947e-32c4-4d1d-85d8-1710f573f73a","system_id":"levelo_inurba_marseille","lat":43.33744,"lon":5.37494,"is_reserved":false,"is_disabled":false,"rental_uris":{"android":"levelo://app?vid=94ae947e-32c4-4d1d-85d8-1710f573f73a","ios":"levelo://app?vid=94ae947e-32c4-4d1d-85d8-1710f573f73a"},"vehicle_type_id":"4","last_reported":1728238216,"current_range_meters":26800,"station_id":"","pricing_plan_id":"cebpf4jnsgd1na2vs0mg"},{"bike_id":"7a348d21-f2e8-43e7-9c15-c14bb9bb72a2","system_id":"levelo_inurba_marseille","lat":43.29956,"lon":5.41324,"is_reserved":false,"is_disabled":false,"rental_uris":{"android":"levelo://app?vid=7a348d21-f2e8-43e7-9c15-c14bb9bb72a2","ios":"levelo://app?vid=7a348d21-f2e8-43e7-9c15-c14bb9bb72a2"},"vehicle_type_id":"4","last_reported":1728238216,"current_range_meters":22800,"station_id":"ce4bhp12rcd13ifvqh9g","pricing_plan_id":"cebpf4jnsgd1na2vs0mg"},{"bike_id":"6b85f1aa-8089-48ad-94d4-250fceea6bae","system_id":"levelo_inurba_marseille","lat":43.28036,"lon":5.36956,"is_reserved":false,"is_disabled":false,"rental_uris":{"android":"levelo://app?vid=6b85f1aa-8089-48ad-94d4-250fceea6bae","ios":"levelo://app?vid=6b85f1aa-8089-48ad-94d4-250fceea6bae"},"vehicle_type_id":"4","last_reported":1728238216,"current_range_meters":24800,"station_id":"ce4bha12rcd13ifvqef0","pricing_plan_id":"cebpf4jnsgd1na2vs0mg"},{"bike_id":"8bd16631-5fed-4070-bcdf-51a0bee6bb63","system_id":"levelo_inurba_marseille","lat":43.27936,"lon":5.41054,"is_reserved":false,"is_disabled":false,"rental_uris":{"android":"levelo://app?vid=8bd16631-5fed-4070-bcdf-51a0bee6bb63","ios":"levelo://app?vid=8bd16631-5fed-4070-bcdf-51a0bee6bb63"},"vehicle_type_id":"4","last_reported":1728238216,"current_range_meters":26000,"station_id":"ce4bhnp2rcd13ifvqh0g","pricing_plan_id":"cebpf4jnsgd1na2vs0mg"},{"bike_id":"8faa0ec0-0a45-424f-befa-e98616d0097f","system_id":"levelo_inurba_marseille","lat":43.29582,"lon":5.36748,"is_reserved":false,"is_disabled":false,"rental_uris":{"android":"levelo://app?vid=8faa0ec0-0a45-424f-befa-e98616d0097f","ios":"levelo://app?vid=8faa0ec0-0a45-424f-befa-e98616d0097f"},"vehicle_type_id":"4","last_reported":1728238216,"current_range_meters":28800,"station_id":"ce4bgph2rcd13ifvqc2g","pricing_plan_id":"cebpf4jnsgd1na2vs0mg"},{"bike_id":"66a81085-1a96-4f65-934a-3195a2059afa","system_id":"levelo_inurba_marseille","lat":43.24651,"lon":5.38899,"is_reserved":false,"is_disabled":false,"rental_uris":{"android":"levelo://app?vid=66a81085-1a96-4f65-934a-3195a2059afa","ios":"levelo://app?vid=66a81085-1a96-4f65-934a-3195a2059afa"},"vehicle_type_id":"4","last_reported":1728238216,"current_range_meters":23200,"station_id":"ce4bhg12rcd13ifvqf60","pricing_plan_id":"cebpf4jnsgd1na2vs0mg"},{"bike_id":"18b5370d-7acd-4920-9ff3-426f4da75866","system_id":"levelo_inurba_marseille","lat":43.28674,"lon":5.38672,"is_reserved":false,"is_disabled":false,"rental_uris":{"android":"levelo://app?vid=18b5370d-7acd-4920-9ff3-426f4da75866","ios":"levelo://app?vid=18b5370d-7acd-4920-9ff3-426f4da75866"},"vehicle_type_id":"4","last_reported":1728238216,"current_range_meters":8000,"station_id":"ce4bh492rcd13ifvqdug","pricing_plan_id":"cebpf4jnsgd1na2vs0mg"},{"bike_id":"de418b94-658a-4cf4-80c0-81d87cf7e675","system_id":"levelo_inurba_marseille","lat":43.2925,"lon":5.4092,"is_reserved":false,"is_disabled":false,"rental_uris":{"android":"levelo://app?vid=de418b94-658a-4cf4-80c0-81d87cf7e675","ios":"levelo://app?vid=de418b94-658a-4cf4-80c0-81d87cf7e675"},"vehicle_type_id":"4","last_reported":1728238216,"current_range_meters":16000,"station_id":"ce4bh192rcd13ifvqdc0","pricing_plan_id":"cebpf4jnsgd1na2vs0mg"},{"bike_id":"5571bd61-ca5c-4808-babd-52978e40b3b7","system_id":"levelo_inurba_marseille","lat":43.24997,"lon":5.38937,"is_reserved":false,"is_disabled":false,"rental_uris":{"android":"levelo://app?vid=5571bd61-ca5c-4808-babd-52978e40b3b7","ios":"levelo://app?vid=5571bd61-ca5c-4808-babd-52978e40b3b7"},"vehicle_type_id":"4","last_reported":1728238216,"current_range_meters":18800,"station_id":"ce4bhgp2rcd13ifvqfd0","pricing_plan_id":"cebpf4jnsgd1na2vs0mg"},{"bike_id":"2bea7207-ca58-43c7-a5dc-8427afd5fc98","system_id":"levelo_inurba_marseille","lat":43.25502,"lon":5.41222,"is_reserved":false,"is_disabled":false,"rental_uris":{"android":"levelo://app?vid=2bea7207-ca58-43c7-a5dc-8427afd5fc98","ios":"levelo://app?vid=2bea7207-ca58-43c7-a5dc-8427afd5fc98"},"vehicle_type_id":"4","last_reported":1728238216,"current_range_meters":2800,"station_id":"","pricing_plan_id":"cebpf4jnsgd1na2vs0mg"},{"bike_id":"d7dc1e49-e051-4534-95ae-44bb1f961b79","system_id":"levelo_inurba_marseille","lat":43.24384,"lon":5.37054,"is_reserved":false,"is_disabled":false,"rental_uris":{"android":"levelo://app?vid=d7dc1e49-e051-4534-95ae-44bb1f961b79","ios":"levelo://app?vid=d7dc1e49-e051-4534-95ae-44bb1f961b79"},"vehicle_type_id":"4","last_reported":1728238216,"current_range_meters":37600,"station_id":"ce4bhhh2rcd13ifvqfk0","pricing_plan_id":"cebpf4jnsgd1na2vs0mg"},{"bike_id":"925e9768-42a2-488d-a2ee-9d599fc84f3e","system_id":"levelo_inurba_marseille","lat":43.30547,"lon":5.36707,"is_reserved":false,"is_disabled":false,"rental_uris":{"android":"levelo://app?vid=925e9768-42a2-488d-a2ee-9d599fc84f3e","ios":"levelo://app?vid=925e9768-42a2-488d-a2ee-9d599fc84f3e"},"vehicle_type_id":"4","last_reported":1728238216,"current_range_meters":8800,"station_id":"ce4bgrp2rcd13ifvqc9g","pricing_plan_id":"cebpf4jnsgd1na2vs0mg"},{"bike_id":"b15507aa-9663-460a-acd3-1d919ec55220","system_id":"levelo_inurba_marseille","lat":43.231859,"lon":5.399973,"is_reserved":false,"is_disabled":false,"rental_uris":{"android":"levelo://app?vid=b15507aa-9663-460a-acd3-1d919ec55220","ios":"levelo://app?vid=b15507aa-9663-460a-acd3-1d919ec55220"},"vehicle_type_id":"4","last_reported":1728238216,"current_range_meters":33200,"station_id":"ce4bhn12rcd13ifvqgqg","pricing_plan_id":"cebpf4jnsgd1na2vs0mg"},{"bike_id":"1c6ced08-6c65-4e22-a8e3-0734c3156234","system_id":"levelo_inurba_marseille","lat":43.25723,"lon":5.41114,"is_reserved":false,"is_disabled":false,"rental_uris":{"android":"levelo://app?vid=1c6ced08-6c65-4e22-a8e3-0734c3156234","ios":"levelo://app?vid=1c6ced08-6c65-4e22-a8e3-0734c3156234"},"vehicle_type_id":"4","last_reported":1728238216,"current_range_meters":38400,"station_id":"ce4bhkp2rcd13ifvqgd0","pricing_plan_id":"cebpf4jnsgd1na2vs0mg"},{"bike_id":"d3af9153-e7b6-4427-8596-19a92939fa01","system_id":"levelo_inurba_marseille","lat":43.29268,"lon":5.36846,"is_reserved":false,"is_disabled":false,"rental_uris":{"android":"levelo://app?vid=d3af9153-e7b6-4427-8596-19a92939fa01","ios":"levelo://app?vid=d3af9153-e7b6-4427-8596-19a92939fa01"},"vehicle_type_id":"4","last_reported":1728238216,"current_range_meters":26800,"station_id":"ce4bhbp2rcd13ifvqesg","pricing_plan_id":"cebpf4jnsgd1na2vs0mg"},{"bike_id":"b2052108-65db-4d3a-b0c1-5fb3b6123cdd","system_id":"levelo_inurba_marseille","lat":43.26686,"lon":5.38281,"is_reserved":false,"is_disabled":false,"rental_uris":{"android":"levelo://app?vid=b2052108-65db-4d3a-b0c1-5fb3b6123cdd","ios":"levelo://app?vid=b2052108-65db-4d3a-b0c1-5fb3b6123cdd"},"vehicle_type_id":"4","last_reported":1728238216,"current_range_meters":14400,"station_id":"ce4bhg92rcd13ifvqf90","pricing_plan_id":"cebpf4jnsgd1na2vs0mg"},{"bike_id":"68b77a88-2067-422a-ab7b-e29094a40dcc","system_id":"levelo_inurba_marseille","lat":43.25121,"lon":5.40325,"is_reserved":false,"is_disabled":false,"rental_uris":{"android":"levelo://app?vid=68b77a88-2067-422a-ab7b-e29094a40dcc","ios":"levelo://app?vid=68b77a88-2067-422a-ab7b-e29094a40dcc"},"vehicle_type_id":"4","last_reported":1728238216,"current_range_meters":38800,"station_id":"ce4bhlh2rcd13ifvqgig","pricing_plan_id":"cebpf4jnsgd1na2vs0mg"},{"bike_id":"28a5f6ec-a111-40fe-b396-e8e4331e1ba7","system_id":"levelo_inurba_marseille","lat":43.28102,"lon":5.37842,"is_reserved":false,"is_disabled":false,"rental_uris":{"android":"levelo://app?vid=28a5f6ec-a111-40fe-b396-e8e4331e1ba7","ios":"levelo://app?vid=28a5f6ec-a111-40fe-b396-e8e4331e1ba7"},"vehicle_type_id":"4","last_reported":1728238216,"current_range_meters":25600,"station_id":"ce4bha12rcd13ifvqee0","pricing_plan_id":"cebpf4jnsgd1na2vs0mg"},{"bike_id":"e16ed7e4-7d32-4bfb-b7cf-36c1b6b87a0a","system_id":"levelo_inurba_marseille","lat":43.29496,"lon":5.39048,"is_reserved":false,"is_disabled":false,"rental_uris":{"android":"levelo://app?vid=e16ed7e4-7d32-4bfb-b7cf-36c1b6b87a0a","ios":"levelo://app?vid=e16ed7e4-7d32-4bfb-b7cf-36c1b6b87a0a"},"vehicle_type_id":"4","last_reported":1728238216,"current_range_meters":8800,"station_id":"ce4bh3p2rcd13ifvqdp0","pricing_plan_id":"cebpf4jnsgd1na2vs0mg"},{"bike_id":"a5023524-3ccd-4955-a5e3-8a656e845432","system_id":"levelo_inurba_marseille","lat":43.30796,"lon":5.38155,"is_reserved":false,"is_disabled":false,"rental_uris":{"android":"levelo://app?vid=a5023524-3ccd-4955-a5e3-8a656e845432","ios":"levelo://app?vid=a5023524-3ccd-4955-a5e3-8a656e845432"},"vehicle_type_id":"4","last_reported":1728238216,"current_range_meters":6800,"station_id":"ce4bgt12rcd13ifvqce0","pricing_plan_id":"cebpf4jnsgd1na2vs0mg"},{"bike_id":"d0e81cdf-b5a0-44e2-a36b-805202ade773","system_id":"levelo_inurba_marseille","lat":43.24384,"lon":5.3706,"is_reserved":false,"is_disabled":false,"rental_uris":{"android":"levelo://app?vid=d0e81cdf-b5a0-44e2-a36b-805202ade773","ios":"levelo://app?vid=d0e81cdf-b5a0-44e2-a36b-805202ade773"},"vehicle_type_id":"4","last_reported":1728238216,"current_range_meters":38800,"station_id":"ce4bhhh2rcd13ifvqfk0","pricing_plan_id":"cebpf4jnsgd1na2vs0mg"},{"bike_id":"42d43189-14ba-460e-a1dd-4eb1d92c2414","system_id":"levelo_inurba_marseille","lat":43.243523,"lon":5.370505,"is_reserved":false,"is_disabled":false,"rental_uris":{"android":"levelo://app?vid=42d43189-14ba-460e-a1dd-4eb1d92c2414","ios":"levelo://app?vid=42d43189-14ba-460e-a1dd-4eb1d92c2414"},"vehicle_type_id":"4","last_reported":1728238216,"current_range_meters":38400,"station_id":"ce4bhhh2rcd13ifvqfk0","pricing_plan_id":"cebpf4jnsgd1na2vs0mg"},{"bike_id":"fe7dff55-6c6c-4ce9-b7fa-6cb576ebb702","system_id":"levelo_inurba_marseille","lat":43.29971,"lon":5.38499,"is_reserved":false,"is_disabled":false,"rental_uris":{"android":"levelo://app?vid=fe7dff55-6c6c-4ce9-b7fa-6cb576ebb702","ios":"levelo://app?vid=fe7dff55-6c6c-4ce9-b7fa-6cb576ebb702"},"vehicle_type_id":"4","last_reported":1728238216,"current_range_meters":16800,"station_id":"ce4bgj92rcd13ifvqbd0","pricing_plan_id":"cebpf4jnsgd1na2vs0mg"},{"bike_id":"a285724e-d8b9-484f-a9d0-bf71614174b2","system_id":"levelo_inurba_marseille","lat":43.29551,"lon":5.42286,"is_reserved":false,"is_disabled":false,"rental_uris":{"android":"levelo://app?vid=a285724e-d8b9-484f-a9d0-bf71614174b2","ios":"levelo://app?vid=a285724e-d8b9-484f-a9d0-bf71614174b2"},"vehicle_type_id":"4","last_reported":1728238216,"current_range_meters":38800,"station_id":"ce4bhph2rcd13ifvqhdg","pricing_plan_id":"cebpf4jnsgd1na2vs0mg"},{"bike_id":"5c95c647-d3eb-4ba6-881d-3b353c9a2f59","system_id":"levelo_inurba_marseille","lat":43.28107,"lon":5.37844,"is_reserved":false,"is_disabled":false,"rental_uris":{"android":"levelo://app?vid=5c95c647-d3eb-4ba6-881d-3b353c9a2f59","ios":"levelo://app?vid=5c95c647-d3eb-4ba6-881d-3b353c9a2f59"},"vehicle_type_id":"4","last_reported":1728238216,"current_range_meters":30000,"station_id":"ce4bha12rcd13ifvqee0","pricing_plan_id":"cebpf4jnsgd1na2vs0mg"},{"bike_id":"0758908e-04b3-48cb-929f-6481eca4333c","system_id":"levelo_inurba_marseille","lat":43.29062,"lon":5.38087,"is_reserved":false,"is_disabled":false,"rental_uris":{"android":"levelo://app?vid=0758908e-04b3-48cb-929f-6481eca4333c","ios":"levelo://app?vid=0758908e-04b3-48cb-929f-6481eca4333c"},"vehicle_type_id":"4","last_reported":1728238216,"current_range_meters":20800,"station_id":"ce4bhap2rcd13ifvqek0","pricing_plan_id":"cebpf4jnsgd1na2vs0mg"},{"bike_id":"7257a5d5-bb07-44db-8529-301e7a476042","system_id":"levelo_inurba_marseille","lat":43.30211,"lon":5.39465,"is_reserved":false,"is_disabled":false,"rental_uris":{"android":"levelo://app?vid=7257a5d5-bb07-44db-8529-301e7a476042","ios":"levelo://app?vid=7257a5d5-bb07-44db-8529-301e7a476042"},"vehicle_type_id":"4","last_reported":1728238216,"current_range_meters":38000,"station_id":"ce4bh0p2rcd13ifvqd70","pricing_plan_id":"cebpf4jnsgd1na2vs0mg"},{"bike_id":"27c5f2a9-8158-45c6-b742-4db159c5f60d","system_id":"levelo_inurba_marseille","lat":43.31328,"lon":5.397,"is_reserved":false,"is_disabled":false,"rental_uris":{"android":"levelo://app?vid=27c5f2a9-8158-45c6-b742-4db159c5f60d","ios":"levelo://app?vid=27c5f2a9-8158-45c6-b742-4db159c5f60d"},"vehicle_type_id":"4","last_reported":1728238216,"current_range_meters":30400,"station_id":"ce4bgvp2rcd13ifvqcu0","pricing_plan_id":"cebpf4jnsgd1na2vs0mg"},{"bike_id":"7b370d99-5247-45ef-a303-548109cf04e4","system_id":"levelo_inurba_marseille","lat":43.25731,"lon":5.41112,"is_reserved":false,"is_disabled":false,"rental_uris":{"android":"levelo://app?vid=7b370d99-5247-45ef-a303-548109cf04e4","ios":"levelo://app?vid=7b370d99-5247-45ef-a303-548109cf04e4"},"vehicle_type_id":"4","last_reported":1728238216,"current_range_meters":6800,"station_id":"ce4bhkp2rcd13ifvqgd0","pricing_plan_id":"cebpf4jnsgd1na2vs0mg"},{"bike_id":"1d0e3faa-ee78-4da5-a96f-abfd136c29bb","system_id":"levelo_inurba_marseille","lat":43.32477,"lon":5.36575,"is_reserved":false,"is_disabled":false,"rental_uris":{"android":"levelo://app?vid=1d0e3faa-ee78-4da5-a96f-abfd136c29bb","ios":"levelo://app?vid=1d0e3faa-ee78-4da5-a96f-abfd136c29bb"},"vehicle_type_id":"4","last_reported":1728238216,"current_range_meters":24000,"station_id":"ce4bhs12rcd13ifvqhvg","pricing_plan_id":"cebpf4jnsgd1na2vs0mg"},{"bike_id":"caa6b17d-03ee-4308-b02c-5c4fbe184c13","system_id":"levelo_inurba_marseille","lat":43.231988,"lon":5.35547,"is_reserved":false,"is_disabled":false,"rental_uris":{"android":"levelo://app?vid=caa6b17d-03ee-4308-b02c-5c4fbe184c13","ios":"levelo://app?vid=caa6b17d-03ee-4308-b02c-5c4fbe184c13"},"vehicle_type_id":"4","last_reported":1728238216,"current_range_meters":38800,"station_id":"ce4bhu92rcd13ifvqi70","pricing_plan_id":"cebpf4jnsgd1na2vs0mg"},{"bike_id":"3af48eb3-1d1f-4a32-a948-7cc05add2405","system_id":"levelo_inurba_marseille","lat":43.2281,"lon":5.35151,"is_reserved":false,"is_disabled":false,"rental_uris":{"android":"levelo://app?vid=3af48eb3-1d1f-4a32-a948-7cc05add2405","ios":"levelo://app?vid=3af48eb3-1d1f-4a32-a948-7cc05add2405"},"vehicle_type_id":"4","last_reported":1728238216,"current_range_meters":30800,"station_id":"","pricing_plan_id":"cebpf4jnsgd1na2vs0mg"},{"bike_id":"77e44f96-8992-4ec5-ba2c-5e51b9e5b288","system_id":"levelo_inurba_marseille","lat":43.27055,"lon":5.38799,"is_reserved":false,"is_disabled":false,"rental_uris":{"android":"levelo://app?vid=77e44f96-8992-4ec5-ba2c-5e51b9e5b288","ios":"levelo://app?vid=77e44f96-8992-4ec5-ba2c-5e51b9e5b288"},"vehicle_type_id":"4","last_reported":1728238216,"current_range_meters":35600,"station_id":"","pricing_plan_id":"cebpf4jnsgd1na2vs0mg"},{"bike_id":"dc316a4e-7b35-4690-8d7b-6573c0a6b66b","system_id":"levelo_inurba_marseille","lat":43.28476,"lon":5.38547,"is_reserved":false,"is_disabled":false,"rental_uris":{"android":"levelo://app?vid=dc316a4e-7b35-4690-8d7b-6573c0a6b66b","ios":"levelo://app?vid=dc316a4e-7b35-4690-8d7b-6573c0a6b66b"},"vehicle_type_id":"4","last_reported":1728238216,"current_range_meters":38800,"station_id":"ce4bh8p2rcd13ifvqeb0","pricing_plan_id":"cebpf4jnsgd1na2vs0mg"},{"bike_id":"67c4d9dd-ea85-4b87-a82f-9d128e46f7d4","system_id":"levelo_inurba_marseille","lat":43.24547,"lon":5.39527,"is_reserved":false,"is_disabled":false,"rental_uris":{"android":"levelo://app?vid=67c4d9dd-ea85-4b87-a82f-9d128e46f7d4","ios":"levelo://app?vid=67c4d9dd-ea85-4b87-a82f-9d128e46f7d4"},"vehicle_type_id":"4","last_reported":1728238216,"current_range_meters":26800,"station_id":"ce4bhlp2rcd13ifvqgjg","pricing_plan_id":"cebpf4jnsgd1na2vs0mg"},{"bike_id":"b51ee6d2-4574-4587-a7f0-3852397ae634","system_id":"levelo_inurba_marseille","lat":43.22928,"lon":5.35385,"is_reserved":false,"is_disabled":false,"rental_uris":{"android":"levelo://app?vid=b51ee6d2-4574-4587-a7f0-3852397ae634","ios":"levelo://app?vid=b51ee6d2-4574-4587-a7f0-3852397ae634"},"vehicle_type_id":"4","last_reported":1728238216,"current_range_meters":35600,"station_id":"cpo3532slgdg3j2ikp40","pricing_plan_id":"cebpf4jnsgd1na2vs0mg"},{"bike_id":"2098befb-1917-4825-8c0e-e1d3e5056bc6","system_id":"levelo_inurba_marseille","lat":43.2737,"lon":5.36256,"is_reserved":false,"is_disabled":false,"rental_uris":{"android":"levelo://app?vid=2098befb-1917-4825-8c0e-e1d3e5056bc6","ios":"levelo://app?vid=2098befb-1917-4825-8c0e-e1d3e5056bc6"},"vehicle_type_id":"4","last_reported":1728238216,"current_range_meters":36000,"station_id":"ce4bhbh2rcd13ifvqeo0","pricing_plan_id":"cebpf4jnsgd1na2vs0mg"},{"bike_id":"82487b4d-7035-4323-b15e-2707bc775376","system_id":"levelo_inurba_marseille","lat":43.29532,"lon":5.37507,"is_reserved":false,"is_disabled":false,"rental_uris":{"android":"levelo://app?vid=82487b4d-7035-4323-b15e-2707bc775376","ios":"levelo://app?vid=82487b4d-7035-4323-b15e-2707bc775376"},"vehicle_type_id":"4","last_reported":1728238216,"current_range_meters":6800,"station_id":"ce4bgkp2rcd13ifvqbmg","pricing_plan_id":"cebpf4jnsgd1na2vs0mg"},{"bike_id":"4e0c83a2-b0c3-4894-8559-e509681998d3","system_id":"levelo_inurba_marseille","lat":43.31111,"lon":5.38324,"is_reserved":false,"is_disabled":false,"rental_uris":{"android":"levelo://app?vid=4e0c83a2-b0c3-4894-8559-e509681998d3","ios":"levelo://app?vid=4e0c83a2-b0c3-4894-8559-e509681998d3"},"vehicle_type_id":"4","last_reported":1728238216,"current_range_meters":8000,"station_id":"ce4bgv92rcd13ifvqcr0","pricing_plan_id":"cebpf4jnsgd1na2vs0mg"},{"bike_id":"a76ee3fd-363a-4d57-9618-b37ded534ce5","system_id":"levelo_inurba_marseille","lat":43.24392,"lon":5.37068,"is_reserved":false,"is_disabled":false,"rental_uris":{"android":"levelo://app?vid=a76ee3fd-363a-4d57-9618-b37ded534ce5","ios":"levelo://app?vid=a76ee3fd-363a-4d57-9618-b37ded534ce5"},"vehicle_type_id":"4","last_reported":1728238216,"current_range_meters":38000,"station_id":"ce4bhhh2rcd13ifvqfk0","pricing_plan_id":"cebpf4jnsgd1na2vs0mg"},{"bike_id":"ae53a9d1-01ac-447b-a4c7-269e1c5ac403","system_id":"levelo_inurba_marseille","lat":43.31822,"lon":5.40632,"is_reserved":false,"is_disabled":false,"rental_uris":{"android":"levelo://app?vid=ae53a9d1-01ac-447b-a4c7-269e1c5ac403","ios":"levelo://app?vid=ae53a9d1-01ac-447b-a4c7-269e1c5ac403"},"vehicle_type_id":"4","last_reported":1728238216,"current_range_meters":10800,"station_id":"","pricing_plan_id":"cebpf4jnsgd1na2vs0mg"},{"bike_id":"583707f1-0e79-4991-97d9-91493229adea","system_id":"levelo_inurba_marseille","lat":43.32658,"lon":5.40995,"is_reserved":false,"is_disabled":false,"rental_uris":{"android":"levelo://app?vid=583707f1-0e79-4991-97d9-91493229adea","ios":"levelo://app?vid=583707f1-0e79-4991-97d9-91493229adea"},"vehicle_type_id":"4","last_reported":1728238216,"current_range_meters":38800,"station_id":"ce4bhpp2rcd13ifvqhgg","pricing_plan_id":"cebpf4jnsgd1na2vs0mg"},{"bike_id":"c2d0b412-77d3-4739-9833-541d1b4fcbdb","system_id":"levelo_inurba_marseille","lat":43.29017,"lon":5.38144,"is_reserved":false,"is_disabled":false,"rental_uris":{"android":"levelo://app?vid=c2d0b412-77d3-4739-9833-541d1b4fcbdb","ios":"levelo://app?vid=c2d0b412-77d3-4739-9833-541d1b4fcbdb"},"vehicle_type_id":"4","last_reported":1728238216,"current_range_meters":13600,"station_id":"ce4bh4p2rcd13ifvqe1g","pricing_plan_id":"cebpf4jnsgd1na2vs0mg"},{"bike_id":"04a33901-208c-464b-a2e5-c2e330e0b864","system_id":"levelo_inurba_marseille","lat":43.27962,"lon":5.38768,"is_reserved":false,"is_disabled":false,"rental_uris":{"android":"levelo://app?vid=04a33901-208c-464b-a2e5-c2e330e0b864","ios":"levelo://app?vid=04a33901-208c-464b-a2e5-c2e330e0b864"},"vehicle_type_id":"4","last_reported":1728238216,"current_range_meters":18800,"station_id":"ce4bhg12rcd13ifvqf80","pricing_plan_id":"cebpf4jnsgd1na2vs0mg"},{"bike_id":"f2e423f4-98b9-448c-99ac-67b0b29768d5","system_id":"levelo_inurba_marseille","lat":43.30137,"lon":5.38788,"is_reserved":false,"is_disabled":false,"rental_uris":{"android":"levelo://app?vid=f2e423f4-98b9-448c-99ac-67b0b29768d5","ios":"levelo://app?vid=f2e423f4-98b9-448c-99ac-67b0b29768d5"},"vehicle_type_id":"4","last_reported":1728238216,"current_range_meters":38800,"station_id":"ce4bghh2rcd13ifvqb60","pricing_plan_id":"cebpf4jnsgd1na2vs0mg"},{"bike_id":"3d7f677e-eb80-41fa-9e7b-c7b40a94719e","system_id":"levelo_inurba_marseille","lat":43.29425,"lon":5.38623,"is_reserved":false,"is_disabled":false,"rental_uris":{"android":"levelo://app?vid=3d7f677e-eb80-41fa-9e7b-c7b40a94719e","ios":"levelo://app?vid=3d7f677e-eb80-41fa-9e7b-c7b40a94719e"},"vehicle_type_id":"4","last_reported":1728238216,"current_range_meters":20800,"station_id":"ce4bh2h2rcd13ifvqdh0","pricing_plan_id":"cebpf4jnsgd1na2vs0mg"},{"bike_id":"e2f02b07-7f39-4b93-97d7-19ee5e85dfdc","system_id":"levelo_inurba_marseille","lat":43.30957,"lon":5.39035,"is_reserved":false,"is_disabled":false,"rental_uris":{"android":"levelo://app?vid=e2f02b07-7f39-4b93-97d7-19ee5e85dfdc","ios":"levelo://app?vid=e2f02b07-7f39-4b93-97d7-19ee5e85dfdc"},"vehicle_type_id":"4","last_reported":1728238216,"current_range_meters":19200,"station_id":"ce4bgup2rcd13ifvqco0","pricing_plan_id":"cebpf4jnsgd1na2vs0mg"},{"bike_id":"8dea3b3f-b6ec-4739-9037-42b898bbb532","system_id":"levelo_inurba_marseille","lat":43.31332,"lon":5.3971,"is_reserved":false,"is_disabled":false,"rental_uris":{"android":"levelo://app?vid=8dea3b3f-b6ec-4739-9037-42b898bbb532","ios":"levelo://app?vid=8dea3b3f-b6ec-4739-9037-42b898bbb532"},"vehicle_type_id":"4","last_reported":1728238216,"current_range_meters":20400,"station_id":"ce4bgvp2rcd13ifvqcu0","pricing_plan_id":"cebpf4jnsgd1na2vs0mg"},{"bike_id":"c50e441c-d247-4c47-85e3-c59071bb20fa","system_id":"levelo_inurba_marseille","lat":43.2169,"lon":5.34644,"is_reserved":false,"is_disabled":false,"rental_uris":{"android":"levelo://app?vid=c50e441c-d247-4c47-85e3-c59071bb20fa","ios":"levelo://app?vid=c50e441c-d247-4c47-85e3-c59071bb20fa"},"vehicle_type_id":"4","last_reported":1728238216,"current_range_meters":28800,"station_id":"","pricing_plan_id":"cebpf4jnsgd1na2vs0mg"},{"bike_id":"cb0c4bb6-cb6f-4371-b1cd-d16d8e1b0e2d","system_id":"levelo_inurba_marseille","lat":43.23179,"lon":5.39994,"is_reserved":false,"is_disabled":false,"rental_uris":{"android":"levelo://app?vid=cb0c4bb6-cb6f-4371-b1cd-d16d8e1b0e2d","ios":"levelo://app?vid=cb0c4bb6-cb6f-4371-b1cd-d16d8e1b0e2d"},"vehicle_type_id":"4","last_reported":1728238216,"current_range_meters":32800,"station_id":"ce4bhn12rcd13ifvqgqg","pricing_plan_id":"cebpf4jnsgd1na2vs0mg"},{"bike_id":"12bab7d8-b076-484e-9b27-459c282d2718","system_id":"levelo_inurba_marseille","lat":43.29981,"lon":5.385,"is_reserved":false,"is_disabled":false,"rental_uris":{"android":"levelo://app?vid=12bab7d8-b076-484e-9b27-459c282d2718","ios":"levelo://app?vid=12bab7d8-b076-484e-9b27-459c282d2718"},"vehicle_type_id":"4","last_reported":1728238216,"current_range_meters":38000,"station_id":"ce4bgj92rcd13ifvqbd0","pricing_plan_id":"cebpf4jnsgd1na2vs0mg"},{"bike_id":"2c3e549a-0bb2-4fb9-bd22-57595391bba7","system_id":"levelo_inurba_marseille","lat":43.284819,"lon":5.384289,"is_reserved":false,"is_disabled":false,"rental_uris":{"android":"levelo://app?vid=2c3e549a-0bb2-4fb9-bd22-57595391bba7","ios":"levelo://app?vid=2c3e549a-0bb2-4fb9-bd22-57595391bba7"},"vehicle_type_id":"4","last_reported":1728238216,"current_range_meters":38800,"station_id":"ce4bh512rcd13ifvqe3g","pricing_plan_id":"cebpf4jnsgd1na2vs0mg"},{"bike_id":"e5159263-360e-4d62-bb8b-8c2d5ec37a86","system_id":"levelo_inurba_marseille","lat":43.251129,"lon":5.403198,"is_reserved":false,"is_disabled":false,"rental_uris":{"android":"levelo://app?vid=e5159263-360e-4d62-bb8b-8c2d5ec37a86","ios":"levelo://app?vid=e5159263-360e-4d62-bb8b-8c2d5ec37a86"},"vehicle_type_id":"4","last_reported":1728238216,"current_range_meters":38400,"station_id":"ce4bhg12rcd13ifvqf60","pricing_plan_id":"cebpf4jnsgd1na2vs0mg"},{"bike_id":"682a6f48-e179-45c3-8f5e-ffa30f61ea8c","system_id":"levelo_inurba_marseille","lat":43.268,"lon":5.40271,"is_reserved":false,"is_disabled":false,"rental_uris":{"android":"levelo://app?vid=682a6f48-e179-45c3-8f5e-ffa30f61ea8c","ios":"levelo://app?vid=682a6f48-e179-45c3-8f5e-ffa30f61ea8c"},"vehicle_type_id":"4","last_reported":1728238216,"current_range_meters":2800,"station_id":"ce501612rcd8frsf0b60","pricing_plan_id":"cebpf4jnsgd1na2vs0mg"},{"bike_id":"82c5d355-c9ba-4a5f-b8fa-0cb68543fc57","system_id":"levelo_inurba_marseille","lat":43.29801,"lon":5.38106,"is_reserved":false,"is_disabled":false,"rental_uris":{"android":"levelo://app?vid=82c5d355-c9ba-4a5f-b8fa-0cb68543fc57","ios":"levelo://app?vid=82c5d355-c9ba-4a5f-b8fa-0cb68543fc57"},"vehicle_type_id":"4","last_reported":1728238216,"current_range_meters":36400,"station_id":"ce4bh192rcd13ifvqdb0","pricing_plan_id":"cebpf4jnsgd1na2vs0mg"},{"bike_id":"08862731-200d-4c9b-8034-14d29982bac3","system_id":"levelo_inurba_marseille","lat":43.28931,"lon":5.36638,"is_reserved":false,"is_disabled":false,"rental_uris":{"android":"levelo://app?vid=08862731-200d-4c9b-8034-14d29982bac3","ios":"levelo://app?vid=08862731-200d-4c9b-8034-14d29982bac3"},"vehicle_type_id":"4","last_reported":1728238216,"current_range_meters":12000,"station_id":"ce4bhap2rcd13ifvqek0","pricing_plan_id":"cebpf4jnsgd1na2vs0mg"},{"bike_id":"d81e8b70-0cec-4a83-ac18-c99848066d32","system_id":"levelo_inurba_marseille","lat":43.2408,"lon":5.37754,"is_reserved":false,"is_disabled":false,"rental_uris":{"android":"levelo://app?vid=d81e8b70-0cec-4a83-ac18-c99848066d32","ios":"levelo://app?vid=d81e8b70-0cec-4a83-ac18-c99848066d32"},"vehicle_type_id":"4","last_reported":1728238216,"current_range_meters":4400,"station_id":"ce4bhnp2rcd13ifvqgvg","pricing_plan_id":"cebpf4jnsgd1na2vs0mg"},{"bike_id":"bdefae95-7cc5-4880-bfcb-b1af39586be0","system_id":"levelo_inurba_marseille","lat":43.32657,"lon":5.41001,"is_reserved":false,"is_disabled":false,"rental_uris":{"android":"levelo://app?vid=bdefae95-7cc5-4880-bfcb-b1af39586be0","ios":"levelo://app?vid=bdefae95-7cc5-4880-bfcb-b1af39586be0"},"vehicle_type_id":"4","last_reported":1728238216,"current_range_meters":36000,"station_id":"ce4bhpp2rcd13ifvqhgg","pricing_plan_id":"cebpf4jnsgd1na2vs0mg"},{"bike_id":"7f2584c3-186b-4ca9-b416-bee639b50e12","system_id":"levelo_inurba_marseille","lat":43.22935,"lon":5.35379,"is_reserved":false,"is_disabled":false,"rental_uris":{"android":"levelo://app?vid=7f2584c3-186b-4ca9-b416-bee639b50e12","ios":"levelo://app?vid=7f2584c3-186b-4ca9-b416-bee639b50e12"},"vehicle_type_id":"4","last_reported":1728238216,"current_range_meters":28000,"station_id":"cpo3532slgdg3j2ikp40","pricing_plan_id":"cebpf4jnsgd1na2vs0mg"},{"bike_id":"8b46f1a9-ab99-4482-8fb1-ac4bdf59056f","system_id":"levelo_inurba_marseille","lat":43.30313,"lon":5.36896,"is_reserved":false,"is_disabled":false,"rental_uris":{"android":"levelo://app?vid=8b46f1a9-ab99-4482-8fb1-ac4bdf59056f","ios":"levelo://app?vid=8b46f1a9-ab99-4482-8fb1-ac4bdf59056f"},"vehicle_type_id":"4","last_reported":1728238216,"current_range_meters":39200,"station_id":"ce4bgqh2rcd13ifvqc5g","pricing_plan_id":"cebpf4jnsgd1na2vs0mg"},{"bike_id":"1d152269-c2fa-4900-bfa9-f20a095e29df","system_id":"levelo_inurba_marseille","lat":43.2572,"lon":5.41113,"is_reserved":false,"is_disabled":false,"rental_uris":{"android":"levelo://app?vid=1d152269-c2fa-4900-bfa9-f20a095e29df","ios":"levelo://app?vid=1d152269-c2fa-4900-bfa9-f20a095e29df"},"vehicle_type_id":"4","last_reported":1728238216,"current_range_meters":38800,"station_id":"ce4bhkp2rcd13ifvqgd0","pricing_plan_id":"cebpf4jnsgd1na2vs0mg"},{"bike_id":"bda7eeb0-c2bb-4dca-beec-9300eae0ddef","system_id":"levelo_inurba_marseille","lat":43.27212,"lon":5.39188,"is_reserved":false,"is_disabled":false,"rental_uris":{"android":"levelo://app?vid=bda7eeb0-c2bb-4dca-beec-9300eae0ddef","ios":"levelo://app?vid=bda7eeb0-c2bb-4dca-beec-9300eae0ddef"},"vehicle_type_id":"4","last_reported":1728238216,"current_range_meters":4400,"station_id":"ce4bhhp2rcd13ifvqfm0","pricing_plan_id":"cebpf4jnsgd1na2vs0mg"},{"bike_id":"5182113f-8908-4825-903e-5a46e19bca5b","system_id":"levelo_inurba_marseille","lat":43.3247,"lon":5.36577,"is_reserved":false,"is_disabled":false,"rental_uris":{"android":"levelo://app?vid=5182113f-8908-4825-903e-5a46e19bca5b","ios":"levelo://app?vid=5182113f-8908-4825-903e-5a46e19bca5b"},"vehicle_type_id":"4","last_reported":1728238216,"current_range_meters":4800,"station_id":"ce4bhs12rcd13ifvqhvg","pricing_plan_id":"cebpf4jnsgd1na2vs0mg"},{"bike_id":"e03c9d0c-17ae-4003-b903-fd8aa9951041","system_id":"levelo_inurba_marseille","lat":43.33746,"lon":5.37457,"is_reserved":false,"is_disabled":false,"rental_uris":{"android":"levelo://app?vid=e03c9d0c-17ae-4003-b903-fd8aa9951041","ios":"levelo://app?vid=e03c9d0c-17ae-4003-b903-fd8aa9951041"},"vehicle_type_id":"4","last_reported":1728238216,"current_range_meters":32800,"station_id":"","pricing_plan_id":"cebpf4jnsgd1na2vs0mg"},{"bike_id":"09745276-47ff-4897-96d5-cc5039f9e83f","system_id":"levelo_inurba_marseille","lat":43.2885,"lon":5.35843,"is_reserved":false,"is_disabled":false,"rental_uris":{"android":"levelo://app?vid=09745276-47ff-4897-96d5-cc5039f9e83f","ios":"levelo://app?vid=09745276-47ff-4897-96d5-cc5039f9e83f"},"vehicle_type_id":"4","last_reported":1728238216,"current_range_meters":39200,"station_id":"ce4bhb12rcd13ifvqem0","pricing_plan_id":"cebpf4jnsgd1na2vs0mg"},{"bike_id":"bf9f66d8-6d06-46b8-9a19-5beaeba74cfb","system_id":"levelo_inurba_marseille","lat":43.27829,"lon":5.40708,"is_reserved":false,"is_disabled":false,"rental_uris":{"android":"levelo://app?vid=bf9f66d8-6d06-46b8-9a19-5beaeba74cfb","ios":"levelo://app?vid=bf9f66d8-6d06-46b8-9a19-5beaeba74cfb"},"vehicle_type_id":"4","last_reported":1728238216,"current_range_meters":8800,"station_id":"ce4bhnh2rcd13ifvqgtg","pricing_plan_id":"cebpf4jnsgd1na2vs0mg"},{"bike_id":"b329553f-cde0-4239-9a97-fcb172fd06d0","system_id":"levelo_inurba_marseille","lat":43.29577,"lon":5.37521,"is_reserved":false,"is_disabled":false,"rental_uris":{"android":"levelo://app?vid=b329553f-cde0-4239-9a97-fcb172fd06d0","ios":"levelo://app?vid=b329553f-cde0-4239-9a97-fcb172fd06d0"},"vehicle_type_id":"4","last_reported":1728238216,"current_range_meters":34000,"station_id":"ce4bgh92rcd13ifvqb50","pricing_plan_id":"cebpf4jnsgd1na2vs0mg"},{"bike_id":"1630a03d-6c40-4924-8ca1-9ab38d9bb402","system_id":"levelo_inurba_marseille","lat":43.29258,"lon":5.38445,"is_reserved":false,"is_disabled":false,"rental_uris":{"android":"levelo://app?vid=1630a03d-6c40-4924-8ca1-9ab38d9bb402","ios":"levelo://app?vid=1630a03d-6c40-4924-8ca1-9ab38d9bb402"},"vehicle_type_id":"4","last_reported":1728238216,"current_range_meters":38800,"station_id":"ce4bh692rcd13ifvqea0","pricing_plan_id":"cebpf4jnsgd1na2vs0mg"},{"bike_id":"a485b0d4-2721-435c-b41c-eed272d33850","system_id":"levelo_inurba_marseille","lat":43.25937,"lon":5.40909,"is_reserved":false,"is_disabled":false,"rental_uris":{"android":"levelo://app?vid=a485b0d4-2721-435c-b41c-eed272d33850","ios":"levelo://app?vid=a485b0d4-2721-435c-b41c-eed272d33850"},"vehicle_type_id":"4","last_reported":1728238216,"current_range_meters":26000,"station_id":"ce4bhm92rcd13ifvqglg","pricing_plan_id":"cebpf4jnsgd1na2vs0mg"},{"bike_id":"1311dd66-c7bc-4ab1-a000-6449f0aba32d","system_id":"levelo_inurba_marseille","lat":43.31325,"lon":5.3969,"is_reserved":false,"is_disabled":false,"rental_uris":{"android":"levelo://app?vid=1311dd66-c7bc-4ab1-a000-6449f0aba32d","ios":"levelo://app?vid=1311dd66-c7bc-4ab1-a000-6449f0aba32d"},"vehicle_type_id":"4","last_reported":1728238216,"current_range_meters":8400,"station_id":"ce4bgvp2rcd13ifvqcu0","pricing_plan_id":"cebpf4jnsgd1na2vs0mg"},{"bike_id":"333cb68b-ab3b-4e25-a398-530771203007","system_id":"levelo_inurba_marseille","lat":43.29178,"lon":5.37142,"is_reserved":false,"is_disabled":false,"rental_uris":{"android":"levelo://app?vid=333cb68b-ab3b-4e25-a398-530771203007","ios":"levelo://app?vid=333cb68b-ab3b-4e25-a398-530771203007"},"vehicle_type_id":"4","last_reported":1728238216,"current_range_meters":37600,"station_id":"ce4bha92rcd13ifvqeh0","pricing_plan_id":"cebpf4jnsgd1na2vs0mg"},{"bike_id":"d225f5ba-4021-4fcf-8bdd-acf0abf5705f","system_id":"levelo_inurba_marseille","lat":43.28155,"lon":5.4265,"is_reserved":false,"is_disabled":false,"rental_uris":{"android":"levelo://app?vid=d225f5ba-4021-4fcf-8bdd-acf0abf5705f","ios":"levelo://app?vid=d225f5ba-4021-4fcf-8bdd-acf0abf5705f"},"vehicle_type_id":"4","last_reported":1728238216,"current_range_meters":38800,"station_id":"ce4bhnh2rcd13ifvqgug","pricing_plan_id":"cebpf4jnsgd1na2vs0mg"},{"bike_id":"24963a71-29fc-4b78-bc58-245c9bead978","system_id":"levelo_inurba_marseille","lat":43.33016,"lon":5.3904,"is_reserved":false,"is_disabled":false,"rental_uris":{"android":"levelo://app?vid=24963a71-29fc-4b78-bc58-245c9bead978","ios":"levelo://app?vid=24963a71-29fc-4b78-bc58-245c9bead978"},"vehicle_type_id":"4","last_reported":1728238216,"current_range_meters":38800,"station_id":"ce4bhr92rcd13ifvqhrg","pricing_plan_id":"cebpf4jnsgd1na2vs0mg"},{"bike_id":"f6624e50-1465-49ba-8d31-cff50dcde1ea","system_id":"levelo_inurba_marseille","lat":43.288411,"lon":5.392958,"is_reserved":false,"is_disabled":false,"rental_uris":{"android":"levelo://app?vid=f6624e50-1465-49ba-8d31-cff50dcde1ea","ios":"levelo://app?vid=f6624e50-1465-49ba-8d31-cff50dcde1ea"},"vehicle_type_id":"4","last_reported":1728238216,"current_range_meters":38800,"station_id":"ce4bh2p2rcd13ifvqdi0","pricing_plan_id":"cebpf4jnsgd1na2vs0mg"},{"bike_id":"0e19ddb6-6b85-4f53-a309-557f590b598b","system_id":"levelo_inurba_marseille","lat":43.23197,"lon":5.35552,"is_reserved":false,"is_disabled":false,"rental_uris":{"android":"levelo://app?vid=0e19ddb6-6b85-4f53-a309-557f590b598b","ios":"levelo://app?vid=0e19ddb6-6b85-4f53-a309-557f590b598b"},"vehicle_type_id":"4","last_reported":1728238216,"current_range_meters":30800,"station_id":"ce4bhu92rcd13ifvqi70","pricing_plan_id":"cebpf4jnsgd1na2vs0mg"},{"bike_id":"64f20e38-2547-4ffb-813f-686820056c66","system_id":"levelo_inurba_marseille","lat":43.25497,"lon":5.37658,"is_reserved":false,"is_disabled":false,"rental_uris":{"android":"levelo://app?vid=64f20e38-2547-4ffb-813f-686820056c66","ios":"levelo://app?vid=64f20e38-2547-4ffb-813f-686820056c66"},"vehicle_type_id":"4","last_reported":1728238216,"current_range_meters":22000,"station_id":"ce4bhh12rcd13ifvqff0","pricing_plan_id":"cebpf4jnsgd1na2vs0mg"},{"bike_id":"cfb5fe75-3e3a-4c14-b2a5-49017037a75f","system_id":"levelo_inurba_marseille","lat":43.337444,"lon":5.374475,"is_reserved":false,"is_disabled":false,"rental_uris":{"android":"levelo://app?vid=cfb5fe75-3e3a-4c14-b2a5-49017037a75f","ios":"levelo://app?vid=cfb5fe75-3e3a-4c14-b2a5-49017037a75f"},"vehicle_type_id":"4","last_reported":1728238216,"current_range_meters":3600,"station_id":"ce4bh092rcd13ifvqd30","pricing_plan_id":"cebpf4jnsgd1na2vs0mg"},{"bike_id":"931fafd4-fc68-46ed-a00f-f620e27a829c","system_id":"levelo_inurba_marseille","lat":43.28153,"lon":5.42641,"is_reserved":false,"is_disabled":false,"rental_uris":{"android":"levelo://app?vid=931fafd4-fc68-46ed-a00f-f620e27a829c","ios":"levelo://app?vid=931fafd4-fc68-46ed-a00f-f620e27a829c"},"vehicle_type_id":"4","last_reported":1728238216,"current_range_meters":38800,"station_id":"ce4bhnh2rcd13ifvqgug","pricing_plan_id":"cebpf4jnsgd1na2vs0mg"},{"bike_id":"c40e7473-eda8-467d-b04f-a7296f10feec","system_id":"levelo_inurba_marseille","lat":43.29683,"lon":5.373,"is_reserved":false,"is_disabled":false,"rental_uris":{"android":"levelo://app?vid=c40e7473-eda8-467d-b04f-a7296f10feec","ios":"levelo://app?vid=c40e7473-eda8-467d-b04f-a7296f10feec"},"vehicle_type_id":"4","last_reported":1728238216,"current_range_meters":2800,"station_id":"ce4bgk12rcd13ifvqbj0","pricing_plan_id":"cebpf4jnsgd1na2vs0mg"},{"bike_id":"7060af44-386c-4c2f-938c-52584e6dd539","system_id":"levelo_inurba_marseille","lat":43.28613,"lon":5.35106,"is_reserved":false,"is_disabled":false,"rental_uris":{"android":"levelo://app?vid=7060af44-386c-4c2f-938c-52584e6dd539","ios":"levelo://app?vid=7060af44-386c-4c2f-938c-52584e6dd539"},"vehicle_type_id":"4","last_reported":1728238216,"current_range_meters":16400,"station_id":"ce4bhch2rcd13ifvqeug","pricing_plan_id":"cebpf4jnsgd1na2vs0mg"},{"bike_id":"f78b6736-8632-41e6-b3cf-57969b39aae5","system_id":"levelo_inurba_marseille","lat":43.29437,"lon":5.39763,"is_reserved":false,"is_disabled":false,"rental_uris":{"android":"levelo://app?vid=f78b6736-8632-41e6-b3cf-57969b39aae5","ios":"levelo://app?vid=f78b6736-8632-41e6-b3cf-57969b39aae5"},"vehicle_type_id":"4","last_reported":1728238216,"current_range_meters":8000,"station_id":"ce4bh3h2rcd13ifvqdo0","pricing_plan_id":"cebpf4jnsgd1na2vs0mg"},{"bike_id":"0702cada-67d6-4bce-8a5a-2019f2936da3","system_id":"levelo_inurba_marseille","lat":43.31529,"lon":5.38038,"is_reserved":false,"is_disabled":false,"rental_uris":{"android":"levelo://app?vid=0702cada-67d6-4bce-8a5a-2019f2936da3","ios":"levelo://app?vid=0702cada-67d6-4bce-8a5a-2019f2936da3"},"vehicle_type_id":"4","last_reported":1728238216,"current_range_meters":6800,"station_id":"ce4bhsp2rcd13ifvqi50","pricing_plan_id":"cebpf4jnsgd1na2vs0mg"},{"bike_id":"17600258-64d6-42a6-90ba-33951bbd1bfa","system_id":"levelo_inurba_marseille","lat":43.31289,"lon":5.38283,"is_reserved":false,"is_disabled":false,"rental_uris":{"android":"levelo://app?vid=17600258-64d6-42a6-90ba-33951bbd1bfa","ios":"levelo://app?vid=17600258-64d6-42a6-90ba-33951bbd1bfa"},"vehicle_type_id":"4","last_reported":1728238216,"current_range_meters":9200,"station_id":"ce4bgt12rcd13ifvqcd0","pricing_plan_id":"cebpf4jnsgd1na2vs0mg"},{"bike_id":"6b9e8b48-32c1-431b-a24c-34ce1681dafd","system_id":"levelo_inurba_marseille","lat":43.307922,"lon":5.381505,"is_reserved":false,"is_disabled":false,"rental_uris":{"android":"levelo://app?vid=6b9e8b48-32c1-431b-a24c-34ce1681dafd","ios":"levelo://app?vid=6b9e8b48-32c1-431b-a24c-34ce1681dafd"},"vehicle_type_id":"4","last_reported":1728238216,"current_range_meters":6400,"station_id":"ce4bgt12rcd13ifvqce0","pricing_plan_id":"cebpf4jnsgd1na2vs0mg"},{"bike_id":"6856d22e-440d-40d9-809f-3167dacdbdc3","system_id":"levelo_inurba_marseille","lat":43.337444,"lon":5.374475,"is_reserved":false,"is_disabled":false,"rental_uris":{"android":"levelo://app?vid=6856d22e-440d-40d9-809f-3167dacdbdc3","ios":"levelo://app?vid=6856d22e-440d-40d9-809f-3167dacdbdc3"},"vehicle_type_id":"4","last_reported":1728238216,"current_range_meters":14000,"station_id":"","pricing_plan_id":"cebpf4jnsgd1na2vs0mg"},{"bike_id":"423ff085-2925-4053-bf85-613169d9e437","system_id":"levelo_inurba_marseille","lat":43.28254,"lon":5.37289,"is_reserved":false,"is_disabled":false,"rental_uris":{"android":"levelo://app?vid=423ff085-2925-4053-bf85-613169d9e437","ios":"levelo://app?vid=423ff085-2925-4053-bf85-613169d9e437"},"vehicle_type_id":"4","last_reported":1728238216,"current_range_meters":34000,"station_id":"","pricing_plan_id":"cebpf4jnsgd1na2vs0mg"},{"bike_id":"bc70d024-e8fb-4c3f-8740-e24da42f1b95","system_id":"levelo_inurba_marseille","lat":43.28151,"lon":5.42653,"is_reserved":false,"is_disabled":false,"rental_uris":{"android":"levelo://app?vid=bc70d024-e8fb-4c3f-8740-e24da42f1b95","ios":"levelo://app?vid=bc70d024-e8fb-4c3f-8740-e24da42f1b95"},"vehicle_type_id":"4","last_reported":1728238216,"current_range_meters":39200,"station_id":"ce4bhnh2rcd13ifvqgug","pricing_plan_id":"cebpf4jnsgd1na2vs0mg"},{"bike_id":"9e95424d-0519-4551-b12e-5e15e6a9289a","system_id":"levelo_inurba_marseille","lat":43.29263,"lon":5.36853,"is_reserved":false,"is_disabled":false,"rental_uris":{"android":"levelo://app?vid=9e95424d-0519-4551-b12e-5e15e6a9289a","ios":"levelo://app?vid=9e95424d-0519-4551-b12e-5e15e6a9289a"},"vehicle_type_id":"4","last_reported":1728238216,"current_range_meters":3200,"station_id":"ce4bhbp2rcd13ifvqesg","pricing_plan_id":"cebpf4jnsgd1na2vs0mg"},{"bike_id":"cb78e12e-8999-4e66-9f81-76cf8d49c57b","system_id":"levelo_inurba_marseille","lat":43.301514,"lon":5.380865,"is_reserved":false,"is_disabled":false,"rental_uris":{"android":"levelo://app?vid=cb78e12e-8999-4e66-9f81-76cf8d49c57b","ios":"levelo://app?vid=cb78e12e-8999-4e66-9f81-76cf8d49c57b"},"vehicle_type_id":"4","last_reported":1728238216,"current_range_meters":16400,"station_id":"ce4bhc92rcd13ifvqetg","pricing_plan_id":"cebpf4jnsgd1na2vs0mg"},{"bike_id":"14768d46-7a56-4333-8474-b9a5d38a16fb","system_id":"levelo_inurba_marseille","lat":43.25086,"lon":5.39526,"is_reserved":false,"is_disabled":false,"rental_uris":{"android":"levelo://app?vid=14768d46-7a56-4333-8474-b9a5d38a16fb","ios":"levelo://app?vid=14768d46-7a56-4333-8474-b9a5d38a16fb"},"vehicle_type_id":"4","last_reported":1728238216,"current_range_meters":25200,"station_id":"ce4bhm12rcd13ifvqgkg","pricing_plan_id":"cebpf4jnsgd1na2vs0mg"},{"bike_id":"3493a13b-e5dc-4da5-9aa6-b2efa6433312","system_id":"levelo_inurba_marseille","lat":43.31372,"lon":5.3849,"is_reserved":false,"is_disabled":false,"rental_uris":{"android":"levelo://app?vid=3493a13b-e5dc-4da5-9aa6-b2efa6433312","ios":"levelo://app?vid=3493a13b-e5dc-4da5-9aa6-b2efa6433312"},"vehicle_type_id":"4","last_reported":1728238216,"current_range_meters":36800,"station_id":"ce4bgt92rcd13ifvqcf0","pricing_plan_id":"cebpf4jnsgd1na2vs0mg"},