{"last_updated":1733857658,"ttl":60,"version":"2.2","data":{"bikes":[{"bike_id":"20e7158e-c6e0-4a8c-897a-1bb8b5451f5c","system_id":"levelo_inurba_marseille","lat":43.22933,"lon":5.35379,"is_reserved":false,"is_disabled":false,"rental_uris":{"android":"levelo://app?vid=20e7158e-c6e0-4a8c-897a-1bb8b5451f5c","ios":"levelo://app?vid=20e7158e-c6e0-4a8c-897a-1bb8b5451f5c"},"vehicle_type_id":"4","last_reported":1733857658,"current_range_meters":24000,"station_id":"cpo3532slgdg3j2ikp40","pricing_plan_id":"cebpf4jnsgd1na2vs0mg"},{"bike_id":"cd3ea23b-0fc9-4b65-a5ae-f91c4c7dfe85","system_id":"levelo_inurba_marseille","lat":43.28267,"lon":5.35093,"is_reserved":false,"is_disabled":false,"rental_uris":{"android":"levelo://app?vid=cd3ea23b-0fc9-4b65-a5ae-f91c4c7dfe85","ios":"levelo://app?vid=cd3ea23b-0fc9-4b65-a5ae-f91c4c7dfe85"},"vehicle_type_id":"4","last_reported":1733857658,"current_range_meters":33600,"station_id":"ce4bhbp2rcd13ifvqerg","pricing_plan_id":"cebpf4jnsgd1na2vs0mg"},{"bike_id":"9e840671-2878-4845-b8fb-114afd1f4bc9","system_id":"levelo_inurba_marseille","lat":43.26686,"lon":5.38274,"is_reserved":false,"is_disabled":true,"rental_uris":{"android":"levelo://app?vid=9e840671-2878-4845-b8fb-114afd1f4bc9","ios":"levelo://app?vid=9e840671-2878-4845-b8fb-114afd1f4bc9"},"vehicle_type_id":"4","last_reported":1733857658,"current_range_meters":0,"station_id":"ce4bhg92rcd13ifvqf90","pricing_plan_id":"cebpf4jnsgd1na2vs0mg"},{"bike_id":"8e029eaf-e104-4c5d-858d-6cd39de73d09","system_id":"levelo_inurba_marseille","lat":43.24163,"lon":5.36389,"is_reserved":false,"is_disabled":false,"rental_uris":{"android":"levelo://app?vid=8e029eaf-e104-4c5d-858d-6cd39de73d09","ios":"levelo://app?vid=8e029eaf-e104-4c5d-858d-6cd39de73d09"},"vehicle_type_id":"4","last_reported":1733857658,"current_range_meters":15200,"station_id":"cpo36qri1sfpv3e86is0","pricing_plan_id":"cebpf4jnsgd1na2vs0mg"},{"bike_id":"b54b8e4f-5b34-4e8f-99cd-4904af646606","system_id":"levelo_inurba_marseille","lat":43.27497,"lon":5.42456,"is_reserved":false,"is_disabled":false,"rental_uris":{"android":"levelo://app?vid=b54b8e4f-5b34-4e8f-99cd-4904af646606","ios":"levelo://app?vid=b54b8e4f-5b34-4e8f-99cd-4904af646606"},"vehicle_type_id":"4","last_reported":1733857658,"current_range_meters":16000,"station_id":"ce4bhn92rcd13ifvqgrg","pricing_plan_id":"cebpf4jnsgd1na2vs0mg"},{"bike_id":"512227a8-7457-4f8a-92d2-b28c7de0d494","system_id":"levelo_inurba_marseille","lat":43.26037,"lon":5.3938,"is_reserved":false,"is_disabled":false,"rental_uris":{"android":"levelo://app?vid=512227a8-7457-4f8a-92d2-b28c7de0d494","ios":"levelo://app?vid=512227a8-7457-4f8a-92d2-b28c7de0d494"},"vehicle_type_id":"4","last_reported":1733857658,"current_range_meters":30400,"station_id":"ce4bhh92rcd13ifvqfj0","pricing_plan_id":"cebpf4jnsgd1na2vs0mg"},{"bike_id":"244de283-ddd6-41a5-9ee4-cce7c94d960a","system_id":"levelo_inurba_marseille","lat":43.30807,"lon":5.38152,"is_reserved":false,"is_disabled":true,"rental_uris":{"android":"levelo://app?vid=244de283-ddd6-41a5-9ee4-cce7c94d960a","ios":"levelo://app?vid=244de283-ddd6-41a5-9ee4-cce7c94d960a"},"vehicle_type_id":"4","last_reported":1733857658,"current_range_meters":0,"station_id":"ce4bgt12rcd13ifvqce0","pricing_plan_id":"cebpf4jnsgd1na2vs0mg"},{"bike_id":"eb4cb7f5-6708-43d8-9cbb-61ef1ca7111c","system_id":"levelo_inurba_marseille","lat":43.29231,"lon":5.3607,"is_reserved":false,"is_disabled":false,"rental_uris":{"android":"levelo://app?vid=eb4cb7f5-6708-43d8-9cbb-61ef1ca7111c","ios":"levelo://app?vid=eb4cb7f5-6708-43d8-9cbb-61ef1ca7111c"},"vehicle_type_id":"4","last_reported":1733857658,"current_range_meters":20000,"station_id":"ce4bhbh2rcd13ifvqeqg","pricing_plan_id":"cebpf4jnsgd1na2vs0mg"},{"bike_id":"014914cf-eb98-4b5d-8cd3-12a67a219c23","system_id":"levelo_inurba_marseille","lat":43.3361,"lon":5.41017,"is_reserved":false,"is_disabled":true,"rental_uris":{"android":"levelo://app?vid=014914cf-eb98-4b5d-8cd3-12a67a219c23","ios":"levelo://app?vid=014914cf-eb98-4b5d-8cd3-12a67a219c23"},"vehicle_type_id":"4","last_reported":1733857658,"current_range_meters":36800,"station_id":"ce4bhqh2rcd13ifvqhmg","pricing_plan_id":"cebpf4jnsgd1na2vs0mg"},{"bike_id":"44a7c38c-33e2-4d40-ad1e-151297eb2855","system_id":"levelo_inurba_marseille","lat":43.28003,"lon":5.40001,"is_reserved":false,"is_disabled":false,"rental_uris":{"android":"levelo://app?vid=44a7c38c-33e2-4d40-ad1e-151297eb2855","ios":"levelo://app?vid=44a7c38c-33e2-4d40-ad1e-151297eb2855"},"vehicle_type_id":"4","last_reported":1733857658,"current_range_meters":16400,"station_id":"ce4bho92rcd13ifvqh4g","pricing_plan_id":"cebpf4jnsgd1na2vs0mg"},{"bike_id":"8517ae66-f6ff-4dd6-9d2d-51917863b4c1","system_id":"levelo_inurba_marseille","lat":43.3089,"lon":5.3965,"is_reserved":false,"is_disabled":true,"rental_uris":{"android":"levelo://app?vid=8517ae66-f6ff-4dd6-9d2d-51917863b4c1","ios":"levelo://app?vid=8517ae66-f6ff-4dd6-9d2d-51917863b4c1"},"vehicle_type_id":"4","last_reported":1733857658,"current_range_meters":0,"station_id":"ce4bh012rcd13ifvqcv0","pricing_plan_id":"cebpf4jnsgd1na2vs0mg"},{"bike_id":"8bd642b2-0279-44c7-9ee2-fc3b57332c83","system_id":"levelo_inurba_marseille","lat":43.27455,"lon":5.40073,"is_reserved":false,"is_disabled":true,"rental_uris":{"android":"levelo://app?vid=8bd642b2-0279-44c7-9ee2-fc3b57332c83","ios":"levelo://app?vid=8bd642b2-0279-44c7-9ee2-fc3b57332c83"},"vehicle_type_id":"4","last_reported":1733857658,"current_range_meters":0,"station_id":"","pricing_plan_id":"cebpf4jnsgd1na2vs0mg"},{"bike_id":"59b0b34c-6f92-4349-9ebf-bf641fd76061","system_id":"levelo_inurba_marseille","lat":43.27063,"lon":5.42286,"is_reserved":false,"is_disabled":true,"rental_uris":{"android":"levelo://app?vid=59b0b34c-6f92-4349-9ebf-bf641fd76061","ios":"levelo://app?vid=59b0b34c-6f92-4349-9ebf-bf641fd76061"},"vehicle_type_id":"4","last_reported":1733857658,"current_range_meters":30000,"station_id":"ce4bhk92rcd13ifvqgb0","pricing_plan_id":"cebpf4jnsgd1na2vs0mg"},{"bike_id":"0e97a4f9-9494-4d18-8014-d897be428619","system_id":"levelo_inurba_marseille","lat":43.30592,"lon":5.40168,"is_reserved":false,"is_disabled":false,"rental_uris":{"android":"levelo://app?vid=0e97a4f9-9494-4d18-8014-d897be428619","ios":"levelo://app?vid=0e97a4f9-9494-4d18-8014-d897be428619"},"vehicle_type_id":"4","last_reported":1733857658,"current_range_meters":22000,"station_id":"","pricing_plan_id":"cebpf4jnsgd1na2vs0mg"},{"bike_id":"0aad5a11-03ea-4a8f-ae5e-659145c08a75","system_id":"levelo_inurba_marseille","lat":43.29226,"lon":5.36056,"is_reserved":false,"is_disabled":false,"rental_uris":{"android":"levelo://app?vid=0aad5a11-03ea-4a8f-ae5e-659145c08a75","ios":"levelo://app?vid=0aad5a11-03ea-4a8f-ae5e-659145c08a75"},"vehicle_type_id":"4","last_reported":1733857658,"current_range_meters":13600,"station_id":"ce4bhbh2rcd13ifvqeqg","pricing_plan_id":"cebpf4jnsgd1na2vs0mg"},{"bike_id":"aebbea8f-e054-4629-b15d-a0dad453f30e","system_id":"levelo_inurba_marseille","lat":43.29035,"lon":5.35922,"is_reserved":false,"is_disabled":false,"rental_uris":{"android":"levelo://app?vid=aebbea8f-e054-4629-b15d-a0dad453f30e","ios":"levelo://app?vid=aebbea8f-e054-4629-b15d-a0dad453f30e"},"vehicle_type_id":"4","last_reported":1733857658,"current_range_meters":11600,"station_id":"ce4bha92rcd13ifvqeg0","pricing_plan_id":"cebpf4jnsgd1na2vs0mg"},{"bike_id":"f09914a1-032a-4233-965f-c73f49a269ba","system_id":"levelo_inurba_marseille","lat":43.337444,"lon":5.374475,"is_reserved":false,"is_disabled":true,"rental_uris":{"android":"levelo://app?vid=f09914a1-032a-4233-965f-c73f49a269ba","ios":"levelo://app?vid=f09914a1-032a-4233-965f-c73f49a269ba"},"vehicle_type_id":"4","last_reported":1733857658,"current_range_meters":0,"station_id":"","pricing_plan_id":"cebpf4jnsgd1na2vs0mg"},{"bike_id":"c1d3fdd9-090b-446a-9a55-c32b915bc6d3","system_id":"levelo_inurba_marseille","lat":43.29218,"lon":5.36061,"is_reserved":false,"is_disabled":false,"rental_uris":{"android":"levelo://app?vid=c1d3fdd9-090b-446a-9a55-c32b915bc6d3","ios":"levelo://app?vid=c1d3fdd9-090b-446a-9a55-c32b915bc6d3"},"vehicle_type_id":"4","last_reported":1733857658,"current_range_meters":26000,"station_id":"ce4bhbh2rcd13ifvqeqg","pricing_plan_id":"cebpf4jnsgd1na2vs0mg"},{"bike_id":"4232301f-62cf-4f72-99fa-7b7e52509b87","system_id":"levelo_inurba_marseille","lat":43.337444,"lon":5.374475,"is_reserved":false,"is_disabled":true,"rental_uris":{"android":"levelo://app?vid=4232301f-62cf-4f72-99fa-7b7e52509b87","ios":"levelo://app?vid=4232301f-62cf-4f72-99fa-7b7e52509b87"},"vehicle_type_id":"4","last_reported":1733857658,"current_range_meters":32800,"station_id":"ce4bhoh2rcd13ifvqh5g","pricing_plan_id":"cebpf4jnsgd1na2vs0mg"},{"bike_id":"f6ceca24-19af-4ed8-b20b-dad7699688ae","system_id":"levelo_inurba_marseille","lat":43.32487,"lon":5.36571,"is_reserved":false,"is_disabled":true,"rental_uris":{"android":"levelo://app?vid=f6ceca24-19af-4ed8-b20b-dad7699688ae","ios":"levelo://app?vid=f6ceca24-19af-4ed8-b20b-dad7699688ae"},"vehicle_type_id":"4","last_reported":1733857658,"current_range_meters":22800,"station_id":"ce4bhs12rcd13ifvqhvg","pricing_plan_id":"cebpf4jnsgd1na2vs0mg"},{"bike_id":"a7b350a5-fee3-4ec6-8306-388875022e13","system_id":"levelo_inurba_marseille","lat":43.28939,"lon":5.3664,"is_reserved":false,"is_disabled":false,"rental_uris":{"android":"levelo://app?vid=a7b350a5-fee3-4ec6-8306-388875022e13","ios":"levelo://app?vid=a7b350a5-fee3-4ec6-8306-388875022e13"},"vehicle_type_id":"4","last_reported":1733857658,"current_range_meters":22000,"station_id":"ce4bhap2rcd13ifvqek0","pricing_plan_id":"cebpf4jnsgd1na2vs0mg"},{"bike_id":"2777da94-e629-4002-8814-7c852e2a40ba","system_id":"levelo_inurba_marseille","lat":43.29929,"lon":5.36523,"is_reserved":false,"is_disabled":false,"rental_uris":{"android":"levelo://app?vid=2777da94-e629-4002-8814-7c852e2a40ba","ios":"levelo://app?vid=2777da94-e629-4002-8814-7c852e2a40ba"},"vehicle_type_id":"4","last_reported":1733857658,"current_range_meters":33600,"station_id":"ce4bgm92rcd13ifvqbr0","pricing_plan_id":"cebpf4jnsgd1na2vs0mg"},{"bike_id":"3ccfe5af-5881-4be0-a28b-0f4f7d744e08","system_id":"levelo_inurba_marseille","lat":43.29038,"lon":5.37569,"is_reserved":false,"is_disabled":true,"rental_uris":{"android":"levelo://app?vid=3ccfe5af-5881-4be0-a28b-0f4f7d744e08","ios":"levelo://app?vid=3ccfe5af-5881-4be0-a28b-0f4f7d744e08"},"vehicle_type_id":"4","last_reported":1733857658,"current_range_meters":0,"station_id":"ce4bh692rcd13ifvqe90","pricing_plan_id":"cebpf4jnsgd1na2vs0mg"},{"bike_id":"8adc1484-2d31-465e-9e5a-26a9521c7334","system_id":"levelo_inurba_marseille","lat":43.291,"lon":5.38142,"is_reserved":false,"is_disabled":true,"rental_uris":{"android":"levelo://app?vid=8adc1484-2d31-465e-9e5a-26a9521c7334","ios":"levelo://app?vid=8adc1484-2d31-465e-9e5a-26a9521c7334"},"vehicle_type_id":"4","last_reported":1733857658,"current_range_meters":0,"station_id":"ce4bh512rcd13ifvqe2g","pricing_plan_id":"cebpf4jnsgd1na2vs0mg"},{"bike_id":"3a72f619-38cd-4761-b44c-485aef096561","system_id":"levelo_inurba_marseille","lat":43.29433,"lon":5.39758,"is_reserved":false,"is_disabled":false,"rental_uris":{"android":"levelo://app?vid=3a72f619-38cd-4761-b44c-485aef096561","ios":"levelo://app?vid=3a72f619-38cd-4761-b44c-485aef096561"},"vehicle_type_id":"4","last_reported":1733857658,"current_range_meters":14000,"station_id":"ce4bh3h2rcd13ifvqdo0","pricing_plan_id":"cebpf4jnsgd1na2vs0mg"},{"bike_id":"6547f074-fdd6-40e0-afe2-18e87d9a5a44","system_id":"levelo_inurba_marseille","lat":43.31276,"lon":5.40177,"is_reserved":false,"is_disabled":false,"rental_uris":{"android":"levelo://app?vid=6547f074-fdd6-40e0-afe2-18e87d9a5a44","ios":"levelo://app?vid=6547f074-fdd6-40e0-afe2-18e87d9a5a44"},"vehicle_type_id":"4","last_reported":1733857658,"current_range_meters":38800,"station_id":"ce4bh092rcd13ifvqd30","pricing_plan_id":"cebpf4jnsgd1na2vs0mg"},{"bike_id":"9798a14a-cd61-47ed-aaf1-b8c85e3fdb91","system_id":"levelo_inurba_marseille","lat":43.2894,"lon":5.3663,"is_reserved":false,"is_disabled":true,"rental_uris":{"android":"levelo://app?vid=9798a14a-cd61-47ed-aaf1-b8c85e3fdb91","ios":"levelo://app?vid=9798a14a-cd61-47ed-aaf1-b8c85e3fdb91"},"vehicle_type_id":"4","last_reported":1733857658,"current_range_meters":4400,"station_id":"ce4bhap2rcd13ifvqek0","pricing_plan_id":"cebpf4jnsgd1na2vs0mg"},{"bike_id":"e8d6a65e-f535-4b14-8d99-b9e26864f42c","system_id":"levelo_inurba_marseille","lat":43.27916,"lon":5.39576,"is_reserved":false,"is_disabled":false,"rental_uris":{"android":"levelo://app?vid=e8d6a65e-f535-4b14-8d99-b9e26864f42c","ios":"levelo://app?vid=e8d6a65e-f535-4b14-8d99-b9e26864f42c"},"vehicle_type_id":"4","last_reported":1733857658,"current_range_meters":38800,"station_id":"ce4bhf92rcd13ifvqf40","pricing_plan_id":"cebpf4jnsgd1na2vs0mg"},{"bike_id":"98307136-80a4-466f-817c-d269e3457acc","system_id":"levelo_inurba_marseille","lat":43.32237,"lon":5.3761,"is_reserved":false,"is_disabled":false,"rental_uris":{"android":"levelo://app?vid=98307136-80a4-466f-817c-d269e3457acc","ios":"levelo://app?vid=98307136-80a4-466f-817c-d269e3457acc"},"vehicle_type_id":"4","last_reported":1733857658,"current_range_meters":32400,"station_id":"","pricing_plan_id":"cebpf4jnsgd1na2vs0mg"},{"bike_id":"fa6b19f0-7881-4516-9567-17a63bc55889","system_id":"levelo_inurba_marseille","lat":43.30884,"lon":5.39649,"is_reserved":false,"is_disabled":false,"rental_uris":{"android":"levelo://app?vid=fa6b19f0-7881-4516-9567-17a63bc55889","ios":"levelo://app?vid=fa6b19f0-7881-4516-9567-17a63bc55889"},"vehicle_type_id":"4","last_reported":1733857658,"current_range_meters":22000,"station_id":"ce4bh012rcd13ifvqcv0","pricing_plan_id":"cebpf4jnsgd1na2vs0mg"},{"bike_id":"712f58b2-0b20-41da-bb7d-e5251d897221","system_id":"levelo_inurba_marseille","lat":43.255804,"lon":5.382273,"is_reserved":false,"is_disabled":false,"rental_uris":{"android":"levelo://app?vid=712f58b2-0b20-41da-bb7d-e5251d897221","ios":"levelo://app?vid=712f58b2-0b20-41da-bb7d-e5251d897221"},"vehicle_type_id":"4","last_reported":1733857658,"current_range_meters":39200,"station_id":"ce4bhih2rcd13ifvqfs0","pricing_plan_id":"cebpf4jnsgd1na2vs0mg"},{"bike_id":"f6c0af86-7d59-45db-b8fd-d24c8b6373ce","system_id":"levelo_inurba_marseille","lat":43.33022,"lon":5.3904,"is_reserved":false,"is_disabled":false,"rental_uris":{"android":"levelo://app?vid=f6c0af86-7d59-45db-b8fd-d24c8b6373ce","ios":"levelo://app?vid=f6c0af86-7d59-45db-b8fd-d24c8b6373ce"},"vehicle_type_id":"4","last_reported":1733857658,"current_range_meters":16400,"station_id":"ce4bhr92rcd13ifvqhrg","pricing_plan_id":"cebpf4jnsgd1na2vs0mg"},{"bike_id":"c7c7e7af-68d7-42c6-9006-8f372f13c86b","system_id":"levelo_inurba_marseille","lat":43.27924,"lon":5.41057,"is_reserved":false,"is_disabled":false,"rental_uris":{"android":"levelo://app?vid=c7c7e7af-68d7-42c6-9006-8f372f13c86b","ios":"levelo://app?vid=c7c7e7af-68d7-42c6-9006-8f372f13c86b"},"vehicle_type_id":"4","last_reported":1733857658,"current_range_meters":24000,"station_id":"ce4bhnp2rcd13ifvqh0g","pricing_plan_id":"cebpf4jnsgd1na2vs0mg"},{"bike_id":"d7a879f6-0e25-4ad7-a843-848b313ff6c1","system_id":"levelo_inurba_marseille","lat":43.29443,"lon":5.39755,"is_reserved":false,"is_disabled":true,"rental_uris":{"android":"levelo://app?vid=d7a879f6-0e25-4ad7-a843-848b313ff6c1","ios":"levelo://app?vid=d7a879f6-0e25-4ad7-a843-848b313ff6c1"},"vehicle_type_id":"4","last_reported":1733857658,"current_range_meters":38800,"station_id":"ce4bh3h2rcd13ifvqdo0","pricing_plan_id":"cebpf4jnsgd1na2vs0mg"},{"bike_id":"2f3968e7-9336-4ee4-ba78-8e92c0a818cc","system_id":"levelo_inurba_marseille","lat":43.31322,"lon":5.36647,"is_reserved":false,"is_disabled":true,"rental_uris":{"android":"levelo://app?vid=2f3968e7-9336-4ee4-ba78-8e92c0a818cc","ios":"levelo://app?vid=2f3968e7-9336-4ee4-ba78-8e92c0a818cc"},"vehicle_type_id":"4","last_reported":1733857658,"current_range_meters":0,"station_id":"","pricing_plan_id":"cebpf4jnsgd1na2vs0mg"},{"bike_id":"e4b71c7a-7847-40e2-a428-1a3027941dcf","system_id":"levelo_inurba_marseille","lat":43.27997,"lon":5.40003,"is_reserved":false,"is_disabled":false,"rental_uris":{"android":"levelo://app?vid=e4b71c7a-7847-40e2-a428-1a3027941dcf","ios":"levelo://app?vid=e4b71c7a-7847-40e2-a428-1a3027941dcf"},"vehicle_type_id":"4","last_reported":1733857658,"current_range_meters":8400,"station_id":"ce4bho92rcd13ifvqh4g","pricing_plan_id":"cebpf4jnsgd1na2vs0mg"},{"bike_id":"7f31f384-e337-4272-9da9-11946590de52","system_id":"levelo_inurba_marseille","lat":43.3287,"lon":5.399465,"is_reserved":false,"is_disabled":true,"rental_uris":{"android":"levelo://app?vid=7f31f384-e337-4272-9da9-11946590de52","ios":"levelo://app?vid=7f31f384-e337-4272-9da9-11946590de52"},"vehicle_type_id":"4","last_reported":1733857658,"current_range_meters":38400,"station_id":"","pricing_plan_id":"cebpf4jnsgd1na2vs0mg"},{"bike_id":"75791e08-5163-4396-ab56-c5d4b5cc5ecd","system_id":"levelo_inurba_marseille","lat":43.24385,"lon":5.37069,"is_reserved":false,"is_disabled":true,"rental_uris":{"android":"levelo://app?vid=75791e08-5163-4396-ab56-c5d4b5cc5ecd","ios":"levelo://app?vid=75791e08-5163-4396-ab56-c5d4b5cc5ecd"},"vehicle_type_id":"4","last_reported":1733857658,"current_range_meters":0,"station_id":"ce4bhhh2rcd13ifvqfk0","pricing_plan_id":"cebpf4jnsgd1na2vs0mg"},{"bike_id":"df4feb1f-9980-495a-9019-b10d3b2deeda","system_id":"levelo_inurba_marseille","lat":43.27999,"lon":5.40007,"is_reserved":false,"is_disabled":true,"rental_uris":{"android":"levelo://app?vid=df4feb1f-9980-495a-9019-b10d3b2deeda","ios":"levelo://app?vid=df4feb1f-9980-495a-9019-b10d3b2deeda"},"vehicle_type_id":"4","last_reported":1733857658,"current_range_meters":3200,"station_id":"ce4bho92rcd13ifvqh4g","pricing_plan_id":"cebpf4jnsgd1na2vs0mg"},{"bike_id":"fc02a29f-8d65-4938-b367-36f953bcb5dc","system_id":"levelo_inurba_marseille","lat":43.31117,"lon":5.37771,"is_reserved":false,"is_disabled":false,"rental_uris":{"android":"levelo://app?vid=fc02a29f-8d65-4938-b367-36f953bcb5dc","ios":"levelo://app?vid=fc02a29f-8d65-4938-b367-36f953bcb5dc"},"vehicle_type_id":"4","last_reported":1733857658,"current_range_meters":16400,"station_id":"ce4bgt92rcd13ifvqcg0","pricing_plan_id":"cebpf4jnsgd1na2vs0mg"},{"bike_id":"7fe64f85-ade7-4e66-a9d3-de8d999d7834","system_id":"levelo_inurba_marseille","lat":43.2661,"lon":5.39049,"is_reserved":false,"is_disabled":false,"rental_uris":{"android":"levelo://app?vid=7fe64f85-ade7-4e66-a9d3-de8d999d7834","ios":"levelo://app?vid=7fe64f85-ade7-4e66-a9d3-de8d999d7834"},"vehicle_type_id":"4","last_reported":1733857658,"current_range_meters":14000,"station_id":"","pricing_plan_id":"cebpf4jnsgd1na2vs0mg"},{"bike_id":"02b35678-f4a7-4801-8ef2-5a96033c92be","system_id":"levelo_inurba_marseille","lat":43.3107,"lon":5.38339,"is_reserved":false,"is_disabled":false,"rental_uris":{"android":"levelo://app?vid=02b35678-f4a7-4801-8ef2-5a96033c92be","ios":"levelo://app?vid=02b35678-f4a7-4801-8ef2-5a96033c92be"},"vehicle_type_id":"4","last_reported":1733857658,"current_range_meters":33600,"station_id":"ce4bgv92rcd13ifvqcr0","pricing_plan_id":"cebpf4jnsgd1na2vs0mg"},{"bike_id":"5d0b7930-cb51-4456-86b4-336d4f7331d9","system_id":"levelo_inurba_marseille","lat":43.293785,"lon":5.37876,"is_reserved":false,"is_disabled":false,"rental_uris":{"android":"levelo://app?vid=5d0b7930-cb51-4456-86b4-336d4f7331d9","ios":"levelo://app?vid=5d0b7930-cb51-4456-86b4-336d4f7331d9"},"vehicle_type_id":"4","last_reported":1733857658,"current_range_meters":38400,"station_id":"ce4bgjh2rcd13ifvqbf0","pricing_plan_id":"cebpf4jnsgd1na2vs0mg"},{"bike_id":"014cf524-69c6-4b89-b41e-8fb18927cd86","system_id":"levelo_inurba_marseille","lat":43.30802,"lon":5.43525,"is_reserved":false,"is_disabled":false,"rental_uris":{"android":"levelo://app?vid=014cf524-69c6-4b89-b41e-8fb18927cd86","ios":"levelo://app?vid=014cf524-69c6-4b89-b41e-8fb18927cd86"},"vehicle_type_id":"4","last_reported":1733857658,"current_range_meters":25200,"station_id":"ce4bhph2rcd13ifvqheg","pricing_plan_id":"cebpf4jnsgd1na2vs0mg"},{"bike_id":"12add500-ea1f-403d-bb3c-de83ce61c6f3","system_id":"levelo_inurba_marseille","lat":43.28906,"lon":5.36654,"is_reserved":false,"is_disabled":true,"rental_uris":{"android":"levelo://app?vid=12add500-ea1f-403d-bb3c-de83ce61c6f3","ios":"levelo://app?vid=12add500-ea1f-403d-bb3c-de83ce61c6f3"},"vehicle_type_id":"4","last_reported":1733857658,"current_range_meters":34000,"station_id":"ce4bhap2rcd13ifvqek0","pricing_plan_id":"cebpf4jnsgd1na2vs0mg"},{"bike_id":"0917b0ad-3225-4546-9800-6e0ac10dfd25","system_id":"levelo_inurba_marseille","lat":43.28158,"lon":5.42646,"is_reserved":false,"is_disabled":false,"rental_uris":{"android":"levelo://app?vid=0917b0ad-3225-4546-9800-6e0ac10dfd25","ios":"levelo://app?vid=0917b0ad-3225-4546-9800-6e0ac10dfd25"},"vehicle_type_id":"4","last_reported":1733857658,"current_range_meters":36800,"station_id":"ce4bhnh2rcd13ifvqgug","pricing_plan_id":"cebpf4jnsgd1na2vs0mg"},{"bike_id":"2410b01a-5da7-4d60-be03-4988951089e2","system_id":"levelo_inurba_marseille","lat":43.28106,"lon":5.37834,"is_reserved":false,"is_disabled":false,"rental_uris":{"android":"levelo://app?vid=2410b01a-5da7-4d60-be03-4988951089e2","ios":"levelo://app?vid=2410b01a-5da7-4d60-be03-4988951089e2"},"vehicle_type_id":"4","last_reported":1733857658,"current_range_meters":8400,"station_id":"ce4bha12rcd13ifvqee0","pricing_plan_id":"cebpf4jnsgd1na2vs0mg"},{"bike_id":"15b20b6b-daab-4da2-a228-a8042b0ad8e7","system_id":"levelo_inurba_marseille","lat":43.28859,"lon":5.35847,"is_reserved":false,"is_disabled":false,"rental_uris":{"android":"levelo://app?vid=15b20b6b-daab-4da2-a228-a8042b0ad8e7","ios":"levelo://app?vid=15b20b6b-daab-4da2-a228-a8042b0ad8e7"},"vehicle_type_id":"4","last_reported":1733857658,"current_range_meters":8400,"station_id":"ce4bhb12rcd13ifvqem0","pricing_plan_id":"cebpf4jnsgd1na2vs0mg"},{"bike_id":"ce93eba4-a260-4242-bfd1-eb4a1083d4a6","system_id":"levelo_inurba_marseille","lat":43.27378,"lon":5.36266,"is_reserved":false,"is_disabled":false,"rental_uris":{"android":"levelo://app?vid=ce93eba4-a260-4242-bfd1-eb4a1083d4a6","ios":"levelo://app?vid=ce93eba4-a260-4242-bfd1-eb4a1083d4a6"},"vehicle_type_id":"4","last_reported":1733857658,"current_range_meters":38800,"station_id":"ce4bhbh2rcd13ifvqeo0","pricing_plan_id":"cebpf4jnsgd1na2vs0mg"},{"bike_id":"9510bc88-e286-45b5-a078-f00364901047","system_id":"levelo_inurba_marseille","lat":43.31181,"lon":5.36758,"is_reserved":false,"is_disabled":false,"rental_uris":{"android":"levelo://app?vid=9510bc88-e286-45b5-a078-f00364901047","ios":"levelo://app?vid=9510bc88-e286-45b5-a078-f00364901047"},"vehicle_type_id":"4","last_reported":1733857658,"current_range_meters":27200,"station_id":"","pricing_plan_id":"cebpf4jnsgd1na2vs0mg"},{"bike_id":"9734b120-c4e4-4325-a738-780027e8da66","system_id":"levelo_inurba_marseille","lat":43.28038,"lon":5.3694,"is_reserved":false,"is_disabled":false,"rental_uris":{"android":"levelo://app?vid=9734b120-c4e4-4325-a738-780027e8da66","ios":"levelo://app?vid=9734b120-c4e4-4325-a738-780027e8da66"},"vehicle_type_id":"4","last_reported":1733857658,"current_range_meters":34800,"station_id":"ce4bha12rcd13ifvqef0","pricing_plan_id":"cebpf4jnsgd1na2vs0mg"},{"bike_id":"c1af07c0-ed11-49c8-aa2e-1104638a28b7","system_id":"levelo_inurba_marseille","lat":43.23065,"lon":5.35483,"is_reserved":false,"is_disabled":false,"rental_uris":{"android":"levelo://app?vid=c1af07c0-ed11-49c8-aa2e-1104638a28b7","ios":"levelo://app?vid=c1af07c0-ed11-49c8-aa2e-1104638a28b7"},"vehicle_type_id":"4","last_reported":1733857658,"current_range_meters":17600,"station_id":"cpo3342slgdg3j2ifvpg","pricing_plan_id":"cebpf4jnsgd1na2vs0mg"},{"bike_id":"62fc8764-a9a2-46fc-b59b-39e0e5007705","system_id":"levelo_inurba_marseille","lat":43.28457,"lon":5.35896,"is_reserved":false,"is_disabled":false,"rental_uris":{"android":"levelo://app?vid=62fc8764-a9a2-46fc-b59b-39e0e5007705","ios":"levelo://app?vid=62fc8764-a9a2-46fc-b59b-39e0e5007705"},"vehicle_type_id":"4","last_reported":1733857658,"current_range_meters":2800,"station_id":"ce4bhah2rcd13ifvqei0","pricing_plan_id":"cebpf4jnsgd1na2vs0mg"},{"bike_id":"edc87bea-bfba-4993-809a-a3647e3502a6","system_id":"levelo_inurba_marseille","lat":43.30261,"lon":5.4008,"is_reserved":false,"is_disabled":false,"rental_uris":{"android":"levelo://app?vid=edc87bea-bfba-4993-809a-a3647e3502a6","ios":"levelo://app?vid=edc87bea-bfba-4993-809a-a3647e3502a6"},"vehicle_type_id":"4","last_reported":1733857658,"current_range_meters":22800,"station_id":"ce4bgvh2rcd13ifvqcs0","pricing_plan_id":"cebpf4jnsgd1na2vs0mg"},{"bike_id":"7d344c9c-169f-43df-a2e8-f6d4868c2684","system_id":"levelo_inurba_marseille","lat":43.30881,"lon":5.39626,"is_reserved":false,"is_disabled":false,"rental_uris":{"android":"levelo://app?vid=7d344c9c-169f-43df-a2e8-f6d4868c2684","ios":"levelo://app?vid=7d344c9c-169f-43df-a2e8-f6d4868c2684"},"vehicle_type_id":"4","last_reported":1733857658,"current_range_meters":14000,"station_id":"ce4bh012rcd13ifvqcv0","pricing_plan_id":"cebpf4jnsgd1na2vs0mg"},{"bike_id":"a9dde08b-6d06-4ebc-b232-3bba2d50b767","system_id":"levelo_inurba_marseille","lat":43.3176,"lon":5.39006,"is_reserved":false,"is_disabled":false,"rental_uris":{"android":"levelo://app?vid=a9dde08b-6d06-4ebc-b232-3bba2d50b767","ios":"levelo://app?vid=a9dde08b-6d06-4ebc-b232-3bba2d50b767"},"vehicle_type_id":"4","last_reported":1733857658,"current_range_meters":37600,"station_id":"ce4bhqp2rcd13ifvqhng","pricing_plan_id":"cebpf4jnsgd1na2vs0mg"},{"bike_id":"dee835e6-f2ba-4a33-9e4b-7ee13e6d35dc","system_id":"levelo_inurba_marseille","lat":43.28616,"lon":5.35102,"is_reserved":false,"is_disabled":false,"rental_uris":{"android":"levelo://app?vid=dee835e6-f2ba-4a33-9e4b-7ee13e6d35dc","ios":"levelo://app?vid=dee835e6-f2ba-4a33-9e4b-7ee13e6d35dc"},"vehicle_type_id":"4","last_reported":1733857658,"current_range_meters":28000,"station_id":"ce4bhch2rcd13ifvqeug","pricing_plan_id":"cebpf4jnsgd1na2vs0mg"},{"bike_id":"6f5aafc4-06b9-4dba-b612-5d926167490b","system_id":"levelo_inurba_marseille","lat":43.32477,"lon":5.36582,"is_reserved":false,"is_disabled":true,"rental_uris":{"android":"levelo://app?vid=6f5aafc4-06b9-4dba-b612-5d926167490b","ios":"levelo://app?vid=6f5aafc4-06b9-4dba-b612-5d926167490b"},"vehicle_type_id":"4","last_reported":1733857658,"current_range_meters":0,"station_id":"ce4bhs12rcd13ifvqhvg","pricing_plan_id":"cebpf4jnsgd1na2vs0mg"},{"bike_id":"cbc7068b-5c25-41e2-96c9-01451e348e9f","system_id":"levelo_inurba_marseille","lat":43.3302,"lon":5.39042,"is_reserved":false,"is_disabled":false,"rental_uris":{"android":"levelo://app?vid=cbc7068b-5c25-41e2-96c9-01451e348e9f","ios":"levelo://app?vid=cbc7068b-5c25-41e2-96c9-01451e348e9f"},"vehicle_type_id":"4","last_reported":1733857658,"current_range_meters":36400,"station_id":"ce4bhr92rcd13ifvqhrg","pricing_plan_id":"cebpf4jnsgd1na2vs0mg"},{"bike_id":"dd682348-6375-4779-83eb-aaaca7f032ef","system_id":"levelo_inurba_marseille","lat":43.31079,"lon":5.38346,"is_reserved":false,"is_disabled":false,"rental_uris":{"android":"levelo://app?vid=dd682348-6375-4779-83eb-aaaca7f032ef","ios":"levelo://app?vid=dd682348-6375-4779-83eb-aaaca7f032ef"},"vehicle_type_id":"4","last_reported":1733857658,"current_range_meters":38000,"station_id":"ce4bgv92rcd13ifvqcr0","pricing_plan_id":"cebpf4jnsgd1na2vs0mg"},{"bike_id":"192c7215-c928-4138-9a2c-6c048775082a","system_id":"levelo_inurba_marseille","lat":43.25115,"lon":5.4032,"is_reserved":false,"is_disabled":true,"rental_uris":{"android":"levelo://app?vid=192c7215-c928-4138-9a2c-6c048775082a","ios":"levelo://app?vid=192c7215-c928-4138-9a2c-6c048775082a"},"vehicle_type_id":"4","last_reported":1733857658,"current_range_meters":400,"station_id":"ce4bhlh2rcd13ifvqgig","pricing_plan_id":"cebpf4jnsgd1na2vs0mg"},{"bike_id":"74ddbdc3-b082-4f44-a075-38dfc2e6b2cd","system_id":"levelo_inurba_marseille","lat":43.24167,"lon":5.36387,"is_reserved":false,"is_disabled":false,"rental_uris":{"android":"levelo://app?vid=74ddbdc3-b082-4f44-a075-38dfc2e6b2cd","ios":"levelo://app?vid=74ddbdc3-b082-4f44-a075-38dfc2e6b2cd"},"vehicle_type_id":"4","last_reported":1733857658,"current_range_meters":20400,"station_id":"cpo36qri1sfpv3e86is0","pricing_plan_id":"cebpf4jnsgd1na2vs0mg"},{"bike_id":"c686933c-fda6-483a-93e8-899283bfaa69","system_id":"levelo_inurba_marseille","lat":43.33021,"lon":5.39032,"is_reserved":false,"is_disabled":false,"rental_uris":{"android":"levelo://app?vid=c686933c-fda6-483a-93e8-899283bfaa69","ios":"levelo://app?vid=c686933c-fda6-483a-93e8-899283bfaa69"},"vehicle_type_id":"4","last_reported":1733857658,"current_range_meters":6400,"station_id":"ce4bhr92rcd13ifvqhrg","pricing_plan_id":"cebpf4jnsgd1na2vs0mg"},{"bike_id":"627751bc-d2b6-495a-97de-471267d080a6","system_id":"levelo_inurba_marseille","lat":43.30327,"lon":5.40438,"is_reserved":false,"is_disabled":true,"rental_uris":{"android":"levelo://app?vid=627751bc-d2b6-495a-97de-471267d080a6","ios":"levelo://app?vid=627751bc-d2b6-495a-97de-471267d080a6"},"vehicle_type_id":"4","last_reported":1733857658,"current_range_meters":37600,"station_id":"ce4bh012rcd13ifvqd10","pricing_plan_id":"cebpf4jnsgd1na2vs0mg"},{"bike_id":"9cd79aab-6f4c-4919-b570-803a9e8b35c5","system_id":"levelo_inurba_marseille","lat":43.30467,"lon":5.36697,"is_reserved":false,"is_disabled":true,"rental_uris":{"android":"levelo://app?vid=9cd79aab-6f4c-4919-b570-803a9e8b35c5","ios":"levelo://app?vid=9cd79aab-6f4c-4919-b570-803a9e8b35c5"},"vehicle_type_id":"4","last_reported":1733857658,"current_range_meters":22800,"station_id":"","pricing_plan_id":"cebpf4jnsgd1na2vs0mg"},{"bike_id":"1f82461f-4d7d-4d79-876a-a1d9e5ce8b3a","system_id":"levelo_inurba_marseille","lat":43.29224,"lon":5.36081,"is_reserved":false,"is_disabled":false,"rental_uris":{"android":"levelo://app?vid=1f82461f-4d7d-4d79-876a-a1d9e5ce8b3a","ios":"levelo://app?vid=1f82461f-4d7d-4d79-876a-a1d9e5ce8b3a"},"vehicle_type_id":"4","last_reported":1733857658,"current_range_meters":38000,"station_id":"ce4bhbh2rcd13ifvqeqg","pricing_plan_id":"cebpf4jnsgd1na2vs0mg"},{"bike_id":"d4cf4dc8-25ec-4bf6-92cf-917fbe800064","system_id":"levelo_inurba_marseille","lat":43.27003,"lon":5.38762,"is_reserved":false,"is_disabled":false,"rental_uris":{"android":"levelo://app?vid=d4cf4dc8-25ec-4bf6-92cf-917fbe800064","ios":"levelo://app?vid=d4cf4dc8-25ec-4bf6-92cf-917fbe800064"},"vehicle_type_id":"4","last_reported":1733857658,"current_range_meters":8800,"station_id":"","pricing_plan_id":"cebpf4jnsgd1na2vs0mg"},{"bike_id":"911a120c-dd27-409d-b381-ea70ccabfd85","system_id":"levelo_inurba_marseille","lat":43.250946,"lon":5.395219,"is_reserved":false,"is_disabled":true,"rental_uris":{"android":"levelo://app?vid=911a120c-dd27-409d-b381-ea70ccabfd85","ios":"levelo://app?vid=911a120c-dd27-409d-b381-ea70ccabfd85"},"vehicle_type_id":"4","last_reported":1733857658,"current_range_meters":12800,"station_id":"ce4bhm12rcd13ifvqgkg","pricing_plan_id":"cebpf4jnsgd1na2vs0mg"},{"bike_id":"e7a6878b-3b71-4fc5-85fe-08f7b18c2179","system_id":"levelo_inurba_marseille","lat":43.31169,"lon":5.387117,"is_reserved":false,"is_disabled":false,"rental_uris":{"android":"levelo://app?vid=e7a6878b-3b71-4fc5-85fe-08f7b18c2179","ios":"levelo://app?vid=e7a6878b-3b71-4fc5-85fe-08f7b18c2179"},"vehicle_type_id":"4","last_reported":1733857658,"current_range_meters":38800,"station_id":"ce4bgv12rcd13ifvqcp0","pricing_plan_id":"cebpf4jnsgd1na2vs0mg"},{"bike_id":"543ffcfa-aa63-4350-88ea-e89f19556564","system_id":"levelo_inurba_marseille","lat":43.27178,"lon":5.40991,"is_reserved":false,"is_disabled":false,"rental_uris":{"android":"levelo://app?vid=543ffcfa-aa63-4350-88ea-e89f19556564","ios":"levelo://app?vid=543ffcfa-aa63-4350-88ea-e89f19556564"},"vehicle_type_id":"4","last_reported":1733857658,"current_range_meters":36800,"station_id":"ce4bhl12rcd13ifvqgf0","pricing_plan_id":"cebpf4jnsgd1na2vs0mg"},{"bike_id":"11e86528-eb6b-4391-86a5-9b1822d069a4","system_id":"levelo_inurba_marseille","lat":43.278805,"lon":5.388003,"is_reserved":false,"is_disabled":true,"rental_uris":{"android":"levelo://app?vid=11e86528-eb6b-4391-86a5-9b1822d069a4","ios":"levelo://app?vid=11e86528-eb6b-4391-86a5-9b1822d069a4"},"vehicle_type_id":"4","last_reported":1733857658,"current_range_meters":0,"station_id":"","pricing_plan_id":"cebpf4jnsgd1na2vs0mg"},{"bike_id":"6cc6805f-c0ca-4585-bdf1-b5a0339762b0","system_id":"levelo_inurba_marseille","lat":43.29027,"lon":5.42744,"is_reserved":false,"is_disabled":true,"rental_uris":{"android":"levelo://app?vid=6cc6805f-c0ca-4585-bdf1-b5a0339762b0","ios":"levelo://app?vid=6cc6805f-c0ca-4585-bdf1-b5a0339762b0"},"vehicle_type_id":"4","last_reported":1733857658,"current_range_meters":0,"station_id":"","pricing_plan_id":"cebpf4jnsgd1na2vs0mg"},{"bike_id":"080c9623-7190-4a88-b14f-4d131f18aefc","system_id":"levelo_inurba_marseille","lat":43.29447,"lon":5.39758,"is_reserved":false,"is_disabled":true,"rental_uris":{"android":"levelo://app?vid=080c9623-7190-4a88-b14f-4d131f18aefc","ios":"levelo://app?vid=080c9623-7190-4a88-b14f-4d131f18aefc"},"vehicle_type_id":"4","last_reported":1733857658,"current_range_meters":6800,"station_id":"ce4bh3h2rcd13ifvqdo0","pricing_plan_id":"cebpf4jnsgd1na2vs0mg"},{"bike_id":"2500a150-3721-4ce9-9c4e-9ba45ad44a38","system_id":"levelo_inurba_marseille","lat":43.27987,"lon":5.4001,"is_reserved":false,"is_disabled":false,"rental_uris":{"android":"levelo://app?vid=2500a150-3721-4ce9-9c4e-9ba45ad44a38","ios":"levelo://app?vid=2500a150-3721-4ce9-9c4e-9ba45ad44a38"},"vehicle_type_id":"4","last_reported":1733857658,"current_range_meters":12800,"station_id":"ce4bho92rcd13ifvqh4g","pricing_plan_id":"cebpf4jnsgd1na2vs0mg"},{"bike_id":"9beb1687-2829-4543-86a5-090efcc4aa9f","system_id":"levelo_inurba_marseille","lat":43.24184,"lon":5.39733,"is_reserved":false,"is_disabled":false,"rental_uris":{"android":"levelo://app?vid=9beb1687-2829-4543-86a5-090efcc4aa9f","ios":"levelo://app?vid=9beb1687-2829-4543-86a5-090efcc4aa9f"},"vehicle_type_id":"4","last_reported":1733857658,"current_range_meters":9200,"station_id":"ce4bhn12rcd13ifvqgpg","pricing_plan_id":"cebpf4jnsgd1na2vs0mg"},{"bike_id":"9f03dca4-237a-49dc-8f4b-3b6a07909c99","system_id":"levelo_inurba_marseille","lat":43.23194,"lon":5.35555,"is_reserved":false,"is_disabled":false,"rental_uris":{"android":"levelo://app?vid=9f03dca4-237a-49dc-8f4b-3b6a07909c99","ios":"levelo://app?vid=9f03dca4-237a-49dc-8f4b-3b6a07909c99"},"vehicle_type_id":"4","last_reported":1733857658,"current_range_meters":36800,"station_id":"ce4bhu92rcd13ifvqi70","pricing_plan_id":"cebpf4jnsgd1na2vs0mg"},{"bike_id":"d0e9b0d9-b932-4d84-83c8-f81795e05f31","system_id":"levelo_inurba_marseille","lat":43.28481,"lon":5.38421,"is_reserved":false,"is_disabled":true,"rental_uris":{"android":"levelo://app?vid=d0e9b0d9-b932-4d84-83c8-f81795e05f31","ios":"levelo://app?vid=d0e9b0d9-b932-4d84-83c8-f81795e05f31"},"vehicle_type_id":"4","last_reported":1733857658,"current_range_meters":2000,"station_id":"ce4bh512rcd13ifvqe3g","pricing_plan_id":"cebpf4jnsgd1na2vs0mg"},{"bike_id":"eaa1705e-a416-48f6-8097-bcee9d4a9948","system_id":"levelo_inurba_marseille","lat":43.29448,"lon":5.39739,"is_reserved":false,"is_disabled":false,"rental_uris":{"android":"levelo://app?vid=eaa1705e-a416-48f6-8097-bcee9d4a9948","ios":"levelo://app?vid=eaa1705e-a416-48f6-8097-bcee9d4a9948"},"vehicle_type_id":"4","last_reported":1733857658,"current_range_meters":36400,"station_id":"ce4bh3h2rcd13ifvqdo0","pricing_plan_id":"cebpf4jnsgd1na2vs0mg"},{"bike_id":"7ed6ec03-befa-4ef0-bc15-a24e700f0a9a","system_id":"levelo_inurba_marseille","lat":43.27999,"lon":5.39998,"is_reserved":false,"is_disabled":true,"rental_uris":{"android":"levelo://app?vid=7ed6ec03-befa-4ef0-bc15-a24e700f0a9a","ios":"levelo://app?vid=7ed6ec03-befa-4ef0-bc15-a24e700f0a9a"},"vehicle_type_id":"4","last_reported":1733857658,"current_range_meters":0,"station_id":"ce4bho92rcd13ifvqh4g","pricing_plan_id":"cebpf4jnsgd1na2vs0mg"},{"bike_id":"1db8c876-8528-4e0d-94c4-d43e44d9e813","system_id":"levelo_inurba_marseille","lat":43.25836,"lon":5.39413,"is_reserved":false,"is_disabled":false,"rental_uris":{"android":"levelo://app?vid=1db8c876-8528-4e0d-94c4-d43e44d9e813","ios":"levelo://app?vid=1db8c876-8528-4e0d-94c4-d43e44d9e813"},"vehicle_type_id":"4","last_reported":1733857658,"current_range_meters":28800,"station_id":"ce4bhip2rcd13ifvqft0","pricing_plan_id":"cebpf4jnsgd1na2vs0mg"},{"bike_id":"e1050c60-6eac-430b-97ea-02bb69571220","system_id":"levelo_inurba_marseille","lat":43.2619,"lon":5.37445,"is_reserved":false,"is_disabled":false,"rental_uris":{"android":"levelo://app?vid=e1050c60-6eac-430b-97ea-02bb69571220","ios":"levelo://app?vid=e1050c60-6eac-430b-97ea-02bb69571220"},"vehicle_type_id":"4","last_reported":1733857658,"current_range_meters":38800,"station_id":"ce4bhgp2rcd13ifvqfc0","pricing_plan_id":"cebpf4jnsgd1na2vs0mg"},{"bike_id":"28ea0dce-b762-446b-970f-f3693c260d20","system_id":"levelo_inurba_marseille","lat":43.28451,"lon":5.35886,"is_reserved":false,"is_disabled":false,"rental_uris":{"android":"levelo://app?vid=28ea0dce-b762-446b-970f-f3693c260d20","ios":"levelo://app?vid=28ea0dce-b762-446b-970f-f3693c260d20"},"vehicle_type_id":"4","last_reported":1733857658,"current_range_meters":28800,"station_id":"ce4bhah2rcd13ifvqei0","pricing_plan_id":"cebpf4jnsgd1na2vs0mg"},{"bike_id":"9fcee844-f0ae-44a2-a4c3-880b829288c3","system_id":"levelo_inurba_marseille","lat":43.30915,"lon":5.36847,"is_reserved":false,"is_disabled":false,"rental_uris":{"android":"levelo://app?vid=9fcee844-f0ae-44a2-a4c3-880b829288c3","ios":"levelo://app?vid=9fcee844-f0ae-44a2-a4c3-880b829288c3"},"vehicle_type_id":"4","last_reported":1733857658,"current_range_meters":12000,"station_id":"ce4bgn92rcd13ifvqbvg","pricing_plan_id":"cebpf4jnsgd1na2vs0mg"},{"bike_id":"361741ff-63e4-455f-a8b0-2a502e3bd360","system_id":"levelo_inurba_marseille","lat":43.2953,"lon":5.39042,"is_reserved":false,"is_disabled":false,"rental_uris":{"android":"levelo://app?vid=361741ff-63e4-455f-a8b0-2a502e3bd360","ios":"levelo://app?vid=361741ff-63e4-455f-a8b0-2a502e3bd360"},"vehicle_type_id":"4","last_reported":1733857658,"current_range_meters":33200,"station_id":"ce4bh3p2rcd13ifvqdp0","pricing_plan_id":"cebpf4jnsgd1na2vs0mg"},{"bike_id":"b27330e6-8ed3-4182-b7c7-adc27c1bd88a","system_id":"levelo_inurba_marseille","lat":43.29616,"lon":5.37215,"is_reserved":false,"is_disabled":false,"rental_uris":{"android":"levelo://app?vid=b27330e6-8ed3-4182-b7c7-adc27c1bd88a","ios":"levelo://app?vid=b27330e6-8ed3-4182-b7c7-adc27c1bd88a"},"vehicle_type_id":"4","last_reported":1733857658,"current_range_meters":24000,"station_id":"","pricing_plan_id":"cebpf4jnsgd1na2vs0mg"},{"bike_id":"cbeaa986-4af7-4c6d-9f0d-071aae8c6cb2","system_id":"levelo_inurba_marseille","lat":43.28143,"lon":5.42643,"is_reserved":false,"is_disabled":false,"rental_uris":{"android":"levelo://app?vid=cbeaa986-4af7-4c6d-9f0d-071aae8c6cb2","ios":"levelo://app?vid=cbeaa986-4af7-4c6d-9f0d-071aae8c6cb2"},"vehicle_type_id":"4","last_reported":1733857658,"current_range_meters":38800,"station_id":"ce4bhnh2rcd13ifvqgug","pricing_plan_id":"cebpf4jnsgd1na2vs0mg"},{"bike_id":"b0a46ba0-c8bc-4621-808f-2274c3b3257e","system_id":"levelo_inurba_marseille","lat":43.32306,"lon":5.38261,"is_reserved":false,"is_disabled":false,"rental_uris":{"android":"levelo://app?vid=b0a46ba0-c8bc-4621-808f-2274c3b3257e","ios":"levelo://app?vid=b0a46ba0-c8bc-4621-808f-2274c3b3257e"},"vehicle_type_id":"4","last_reported":1733857658,"current_range_meters":39200,"station_id":"ce4bhr12rcd13ifvqhqg","pricing_plan_id":"cebpf4jnsgd1na2vs0mg"},{"bike_id":"72369e3c-7a31-4199-a732-76fa73093ac4","system_id":"levelo_inurba_marseille","lat":43.31361,"lon":5.36723,"is_reserved":false,"is_disabled":true,"rental_uris":{"android":"levelo://app?vid=72369e3c-7a31-4199-a732-76fa73093ac4","ios":"levelo://app?vid=72369e3c-7a31-4199-a732-76fa73093ac4"},"vehicle_type_id":"4","last_reported":1733857658,"current_range_meters":22800,"station_id":"ce4bgr92rcd13ifvqc6g","pricing_plan_id":"cebpf4jnsgd1na2vs0mg"},{"bike_id":"94fd1857-87a7-465b-8a7a-cc24038b7742","system_id":"levelo_inurba_marseille","lat":43.33028,"lon":5.39045,"is_reserved":false,"is_disabled":false,"rental_uris":{"android":"levelo://app?vid=94fd1857-87a7-465b-8a7a-cc24038b7742","ios":"levelo://app?vid=94fd1857-87a7-465b-8a7a-cc24038b7742"},"vehicle_type_id":"4","last_reported":1733857658,"current_range_meters":30000,"station_id":"ce4bhr92rcd13ifvqhrg","pricing_plan_id":"cebpf4jnsgd1na2vs0mg"},{"bike_id":"1a0232f1-4b5f-4330-917e-477389b86a21","system_id":"levelo_inurba_marseille","lat":43.28565,"lon":5.39509,"is_reserved":false,"is_disabled":false,"rental_uris":{"android":"levelo://app?vid=1a0232f1-4b5f-4330-917e-477389b86a21","ios":"levelo://app?vid=1a0232f1-4b5f-4330-917e-477389b86a21"},"vehicle_type_id":"4","last_reported":1733857658,"current_range_meters":38800,"station_id":"ce4bh292rcd13ifvqdg0","pricing_plan_id":"cebpf4jnsgd1na2vs0mg"},{"bike_id":"c7994383-f96a-46b4-9beb-0b15c03b6c60","system_id":"levelo_inurba_marseille","lat":43.28616,"lon":5.35101,"is_reserved":false,"is_disabled":false,"rental_uris":{"android":"levelo://app?vid=c7994383-f96a-46b4-9beb-0b15c03b6c60","ios":"levelo://app?vid=c7994383-f96a-46b4-9beb-0b15c03b6c60"},"vehicle_type_id":"4","last_reported":1733857658,"current_range_meters":28400,"station_id":"ce4bhch2rcd13ifvqeug","pricing_plan_id":"cebpf4jnsgd1na2vs0mg"},{"bike_id":"c738269d-77c2-4524-a8ce-084a9f31cadb","system_id":"levelo_inurba_marseille","lat":43.26214,"lon":5.3744,"is_reserved":false,"is_disabled":false,"rental_uris":{"android":"levelo://app?vid=c738269d-77c2-4524-a8ce-084a9f31cadb","ios":"levelo://app?vid=c738269d-77c2-4524-a8ce-084a9f31cadb"},"vehicle_type_id":"4","last_reported":1733857658,"current_range_meters":19600,"station_id":"ce4bhgp2rcd13ifvqfc0","pricing_plan_id":"cebpf4jnsgd1na2vs0mg"},{"bike_id":"896d4ccf-3d83-4122-b2f2-1a77a517b0e7","system_id":"levelo_inurba_marseille","lat":43.23972,"lon":5.36628,"is_reserved":false,"is_disabled":false,"rental_uris":{"android":"levelo://app?vid=896d4ccf-3d83-4122-b2f2-1a77a517b0e7","ios":"levelo://app?vid=896d4ccf-3d83-4122-b2f2-1a77a517b0e7"},"vehicle_type_id":"4","last_reported":1733857658,"current_range_meters":39200,"station_id":"ce4bhi12rcd13ifvqfp0","pricing_plan_id":"cebpf4jnsgd1na2vs0mg"},{"bike_id":"5ab05328-df2c-4301-8359-efac20f401a3","system_id":"levelo_inurba_marseille","lat":43.29409,"lon":5.37835,"is_reserved":false,"is_disabled":true,"rental_uris":{"android":"levelo://app?vid=5ab05328-df2c-4301-8359-efac20f401a3","ios":"levelo://app?vid=5ab05328-df2c-4301-8359-efac20f401a3"},"vehicle_type_id":"4","last_reported":1733857658,"current_range_meters":29600,"station_id":"ce4bgjh2rcd13ifvqbf0","pricing_plan_id":"cebpf4jnsgd1na2vs0mg"},{"bike_id":"21e3190b-55c5-411e-936b-986eb1b73bd6","system_id":"levelo_inurba_marseille","lat":43.30643,"lon":5.40082,"is_reserved":false,"is_disabled":true,"rental_uris":{"android":"levelo://app?vid=21e3190b-55c5-411e-936b-986eb1b73bd6","ios":"levelo://app?vid=21e3190b-55c5-411e-936b-986eb1b73bd6"},"vehicle_type_id":"4","last_reported":1733857658,"current_range_meters":800,"station_id":"ce4bh112rcd13ifvqda0","pricing_plan_id":"cebpf4jnsgd1na2vs0mg"},{"bike_id":"060bc375-e4fc-4821-97dd-9f42eeba54ac","system_id":"levelo_inurba_marseille","lat":43.279,"lon":5.38006,"is_reserved":false,"is_disabled":true,"rental_uris":{"android":"levelo://app?vid=060bc375-e4fc-4821-97dd-9f42eeba54ac","ios":"levelo://app?vid=060bc375-e4fc-4821-97dd-9f42eeba54ac"},"vehicle_type_id":"4","last_reported":1733857658,"current_range_meters":0,"station_id":"ce4bhf92rcd13ifvqf50","pricing_plan_id":"cebpf4jnsgd1na2vs0mg"},{"bike_id":"56e60bfb-0729-479c-bbd5-b8de527b41a2","system_id":"levelo_inurba_marseille","lat":43.2481,"lon":5.37457,"is_reserved":false,"is_disabled":false,"rental_uris":{"android":"levelo://app?vid=56e60bfb-0729-479c-bbd5-b8de527b41a2","ios":"levelo://app?vid=56e60bfb-0729-479c-bbd5-b8de527b41a2"},"vehicle_type_id":"4","last_reported":1733857658,"current_range_meters":14000,"station_id":"ce4bhgh2rcd13ifvqfb0","pricing_plan_id":"cebpf4jnsgd1na2vs0mg"},{"bike_id":"398a28ed-3eb3-48b8-94c1-f9c85018ae6b","system_id":"levelo_inurba_marseille","lat":43.26953,"lon":5.3863,"is_reserved":false,"is_disabled":false,"rental_uris":{"android":"levelo://app?vid=398a28ed-3eb3-48b8-94c1-f9c85018ae6b","ios":"levelo://app?vid=398a28ed-3eb3-48b8-94c1-f9c85018ae6b"},"vehicle_type_id":"4","last_reported":1733857658,"current_range_meters":32000,"station_id":"ce4bhh92rcd13ifvqfh0","pricing_plan_id":"cebpf4jnsgd1na2vs0mg"},{"bike_id":"b3c5591b-5ccb-49b1-8351-3506fdb656c0","system_id":"levelo_inurba_marseille","lat":43.32295,"lon":5.38266,"is_reserved":false,"is_disabled":false,"rental_uris":{"android":"levelo://app?vid=b3c5591b-5ccb-49b1-8351-3506fdb656c0","ios":"levelo://app?vid=b3c5591b-5ccb-49b1-8351-3506fdb656c0"},"vehicle_type_id":"4","last_reported":1733857658,"current_range_meters":38000,"station_id":"ce4bhr12rcd13ifvqhqg","pricing_plan_id":"cebpf4jnsgd1na2vs0mg"},{"bike_id":"a5f926b9-41d2-4ade-a577-485de9ef83f4","system_id":"levelo_inurba_marseille","lat":43.26026,"lon":5.37549,"is_reserved":false,"is_disabled":false,"rental_uris":{"android":"levelo://app?vid=a5f926b9-41d2-4ade-a577-485de9ef83f4","ios":"levelo://app?vid=a5f926b9-41d2-4ade-a577-485de9ef83f4"},"vehicle_type_id":"4","last_reported":1733857658,"current_range_meters":38000,"station_id":"ce4bhgh2rcd13ifvqfa0","pricing_plan_id":"cebpf4jnsgd1na2vs0mg"},{"bike_id":"71ede6cb-3773-4924-948e-77ec53727c8f","system_id":"levelo_inurba_marseille","lat":43.31762,"lon":5.3761,"is_reserved":false,"is_disabled":false,"rental_uris":{"android":"levelo://app?vid=71ede6cb-3773-4924-948e-77ec53727c8f","ios":"levelo://app?vid=71ede6cb-3773-4924-948e-77ec53727c8f"},"vehicle_type_id":"4","last_reported":1733857658,"current_range_meters":38000,"station_id":"","pricing_plan_id":"cebpf4jnsgd1na2vs0mg"},{"bike_id":"33e48884-4b3d-4e17-8bfe-d8ab60a0c6ef","system_id":"levelo_inurba_marseille","lat":43.2606,"lon":5.39384,"is_reserved":false,"is_disabled":true,"rental_uris":{"android":"levelo://app?vid=33e48884-4b3d-4e17-8bfe-d8ab60a0c6ef","ios":"levelo://app?vid=33e48884-4b3d-4e17-8bfe-d8ab60a0c6ef"},"vehicle_type_id":"4","last_reported":1733857658,"current_range_meters":38400,"station_id":"ce4bhh92rcd13ifvqfj0","pricing_plan_id":"cebpf4jnsgd1na2vs0mg"},{"bike_id":"8a541c78-58b4-45d9-94a7-3d8383bc9bce","system_id":"levelo_inurba_marseille","lat":43.2942,"lon":5.38611,"is_reserved":false,"is_disabled":true,"rental_uris":{"android":"levelo://app?vid=8a541c78-58b4-45d9-94a7-3d8383bc9bce","ios":"levelo://app?vid=8a541c78-58b4-45d9-94a7-3d8383bc9bce"},"vehicle_type_id":"4","last_reported":1733857658,"current_range_meters":15200,"station_id":"ce4bh2h2rcd13ifvqdh0","pricing_plan_id":"cebpf4jnsgd1na2vs0mg"},{"bike_id":"ddc3cf62-a354-4232-96fa-54b290a1f3af","system_id":"levelo_inurba_marseille","lat":43.29875,"lon":5.39741,"is_reserved":false,"is_disabled":false,"rental_uris":{"android":"levelo://app?vid=ddc3cf62-a354-4232-96fa-54b290a1f3af","ios":"levelo://app?vid=ddc3cf62-a354-4232-96fa-54b290a1f3af"},"vehicle_type_id":"4","last_reported":1733857658,"current_range_meters":36800,"station_id":"ce4bh0h2rcd13ifvqd50","pricing_plan_id":"cebpf4jnsgd1na2vs0mg"},{"bike_id":"fa57460c-d69f-4b9a-99e7-91f2695d13a4","system_id":"levelo_inurba_marseille","lat":43.30927,"lon":5.40139,"is_reserved":false,"is_disabled":true,"rental_uris":{"android":"levelo://app?vid=fa57460c-d69f-4b9a-99e7-91f2695d13a4","ios":"levelo://app?vid=fa57460c-d69f-4b9a-99e7-91f2695d13a4"},"vehicle_type_id":"4","last_reported":1733857658,"current_range_meters":0,"station_id":"ce4bgvp2rcd13ifvqct0","pricing_plan_id":"cebpf4jnsgd1na2vs0mg"},{"bike_id":"5ba47942-f15c-4129-a915-e8d89daa6961","system_id":"levelo_inurba_marseille","lat":43.27808,"lon":5.40732,"is_reserved":false,"is_disabled":false,"rental_uris":{"android":"levelo://app?vid=5ba47942-f15c-4129-a915-e8d89daa6961","ios":"levelo://app?vid=5ba47942-f15c-4129-a915-e8d89daa6961"},"vehicle_type_id":"4","last_reported":1733857658,"current_range_meters":18000,"station_id":"ce4bhnh2rcd13ifvqgtg","pricing_plan_id":"cebpf4jnsgd1na2vs0mg"},{"bike_id":"aa22f6b4-6745-464f-9ff5-3ccde6c815d3","system_id":"levelo_inurba_marseille","lat":43.3107,"lon":5.38354,"is_reserved":false,"is_disabled":false,"rental_uris":{"android":"levelo://app?vid=aa22f6b4-6745-464f-9ff5-3ccde6c815d3","ios":"levelo://app?vid=aa22f6b4-6745-464f-9ff5-3ccde6c815d3"},"vehicle_type_id":"4","last_reported":1733857658,"current_range_meters":37600,"station_id":"ce4bgv92rcd13ifvqcr0","pricing_plan_id":"cebpf4jnsgd1na2vs0mg"},{"bike_id":"b02c24ef-aac5-4dc7-94c4-ee928b33d372","system_id":"levelo_inurba_marseille","lat":43.26027,"lon":5.37549,"is_reserved":false,"is_disabled":false,"rental_uris":{"android":"levelo://app?vid=b02c24ef-aac5-4dc7-94c4-ee928b33d372","ios":"levelo://app?vid=b02c24ef-aac5-4dc7-94c4-ee928b33d372"},"vehicle_type_id":"4","last_reported":1733857658,"current_range_meters":28000,"station_id":"ce4bhgh2rcd13ifvqfa0","pricing_plan_id":"cebpf4jnsgd1na2vs0mg"},{"bike_id":"9e533191-da82-438a-a837-b070786255db","system_id":"levelo_inurba_marseille","lat":43.23964,"lon":5.36636,"is_reserved":false,"is_disabled":false,"rental_uris":{"android":"levelo://app?vid=9e533191-da82-438a-a837-b070786255db","ios":"levelo://app?vid=9e533191-da82-438a-a837-b070786255db"},"vehicle_type_id":"4","last_reported":1733857658,"current_range_meters":39200,"station_id":"ce4bhi12rcd13ifvqfp0","pricing_plan_id":"cebpf4jnsgd1na2vs0mg"},{"bike_id":"fe59ca19-2e6d-4ee7-97ea-c8598ef070e3","system_id":"levelo_inurba_marseille","lat":43.31537,"lon":5.38022,"is_reserved":false,"is_disabled":false,"rental_uris":{"android":"levelo://app?vid=fe59ca19-2e6d-4ee7-97ea-c8598ef070e3","ios":"levelo://app?vid=fe59ca19-2e6d-4ee7-97ea-c8598ef070e3"},"vehicle_type_id":"4","last_reported":1733857658,"current_range_meters":38000,"station_id":"ce4bhsp2rcd13ifvqi50","pricing_plan_id":"cebpf4jnsgd1na2vs0mg"},{"bike_id":"f1e1b83c-6b4c-4d52-9b3f-becfd8274a79","system_id":"levelo_inurba_marseille","lat":43.24988,"lon":5.38935,"is_reserved":false,"is_disabled":false,"rental_uris":{"android":"levelo://app?vid=f1e1b83c-6b4c-4d52-9b3f-becfd8274a79","ios":"levelo://app?vid=f1e1b83c-6b4c-4d52-9b3f-becfd8274a79"},"vehicle_type_id":"4","last_reported":1733857658,"current_range_meters":38000,"station_id":"ce4bhgp2rcd13ifvqfd0","pricing_plan_id":"cebpf4jnsgd1na2vs0mg"},{"bike_id":"e0251b32-b340-44b9-a685-42a1e27fe71d","system_id":"levelo_inurba_marseille","lat":43.25724,"lon":5.41117,"is_reserved":false,"is_disabled":false,"rental_uris":{"android":"levelo://app?vid=e0251b32-b340-44b9-a685-42a1e27fe71d","ios":"levelo://app?vid=e0251b32-b340-44b9-a685-42a1e27fe71d"},"vehicle_type_id":"4","last_reported":1733857658,"current_range_meters":39200,"station_id":"ce4bhkp2rcd13ifvqgd0","pricing_plan_id":"cebpf4jnsgd1na2vs0mg"},{"bike_id":"feb8df89-ec90-4db2-83c1-1276a81a894e","system_id":"levelo_inurba_marseille","lat":43.29027,"lon":5.37554,"is_reserved":false,"is_disabled":true,"rental_uris":{"android":"levelo://app?vid=feb8df89-ec90-4db2-83c1-1276a81a894e","ios":"levelo://app?vid=feb8df89-ec90-4db2-83c1-1276a81a894e"},"vehicle_type_id":"4","last_reported":1733857658,"current_range_meters":6000,"station_id":"ce4bh692rcd13ifvqe90","pricing_plan_id":"cebpf4jnsgd1na2vs0mg"},{"bike_id":"e776819f-d0c2-4e90-8b6a-72fc3d50c85e","system_id":"levelo_inurba_marseille","lat":43.27064,"lon":5.42267,"is_reserved":false,"is_disabled":false,"rental_uris":{"android":"levelo://app?vid=e776819f-d0c2-4e90-8b6a-72fc3d50c85e","ios":"levelo://app?vid=e776819f-d0c2-4e90-8b6a-72fc3d50c85e"},"vehicle_type_id":"4","last_reported":1733857658,"current_range_meters":39200,"station_id":"ce4bhk92rcd13ifvqgb0","pricing_plan_id":"cebpf4jnsgd1na2vs0mg"},{"bike_id":"ccca5c70-4081-4ecf-aa2a-cd92bf6e79dc","system_id":"levelo_inurba_marseille","lat":43.26061,"lon":5.39391,"is_reserved":false,"is_disabled":false,"rental_uris":{"android":"levelo://app?vid=ccca5c70-4081-4ecf-aa2a-cd92bf6e79dc","ios":"levelo://app?vid=ccca5c70-4081-4ecf-aa2a-cd92bf6e79dc"},"vehicle_type_id":"4","last_reported":1733857658,"current_range_meters":4800,"station_id":"ce4bhh92rcd13ifvqfj0","pricing_plan_id":"cebpf4jnsgd1na2vs0mg"},{"bike_id":"61680714-5fc6-4417-875a-81ade74f79f0","system_id":"levelo_inurba_marseille","lat":43.24664,"lon":5.38153,"is_reserved":false,"is_disabled":false,"rental_uris":{"android":"levelo://app?vid=61680714-5fc6-4417-875a-81ade74f79f0","ios":"levelo://app?vid=61680714-5fc6-4417-875a-81ade74f79f0"},"vehicle_type_id":"4","last_reported":1733857658,"current_range_meters":28800,"station_id":"ce4bhih2rcd13ifvqfr0","pricing_plan_id":"cebpf4jnsgd1na2vs0mg"},{"bike_id":"583cf179-15d7-4e82-9b4b-6aa88d811d63","system_id":"levelo_inurba_marseille","lat":43.25717,"lon":5.41119,"is_reserved":false,"is_disabled":false,"rental_uris":{"android":"levelo://app?vid=583cf179-15d7-4e82-9b4b-6aa88d811d63","ios":"levelo://app?vid=583cf179-15d7-4e82-9b4b-6aa88d811d63"},"vehicle_type_id":"4","last_reported":1733857658,"current_range_meters":38800,"station_id":"ce4bhkp2rcd13ifvqgd0","pricing_plan_id":"cebpf4jnsgd1na2vs0mg"},{"bike_id":"04a51bf4-3219-493f-985a-0d4f3e27b5ac","system_id":"levelo_inurba_marseille","lat":43.28676,"lon":5.36341,"is_reserved":false,"is_disabled":false,"rental_uris":{"android":"levelo://app?vid=04a51bf4-3219-493f-985a-0d4f3e27b5ac","ios":"levelo://app?vid=04a51bf4-3219-493f-985a-0d4f3e27b5ac"},"vehicle_type_id":"4","last_reported":1733857658,"current_range_meters":10800,"station_id":"ce4bhah2rcd13ifvqej0","pricing_plan_id":"cebpf4jnsgd1na2vs0mg"},{"bike_id":"24038e93-6c8d-4dcb-8949-05294cdd45c2","system_id":"levelo_inurba_marseille","lat":43.2604,"lon":5.37549,"is_reserved":false,"is_disabled":false,"rental_uris":{"android":"levelo://app?vid=24038e93-6c8d-4dcb-8949-05294cdd45c2","ios":"levelo://app?vid=24038e93-6c8d-4dcb-8949-05294cdd45c2"},"vehicle_type_id":"4","last_reported":1733857658,"current_range_meters":38800,"station_id":"ce4bhgh2rcd13ifvqfa0","pricing_plan_id":"cebpf4jnsgd1na2vs0mg"},{"bike_id":"4bf6be7e-cfb6-4363-8a94-b7da509698b4","system_id":"levelo_inurba_marseille","lat":43.29202,"lon":5.39317,"is_reserved":false,"is_disabled":false,"rental_uris":{"android":"levelo://app?vid=4bf6be7e-cfb6-4363-8a94-b7da509698b4","ios":"levelo://app?vid=4bf6be7e-cfb6-4363-8a94-b7da509698b4"},"vehicle_type_id":"4","last_reported":1733857658,"current_range_meters":36400,"station_id":"ce4bh192rcd13ifvqdd0","pricing_plan_id":"cebpf4jnsgd1na2vs0mg"},{"bike_id":"1b2d4db1-cec0-4376-9abf-f3b964e5dcb7","system_id":"levelo_inurba_marseille","lat":43.23198,"lon":5.35548,"is_reserved":false,"is_disabled":false,"rental_uris":{"android":"levelo://app?vid=1b2d4db1-cec0-4376-9abf-f3b964e5dcb7","ios":"levelo://app?vid=1b2d4db1-cec0-4376-9abf-f3b964e5dcb7"},"vehicle_type_id":"4","last_reported":1733857658,"current_range_meters":38800,"station_id":"ce4bhu92rcd13ifvqi70","pricing_plan_id":"cebpf4jnsgd1na2vs0mg"},{"bike_id":"ac31c650-ba7f-4f41-8e08-1cf7899c4f87","system_id":"levelo_inurba_marseille","lat":43.28618,"lon":5.35108,"is_reserved":false,"is_disabled":false,"rental_uris":{"android":"levelo://app?vid=ac31c650-ba7f-4f41-8e08-1cf7899c4f87","ios":"levelo://app?vid=ac31c650-ba7f-4f41-8e08-1cf7899c4f87"},"vehicle_type_id":"4","last_reported":1733857658,"current_range_meters":23200,"station_id":"ce4bhch2rcd13ifvqeug","pricing_plan_id":"cebpf4jnsgd1na2vs0mg"},{"bike_id":"eb6c5ba7-f779-4c94-9abb-a6b2613e7e1f","system_id":"levelo_inurba_marseille","lat":43.29956,"lon":5.38501,"is_reserved":false,"is_disabled":false,"rental_uris":{"android":"levelo://app?vid=eb6c5ba7-f779-4c94-9abb-a6b2613e7e1f","ios":"levelo://app?vid=eb6c5ba7-f779-4c94-9abb-a6b2613e7e1f"},"vehicle_type_id":"4","last_reported":1733857658,"current_range_meters":6000,"station_id":"ce4bgj92rcd13ifvqbd0","pricing_plan_id":"cebpf4jnsgd1na2vs0mg"},{"bike_id":"9f72dee2-a005-4b45-9fc6-0a7a62de3613","system_id":"levelo_inurba_marseille","lat":43.28465,"lon":5.3588,"is_reserved":false,"is_disabled":false,"rental_uris":{"android":"levelo://app?vid=9f72dee2-a005-4b45-9fc6-0a7a62de3613","ios":"levelo://app?vid=9f72dee2-a005-4b45-9fc6-0a7a62de3613"},"vehicle_type_id":"4","last_reported":1733857658,"current_range_meters":30000,"station_id":"ce4bhah2rcd13ifvqei0","pricing_plan_id":"cebpf4jnsgd1na2vs0mg"},{"bike_id":"9f697dbf-8e9e-4438-b2e8-d9e22520d4f1","system_id":"levelo_inurba_marseille","lat":43.29226,"lon":5.36064,"is_reserved":false,"is_disabled":false,"rental_uris":{"android":"levelo://app?vid=9f697dbf-8e9e-4438-b2e8-d9e22520d4f1","ios":"levelo://app?vid=9f697dbf-8e9e-4438-b2e8-d9e22520d4f1"},"vehicle_type_id":"4","last_reported":1733857658,"current_range_meters":10800,"station_id":"ce4bhbh2rcd13ifvqeqg","pricing_plan_id":"cebpf4jnsgd1na2vs0mg"},{"bike_id":"75c0d637-8c37-4b2d-a029-cff38251adcd","system_id":"levelo_inurba_marseille","lat":43.25586,"lon":5.38229,"is_reserved":false,"is_disabled":false,"rental_uris":{"android":"levelo://app?vid=75c0d637-8c37-4b2d-a029-cff38251adcd","ios":"levelo://app?vid=75c0d637-8c37-4b2d-a029-cff38251adcd"},"vehicle_type_id":"4","last_reported":1733857658,"current_range_meters":25600,"station_id":"ce4bhih2rcd13ifvqfs0","pricing_plan_id":"cebpf4jnsgd1na2vs0mg"},{"bike_id":"68469145-5869-4949-94f0-3ccc825184a3","system_id":"levelo_inurba_marseille","lat":43.28339,"lon":5.38096,"is_reserved":false,"is_disabled":true,"rental_uris":{"android":"levelo://app?vid=68469145-5869-4949-94f0-3ccc825184a3","ios":"levelo://app?vid=68469145-5869-4949-94f0-3ccc825184a3"},"vehicle_type_id":"4","last_reported":1733857658,"current_range_meters":28800,"station_id":"ce4bh412rcd13ifvqdr0","pricing_plan_id":"cebpf4jnsgd1na2vs0mg"},{"bike_id":"93dc6bd7-ccba-49af-836f-f8a3a0580349","system_id":"levelo_inurba_marseille","lat":43.27952,"lon":5.3992,"is_reserved":false,"is_disabled":false,"rental_uris":{"android":"levelo://app?vid=93dc6bd7-ccba-49af-836f-f8a3a0580349","ios":"levelo://app?vid=93dc6bd7-ccba-49af-836f-f8a3a0580349"},"vehicle_type_id":"4","last_reported":1733857658,"current_range_meters":38800,"station_id":"","pricing_plan_id":"cebpf4jnsgd1na2vs0mg"},{"bike_id":"e2e5fff8-dab3-4021-a87d-3c7c833d47d1","system_id":"levelo_inurba_marseille","lat":43.26212,"lon":5.37443,"is_reserved":false,"is_disabled":true,"rental_uris":{"android":"levelo://app?vid=e2e5fff8-dab3-4021-a87d-3c7c833d47d1","ios":"levelo://app?vid=e2e5fff8-dab3-4021-a87d-3c7c833d47d1"},"vehicle_type_id":"4","last_reported":1733857658,"current_range_meters":8000,"station_id":"ce4bhgp2rcd13ifvqfc0","pricing_plan_id":"cebpf4jnsgd1na2vs0mg"},{"bike_id":"8afa6b8b-eee5-48bd-90fa-f580f8d4009b","system_id":"levelo_inurba_marseille","lat":43.32482,"lon":5.36558,"is_reserved":false,"is_disabled":false,"rental_uris":{"android":"levelo://app?vid=8afa6b8b-eee5-48bd-90fa-f580f8d4009b","ios":"levelo://app?vid=8afa6b8b-eee5-48bd-90fa-f580f8d4009b"},"vehicle_type_id":"4","last_reported":1733857658,"current_range_meters":27600,"station_id":"ce4bhs12rcd13ifvqhvg","pricing_plan_id":"cebpf4jnsgd1na2vs0mg"},{"bike_id":"dc7a929b-1a22-41cd-a6af-6836d471c1b6","system_id":"levelo_inurba_marseille","lat":43.2884,"lon":5.35852,"is_reserved":false,"is_disabled":false,"rental_uris":{"android":"levelo://app?vid=dc7a929b-1a22-41cd-a6af-6836d471c1b6","ios":"levelo://app?vid=dc7a929b-1a22-41cd-a6af-6836d471c1b6"},"vehicle_type_id":"4","last_reported":1733857658,"current_range_meters":8400,"station_id":"ce4bhb12rcd13ifvqem0","pricing_plan_id":"cebpf4jnsgd1na2vs0mg"},{"bike_id":"75ae6d39-6dc2-49bc-ad9b-72136961811e","system_id":"levelo_inurba_marseille","lat":43.33023,"lon":5.39041,"is_reserved":false,"is_disabled":false,"rental_uris":{"android":"levelo://app?vid=75ae6d39-6dc2-49bc-ad9b-72136961811e","ios":"levelo://app?vid=75ae6d39-6dc2-49bc-ad9b-72136961811e"},"vehicle_type_id":"4","last_reported":1733857658,"current_range_meters":17200,"station_id":"ce4bhr92rcd13ifvqhrg","pricing_plan_id":"cebpf4jnsgd1na2vs0mg"},{"bike_id":"874a3809-50d5-4e80-9c6a-2acc016e95f8","system_id":"levelo_inurba_marseille","lat":43.27951,"lon":5.41034,"is_reserved":false,"is_disabled":false,"rental_uris":{"android":"levelo://app?vid=874a3809-50d5-4e80-9c6a-2acc016e95f8","ios":"levelo://app?vid=874a3809-50d5-4e80-9c6a-2acc016e95f8"},"vehicle_type_id":"4","last_reported":1733857658,"current_range_meters":24800,"station_id":"ce4bhnp2rcd13ifvqh0g","pricing_plan_id":"cebpf4jnsgd1na2vs0mg"},{"bike_id":"a4be6f92-a486-4066-8721-45d68bc2e82f","system_id":"levelo_inurba_marseille","lat":43.29001,"lon":5.35611,"is_reserved":false,"is_disabled":false,"rental_uris":{"android":"levelo://app?vid=a4be6f92-a486-4066-8721-45d68bc2e82f","ios":"levelo://app?vid=a4be6f92-a486-4066-8721-45d68bc2e82f"},"vehicle_type_id":"4","last_reported":1733857658,"current_range_meters":38800,"station_id":"ce4bhb92rcd13ifvqen0","pricing_plan_id":"cebpf4jnsgd1na2vs0mg"},{"bike_id":"e8a55825-4831-42b0-877d-4743602e8434","system_id":"levelo_inurba_marseille","lat":43.27325,"lon":5.39076,"is_reserved":false,"is_disabled":false,"rental_uris":{"android":"levelo://app?vid=e8a55825-4831-42b0-877d-4743602e8434","ios":"levelo://app?vid=e8a55825-4831-42b0-877d-4743602e8434"},"vehicle_type_id":"4","last_reported":1733857658,"current_range_meters":15200,"station_id":"ce4bhgp2rcd13ifvqfe0","pricing_plan_id":"cebpf4jnsgd1na2vs0mg"},{"bike_id":"24aee96e-61b0-4202-bc91-3913452ac193","system_id":"levelo_inurba_marseille","lat":43.28001,"lon":5.40008,"is_reserved":false,"is_disabled":false,"rental_uris":{"android":"levelo://app?vid=24aee96e-61b0-4202-bc91-3913452ac193","ios":"levelo://app?vid=24aee96e-61b0-4202-bc91-3913452ac193"},"vehicle_type_id":"4","last_reported":1733857658,"current_range_meters":3200,"station_id":"ce4bho92rcd13ifvqh4g","pricing_plan_id":"cebpf4jnsgd1na2vs0mg"},{"bike_id":"08e46dca-c7ab-473d-8cd7-0439ec94df64","system_id":"levelo_inurba_marseille","lat":43.27204,"lon":5.39191,"is_reserved":false,"is_disabled":true,"rental_uris":{"android":"levelo://app?vid=08e46dca-c7ab-473d-8cd7-0439ec94df64","ios":"levelo://app?vid=08e46dca-c7ab-473d-8cd7-0439ec94df64"},"vehicle_type_id":"4","last_reported":1733857658,"current_range_meters":16000,"station_id":"ce4bhhp2rcd13ifvqfm0","pricing_plan_id":"cebpf4jnsgd1na2vs0mg"},{"bike_id":"bc53fa51-fa84-469c-8478-c3c1765f2da9","system_id":"levelo_inurba_marseille","lat":43.31366,"lon":5.38492,"is_reserved":false,"is_disabled":false,"rental_uris":{"android":"levelo://app?vid=bc53fa51-fa84-469c-8478-c3c1765f2da9","ios":"levelo://app?vid=bc53fa51-fa84-469c-8478-c3c1765f2da9"},"vehicle_type_id":"4","last_reported":1733857658,"current_range_meters":38800,"station_id":"ce4bgt92rcd13ifvqcf0","pricing_plan_id":"cebpf4jnsgd1na2vs0mg"},{"bike_id":"466c6437-537c-4bf2-b4bd-93b64cc281e7","system_id":"levelo_inurba_marseille","lat":43.27999,"lon":5.40008,"is_reserved":false,"is_disabled":false,"rental_uris":{"android":"levelo://app?vid=466c6437-537c-4bf2-b4bd-93b64cc281e7","ios":"levelo://app?vid=466c6437-537c-4bf2-b4bd-93b64cc281e7"},"vehicle_type_id":"4","last_reported":1733857658,"current_range_meters":8800,"station_id":"ce4bho92rcd13ifvqh4g","pricing_plan_id":"cebpf4jnsgd1na2vs0mg"},{"bike_id":"b35f9cb0-a3c8-4a3c-9d9b-535208517d79","system_id":"levelo_inurba_marseille","lat":43.2656,"lon":5.39004,"is_reserved":false,"is_disabled":false,"rental_uris":{"android":"levelo://app?vid=b35f9cb0-a3c8-4a3c-9d9b-535208517d79","ios":"levelo://app?vid=b35f9cb0-a3c8-4a3c-9d9b-535208517d79"},"vehicle_type_id":"4","last_reported":1733857658,"current_range_meters":5600,"station_id":"ce4bhe12rcd13ifvqf30","pricing_plan_id":"cebpf4jnsgd1na2vs0mg"},{"bike_id":"17e9115d-8113-4bca-9428-2e6c563b1c7f","system_id":"levelo_inurba_marseille","lat":43.31064,"lon":5.38339,"is_reserved":false,"is_disabled":false,"rental_uris":{"android":"levelo://app?vid=17e9115d-8113-4bca-9428-2e6c563b1c7f","ios":"levelo://app?vid=17e9115d-8113-4bca-9428-2e6c563b1c7f"},"vehicle_type_id":"4","last_reported":1733857658,"current_range_meters":38800,"station_id":"ce4bgv92rcd13ifvqcr0","pricing_plan_id":"cebpf4jnsgd1na2vs0mg"},{"bike_id":"1798b009-d070-4a48-981c-7e69a8a0d034","system_id":"levelo_inurba_marseille","lat":43.32367,"lon":5.38878,"is_reserved":false,"is_disabled":true,"rental_uris":{"android":"levelo://app?vid=1798b009-d070-4a48-981c-7e69a8a0d034","ios":"levelo://app?vid=1798b009-d070-4a48-981c-7e69a8a0d034"},"vehicle_type_id":"4","last_reported":1733857658,"current_range_meters":0,"station_id":"ce4bhqp2rcd13ifvqhog","pricing_plan_id":"cebpf4jnsgd1na2vs0mg"},{"bike_id":"eb4e32cd-a02d-4e92-a013-1fdc0dd71ccb","system_id":"levelo_inurba_marseille","lat":43.324799,"lon":5.365716,"is_reserved":false,"is_disabled":true,"rental_uris":{"android":"levelo://app?vid=eb4e32cd-a02d-4e92-a013-1fdc0dd71ccb","ios":"levelo://app?vid=eb4e32cd-a02d-4e92-a013-1fdc0dd71ccb"},"vehicle_type_id":"4","last_reported":1733857658,"current_range_meters":0,"station_id":"","pricing_plan_id":"cebpf4jnsgd1na2vs0mg"},{"bike_id":"6ae94912-1798-4139-8681-6a220f445417","system_id":"levelo_inurba_marseille","lat":43.31332,"lon":5.39691,"is_reserved":false,"is_disabled":true,"rental_uris":{"android":"levelo://app?vid=6ae94912-1798-4139-8681-6a220f445417","ios":"levelo://app?vid=6ae94912-1798-4139-8681-6a220f445417"},"vehicle_type_id":"4","last_reported":1733857658,"current_range_meters":1600,"station_id":"ce4bgvp2rcd13ifvqcu0","pricing_plan_id":"cebpf4jnsgd1na2vs0mg"},{"bike_id":"c79a44c3-57a2-4768-b6b8-e298d2460a22","system_id":"levelo_inurba_marseille","lat":43.24166,"lon":5.36396,"is_reserved":false,"is_disabled":false,"rental_uris":{"android":"levelo://app?vid=c79a44c3-57a2-4768-b6b8-e298d2460a22","ios":"levelo://app?vid=c79a44c3-57a2-4768-b6b8-e298d2460a22"},"vehicle_type_id":"4","last_reported":1733857658,"current_range_meters":37600,"station_id":"cpo36qri1sfpv3e86is0","pricing_plan_id":"cebpf4jnsgd1na2vs0mg"},{"bike_id":"9d80a548-f609-424a-b271-462289cef155","system_id":"levelo_inurba_marseille","lat":43.23962,"lon":5.36626,"is_reserved":false,"is_disabled":false,"rental_uris":{"android":"levelo://app?vid=9d80a548-f609-424a-b271-462289cef155","ios":"levelo://app?vid=9d80a548-f609-424a-b271-462289cef155"},"vehicle_type_id":"4","last_reported":1733857658,"current_range_meters":24800,"station_id":"ce4bhi12rcd13ifvqfp0","pricing_plan_id":"cebpf4jnsgd1na2vs0mg"},{"bike_id":"26924fb9-4179-4abe-8b03-e0d47c141d92","system_id":"levelo_inurba_marseille","lat":43.2718,"lon":5.40991,"is_reserved":false,"is_disabled":false,"rental_uris":{"android":"levelo://app?vid=26924fb9-4179-4abe-8b03-e0d47c141d92","ios":"levelo://app?vid=26924fb9-4179-4abe-8b03-e0d47c141d92"},"vehicle_type_id":"4","last_reported":1733857658,"current_range_meters":25600,"station_id":"ce4bhl12rcd13ifvqgf0","pricing_plan_id":"cebpf4jnsgd1na2vs0mg"},{"bike_id":"13413a55-efc9-4e48-bc2b-ad373df4b5d3","system_id":"levelo_inurba_marseille","lat":43.24806,"lon":5.37451,"is_reserved":false,"is_disabled":false,"rental_uris":{"android":"levelo://app?vid=13413a55-efc9-4e48-bc2b-ad373df4b5d3","ios":"levelo://app?vid=13413a55-efc9-4e48-bc2b-ad373df4b5d3"},"vehicle_type_id":"4","last_reported":1733857658,"current_range_meters":22800,"station_id":"ce4bhgh2rcd13ifvqfb0","pricing_plan_id":"cebpf4jnsgd1na2vs0mg"},{"bike_id":"2e51fb70-b1be-4661-b646-3870500c9133","system_id":"levelo_inurba_marseille","lat":43.29948,"lon":5.41312,"is_reserved":false,"is_disabled":false,"rental_uris":{"android":"levelo://app?vid=2e51fb70-b1be-4661-b646-3870500c9133","ios":"levelo://app?vid=2e51fb70-b1be-4661-b646-3870500c9133"},"vehicle_type_id":"4","last_reported":1733857658,"current_range_meters":33200,"station_id":"ce4bhp12rcd13ifvqh9g","pricing_plan_id":"cebpf4jnsgd1na2vs0mg"},{"bike_id":"7bdec345-eeec-47c0-a1aa-d0b0f44ab6d1","system_id":"levelo_inurba_marseille","lat":43.32661,"lon":5.40983,"is_reserved":false,"is_disabled":true,"rental_uris":{"android":"levelo://app?vid=7bdec345-eeec-47c0-a1aa-d0b0f44ab6d1","ios":"levelo://app?vid=7bdec345-eeec-47c0-a1aa-d0b0f44ab6d1"},"vehicle_type_id":"4","last_reported":1733857658,"current_range_meters":38000,"station_id":"ce4bhpp2rcd13ifvqhgg","pricing_plan_id":"cebpf4jnsgd1na2vs0mg"},{"bike_id":"f86f7e2a-9da2-46ae-ba67-518e13dbcfb7","system_id":"levelo_inurba_marseille","lat":43.27184,"lon":5.40984,"is_reserved":false,"is_disabled":false,"rental_uris":{"android":"levelo://app?vid=f86f7e2a-9da2-46ae-ba67-518e13dbcfb7","ios":"levelo://app?vid=f86f7e2a-9da2-46ae-ba67-518e13dbcfb7"},"vehicle_type_id":"4","last_reported":1733857658,"current_range_meters":4000,"station_id":"ce4bhl12rcd13ifvqgf0","pricing_plan_id":"cebpf4jnsgd1na2vs0mg"},{"bike_id":"14e0b5b0-42a9-48e0-8858-2536c8586337","system_id":"levelo_inurba_marseille","lat":43.28715,"lon":5.39981,"is_reserved":false,"is_disabled":false,"rental_uris":{"android":"levelo://app?vid=14e0b5b0-42a9-48e0-8858-2536c8586337","ios":"levelo://app?vid=14e0b5b0-42a9-48e0-8858-2536c8586337"},"vehicle_type_id":"4","last_reported":1733857658,"current_range_meters":39200,"station_id":"ce4bho92rcd13ifvqh3g","pricing_plan_id":"cebpf4jnsgd1na2vs0mg"},{"bike_id":"90a4dabb-fa7c-4f48-9d42-614185eccbe7","system_id":"levelo_inurba_marseille","lat":43.30424,"lon":5.39749,"is_reserved":false,"is_disabled":false,"rental_uris":{"android":"levelo://app?vid=90a4dabb-fa7c-4f48-9d42-614185eccbe7","ios":"levelo://app?vid=90a4dabb-fa7c-4f48-9d42-614185eccbe7"},"vehicle_type_id":"4","last_reported":1733857658,"current_range_meters":28400,"station_id":"ce4bh092rcd13ifvqd20","pricing_plan_id":"cebpf4jnsgd1na2vs0mg"},{"bike_id":"4b9f2e0c-e6c8-41ae-a354-ab0c34618599","system_id":"levelo_inurba_marseille","lat":43.23964,"lon":5.36629,"is_reserved":false,"is_disabled":false,"rental_uris":{"android":"levelo://app?vid=4b9f2e0c-e6c8-41ae-a354-ab0c34618599","ios":"levelo://app?vid=4b9f2e0c-e6c8-41ae-a354-ab0c34618599"},"vehicle_type_id":"4","last_reported":1733857658,"current_range_meters":39200,"station_id":"ce4bhi12rcd13ifvqfp0","pricing_plan_id":"cebpf4jnsgd1na2vs0mg"},{"bike_id":"24181ba8-8457-411d-85d3-7bc96f4747f8","system_id":"levelo_inurba_marseille","lat":43.3088,"lon":5.39655,"is_reserved":false,"is_disabled":false,"rental_uris":{"android":"levelo://app?vid=24181ba8-8457-411d-85d3-7bc96f4747f8","ios":"levelo://app?vid=24181ba8-8457-411d-85d3-7bc96f4747f8"},"vehicle_type_id":"4","last_reported":1733857658,"current_range_meters":17200,"station_id":"ce4bh012rcd13ifvqcv0","pricing_plan_id":"cebpf4jnsgd1na2vs0mg"},{"bike_id":"c2f1c23f-9d36-49a4-9031-542405313737","system_id":"levelo_inurba_marseille","lat":43.30256,"lon":5.40067,"is_reserved":false,"is_disabled":false,"rental_uris":{"android":"levelo://app?vid=c2f1c23f-9d36-49a4-9031-542405313737","ios":"levelo://app?vid=c2f1c23f-9d36-49a4-9031-542405313737"},"vehicle_type_id":"4","last_reported":1733857658,"current_range_meters":39200,"station_id":"ce4bgvh2rcd13ifvqcs0","pricing_plan_id":"cebpf4jnsgd1na2vs0mg"},{"bike_id":"2716c6d9-49c9-4433-825b-cf11e670bfe3","system_id":"levelo_inurba_marseille","lat":43.28852,"lon":5.39319,"is_reserved":false,"is_disabled":true,"rental_uris":{"android":"levelo://app?vid=2716c6d9-49c9-4433-825b-cf11e670bfe3","ios":"levelo://app?vid=2716c6d9-49c9-4433-825b-cf11e670bfe3"},"vehicle_type_id":"4","last_reported":1733857658,"current_range_meters":1200,"station_id":"ce4bh2p2rcd13ifvqdi0","pricing_plan_id":"cebpf4jnsgd1na2vs0mg"},{"bike_id":"cda007dd-06bb-4a86-b841-00a7ca3fac29","system_id":"levelo_inurba_marseille","lat":43.3176,"lon":5.39018,"is_reserved":false,"is_disabled":false,"rental_uris":{"android":"levelo://app?vid=cda007dd-06bb-4a86-b841-00a7ca3fac29","ios":"levelo://app?vid=cda007dd-06bb-4a86-b841-00a7ca3fac29"},"vehicle_type_id":"4","last_reported":1733857658,"current_range_meters":32400,"station_id":"ce4bhqp2rcd13ifvqhng","pricing_plan_id":"cebpf4jnsgd1na2vs0mg"},{"bike_id":"95d8628d-10b1-47e7-9a42-9b126ec315c6","system_id":"levelo_inurba_marseille","lat":43.23201,"lon":5.3556,"is_reserved":false,"is_disabled":false,"rental_uris":{"android":"levelo://app?vid=95d8628d-10b1-47e7-9a42-9b126ec315c6","ios":"levelo://app?vid=95d8628d-10b1-47e7-9a42-9b126ec315c6"},"vehicle_type_id":"4","last_reported":1733857658,"current_range_meters":23200,"station_id":"ce4bhu92rcd13ifvqi70","pricing_plan_id":"cebpf4jnsgd1na2vs0mg"},{"bike_id":"ff157558-4762-4775-8ebe-d59ef36bd776","system_id":"levelo_inurba_marseille","lat":43.26555,"lon":5.37294,"is_reserved":false,"is_disabled":false,"rental_uris":{"android":"levelo://app?vid=ff157558-4762-4775-8ebe-d59ef36bd776","ios":"levelo://app?vid=ff157558-4762-4775-8ebe-d59ef36bd776"},"vehicle_type_id":"4","last_reported":1733857658,"current_range_meters":12400,"station_id":"ce4bhg12rcd13ifvqf70","pricing_plan_id":"cebpf4jnsgd1na2vs0mg"},{"bike_id":"ebf11412-8f20-4f09-a2fa-4bbb5ad3b254","system_id":"levelo_inurba_marseille","lat":43.31481,"lon":5.37298,"is_reserved":false,"is_disabled":false,"rental_uris":{"android":"levelo://app?vid=ebf11412-8f20-4f09-a2fa-4bbb5ad3b254","ios":"levelo://app?vid=ebf11412-8f20-4f09-a2fa-4bbb5ad3b254"},"vehicle_type_id":"4","last_reported":1733857658,"current_range_meters":39200,"station_id":"ce4bgt12rcd13ifvqcd0","pricing_plan_id":"cebpf4jnsgd1na2vs0mg"},{"bike_id":"6c88932d-00ec-4b60-9546-85018a6b7535","system_id":"levelo_inurba_marseille","lat":43.29249,"lon":5.4091,"is_reserved":false,"is_disabled":false,"rental_uris":{"android":"levelo://app?vid=6c88932d-00ec-4b60-9546-85018a6b7535","ios":"levelo://app?vid=6c88932d-00ec-4b60-9546-85018a6b7535"},"vehicle_type_id":"4","last_reported":1733857658,"current_range_meters":38000,"station_id":"ce4bh192rcd13ifvqdc0","pricing_plan_id":"cebpf4jnsgd1na2vs0mg"},{"bike_id":"12169257-5a9b-4eb4-8236-bac1f876835d","system_id":"levelo_inurba_marseille","lat":43.28706,"lon":5.39984,"is_reserved":false,"is_disabled":true,"rental_uris":{"android":"levelo://app?vid=12169257-5a9b-4eb4-8236-bac1f876835d","ios":"levelo://app?vid=12169257-5a9b-4eb4-8236-bac1f876835d"},"vehicle_type_id":"4","last_reported":1733857658,"current_range_meters":0,"station_id":"ce4bho92rcd13ifvqh3g","pricing_plan_id":"cebpf4jnsgd1na2vs0mg"},{"bike_id":"f3913043-72ae-4fb5-9ce8-a8a23602c53e","system_id":"levelo_inurba_marseille","lat":43.29542,"lon":5.42269,"is_reserved":false,"is_disabled":false,"rental_uris":{"android":"levelo://app?vid=f3913043-72ae-4fb5-9ce8-a8a23602c53e","ios":"levelo://app?vid=f3913043-72ae-4fb5-9ce8-a8a23602c53e"},"vehicle_type_id":"4","last_reported":1733857658,"current_range_meters":6000,"station_id":"ce4bhph2rcd13ifvqhdg","pricing_plan_id":"cebpf4jnsgd1na2vs0mg"},{"bike_id":"570bad79-da0a-4f0e-bd71-fcfb4fde31b3","system_id":"levelo_inurba_marseille","lat":43.23956,"lon":5.36637,"is_reserved":false,"is_disabled":true,"rental_uris":{"android":"levelo://app?vid=570bad79-da0a-4f0e-bd71-fcfb4fde31b3","ios":"levelo://app?vid=570bad79-da0a-4f0e-bd71-fcfb4fde31b3"},"vehicle_type_id":"4","last_reported":1733857658,"current_range_meters":31200,"station_id":"ce4bhi12rcd13ifvqfp0","pricing_plan_id":"cebpf4jnsgd1na2vs0mg"},{"bike_id":"0f20b602-7b45-4989-92b6-4d1c64ab5468","system_id":"levelo_inurba_marseille","lat":43.26554,"lon":5.3729,"is_reserved":false,"is_disabled":false,"rental_uris":{"android":"levelo://app?vid=0f20b602-7b45-4989-92b6-4d1c64ab5468","ios":"levelo://app?vid=0f20b602-7b45-4989-92b6-4d1c64ab5468"},"vehicle_type_id":"4","last_reported":1733857658,"current_range_meters":32000,"station_id":"ce4bhg12rcd13ifvqf70","pricing_plan_id":"cebpf4jnsgd1na2vs0mg"},{"bike_id":"a594951f-0274-4429-b56b-19578d6dff3b","system_id":"levelo_inurba_marseille","lat":43.24662,"lon":5.38161,"is_reserved":false,"is_disabled":false,"rental_uris":{"android":"levelo://app?vid=a594951f-0274-4429-b56b-19578d6dff3b","ios":"levelo://app?vid=a594951f-0274-4429-b56b-19578d6dff3b"},"vehicle_type_id":"4","last_reported":1733857658,"current_range_meters":9200,"station_id":"ce4bhih2rcd13ifvqfr0","pricing_plan_id":"cebpf4jnsgd1na2vs0mg"},{"bike_id":"87790148-1929-4f7d-81e9-bc17b083cc36","system_id":"levelo_inurba_marseille","lat":43.25724,"lon":5.41107,"is_reserved":false,"is_disabled":false,"rental_uris":{"android":"levelo://app?vid=87790148-1929-4f7d-81e9-bc17b083cc36","ios":"levelo://app?vid=87790148-1929-4f7d-81e9-bc17b083cc36"},"vehicle_type_id":"4","last_reported":1733857658,"current_range_meters":38800,"station_id":"ce4bhkp2rcd13ifvqgd0","pricing_plan_id":"cebpf4jnsgd1na2vs0mg"},{"bike_id":"b8e7f883-5b9b-422d-81e9-d00c2442da3b","system_id":"levelo_inurba_marseille","lat":43.23064,"lon":5.35494,"is_reserved":false,"is_disabled":false,"rental_uris":{"android":"levelo://app?vid=b8e7f883-5b9b-422d-81e9-d00c2442da3b","ios":"levelo://app?vid=b8e7f883-5b9b-422d-81e9-d00c2442da3b"},"vehicle_type_id":"4","last_reported":1733857658,"current_range_meters":35600,"station_id":"cpo3342slgdg3j2ifvpg","pricing_plan_id":"cebpf4jnsgd1na2vs0mg"},{"bike_id":"13d84d23-5d31-4360-93f6-da7eb389396c","system_id":"levelo_inurba_marseille","lat":43.29001,"lon":5.35609,"is_reserved":false,"is_disabled":false,"rental_uris":{"android":"levelo://app?vid=13d84d23-5d31-4360-93f6-da7eb389396c","ios":"levelo://app?vid=13d84d23-5d31-4360-93f6-da7eb389396c"},"vehicle_type_id":"4","last_reported":1733857658,"current_range_meters":20800,"station_id":"ce4bhb92rcd13ifvqen0","pricing_plan_id":"cebpf4jnsgd1na2vs0mg"},{"bike_id":"cd1c4fb4-8eac-4868-9420-a9389a6402c9","system_id":"levelo_inurba_marseille","lat":43.28464,"lon":5.35877,"is_reserved":false,"is_disabled":false,"rental_uris":{"android":"levelo://app?vid=cd1c4fb4-8eac-4868-9420-a9389a6402c9","ios":"levelo://app?vid=cd1c4fb4-8eac-4868-9420-a9389a6402c9"},"vehicle_type_id":"4","last_reported":1733857658,"current_range_meters":28800,"station_id":"ce4bhah2rcd13ifvqei0","pricing_plan_id":"cebpf4jnsgd1na2vs0mg"},{"bike_id":"f78f4e7d-a540-4cbd-99d7-83208916456d","system_id":"levelo_inurba_marseille","lat":43.26218,"lon":5.37429,"is_reserved":false,"is_disabled":false,"rental_uris":{"android":"levelo://app?vid=f78f4e7d-a540-4cbd-99d7-83208916456d","ios":"levelo://app?vid=f78f4e7d-a540-4cbd-99d7-83208916456d"},"vehicle_type_id":"4","last_reported":1733857658,"current_range_meters":4800,"station_id":"ce4bhgp2rcd13ifvqfc0","pricing_plan_id":"cebpf4jnsgd1na2vs0mg"},{"bike_id":"aac345db-d41e-475c-a96f-986bffa1163f","system_id":"levelo_inurba_marseille","lat":43.29612,"lon":5.37711,"is_reserved":false,"is_disabled":true,"rental_uris":{"android":"levelo://app?vid=aac345db-d41e-475c-a96f-986bffa1163f","ios":"levelo://app?vid=aac345db-d41e-475c-a96f-986bffa1163f"},"vehicle_type_id":"4","last_reported":1733857658,"current_range_meters":27200,"station_id":"ce4bgi92rcd13ifvqb90","pricing_plan_id":"cebpf4jnsgd1na2vs0mg"},{"bike_id":"e29ee7e9-d6e4-4564-824e-5086807610f7","system_id":"levelo_inurba_marseille","lat":43.30198,"lon":5.36918,"is_reserved":false,"is_disabled":false,"rental_uris":{"android":"levelo://app?vid=e29ee7e9-d6e4-4564-824e-5086807610f7","ios":"levelo://app?vid=e29ee7e9-d6e4-4564-824e-5086807610f7"},"vehicle_type_id":"4","last_reported":1733857658,"current_range_meters":8800,"station_id":"ce4bgqh2rcd13ifvqc5g","pricing_plan_id":"cebpf4jnsgd1na2vs0mg"},{"bike_id":"ce5abbb4-3eea-482f-add5-e899e7792d65","system_id":"levelo_inurba_marseille","lat":43.27947,"lon":5.41043,"is_reserved":false,"is_disabled":false,"rental_uris":{"android":"levelo://app?vid=ce5abbb4-3eea-482f-add5-e899e7792d65","ios":"levelo://app?vid=ce5abbb4-3eea-482f-add5-e899e7792d65"},"vehicle_type_id":"4","last_reported":1733857658,"current_range_meters":21600,"station_id":"ce4bhnp2rcd13ifvqh0g","pricing_plan_id":"cebpf4jnsgd1na2vs0mg"},{"bike_id":"a0b44e86-9121-4df3-b62a-0fc9a0d1110c","system_id":"levelo_inurba_marseille","lat":43.23063,"lon":5.35497,"is_reserved":false,"is_disabled":false,"rental_uris":{"android":"levelo://app?vid=a0b44e86-9121-4df3-b62a-0fc9a0d1110c","ios":"levelo://app?vid=a0b44e86-9121-4df3-b62a-0fc9a0d1110c"},"vehicle_type_id":"4","last_reported":1733857658,"current_range_meters":35200,"station_id":"cpo3342slgdg3j2ifvpg","pricing_plan_id":"cebpf4jnsgd1na2vs0mg"},{"bike_id":"9600905b-f4e1-448a-beb4-6da0855b6680","system_id":"levelo_inurba_marseille","lat":43.28944,"lon":5.36634,"is_reserved":false,"is_disabled":false,"rental_uris":{"android":"levelo://app?vid=9600905b-f4e1-448a-beb4-6da0855b6680","ios":"levelo://app?vid=9600905b-f4e1-448a-beb4-6da0855b6680"},"vehicle_type_id":"4","last_reported":1733857658,"current_range_meters":30800,"station_id":"ce4bhap2rcd13ifvqek0","pricing_plan_id":"cebpf4jnsgd1na2vs0mg"},{"bike_id":"462cf08f-da5e-4233-ac29-19efa267eb1e","system_id":"levelo_inurba_marseille","lat":43.31131,"lon":5.37761,"is_reserved":false,"is_disabled":true,"rental_uris":{"android":"levelo://app?vid=462cf08f-da5e-4233-ac29-19efa267eb1e","ios":"levelo://app?vid=462cf08f-da5e-4233-ac29-19efa267eb1e"},"vehicle_type_id":"4","last_reported":1733857658,"current_range_meters":800,"station_id":"ce4bgt92rcd13ifvqcg0","pricing_plan_id":"cebpf4jnsgd1na2vs0mg"},{"bike_id":"9842e302-60c5-4463-a154-2234e3c29308","system_id":"levelo_inurba_marseille","lat":43.26193,"lon":5.37448,"is_reserved":false,"is_disabled":false,"rental_uris":{"android":"levelo://app?vid=9842e302-60c5-4463-a154-2234e3c29308","ios":"levelo://app?vid=9842e302-60c5-4463-a154-2234e3c29308"},"vehicle_type_id":"4","last_reported":1733857658,"current_range_meters":38400,"station_id":"ce4bhgp2rcd13ifvqfc0","pricing_plan_id":"cebpf4jnsgd1na2vs0mg"},{"bike_id":"0baa0cb3-c70b-4218-a949-30fabd3832bf","system_id":"levelo_inurba_marseille","lat":43.28401,"lon":5.37527,"is_reserved":false,"is_disabled":false,"rental_uris":{"android":"levelo://app?vid=0baa0cb3-c70b-4218-a949-30fabd3832bf","ios":"levelo://app?vid=0baa0cb3-c70b-4218-a949-30fabd3832bf"},"vehicle_type_id":"4","last_reported":1733857658,"current_range_meters":5600,"station_id":"ce4bh412rcd13ifvqds0","pricing_plan_id":"cebpf4jnsgd1na2vs0mg"},{"bike_id":"eab7c24e-3533-4637-b397-5e46bc48ccfd","system_id":"levelo_inurba_marseille","lat":43.23159,"lon":5.43702,"is_reserved":false,"is_disabled":true,"rental_uris":{"android":"levelo://app?vid=eab7c24e-3533-4637-b397-5e46bc48ccfd","ios":"levelo://app?vid=eab7c24e-3533-4637-b397-5e46bc48ccfd"},"vehicle_type_id":"4","last_reported":1733857658,"current_range_meters":4400,"station_id":"ce4bhmp2rcd13ifvqgog","pricing_plan_id":"cebpf4jnsgd1na2vs0mg"},{"bike_id":"ff46f7b7-bf8e-4339-90a6-087c02b41ce7","system_id":"levelo_inurba_marseille","lat":43.28657,"lon":5.36349,"is_reserved":false,"is_disabled":false,"rental_uris":{"android":"levelo://app?vid=ff46f7b7-bf8e-4339-90a6-087c02b41ce7","ios":"levelo://app?vid=ff46f7b7-bf8e-4339-90a6-087c02b41ce7"},"vehicle_type_id":"4","last_reported":1733857658,"current_range_meters":36400,"station_id":"ce4bhah2rcd13ifvqej0","pricing_plan_id":"cebpf4jnsgd1na2vs0mg"},{"bike_id":"0933d3bc-70ba-4a39-b817-48af2395d72a","system_id":"levelo_inurba_marseille","lat":43.26056,"lon":5.39397,"is_reserved":false,"is_disabled":false,"rental_uris":{"android":"levelo://app?vid=0933d3bc-70ba-4a39-b817-48af2395d72a","ios":"levelo://app?vid=0933d3bc-70ba-4a39-b817-48af2395d72a"},"vehicle_type_id":"4","last_reported":1733857658,"current_range_meters":6000,"station_id":"ce4bhh92rcd13ifvqfj0","pricing_plan_id":"cebpf4jnsgd1na2vs0mg"},{"bike_id":"14762c8d-4553-4e3e-bb0e-70946d0777f6","system_id":"levelo_inurba_marseille","lat":43.292267,"lon":5.36206,"is_reserved":false,"is_disabled":false,"rental_uris":{"android":"levelo://app?vid=14762c8d-4553-4e3e-bb0e-70946d0777f6","ios":"levelo://app?vid=14762c8d-4553-4e3e-bb0e-70946d0777f6"},"vehicle_type_id":"4","last_reported":1733857658,"current_range_meters":28400,"station_id":"","pricing_plan_id":"cebpf4jnsgd1na2vs0mg"},{"bike_id":"1bbef0f8-8963-4604-a852-033ad0e236e3","system_id":"levelo_inurba_marseille","lat":43.28457,"lon":5.35895,"is_reserved":false,"is_disabled":false,"rental_uris":{"android":"levelo://app?vid=1bbef0f8-8963-4604-a852-033ad0e236e3","ios":"levelo://app?vid=1bbef0f8-8963-4604-a852-033ad0e236e3"},"vehicle_type_id":"4","last_reported":1733857658,"current_range_meters":38000,"station_id":"ce4bhah2rcd13ifvqei0","pricing_plan_id":"cebpf4jnsgd1na2vs0mg"},{"bike_id":"06171183-7379-468f-b30f-9c230cfabb99","system_id":"levelo_inurba_marseille","lat":43.2757,"lon":5.38423,"is_reserved":false,"is_disabled":false,"rental_uris":{"android":"levelo://app?vid=06171183-7379-468f-b30f-9c230cfabb99","ios":"levelo://app?vid=06171183-7379-468f-b30f-9c230cfabb99"},"vehicle_type_id":"4","last_reported":1733857658,"current_range_meters":3200,"station_id":"ce4bhh92rcd13ifvqfi0","pricing_plan_id":"cebpf4jnsgd1na2vs0mg"},{"bike_id":"962a96b4-3298-40d0-92e0-1b449f02c0fe","system_id":"levelo_inurba_marseille","lat":43.25494,"lon":5.37647,"is_reserved":false,"is_disabled":true,"rental_uris":{"android":"levelo://app?vid=962a96b4-3298-40d0-92e0-1b449f02c0fe","ios":"levelo://app?vid=962a96b4-3298-40d0-92e0-1b449f02c0fe"},"vehicle_type_id":"4","last_reported":1733857658,"current_range_meters":36000,"station_id":"ce4bhh12rcd13ifvqff0","pricing_plan_id":"cebpf4jnsgd1na2vs0mg"},{"bike_id":"1c54c862-f0dc-4be3-91f4-805a9b537bf1","system_id":"levelo_inurba_marseille","lat":43.31356,"lon":5.38489,"is_reserved":false,"is_disabled":false,"rental_uris":{"android":"levelo://app?vid=1c54c862-f0dc-4be3-91f4-805a9b537bf1","ios":"levelo://app?vid=1c54c862-f0dc-4be3-91f4-805a9b537bf1"},"vehicle_type_id":"4","last_reported":1733857658,"current_range_meters":38800,"station_id":"ce4bgt92rcd13ifvqcf0","pricing_plan_id":"cebpf4jnsgd1na2vs0mg"},{"bike_id":"1cddb37e-2d97-416e-98ad-437aa9a20b17","system_id":"levelo_inurba_marseille","lat":43.2952,"lon":5.37495,"is_reserved":false,"is_disabled":true,"rental_uris":{"android":"levelo://app?vid=1cddb37e-2d97-416e-98ad-437aa9a20b17","ios":"levelo://app?vid=1cddb37e-2d97-416e-98ad-437aa9a20b17"},"vehicle_type_id":"4","last_reported":1733857658,"current_range_meters":25600,"station_id":"ce4bgkp2rcd13ifvqbmg","pricing_plan_id":"cebpf4jnsgd1na2vs0mg"},{"bike_id":"ba5e4c54-9e0f-419d-acd3-894b4507a88b","system_id":"levelo_inurba_marseille","lat":43.23055,"lon":5.35487,"is_reserved":false,"is_disabled":false,"rental_uris":{"android":"levelo://app?vid=ba5e4c54-9e0f-419d-acd3-894b4507a88b","ios":"levelo://app?vid=ba5e4c54-9e0f-419d-acd3-894b4507a88b"},"vehicle_type_id":"4","last_reported":1733857658,"current_range_meters":24800,"station_id":"cpo3342slgdg3j2ifvpg","pricing_plan_id":"cebpf4jnsgd1na2vs0mg"},{"bike_id":"0fc6091a-78b7-4e6b-ab49-3086aa32da9d","system_id":"levelo_inurba_marseille","lat":43.29271,"lon":5.40111,"is_reserved":false,"is_disabled":true,"rental_uris":{"android":"levelo://app?vid=0fc6091a-78b7-4e6b-ab49-3086aa32da9d","ios":"levelo://app?vid=0fc6091a-78b7-4e6b-ab49-3086aa32da9d"},"vehicle_type_id":"4","last_reported":1733857658,"current_range_meters":10000,"station_id":"ce4bh312rcd13ifvqdk0","pricing_plan_id":"cebpf4jnsgd1na2vs0mg"},{"bike_id":"4caf5818-7c47-43a7-b49c-a6bba648e9c9","system_id":"levelo_inurba_marseille","lat":43.3094,"lon":5.40135,"is_reserved":false,"is_disabled":false,"rental_uris":{"android":"levelo://app?vid=4caf5818-7c47-43a7-b49c-a6bba648e9c9","ios":"levelo://app?vid=4caf5818-7c47-43a7-b49c-a6bba648e9c9"},"vehicle_type_id":"4","last_reported":1733857658,"current_range_meters":13600,"station_id":"ce4bgvp2rcd13ifvqct0","pricing_plan_id":"cebpf4jnsgd1na2vs0mg"},{"bike_id":"5509c16b-5286-4d3e-9aef-224637c981b3","system_id":"levelo_inurba_marseille","lat":43.30215,"lon":5.39459,"is_reserved":false,"is_disabled":false,"rental_uris":{"android":"levelo://app?vid=5509c16b-5286-4d3e-9aef-224637c981b3","ios":"levelo://app?vid=5509c16b-5286-4d3e-9aef-224637c981b3"},"vehicle_type_id":"4","last_reported":1733857658,"current_range_meters":29600,"station_id":"ce4bh0p2rcd13ifvqd70","pricing_plan_id":"cebpf4jnsgd1na2vs0mg"},{"bike_id":"fffa14be-58a4-4d6c-9582-c535b5f77ae9","system_id":"levelo_inurba_marseille","lat":43.2737,"lon":5.36251,"is_reserved":false,"is_disabled":false,"rental_uris":{"android":"levelo://app?vid=fffa14be-58a4-4d6c-9582-c535b5f77ae9","ios":"levelo://app?vid=fffa14be-58a4-4d6c-9582-c535b5f77ae9"},"vehicle_type_id":"4","last_reported":1733857658,"current_range_meters":38000,"station_id":"ce4bhbh2rcd13ifvqeo0","pricing_plan_id":"cebpf4jnsgd1na2vs0mg"},{"bike_id":"3e43d037-38ae-4e90-996b-f649cad04c8b","system_id":"levelo_inurba_marseille","lat":43.27808,"lon":5.40705,"is_reserved":false,"is_disabled":false,"rental_uris":{"android":"levelo://app?vid=3e43d037-38ae-4e90-996b-f649cad04c8b","ios":"levelo://app?vid=3e43d037-38ae-4e90-996b-f649cad04c8b"},"vehicle_type_id":"4","last_reported":1733857658,"current_range_meters":38000,"station_id":"ce4bhnh2rcd13ifvqgtg","pricing_plan_id":"cebpf4jnsgd1na2vs0mg"},{"bike_id":"3933b701-ca82-4b18-a882-72a61c67a1e4","system_id":"levelo_inurba_marseille","lat":43.24392,"lon":5.3706,"is_reserved":false,"is_disabled":true,"rental_uris":{"android":"levelo://app?vid=3933b701-ca82-4b18-a882-72a61c67a1e4","ios":"levelo://app?vid=3933b701-ca82-4b18-a882-72a61c67a1e4"},"vehicle_type_id":"4","last_reported":1733857658,"current_range_meters":36400,"station_id":"ce4bhhh2rcd13ifvqfk0","pricing_plan_id":"cebpf4jnsgd1na2vs0mg"},{"bike_id":"47a2bb21-ef8d-461b-9881-281203112dcd","system_id":"levelo_inurba_marseille","lat":43.28419,"lon":5.34981,"is_reserved":false,"is_disabled":false,"rental_uris":{"android":"levelo://app?vid=47a2bb21-ef8d-461b-9881-281203112dcd","ios":"levelo://app?vid=47a2bb21-ef8d-461b-9881-281203112dcd"},"vehicle_type_id":"4","last_reported":1733857658,"current_range_meters":8000,"station_id":"ce4bhbh2rcd13ifvqepg","pricing_plan_id":"cebpf4jnsgd1na2vs0mg"},{"bike_id":"c7f9a446-943e-4672-8aaf-2f46298a7356","system_id":"levelo_inurba_marseille","lat":43.31711,"lon":5.43701,"is_reserved":false,"is_disabled":false,"rental_uris":{"android":"levelo://app?vid=c7f9a446-943e-4672-8aaf-2f46298a7356","ios":"levelo://app?vid=c7f9a446-943e-4672-8aaf-2f46298a7356"},"vehicle_type_id":"4","last_reported":1733857658,"current_range_meters":4400,"station_id":"ce4bhp92rcd13ifvqhcg","pricing_plan_id":"cebpf4jnsgd1na2vs0mg"},{"bike_id":"a0d320c9-0c5f-41f0-b837-004413b91a68","system_id":"levelo_inurba_marseille","lat":43.26682,"lon":5.38258,"is_reserved":false,"is_disabled":false,"rental_uris":{"android":"levelo://app?vid=a0d320c9-0c5f-41f0-b837-004413b91a68","ios":"levelo://app?vid=a0d320c9-0c5f-41f0-b837-004413b91a68"},"vehicle_type_id":"4","last_reported":1733857658,"current_range_meters":14800,"station_id":"ce4bhg92rcd13ifvqf90","pricing_plan_id":"cebpf4jnsgd1na2vs0mg"},{"bike_id":"3dac4165-5751-47ed-889d-7735dd5c4c86","system_id":"levelo_inurba_marseille","lat":43.2919,"lon":5.35797,"is_reserved":false,"is_disabled":false,"rental_uris":{"android":"levelo://app?vid=3dac4165-5751-47ed-889d-7735dd5c4c86","ios":"levelo://app?vid=3dac4165-5751-47ed-889d-7735dd5c4c86"},"vehicle_type_id":"4","last_reported":1733857658,"current_range_meters":34800,"station_id":"ce4bhb12rcd13ifvqel0","pricing_plan_id":"cebpf4jnsgd1na2vs0mg"},{"bike_id":"c9b8fa2e-cdf1-4d68-aa15-1831cb0bd893","system_id":"levelo_inurba_marseille","lat":43.26944,"lon":5.40246,"is_reserved":false,"is_disabled":false,"rental_uris":{"android":"levelo://app?vid=c9b8fa2e-cdf1-4d68-aa15-1831cb0bd893","ios":"levelo://app?vid=c9b8fa2e-cdf1-4d68-aa15-1831cb0bd893"},"vehicle_type_id":"4","last_reported":1733857658,"current_range_meters":6800,"station_id":"cjm6bp8fraef2m0cb0m0","pricing_plan_id":"cebpf4jnsgd1na2vs0mg"},{"bike_id":"ade46800-cae1-4c8d-9ee9-1ccb4e1df585","system_id":"levelo_inurba_marseille","lat":43.29019,"lon":5.35668,"is_reserved":false,"is_disabled":false,"rental_uris":{"android":"levelo://app?vid=ade46800-cae1-4c8d-9ee9-1ccb4e1df585","ios":"levelo://app?vid=ade46800-cae1-4c8d-9ee9-1ccb4e1df585"},"vehicle_type_id":"4","last_reported":1733857658,"current_range_meters":12000,"station_id":"ce4bhb92rcd13ifvqen0","pricing_plan_id":"cebpf4jnsgd1na2vs0mg"},{"bike_id":"1a038d37-212e-4e63-91fb-b4c43118cf2f","system_id":"levelo_inurba_marseille","lat":43.28153,"lon":5.42638,"is_reserved":false,"is_disabled":false,"rental_uris":{"android":"levelo://app?vid=1a038d37-212e-4e63-91fb-b4c43118cf2f","ios":"levelo://app?vid=1a038d37-212e-4e63-91fb-b4c43118cf2f"},"vehicle_type_id":"4","last_reported":1733857658,"current_range_meters":38800,"station_id":"ce4bhnh2rcd13ifvqgug","pricing_plan_id":"cebpf4jnsgd1na2vs0mg"},{"bike_id":"286feda9-d622-4854-8165-7f2d358978dc","system_id":"levelo_inurba_marseille","lat":43.31712,"lon":5.43702,"is_reserved":false,"is_disabled":false,"rental_uris":{"android":"levelo://app?vid=286feda9-d622-4854-8165-7f2d358978dc","ios":"levelo://app?vid=286feda9-d622-4854-8165-7f2d358978dc"},"vehicle_type_id":"4","last_reported":1733857658,"current_range_meters":19200,"station_id":"ce4bhp92rcd13ifvqhcg","pricing_plan_id":"cebpf4jnsgd1na2vs0mg"},{"bike_id":"28a1be8a-5ad9-414e-bd53-cc2e126a8330","system_id":"levelo_inurba_marseille","lat":43.308,"lon":5.38149,"is_reserved":false,"is_disabled":false,"rental_uris":{"android":"levelo://app?vid=28a1be8a-5ad9-414e-bd53-cc2e126a8330","ios":"levelo://app?vid=28a1be8a-5ad9-414e-bd53-cc2e126a8330"},"vehicle_type_id":"4","last_reported":1733857658,"current_range_meters":6000,"station_id":"ce4bgt12rcd13ifvqce0","pricing_plan_id":"cebpf4jnsgd1na2vs0mg"},{"bike_id":"6149d10a-ee53-4413-9592-38357ced78cb","system_id":"levelo_inurba_marseille","lat":43.26187,"lon":5.37449,"is_reserved":false,"is_disabled":true,"rental_uris":{"android":"levelo://app?vid=6149d10a-ee53-4413-9592-38357ced78cb","ios":"levelo://app?vid=6149d10a-ee53-4413-9592-38357ced78cb"},"vehicle_type_id":"4","last_reported":1733857658,"current_range_meters":34800,"station_id":"ce4bhgp2rcd13ifvqfc0","pricing_plan_id":"cebpf4jnsgd1na2vs0mg"},{"bike_id":"c0c75b89-7416-46d7-af4f-a3c5846df10e","system_id":"levelo_inurba_marseille","lat":43.29517,"lon":5.39403,"is_reserved":false,"is_disabled":false,"rental_uris":{"android":"levelo://app?vid=c0c75b89-7416-46d7-af4f-a3c5846df10e","ios":"levelo://app?vid=c0c75b89-7416-46d7-af4f-a3c5846df10e"},"vehicle_type_id":"4","last_reported":1733857658,"current_range_meters":37600,"station_id":"ce4bh292rcd13ifvqdf0","pricing_plan_id":"cebpf4jnsgd1na2vs0mg"},{"bike_id":"7671ad65-df89-400f-8825-591abe5dd88b","system_id":"levelo_inurba_marseille","lat":43.31334,"lon":5.39702,"is_reserved":false,"is_disabled":false,"rental_uris":{"android":"levelo://app?vid=7671ad65-df89-400f-8825-591abe5dd88b","ios":"levelo://app?vid=7671ad65-df89-400f-8825-591abe5dd88b"},"vehicle_type_id":"4","last_reported":1733857658,"current_range_meters":9600,"station_id":"ce4bgvp2rcd13ifvqcu0","pricing_plan_id":"cebpf4jnsgd1na2vs0mg"},{"bike_id":"20e9db8d-d68b-4418-94af-d9d63f8c2b96","system_id":"levelo_inurba_marseille","lat":43.337444,"lon":5.374475,"is_reserved":false,"is_disabled":true,"rental_uris":{"android":"levelo://app?vid=20e9db8d-d68b-4418-94af-d9d63f8c2b96","ios":"levelo://app?vid=20e9db8d-d68b-4418-94af-d9d63f8c2b96"},"vehicle_type_id":"4","last_reported":1733857658,"current_range_meters":0,"station_id":"","pricing_plan_id":"cebpf4jnsgd1na2vs0mg"},{"bike_id":"0cdbcbb8-15c2-403a-901a-3c91b5ebcd5d","system_id":"levelo_inurba_marseille","lat":43.28465,"lon":5.35883,"is_reserved":false,"is_disabled":false,"rental_uris":{"android":"levelo://app?vid=0cdbcbb8-15c2-403a-901a-3c91b5ebcd5d","ios":"levelo://app?vid=0cdbcbb8-15c2-403a-901a-3c91b5ebcd5d"},"vehicle_type_id":"4","last_reported":1733857658,"current_range_meters":38000,"station_id":"ce4bhah2rcd13ifvqei0","pricing_plan_id":"cebpf4jnsgd1na2vs0mg"},{"bike_id":"d24f1ce6-ace1-45a5-a5e6-10aa2d9cbf17","system_id":"levelo_inurba_marseille","lat":43.302124,"lon":5.397017,"is_reserved":false,"is_disabled":true,"rental_uris":{"android":"levelo://app?vid=d24f1ce6-ace1-45a5-a5e6-10aa2d9cbf17","ios":"levelo://app?vid=d24f1ce6-ace1-45a5-a5e6-10aa2d9cbf17"},"vehicle_type_id":"4","last_reported":1733857658,"current_range_meters":2000,"station_id":"ce4bh0h2rcd13ifvqd40","pricing_plan_id":"cebpf4jnsgd1na2vs0mg"},{"bike_id":"2539a722-3487-4f95-80f9-912fba923be8","system_id":"levelo_inurba_marseille","lat":43.28438,"lon":5.39179,"is_reserved":false,"is_disabled":true,"rental_uris":{"android":"levelo://app?vid=2539a722-3487-4f95-80f9-912fba923be8","ios":"levelo://app?vid=2539a722-3487-4f95-80f9-912fba923be8"},"vehicle_type_id":"4","last_reported":1733857658,"current_range_meters":0,"station_id":"ce4bhoh2rcd13ifvqh5g","pricing_plan_id":"cebpf4jnsgd1na2vs0mg"},{"bike_id":"445ceb1b-e0a6-42cd-bb44-eb8e9b1da8ee","system_id":"levelo_inurba_marseille","lat":43.32636,"lon":5.3869,"is_reserved":false,"is_disabled":false,"rental_uris":{"android":"levelo://app?vid=445ceb1b-e0a6-42cd-bb44-eb8e9b1da8ee","ios":"levelo://app?vid=445ceb1b-e0a6-42cd-bb44-eb8e9b1da8ee"},"vehicle_type_id":"4","last_reported":1733857658,"current_range_meters":14800,"station_id":"","pricing_plan_id":"cebpf4jnsgd1na2vs0mg"},{"bike_id":"0e13b63f-7559-42c1-924f-4e214b1e69e9","system_id":"levelo_inurba_marseille","lat":43.28345,"lon":5.38099,"is_reserved":false,"is_disabled":true,"rental_uris":{"android":"levelo://app?vid=0e13b63f-7559-42c1-924f-4e214b1e69e9","ios":"levelo://app?vid=0e13b63f-7559-42c1-924f-4e214b1e69e9"},"vehicle_type_id":"4","last_reported":1733857658,"current_range_meters":800,"station_id":"ce4bh412rcd13ifvqdr0","pricing_plan_id":"cebpf4jnsgd1na2vs0mg"},{"bike_id":"1d66e852-fa86-45b7-88ad-40f07c46a9de","system_id":"levelo_inurba_marseille","lat":43.2707,"lon":5.42273,"is_reserved":false,"is_disabled":false,"rental_uris":{"android":"levelo://app?vid=1d66e852-fa86-45b7-88ad-40f07c46a9de","ios":"levelo://app?vid=1d66e852-fa86-45b7-88ad-40f07c46a9de"},"vehicle_type_id":"4","last_reported":1733857658,"current_range_meters":29600,"station_id":"ce4bhk92rcd13ifvqgb0","pricing_plan_id":"cebpf4jnsgd1na2vs0mg"},{"bike_id":"f6f6210d-5e07-46dd-93e4-3e102dd7cb0e","system_id":"levelo_inurba_marseille","lat":43.29395,"lon":5.38885,"is_reserved":false,"is_disabled":true,"rental_uris":{"android":"levelo://app?vid=f6f6210d-5e07-46dd-93e4-3e102dd7cb0e","ios":"levelo://app?vid=f6f6210d-5e07-46dd-93e4-3e102dd7cb0e"},"vehicle_type_id":"4","last_reported":1733857658,"current_range_meters":0,"station_id":"","pricing_plan_id":"cebpf4jnsgd1na2vs0mg"},{"bike_id":"4fd19827-6af9-49b8-ad49-c1c8e7f160fe","system_id":"levelo_inurba_marseille","lat":43.302127,"lon":5.394647,"is_reserved":false,"is_disabled":true,"rental_uris":{"android":"levelo://app?vid=4fd19827-6af9-49b8-ad49-c1c8e7f160fe","ios":"levelo://app?vid=4fd19827-6af9-49b8-ad49-c1c8e7f160fe"},"vehicle_type_id":"4","last_reported":1733857658,"current_range_meters":38400,"station_id":"ce4bh0p2rcd13ifvqd70","pricing_plan_id":"cebpf4jnsgd1na2vs0mg"},{"bike_id":"8be9b038-c55a-4e36-9cc6-ac3c265c8b66","system_id":"levelo_inurba_marseille","lat":43.23185,"lon":5.39986,"is_reserved":false,"is_disabled":false,"rental_uris":{"android":"levelo://app?vid=8be9b038-c55a-4e36-9cc6-ac3c265c8b66","ios":"levelo://app?vid=8be9b038-c55a-4e36-9cc6-ac3c265c8b66"},"vehicle_type_id":"4","last_reported":1733857658,"current_range_meters":16400,"station_id":"ce4bhn12rcd13ifvqgqg","pricing_plan_id":"cebpf4jnsgd1na2vs0mg"},{"bike_id":"eb5de53e-23e6-4a18-9151-6147ab06841a","system_id":"levelo_inurba_marseille","lat":43.2481,"lon":5.3745,"is_reserved":false,"is_disabled":false,"rental_uris":{"android":"levelo://app?vid=eb5de53e-23e6-4a18-9151-6147ab06841a","ios":"levelo://app?vid=eb5de53e-23e6-4a18-9151-6147ab06841a"},"vehicle_type_id":"4","last_reported":1733857658,"current_range_meters":33200,"station_id":"ce4bhgh2rcd13ifvqfb0","pricing_plan_id":"cebpf4jnsgd1na2vs0mg"},{"bike_id":"010d14a3-6845-4266-b6b3-c64f4f4acacf","system_id":"levelo_inurba_marseille","lat":43.28417,"lon":5.349928,"is_reserved":false,"is_disabled":false,"rental_uris":{"android":"levelo://app?vid=010d14a3-6845-4266-b6b3-c64f4f4acacf","ios":"levelo://app?vid=010d14a3-6845-4266-b6b3-c64f4f4acacf"},"vehicle_type_id":"4","last_reported":1733857658,"current_range_meters":29600,"station_id":"ce4bhbh2rcd13ifvqepg","pricing_plan_id":"cebpf4jnsgd1na2vs0mg"},