{"last_updated":1741356530,"ttl":60,"version":"2.2","data":{"bikes":[{"bike_id":"fc2e01e2-a336-49f9-8a33-0d1f4dfa9e0b","system_id":"levelo_inurba_marseille","lat":43.337444,"lon":5.374475,"is_reserved":false,"is_disabled":true,"rental_uris":{"android":"levelo://app?vid=fc2e01e2-a336-49f9-8a33-0d1f4dfa9e0b","ios":"levelo://app?vid=fc2e01e2-a336-49f9-8a33-0d1f4dfa9e0b"},"vehicle_type_id":"4","last_reported":1741356530,"current_range_meters":0,"station_id":"","pricing_plan_id":"cebpf4jnsgd1na2vs0mg"},{"bike_id":"ee1d2ad1-36ca-49dd-a328-f2a9a9994ecb","system_id":"levelo_inurba_marseille","lat":43.31091,"lon":5.38121,"is_reserved":false,"is_disabled":true,"rental_uris":{"android":"levelo://app?vid=ee1d2ad1-36ca-49dd-a328-f2a9a9994ecb","ios":"levelo://app?vid=ee1d2ad1-36ca-49dd-a328-f2a9a9994ecb"},"vehicle_type_id":"4","last_reported":1741356530,"current_range_meters":0,"station_id":"","pricing_plan_id":"cebpf4jnsgd1na2vs0mg"},{"bike_id":"0caafa18-6f9e-4230-9c6e-26c222c51a90","system_id":"levelo_inurba_marseille","lat":43.2962,"lon":5.40575,"is_reserved":false,"is_disabled":true,"rental_uris":{"android":"levelo://app?vid=0caafa18-6f9e-4230-9c6e-26c222c51a90","ios":"levelo://app?vid=0caafa18-6f9e-4230-9c6e-26c222c51a90"},"vehicle_type_id":"4","last_reported":1741356530,"current_range_meters":0,"station_id":"ce4bh0h2rcd13ifvqd60","pricing_plan_id":"cebpf4jnsgd1na2vs0mg"},{"bike_id":"216dc7c7-2172-4f10-afa7-c2a3a36dd28a","system_id":"levelo_inurba_marseille","lat":43.28034,"lon":5.36944,"is_reserved":false,"is_disabled":true,"rental_uris":{"android":"levelo://app?vid=216dc7c7-2172-4f10-afa7-c2a3a36dd28a","ios":"levelo://app?vid=216dc7c7-2172-4f10-afa7-c2a3a36dd28a"},"vehicle_type_id":"4","last_reported":1741356530,"current_range_meters":0,"station_id":"ce4bha12rcd13ifvqef0","pricing_plan_id":"cebpf4jnsgd1na2vs0mg"},{"bike_id":"db087ccd-9848-4d53-b144-8f9db0c3ab05","system_id":"levelo_inurba_marseille","lat":43.28866,"lon":5.35849,"is_reserved":false,"is_disabled":true,"rental_uris":{"android":"levelo://app?vid=db087ccd-9848-4d53-b144-8f9db0c3ab05","ios":"levelo://app?vid=db087ccd-9848-4d53-b144-8f9db0c3ab05"},"vehicle_type_id":"4","last_reported":1741356530,"current_range_meters":0,"station_id":"ce4bhb12rcd13ifvqem0","pricing_plan_id":"cebpf4jnsgd1na2vs0mg"},{"bike_id":"4be93dbe-89a0-4004-8e0a-cfbbc80f6816","system_id":"levelo_inurba_marseille","lat":43.27369,"lon":5.3625,"is_reserved":false,"is_disabled":true,"rental_uris":{"android":"levelo://app?vid=4be93dbe-89a0-4004-8e0a-cfbbc80f6816","ios":"levelo://app?vid=4be93dbe-89a0-4004-8e0a-cfbbc80f6816"},"vehicle_type_id":"4","last_reported":1741356530,"current_range_meters":0,"station_id":"ce4bhbh2rcd13ifvqeo0","pricing_plan_id":"cebpf4jnsgd1na2vs0mg"},{"bike_id":"b810bd03-9c8e-4249-989f-3cb69a3fb882","system_id":"levelo_inurba_marseille","lat":43.27555,"lon":5.38415,"is_reserved":false,"is_disabled":true,"rental_uris":{"android":"levelo://app?vid=b810bd03-9c8e-4249-989f-3cb69a3fb882","ios":"levelo://app?vid=b810bd03-9c8e-4249-989f-3cb69a3fb882"},"vehicle_type_id":"4","last_reported":1741356530,"current_range_meters":0,"station_id":"ce4bhh92rcd13ifvqfi0","pricing_plan_id":"cebpf4jnsgd1na2vs0mg"},{"bike_id":"fd3969db-25e9-424b-bc71-523f0eb1872c","system_id":"levelo_inurba_marseille","lat":43.23157,"lon":5.43697,"is_reserved":false,"is_disabled":true,"rental_uris":{"android":"levelo://app?vid=fd3969db-25e9-424b-bc71-523f0eb1872c","ios":"levelo://app?vid=fd3969db-25e9-424b-bc71-523f0eb1872c"},"vehicle_type_id":"4","last_reported":1741356530,"current_range_meters":0,"station_id":"ce4bhmp2rcd13ifvqgog","pricing_plan_id":"cebpf4jnsgd1na2vs0mg"},{"bike_id":"8b57c5a2-d1e7-46a4-9807-051945facb4e","system_id":"levelo_inurba_marseille","lat":43.23152,"lon":5.43693,"is_reserved":false,"is_disabled":true,"rental_uris":{"android":"levelo://app?vid=8b57c5a2-d1e7-46a4-9807-051945facb4e","ios":"levelo://app?vid=8b57c5a2-d1e7-46a4-9807-051945facb4e"},"vehicle_type_id":"4","last_reported":1741356530,"current_range_meters":0,"station_id":"ce4bhmp2rcd13ifvqgog","pricing_plan_id":"cebpf4jnsgd1na2vs0mg"},{"bike_id":"ae0938ef-a123-43e1-b7a9-8a88eb35d4c5","system_id":"levelo_inurba_marseille","lat":43.24076,"lon":5.3773,"is_reserved":false,"is_disabled":true,"rental_uris":{"android":"levelo://app?vid=ae0938ef-a123-43e1-b7a9-8a88eb35d4c5","ios":"levelo://app?vid=ae0938ef-a123-43e1-b7a9-8a88eb35d4c5"},"vehicle_type_id":"4","last_reported":1741356530,"current_range_meters":0,"station_id":"ce4bhnp2rcd13ifvqgvg","pricing_plan_id":"cebpf4jnsgd1na2vs0mg"},{"bike_id":"becdc9d2-6868-4227-8ade-eac5407217f9","system_id":"levelo_inurba_marseille","lat":43.268018,"lon":5.402629,"is_reserved":false,"is_disabled":true,"rental_uris":{"android":"levelo://app?vid=becdc9d2-6868-4227-8ade-eac5407217f9","ios":"levelo://app?vid=becdc9d2-6868-4227-8ade-eac5407217f9"},"vehicle_type_id":"4","last_reported":1741356530,"current_range_meters":0,"station_id":"ce501612rcd8frsf0b60","pricing_plan_id":"cebpf4jnsgd1na2vs0mg"},{"bike_id":"0e6b5f51-0649-4fbb-a84f-2c80edba4f83","system_id":"levelo_inurba_marseille","lat":43.23177,"lon":5.39991,"is_reserved":false,"is_disabled":true,"rental_uris":{"android":"levelo://app?vid=0e6b5f51-0649-4fbb-a84f-2c80edba4f83","ios":"levelo://app?vid=0e6b5f51-0649-4fbb-a84f-2c80edba4f83"},"vehicle_type_id":"4","last_reported":1741356530,"current_range_meters":400,"station_id":"ce4bhn12rcd13ifvqgqg","pricing_plan_id":"cebpf4jnsgd1na2vs0mg"},{"bike_id":"9107dc61-0c31-443f-87ea-8705226b9062","system_id":"levelo_inurba_marseille","lat":43.22922,"lon":5.35385,"is_reserved":false,"is_disabled":true,"rental_uris":{"android":"levelo://app?vid=9107dc61-0c31-443f-87ea-8705226b9062","ios":"levelo://app?vid=9107dc61-0c31-443f-87ea-8705226b9062"},"vehicle_type_id":"4","last_reported":1741356530,"current_range_meters":400,"station_id":"cpo3532slgdg3j2ikp40","pricing_plan_id":"cebpf4jnsgd1na2vs0mg"},{"bike_id":"58c15f7c-4e59-4136-b07f-084e574a0e64","system_id":"levelo_inurba_marseille","lat":43.32544,"lon":5.41429,"is_reserved":false,"is_disabled":true,"rental_uris":{"android":"levelo://app?vid=58c15f7c-4e59-4136-b07f-084e574a0e64","ios":"levelo://app?vid=58c15f7c-4e59-4136-b07f-084e574a0e64"},"vehicle_type_id":"4","last_reported":1741356530,"current_range_meters":800,"station_id":"ce4bhq12rcd13ifvqhhg","pricing_plan_id":"cebpf4jnsgd1na2vs0mg"},{"bike_id":"4a17d1b8-749f-4ead-8e77-3be80208c84b","system_id":"levelo_inurba_marseille","lat":43.28114,"lon":5.39867,"is_reserved":false,"is_disabled":true,"rental_uris":{"android":"levelo://app?vid=4a17d1b8-749f-4ead-8e77-3be80208c84b","ios":"levelo://app?vid=4a17d1b8-749f-4ead-8e77-3be80208c84b"},"vehicle_type_id":"4","last_reported":1741356530,"current_range_meters":1200,"station_id":"","pricing_plan_id":"cebpf4jnsgd1na2vs0mg"},{"bike_id":"604baac5-83b7-465a-a47d-088d34b42ff7","system_id":"levelo_inurba_marseille","lat":43.312217,"lon":5.368552,"is_reserved":false,"is_disabled":true,"rental_uris":{"android":"levelo://app?vid=604baac5-83b7-465a-a47d-088d34b42ff7","ios":"levelo://app?vid=604baac5-83b7-465a-a47d-088d34b42ff7"},"vehicle_type_id":"4","last_reported":1741356530,"current_range_meters":1200,"station_id":"ce4bgl92rcd13ifvqbq0","pricing_plan_id":"cebpf4jnsgd1na2vs0mg"},{"bike_id":"ee60138f-ac34-4811-8fe4-02f8c471e430","system_id":"levelo_inurba_marseille","lat":43.23152,"lon":5.43707,"is_reserved":false,"is_disabled":true,"rental_uris":{"android":"levelo://app?vid=ee60138f-ac34-4811-8fe4-02f8c471e430","ios":"levelo://app?vid=ee60138f-ac34-4811-8fe4-02f8c471e430"},"vehicle_type_id":"4","last_reported":1741356530,"current_range_meters":1200,"station_id":"ce4bhmp2rcd13ifvqgog","pricing_plan_id":"cebpf4jnsgd1na2vs0mg"},{"bike_id":"7dac107e-d49e-474d-923c-dc817225f2dc","system_id":"levelo_inurba_marseille","lat":43.28114,"lon":5.39234,"is_reserved":false,"is_disabled":true,"rental_uris":{"android":"levelo://app?vid=7dac107e-d49e-474d-923c-dc817225f2dc","ios":"levelo://app?vid=7dac107e-d49e-474d-923c-dc817225f2dc"},"vehicle_type_id":"4","last_reported":1741356530,"current_range_meters":1600,"station_id":"","pricing_plan_id":"cebpf4jnsgd1na2vs0mg"},{"bike_id":"f2b9b56a-7846-4fc9-af5b-1e13c7c6386d","system_id":"levelo_inurba_marseille","lat":43.2706,"lon":5.42279,"is_reserved":false,"is_disabled":true,"rental_uris":{"android":"levelo://app?vid=f2b9b56a-7846-4fc9-af5b-1e13c7c6386d","ios":"levelo://app?vid=f2b9b56a-7846-4fc9-af5b-1e13c7c6386d"},"vehicle_type_id":"4","last_reported":1741356530,"current_range_meters":1600,"station_id":"ce4bhk92rcd13ifvqgb0","pricing_plan_id":"cebpf4jnsgd1na2vs0mg"},{"bike_id":"3590193e-3e9e-49be-8e1e-08cef8b03b92","system_id":"levelo_inurba_marseille","lat":43.28464,"lon":5.35879,"is_reserved":false,"is_disabled":false,"rental_uris":{"android":"levelo://app?vid=3590193e-3e9e-49be-8e1e-08cef8b03b92","ios":"levelo://app?vid=3590193e-3e9e-49be-8e1e-08cef8b03b92"},"vehicle_type_id":"4","last_reported":1741356530,"current_range_meters":2800,"station_id":"ce4bhah2rcd13ifvqei0","pricing_plan_id":"cebpf4jnsgd1na2vs0mg"},{"bike_id":"f84c64ae-e147-4700-b6d1-713e2a1925b5","system_id":"levelo_inurba_marseille","lat":43.29009,"lon":5.35609,"is_reserved":false,"is_disabled":false,"rental_uris":{"android":"levelo://app?vid=f84c64ae-e147-4700-b6d1-713e2a1925b5","ios":"levelo://app?vid=f84c64ae-e147-4700-b6d1-713e2a1925b5"},"vehicle_type_id":"4","last_reported":1741356530,"current_range_meters":2800,"station_id":"ce4bhb92rcd13ifvqen0","pricing_plan_id":"cebpf4jnsgd1na2vs0mg"},{"bike_id":"ce696766-43fd-4dd3-baf1-1badccb05b73","system_id":"levelo_inurba_marseille","lat":43.28357,"lon":5.39788,"is_reserved":false,"is_disabled":false,"rental_uris":{"android":"levelo://app?vid=ce696766-43fd-4dd3-baf1-1badccb05b73","ios":"levelo://app?vid=ce696766-43fd-4dd3-baf1-1badccb05b73"},"vehicle_type_id":"4","last_reported":1741356530,"current_range_meters":3200,"station_id":"","pricing_plan_id":"cebpf4jnsgd1na2vs0mg"},{"bike_id":"d65ac62b-6c7a-424f-abc3-2bc8235fd181","system_id":"levelo_inurba_marseille","lat":43.30864,"lon":5.39625,"is_reserved":false,"is_disabled":false,"rental_uris":{"android":"levelo://app?vid=d65ac62b-6c7a-424f-abc3-2bc8235fd181","ios":"levelo://app?vid=d65ac62b-6c7a-424f-abc3-2bc8235fd181"},"vehicle_type_id":"4","last_reported":1741356530,"current_range_meters":3200,"station_id":"ce4bh012rcd13ifvqcv0","pricing_plan_id":"cebpf4jnsgd1na2vs0mg"},{"bike_id":"de754493-593d-484d-850a-eaba979f3d3f","system_id":"levelo_inurba_marseille","lat":43.27937,"lon":5.41045,"is_reserved":false,"is_disabled":false,"rental_uris":{"android":"levelo://app?vid=de754493-593d-484d-850a-eaba979f3d3f","ios":"levelo://app?vid=de754493-593d-484d-850a-eaba979f3d3f"},"vehicle_type_id":"4","last_reported":1741356530,"current_range_meters":3200,"station_id":"ce4bhnp2rcd13ifvqh0g","pricing_plan_id":"cebpf4jnsgd1na2vs0mg"},{"bike_id":"40cfae97-ac75-4495-829b-6a7f0edfd516","system_id":"levelo_inurba_marseille","lat":43.30954,"lon":5.39057,"is_reserved":false,"is_disabled":false,"rental_uris":{"android":"levelo://app?vid=40cfae97-ac75-4495-829b-6a7f0edfd516","ios":"levelo://app?vid=40cfae97-ac75-4495-829b-6a7f0edfd516"},"vehicle_type_id":"4","last_reported":1741356530,"current_range_meters":3600,"station_id":"ce4bgup2rcd13ifvqco0","pricing_plan_id":"cebpf4jnsgd1na2vs0mg"},{"bike_id":"14829976-69b1-45fa-bf17-55d2e8e82951","system_id":"levelo_inurba_marseille","lat":43.28417,"lon":5.34989,"is_reserved":false,"is_disabled":false,"rental_uris":{"android":"levelo://app?vid=14829976-69b1-45fa-bf17-55d2e8e82951","ios":"levelo://app?vid=14829976-69b1-45fa-bf17-55d2e8e82951"},"vehicle_type_id":"4","last_reported":1741356530,"current_range_meters":3600,"station_id":"ce4bhbh2rcd13ifvqepg","pricing_plan_id":"cebpf4jnsgd1na2vs0mg"},{"bike_id":"60ca2d11-e6af-45ee-8186-84d398205c2c","system_id":"levelo_inurba_marseille","lat":43.2623,"lon":5.37892,"is_reserved":false,"is_disabled":false,"rental_uris":{"android":"levelo://app?vid=60ca2d11-e6af-45ee-8186-84d398205c2c","ios":"levelo://app?vid=60ca2d11-e6af-45ee-8186-84d398205c2c"},"vehicle_type_id":"4","last_reported":1741356530,"current_range_meters":4000,"station_id":"ce4bhjp2rcd13ifvqg90","pricing_plan_id":"cebpf4jnsgd1na2vs0mg"},{"bike_id":"c2f1b66d-a69c-4dce-9caf-f8836642c686","system_id":"levelo_inurba_marseille","lat":43.29889,"lon":5.389204,"is_reserved":false,"is_disabled":false,"rental_uris":{"android":"levelo://app?vid=c2f1b66d-a69c-4dce-9caf-f8836642c686","ios":"levelo://app?vid=c2f1b66d-a69c-4dce-9caf-f8836642c686"},"vehicle_type_id":"4","last_reported":1741356530,"current_range_meters":4400,"station_id":"ce4bgjh2rcd13ifvqbf0","pricing_plan_id":"cebpf4jnsgd1na2vs0mg"},{"bike_id":"5ea61ef9-d209-4e77-b3a7-6ec3c2b81af7","system_id":"levelo_inurba_marseille","lat":43.29715,"lon":5.37692,"is_reserved":false,"is_disabled":false,"rental_uris":{"android":"levelo://app?vid=5ea61ef9-d209-4e77-b3a7-6ec3c2b81af7","ios":"levelo://app?vid=5ea61ef9-d209-4e77-b3a7-6ec3c2b81af7"},"vehicle_type_id":"4","last_reported":1741356530,"current_range_meters":4400,"station_id":"ce4bgkh2rcd13ifvqbl0","pricing_plan_id":"cebpf4jnsgd1na2vs0mg"},{"bike_id":"619dec72-5a4c-460a-9e71-bb297c6de017","system_id":"levelo_inurba_marseille","lat":43.27368,"lon":5.36256,"is_reserved":false,"is_disabled":false,"rental_uris":{"android":"levelo://app?vid=619dec72-5a4c-460a-9e71-bb297c6de017","ios":"levelo://app?vid=619dec72-5a4c-460a-9e71-bb297c6de017"},"vehicle_type_id":"4","last_reported":1741356530,"current_range_meters":4400,"station_id":"ce4bhbh2rcd13ifvqeo0","pricing_plan_id":"cebpf4jnsgd1na2vs0mg"},{"bike_id":"823aa712-46bf-4192-b205-3e3a628d30d4","system_id":"levelo_inurba_marseille","lat":43.30437,"lon":5.38888,"is_reserved":false,"is_disabled":false,"rental_uris":{"android":"levelo://app?vid=823aa712-46bf-4192-b205-3e3a628d30d4","ios":"levelo://app?vid=823aa712-46bf-4192-b205-3e3a628d30d4"},"vehicle_type_id":"4","last_reported":1741356530,"current_range_meters":4800,"station_id":"ce4bgk12rcd13ifvqbi0","pricing_plan_id":"cebpf4jnsgd1na2vs0mg"},{"bike_id":"e0c0bec3-454a-410d-a60f-3aed516ec149","system_id":"levelo_inurba_marseille","lat":43.23218,"lon":5.3555,"is_reserved":false,"is_disabled":false,"rental_uris":{"android":"levelo://app?vid=e0c0bec3-454a-410d-a60f-3aed516ec149","ios":"levelo://app?vid=e0c0bec3-454a-410d-a60f-3aed516ec149"},"vehicle_type_id":"4","last_reported":1741356530,"current_range_meters":4800,"station_id":"ce4bhu92rcd13ifvqi70","pricing_plan_id":"cebpf4jnsgd1na2vs0mg"},{"bike_id":"bc5f54be-f1a2-4cde-bc6a-f54efe61b610","system_id":"levelo_inurba_marseille","lat":43.29845,"lon":5.36268,"is_reserved":false,"is_disabled":false,"rental_uris":{"android":"levelo://app?vid=bc5f54be-f1a2-4cde-bc6a-f54efe61b610","ios":"levelo://app?vid=bc5f54be-f1a2-4cde-bc6a-f54efe61b610"},"vehicle_type_id":"4","last_reported":1741356530,"current_range_meters":5600,"station_id":"ce4bgpp2rcd13ifvqc3g","pricing_plan_id":"cebpf4jnsgd1na2vs0mg"},{"bike_id":"f2d64844-5757-4820-a971-7c76f7585c76","system_id":"levelo_inurba_marseille","lat":43.301462,"lon":5.364413,"is_reserved":false,"is_disabled":false,"rental_uris":{"android":"levelo://app?vid=f2d64844-5757-4820-a971-7c76f7585c76","ios":"levelo://app?vid=f2d64844-5757-4820-a971-7c76f7585c76"},"vehicle_type_id":"4","last_reported":1741356530,"current_range_meters":5600,"station_id":"ce4bgs12rcd13ifvqcag","pricing_plan_id":"cebpf4jnsgd1na2vs0mg"},{"bike_id":"ce6e48de-9750-407a-a1a1-49623cf81649","system_id":"levelo_inurba_marseille","lat":43.26682,"lon":5.3827,"is_reserved":false,"is_disabled":false,"rental_uris":{"android":"levelo://app?vid=ce6e48de-9750-407a-a1a1-49623cf81649","ios":"levelo://app?vid=ce6e48de-9750-407a-a1a1-49623cf81649"},"vehicle_type_id":"4","last_reported":1741356530,"current_range_meters":5600,"station_id":"ce4bhg92rcd13ifvqf90","pricing_plan_id":"cebpf4jnsgd1na2vs0mg"},{"bike_id":"c0c47341-625e-4ef2-ba2f-5e525ff9942e","system_id":"levelo_inurba_marseille","lat":43.292594,"lon":5.376051,"is_reserved":false,"is_disabled":false,"rental_uris":{"android":"levelo://app?vid=c0c47341-625e-4ef2-ba2f-5e525ff9942e","ios":"levelo://app?vid=c0c47341-625e-4ef2-ba2f-5e525ff9942e"},"vehicle_type_id":"4","last_reported":1741356530,"current_range_meters":6000,"station_id":"ce4bgi12rcd13ifvqb80","pricing_plan_id":"cebpf4jnsgd1na2vs0mg"},{"bike_id":"9d662250-9732-4fb4-9834-141914f951fd","system_id":"levelo_inurba_marseille","lat":43.29787,"lon":5.38093,"is_reserved":false,"is_disabled":false,"rental_uris":{"android":"levelo://app?vid=9d662250-9732-4fb4-9834-141914f951fd","ios":"levelo://app?vid=9d662250-9732-4fb4-9834-141914f951fd"},"vehicle_type_id":"4","last_reported":1741356530,"current_range_meters":6000,"station_id":"ce4bgip2rcd13ifvqbb0","pricing_plan_id":"cebpf4jnsgd1na2vs0mg"},{"bike_id":"f927a9c8-5d84-472f-b8fd-88f2fc3bc3e6","system_id":"levelo_inurba_marseille","lat":43.29889,"lon":5.43694,"is_reserved":false,"is_disabled":false,"rental_uris":{"android":"levelo://app?vid=f927a9c8-5d84-472f-b8fd-88f2fc3bc3e6","ios":"levelo://app?vid=f927a9c8-5d84-472f-b8fd-88f2fc3bc3e6"},"vehicle_type_id":"4","last_reported":1741356530,"current_range_meters":6000,"station_id":"ce4bhpp2rcd13ifvqhfg","pricing_plan_id":"cebpf4jnsgd1na2vs0mg"},{"bike_id":"232c3d56-2ede-4e9b-8dee-09c417838ed9","system_id":"levelo_inurba_marseille","lat":43.29261,"lon":5.40913,"is_reserved":false,"is_disabled":false,"rental_uris":{"android":"levelo://app?vid=232c3d56-2ede-4e9b-8dee-09c417838ed9","ios":"levelo://app?vid=232c3d56-2ede-4e9b-8dee-09c417838ed9"},"vehicle_type_id":"4","last_reported":1741356530,"current_range_meters":6400,"station_id":"ce4bh192rcd13ifvqdc0","pricing_plan_id":"cebpf4jnsgd1na2vs0mg"},{"bike_id":"284f6c74-7693-4bfb-9a98-98e333103286","system_id":"levelo_inurba_marseille","lat":43.28463,"lon":5.35886,"is_reserved":false,"is_disabled":false,"rental_uris":{"android":"levelo://app?vid=284f6c74-7693-4bfb-9a98-98e333103286","ios":"levelo://app?vid=284f6c74-7693-4bfb-9a98-98e333103286"},"vehicle_type_id":"4","last_reported":1741356530,"current_range_meters":6400,"station_id":"ce4bhah2rcd13ifvqei0","pricing_plan_id":"cebpf4jnsgd1na2vs0mg"},{"bike_id":"399553aa-afd1-452d-8754-3cff14f47fa5","system_id":"levelo_inurba_marseille","lat":43.26576,"lon":5.39035,"is_reserved":false,"is_disabled":false,"rental_uris":{"android":"levelo://app?vid=399553aa-afd1-452d-8754-3cff14f47fa5","ios":"levelo://app?vid=399553aa-afd1-452d-8754-3cff14f47fa5"},"vehicle_type_id":"4","last_reported":1741356530,"current_range_meters":6400,"station_id":"ce4bhe12rcd13ifvqf30","pricing_plan_id":"cebpf4jnsgd1na2vs0mg"},{"bike_id":"bfa0e307-1a8b-41b2-901a-731aa4c1d196","system_id":"levelo_inurba_marseille","lat":43.29555,"lon":5.42294,"is_reserved":false,"is_disabled":false,"rental_uris":{"android":"levelo://app?vid=bfa0e307-1a8b-41b2-901a-731aa4c1d196","ios":"levelo://app?vid=bfa0e307-1a8b-41b2-901a-731aa4c1d196"},"vehicle_type_id":"4","last_reported":1741356530,"current_range_meters":6400,"station_id":"ce4bhph2rcd13ifvqhdg","pricing_plan_id":"cebpf4jnsgd1na2vs0mg"},{"bike_id":"feb0f1e4-8daa-4169-9c60-dbb8b1521e48","system_id":"levelo_inurba_marseille","lat":43.32493,"lon":5.3661,"is_reserved":false,"is_disabled":false,"rental_uris":{"android":"levelo://app?vid=feb0f1e4-8daa-4169-9c60-dbb8b1521e48","ios":"levelo://app?vid=feb0f1e4-8daa-4169-9c60-dbb8b1521e48"},"vehicle_type_id":"4","last_reported":1741356530,"current_range_meters":6400,"station_id":"ce4bhs12rcd13ifvqhvg","pricing_plan_id":"cebpf4jnsgd1na2vs0mg"},{"bike_id":"7f1905bf-da4d-4f13-af14-c5d46804e585","system_id":"levelo_inurba_marseille","lat":43.23193,"lon":5.35542,"is_reserved":false,"is_disabled":false,"rental_uris":{"android":"levelo://app?vid=7f1905bf-da4d-4f13-af14-c5d46804e585","ios":"levelo://app?vid=7f1905bf-da4d-4f13-af14-c5d46804e585"},"vehicle_type_id":"4","last_reported":1741356530,"current_range_meters":6400,"station_id":"ce4bhu92rcd13ifvqi70","pricing_plan_id":"cebpf4jnsgd1na2vs0mg"},{"bike_id":"81220ab9-fb8e-4638-a084-692a6595df85","system_id":"levelo_inurba_marseille","lat":43.26181,"lon":5.4208,"is_reserved":false,"is_disabled":false,"rental_uris":{"android":"levelo://app?vid=81220ab9-fb8e-4638-a084-692a6595df85","ios":"levelo://app?vid=81220ab9-fb8e-4638-a084-692a6595df85"},"vehicle_type_id":"4","last_reported":1741356530,"current_range_meters":6800,"station_id":"","pricing_plan_id":"cebpf4jnsgd1na2vs0mg"},{"bike_id":"17501e91-218a-40f3-ab3c-8cb8bfc2b79c","system_id":"levelo_inurba_marseille","lat":43.30654,"lon":5.40092,"is_reserved":false,"is_disabled":false,"rental_uris":{"android":"levelo://app?vid=17501e91-218a-40f3-ab3c-8cb8bfc2b79c","ios":"levelo://app?vid=17501e91-218a-40f3-ab3c-8cb8bfc2b79c"},"vehicle_type_id":"4","last_reported":1741356530,"current_range_meters":6800,"station_id":"ce4bh112rcd13ifvqda0","pricing_plan_id":"cebpf4jnsgd1na2vs0mg"},{"bike_id":"470a848a-dfb1-42dd-b86b-75ce078745b3","system_id":"levelo_inurba_marseille","lat":43.29036,"lon":5.37566,"is_reserved":false,"is_disabled":false,"rental_uris":{"android":"levelo://app?vid=470a848a-dfb1-42dd-b86b-75ce078745b3","ios":"levelo://app?vid=470a848a-dfb1-42dd-b86b-75ce078745b3"},"vehicle_type_id":"4","last_reported":1741356530,"current_range_meters":6800,"station_id":"ce4bh692rcd13ifvqe90","pricing_plan_id":"cebpf4jnsgd1na2vs0mg"},{"bike_id":"be7208dc-c780-4721-80f2-0d002a27f093","system_id":"levelo_inurba_marseille","lat":43.29274,"lon":5.384325,"is_reserved":false,"is_disabled":false,"rental_uris":{"android":"levelo://app?vid=be7208dc-c780-4721-80f2-0d002a27f093","ios":"levelo://app?vid=be7208dc-c780-4721-80f2-0d002a27f093"},"vehicle_type_id":"4","last_reported":1741356530,"current_range_meters":7200,"station_id":"ce4bgn12rcd13ifvqbt0","pricing_plan_id":"cebpf4jnsgd1na2vs0mg"},{"bike_id":"b4c8f7c6-4370-4640-b211-499f90edd1e6","system_id":"levelo_inurba_marseille","lat":43.24552,"lon":5.39533,"is_reserved":false,"is_disabled":false,"rental_uris":{"android":"levelo://app?vid=b4c8f7c6-4370-4640-b211-499f90edd1e6","ios":"levelo://app?vid=b4c8f7c6-4370-4640-b211-499f90edd1e6"},"vehicle_type_id":"4","last_reported":1741356530,"current_range_meters":7200,"station_id":"ce4bhlp2rcd13ifvqgjg","pricing_plan_id":"cebpf4jnsgd1na2vs0mg"},{"bike_id":"7accdb0f-6b22-4f86-ac4d-6266017ee5c9","system_id":"levelo_inurba_marseille","lat":43.29544,"lon":5.422835,"is_reserved":false,"is_disabled":false,"rental_uris":{"android":"levelo://app?vid=7accdb0f-6b22-4f86-ac4d-6266017ee5c9","ios":"levelo://app?vid=7accdb0f-6b22-4f86-ac4d-6266017ee5c9"},"vehicle_type_id":"4","last_reported":1741356530,"current_range_meters":7200,"station_id":"ce4bhph2rcd13ifvqhdg","pricing_plan_id":"cebpf4jnsgd1na2vs0mg"},{"bike_id":"1b34c58c-f011-43f3-baac-47c6cf7523c0","system_id":"levelo_inurba_marseille","lat":43.29895,"lon":5.43675,"is_reserved":false,"is_disabled":false,"rental_uris":{"android":"levelo://app?vid=1b34c58c-f011-43f3-baac-47c6cf7523c0","ios":"levelo://app?vid=1b34c58c-f011-43f3-baac-47c6cf7523c0"},"vehicle_type_id":"4","last_reported":1741356530,"current_range_meters":7200,"station_id":"ce4bhpp2rcd13ifvqhfg","pricing_plan_id":"cebpf4jnsgd1na2vs0mg"},{"bike_id":"858c50df-ffa3-4ac3-a680-aba957e8944e","system_id":"levelo_inurba_marseille","lat":43.29899,"lon":5.43661,"is_reserved":false,"is_disabled":false,"rental_uris":{"android":"levelo://app?vid=858c50df-ffa3-4ac3-a680-aba957e8944e","ios":"levelo://app?vid=858c50df-ffa3-4ac3-a680-aba957e8944e"},"vehicle_type_id":"4","last_reported":1741356530,"current_range_meters":7200,"station_id":"ce4bhpp2rcd13ifvqhfg","pricing_plan_id":"cebpf4jnsgd1na2vs0mg"},{"bike_id":"c26bf79b-5510-41ec-8a82-4dbfb61364ab","system_id":"levelo_inurba_marseille","lat":43.32537,"lon":5.41436,"is_reserved":false,"is_disabled":false,"rental_uris":{"android":"levelo://app?vid=c26bf79b-5510-41ec-8a82-4dbfb61364ab","ios":"levelo://app?vid=c26bf79b-5510-41ec-8a82-4dbfb61364ab"},"vehicle_type_id":"4","last_reported":1741356530,"current_range_meters":7200,"station_id":"ce4bhq12rcd13ifvqhhg","pricing_plan_id":"cebpf4jnsgd1na2vs0mg"},{"bike_id":"c5d9a748-fb84-4751-9008-dc4467d9ed9a","system_id":"levelo_inurba_marseille","lat":43.23199,"lon":5.35553,"is_reserved":false,"is_disabled":false,"rental_uris":{"android":"levelo://app?vid=c5d9a748-fb84-4751-9008-dc4467d9ed9a","ios":"levelo://app?vid=c5d9a748-fb84-4751-9008-dc4467d9ed9a"},"vehicle_type_id":"4","last_reported":1741356530,"current_range_meters":7200,"station_id":"ce4bhu92rcd13ifvqi70","pricing_plan_id":"cebpf4jnsgd1na2vs0mg"},{"bike_id":"8c294c55-1264-472e-9813-e7f007990e88","system_id":"levelo_inurba_marseille","lat":43.30948,"lon":5.39026,"is_reserved":false,"is_disabled":false,"rental_uris":{"android":"levelo://app?vid=8c294c55-1264-472e-9813-e7f007990e88","ios":"levelo://app?vid=8c294c55-1264-472e-9813-e7f007990e88"},"vehicle_type_id":"4","last_reported":1741356530,"current_range_meters":8000,"station_id":"ce4bgup2rcd13ifvqco0","pricing_plan_id":"cebpf4jnsgd1na2vs0mg"},{"bike_id":"3c6db19d-d756-43dd-aff4-bde72f3343b0","system_id":"levelo_inurba_marseille","lat":43.29004,"lon":5.35609,"is_reserved":false,"is_disabled":false,"rental_uris":{"android":"levelo://app?vid=3c6db19d-d756-43dd-aff4-bde72f3343b0","ios":"levelo://app?vid=3c6db19d-d756-43dd-aff4-bde72f3343b0"},"vehicle_type_id":"4","last_reported":1741356530,"current_range_meters":8000,"station_id":"ce4bhb92rcd13ifvqen0","pricing_plan_id":"cebpf4jnsgd1na2vs0mg"},{"bike_id":"847a5dac-e8fd-44b4-ac18-4d6e30c019a9","system_id":"levelo_inurba_marseille","lat":43.27346,"lon":5.39074,"is_reserved":false,"is_disabled":false,"rental_uris":{"android":"levelo://app?vid=847a5dac-e8fd-44b4-ac18-4d6e30c019a9","ios":"levelo://app?vid=847a5dac-e8fd-44b4-ac18-4d6e30c019a9"},"vehicle_type_id":"4","last_reported":1741356530,"current_range_meters":8000,"station_id":"ce4bhgp2rcd13ifvqfe0","pricing_plan_id":"cebpf4jnsgd1na2vs0mg"},{"bike_id":"e33f59ac-0f5a-4e06-bf24-76610c4f0bda","system_id":"levelo_inurba_marseille","lat":43.2557,"lon":5.38253,"is_reserved":false,"is_disabled":false,"rental_uris":{"android":"levelo://app?vid=e33f59ac-0f5a-4e06-bf24-76610c4f0bda","ios":"levelo://app?vid=e33f59ac-0f5a-4e06-bf24-76610c4f0bda"},"vehicle_type_id":"4","last_reported":1741356530,"current_range_meters":8000,"station_id":"ce4bhih2rcd13ifvqfs0","pricing_plan_id":"cebpf4jnsgd1na2vs0mg"},{"bike_id":"24df224d-ffa5-472e-acc0-380979001d96","system_id":"levelo_inurba_marseille","lat":43.25723,"lon":5.41103,"is_reserved":false,"is_disabled":false,"rental_uris":{"android":"levelo://app?vid=24df224d-ffa5-472e-acc0-380979001d96","ios":"levelo://app?vid=24df224d-ffa5-472e-acc0-380979001d96"},"vehicle_type_id":"4","last_reported":1741356530,"current_range_meters":8000,"station_id":"ce4bhkp2rcd13ifvqgd0","pricing_plan_id":"cebpf4jnsgd1na2vs0mg"},{"bike_id":"305ae609-526a-4409-ac67-e53bcafb9b2a","system_id":"levelo_inurba_marseille","lat":43.29793,"lon":5.38085,"is_reserved":false,"is_disabled":false,"rental_uris":{"android":"levelo://app?vid=305ae609-526a-4409-ac67-e53bcafb9b2a","ios":"levelo://app?vid=305ae609-526a-4409-ac67-e53bcafb9b2a"},"vehicle_type_id":"4","last_reported":1741356530,"current_range_meters":8400,"station_id":"ce4bgip2rcd13ifvqbb0","pricing_plan_id":"cebpf4jnsgd1na2vs0mg"},{"bike_id":"14ee5d45-450c-47a1-bf50-db116ba8f7f4","system_id":"levelo_inurba_marseille","lat":43.29907,"lon":5.3815,"is_reserved":false,"is_disabled":false,"rental_uris":{"android":"levelo://app?vid=14ee5d45-450c-47a1-bf50-db116ba8f7f4","ios":"levelo://app?vid=14ee5d45-450c-47a1-bf50-db116ba8f7f4"},"vehicle_type_id":"4","last_reported":1741356530,"current_range_meters":8400,"station_id":"ce4bgj12rcd13ifvqbc0","pricing_plan_id":"cebpf4jnsgd1na2vs0mg"},{"bike_id":"fb7e3968-69b0-499b-8571-e0c59bd1e093","system_id":"levelo_inurba_marseille","lat":43.29203,"lon":5.39331,"is_reserved":false,"is_disabled":false,"rental_uris":{"android":"levelo://app?vid=fb7e3968-69b0-499b-8571-e0c59bd1e093","ios":"levelo://app?vid=fb7e3968-69b0-499b-8571-e0c59bd1e093"},"vehicle_type_id":"4","last_reported":1741356530,"current_range_meters":8400,"station_id":"ce4bh192rcd13ifvqdd0","pricing_plan_id":"cebpf4jnsgd1na2vs0mg"},{"bike_id":"454ee227-75ee-46e5-b5c5-97d64bc0b6fa","system_id":"levelo_inurba_marseille","lat":43.28418,"lon":5.34978,"is_reserved":false,"is_disabled":false,"rental_uris":{"android":"levelo://app?vid=454ee227-75ee-46e5-b5c5-97d64bc0b6fa","ios":"levelo://app?vid=454ee227-75ee-46e5-b5c5-97d64bc0b6fa"},"vehicle_type_id":"4","last_reported":1741356530,"current_range_meters":8400,"station_id":"ce4bhbh2rcd13ifvqepg","pricing_plan_id":"cebpf4jnsgd1na2vs0mg"},{"bike_id":"43d80879-61e1-487c-9f47-df90f30e417d","system_id":"levelo_inurba_marseille","lat":43.27906,"lon":5.38012,"is_reserved":false,"is_disabled":false,"rental_uris":{"android":"levelo://app?vid=43d80879-61e1-487c-9f47-df90f30e417d","ios":"levelo://app?vid=43d80879-61e1-487c-9f47-df90f30e417d"},"vehicle_type_id":"4","last_reported":1741356530,"current_range_meters":8400,"station_id":"ce4bhf92rcd13ifvqf50","pricing_plan_id":"cebpf4jnsgd1na2vs0mg"},{"bike_id":"663accf6-681a-4ca4-bd91-1c8e74411d3e","system_id":"levelo_inurba_marseille","lat":43.26558,"lon":5.37289,"is_reserved":false,"is_disabled":false,"rental_uris":{"android":"levelo://app?vid=663accf6-681a-4ca4-bd91-1c8e74411d3e","ios":"levelo://app?vid=663accf6-681a-4ca4-bd91-1c8e74411d3e"},"vehicle_type_id":"4","last_reported":1741356530,"current_range_meters":8400,"station_id":"ce4bhg12rcd13ifvqf70","pricing_plan_id":"cebpf4jnsgd1na2vs0mg"},{"bike_id":"137e5602-17e7-4c03-a61d-653e0923165b","system_id":"levelo_inurba_marseille","lat":43.23153,"lon":5.43721,"is_reserved":false,"is_disabled":false,"rental_uris":{"android":"levelo://app?vid=137e5602-17e7-4c03-a61d-653e0923165b","ios":"levelo://app?vid=137e5602-17e7-4c03-a61d-653e0923165b"},"vehicle_type_id":"4","last_reported":1741356530,"current_range_meters":8400,"station_id":"ce4bhmp2rcd13ifvqgog","pricing_plan_id":"cebpf4jnsgd1na2vs0mg"},{"bike_id":"4fc59b32-4bfa-4d77-a7ce-e2b6e44a9472","system_id":"levelo_inurba_marseille","lat":43.32652,"lon":5.4101,"is_reserved":false,"is_disabled":false,"rental_uris":{"android":"levelo://app?vid=4fc59b32-4bfa-4d77-a7ce-e2b6e44a9472","ios":"levelo://app?vid=4fc59b32-4bfa-4d77-a7ce-e2b6e44a9472"},"vehicle_type_id":"4","last_reported":1741356530,"current_range_meters":8400,"station_id":"ce4bhpp2rcd13ifvqhgg","pricing_plan_id":"cebpf4jnsgd1na2vs0mg"},{"bike_id":"1916e29e-377b-4278-8d58-fc89c4832cd3","system_id":"levelo_inurba_marseille","lat":43.32539,"lon":5.41429,"is_reserved":false,"is_disabled":false,"rental_uris":{"android":"levelo://app?vid=1916e29e-377b-4278-8d58-fc89c4832cd3","ios":"levelo://app?vid=1916e29e-377b-4278-8d58-fc89c4832cd3"},"vehicle_type_id":"4","last_reported":1741356530,"current_range_meters":8400,"station_id":"ce4bhq12rcd13ifvqhhg","pricing_plan_id":"cebpf4jnsgd1na2vs0mg"},{"bike_id":"a67e0f76-569f-41a3-9478-efaf4f81ba58","system_id":"levelo_inurba_marseille","lat":43.32371,"lon":5.38894,"is_reserved":false,"is_disabled":false,"rental_uris":{"android":"levelo://app?vid=a67e0f76-569f-41a3-9478-efaf4f81ba58","ios":"levelo://app?vid=a67e0f76-569f-41a3-9478-efaf4f81ba58"},"vehicle_type_id":"4","last_reported":1741356530,"current_range_meters":8400,"station_id":"ce4bhqp2rcd13ifvqhog","pricing_plan_id":"cebpf4jnsgd1na2vs0mg"},{"bike_id":"2d340159-37c8-41dc-a62f-ca06729e55bc","system_id":"levelo_inurba_marseille","lat":43.32345,"lon":5.36723,"is_reserved":false,"is_disabled":false,"rental_uris":{"android":"levelo://app?vid=2d340159-37c8-41dc-a62f-ca06729e55bc","ios":"levelo://app?vid=2d340159-37c8-41dc-a62f-ca06729e55bc"},"vehicle_type_id":"4","last_reported":1741356530,"current_range_meters":8400,"station_id":"ce4bhsh2rcd13ifvqi2g","pricing_plan_id":"cebpf4jnsgd1na2vs0mg"},{"bike_id":"357f6b0d-7429-4870-b5b1-c540923d954d","system_id":"levelo_inurba_marseille","lat":43.23074,"lon":5.35486,"is_reserved":false,"is_disabled":false,"rental_uris":{"android":"levelo://app?vid=357f6b0d-7429-4870-b5b1-c540923d954d","ios":"levelo://app?vid=357f6b0d-7429-4870-b5b1-c540923d954d"},"vehicle_type_id":"4","last_reported":1741356530,"current_range_meters":8400,"station_id":"cpo3342slgdg3j2ifvpg","pricing_plan_id":"cebpf4jnsgd1na2vs0mg"},{"bike_id":"35130f87-b313-43ca-86df-0e44026654c1","system_id":"levelo_inurba_marseille","lat":43.30815,"lon":5.37981,"is_reserved":false,"is_disabled":false,"rental_uris":{"android":"levelo://app?vid=35130f87-b313-43ca-86df-0e44026654c1","ios":"levelo://app?vid=35130f87-b313-43ca-86df-0e44026654c1"},"vehicle_type_id":"4","last_reported":1741356530,"current_range_meters":8800,"station_id":"","pricing_plan_id":"cebpf4jnsgd1na2vs0mg"},{"bike_id":"28437508-fa41-4054-b93c-b2fb98fbe78d","system_id":"levelo_inurba_marseille","lat":43.27916,"lon":5.37998,"is_reserved":false,"is_disabled":false,"rental_uris":{"android":"levelo://app?vid=28437508-fa41-4054-b93c-b2fb98fbe78d","ios":"levelo://app?vid=28437508-fa41-4054-b93c-b2fb98fbe78d"},"vehicle_type_id":"4","last_reported":1741356530,"current_range_meters":8800,"station_id":"ce4bhf92rcd13ifvqf50","pricing_plan_id":"cebpf4jnsgd1na2vs0mg"},{"bike_id":"f4472eb3-5e21-4c26-9b70-dbaee3b33c22","system_id":"levelo_inurba_marseille","lat":43.29794,"lon":5.38115,"is_reserved":false,"is_disabled":false,"rental_uris":{"android":"levelo://app?vid=f4472eb3-5e21-4c26-9b70-dbaee3b33c22","ios":"levelo://app?vid=f4472eb3-5e21-4c26-9b70-dbaee3b33c22"},"vehicle_type_id":"4","last_reported":1741356530,"current_range_meters":9200,"station_id":"ce4bgip2rcd13ifvqbb0","pricing_plan_id":"cebpf4jnsgd1na2vs0mg"},{"bike_id":"286acb0e-2ae5-48e7-ab9a-2b901156ca49","system_id":"levelo_inurba_marseille","lat":43.30897,"lon":5.37122,"is_reserved":false,"is_disabled":false,"rental_uris":{"android":"levelo://app?vid=286acb0e-2ae5-48e7-ab9a-2b901156ca49","ios":"levelo://app?vid=286acb0e-2ae5-48e7-ab9a-2b901156ca49"},"vehicle_type_id":"4","last_reported":1741356530,"current_range_meters":9200,"station_id":"ce4bguh2rcd13ifvqckg","pricing_plan_id":"cebpf4jnsgd1na2vs0mg"},{"bike_id":"96878885-da50-4f7b-bc03-7004fbf7d2f7","system_id":"levelo_inurba_marseille","lat":43.26566,"lon":5.39011,"is_reserved":false,"is_disabled":false,"rental_uris":{"android":"levelo://app?vid=96878885-da50-4f7b-bc03-7004fbf7d2f7","ios":"levelo://app?vid=96878885-da50-4f7b-bc03-7004fbf7d2f7"},"vehicle_type_id":"4","last_reported":1741356530,"current_range_meters":9200,"station_id":"ce4bhe12rcd13ifvqf30","pricing_plan_id":"cebpf4jnsgd1na2vs0mg"},{"bike_id":"f19371b3-6375-4bb7-a058-81c03046b1a9","system_id":"levelo_inurba_marseille","lat":43.2657,"lon":5.39,"is_reserved":false,"is_disabled":false,"rental_uris":{"android":"levelo://app?vid=f19371b3-6375-4bb7-a058-81c03046b1a9","ios":"levelo://app?vid=f19371b3-6375-4bb7-a058-81c03046b1a9"},"vehicle_type_id":"4","last_reported":1741356530,"current_range_meters":9200,"station_id":"ce4bhe12rcd13ifvqf30","pricing_plan_id":"cebpf4jnsgd1na2vs0mg"},{"bike_id":"7a60d2cb-3bf0-404d-8573-df878562c632","system_id":"levelo_inurba_marseille","lat":43.26164,"lon":5.37907,"is_reserved":false,"is_disabled":false,"rental_uris":{"android":"levelo://app?vid=7a60d2cb-3bf0-404d-8573-df878562c632","ios":"levelo://app?vid=7a60d2cb-3bf0-404d-8573-df878562c632"},"vehicle_type_id":"4","last_reported":1741356530,"current_range_meters":9200,"station_id":"ce4bhjp2rcd13ifvqg90","pricing_plan_id":"cebpf4jnsgd1na2vs0mg"},{"bike_id":"c60e6676-2738-45db-9d7d-8a984ca0c09b","system_id":"levelo_inurba_marseille","lat":43.32371,"lon":5.38868,"is_reserved":false,"is_disabled":false,"rental_uris":{"android":"levelo://app?vid=c60e6676-2738-45db-9d7d-8a984ca0c09b","ios":"levelo://app?vid=c60e6676-2738-45db-9d7d-8a984ca0c09b"},"vehicle_type_id":"4","last_reported":1741356530,"current_range_meters":9200,"station_id":"ce4bhqp2rcd13ifvqhog","pricing_plan_id":"cebpf4jnsgd1na2vs0mg"},{"bike_id":"87cc9b30-41d4-43f8-8c18-9e4a6c9a187d","system_id":"levelo_inurba_marseille","lat":43.32278,"lon":5.36651,"is_reserved":false,"is_disabled":false,"rental_uris":{"android":"levelo://app?vid=87cc9b30-41d4-43f8-8c18-9e4a6c9a187d","ios":"levelo://app?vid=87cc9b30-41d4-43f8-8c18-9e4a6c9a187d"},"vehicle_type_id":"4","last_reported":1741356530,"current_range_meters":9200,"station_id":"ce4bhsh2rcd13ifvqi2g","pricing_plan_id":"cebpf4jnsgd1na2vs0mg"},{"bike_id":"cec5a9d9-3269-4f40-8f68-02c828cdb767","system_id":"levelo_inurba_marseille","lat":43.295982,"lon":5.381008,"is_reserved":false,"is_disabled":false,"rental_uris":{"android":"levelo://app?vid=cec5a9d9-3269-4f40-8f68-02c828cdb767","ios":"levelo://app?vid=cec5a9d9-3269-4f40-8f68-02c828cdb767"},"vehicle_type_id":"4","last_reported":1741356530,"current_range_meters":9600,"station_id":"ce4bgl12rcd13ifvqbo0","pricing_plan_id":"cebpf4jnsgd1na2vs0mg"},{"bike_id":"51c35407-8db0-4a0e-b4f4-e7252e048020","system_id":"levelo_inurba_marseille","lat":43.29061,"lon":5.35923,"is_reserved":false,"is_disabled":false,"rental_uris":{"android":"levelo://app?vid=51c35407-8db0-4a0e-b4f4-e7252e048020","ios":"levelo://app?vid=51c35407-8db0-4a0e-b4f4-e7252e048020"},"vehicle_type_id":"4","last_reported":1741356530,"current_range_meters":9600,"station_id":"ce4bha92rcd13ifvqeg0","pricing_plan_id":"cebpf4jnsgd1na2vs0mg"},{"bike_id":"55f1a346-655d-4ceb-961f-e11c032b07e0","system_id":"levelo_inurba_marseille","lat":43.32676,"lon":5.4025,"is_reserved":false,"is_disabled":false,"rental_uris":{"android":"levelo://app?vid=55f1a346-655d-4ceb-961f-e11c032b07e0","ios":"levelo://app?vid=55f1a346-655d-4ceb-961f-e11c032b07e0"},"vehicle_type_id":"4","last_reported":1741356530,"current_range_meters":10000,"station_id":"","pricing_plan_id":"cebpf4jnsgd1na2vs0mg"},{"bike_id":"42323b44-4776-4993-88db-08c90d643018","system_id":"levelo_inurba_marseille","lat":43.30097,"lon":5.37683,"is_reserved":false,"is_disabled":false,"rental_uris":{"android":"levelo://app?vid=42323b44-4776-4993-88db-08c90d643018","ios":"levelo://app?vid=42323b44-4776-4993-88db-08c90d643018"},"vehicle_type_id":"4","last_reported":1741356530,"current_range_meters":10000,"station_id":"","pricing_plan_id":"cebpf4jnsgd1na2vs0mg"},{"bike_id":"10d6e99c-eaaa-4583-9629-81e79fcf0234","system_id":"levelo_inurba_marseille","lat":43.29632,"lon":5.37727,"is_reserved":false,"is_disabled":false,"rental_uris":{"android":"levelo://app?vid=10d6e99c-eaaa-4583-9629-81e79fcf0234","ios":"levelo://app?vid=10d6e99c-eaaa-4583-9629-81e79fcf0234"},"vehicle_type_id":"4","last_reported":1741356530,"current_range_meters":10000,"station_id":"ce4bgi92rcd13ifvqb90","pricing_plan_id":"cebpf4jnsgd1na2vs0mg"},{"bike_id":"2dafe4c3-4c28-4c90-a34e-a2cb09c1c316","system_id":"levelo_inurba_marseille","lat":43.30556,"lon":5.3653,"is_reserved":false,"is_disabled":false,"rental_uris":{"android":"levelo://app?vid=2dafe4c3-4c28-4c90-a34e-a2cb09c1c316","ios":"levelo://app?vid=2dafe4c3-4c28-4c90-a34e-a2cb09c1c316"},"vehicle_type_id":"4","last_reported":1741356530,"current_range_meters":10000,"station_id":"ce4bgs12rcd13ifvqcag","pricing_plan_id":"cebpf4jnsgd1na2vs0mg"},{"bike_id":"1ad7ba79-c4e4-427a-b6a6-3be502e9fd00","system_id":"levelo_inurba_marseille","lat":43.26581,"lon":5.39015,"is_reserved":false,"is_disabled":false,"rental_uris":{"android":"levelo://app?vid=1ad7ba79-c4e4-427a-b6a6-3be502e9fd00","ios":"levelo://app?vid=1ad7ba79-c4e4-427a-b6a6-3be502e9fd00"},"vehicle_type_id":"4","last_reported":1741356530,"current_range_meters":10000,"station_id":"ce4bhe12rcd13ifvqf30","pricing_plan_id":"cebpf4jnsgd1na2vs0mg"},{"bike_id":"a5e8b949-6fee-4e25-a095-3718d4f14aca","system_id":"levelo_inurba_marseille","lat":43.25113,"lon":5.40321,"is_reserved":false,"is_disabled":false,"rental_uris":{"android":"levelo://app?vid=a5e8b949-6fee-4e25-a095-3718d4f14aca","ios":"levelo://app?vid=a5e8b949-6fee-4e25-a095-3718d4f14aca"},"vehicle_type_id":"4","last_reported":1741356530,"current_range_meters":10000,"station_id":"ce4bhlh2rcd13ifvqgig","pricing_plan_id":"cebpf4jnsgd1na2vs0mg"},{"bike_id":"f5936a27-6a86-4b5f-812a-8824414e62d8","system_id":"levelo_inurba_marseille","lat":43.26466,"lon":5.40763,"is_reserved":false,"is_disabled":false,"rental_uris":{"android":"levelo://app?vid=f5936a27-6a86-4b5f-812a-8824414e62d8","ios":"levelo://app?vid=f5936a27-6a86-4b5f-812a-8824414e62d8"},"vehicle_type_id":"4","last_reported":1741356530,"current_range_meters":10800,"station_id":"","pricing_plan_id":"cebpf4jnsgd1na2vs0mg"},{"bike_id":"f6a9d99b-40e1-4313-955e-fe1045af5dfd","system_id":"levelo_inurba_marseille","lat":43.27638,"lon":5.53063,"is_reserved":false,"is_disabled":false,"rental_uris":{"android":"levelo://app?vid=f6a9d99b-40e1-4313-955e-fe1045af5dfd","ios":"levelo://app?vid=f6a9d99b-40e1-4313-955e-fe1045af5dfd"},"vehicle_type_id":"4","last_reported":1741356530,"current_range_meters":10800,"station_id":"","pricing_plan_id":"cebpf4jnsgd1na2vs0mg"},{"bike_id":"3b40fc7a-09e5-43cd-af4a-867d41893975","system_id":"levelo_inurba_marseille","lat":43.29778,"lon":5.38088,"is_reserved":false,"is_disabled":false,"rental_uris":{"android":"levelo://app?vid=3b40fc7a-09e5-43cd-af4a-867d41893975","ios":"levelo://app?vid=3b40fc7a-09e5-43cd-af4a-867d41893975"},"vehicle_type_id":"4","last_reported":1741356530,"current_range_meters":10800,"station_id":"ce4bgip2rcd13ifvqbb0","pricing_plan_id":"cebpf4jnsgd1na2vs0mg"},{"bike_id":"605089d4-01bf-486c-80e5-6aeb269b33e3","system_id":"levelo_inurba_marseille","lat":43.24072,"lon":5.377629,"is_reserved":false,"is_disabled":false,"rental_uris":{"android":"levelo://app?vid=605089d4-01bf-486c-80e5-6aeb269b33e3","ios":"levelo://app?vid=605089d4-01bf-486c-80e5-6aeb269b33e3"},"vehicle_type_id":"4","last_reported":1741356530,"current_range_meters":10800,"station_id":"ce4bhbp2rcd13ifvqerg","pricing_plan_id":"cebpf4jnsgd1na2vs0mg"},{"bike_id":"6eb36d94-2a08-4129-9978-c104d9d30c63","system_id":"levelo_inurba_marseille","lat":43.26201,"lon":5.37445,"is_reserved":false,"is_disabled":false,"rental_uris":{"android":"levelo://app?vid=6eb36d94-2a08-4129-9978-c104d9d30c63","ios":"levelo://app?vid=6eb36d94-2a08-4129-9978-c104d9d30c63"},"vehicle_type_id":"4","last_reported":1741356530,"current_range_meters":10800,"station_id":"ce4bhgp2rcd13ifvqfc0","pricing_plan_id":"cebpf4jnsgd1na2vs0mg"},{"bike_id":"6a1366c1-41ed-4dda-b62f-b12cda709bc4","system_id":"levelo_inurba_marseille","lat":43.32371,"lon":5.38878,"is_reserved":false,"is_disabled":false,"rental_uris":{"android":"levelo://app?vid=6a1366c1-41ed-4dda-b62f-b12cda709bc4","ios":"levelo://app?vid=6a1366c1-41ed-4dda-b62f-b12cda709bc4"},"vehicle_type_id":"4","last_reported":1741356530,"current_range_meters":10800,"station_id":"ce4bhqp2rcd13ifvqhog","pricing_plan_id":"cebpf4jnsgd1na2vs0mg"},{"bike_id":"74115dde-800e-4416-963f-21ccb334f73c","system_id":"levelo_inurba_marseille","lat":43.286031,"lon":5.37068,"is_reserved":false,"is_disabled":false,"rental_uris":{"android":"levelo://app?vid=74115dde-800e-4416-963f-21ccb334f73c","ios":"levelo://app?vid=74115dde-800e-4416-963f-21ccb334f73c"},"vehicle_type_id":"4","last_reported":1741356530,"current_range_meters":10800,"station_id":"ce4bht12rcd13ifvqi60","pricing_plan_id":"cebpf4jnsgd1na2vs0mg"},{"bike_id":"3e19adc8-670b-4456-ad38-aa49c048afc4","system_id":"levelo_inurba_marseille","lat":43.254747,"lon":5.375729,"is_reserved":false,"is_disabled":false,"rental_uris":{"android":"levelo://app?vid=3e19adc8-670b-4456-ad38-aa49c048afc4","ios":"levelo://app?vid=3e19adc8-670b-4456-ad38-aa49c048afc4"},"vehicle_type_id":"4","last_reported":1741356530,"current_range_meters":10800,"station_id":"ce4bhu92rcd13ifvqi70","pricing_plan_id":"cebpf4jnsgd1na2vs0mg"},{"bike_id":"daa48c53-c5de-46aa-94fc-655cbd710c8c","system_id":"levelo_inurba_marseille","lat":43.22938,"lon":5.35373,"is_reserved":false,"is_disabled":false,"rental_uris":{"android":"levelo://app?vid=daa48c53-c5de-46aa-94fc-655cbd710c8c","ios":"levelo://app?vid=daa48c53-c5de-46aa-94fc-655cbd710c8c"},"vehicle_type_id":"4","last_reported":1741356530,"current_range_meters":10800,"station_id":"cpo3532slgdg3j2ikp40","pricing_plan_id":"cebpf4jnsgd1na2vs0mg"},{"bike_id":"14d944f1-340c-4625-9e7c-9858f81a1ec8","system_id":"levelo_inurba_marseille","lat":43.24167,"lon":5.36399,"is_reserved":false,"is_disabled":false,"rental_uris":{"android":"levelo://app?vid=14d944f1-340c-4625-9e7c-9858f81a1ec8","ios":"levelo://app?vid=14d944f1-340c-4625-9e7c-9858f81a1ec8"},"vehicle_type_id":"4","last_reported":1741356530,"current_range_meters":10800,"station_id":"cpo36qri1sfpv3e86is0","pricing_plan_id":"cebpf4jnsgd1na2vs0mg"},{"bike_id":"707f7ab7-3329-4bbe-a15e-b7a9d9e721c7","system_id":"levelo_inurba_marseille","lat":43.31272,"lon":5.36876,"is_reserved":false,"is_disabled":false,"rental_uris":{"android":"levelo://app?vid=707f7ab7-3329-4bbe-a15e-b7a9d9e721c7","ios":"levelo://app?vid=707f7ab7-3329-4bbe-a15e-b7a9d9e721c7"},"vehicle_type_id":"4","last_reported":1741356530,"current_range_meters":11200,"station_id":"","pricing_plan_id":"cebpf4jnsgd1na2vs0mg"},{"bike_id":"fde79411-d136-4b74-a679-5c4aa329c19b","system_id":"levelo_inurba_marseille","lat":43.29609,"lon":5.38071,"is_reserved":false,"is_disabled":false,"rental_uris":{"android":"levelo://app?vid=fde79411-d136-4b74-a679-5c4aa329c19b","ios":"levelo://app?vid=fde79411-d136-4b74-a679-5c4aa329c19b"},"vehicle_type_id":"4","last_reported":1741356530,"current_range_meters":11200,"station_id":"ce4bgl12rcd13ifvqbo0","pricing_plan_id":"cebpf4jnsgd1na2vs0mg"},{"bike_id":"bf64b76e-30b4-4570-ac43-2f031ab57711","system_id":"levelo_inurba_marseille","lat":43.29869,"lon":5.39745,"is_reserved":false,"is_disabled":false,"rental_uris":{"android":"levelo://app?vid=bf64b76e-30b4-4570-ac43-2f031ab57711","ios":"levelo://app?vid=bf64b76e-30b4-4570-ac43-2f031ab57711"},"vehicle_type_id":"4","last_reported":1741356530,"current_range_meters":11200,"station_id":"ce4bh0h2rcd13ifvqd50","pricing_plan_id":"cebpf4jnsgd1na2vs0mg"},{"bike_id":"e9895759-e2cb-4428-b95c-344254eab399","system_id":"levelo_inurba_marseille","lat":43.29528,"lon":5.390363,"is_reserved":false,"is_disabled":false,"rental_uris":{"android":"levelo://app?vid=e9895759-e2cb-4428-b95c-344254eab399","ios":"levelo://app?vid=e9895759-e2cb-4428-b95c-344254eab399"},"vehicle_type_id":"4","last_reported":1741356530,"current_range_meters":11200,"station_id":"ce4bh3p2rcd13ifvqdp0","pricing_plan_id":"cebpf4jnsgd1na2vs0mg"},{"bike_id":"2602307d-388b-4797-a9ac-93808ba82132","system_id":"levelo_inurba_marseille","lat":43.27973,"lon":5.38741,"is_reserved":false,"is_disabled":false,"rental_uris":{"android":"levelo://app?vid=2602307d-388b-4797-a9ac-93808ba82132","ios":"levelo://app?vid=2602307d-388b-4797-a9ac-93808ba82132"},"vehicle_type_id":"4","last_reported":1741356530,"current_range_meters":11200,"station_id":"ce4bhg12rcd13ifvqf80","pricing_plan_id":"cebpf4jnsgd1na2vs0mg"},{"bike_id":"c262f8cf-6400-4efd-af91-c8aabadab203","system_id":"levelo_inurba_marseille","lat":43.232,"lon":5.39976,"is_reserved":false,"is_disabled":false,"rental_uris":{"android":"levelo://app?vid=c262f8cf-6400-4efd-af91-c8aabadab203","ios":"levelo://app?vid=c262f8cf-6400-4efd-af91-c8aabadab203"},"vehicle_type_id":"4","last_reported":1741356530,"current_range_meters":11200,"station_id":"ce4bhn12rcd13ifvqgqg","pricing_plan_id":"cebpf4jnsgd1na2vs0mg"},{"bike_id":"9da935d0-0941-44db-bb4f-7f7e582bd3d3","system_id":"levelo_inurba_marseille","lat":43.24164,"lon":5.36408,"is_reserved":false,"is_disabled":false,"rental_uris":{"android":"levelo://app?vid=9da935d0-0941-44db-bb4f-7f7e582bd3d3","ios":"levelo://app?vid=9da935d0-0941-44db-bb4f-7f7e582bd3d3"},"vehicle_type_id":"4","last_reported":1741356530,"current_range_meters":11200,"station_id":"cpo36qri1sfpv3e86is0","pricing_plan_id":"cebpf4jnsgd1na2vs0mg"},{"bike_id":"3949e300-2dbd-4203-aa58-eef0b1b0c774","system_id":"levelo_inurba_marseille","lat":43.33793,"lon":5.37435,"is_reserved":false,"is_disabled":false,"rental_uris":{"android":"levelo://app?vid=3949e300-2dbd-4203-aa58-eef0b1b0c774","ios":"levelo://app?vid=3949e300-2dbd-4203-aa58-eef0b1b0c774"},"vehicle_type_id":"4","last_reported":1741356530,"current_range_meters":11600,"station_id":"","pricing_plan_id":"cebpf4jnsgd1na2vs0mg"},{"bike_id":"ca1decfa-b5d0-419f-9160-08c505470428","system_id":"levelo_inurba_marseille","lat":43.29301,"lon":5.37464,"is_reserved":false,"is_disabled":false,"rental_uris":{"android":"levelo://app?vid=ca1decfa-b5d0-419f-9160-08c505470428","ios":"levelo://app?vid=ca1decfa-b5d0-419f-9160-08c505470428"},"vehicle_type_id":"4","last_reported":1741356530,"current_range_meters":11600,"station_id":"ce4bgi12rcd13ifvqb70","pricing_plan_id":"cebpf4jnsgd1na2vs0mg"},{"bike_id":"6f4034b1-e0e1-435f-9cf6-baad24e62aca","system_id":"levelo_inurba_marseille","lat":43.2954,"lon":5.38547,"is_reserved":false,"is_disabled":false,"rental_uris":{"android":"levelo://app?vid=6f4034b1-e0e1-435f-9cf6-baad24e62aca","ios":"levelo://app?vid=6f4034b1-e0e1-435f-9cf6-baad24e62aca"},"vehicle_type_id":"4","last_reported":1741356530,"current_range_meters":11600,"station_id":"ce4bgih2rcd13ifvqba0","pricing_plan_id":"cebpf4jnsgd1na2vs0mg"},{"bike_id":"ae4e3229-4e69-45ee-9426-85d8226868ca","system_id":"levelo_inurba_marseille","lat":43.302521,"lon":5.369473,"is_reserved":false,"is_disabled":false,"rental_uris":{"android":"levelo://app?vid=ae4e3229-4e69-45ee-9426-85d8226868ca","ios":"levelo://app?vid=ae4e3229-4e69-45ee-9426-85d8226868ca"},"vehicle_type_id":"4","last_reported":1741356530,"current_range_meters":11600,"station_id":"ce4bho92rcd13ifvqh3g","pricing_plan_id":"cebpf4jnsgd1na2vs0mg"},{"bike_id":"54954614-0ac5-41d2-8a16-307c508cf4e1","system_id":"levelo_inurba_marseille","lat":43.33028,"lon":5.39035,"is_reserved":false,"is_disabled":false,"rental_uris":{"android":"levelo://app?vid=54954614-0ac5-41d2-8a16-307c508cf4e1","ios":"levelo://app?vid=54954614-0ac5-41d2-8a16-307c508cf4e1"},"vehicle_type_id":"4","last_reported":1741356530,"current_range_meters":11600,"station_id":"ce4bhr92rcd13ifvqhrg","pricing_plan_id":"cebpf4jnsgd1na2vs0mg"},{"bike_id":"c8ce01f5-0d26-4807-bad2-e1663c1961b5","system_id":"levelo_inurba_marseille","lat":43.26214,"lon":5.37439,"is_reserved":false,"is_disabled":false,"rental_uris":{"android":"levelo://app?vid=c8ce01f5-0d26-4807-bad2-e1663c1961b5","ios":"levelo://app?vid=c8ce01f5-0d26-4807-bad2-e1663c1961b5"},"vehicle_type_id":"4","last_reported":1741356530,"current_range_meters":12000,"station_id":"ce4bhgp2rcd13ifvqfc0","pricing_plan_id":"cebpf4jnsgd1na2vs0mg"},{"bike_id":"67878546-5902-4385-9009-b5ddaec285aa","system_id":"levelo_inurba_marseille","lat":43.29793,"lon":5.38096,"is_reserved":false,"is_disabled":false,"rental_uris":{"android":"levelo://app?vid=67878546-5902-4385-9009-b5ddaec285aa","ios":"levelo://app?vid=67878546-5902-4385-9009-b5ddaec285aa"},"vehicle_type_id":"4","last_reported":1741356530,"current_range_meters":12400,"station_id":"ce4bgip2rcd13ifvqbb0","pricing_plan_id":"cebpf4jnsgd1na2vs0mg"},{"bike_id":"c635338b-d0a5-4305-b04c-a9d5beb07af6","system_id":"levelo_inurba_marseille","lat":43.30658,"lon":5.40044,"is_reserved":false,"is_disabled":false,"rental_uris":{"android":"levelo://app?vid=c635338b-d0a5-4305-b04c-a9d5beb07af6","ios":"levelo://app?vid=c635338b-d0a5-4305-b04c-a9d5beb07af6"},"vehicle_type_id":"4","last_reported":1741356530,"current_range_meters":12400,"station_id":"ce4bh112rcd13ifvqda0","pricing_plan_id":"cebpf4jnsgd1na2vs0mg"},{"bike_id":"2903da06-81c2-4e93-afa3-bd7037de2a4e","system_id":"levelo_inurba_marseille","lat":43.2953,"lon":5.39049,"is_reserved":false,"is_disabled":false,"rental_uris":{"android":"levelo://app?vid=2903da06-81c2-4e93-afa3-bd7037de2a4e","ios":"levelo://app?vid=2903da06-81c2-4e93-afa3-bd7037de2a4e"},"vehicle_type_id":"4","last_reported":1741356530,"current_range_meters":12400,"station_id":"ce4bh3p2rcd13ifvqdp0","pricing_plan_id":"cebpf4jnsgd1na2vs0mg"},{"bike_id":"e029ecd2-43e6-4f65-8112-fa039bae499a","system_id":"levelo_inurba_marseille","lat":43.28353,"lon":5.38099,"is_reserved":false,"is_disabled":false,"rental_uris":{"android":"levelo://app?vid=e029ecd2-43e6-4f65-8112-fa039bae499a","ios":"levelo://app?vid=e029ecd2-43e6-4f65-8112-fa039bae499a"},"vehicle_type_id":"4","last_reported":1741356530,"current_range_meters":12400,"station_id":"ce4bh412rcd13ifvqdr0","pricing_plan_id":"cebpf4jnsgd1na2vs0mg"},{"bike_id":"2b5639cb-77f3-41a8-bf96-d3fadebb0e21","system_id":"levelo_inurba_marseille","lat":43.26568,"lon":5.39019,"is_reserved":false,"is_disabled":false,"rental_uris":{"android":"levelo://app?vid=2b5639cb-77f3-41a8-bf96-d3fadebb0e21","ios":"levelo://app?vid=2b5639cb-77f3-41a8-bf96-d3fadebb0e21"},"vehicle_type_id":"4","last_reported":1741356530,"current_range_meters":12400,"station_id":"ce4bhe12rcd13ifvqf30","pricing_plan_id":"cebpf4jnsgd1na2vs0mg"},{"bike_id":"9c3f2636-c1e9-4085-8e62-5c37505521d7","system_id":"levelo_inurba_marseille","lat":43.27177,"lon":5.4099,"is_reserved":false,"is_disabled":false,"rental_uris":{"android":"levelo://app?vid=9c3f2636-c1e9-4085-8e62-5c37505521d7","ios":"levelo://app?vid=9c3f2636-c1e9-4085-8e62-5c37505521d7"},"vehicle_type_id":"4","last_reported":1741356530,"current_range_meters":12400,"station_id":"ce4bhl12rcd13ifvqgf0","pricing_plan_id":"cebpf4jnsgd1na2vs0mg"},{"bike_id":"6d7e0450-89ad-4e81-9f4f-61db2e3e009a","system_id":"levelo_inurba_marseille","lat":43.29879,"lon":5.4368,"is_reserved":false,"is_disabled":false,"rental_uris":{"android":"levelo://app?vid=6d7e0450-89ad-4e81-9f4f-61db2e3e009a","ios":"levelo://app?vid=6d7e0450-89ad-4e81-9f4f-61db2e3e009a"},"vehicle_type_id":"4","last_reported":1741356530,"current_range_meters":12400,"station_id":"ce4bhpp2rcd13ifvqhfg","pricing_plan_id":"cebpf4jnsgd1na2vs0mg"},{"bike_id":"99bc5722-6509-4c8d-b9ec-d8d4424bd12c","system_id":"levelo_inurba_marseille","lat":43.29907,"lon":5.3745,"is_reserved":false,"is_disabled":false,"rental_uris":{"android":"levelo://app?vid=99bc5722-6509-4c8d-b9ec-d8d4424bd12c","ios":"levelo://app?vid=99bc5722-6509-4c8d-b9ec-d8d4424bd12c"},"vehicle_type_id":"4","last_reported":1741356530,"current_range_meters":12800,"station_id":"ce4bgjh2rcd13ifvqbg0","pricing_plan_id":"cebpf4jnsgd1na2vs0mg"},{"bike_id":"a8d6b032-89d4-465a-be15-4fdb66754f2a","system_id":"levelo_inurba_marseille","lat":43.30954,"lon":5.39028,"is_reserved":false,"is_disabled":false,"rental_uris":{"android":"levelo://app?vid=a8d6b032-89d4-465a-be15-4fdb66754f2a","ios":"levelo://app?vid=a8d6b032-89d4-465a-be15-4fdb66754f2a"},"vehicle_type_id":"4","last_reported":1741356530,"current_range_meters":12800,"station_id":"ce4bgup2rcd13ifvqco0","pricing_plan_id":"cebpf4jnsgd1na2vs0mg"},{"bike_id":"e6472cf0-0ad7-491d-9b42-ba9a1b7210e2","system_id":"levelo_inurba_marseille","lat":43.29895,"lon":5.436736,"is_reserved":false,"is_disabled":false,"rental_uris":{"android":"levelo://app?vid=e6472cf0-0ad7-491d-9b42-ba9a1b7210e2","ios":"levelo://app?vid=e6472cf0-0ad7-491d-9b42-ba9a1b7210e2"},"vehicle_type_id":"4","last_reported":1741356530,"current_range_meters":12800,"station_id":"ce4bhpp2rcd13ifvqhfg","pricing_plan_id":"cebpf4jnsgd1na2vs0mg"},{"bike_id":"0e674cb4-f37d-4bd5-aaff-7ec953d386c6","system_id":"levelo_inurba_marseille","lat":43.24168,"lon":5.364001,"is_reserved":false,"is_disabled":false,"rental_uris":{"android":"levelo://app?vid=0e674cb4-f37d-4bd5-aaff-7ec953d386c6","ios":"levelo://app?vid=0e674cb4-f37d-4bd5-aaff-7ec953d386c6"},"vehicle_type_id":"4","last_reported":1741356530,"current_range_meters":12800,"station_id":"cpo36qri1sfpv3e86is0","pricing_plan_id":"cebpf4jnsgd1na2vs0mg"},{"bike_id":"c80f38a9-5fee-47bf-b7c1-6013180df327","system_id":"levelo_inurba_marseille","lat":43.29537,"lon":5.38537,"is_reserved":false,"is_disabled":false,"rental_uris":{"android":"levelo://app?vid=c80f38a9-5fee-47bf-b7c1-6013180df327","ios":"levelo://app?vid=c80f38a9-5fee-47bf-b7c1-6013180df327"},"vehicle_type_id":"4","last_reported":1741356530,"current_range_meters":13600,"station_id":"ce4bgih2rcd13ifvqba0","pricing_plan_id":"cebpf4jnsgd1na2vs0mg"},{"bike_id":"1124d652-a544-4870-99cc-4794ece3ed6c","system_id":"levelo_inurba_marseille","lat":43.28488,"lon":5.38419,"is_reserved":false,"is_disabled":false,"rental_uris":{"android":"levelo://app?vid=1124d652-a544-4870-99cc-4794ece3ed6c","ios":"levelo://app?vid=1124d652-a544-4870-99cc-4794ece3ed6c"},"vehicle_type_id":"4","last_reported":1741356530,"current_range_meters":13600,"station_id":"ce4bh512rcd13ifvqe3g","pricing_plan_id":"cebpf4jnsgd1na2vs0mg"},{"bike_id":"93ee5eb5-bc07-4fa4-84ef-fcef721c938d","system_id":"levelo_inurba_marseille","lat":43.28274,"lon":5.35064,"is_reserved":false,"is_disabled":false,"rental_uris":{"android":"levelo://app?vid=93ee5eb5-bc07-4fa4-84ef-fcef721c938d","ios":"levelo://app?vid=93ee5eb5-bc07-4fa4-84ef-fcef721c938d"},"vehicle_type_id":"4","last_reported":1741356530,"current_range_meters":13600,"station_id":"ce4bhbp2rcd13ifvqerg","pricing_plan_id":"cebpf4jnsgd1na2vs0mg"},{"bike_id":"3d96131d-f37b-4f88-a2a8-0a01a04356d9","system_id":"levelo_inurba_marseille","lat":43.29896,"lon":5.43674,"is_reserved":false,"is_disabled":false,"rental_uris":{"android":"levelo://app?vid=3d96131d-f37b-4f88-a2a8-0a01a04356d9","ios":"levelo://app?vid=3d96131d-f37b-4f88-a2a8-0a01a04356d9"},"vehicle_type_id":"4","last_reported":1741356530,"current_range_meters":13600,"station_id":"ce4bhpp2rcd13ifvqhfg","pricing_plan_id":"cebpf4jnsgd1na2vs0mg"},{"bike_id":"7372ba19-4949-453e-a20c-490c28817add","system_id":"levelo_inurba_marseille","lat":43.33783,"lon":5.374419,"is_reserved":false,"is_disabled":false,"rental_uris":{"android":"levelo://app?vid=7372ba19-4949-453e-a20c-490c28817add","ios":"levelo://app?vid=7372ba19-4949-453e-a20c-490c28817add"},"vehicle_type_id":"4","last_reported":1741356530,"current_range_meters":14000,"station_id":"","pricing_plan_id":"cebpf4jnsgd1na2vs0mg"},{"bike_id":"6ae77951-a909-4dfa-a933-35324bca41b7","system_id":"levelo_inurba_marseille","lat":43.25009,"lon":5.38906,"is_reserved":false,"is_disabled":false,"rental_uris":{"android":"levelo://app?vid=6ae77951-a909-4dfa-a933-35324bca41b7","ios":"levelo://app?vid=6ae77951-a909-4dfa-a933-35324bca41b7"},"vehicle_type_id":"4","last_reported":1741356530,"current_range_meters":14000,"station_id":"ce4bhgp2rcd13ifvqfd0","pricing_plan_id":"cebpf4jnsgd1na2vs0mg"},{"bike_id":"ae3779ef-20cb-4465-9a35-7eabd356042c","system_id":"levelo_inurba_marseille","lat":43.27564,"lon":5.38407,"is_reserved":false,"is_disabled":false,"rental_uris":{"android":"levelo://app?vid=ae3779ef-20cb-4465-9a35-7eabd356042c","ios":"levelo://app?vid=ae3779ef-20cb-4465-9a35-7eabd356042c"},"vehicle_type_id":"4","last_reported":1741356530,"current_range_meters":14000,"station_id":"ce4bhh92rcd13ifvqfi0","pricing_plan_id":"cebpf4jnsgd1na2vs0mg"},{"bike_id":"b5332ce3-77d6-4ed1-84fb-ab81d3835e7b","system_id":"levelo_inurba_marseille","lat":43.2511,"lon":5.40321,"is_reserved":false,"is_disabled":false,"rental_uris":{"android":"levelo://app?vid=b5332ce3-77d6-4ed1-84fb-ab81d3835e7b","ios":"levelo://app?vid=b5332ce3-77d6-4ed1-84fb-ab81d3835e7b"},"vehicle_type_id":"4","last_reported":1741356530,"current_range_meters":14000,"station_id":"ce4bhlh2rcd13ifvqgig","pricing_plan_id":"cebpf4jnsgd1na2vs0mg"},{"bike_id":"e79dc040-4a1d-4ad1-bf6c-8396f32051ce","system_id":"levelo_inurba_marseille","lat":43.2816,"lon":5.42643,"is_reserved":false,"is_disabled":false,"rental_uris":{"android":"levelo://app?vid=e79dc040-4a1d-4ad1-bf6c-8396f32051ce","ios":"levelo://app?vid=e79dc040-4a1d-4ad1-bf6c-8396f32051ce"},"vehicle_type_id":"4","last_reported":1741356530,"current_range_meters":14000,"station_id":"ce4bhnh2rcd13ifvqgug","pricing_plan_id":"cebpf4jnsgd1na2vs0mg"},{"bike_id":"400410bf-47f4-46d8-bed7-70424661fcca","system_id":"levelo_inurba_marseille","lat":43.33027,"lon":5.3904,"is_reserved":false,"is_disabled":false,"rental_uris":{"android":"levelo://app?vid=400410bf-47f4-46d8-bed7-70424661fcca","ios":"levelo://app?vid=400410bf-47f4-46d8-bed7-70424661fcca"},"vehicle_type_id":"4","last_reported":1741356530,"current_range_meters":14000,"station_id":"ce4bhr92rcd13ifvqhrg","pricing_plan_id":"cebpf4jnsgd1na2vs0mg"},{"bike_id":"7cf72f02-ccb9-45c8-8e70-9f8c0855b0fd","system_id":"levelo_inurba_marseille","lat":43.3054,"lon":5.36522,"is_reserved":false,"is_disabled":false,"rental_uris":{"android":"levelo://app?vid=7cf72f02-ccb9-45c8-8e70-9f8c0855b0fd","ios":"levelo://app?vid=7cf72f02-ccb9-45c8-8e70-9f8c0855b0fd"},"vehicle_type_id":"4","last_reported":1741356530,"current_range_meters":14400,"station_id":"ce4bgs12rcd13ifvqcag","pricing_plan_id":"cebpf4jnsgd1na2vs0mg"},{"bike_id":"590cefa4-9ea3-4057-80f1-97ed1f4917bc","system_id":"levelo_inurba_marseille","lat":43.2962,"lon":5.40599,"is_reserved":false,"is_disabled":false,"rental_uris":{"android":"levelo://app?vid=590cefa4-9ea3-4057-80f1-97ed1f4917bc","ios":"levelo://app?vid=590cefa4-9ea3-4057-80f1-97ed1f4917bc"},"vehicle_type_id":"4","last_reported":1741356530,"current_range_meters":14400,"station_id":"ce4bh0h2rcd13ifvqd60","pricing_plan_id":"cebpf4jnsgd1na2vs0mg"},{"bike_id":"fd7938d0-6427-4c6d-b71e-646b176b8099","system_id":"levelo_inurba_marseille","lat":43.26551,"lon":5.37279,"is_reserved":false,"is_disabled":false,"rental_uris":{"android":"levelo://app?vid=fd7938d0-6427-4c6d-b71e-646b176b8099","ios":"levelo://app?vid=fd7938d0-6427-4c6d-b71e-646b176b8099"},"vehicle_type_id":"4","last_reported":1741356530,"current_range_meters":14400,"station_id":"ce4bhg12rcd13ifvqf70","pricing_plan_id":"cebpf4jnsgd1na2vs0mg"},{"bike_id":"0fae1422-e2b0-4582-b90b-5eb41a92fc90","system_id":"levelo_inurba_marseille","lat":43.25094,"lon":5.39517,"is_reserved":false,"is_disabled":false,"rental_uris":{"android":"levelo://app?vid=0fae1422-e2b0-4582-b90b-5eb41a92fc90","ios":"levelo://app?vid=0fae1422-e2b0-4582-b90b-5eb41a92fc90"},"vehicle_type_id":"4","last_reported":1741356530,"current_range_meters":14400,"station_id":"ce4bhm12rcd13ifvqgkg","pricing_plan_id":"cebpf4jnsgd1na2vs0mg"},{"bike_id":"e524bcef-a391-41b2-bad2-673eae53ea51","system_id":"levelo_inurba_marseille","lat":43.31718,"lon":5.43705,"is_reserved":false,"is_disabled":false,"rental_uris":{"android":"levelo://app?vid=e524bcef-a391-41b2-bad2-673eae53ea51","ios":"levelo://app?vid=e524bcef-a391-41b2-bad2-673eae53ea51"},"vehicle_type_id":"4","last_reported":1741356530,"current_range_meters":14400,"station_id":"ce4bhp92rcd13ifvqhcg","pricing_plan_id":"cebpf4jnsgd1na2vs0mg"},{"bike_id":"ca56f945-8b7e-44ff-8c48-3e0b263d9492","system_id":"levelo_inurba_marseille","lat":43.30892,"lon":5.36788,"is_reserved":false,"is_disabled":false,"rental_uris":{"android":"levelo://app?vid=ca56f945-8b7e-44ff-8c48-3e0b263d9492","ios":"levelo://app?vid=ca56f945-8b7e-44ff-8c48-3e0b263d9492"},"vehicle_type_id":"4","last_reported":1741356530,"current_range_meters":14800,"station_id":"","pricing_plan_id":"cebpf4jnsgd1na2vs0mg"},{"bike_id":"db1c7047-7b9f-4b56-96ef-3b289cb537df","system_id":"levelo_inurba_marseille","lat":43.30825,"lon":5.37397,"is_reserved":false,"is_disabled":false,"rental_uris":{"android":"levelo://app?vid=db1c7047-7b9f-4b56-96ef-3b289cb537df","ios":"levelo://app?vid=db1c7047-7b9f-4b56-96ef-3b289cb537df"},"vehicle_type_id":"4","last_reported":1741356530,"current_range_meters":14800,"station_id":"","pricing_plan_id":"cebpf4jnsgd1na2vs0mg"},{"bike_id":"28a04a5d-7ecd-484e-b77c-587cbec8649e","system_id":"levelo_inurba_marseille","lat":43.29629,"lon":5.37733,"is_reserved":false,"is_disabled":false,"rental_uris":{"android":"levelo://app?vid=28a04a5d-7ecd-484e-b77c-587cbec8649e","ios":"levelo://app?vid=28a04a5d-7ecd-484e-b77c-587cbec8649e"},"vehicle_type_id":"4","last_reported":1741356530,"current_range_meters":14800,"station_id":"ce4bgi92rcd13ifvqb90","pricing_plan_id":"cebpf4jnsgd1na2vs0mg"},{"bike_id":"6f1adf18-1d63-4f12-8237-7b919e9da26a","system_id":"levelo_inurba_marseille","lat":43.29366,"lon":5.3785,"is_reserved":false,"is_disabled":false,"rental_uris":{"android":"levelo://app?vid=6f1adf18-1d63-4f12-8237-7b919e9da26a","ios":"levelo://app?vid=6f1adf18-1d63-4f12-8237-7b919e9da26a"},"vehicle_type_id":"4","last_reported":1741356530,"current_range_meters":14800,"station_id":"ce4bgjh2rcd13ifvqbf0","pricing_plan_id":"cebpf4jnsgd1na2vs0mg"},{"bike_id":"01e995b4-4351-4d7f-ac12-92985e79f506","system_id":"levelo_inurba_marseille","lat":43.29924,"lon":5.37462,"is_reserved":false,"is_disabled":false,"rental_uris":{"android":"levelo://app?vid=01e995b4-4351-4d7f-ac12-92985e79f506","ios":"levelo://app?vid=01e995b4-4351-4d7f-ac12-92985e79f506"},"vehicle_type_id":"4","last_reported":1741356530,"current_range_meters":14800,"station_id":"ce4bgjh2rcd13ifvqbg0","pricing_plan_id":"cebpf4jnsgd1na2vs0mg"},{"bike_id":"faee5b0d-235a-4af3-813f-46f6d750e794","system_id":"levelo_inurba_marseille","lat":43.296,"lon":5.38103,"is_reserved":false,"is_disabled":false,"rental_uris":{"android":"levelo://app?vid=faee5b0d-235a-4af3-813f-46f6d750e794","ios":"levelo://app?vid=faee5b0d-235a-4af3-813f-46f6d750e794"},"vehicle_type_id":"4","last_reported":1741356530,"current_range_meters":14800,"station_id":"ce4bgl12rcd13ifvqbo0","pricing_plan_id":"cebpf4jnsgd1na2vs0mg"},{"bike_id":"f3cc751f-9f7b-40a7-a89f-0bf3055221aa","system_id":"levelo_inurba_marseille","lat":43.27554,"lon":5.38434,"is_reserved":false,"is_disabled":false,"rental_uris":{"android":"levelo://app?vid=f3cc751f-9f7b-40a7-a89f-0bf3055221aa","ios":"levelo://app?vid=f3cc751f-9f7b-40a7-a89f-0bf3055221aa"},"vehicle_type_id":"4","last_reported":1741356530,"current_range_meters":14800,"station_id":"ce4bhh92rcd13ifvqfi0","pricing_plan_id":"cebpf4jnsgd1na2vs0mg"},{"bike_id":"8ca01a57-7f25-43a5-9ebc-4c0b2bfe3e12","system_id":"levelo_inurba_marseille","lat":43.33613,"lon":5.41023,"is_reserved":false,"is_disabled":false,"rental_uris":{"android":"levelo://app?vid=8ca01a57-7f25-43a5-9ebc-4c0b2bfe3e12","ios":"levelo://app?vid=8ca01a57-7f25-43a5-9ebc-4c0b2bfe3e12"},"vehicle_type_id":"4","last_reported":1741356530,"current_range_meters":14800,"station_id":"ce4bhqh2rcd13ifvqhmg","pricing_plan_id":"cebpf4jnsgd1na2vs0mg"},{"bike_id":"0618ed15-9374-4ab9-b05f-5da043dd2ba2","system_id":"levelo_inurba_marseille","lat":43.23197,"lon":5.35553,"is_reserved":false,"is_disabled":false,"rental_uris":{"android":"levelo://app?vid=0618ed15-9374-4ab9-b05f-5da043dd2ba2","ios":"levelo://app?vid=0618ed15-9374-4ab9-b05f-5da043dd2ba2"},"vehicle_type_id":"4","last_reported":1741356530,"current_range_meters":14800,"station_id":"ce4bhu92rcd13ifvqi70","pricing_plan_id":"cebpf4jnsgd1na2vs0mg"},{"bike_id":"1a20bbc5-8764-4791-8ec5-719477d304ce","system_id":"levelo_inurba_marseille","lat":43.30328,"lon":5.40429,"is_reserved":false,"is_disabled":false,"rental_uris":{"android":"levelo://app?vid=1a20bbc5-8764-4791-8ec5-719477d304ce","ios":"levelo://app?vid=1a20bbc5-8764-4791-8ec5-719477d304ce"},"vehicle_type_id":"4","last_reported":1741356530,"current_range_meters":15200,"station_id":"ce4bh012rcd13ifvqd10","pricing_plan_id":"cebpf4jnsgd1na2vs0mg"},{"bike_id":"7e60b09d-959c-4d55-a820-f3270555724f","system_id":"levelo_inurba_marseille","lat":43.28614,"lon":5.35105,"is_reserved":false,"is_disabled":false,"rental_uris":{"android":"levelo://app?vid=7e60b09d-959c-4d55-a820-f3270555724f","ios":"levelo://app?vid=7e60b09d-959c-4d55-a820-f3270555724f"},"vehicle_type_id":"4","last_reported":1741356530,"current_range_meters":15200,"station_id":"ce4bhch2rcd13ifvqeug","pricing_plan_id":"cebpf4jnsgd1na2vs0mg"},{"bike_id":"3fbf799e-b5af-4831-aa81-9cf78fb2f515","system_id":"levelo_inurba_marseille","lat":43.24674,"lon":5.38153,"is_reserved":false,"is_disabled":false,"rental_uris":{"android":"levelo://app?vid=3fbf799e-b5af-4831-aa81-9cf78fb2f515","ios":"levelo://app?vid=3fbf799e-b5af-4831-aa81-9cf78fb2f515"},"vehicle_type_id":"4","last_reported":1741356530,"current_range_meters":15200,"station_id":"ce4bhih2rcd13ifvqfr0","pricing_plan_id":"cebpf4jnsgd1na2vs0mg"},{"bike_id":"c7c9ecb8-77f9-4bcf-bc66-75fd38f25601","system_id":"levelo_inurba_marseille","lat":43.25714,"lon":5.41115,"is_reserved":false,"is_disabled":false,"rental_uris":{"android":"levelo://app?vid=c7c9ecb8-77f9-4bcf-bc66-75fd38f25601","ios":"levelo://app?vid=c7c9ecb8-77f9-4bcf-bc66-75fd38f25601"},"vehicle_type_id":"4","last_reported":1741356530,"current_range_meters":15200,"station_id":"ce4bhkp2rcd13ifvqgd0","pricing_plan_id":"cebpf4jnsgd1na2vs0mg"},{"bike_id":"9b8789be-c150-4679-b8ba-e1d5e4639da2","system_id":"levelo_inurba_marseille","lat":43.25712,"lon":5.41103,"is_reserved":false,"is_disabled":false,"rental_uris":{"android":"levelo://app?vid=9b8789be-c150-4679-b8ba-e1d5e4639da2","ios":"levelo://app?vid=9b8789be-c150-4679-b8ba-e1d5e4639da2"},"vehicle_type_id":"4","last_reported":1741356530,"current_range_meters":15200,"station_id":"ce4bhkp2rcd13ifvqgd0","pricing_plan_id":"cebpf4jnsgd1na2vs0mg"},{"bike_id":"6a89ec7e-32ac-46fd-aaab-1cc36606ea7d","system_id":"levelo_inurba_marseille","lat":43.301453,"lon":5.373968,"is_reserved":false,"is_disabled":false,"rental_uris":{"android":"levelo://app?vid=6a89ec7e-32ac-46fd-aaab-1cc36606ea7d","ios":"levelo://app?vid=6a89ec7e-32ac-46fd-aaab-1cc36606ea7d"},"vehicle_type_id":"4","last_reported":1741356530,"current_range_meters":15200,"station_id":"ce4bhsp2rcd13ifvqi50","pricing_plan_id":"cebpf4jnsgd1na2vs0mg"},{"bike_id":"b1d03295-5a4c-4b8b-ad8e-3dbefaa793f2","system_id":"levelo_inurba_marseille","lat":43.231981,"lon":5.355497,"is_reserved":false,"is_disabled":false,"rental_uris":{"android":"levelo://app?vid=b1d03295-5a4c-4b8b-ad8e-3dbefaa793f2","ios":"levelo://app?vid=b1d03295-5a4c-4b8b-ad8e-3dbefaa793f2"},"vehicle_type_id":"4","last_reported":1741356530,"current_range_meters":15200,"station_id":"ce4bhu92rcd13ifvqi70","pricing_plan_id":"cebpf4jnsgd1na2vs0mg"},{"bike_id":"d0b0db61-80d1-44dc-b99d-80a98fa75946","system_id":"levelo_inurba_marseille","lat":43.29626,"lon":5.38094,"is_reserved":false,"is_disabled":false,"rental_uris":{"android":"levelo://app?vid=d0b0db61-80d1-44dc-b99d-80a98fa75946","ios":"levelo://app?vid=d0b0db61-80d1-44dc-b99d-80a98fa75946"},"vehicle_type_id":"4","last_reported":1741356530,"current_range_meters":16000,"station_id":"ce4bgl12rcd13ifvqbo0","pricing_plan_id":"cebpf4jnsgd1na2vs0mg"},{"bike_id":"bde30f3f-a693-4ade-8091-62a0d1ad9df2","system_id":"levelo_inurba_marseille","lat":43.30878,"lon":5.37206,"is_reserved":false,"is_disabled":false,"rental_uris":{"android":"levelo://app?vid=bde30f3f-a693-4ade-8091-62a0d1ad9df2","ios":"levelo://app?vid=bde30f3f-a693-4ade-8091-62a0d1ad9df2"},"vehicle_type_id":"4","last_reported":1741356530,"current_range_meters":16000,"station_id":"ce4bguh2rcd13ifvqckg","pricing_plan_id":"cebpf4jnsgd1na2vs0mg"},{"bike_id":"ebff5951-23ac-462e-b9c3-e9258f680ed8","system_id":"levelo_inurba_marseille","lat":43.272957,"lon":5.390609,"is_reserved":false,"is_disabled":false,"rental_uris":{"android":"levelo://app?vid=ebff5951-23ac-462e-b9c3-e9258f680ed8","ios":"levelo://app?vid=ebff5951-23ac-462e-b9c3-e9258f680ed8"},"vehicle_type_id":"4","last_reported":1741356530,"current_range_meters":16000,"station_id":"ce4bhgp2rcd13ifvqfe0","pricing_plan_id":"cebpf4jnsgd1na2vs0mg"},{"bike_id":"ac4e37af-1ba4-43ce-aa86-7cd5e40775ae","system_id":"levelo_inurba_marseille","lat":43.29564,"lon":5.42279,"is_reserved":false,"is_disabled":false,"rental_uris":{"android":"levelo://app?vid=ac4e37af-1ba4-43ce-aa86-7cd5e40775ae","ios":"levelo://app?vid=ac4e37af-1ba4-43ce-aa86-7cd5e40775ae"},"vehicle_type_id":"4","last_reported":1741356530,"current_range_meters":16000,"station_id":"ce4bhph2rcd13ifvqhdg","pricing_plan_id":"cebpf4jnsgd1na2vs0mg"},{"bike_id":"25db000e-d19c-4398-ae97-e9e1deee0744","system_id":"levelo_inurba_marseille","lat":43.297582,"lon":5.371302,"is_reserved":false,"is_disabled":false,"rental_uris":{"android":"levelo://app?vid=25db000e-d19c-4398-ae97-e9e1deee0744","ios":"levelo://app?vid=25db000e-d19c-4398-ae97-e9e1deee0744"},"vehicle_type_id":"4","last_reported":1741356530,"current_range_meters":16400,"station_id":"ce4bgop2rcd13ifvqc1g","pricing_plan_id":"cebpf4jnsgd1na2vs0mg"},{"bike_id":"9cad2a1d-cc3a-41dd-8d4f-b8b677928f00","system_id":"levelo_inurba_marseille","lat":43.30147,"lon":5.39876,"is_reserved":false,"is_disabled":false,"rental_uris":{"android":"levelo://app?vid=9cad2a1d-cc3a-41dd-8d4f-b8b677928f00","ios":"levelo://app?vid=9cad2a1d-cc3a-41dd-8d4f-b8b677928f00"},"vehicle_type_id":"4","last_reported":1741356530,"current_range_meters":16400,"station_id":"ce4bh0h2rcd13ifvqd40","pricing_plan_id":"cebpf4jnsgd1na2vs0mg"},{"bike_id":"a18554a5-53d2-42fa-96a4-0eefc2452e1e","system_id":"levelo_inurba_marseille","lat":43.28409,"lon":5.37521,"is_reserved":false,"is_disabled":false,"rental_uris":{"android":"levelo://app?vid=a18554a5-53d2-42fa-96a4-0eefc2452e1e","ios":"levelo://app?vid=a18554a5-53d2-42fa-96a4-0eefc2452e1e"},"vehicle_type_id":"4","last_reported":1741356530,"current_range_meters":16400,"station_id":"ce4bh412rcd13ifvqds0","pricing_plan_id":"cebpf4jnsgd1na2vs0mg"},{"bike_id":"8a60e927-6cbc-4fbc-bc5f-f81244ceae2d","system_id":"levelo_inurba_marseille","lat":43.28847,"lon":5.35851,"is_reserved":false,"is_disabled":false,"rental_uris":{"android":"levelo://app?vid=8a60e927-6cbc-4fbc-bc5f-f81244ceae2d","ios":"levelo://app?vid=8a60e927-6cbc-4fbc-bc5f-f81244ceae2d"},"vehicle_type_id":"4","last_reported":1741356530,"current_range_meters":16400,"station_id":"ce4bhb12rcd13ifvqem0","pricing_plan_id":"cebpf4jnsgd1na2vs0mg"},{"bike_id":"780a36c0-1795-41d3-8e2d-f101a7b1a3f3","system_id":"levelo_inurba_marseille","lat":43.24394,"lon":5.37058,"is_reserved":false,"is_disabled":false,"rental_uris":{"android":"levelo://app?vid=780a36c0-1795-41d3-8e2d-f101a7b1a3f3","ios":"levelo://app?vid=780a36c0-1795-41d3-8e2d-f101a7b1a3f3"},"vehicle_type_id":"4","last_reported":1741356530,"current_range_meters":16400,"station_id":"ce4bhhh2rcd13ifvqfk0","pricing_plan_id":"cebpf4jnsgd1na2vs0mg"},{"bike_id":"523dd7c5-08de-4faa-af09-359a3efdba9c","system_id":"levelo_inurba_marseille","lat":43.241771,"lon":5.397275,"is_reserved":false,"is_disabled":false,"rental_uris":{"android":"levelo://app?vid=523dd7c5-08de-4faa-af09-359a3efdba9c","ios":"levelo://app?vid=523dd7c5-08de-4faa-af09-359a3efdba9c"},"vehicle_type_id":"4","last_reported":1741356530,"current_range_meters":16400,"station_id":"ce4bhn12rcd13ifvqgpg","pricing_plan_id":"cebpf4jnsgd1na2vs0mg"},{"bike_id":"34fca5e7-8353-4d68-89e6-b1d671353da7","system_id":"levelo_inurba_marseille","lat":43.32383,"lon":5.38876,"is_reserved":false,"is_disabled":false,"rental_uris":{"android":"levelo://app?vid=34fca5e7-8353-4d68-89e6-b1d671353da7","ios":"levelo://app?vid=34fca5e7-8353-4d68-89e6-b1d671353da7"},"vehicle_type_id":"4","last_reported":1741356530,"current_range_meters":16400,"station_id":"ce4bhqp2rcd13ifvqhog","pricing_plan_id":"cebpf4jnsgd1na2vs0mg"},{"bike_id":"b2c2514d-58df-4080-9acc-0a3325c87525","system_id":"levelo_inurba_marseille","lat":43.32365,"lon":5.3676,"is_reserved":false,"is_disabled":false,"rental_uris":{"android":"levelo://app?vid=b2c2514d-58df-4080-9acc-0a3325c87525","ios":"levelo://app?vid=b2c2514d-58df-4080-9acc-0a3325c87525"},"vehicle_type_id":"4","last_reported":1741356530,"current_range_meters":16400,"station_id":"ce4bhsh2rcd13ifvqi2g","pricing_plan_id":"cebpf4jnsgd1na2vs0mg"},{"bike_id":"64a5cc5a-7018-4250-a1fa-6dc7c4e3d20c","system_id":"levelo_inurba_marseille","lat":43.30616,"lon":5.3723,"is_reserved":false,"is_disabled":false,"rental_uris":{"android":"levelo://app?vid=64a5cc5a-7018-4250-a1fa-6dc7c4e3d20c","ios":"levelo://app?vid=64a5cc5a-7018-4250-a1fa-6dc7c4e3d20c"},"vehicle_type_id":"4","last_reported":1741356530,"current_range_meters":16800,"station_id":"","pricing_plan_id":"cebpf4jnsgd1na2vs0mg"},{"bike_id":"fb9c1433-0dc4-48b5-a490-c0e32971c9e9","system_id":"levelo_inurba_marseille","lat":43.30147,"lon":5.38081,"is_reserved":false,"is_disabled":false,"rental_uris":{"android":"levelo://app?vid=fb9c1433-0dc4-48b5-a490-c0e32971c9e9","ios":"levelo://app?vid=fb9c1433-0dc4-48b5-a490-c0e32971c9e9"},"vehicle_type_id":"4","last_reported":1741356530,"current_range_meters":16800,"station_id":"ce4bgjp2rcd13ifvqbh0","pricing_plan_id":"cebpf4jnsgd1na2vs0mg"},{"bike_id":"aace270e-4298-43b3-adc0-6011539b3f8d","system_id":"levelo_inurba_marseille","lat":43.29871,"lon":5.3974,"is_reserved":false,"is_disabled":false,"rental_uris":{"android":"levelo://app?vid=aace270e-4298-43b3-adc0-6011539b3f8d","ios":"levelo://app?vid=aace270e-4298-43b3-adc0-6011539b3f8d"},"vehicle_type_id":"4","last_reported":1741356530,"current_range_meters":16800,"station_id":"ce4bh0h2rcd13ifvqd50","pricing_plan_id":"cebpf4jnsgd1na2vs0mg"},{"bike_id":"6e42a69d-c797-4f3c-9c4b-6507e9a2ca17","system_id":"levelo_inurba_marseille","lat":43.26789,"lon":5.39411,"is_reserved":false,"is_disabled":false,"rental_uris":{"android":"levelo://app?vid=6e42a69d-c797-4f3c-9c4b-6507e9a2ca17","ios":"levelo://app?vid=6e42a69d-c797-4f3c-9c4b-6507e9a2ca17"},"vehicle_type_id":"4","last_reported":1741356530,"current_range_meters":16800,"station_id":"ce4bhh12rcd13ifvqfg0","pricing_plan_id":"cebpf4jnsgd1na2vs0mg"},{"bike_id":"b5c24cbd-267c-4f6f-a2b7-cae0ed593a1f","system_id":"levelo_inurba_marseille","lat":43.27078,"lon":5.42279,"is_reserved":false,"is_disabled":false,"rental_uris":{"android":"levelo://app?vid=b5c24cbd-267c-4f6f-a2b7-cae0ed593a1f","ios":"levelo://app?vid=b5c24cbd-267c-4f6f-a2b7-cae0ed593a1f"},"vehicle_type_id":"4","last_reported":1741356530,"current_range_meters":16800,"station_id":"ce4bhk92rcd13ifvqgb0","pricing_plan_id":"cebpf4jnsgd1na2vs0mg"},{"bike_id":"3a74bef7-09f4-458f-a358-1870d6e3d7dd","system_id":"levelo_inurba_marseille","lat":43.27826,"lon":5.40691,"is_reserved":false,"is_disabled":false,"rental_uris":{"android":"levelo://app?vid=3a74bef7-09f4-458f-a358-1870d6e3d7dd","ios":"levelo://app?vid=3a74bef7-09f4-458f-a358-1870d6e3d7dd"},"vehicle_type_id":"4","last_reported":1741356530,"current_range_meters":16800,"station_id":"ce4bhnh2rcd13ifvqgtg","pricing_plan_id":"cebpf4jnsgd1na2vs0mg"},{"bike_id":"7f83edfb-f4fd-44dc-b885-c02b78c0e800","system_id":"levelo_inurba_marseille","lat":43.29532,"lon":5.37509,"is_reserved":false,"is_disabled":false,"rental_uris":{"android":"levelo://app?vid=7f83edfb-f4fd-44dc-b885-c02b78c0e800","ios":"levelo://app?vid=7f83edfb-f4fd-44dc-b885-c02b78c0e800"},"vehicle_type_id":"4","last_reported":1741356530,"current_range_meters":17200,"station_id":"ce4bgkp2rcd13ifvqbmg","pricing_plan_id":"cebpf4jnsgd1na2vs0mg"},{"bike_id":"88cf5d12-9812-4b9b-b63b-80248a00ff93","system_id":"levelo_inurba_marseille","lat":43.30596,"lon":5.37231,"is_reserved":false,"is_disabled":false,"rental_uris":{"android":"levelo://app?vid=88cf5d12-9812-4b9b-b63b-80248a00ff93","ios":"levelo://app?vid=88cf5d12-9812-4b9b-b63b-80248a00ff93"},"vehicle_type_id":"4","last_reported":1741356530,"current_range_meters":17200,"station_id":"ce4bgqh2rcd13ifvqc4g","pricing_plan_id":"cebpf4jnsgd1na2vs0mg"},{"bike_id":"040eaaa0-955a-4363-9330-c7bb68c720e3","system_id":"levelo_inurba_marseille","lat":43.28405,"lon":5.3751,"is_reserved":false,"is_disabled":false,"rental_uris":{"android":"levelo://app?vid=040eaaa0-955a-4363-9330-c7bb68c720e3","ios":"levelo://app?vid=040eaaa0-955a-4363-9330-c7bb68c720e3"},"vehicle_type_id":"4","last_reported":1741356530,"current_range_meters":17200,"station_id":"ce4bh412rcd13ifvqds0","pricing_plan_id":"cebpf4jnsgd1na2vs0mg"},{"bike_id":"c33a8483-45d6-48b0-93b0-066c45377e7f","system_id":"levelo_inurba_marseille","lat":43.26214,"lon":5.37445,"is_reserved":false,"is_disabled":false,"rental_uris":{"android":"levelo://app?vid=c33a8483-45d6-48b0-93b0-066c45377e7f","ios":"levelo://app?vid=c33a8483-45d6-48b0-93b0-066c45377e7f"},"vehicle_type_id":"4","last_reported":1741356530,"current_range_meters":17200,"station_id":"ce4bhgp2rcd13ifvqfc0","pricing_plan_id":"cebpf4jnsgd1na2vs0mg"},{"bike_id":"2e928b24-4137-4e20-8bb8-57cdf26ace17","system_id":"levelo_inurba_marseille","lat":43.284412,"lon":5.392113,"is_reserved":false,"is_disabled":false,"rental_uris":{"android":"levelo://app?vid=2e928b24-4137-4e20-8bb8-57cdf26ace17","ios":"levelo://app?vid=2e928b24-4137-4e20-8bb8-57cdf26ace17"},"vehicle_type_id":"4","last_reported":1741356530,"current_range_meters":17200,"station_id":"ce4bhoh2rcd13ifvqh5g","pricing_plan_id":"cebpf4jnsgd1na2vs0mg"},{"bike_id":"1ff664cb-f378-4a6c-b3c1-b47ee25a2174","system_id":"levelo_inurba_marseille","lat":43.3236,"lon":5.38873,"is_reserved":false,"is_disabled":false,"rental_uris":{"android":"levelo://app?vid=1ff664cb-f378-4a6c-b3c1-b47ee25a2174","ios":"levelo://app?vid=1ff664cb-f378-4a6c-b3c1-b47ee25a2174"},"vehicle_type_id":"4","last_reported":1741356530,"current_range_meters":17200,"station_id":"ce4bhqp2rcd13ifvqhog","pricing_plan_id":"cebpf4jnsgd1na2vs0mg"},{"bike_id":"c1c412b3-ae23-45ab-894a-fe5b494cc9e6","system_id":"levelo_inurba_marseille","lat":43.23188,"lon":5.3556,"is_reserved":false,"is_disabled":false,"rental_uris":{"android":"levelo://app?vid=c1c412b3-ae23-45ab-894a-fe5b494cc9e6","ios":"levelo://app?vid=c1c412b3-ae23-45ab-894a-fe5b494cc9e6"},"vehicle_type_id":"4","last_reported":1741356530,"current_range_meters":17200,"station_id":"ce4bhu92rcd13ifvqi70","pricing_plan_id":"cebpf4jnsgd1na2vs0mg"},{"bike_id":"f69bea4c-0471-4726-a4b6-42083f94e17c","system_id":"levelo_inurba_marseille","lat":43.30486,"lon":5.36577,"is_reserved":false,"is_disabled":false,"rental_uris":{"android":"levelo://app?vid=f69bea4c-0471-4726-a4b6-42083f94e17c","ios":"levelo://app?vid=f69bea4c-0471-4726-a4b6-42083f94e17c"},"vehicle_type_id":"4","last_reported":1741356530,"current_range_meters":17600,"station_id":"","pricing_plan_id":"cebpf4jnsgd1na2vs0mg"},{"bike_id":"9ad5802d-7dba-4b65-b21d-4e8eb8da3b61","system_id":"levelo_inurba_marseille","lat":43.30535,"lon":5.36545,"is_reserved":false,"is_disabled":false,"rental_uris":{"android":"levelo://app?vid=9ad5802d-7dba-4b65-b21d-4e8eb8da3b61","ios":"levelo://app?vid=9ad5802d-7dba-4b65-b21d-4e8eb8da3b61"},"vehicle_type_id":"4","last_reported":1741356530,"current_range_meters":17600,"station_id":"ce4bgs12rcd13ifvqcag","pricing_plan_id":"cebpf4jnsgd1na2vs0mg"},{"bike_id":"c223036a-82c7-462b-962e-64818e6a180b","system_id":"levelo_inurba_marseille","lat":43.30513,"lon":5.36566,"is_reserved":false,"is_disabled":false,"rental_uris":{"android":"levelo://app?vid=c223036a-82c7-462b-962e-64818e6a180b","ios":"levelo://app?vid=c223036a-82c7-462b-962e-64818e6a180b"},"vehicle_type_id":"4","last_reported":1741356530,"current_range_meters":17600,"station_id":"ce4bgs12rcd13ifvqcag","pricing_plan_id":"cebpf4jnsgd1na2vs0mg"},{"bike_id":"7f9a3d26-3db6-46d9-8528-4b9d05bfa92f","system_id":"levelo_inurba_marseille","lat":43.31513,"lon":5.37263,"is_reserved":false,"is_disabled":false,"rental_uris":{"android":"levelo://app?vid=7f9a3d26-3db6-46d9-8528-4b9d05bfa92f","ios":"levelo://app?vid=7f9a3d26-3db6-46d9-8528-4b9d05bfa92f"},"vehicle_type_id":"4","last_reported":1741356530,"current_range_meters":17600,"station_id":"ce4bgt12rcd13ifvqcd0","pricing_plan_id":"cebpf4jnsgd1na2vs0mg"},{"bike_id":"e7a47a36-4c7a-4d18-9556-80e0688c24b2","system_id":"levelo_inurba_marseille","lat":43.3026,"lon":5.37687,"is_reserved":false,"is_disabled":false,"rental_uris":{"android":"levelo://app?vid=e7a47a36-4c7a-4d18-9556-80e0688c24b2","ios":"levelo://app?vid=e7a47a36-4c7a-4d18-9556-80e0688c24b2"},"vehicle_type_id":"4","last_reported":1741356530,"current_range_meters":17600,"station_id":"ce4bguh2rcd13ifvqcj0","pricing_plan_id":"cebpf4jnsgd1na2vs0mg"},{"bike_id":"e7eecb6c-aac4-4dc0-bc93-3ae7881ab617","system_id":"levelo_inurba_marseille","lat":43.28575,"lon":5.39499,"is_reserved":false,"is_disabled":false,"rental_uris":{"android":"levelo://app?vid=e7eecb6c-aac4-4dc0-bc93-3ae7881ab617","ios":"levelo://app?vid=e7eecb6c-aac4-4dc0-bc93-3ae7881ab617"},"vehicle_type_id":"4","last_reported":1741356530,"current_range_meters":17600,"station_id":"ce4bh292rcd13ifvqdg0","pricing_plan_id":"cebpf4jnsgd1na2vs0mg"},{"bike_id":"8ea36d85-c019-4002-b279-fc3f8739ee38","system_id":"levelo_inurba_marseille","lat":43.29003,"lon":5.35617,"is_reserved":false,"is_disabled":false,"rental_uris":{"android":"levelo://app?vid=8ea36d85-c019-4002-b279-fc3f8739ee38","ios":"levelo://app?vid=8ea36d85-c019-4002-b279-fc3f8739ee38"},"vehicle_type_id":"4","last_reported":1741356530,"current_range_meters":17600,"station_id":"ce4bhb92rcd13ifvqen0","pricing_plan_id":"cebpf4jnsgd1na2vs0mg"},{"bike_id":"27ab3f75-d5ee-43a9-8ddd-f6fbab7edacb","system_id":"levelo_inurba_marseille","lat":43.32104,"lon":5.36779,"is_reserved":false,"is_disabled":false,"rental_uris":{"android":"levelo://app?vid=27ab3f75-d5ee-43a9-8ddd-f6fbab7edacb","ios":"levelo://app?vid=27ab3f75-d5ee-43a9-8ddd-f6fbab7edacb"},"vehicle_type_id":"4","last_reported":1741356530,"current_range_meters":17600,"station_id":"ce4bhrh2rcd13ifvqhug","pricing_plan_id":"cebpf4jnsgd1na2vs0mg"},{"bike_id":"fbf804d7-6c73-46e9-abdb-acb74deb6dc4","system_id":"levelo_inurba_marseille","lat":43.23069,"lon":5.35493,"is_reserved":false,"is_disabled":false,"rental_uris":{"android":"levelo://app?vid=fbf804d7-6c73-46e9-abdb-acb74deb6dc4","ios":"levelo://app?vid=fbf804d7-6c73-46e9-abdb-acb74deb6dc4"},"vehicle_type_id":"4","last_reported":1741356530,"current_range_meters":17600,"station_id":"cpo3342slgdg3j2ifvpg","pricing_plan_id":"cebpf4jnsgd1na2vs0mg"},{"bike_id":"ae87a801-582c-4615-ae7e-e31536705282","system_id":"levelo_inurba_marseille","lat":43.33789,"lon":5.37359,"is_reserved":false,"is_disabled":false,"rental_uris":{"android":"levelo://app?vid=ae87a801-582c-4615-ae7e-e31536705282","ios":"levelo://app?vid=ae87a801-582c-4615-ae7e-e31536705282"},"vehicle_type_id":"4","last_reported":1741356530,"current_range_meters":18000,"station_id":"","pricing_plan_id":"cebpf4jnsgd1na2vs0mg"},{"bike_id":"981d4d7f-1709-460e-ac0d-bf5b333fba9e","system_id":"levelo_inurba_marseille","lat":43.30152,"lon":5.38092,"is_reserved":false,"is_disabled":false,"rental_uris":{"android":"levelo://app?vid=981d4d7f-1709-460e-ac0d-bf5b333fba9e","ios":"levelo://app?vid=981d4d7f-1709-460e-ac0d-bf5b333fba9e"},"vehicle_type_id":"4","last_reported":1741356530,"current_range_meters":18000,"station_id":"ce4bgjp2rcd13ifvqbh0","pricing_plan_id":"cebpf4jnsgd1na2vs0mg"},{"bike_id":"2d3823f5-ee82-4c35-9bbd-a3c240efd0ae","system_id":"levelo_inurba_marseille","lat":43.30191,"lon":5.366,"is_reserved":false,"is_disabled":false,"rental_uris":{"android":"levelo://app?vid=2d3823f5-ee82-4c35-9bbd-a3c240efd0ae","ios":"levelo://app?vid=2d3823f5-ee82-4c35-9bbd-a3c240efd0ae"},"vehicle_type_id":"4","last_reported":1741356530,"current_range_meters":18000,"station_id":"ce4bgrh2rcd13ifvqc8g","pricing_plan_id":"cebpf4jnsgd1na2vs0mg"},{"bike_id":"3384d5cb-416c-4d35-a734-ad250885bf2f","system_id":"levelo_inurba_marseille","lat":43.31357,"lon":5.38492,"is_reserved":false,"is_disabled":false,"rental_uris":{"android":"levelo://app?vid=3384d5cb-416c-4d35-a734-ad250885bf2f","ios":"levelo://app?vid=3384d5cb-416c-4d35-a734-ad250885bf2f"},"vehicle_type_id":"4","last_reported":1741356530,"current_range_meters":18000,"station_id":"ce4bgt92rcd13ifvqcf0","pricing_plan_id":"cebpf4jnsgd1na2vs0mg"},{"bike_id":"20aaeac2-cc56-440b-8c49-c36b7f251adb","system_id":"levelo_inurba_marseille","lat":43.26497,"lon":5.39546,"is_reserved":false,"is_disabled":false,"rental_uris":{"android":"levelo://app?vid=20aaeac2-cc56-440b-8c49-c36b7f251adb","ios":"levelo://app?vid=20aaeac2-cc56-440b-8c49-c36b7f251adb"},"vehicle_type_id":"4","last_reported":1741356530,"current_range_meters":18000,"station_id":"ce4bhi12rcd13ifvqfq0","pricing_plan_id":"cebpf4jnsgd1na2vs0mg"},{"bike_id":"2f98bb44-1abf-4ac0-9263-251e1063b869","system_id":"levelo_inurba_marseille","lat":43.29717,"lon":5.37689,"is_reserved":false,"is_disabled":false,"rental_uris":{"android":"levelo://app?vid=2f98bb44-1abf-4ac0-9263-251e1063b869","ios":"levelo://app?vid=2f98bb44-1abf-4ac0-9263-251e1063b869"},"vehicle_type_id":"4","last_reported":1741356530,"current_range_meters":18800,"station_id":"ce4bgkh2rcd13ifvqbl0","pricing_plan_id":"cebpf4jnsgd1na2vs0mg"},{"bike_id":"e70ee430-0abc-4d8e-a2f2-755e0d8e4f2e","system_id":"levelo_inurba_marseille","lat":43.30643,"lon":5.40097,"is_reserved":false,"is_disabled":false,"rental_uris":{"android":"levelo://app?vid=e70ee430-0abc-4d8e-a2f2-755e0d8e4f2e","ios":"levelo://app?vid=e70ee430-0abc-4d8e-a2f2-755e0d8e4f2e"},"vehicle_type_id":"4","last_reported":1741356530,"current_range_meters":18800,"station_id":"ce4bh112rcd13ifvqda0","pricing_plan_id":"cebpf4jnsgd1na2vs0mg"},{"bike_id":"2bd6c752-d5cd-47c3-a83d-7d783a91d2b2","system_id":"levelo_inurba_marseille","lat":43.25013,"lon":5.3889,"is_reserved":false,"is_disabled":false,"rental_uris":{"android":"levelo://app?vid=2bd6c752-d5cd-47c3-a83d-7d783a91d2b2","ios":"levelo://app?vid=2bd6c752-d5cd-47c3-a83d-7d783a91d2b2"},"vehicle_type_id":"4","last_reported":1741356530,"current_range_meters":18800,"station_id":"ce4bhgp2rcd13ifvqfd0","pricing_plan_id":"cebpf4jnsgd1na2vs0mg"},{"bike_id":"e38fdd6b-9037-48d0-bf51-29371898881f","system_id":"levelo_inurba_marseille","lat":43.2503,"lon":5.38912,"is_reserved":false,"is_disabled":false,"rental_uris":{"android":"levelo://app?vid=e38fdd6b-9037-48d0-bf51-29371898881f","ios":"levelo://app?vid=e38fdd6b-9037-48d0-bf51-29371898881f"},"vehicle_type_id":"4","last_reported":1741356530,"current_range_meters":18800,"station_id":"ce4bhgp2rcd13ifvqfd0","pricing_plan_id":"cebpf4jnsgd1na2vs0mg"},{"bike_id":"e4e254a5-0a3b-4b78-b88b-6dd2427114a0","system_id":"levelo_inurba_marseille","lat":43.313232,"lon":5.396951,"is_reserved":false,"is_disabled":false,"rental_uris":{"android":"levelo://app?vid=e4e254a5-0a3b-4b78-b88b-6dd2427114a0","ios":"levelo://app?vid=e4e254a5-0a3b-4b78-b88b-6dd2427114a0"},"vehicle_type_id":"4","last_reported":1741356530,"current_range_meters":18800,"station_id":"ce4bhu92rcd13ifvqi70","pricing_plan_id":"cebpf4jnsgd1na2vs0mg"},{"bike_id":"e7be0afe-d86f-415f-b846-06a32ba343e6","system_id":"levelo_inurba_marseille","lat":43.29622,"lon":5.3772,"is_reserved":false,"is_disabled":false,"rental_uris":{"android":"levelo://app?vid=e7be0afe-d86f-415f-b846-06a32ba343e6","ios":"levelo://app?vid=e7be0afe-d86f-415f-b846-06a32ba343e6"},"vehicle_type_id":"4","last_reported":1741356530,"current_range_meters":19200,"station_id":"ce4bgi92rcd13ifvqb90","pricing_plan_id":"cebpf4jnsgd1na2vs0mg"},{"bike_id":"79bac43d-1e84-42a0-9859-8f97931b5e63","system_id":"levelo_inurba_marseille","lat":43.29536,"lon":5.38543,"is_reserved":false,"is_disabled":false,"rental_uris":{"android":"levelo://app?vid=79bac43d-1e84-42a0-9859-8f97931b5e63","ios":"levelo://app?vid=79bac43d-1e84-42a0-9859-8f97931b5e63"},"vehicle_type_id":"4","last_reported":1741356530,"current_range_meters":19200,"station_id":"ce4bgih2rcd13ifvqba0","pricing_plan_id":"cebpf4jnsgd1na2vs0mg"},{"bike_id":"8fc538c6-17d2-4631-b427-47a992cb0573","system_id":"levelo_inurba_marseille","lat":43.29796,"lon":5.38086,"is_reserved":false,"is_disabled":false,"rental_uris":{"android":"levelo://app?vid=8fc538c6-17d2-4631-b427-47a992cb0573","ios":"levelo://app?vid=8fc538c6-17d2-4631-b427-47a992cb0573"},"vehicle_type_id":"4","last_reported":1741356530,"current_range_meters":19200,"station_id":"ce4bgip2rcd13ifvqbb0","pricing_plan_id":"cebpf4jnsgd1na2vs0mg"},{"bike_id":"162899ba-c65e-4053-8e45-15f556109540","system_id":"levelo_inurba_marseille","lat":43.296,"lon":5.3813,"is_reserved":false,"is_disabled":false,"rental_uris":{"android":"levelo://app?vid=162899ba-c65e-4053-8e45-15f556109540","ios":"levelo://app?vid=162899ba-c65e-4053-8e45-15f556109540"},"vehicle_type_id":"4","last_reported":1741356530,"current_range_meters":19200,"station_id":"ce4bgl12rcd13ifvqbo0","pricing_plan_id":"cebpf4jnsgd1na2vs0mg"},{"bike_id":"e12ae23d-fad1-4118-bfd6-324683d83df3","system_id":"levelo_inurba_marseille","lat":43.30905,"lon":5.36842,"is_reserved":false,"is_disabled":false,"rental_uris":{"android":"levelo://app?vid=e12ae23d-fad1-4118-bfd6-324683d83df3","ios":"levelo://app?vid=e12ae23d-fad1-4118-bfd6-324683d83df3"},"vehicle_type_id":"4","last_reported":1741356530,"current_range_meters":19200,"station_id":"ce4bgn92rcd13ifvqbvg","pricing_plan_id":"cebpf4jnsgd1na2vs0mg"},{"bike_id":"67d60197-9f52-4c05-a2f4-9a72e4fba767","system_id":"levelo_inurba_marseille","lat":43.30531,"lon":5.36713,"is_reserved":false,"is_disabled":false,"rental_uris":{"android":"levelo://app?vid=67d60197-9f52-4c05-a2f4-9a72e4fba767","ios":"levelo://app?vid=67d60197-9f52-4c05-a2f4-9a72e4fba767"},"vehicle_type_id":"4","last_reported":1741356530,"current_range_meters":19200,"station_id":"ce4bgrp2rcd13ifvqc9g","pricing_plan_id":"cebpf4jnsgd1na2vs0mg"},{"bike_id":"9d5b824a-cc91-4fd5-8f4f-f20d4a403471","system_id":"levelo_inurba_marseille","lat":43.30528,"lon":5.36528,"is_reserved":false,"is_disabled":false,"rental_uris":{"android":"levelo://app?vid=9d5b824a-cc91-4fd5-8f4f-f20d4a403471","ios":"levelo://app?vid=9d5b824a-cc91-4fd5-8f4f-f20d4a403471"},"vehicle_type_id":"4","last_reported":1741356530,"current_range_meters":19200,"station_id":"ce4bgs12rcd13ifvqcag","pricing_plan_id":"cebpf4jnsgd1na2vs0mg"},{"bike_id":"7e3989fc-564f-472b-ab6a-edc0bd99fa20","system_id":"levelo_inurba_marseille","lat":43.25579,"lon":5.38235,"is_reserved":false,"is_disabled":false,"rental_uris":{"android":"levelo://app?vid=7e3989fc-564f-472b-ab6a-edc0bd99fa20","ios":"levelo://app?vid=7e3989fc-564f-472b-ab6a-edc0bd99fa20"},"vehicle_type_id":"4","last_reported":1741356530,"current_range_meters":19200,"station_id":"ce4bhih2rcd13ifvqfs0","pricing_plan_id":"cebpf4jnsgd1na2vs0mg"},{"bike_id":"095d9267-ecd3-4be4-91a9-c0dd88975959","system_id":"levelo_inurba_marseille","lat":43.29275,"lon":5.40922,"is_reserved":false,"is_disabled":false,"rental_uris":{"android":"levelo://app?vid=095d9267-ecd3-4be4-91a9-c0dd88975959","ios":"levelo://app?vid=095d9267-ecd3-4be4-91a9-c0dd88975959"},"vehicle_type_id":"4","last_reported":1741356530,"current_range_meters":19600,"station_id":"ce4bh192rcd13ifvqdc0","pricing_plan_id":"cebpf4jnsgd1na2vs0mg"},{"bike_id":"a5fcb0ed-ee78-4fb0-8884-a90ea745c4d2","system_id":"levelo_inurba_marseille","lat":43.254102,"lon":5.376325,"is_reserved":false,"is_disabled":false,"rental_uris":{"android":"levelo://app?vid=a5fcb0ed-ee78-4fb0-8884-a90ea745c4d2","ios":"levelo://app?vid=a5fcb0ed-ee78-4fb0-8884-a90ea745c4d2"},"vehicle_type_id":"4","last_reported":1741356530,"current_range_meters":19600,"station_id":"ce4bhh12rcd13ifvqff0","pricing_plan_id":"cebpf4jnsgd1na2vs0mg"},{"bike_id":"b51b9c19-bd6d-47f8-989c-88e7af7fc7af","system_id":"levelo_inurba_marseille","lat":43.29911,"lon":5.37472,"is_reserved":false,"is_disabled":false,"rental_uris":{"android":"levelo://app?vid=b51b9c19-bd6d-47f8-989c-88e7af7fc7af","ios":"levelo://app?vid=b51b9c19-bd6d-47f8-989c-88e7af7fc7af"},"vehicle_type_id":"4","last_reported":1741356530,"current_range_meters":20000,"station_id":"ce4bgjh2rcd13ifvqbg0","pricing_plan_id":"cebpf4jnsgd1na2vs0mg"},{"bike_id":"d70992c6-f740-435d-a391-00a886677eba","system_id":"levelo_inurba_marseille","lat":43.29603,"lon":5.38109,"is_reserved":false,"is_disabled":false,"rental_uris":{"android":"levelo://app?vid=d70992c6-f740-435d-a391-00a886677eba","ios":"levelo://app?vid=d70992c6-f740-435d-a391-00a886677eba"},"vehicle_type_id":"4","last_reported":1741356530,"current_range_meters":20000,"station_id":"ce4bgl12rcd13ifvqbo0","pricing_plan_id":"cebpf4jnsgd1na2vs0mg"},{"bike_id":"266a33ff-b076-4216-9ccb-18bb79fd470d","system_id":"levelo_inurba_marseille","lat":43.29845,"lon":5.36277,"is_reserved":false,"is_disabled":false,"rental_uris":{"android":"levelo://app?vid=266a33ff-b076-4216-9ccb-18bb79fd470d","ios":"levelo://app?vid=266a33ff-b076-4216-9ccb-18bb79fd470d"},"vehicle_type_id":"4","last_reported":1741356530,"current_range_meters":20000,"station_id":"ce4bgpp2rcd13ifvqc3g","pricing_plan_id":"cebpf4jnsgd1na2vs0mg"},{"bike_id":"24c8e4a4-b462-40fd-a23f-61102ab95a75","system_id":"levelo_inurba_marseille","lat":43.30533,"lon":5.36726,"is_reserved":false,"is_disabled":false,"rental_uris":{"android":"levelo://app?vid=24c8e4a4-b462-40fd-a23f-61102ab95a75","ios":"levelo://app?vid=24c8e4a4-b462-40fd-a23f-61102ab95a75"},"vehicle_type_id":"4","last_reported":1741356530,"current_range_meters":20000,"station_id":"ce4bgrp2rcd13ifvqc9g","pricing_plan_id":"cebpf4jnsgd1na2vs0mg"},{"bike_id":"0cf402c8-0db1-4c58-9a5b-6dc9293bb619","system_id":"levelo_inurba_marseille","lat":43.30299,"lon":5.37703,"is_reserved":false,"is_disabled":false,"rental_uris":{"android":"levelo://app?vid=0cf402c8-0db1-4c58-9a5b-6dc9293bb619","ios":"levelo://app?vid=0cf402c8-0db1-4c58-9a5b-6dc9293bb619"},"vehicle_type_id":"4","last_reported":1741356530,"current_range_meters":20000,"station_id":"ce4bguh2rcd13ifvqcj0","pricing_plan_id":"cebpf4jnsgd1na2vs0mg"},{"bike_id":"9cc6456e-4963-47aa-bac3-9961c5e9c94c","system_id":"levelo_inurba_marseille","lat":43.30076,"lon":5.390552,"is_reserved":false,"is_disabled":false,"rental_uris":{"android":"levelo://app?vid=9cc6456e-4963-47aa-bac3-9961c5e9c94c","ios":"levelo://app?vid=9cc6456e-4963-47aa-bac3-9961c5e9c94c"},"vehicle_type_id":"4","last_reported":1741356530,"current_range_meters":20000,"station_id":"ce4bgvh2rcd13ifvqcs0","pricing_plan_id":"cebpf4jnsgd1na2vs0mg"},{"bike_id":"aacce519-54e3-4dd8-a60f-417f7fb7a027","system_id":"levelo_inurba_marseille","lat":43.31331,"lon":5.39695,"is_reserved":false,"is_disabled":false,"rental_uris":{"android":"levelo://app?vid=aacce519-54e3-4dd8-a60f-417f7fb7a027","ios":"levelo://app?vid=aacce519-54e3-4dd8-a60f-417f7fb7a027"},"vehicle_type_id":"4","last_reported":1741356530,"current_range_meters":20000,"station_id":"ce4bgvp2rcd13ifvqcu0","pricing_plan_id":"cebpf4jnsgd1na2vs0mg"},{"bike_id":"6a9d05ad-23f7-41bb-af6f-4d2ee1afeb9c","system_id":"levelo_inurba_marseille","lat":43.29039,"lon":5.39971,"is_reserved":false,"is_disabled":false,"rental_uris":{"android":"levelo://app?vid=6a9d05ad-23f7-41bb-af6f-4d2ee1afeb9c","ios":"levelo://app?vid=6a9d05ad-23f7-41bb-af6f-4d2ee1afeb9c"},"vehicle_type_id":"4","last_reported":1741356530,"current_range_meters":20000,"station_id":"ce4bh392rcd13ifvqdm0","pricing_plan_id":"cebpf4jnsgd1na2vs0mg"},{"bike_id":"de69e9b3-211e-46ce-8f5a-c46d2a006367","system_id":"levelo_inurba_marseille","lat":43.26555,"lon":5.37285,"is_reserved":false,"is_disabled":false,"rental_uris":{"android":"levelo://app?vid=de69e9b3-211e-46ce-8f5a-c46d2a006367","ios":"levelo://app?vid=de69e9b3-211e-46ce-8f5a-c46d2a006367"},"vehicle_type_id":"4","last_reported":1741356530,"current_range_meters":20000,"station_id":"ce4bhg12rcd13ifvqf70","pricing_plan_id":"cebpf4jnsgd1na2vs0mg"},{"bike_id":"f87dce4e-8da4-4971-8aaf-2603743f8b98","system_id":"levelo_inurba_marseille","lat":43.27318,"lon":5.39097,"is_reserved":false,"is_disabled":false,"rental_uris":{"android":"levelo://app?vid=f87dce4e-8da4-4971-8aaf-2603743f8b98","ios":"levelo://app?vid=f87dce4e-8da4-4971-8aaf-2603743f8b98"},"vehicle_type_id":"4","last_reported":1741356530,"current_range_meters":20000,"station_id":"ce4bhgp2rcd13ifvqfe0","pricing_plan_id":"cebpf4jnsgd1na2vs0mg"},{"bike_id":"ddbf563b-7101-4678-8660-adf83c7078a2","system_id":"levelo_inurba_marseille","lat":43.28724,"lon":5.36096,"is_reserved":false,"is_disabled":false,"rental_uris":{"android":"levelo://app?vid=ddbf563b-7101-4678-8660-adf83c7078a2","ios":"levelo://app?vid=ddbf563b-7101-4678-8660-adf83c7078a2"},"vehicle_type_id":"4","last_reported":1741356530,"current_range_meters":20000,"station_id":"cki0cbj6b192h4jlfktg","pricing_plan_id":"cebpf4jnsgd1na2vs0mg"},{"bike_id":"9ca80f1d-375f-4f52-bf88-119973f9a2c3","system_id":"levelo_inurba_marseille","lat":43.29656,"lon":5.41268,"is_reserved":false,"is_disabled":false,"rental_uris":{"android":"levelo://app?vid=9ca80f1d-375f-4f52-bf88-119973f9a2c3","ios":"levelo://app?vid=9ca80f1d-375f-4f52-bf88-119973f9a2c3"},"vehicle_type_id":"4","last_reported":1741356530,"current_range_meters":20400,"station_id":"","pricing_plan_id":"cebpf4jnsgd1na2vs0mg"},{"bike_id":"13b1a039-a44a-4f0c-8e2c-a1d5f57606e3","system_id":"levelo_inurba_marseille","lat":43.30136,"lon":5.38075,"is_reserved":false,"is_disabled":false,"rental_uris":{"android":"levelo://app?vid=13b1a039-a44a-4f0c-8e2c-a1d5f57606e3","ios":"levelo://app?vid=13b1a039-a44a-4f0c-8e2c-a1d5f57606e3"},