{"last_updated":1724951284,"ttl":30,"version":"2.2","data":{"bikes":[{"bike_id":"193001d8-06fc-4f52-a4b2-498f639303b9","system_id":"levelo_inurba_marseille","lat":43.31455,"lon":5.37393,"is_reserved":false,"is_disabled":false,"rental_uris":{"android":"levelo://app?vid=193001d8-06fc-4f52-a4b2-498f639303b9","ios":"levelo://app?vid=193001d8-06fc-4f52-a4b2-498f639303b9"},"vehicle_type_id":"4","last_reported":1724951285,"current_range_meters":30400,"station_id":"","pricing_plan_id":"cebpf4jnsgd1na2vs0mg"},{"bike_id":"6c15e696-b91c-4c86-b76c-314d3fedea64","system_id":"levelo_inurba_marseille","lat":43.305467,"lon":5.366774,"is_reserved":false,"is_disabled":false,"rental_uris":{"android":"levelo://app?vid=6c15e696-b91c-4c86-b76c-314d3fedea64","ios":"levelo://app?vid=6c15e696-b91c-4c86-b76c-314d3fedea64"},"vehicle_type_id":"4","last_reported":1724951285,"current_range_meters":800,"station_id":"ce4bgrp2rcd13ifvqc9g","pricing_plan_id":"cebpf4jnsgd1na2vs0mg"},{"bike_id":"c2ba372a-4945-480c-bbfc-c6ea39a15895","system_id":"levelo_inurba_marseille","lat":43.305714,"lon":5.365633,"is_reserved":false,"is_disabled":false,"rental_uris":{"android":"levelo://app?vid=c2ba372a-4945-480c-bbfc-c6ea39a15895","ios":"levelo://app?vid=c2ba372a-4945-480c-bbfc-c6ea39a15895"},"vehicle_type_id":"4","last_reported":1724951285,"current_range_meters":18800,"station_id":"ce4bgs12rcd13ifvqcag","pricing_plan_id":"cebpf4jnsgd1na2vs0mg"},{"bike_id":"9999db5e-4375-4736-aff7-6e12117a64d9","system_id":"levelo_inurba_marseille","lat":43.305706,"lon":5.365654,"is_reserved":false,"is_disabled":false,"rental_uris":{"android":"levelo://app?vid=9999db5e-4375-4736-aff7-6e12117a64d9","ios":"levelo://app?vid=9999db5e-4375-4736-aff7-6e12117a64d9"},"vehicle_type_id":"4","last_reported":1724951285,"current_range_meters":5600,"station_id":"ce4bgs12rcd13ifvqcag","pricing_plan_id":"cebpf4jnsgd1na2vs0mg"},{"bike_id":"62d9813b-15c4-4226-9236-2fef8f4076c0","system_id":"levelo_inurba_marseille","lat":43.305989,"lon":5.37225,"is_reserved":false,"is_disabled":false,"rental_uris":{"android":"levelo://app?vid=62d9813b-15c4-4226-9236-2fef8f4076c0","ios":"levelo://app?vid=62d9813b-15c4-4226-9236-2fef8f4076c0"},"vehicle_type_id":"4","last_reported":1724951285,"current_range_meters":15200,"station_id":"ce4bgqh2rcd13ifvqc4g","pricing_plan_id":"cebpf4jnsgd1na2vs0mg"},{"bike_id":"b6f15ff9-519d-4d73-adc4-d17e0362ee98","system_id":"levelo_inurba_marseille","lat":43.305989,"lon":5.37225,"is_reserved":false,"is_disabled":false,"rental_uris":{"android":"levelo://app?vid=b6f15ff9-519d-4d73-adc4-d17e0362ee98","ios":"levelo://app?vid=b6f15ff9-519d-4d73-adc4-d17e0362ee98"},"vehicle_type_id":"4","last_reported":1724951285,"current_range_meters":10000,"station_id":"ce4bgqh2rcd13ifvqc4g","pricing_plan_id":"cebpf4jnsgd1na2vs0mg"},{"bike_id":"f12c8c36-6f26-4eaf-87a6-6f3380636d2c","system_id":"levelo_inurba_marseille","lat":43.305989,"lon":5.37225,"is_reserved":false,"is_disabled":false,"rental_uris":{"android":"levelo://app?vid=f12c8c36-6f26-4eaf-87a6-6f3380636d2c","ios":"levelo://app?vid=f12c8c36-6f26-4eaf-87a6-6f3380636d2c"},"vehicle_type_id":"4","last_reported":1724951285,"current_range_meters":5200,"station_id":"ce4bgqh2rcd13ifvqc4g","pricing_plan_id":"cebpf4jnsgd1na2vs0mg"},{"bike_id":"9feb6a23-8fdd-4dea-9019-43a2ed6a0126","system_id":"levelo_inurba_marseille","lat":43.305989,"lon":5.37225,"is_reserved":false,"is_disabled":false,"rental_uris":{"android":"levelo://app?vid=9feb6a23-8fdd-4dea-9019-43a2ed6a0126","ios":"levelo://app?vid=9feb6a23-8fdd-4dea-9019-43a2ed6a0126"},"vehicle_type_id":"4","last_reported":1724951285,"current_range_meters":3200,"station_id":"ce4bgqh2rcd13ifvqc4g","pricing_plan_id":"cebpf4jnsgd1na2vs0mg"},{"bike_id":"d612f419-d45d-41fb-968b-1bff4221f81b","system_id":"levelo_inurba_marseille","lat":43.305989,"lon":5.37225,"is_reserved":false,"is_disabled":false,"rental_uris":{"android":"levelo://app?vid=d612f419-d45d-41fb-968b-1bff4221f81b","ios":"levelo://app?vid=d612f419-d45d-41fb-968b-1bff4221f81b"},"vehicle_type_id":"4","last_reported":1724951285,"current_range_meters":5200,"station_id":"ce4bgqh2rcd13ifvqc4g","pricing_plan_id":"cebpf4jnsgd1na2vs0mg"},{"bike_id":"da36400c-3534-4807-8042-66c2318ec7c2","system_id":"levelo_inurba_marseille","lat":43.307945,"lon":5.376487,"is_reserved":false,"is_disabled":false,"rental_uris":{"android":"levelo://app?vid=da36400c-3534-4807-8042-66c2318ec7c2","ios":"levelo://app?vid=da36400c-3534-4807-8042-66c2318ec7c2"},"vehicle_type_id":"4","last_reported":1724951285,"current_range_meters":0,"station_id":"ce4bgv92rcd13ifvqcq0","pricing_plan_id":"cebpf4jnsgd1na2vs0mg"},{"bike_id":"9906f117-8036-4634-930a-b5bbe2d950dc","system_id":"levelo_inurba_marseille","lat":43.317075,"lon":5.377367,"is_reserved":false,"is_disabled":false,"rental_uris":{"android":"levelo://app?vid=9906f117-8036-4634-930a-b5bbe2d950dc","ios":"levelo://app?vid=9906f117-8036-4634-930a-b5bbe2d950dc"},"vehicle_type_id":"4","last_reported":1724951285,"current_range_meters":20400,"station_id":"ce4bgth2rcd13ifvqch0","pricing_plan_id":"cebpf4jnsgd1na2vs0mg"},{"bike_id":"65e0bf34-40f7-4627-8217-5d39ab1eb12b","system_id":"levelo_inurba_marseille","lat":43.317075,"lon":5.377367,"is_reserved":false,"is_disabled":false,"rental_uris":{"android":"levelo://app?vid=65e0bf34-40f7-4627-8217-5d39ab1eb12b","ios":"levelo://app?vid=65e0bf34-40f7-4627-8217-5d39ab1eb12b"},"vehicle_type_id":"4","last_reported":1724951285,"current_range_meters":14000,"station_id":"ce4bgth2rcd13ifvqch0","pricing_plan_id":"cebpf4jnsgd1na2vs0mg"},{"bike_id":"9f0c8654-86d9-461b-9036-3c58e911ea2b","system_id":"levelo_inurba_marseille","lat":43.31693,"lon":5.3779,"is_reserved":false,"is_disabled":false,"rental_uris":{"android":"levelo://app?vid=9f0c8654-86d9-461b-9036-3c58e911ea2b","ios":"levelo://app?vid=9f0c8654-86d9-461b-9036-3c58e911ea2b"},"vehicle_type_id":"4","last_reported":1724951285,"current_range_meters":8000,"station_id":"ce4bgth2rcd13ifvqch0","pricing_plan_id":"cebpf4jnsgd1na2vs0mg"},{"bike_id":"3a50f6e8-8fb1-424e-9de4-7699148e3aab","system_id":"levelo_inurba_marseille","lat":43.303046,"lon":5.368981,"is_reserved":false,"is_disabled":false,"rental_uris":{"android":"levelo://app?vid=3a50f6e8-8fb1-424e-9de4-7699148e3aab","ios":"levelo://app?vid=3a50f6e8-8fb1-424e-9de4-7699148e3aab"},"vehicle_type_id":"4","last_reported":1724951285,"current_range_meters":1600,"station_id":"ce4bgqh2rcd13ifvqc5g","pricing_plan_id":"cebpf4jnsgd1na2vs0mg"},{"bike_id":"4aa2c883-d259-4497-bbd7-46f4535fdacf","system_id":"levelo_inurba_marseille","lat":43.316385,"lon":5.37933,"is_reserved":false,"is_disabled":false,"rental_uris":{"android":"levelo://app?vid=4aa2c883-d259-4497-bbd7-46f4535fdacf","ios":"levelo://app?vid=4aa2c883-d259-4497-bbd7-46f4535fdacf"},"vehicle_type_id":"4","last_reported":1724951285,"current_range_meters":22800,"station_id":"","pricing_plan_id":"cebpf4jnsgd1na2vs0mg"},{"bike_id":"3fa52dc7-33c9-4165-a57a-162bfe5d18ea","system_id":"levelo_inurba_marseille","lat":43.30304,"lon":5.368987,"is_reserved":false,"is_disabled":false,"rental_uris":{"android":"levelo://app?vid=3fa52dc7-33c9-4165-a57a-162bfe5d18ea","ios":"levelo://app?vid=3fa52dc7-33c9-4165-a57a-162bfe5d18ea"},"vehicle_type_id":"4","last_reported":1724951285,"current_range_meters":1600,"station_id":"ce4bgqh2rcd13ifvqc5g","pricing_plan_id":"cebpf4jnsgd1na2vs0mg"},{"bike_id":"e5ae9999-bccf-4358-bd09-3b3ae9887ce4","system_id":"levelo_inurba_marseille","lat":43.303046,"lon":5.368981,"is_reserved":false,"is_disabled":false,"rental_uris":{"android":"levelo://app?vid=e5ae9999-bccf-4358-bd09-3b3ae9887ce4","ios":"levelo://app?vid=e5ae9999-bccf-4358-bd09-3b3ae9887ce4"},"vehicle_type_id":"4","last_reported":1724951285,"current_range_meters":1200,"station_id":"ce4bgqh2rcd13ifvqc5g","pricing_plan_id":"cebpf4jnsgd1na2vs0mg"},{"bike_id":"e3e191e9-0b6c-474f-be7d-42079fa0142e","system_id":"levelo_inurba_marseille","lat":43.303046,"lon":5.368981,"is_reserved":false,"is_disabled":false,"rental_uris":{"android":"levelo://app?vid=e3e191e9-0b6c-474f-be7d-42079fa0142e","ios":"levelo://app?vid=e3e191e9-0b6c-474f-be7d-42079fa0142e"},"vehicle_type_id":"4","last_reported":1724951285,"current_range_meters":7600,"station_id":"ce4bgqh2rcd13ifvqc5g","pricing_plan_id":"cebpf4jnsgd1na2vs0mg"},{"bike_id":"eea28ad3-afe7-4db0-ba3b-b798b690e9c0","system_id":"levelo_inurba_marseille","lat":43.315289,"lon":5.380349,"is_reserved":false,"is_disabled":false,"rental_uris":{"android":"levelo://app?vid=eea28ad3-afe7-4db0-ba3b-b798b690e9c0","ios":"levelo://app?vid=eea28ad3-afe7-4db0-ba3b-b798b690e9c0"},"vehicle_type_id":"4","last_reported":1724951285,"current_range_meters":12400,"station_id":"ce4bhsp2rcd13ifvqi50","pricing_plan_id":"cebpf4jnsgd1na2vs0mg"},{"bike_id":"bedee329-acff-44f0-a522-80be2a4b17fd","system_id":"levelo_inurba_marseille","lat":43.302178,"lon":5.365855,"is_reserved":false,"is_disabled":false,"rental_uris":{"android":"levelo://app?vid=bedee329-acff-44f0-a522-80be2a4b17fd","ios":"levelo://app?vid=bedee329-acff-44f0-a522-80be2a4b17fd"},"vehicle_type_id":"4","last_reported":1724951285,"current_range_meters":4400,"station_id":"ce4bgrh2rcd13ifvqc8g","pricing_plan_id":"cebpf4jnsgd1na2vs0mg"},{"bike_id":"c8db5808-76ea-4080-82d6-eed65f81a26b","system_id":"levelo_inurba_marseille","lat":43.30811,"lon":5.38151,"is_reserved":false,"is_disabled":false,"rental_uris":{"android":"levelo://app?vid=c8db5808-76ea-4080-82d6-eed65f81a26b","ios":"levelo://app?vid=c8db5808-76ea-4080-82d6-eed65f81a26b"},"vehicle_type_id":"4","last_reported":1724951285,"current_range_meters":0,"station_id":"ce4bgt12rcd13ifvqce0","pricing_plan_id":"cebpf4jnsgd1na2vs0mg"},{"bike_id":"4a2ae25a-1cd6-4abe-9cd3-f1e28b967ab2","system_id":"levelo_inurba_marseille","lat":43.32474,"lon":5.3657,"is_reserved":false,"is_disabled":false,"rental_uris":{"android":"levelo://app?vid=4a2ae25a-1cd6-4abe-9cd3-f1e28b967ab2","ios":"levelo://app?vid=4a2ae25a-1cd6-4abe-9cd3-f1e28b967ab2"},"vehicle_type_id":"4","last_reported":1724951285,"current_range_meters":14400,"station_id":"ce4bhs12rcd13ifvqhvg","pricing_plan_id":"cebpf4jnsgd1na2vs0mg"},{"bike_id":"3c2f9695-107a-4eb1-b791-4cdb46c894d7","system_id":"levelo_inurba_marseille","lat":43.324737,"lon":5.365594,"is_reserved":false,"is_disabled":false,"rental_uris":{"android":"levelo://app?vid=3c2f9695-107a-4eb1-b791-4cdb46c894d7","ios":"levelo://app?vid=3c2f9695-107a-4eb1-b791-4cdb46c894d7"},"vehicle_type_id":"4","last_reported":1724951285,"current_range_meters":1200,"station_id":"ce4bhs12rcd13ifvqhvg","pricing_plan_id":"cebpf4jnsgd1na2vs0mg"},{"bike_id":"d3f31c2d-522f-4622-af42-71b2bf6f9b4c","system_id":"levelo_inurba_marseille","lat":43.324759,"lon":5.365732,"is_reserved":false,"is_disabled":false,"rental_uris":{"android":"levelo://app?vid=d3f31c2d-522f-4622-af42-71b2bf6f9b4c","ios":"levelo://app?vid=d3f31c2d-522f-4622-af42-71b2bf6f9b4c"},"vehicle_type_id":"4","last_reported":1724951285,"current_range_meters":18800,"station_id":"ce4bhs12rcd13ifvqhvg","pricing_plan_id":"cebpf4jnsgd1na2vs0mg"},{"bike_id":"3865a60c-7b0a-4796-a68c-b1b0f8c392f0","system_id":"levelo_inurba_marseille","lat":43.32478,"lon":5.3657,"is_reserved":false,"is_disabled":false,"rental_uris":{"android":"levelo://app?vid=3865a60c-7b0a-4796-a68c-b1b0f8c392f0","ios":"levelo://app?vid=3865a60c-7b0a-4796-a68c-b1b0f8c392f0"},"vehicle_type_id":"4","last_reported":1724951285,"current_range_meters":3600,"station_id":"ce4bhs12rcd13ifvqhvg","pricing_plan_id":"cebpf4jnsgd1na2vs0mg"},{"bike_id":"8d55a4c4-02c0-4cc0-a823-ea8d05ec2557","system_id":"levelo_inurba_marseille","lat":43.32483,"lon":5.36576,"is_reserved":false,"is_disabled":false,"rental_uris":{"android":"levelo://app?vid=8d55a4c4-02c0-4cc0-a823-ea8d05ec2557","ios":"levelo://app?vid=8d55a4c4-02c0-4cc0-a823-ea8d05ec2557"},"vehicle_type_id":"4","last_reported":1724951285,"current_range_meters":16800,"station_id":"ce4bhs12rcd13ifvqhvg","pricing_plan_id":"cebpf4jnsgd1na2vs0mg"},{"bike_id":"a18ab256-c330-446a-85d8-a6dfc1e85eb2","system_id":"levelo_inurba_marseille","lat":43.3249,"lon":5.36577,"is_reserved":false,"is_disabled":false,"rental_uris":{"android":"levelo://app?vid=a18ab256-c330-446a-85d8-a6dfc1e85eb2","ios":"levelo://app?vid=a18ab256-c330-446a-85d8-a6dfc1e85eb2"},"vehicle_type_id":"4","last_reported":1724951285,"current_range_meters":6400,"station_id":"ce4bhs12rcd13ifvqhvg","pricing_plan_id":"cebpf4jnsgd1na2vs0mg"},{"bike_id":"7811c829-0842-4a31-b69c-465dc0a3e371","system_id":"levelo_inurba_marseille","lat":43.302784,"lon":5.377158,"is_reserved":false,"is_disabled":false,"rental_uris":{"android":"levelo://app?vid=7811c829-0842-4a31-b69c-465dc0a3e371","ios":"levelo://app?vid=7811c829-0842-4a31-b69c-465dc0a3e371"},"vehicle_type_id":"4","last_reported":1724951285,"current_range_meters":800,"station_id":"ce4bguh2rcd13ifvqcj0","pricing_plan_id":"cebpf4jnsgd1na2vs0mg"},{"bike_id":"5593cacf-9a89-468a-8bb4-57717fa9565f","system_id":"levelo_inurba_marseille","lat":43.301429,"lon":5.37413,"is_reserved":false,"is_disabled":false,"rental_uris":{"android":"levelo://app?vid=5593cacf-9a89-468a-8bb4-57717fa9565f","ios":"levelo://app?vid=5593cacf-9a89-468a-8bb4-57717fa9565f"},"vehicle_type_id":"4","last_reported":1724951285,"current_range_meters":16400,"station_id":"ce4bgs92rcd13ifvqcc0","pricing_plan_id":"cebpf4jnsgd1na2vs0mg"},{"bike_id":"e2422eb5-1d1d-4223-8268-00b25a263b56","system_id":"levelo_inurba_marseille","lat":43.319935,"lon":5.381699,"is_reserved":false,"is_disabled":false,"rental_uris":{"android":"levelo://app?vid=e2422eb5-1d1d-4223-8268-00b25a263b56","ios":"levelo://app?vid=e2422eb5-1d1d-4223-8268-00b25a263b56"},"vehicle_type_id":"4","last_reported":1724951285,"current_range_meters":2000,"station_id":"ce4bhr12rcd13ifvqhpg","pricing_plan_id":"cebpf4jnsgd1na2vs0mg"},{"bike_id":"8d095350-82fc-4a00-a279-86f77a281859","system_id":"levelo_inurba_marseille","lat":43.31994,"lon":5.38152,"is_reserved":false,"is_disabled":false,"rental_uris":{"android":"levelo://app?vid=8d095350-82fc-4a00-a279-86f77a281859","ios":"levelo://app?vid=8d095350-82fc-4a00-a279-86f77a281859"},"vehicle_type_id":"4","last_reported":1724951285,"current_range_meters":2800,"station_id":"ce4bhr12rcd13ifvqhpg","pricing_plan_id":"cebpf4jnsgd1na2vs0mg"},{"bike_id":"1fb142cc-1e98-44e9-9136-3f52fb0dd130","system_id":"levelo_inurba_marseille","lat":43.31991,"lon":5.38157,"is_reserved":false,"is_disabled":false,"rental_uris":{"android":"levelo://app?vid=1fb142cc-1e98-44e9-9136-3f52fb0dd130","ios":"levelo://app?vid=1fb142cc-1e98-44e9-9136-3f52fb0dd130"},"vehicle_type_id":"4","last_reported":1724951285,"current_range_meters":18800,"station_id":"ce4bhr12rcd13ifvqhpg","pricing_plan_id":"cebpf4jnsgd1na2vs0mg"},{"bike_id":"0446dc30-be8d-4e01-a77d-d602f4929916","system_id":"levelo_inurba_marseille","lat":43.319935,"lon":5.381699,"is_reserved":false,"is_disabled":false,"rental_uris":{"android":"levelo://app?vid=0446dc30-be8d-4e01-a77d-d602f4929916","ios":"levelo://app?vid=0446dc30-be8d-4e01-a77d-d602f4929916"},"vehicle_type_id":"4","last_reported":1724951285,"current_range_meters":7200,"station_id":"ce4bhr12rcd13ifvqhpg","pricing_plan_id":"cebpf4jnsgd1na2vs0mg"},{"bike_id":"06177739-3f66-4ecb-b733-12c519afeb0e","system_id":"levelo_inurba_marseille","lat":43.29999,"lon":5.36393,"is_reserved":false,"is_disabled":false,"rental_uris":{"android":"levelo://app?vid=06177739-3f66-4ecb-b733-12c519afeb0e","ios":"levelo://app?vid=06177739-3f66-4ecb-b733-12c519afeb0e"},"vehicle_type_id":"4","last_reported":1724951285,"current_range_meters":400,"station_id":"","pricing_plan_id":"cebpf4jnsgd1na2vs0mg"},{"bike_id":"93d0cb4d-2c95-4280-a850-b9873a9a9b8c","system_id":"levelo_inurba_marseille","lat":43.299222,"lon":5.365554,"is_reserved":false,"is_disabled":false,"rental_uris":{"android":"levelo://app?vid=93d0cb4d-2c95-4280-a850-b9873a9a9b8c","ios":"levelo://app?vid=93d0cb4d-2c95-4280-a850-b9873a9a9b8c"},"vehicle_type_id":"4","last_reported":1724951285,"current_range_meters":3600,"station_id":"ce4bgm92rcd13ifvqbr0","pricing_plan_id":"cebpf4jnsgd1na2vs0mg"},{"bike_id":"fddfa2d2-eb15-496c-bada-66c926fbd3e2","system_id":"levelo_inurba_marseille","lat":43.313571,"lon":5.384829,"is_reserved":false,"is_disabled":false,"rental_uris":{"android":"levelo://app?vid=fddfa2d2-eb15-496c-bada-66c926fbd3e2","ios":"levelo://app?vid=fddfa2d2-eb15-496c-bada-66c926fbd3e2"},"vehicle_type_id":"4","last_reported":1724951285,"current_range_meters":23200,"station_id":"ce4bgt92rcd13ifvqcf0","pricing_plan_id":"cebpf4jnsgd1na2vs0mg"},{"bike_id":"54354feb-093b-429c-9b7c-dcb87c53c2a6","system_id":"levelo_inurba_marseille","lat":43.313571,"lon":5.384829,"is_reserved":false,"is_disabled":false,"rental_uris":{"android":"levelo://app?vid=54354feb-093b-429c-9b7c-dcb87c53c2a6","ios":"levelo://app?vid=54354feb-093b-429c-9b7c-dcb87c53c2a6"},"vehicle_type_id":"4","last_reported":1724951285,"current_range_meters":19200,"station_id":"ce4bgt92rcd13ifvqcf0","pricing_plan_id":"cebpf4jnsgd1na2vs0mg"},{"bike_id":"2353bb6d-3b2b-434b-b9b6-d18017da3079","system_id":"levelo_inurba_marseille","lat":43.299724,"lon":5.371829,"is_reserved":false,"is_disabled":false,"rental_uris":{"android":"levelo://app?vid=2353bb6d-3b2b-434b-b9b6-d18017da3079","ios":"levelo://app?vid=2353bb6d-3b2b-434b-b9b6-d18017da3079"},"vehicle_type_id":"4","last_reported":1724951285,"current_range_meters":26400,"station_id":"ce4bgr92rcd13ifvqc7g","pricing_plan_id":"cebpf4jnsgd1na2vs0mg"},{"bike_id":"31676281-35c5-40a2-aa1c-d73cd38945a6","system_id":"levelo_inurba_marseille","lat":43.2993,"lon":5.36529,"is_reserved":false,"is_disabled":false,"rental_uris":{"android":"levelo://app?vid=31676281-35c5-40a2-aa1c-d73cd38945a6","ios":"levelo://app?vid=31676281-35c5-40a2-aa1c-d73cd38945a6"},"vehicle_type_id":"4","last_reported":1724951285,"current_range_meters":31200,"station_id":"ce4bgm92rcd13ifvqbr0","pricing_plan_id":"cebpf4jnsgd1na2vs0mg"},{"bike_id":"fe9855c2-c526-4325-9520-84cb02193e94","system_id":"levelo_inurba_marseille","lat":43.299724,"lon":5.371829,"is_reserved":false,"is_disabled":false,"rental_uris":{"android":"levelo://app?vid=fe9855c2-c526-4325-9520-84cb02193e94","ios":"levelo://app?vid=fe9855c2-c526-4325-9520-84cb02193e94"},"vehicle_type_id":"4","last_reported":1724951285,"current_range_meters":10400,"station_id":"ce4bgr92rcd13ifvqc7g","pricing_plan_id":"cebpf4jnsgd1na2vs0mg"},{"bike_id":"293587cc-f486-4eb4-b0e6-c70ff1d78902","system_id":"levelo_inurba_marseille","lat":43.29851,"lon":5.36285,"is_reserved":false,"is_disabled":false,"rental_uris":{"android":"levelo://app?vid=293587cc-f486-4eb4-b0e6-c70ff1d78902","ios":"levelo://app?vid=293587cc-f486-4eb4-b0e6-c70ff1d78902"},"vehicle_type_id":"4","last_reported":1724951285,"current_range_meters":31200,"station_id":"ce4bgpp2rcd13ifvqc3g","pricing_plan_id":"cebpf4jnsgd1na2vs0mg"},{"bike_id":"665098fd-dee9-4470-a71b-f30c9e6f8152","system_id":"levelo_inurba_marseille","lat":43.30535,"lon":5.38426,"is_reserved":false,"is_disabled":false,"rental_uris":{"android":"levelo://app?vid=665098fd-dee9-4470-a71b-f30c9e6f8152","ios":"levelo://app?vid=665098fd-dee9-4470-a71b-f30c9e6f8152"},"vehicle_type_id":"4","last_reported":1724951285,"current_range_meters":0,"station_id":"ce4bgg92rcd13ifvqb30","pricing_plan_id":"cebpf4jnsgd1na2vs0mg"},{"bike_id":"2536a37b-b26f-4ecd-85e8-e92fa314d916","system_id":"levelo_inurba_marseille","lat":43.298433,"lon":5.362774,"is_reserved":false,"is_disabled":false,"rental_uris":{"android":"levelo://app?vid=2536a37b-b26f-4ecd-85e8-e92fa314d916","ios":"levelo://app?vid=2536a37b-b26f-4ecd-85e8-e92fa314d916"},"vehicle_type_id":"4","last_reported":1724951285,"current_range_meters":12000,"station_id":"ce4bgpp2rcd13ifvqc3g","pricing_plan_id":"cebpf4jnsgd1na2vs0mg"},{"bike_id":"de60d83c-b041-4b51-9420-6fdfe0b81cc3","system_id":"levelo_inurba_marseille","lat":43.298433,"lon":5.362774,"is_reserved":false,"is_disabled":false,"rental_uris":{"android":"levelo://app?vid=de60d83c-b041-4b51-9420-6fdfe0b81cc3","ios":"levelo://app?vid=de60d83c-b041-4b51-9420-6fdfe0b81cc3"},"vehicle_type_id":"4","last_reported":1724951285,"current_range_meters":20000,"station_id":"ce4bgpp2rcd13ifvqc3g","pricing_plan_id":"cebpf4jnsgd1na2vs0mg"},{"bike_id":"f9db665b-acdc-4c3a-8411-1346c5cc944c","system_id":"levelo_inurba_marseille","lat":43.298433,"lon":5.362774,"is_reserved":false,"is_disabled":false,"rental_uris":{"android":"levelo://app?vid=f9db665b-acdc-4c3a-8411-1346c5cc944c","ios":"levelo://app?vid=f9db665b-acdc-4c3a-8411-1346c5cc944c"},"vehicle_type_id":"4","last_reported":1724951285,"current_range_meters":26800,"station_id":"ce4bgpp2rcd13ifvqc3g","pricing_plan_id":"cebpf4jnsgd1na2vs0mg"},{"bike_id":"6910a073-c330-45ee-b53e-aca446e825ce","system_id":"levelo_inurba_marseille","lat":43.311722,"lon":5.387247,"is_reserved":false,"is_disabled":false,"rental_uris":{"android":"levelo://app?vid=6910a073-c330-45ee-b53e-aca446e825ce","ios":"levelo://app?vid=6910a073-c330-45ee-b53e-aca446e825ce"},"vehicle_type_id":"4","last_reported":1724951285,"current_range_meters":0,"station_id":"ce4bgv12rcd13ifvqcp0","pricing_plan_id":"cebpf4jnsgd1na2vs0mg"},{"bike_id":"d12350a4-2dc6-49d4-bdc8-f3a58ed2ea26","system_id":"levelo_inurba_marseille","lat":43.301417,"lon":5.3809,"is_reserved":false,"is_disabled":false,"rental_uris":{"android":"levelo://app?vid=d12350a4-2dc6-49d4-bdc8-f3a58ed2ea26","ios":"levelo://app?vid=d12350a4-2dc6-49d4-bdc8-f3a58ed2ea26"},"vehicle_type_id":"4","last_reported":1724951285,"current_range_meters":0,"station_id":"ce4bgjp2rcd13ifvqbh0","pricing_plan_id":"cebpf4jnsgd1na2vs0mg"},{"bike_id":"ec26d29f-9c93-47ab-b82b-b17f4759b2ce","system_id":"levelo_inurba_marseille","lat":43.297794,"lon":5.370888,"is_reserved":false,"is_disabled":false,"rental_uris":{"android":"levelo://app?vid=ec26d29f-9c93-47ab-b82b-b17f4759b2ce","ios":"levelo://app?vid=ec26d29f-9c93-47ab-b82b-b17f4759b2ce"},"vehicle_type_id":"4","last_reported":1724951285,"current_range_meters":14400,"station_id":"ce4bgop2rcd13ifvqc1g","pricing_plan_id":"cebpf4jnsgd1na2vs0mg"},{"bike_id":"44b694c3-cb61-44bd-8ac7-572678037941","system_id":"levelo_inurba_marseille","lat":43.32291,"lon":5.38249,"is_reserved":false,"is_disabled":false,"rental_uris":{"android":"levelo://app?vid=44b694c3-cb61-44bd-8ac7-572678037941","ios":"levelo://app?vid=44b694c3-cb61-44bd-8ac7-572678037941"},"vehicle_type_id":"4","last_reported":1724951285,"current_range_meters":6400,"station_id":"ce4bhr12rcd13ifvqhqg","pricing_plan_id":"cebpf4jnsgd1na2vs0mg"},{"bike_id":"cb73b66e-dfa6-4f93-80b9-a70c2f549e78","system_id":"levelo_inurba_marseille","lat":43.32286,"lon":5.3826,"is_reserved":false,"is_disabled":false,"rental_uris":{"android":"levelo://app?vid=cb73b66e-dfa6-4f93-80b9-a70c2f549e78","ios":"levelo://app?vid=cb73b66e-dfa6-4f93-80b9-a70c2f549e78"},"vehicle_type_id":"4","last_reported":1724951285,"current_range_meters":28000,"station_id":"ce4bhr12rcd13ifvqhqg","pricing_plan_id":"cebpf4jnsgd1na2vs0mg"},{"bike_id":"f68bd861-4ce1-4f5b-bebe-b1f7bbd71834","system_id":"levelo_inurba_marseille","lat":43.298433,"lon":5.362774,"is_reserved":false,"is_disabled":false,"rental_uris":{"android":"levelo://app?vid=f68bd861-4ce1-4f5b-bebe-b1f7bbd71834","ios":"levelo://app?vid=f68bd861-4ce1-4f5b-bebe-b1f7bbd71834"},"vehicle_type_id":"4","last_reported":1724951285,"current_range_meters":14400,"station_id":"ce4bgpp2rcd13ifvqc3g","pricing_plan_id":"cebpf4jnsgd1na2vs0mg"},{"bike_id":"892f9048-6e64-4a02-8d87-691c3604b877","system_id":"levelo_inurba_marseille","lat":43.322872,"lon":5.382756,"is_reserved":false,"is_disabled":false,"rental_uris":{"android":"levelo://app?vid=892f9048-6e64-4a02-8d87-691c3604b877","ios":"levelo://app?vid=892f9048-6e64-4a02-8d87-691c3604b877"},"vehicle_type_id":"4","last_reported":1724951285,"current_range_meters":0,"station_id":"ce4bhr12rcd13ifvqhqg","pricing_plan_id":"cebpf4jnsgd1na2vs0mg"},{"bike_id":"cd3bddba-16c4-4e0a-9870-3ae453eac4d9","system_id":"levelo_inurba_marseille","lat":43.322872,"lon":5.382756,"is_reserved":false,"is_disabled":false,"rental_uris":{"android":"levelo://app?vid=cd3bddba-16c4-4e0a-9870-3ae453eac4d9","ios":"levelo://app?vid=cd3bddba-16c4-4e0a-9870-3ae453eac4d9"},"vehicle_type_id":"4","last_reported":1724951285,"current_range_meters":26000,"station_id":"ce4bhr12rcd13ifvqhqg","pricing_plan_id":"cebpf4jnsgd1na2vs0mg"},{"bike_id":"35da528f-bc36-4d1c-b6d9-a82c4b378b36","system_id":"levelo_inurba_marseille","lat":43.322872,"lon":5.382756,"is_reserved":false,"is_disabled":false,"rental_uris":{"android":"levelo://app?vid=35da528f-bc36-4d1c-b6d9-a82c4b378b36","ios":"levelo://app?vid=35da528f-bc36-4d1c-b6d9-a82c4b378b36"},"vehicle_type_id":"4","last_reported":1724951285,"current_range_meters":26800,"station_id":"ce4bhr12rcd13ifvqhqg","pricing_plan_id":"cebpf4jnsgd1na2vs0mg"},{"bike_id":"94d54b2b-e264-4fe9-b480-925e8756dbbb","system_id":"levelo_inurba_marseille","lat":43.299028,"lon":5.381509,"is_reserved":false,"is_disabled":false,"rental_uris":{"android":"levelo://app?vid=94d54b2b-e264-4fe9-b480-925e8756dbbb","ios":"levelo://app?vid=94d54b2b-e264-4fe9-b480-925e8756dbbb"},"vehicle_type_id":"4","last_reported":1724951285,"current_range_meters":0,"station_id":"ce4bgj12rcd13ifvqbc0","pricing_plan_id":"cebpf4jnsgd1na2vs0mg"},{"bike_id":"ccb7bca9-a611-4453-b6a6-87f3e22330ed","system_id":"levelo_inurba_marseille","lat":43.29719,"lon":5.37706,"is_reserved":false,"is_disabled":false,"rental_uris":{"android":"levelo://app?vid=ccb7bca9-a611-4453-b6a6-87f3e22330ed","ios":"levelo://app?vid=ccb7bca9-a611-4453-b6a6-87f3e22330ed"},"vehicle_type_id":"4","last_reported":1724951285,"current_range_meters":7600,"station_id":"ce4bgkh2rcd13ifvqbl0","pricing_plan_id":"cebpf4jnsgd1na2vs0mg"},{"bike_id":"c4abcf10-c16d-4ab8-9573-7469ba6d52b6","system_id":"levelo_inurba_marseille","lat":43.29575,"lon":5.37501,"is_reserved":false,"is_disabled":false,"rental_uris":{"android":"levelo://app?vid=c4abcf10-c16d-4ab8-9573-7469ba6d52b6","ios":"levelo://app?vid=c4abcf10-c16d-4ab8-9573-7469ba6d52b6"},"vehicle_type_id":"4","last_reported":1724951285,"current_range_meters":13200,"station_id":"ce4bgh92rcd13ifvqb50","pricing_plan_id":"cebpf4jnsgd1na2vs0mg"},{"bike_id":"73b656bc-1dd2-4e17-9831-8ca2792c889e","system_id":"levelo_inurba_marseille","lat":43.30438,"lon":5.38898,"is_reserved":false,"is_disabled":false,"rental_uris":{"android":"levelo://app?vid=73b656bc-1dd2-4e17-9831-8ca2792c889e","ios":"levelo://app?vid=73b656bc-1dd2-4e17-9831-8ca2792c889e"},"vehicle_type_id":"4","last_reported":1724951285,"current_range_meters":18400,"station_id":"ce4bgk12rcd13ifvqbi0","pricing_plan_id":"cebpf4jnsgd1na2vs0mg"},{"bike_id":"d1e6a180-1b87-48a4-8979-71f1915ebc25","system_id":"levelo_inurba_marseille","lat":43.29616,"lon":5.37715,"is_reserved":false,"is_disabled":false,"rental_uris":{"android":"levelo://app?vid=d1e6a180-1b87-48a4-8979-71f1915ebc25","ios":"levelo://app?vid=d1e6a180-1b87-48a4-8979-71f1915ebc25"},"vehicle_type_id":"4","last_reported":1724951285,"current_range_meters":0,"station_id":"ce4bgi92rcd13ifvqb90","pricing_plan_id":"cebpf4jnsgd1na2vs0mg"},{"bike_id":"0be2d8a1-4f5b-4421-a7ed-dcfcbb8ccffe","system_id":"levelo_inurba_marseille","lat":43.296277,"lon":5.377108,"is_reserved":false,"is_disabled":false,"rental_uris":{"android":"levelo://app?vid=0be2d8a1-4f5b-4421-a7ed-dcfcbb8ccffe","ios":"levelo://app?vid=0be2d8a1-4f5b-4421-a7ed-dcfcbb8ccffe"},"vehicle_type_id":"4","last_reported":1724951285,"current_range_meters":11200,"station_id":"ce4bgi92rcd13ifvqb90","pricing_plan_id":"cebpf4jnsgd1na2vs0mg"},{"bike_id":"f0607f0b-4d99-42b2-bf17-191d7dcb5183","system_id":"levelo_inurba_marseille","lat":43.299724,"lon":5.384848,"is_reserved":false,"is_disabled":false,"rental_uris":{"android":"levelo://app?vid=f0607f0b-4d99-42b2-bf17-191d7dcb5183","ios":"levelo://app?vid=f0607f0b-4d99-42b2-bf17-191d7dcb5183"},"vehicle_type_id":"4","last_reported":1724951285,"current_range_meters":22400,"station_id":"ce4bgj92rcd13ifvqbd0","pricing_plan_id":"cebpf4jnsgd1na2vs0mg"},{"bike_id":"13456354-2aee-486f-9986-603c58f0ff14","system_id":"levelo_inurba_marseille","lat":43.299717,"lon":5.384845,"is_reserved":false,"is_disabled":false,"rental_uris":{"android":"levelo://app?vid=13456354-2aee-486f-9986-603c58f0ff14","ios":"levelo://app?vid=13456354-2aee-486f-9986-603c58f0ff14"},"vehicle_type_id":"4","last_reported":1724951285,"current_range_meters":0,"station_id":"ce4bgj92rcd13ifvqbd0","pricing_plan_id":"cebpf4jnsgd1na2vs0mg"},{"bike_id":"a36d640b-75a5-4cf9-aa61-e4006407539a","system_id":"levelo_inurba_marseille","lat":43.299717,"lon":5.384845,"is_reserved":false,"is_disabled":false,"rental_uris":{"android":"levelo://app?vid=a36d640b-75a5-4cf9-aa61-e4006407539a","ios":"levelo://app?vid=a36d640b-75a5-4cf9-aa61-e4006407539a"},"vehicle_type_id":"4","last_reported":1724951285,"current_range_meters":0,"station_id":"ce4bgj92rcd13ifvqbd0","pricing_plan_id":"cebpf4jnsgd1na2vs0mg"},{"bike_id":"752959e0-073f-49d9-af14-2c1819f03d21","system_id":"levelo_inurba_marseille","lat":43.301396,"lon":5.387812,"is_reserved":false,"is_disabled":false,"rental_uris":{"android":"levelo://app?vid=752959e0-073f-49d9-af14-2c1819f03d21","ios":"levelo://app?vid=752959e0-073f-49d9-af14-2c1819f03d21"},"vehicle_type_id":"4","last_reported":1724951285,"current_range_meters":0,"station_id":"ce4bghh2rcd13ifvqb60","pricing_plan_id":"cebpf4jnsgd1na2vs0mg"},{"bike_id":"ec9b4f54-eae4-407f-9c0c-5441fe7f143d","system_id":"levelo_inurba_marseille","lat":43.301396,"lon":5.387812,"is_reserved":false,"is_disabled":false,"rental_uris":{"android":"levelo://app?vid=ec9b4f54-eae4-407f-9c0c-5441fe7f143d","ios":"levelo://app?vid=ec9b4f54-eae4-407f-9c0c-5441fe7f143d"},"vehicle_type_id":"4","last_reported":1724951285,"current_range_meters":27200,"station_id":"ce4bghh2rcd13ifvqb60","pricing_plan_id":"cebpf4jnsgd1na2vs0mg"},{"bike_id":"7fa4ad4f-b29e-4034-a001-7e44423cec05","system_id":"levelo_inurba_marseille","lat":43.32367,"lon":5.388836,"is_reserved":false,"is_disabled":false,"rental_uris":{"android":"levelo://app?vid=7fa4ad4f-b29e-4034-a001-7e44423cec05","ios":"levelo://app?vid=7fa4ad4f-b29e-4034-a001-7e44423cec05"},"vehicle_type_id":"4","last_reported":1724951285,"current_range_meters":28000,"station_id":"ce4bhqp2rcd13ifvqhog","pricing_plan_id":"cebpf4jnsgd1na2vs0mg"},{"bike_id":"4ab5e112-d452-41b2-a66a-9b989fe8c7e5","system_id":"levelo_inurba_marseille","lat":43.31432,"lon":5.39365,"is_reserved":false,"is_disabled":false,"rental_uris":{"android":"levelo://app?vid=4ab5e112-d452-41b2-a66a-9b989fe8c7e5","ios":"levelo://app?vid=4ab5e112-d452-41b2-a66a-9b989fe8c7e5"},"vehicle_type_id":"4","last_reported":1724951285,"current_range_meters":28400,"station_id":"","pricing_plan_id":"cebpf4jnsgd1na2vs0mg"},{"bike_id":"5f588218-8070-49d3-9be9-e8eb6a2f46c0","system_id":"levelo_inurba_marseille","lat":43.299724,"lon":5.371829,"is_reserved":false,"is_disabled":false,"rental_uris":{"android":"levelo://app?vid=5f588218-8070-49d3-9be9-e8eb6a2f46c0","ios":"levelo://app?vid=5f588218-8070-49d3-9be9-e8eb6a2f46c0"},"vehicle_type_id":"4","last_reported":1724951285,"current_range_meters":13200,"station_id":"ce4bgr92rcd13ifvqc7g","pricing_plan_id":"cebpf4jnsgd1na2vs0mg"},{"bike_id":"1bbdce9f-d784-4d16-a12e-a38e3d5868ba","system_id":"levelo_inurba_marseille","lat":43.29598,"lon":5.38093,"is_reserved":false,"is_disabled":false,"rental_uris":{"android":"levelo://app?vid=1bbdce9f-d784-4d16-a12e-a38e3d5868ba","ios":"levelo://app?vid=1bbdce9f-d784-4d16-a12e-a38e3d5868ba"},"vehicle_type_id":"4","last_reported":1724951285,"current_range_meters":17600,"station_id":"ce4bgl12rcd13ifvqbo0","pricing_plan_id":"cebpf4jnsgd1na2vs0mg"},{"bike_id":"5c02ef12-8d1e-42af-9f1b-ae29ac70b140","system_id":"levelo_inurba_marseille","lat":43.29602,"lon":5.381084,"is_reserved":false,"is_disabled":false,"rental_uris":{"android":"levelo://app?vid=5c02ef12-8d1e-42af-9f1b-ae29ac70b140","ios":"levelo://app?vid=5c02ef12-8d1e-42af-9f1b-ae29ac70b140"},"vehicle_type_id":"4","last_reported":1724951285,"current_range_meters":1600,"station_id":"ce4bgl12rcd13ifvqbo0","pricing_plan_id":"cebpf4jnsgd1na2vs0mg"},{"bike_id":"064f1276-f14d-49dc-8710-0385c1963232","system_id":"levelo_inurba_marseille","lat":43.29602,"lon":5.381084,"is_reserved":false,"is_disabled":false,"rental_uris":{"android":"levelo://app?vid=064f1276-f14d-49dc-8710-0385c1963232","ios":"levelo://app?vid=064f1276-f14d-49dc-8710-0385c1963232"},"vehicle_type_id":"4","last_reported":1724951285,"current_range_meters":800,"station_id":"ce4bgl12rcd13ifvqbo0","pricing_plan_id":"cebpf4jnsgd1na2vs0mg"},{"bike_id":"1107b529-d635-4e14-8bfb-dad68da36c60","system_id":"levelo_inurba_marseille","lat":43.292749,"lon":5.368402,"is_reserved":false,"is_disabled":false,"rental_uris":{"android":"levelo://app?vid=1107b529-d635-4e14-8bfb-dad68da36c60","ios":"levelo://app?vid=1107b529-d635-4e14-8bfb-dad68da36c60"},"vehicle_type_id":"4","last_reported":1724951285,"current_range_meters":1600,"station_id":"ce4bhbp2rcd13ifvqesg","pricing_plan_id":"cebpf4jnsgd1na2vs0mg"},{"bike_id":"af3e86c4-95f6-42e0-a2e2-1e32181b1077","system_id":"levelo_inurba_marseille","lat":43.292749,"lon":5.368398,"is_reserved":false,"is_disabled":false,"rental_uris":{"android":"levelo://app?vid=af3e86c4-95f6-42e0-a2e2-1e32181b1077","ios":"levelo://app?vid=af3e86c4-95f6-42e0-a2e2-1e32181b1077"},"vehicle_type_id":"4","last_reported":1724951285,"current_range_meters":22000,"station_id":"ce4bhbp2rcd13ifvqesg","pricing_plan_id":"cebpf4jnsgd1na2vs0mg"},{"bike_id":"40d863eb-f0fc-4400-b59a-4a8f8c5b1354","system_id":"levelo_inurba_marseille","lat":43.292749,"lon":5.368402,"is_reserved":false,"is_disabled":false,"rental_uris":{"android":"levelo://app?vid=40d863eb-f0fc-4400-b59a-4a8f8c5b1354","ios":"levelo://app?vid=40d863eb-f0fc-4400-b59a-4a8f8c5b1354"},"vehicle_type_id":"4","last_reported":1724951285,"current_range_meters":0,"station_id":"ce4bhbp2rcd13ifvqesg","pricing_plan_id":"cebpf4jnsgd1na2vs0mg"},{"bike_id":"43b182d8-f0bf-4314-a9df-9ebb9e9d1dba","system_id":"levelo_inurba_marseille","lat":43.2928,"lon":5.36842,"is_reserved":false,"is_disabled":false,"rental_uris":{"android":"levelo://app?vid=43b182d8-f0bf-4314-a9df-9ebb9e9d1dba","ios":"levelo://app?vid=43b182d8-f0bf-4314-a9df-9ebb9e9d1dba"},"vehicle_type_id":"4","last_reported":1724951285,"current_range_meters":0,"station_id":"ce4bhbp2rcd13ifvqesg","pricing_plan_id":"cebpf4jnsgd1na2vs0mg"},{"bike_id":"bb8b54a6-0f3b-469a-8570-11ce68ab8d13","system_id":"levelo_inurba_marseille","lat":43.29308,"lon":5.37175,"is_reserved":false,"is_disabled":false,"rental_uris":{"android":"levelo://app?vid=bb8b54a6-0f3b-469a-8570-11ce68ab8d13","ios":"levelo://app?vid=bb8b54a6-0f3b-469a-8570-11ce68ab8d13"},"vehicle_type_id":"4","last_reported":1724951285,"current_range_meters":0,"station_id":"ce4bgh92rcd13ifvqb40","pricing_plan_id":"cebpf4jnsgd1na2vs0mg"},{"bike_id":"47c474e1-ed2d-44df-9016-7401d3dbf82f","system_id":"levelo_inurba_marseille","lat":43.2928,"lon":5.36852,"is_reserved":false,"is_disabled":false,"rental_uris":{"android":"levelo://app?vid=47c474e1-ed2d-44df-9016-7401d3dbf82f","ios":"levelo://app?vid=47c474e1-ed2d-44df-9016-7401d3dbf82f"},"vehicle_type_id":"4","last_reported":1724951285,"current_range_meters":0,"station_id":"ce4bhbp2rcd13ifvqesg","pricing_plan_id":"cebpf4jnsgd1na2vs0mg"},{"bike_id":"e33fa5fe-930d-471a-87e7-af01f7e75344","system_id":"levelo_inurba_marseille","lat":43.293259,"lon":5.371586,"is_reserved":false,"is_disabled":false,"rental_uris":{"android":"levelo://app?vid=e33fa5fe-930d-471a-87e7-af01f7e75344","ios":"levelo://app?vid=e33fa5fe-930d-471a-87e7-af01f7e75344"},"vehicle_type_id":"4","last_reported":1724951285,"current_range_meters":800,"station_id":"ce4bgh92rcd13ifvqb40","pricing_plan_id":"cebpf4jnsgd1na2vs0mg"},{"bike_id":"70c5bd98-8d75-442f-82ae-c069eeabd41f","system_id":"levelo_inurba_marseille","lat":43.292749,"lon":5.368398,"is_reserved":false,"is_disabled":false,"rental_uris":{"android":"levelo://app?vid=70c5bd98-8d75-442f-82ae-c069eeabd41f","ios":"levelo://app?vid=70c5bd98-8d75-442f-82ae-c069eeabd41f"},"vehicle_type_id":"4","last_reported":1724951285,"current_range_meters":6800,"station_id":"ce4bhbp2rcd13ifvqesg","pricing_plan_id":"cebpf4jnsgd1na2vs0mg"},{"bike_id":"32d7bbba-0b49-494e-a3f9-62cfe220be38","system_id":"levelo_inurba_marseille","lat":43.292749,"lon":5.368398,"is_reserved":false,"is_disabled":false,"rental_uris":{"android":"levelo://app?vid=32d7bbba-0b49-494e-a3f9-62cfe220be38","ios":"levelo://app?vid=32d7bbba-0b49-494e-a3f9-62cfe220be38"},"vehicle_type_id":"4","last_reported":1724951285,"current_range_meters":9200,"station_id":"ce4bhbp2rcd13ifvqesg","pricing_plan_id":"cebpf4jnsgd1na2vs0mg"},{"bike_id":"f96ebb4a-4d31-41a0-b6fe-20fd7fb3edc5","system_id":"levelo_inurba_marseille","lat":43.29274,"lon":5.368478,"is_reserved":false,"is_disabled":false,"rental_uris":{"android":"levelo://app?vid=f96ebb4a-4d31-41a0-b6fe-20fd7fb3edc5","ios":"levelo://app?vid=f96ebb4a-4d31-41a0-b6fe-20fd7fb3edc5"},"vehicle_type_id":"4","last_reported":1724951285,"current_range_meters":0,"station_id":"ce4bhbp2rcd13ifvqesg","pricing_plan_id":"cebpf4jnsgd1na2vs0mg"},{"bike_id":"16ebd82a-49ea-450d-bbc1-e338dfc1a5ac","system_id":"levelo_inurba_marseille","lat":43.29247,"lon":5.36731,"is_reserved":false,"is_disabled":false,"rental_uris":{"android":"levelo://app?vid=16ebd82a-49ea-450d-bbc1-e338dfc1a5ac","ios":"levelo://app?vid=16ebd82a-49ea-450d-bbc1-e338dfc1a5ac"},"vehicle_type_id":"4","last_reported":1724951285,"current_range_meters":0,"station_id":"","pricing_plan_id":"cebpf4jnsgd1na2vs0mg"},{"bike_id":"9cf3c940-6903-4699-a04c-1ce7590e07fc","system_id":"levelo_inurba_marseille","lat":43.29316,"lon":5.3742,"is_reserved":false,"is_disabled":false,"rental_uris":{"android":"levelo://app?vid=9cf3c940-6903-4699-a04c-1ce7590e07fc","ios":"levelo://app?vid=9cf3c940-6903-4699-a04c-1ce7590e07fc"},"vehicle_type_id":"4","last_reported":1724951285,"current_range_meters":0,"station_id":"ce4bgi12rcd13ifvqb70","pricing_plan_id":"cebpf4jnsgd1na2vs0mg"},{"bike_id":"daec53eb-ee08-4bff-8701-12585d6889c3","system_id":"levelo_inurba_marseille","lat":43.305994,"lon":5.393687,"is_reserved":false,"is_disabled":false,"rental_uris":{"android":"levelo://app?vid=daec53eb-ee08-4bff-8701-12585d6889c3","ios":"levelo://app?vid=daec53eb-ee08-4bff-8701-12585d6889c3"},"vehicle_type_id":"4","last_reported":1724951285,"current_range_meters":0,"station_id":"ce4bh0p2rcd13ifvqd80","pricing_plan_id":"cebpf4jnsgd1na2vs0mg"},{"bike_id":"b4e1b051-258d-4670-ac81-ed9abe55c64d","system_id":"levelo_inurba_marseille","lat":43.305994,"lon":5.393687,"is_reserved":false,"is_disabled":false,"rental_uris":{"android":"levelo://app?vid=b4e1b051-258d-4670-ac81-ed9abe55c64d","ios":"levelo://app?vid=b4e1b051-258d-4670-ac81-ed9abe55c64d"},"vehicle_type_id":"4","last_reported":1724951285,"current_range_meters":18400,"station_id":"ce4bh0p2rcd13ifvqd80","pricing_plan_id":"cebpf4jnsgd1na2vs0mg"},{"bike_id":"5b187f72-8b82-4a6f-a0ab-0493909502ce","system_id":"levelo_inurba_marseille","lat":43.29475,"lon":5.38086,"is_reserved":false,"is_disabled":false,"rental_uris":{"android":"levelo://app?vid=5b187f72-8b82-4a6f-a0ab-0493909502ce","ios":"levelo://app?vid=5b187f72-8b82-4a6f-a0ab-0493909502ce"},"vehicle_type_id":"4","last_reported":1724951285,"current_range_meters":0,"station_id":"","pricing_plan_id":"cebpf4jnsgd1na2vs0mg"},{"bike_id":"ebcee06e-13b0-446a-9282-4b0e48805a82","system_id":"levelo_inurba_marseille","lat":43.303002,"lon":5.392142,"is_reserved":false,"is_disabled":false,"rental_uris":{"android":"levelo://app?vid=ebcee06e-13b0-446a-9282-4b0e48805a82","ios":"levelo://app?vid=ebcee06e-13b0-446a-9282-4b0e48805a82"},"vehicle_type_id":"4","last_reported":1724951285,"current_range_meters":0,"station_id":"ce4bgkh2rcd13ifvqbk0","pricing_plan_id":"cebpf4jnsgd1na2vs0mg"},{"bike_id":"d420bcb2-ba63-4830-9fa4-845fae7b9ee6","system_id":"levelo_inurba_marseille","lat":43.2936,"lon":5.37835,"is_reserved":false,"is_disabled":false,"rental_uris":{"android":"levelo://app?vid=d420bcb2-ba63-4830-9fa4-845fae7b9ee6","ios":"levelo://app?vid=d420bcb2-ba63-4830-9fa4-845fae7b9ee6"},"vehicle_type_id":"4","last_reported":1724951285,"current_range_meters":8800,"station_id":"ce4bgjh2rcd13ifvqbf0","pricing_plan_id":"cebpf4jnsgd1na2vs0mg"},{"bike_id":"d37c4cdb-51e8-4189-a5b0-d6eb10035442","system_id":"levelo_inurba_marseille","lat":43.30085,"lon":5.390856,"is_reserved":false,"is_disabled":false,"rental_uris":{"android":"levelo://app?vid=d37c4cdb-51e8-4189-a5b0-d6eb10035442","ios":"levelo://app?vid=d37c4cdb-51e8-4189-a5b0-d6eb10035442"},"vehicle_type_id":"4","last_reported":1724951285,"current_range_meters":0,"station_id":"ce4bh192rcd13ifvqdb0","pricing_plan_id":"cebpf4jnsgd1na2vs0mg"},{"bike_id":"7866dc97-3c81-4947-a03b-97f5bebca783","system_id":"levelo_inurba_marseille","lat":43.30085,"lon":5.390856,"is_reserved":false,"is_disabled":false,"rental_uris":{"android":"levelo://app?vid=7866dc97-3c81-4947-a03b-97f5bebca783","ios":"levelo://app?vid=7866dc97-3c81-4947-a03b-97f5bebca783"},"vehicle_type_id":"4","last_reported":1724951285,"current_range_meters":800,"station_id":"ce4bh192rcd13ifvqdb0","pricing_plan_id":"cebpf4jnsgd1na2vs0mg"},{"bike_id":"b1bde4bd-0251-4f38-8476-c36a492413d5","system_id":"levelo_inurba_marseille","lat":43.298764,"lon":5.388973,"is_reserved":false,"is_disabled":false,"rental_uris":{"android":"levelo://app?vid=b1bde4bd-0251-4f38-8476-c36a492413d5","ios":"levelo://app?vid=b1bde4bd-0251-4f38-8476-c36a492413d5"},"vehicle_type_id":"4","last_reported":1724951285,"current_range_meters":0,"station_id":"ce4bh392rcd13ifvqdl0","pricing_plan_id":"cebpf4jnsgd1na2vs0mg"},{"bike_id":"24cd6722-1ded-4287-b8fa-3b5e8af21c70","system_id":"levelo_inurba_marseille","lat":43.29863,"lon":5.38897,"is_reserved":false,"is_disabled":false,"rental_uris":{"android":"levelo://app?vid=24cd6722-1ded-4287-b8fa-3b5e8af21c70","ios":"levelo://app?vid=24cd6722-1ded-4287-b8fa-3b5e8af21c70"},"vehicle_type_id":"4","last_reported":1724951285,"current_range_meters":2800,"station_id":"ce4bh392rcd13ifvqdl0","pricing_plan_id":"cebpf4jnsgd1na2vs0mg"},{"bike_id":"127bbb00-be70-412a-88e4-337a8baa115e","system_id":"levelo_inurba_marseille","lat":43.313291,"lon":5.396838,"is_reserved":false,"is_disabled":false,"rental_uris":{"android":"levelo://app?vid=127bbb00-be70-412a-88e4-337a8baa115e","ios":"levelo://app?vid=127bbb00-be70-412a-88e4-337a8baa115e"},"vehicle_type_id":"4","last_reported":1724951285,"current_range_meters":9600,"station_id":"ce4bgvp2rcd13ifvqcu0","pricing_plan_id":"cebpf4jnsgd1na2vs0mg"},{"bike_id":"a4789b0a-fe1f-41e1-b9c8-4c89798c9a95","system_id":"levelo_inurba_marseille","lat":43.313291,"lon":5.396838,"is_reserved":false,"is_disabled":false,"rental_uris":{"android":"levelo://app?vid=a4789b0a-fe1f-41e1-b9c8-4c89798c9a95","ios":"levelo://app?vid=a4789b0a-fe1f-41e1-b9c8-4c89798c9a95"},"vehicle_type_id":"4","last_reported":1724951285,"current_range_meters":21200,"station_id":"ce4bgvp2rcd13ifvqcu0","pricing_plan_id":"cebpf4jnsgd1na2vs0mg"},{"bike_id":"67f672a0-cc58-41a5-a66c-28d1d63b4001","system_id":"levelo_inurba_marseille","lat":43.313291,"lon":5.396838,"is_reserved":false,"is_disabled":false,"rental_uris":{"android":"levelo://app?vid=67f672a0-cc58-41a5-a66c-28d1d63b4001","ios":"levelo://app?vid=67f672a0-cc58-41a5-a66c-28d1d63b4001"},"vehicle_type_id":"4","last_reported":1724951285,"current_range_meters":14000,"station_id":"ce4bgvp2rcd13ifvqcu0","pricing_plan_id":"cebpf4jnsgd1na2vs0mg"},{"bike_id":"424c7a49-964a-4bdc-9c01-b7c85cff8d58","system_id":"levelo_inurba_marseille","lat":43.313291,"lon":5.396838,"is_reserved":false,"is_disabled":false,"rental_uris":{"android":"levelo://app?vid=424c7a49-964a-4bdc-9c01-b7c85cff8d58","ios":"levelo://app?vid=424c7a49-964a-4bdc-9c01-b7c85cff8d58"},"vehicle_type_id":"4","last_reported":1724951285,"current_range_meters":14800,"station_id":"ce4bgvp2rcd13ifvqcu0","pricing_plan_id":"cebpf4jnsgd1na2vs0mg"},{"bike_id":"8a770791-a29e-4a90-b5a1-0077d9064341","system_id":"levelo_inurba_marseille","lat":43.313291,"lon":5.396838,"is_reserved":false,"is_disabled":false,"rental_uris":{"android":"levelo://app?vid=8a770791-a29e-4a90-b5a1-0077d9064341","ios":"levelo://app?vid=8a770791-a29e-4a90-b5a1-0077d9064341"},"vehicle_type_id":"4","last_reported":1724951285,"current_range_meters":23600,"station_id":"ce4bgvp2rcd13ifvqcu0","pricing_plan_id":"cebpf4jnsgd1na2vs0mg"},{"bike_id":"1f738ec2-7bc8-41a3-b4b7-e3b22ce6fc2d","system_id":"levelo_inurba_marseille","lat":43.291927,"lon":5.3579,"is_reserved":false,"is_disabled":false,"rental_uris":{"android":"levelo://app?vid=1f738ec2-7bc8-41a3-b4b7-e3b22ce6fc2d","ios":"levelo://app?vid=1f738ec2-7bc8-41a3-b4b7-e3b22ce6fc2d"},"vehicle_type_id":"4","last_reported":1724951285,"current_range_meters":0,"station_id":"ce4bhb12rcd13ifvqel0","pricing_plan_id":"cebpf4jnsgd1na2vs0mg"},{"bike_id":"20f68684-f4c0-4b91-beec-1055a6aa40df","system_id":"levelo_inurba_marseille","lat":43.29172,"lon":5.375177,"is_reserved":false,"is_disabled":false,"rental_uris":{"android":"levelo://app?vid=20f68684-f4c0-4b91-beec-1055a6aa40df","ios":"levelo://app?vid=20f68684-f4c0-4b91-beec-1055a6aa40df"},"vehicle_type_id":"4","last_reported":1724951285,"current_range_meters":0,"station_id":"","pricing_plan_id":"cebpf4jnsgd1na2vs0mg"},{"bike_id":"77362e2f-deeb-40d4-bdaf-6e6b0dadde5b","system_id":"levelo_inurba_marseille","lat":43.29529,"lon":5.3853,"is_reserved":false,"is_disabled":false,"rental_uris":{"android":"levelo://app?vid=77362e2f-deeb-40d4-bdaf-6e6b0dadde5b","ios":"levelo://app?vid=77362e2f-deeb-40d4-bdaf-6e6b0dadde5b"},"vehicle_type_id":"4","last_reported":1724951285,"current_range_meters":28000,"station_id":"ce4bgih2rcd13ifvqba0","pricing_plan_id":"cebpf4jnsgd1na2vs0mg"},{"bike_id":"69815ce7-fed4-4b44-875b-84e2e9fcab4f","system_id":"levelo_inurba_marseille","lat":43.29529,"lon":5.385581,"is_reserved":false,"is_disabled":false,"rental_uris":{"android":"levelo://app?vid=69815ce7-fed4-4b44-875b-84e2e9fcab4f","ios":"levelo://app?vid=69815ce7-fed4-4b44-875b-84e2e9fcab4f"},"vehicle_type_id":"4","last_reported":1724951285,"current_range_meters":17200,"station_id":"ce4bgih2rcd13ifvqba0","pricing_plan_id":"cebpf4jnsgd1na2vs0mg"},{"bike_id":"b52c553c-855e-4df9-8e37-66ba4ae6e874","system_id":"levelo_inurba_marseille","lat":43.29532,"lon":5.38539,"is_reserved":false,"is_disabled":false,"rental_uris":{"android":"levelo://app?vid=b52c553c-855e-4df9-8e37-66ba4ae6e874","ios":"levelo://app?vid=b52c553c-855e-4df9-8e37-66ba4ae6e874"},"vehicle_type_id":"4","last_reported":1724951285,"current_range_meters":3200,"station_id":"ce4bgih2rcd13ifvqba0","pricing_plan_id":"cebpf4jnsgd1na2vs0mg"},{"bike_id":"b8e4b705-5d03-4d67-8671-8305c8c61052","system_id":"levelo_inurba_marseille","lat":43.29529,"lon":5.385581,"is_reserved":false,"is_disabled":false,"rental_uris":{"android":"levelo://app?vid=b8e4b705-5d03-4d67-8671-8305c8c61052","ios":"levelo://app?vid=b8e4b705-5d03-4d67-8671-8305c8c61052"},"vehicle_type_id":"4","last_reported":1724951285,"current_range_meters":6400,"station_id":"ce4bgih2rcd13ifvqba0","pricing_plan_id":"cebpf4jnsgd1na2vs0mg"},{"bike_id":"046a1ea6-bf03-47b1-88e4-0b725b43394f","system_id":"levelo_inurba_marseille","lat":43.29529,"lon":5.385581,"is_reserved":false,"is_disabled":false,"rental_uris":{"android":"levelo://app?vid=046a1ea6-bf03-47b1-88e4-0b725b43394f","ios":"levelo://app?vid=046a1ea6-bf03-47b1-88e4-0b725b43394f"},"vehicle_type_id":"4","last_reported":1724951285,"current_range_meters":29600,"station_id":"ce4bgih2rcd13ifvqba0","pricing_plan_id":"cebpf4jnsgd1na2vs0mg"},{"bike_id":"488c7065-0097-49d8-b576-bfdeed0582c4","system_id":"levelo_inurba_marseille","lat":43.29529,"lon":5.385581,"is_reserved":false,"is_disabled":false,"rental_uris":{"android":"levelo://app?vid=488c7065-0097-49d8-b576-bfdeed0582c4","ios":"levelo://app?vid=488c7065-0097-49d8-b576-bfdeed0582c4"},"vehicle_type_id":"4","last_reported":1724951285,"current_range_meters":8400,"station_id":"ce4bgih2rcd13ifvqba0","pricing_plan_id":"cebpf4jnsgd1na2vs0mg"},{"bike_id":"72aca04e-4098-4dae-9e0e-595c121c74fb","system_id":"levelo_inurba_marseille","lat":43.295204,"lon":5.385324,"is_reserved":false,"is_disabled":false,"rental_uris":{"android":"levelo://app?vid=72aca04e-4098-4dae-9e0e-595c121c74fb","ios":"levelo://app?vid=72aca04e-4098-4dae-9e0e-595c121c74fb"},"vehicle_type_id":"4","last_reported":1724951285,"current_range_meters":0,"station_id":"ce4bgih2rcd13ifvqba0","pricing_plan_id":"cebpf4jnsgd1na2vs0mg"},{"bike_id":"02d04036-aa6d-4e35-8f8a-ca2306d0ec8a","system_id":"levelo_inurba_marseille","lat":43.290779,"lon":5.371482,"is_reserved":false,"is_disabled":false,"rental_uris":{"android":"levelo://app?vid=02d04036-aa6d-4e35-8f8a-ca2306d0ec8a","ios":"levelo://app?vid=02d04036-aa6d-4e35-8f8a-ca2306d0ec8a"},"vehicle_type_id":"4","last_reported":1724951285,"current_range_meters":10400,"station_id":"ce4bh5p2rcd13ifvqe4g","pricing_plan_id":"cebpf4jnsgd1na2vs0mg"},{"bike_id":"39090350-fa84-44be-987f-4e4b2a1213cf","system_id":"levelo_inurba_marseille","lat":43.302008,"lon":5.394694,"is_reserved":false,"is_disabled":false,"rental_uris":{"android":"levelo://app?vid=39090350-fa84-44be-987f-4e4b2a1213cf","ios":"levelo://app?vid=39090350-fa84-44be-987f-4e4b2a1213cf"},"vehicle_type_id":"4","last_reported":1724951285,"current_range_meters":0,"station_id":"ce4bh0p2rcd13ifvqd70","pricing_plan_id":"cebpf4jnsgd1na2vs0mg"},{"bike_id":"74200188-aaeb-4237-8d85-a276b4ec194d","system_id":"levelo_inurba_marseille","lat":43.290631,"lon":5.359244,"is_reserved":false,"is_disabled":false,"rental_uris":{"android":"levelo://app?vid=74200188-aaeb-4237-8d85-a276b4ec194d","ios":"levelo://app?vid=74200188-aaeb-4237-8d85-a276b4ec194d"},"vehicle_type_id":"4","last_reported":1724951285,"current_range_meters":0,"station_id":"ce4bha92rcd13ifvqeg0","pricing_plan_id":"cebpf4jnsgd1na2vs0mg"},{"bike_id":"1ef41ba3-dab7-4ed6-a834-d96f9e9dbf1d","system_id":"levelo_inurba_marseille","lat":43.294153,"lon":5.386305,"is_reserved":false,"is_disabled":false,"rental_uris":{"android":"levelo://app?vid=1ef41ba3-dab7-4ed6-a834-d96f9e9dbf1d","ios":"levelo://app?vid=1ef41ba3-dab7-4ed6-a834-d96f9e9dbf1d"},"vehicle_type_id":"4","last_reported":1724951285,"current_range_meters":16800,"station_id":"ce4bh2h2rcd13ifvqdh0","pricing_plan_id":"cebpf4jnsgd1na2vs0mg"},{"bike_id":"4029647b-cace-4f98-954d-b393893de623","system_id":"levelo_inurba_marseille","lat":43.294162,"lon":5.386292,"is_reserved":false,"is_disabled":false,"rental_uris":{"android":"levelo://app?vid=4029647b-cace-4f98-954d-b393893de623","ios":"levelo://app?vid=4029647b-cace-4f98-954d-b393893de623"},"vehicle_type_id":"4","last_reported":1724951285,"current_range_meters":13200,"station_id":"ce4bh2h2rcd13ifvqdh0","pricing_plan_id":"cebpf4jnsgd1na2vs0mg"},{"bike_id":"c61eb216-df9a-45af-a360-168fe635f4f0","system_id":"levelo_inurba_marseille","lat":43.294153,"lon":5.386305,"is_reserved":false,"is_disabled":false,"rental_uris":{"android":"levelo://app?vid=c61eb216-df9a-45af-a360-168fe635f4f0","ios":"levelo://app?vid=c61eb216-df9a-45af-a360-168fe635f4f0"},"vehicle_type_id":"4","last_reported":1724951285,"current_range_meters":3200,"station_id":"ce4bh2h2rcd13ifvqdh0","pricing_plan_id":"cebpf4jnsgd1na2vs0mg"},{"bike_id":"2baae739-6b3a-4824-892f-65e3ff5de9cc","system_id":"levelo_inurba_marseille","lat":43.29414,"lon":5.3862,"is_reserved":false,"is_disabled":false,"rental_uris":{"android":"levelo://app?vid=2baae739-6b3a-4824-892f-65e3ff5de9cc","ios":"levelo://app?vid=2baae739-6b3a-4824-892f-65e3ff5de9cc"},"vehicle_type_id":"4","last_reported":1724951285,"current_range_meters":0,"station_id":"ce4bh2h2rcd13ifvqdh0","pricing_plan_id":"cebpf4jnsgd1na2vs0mg"},{"bike_id":"4c76dc9a-f0c7-4cb3-80e7-311fe8f57638","system_id":"levelo_inurba_marseille","lat":43.29414,"lon":5.38624,"is_reserved":false,"is_disabled":false,"rental_uris":{"android":"levelo://app?vid=4c76dc9a-f0c7-4cb3-80e7-311fe8f57638","ios":"levelo://app?vid=4c76dc9a-f0c7-4cb3-80e7-311fe8f57638"},"vehicle_type_id":"4","last_reported":1724951285,"current_range_meters":0,"station_id":"ce4bh2h2rcd13ifvqdh0","pricing_plan_id":"cebpf4jnsgd1na2vs0mg"},{"bike_id":"d75178bc-0cfb-44a1-a3fc-fcd3644bc7e9","system_id":"levelo_inurba_marseille","lat":43.294162,"lon":5.386292,"is_reserved":false,"is_disabled":false,"rental_uris":{"android":"levelo://app?vid=d75178bc-0cfb-44a1-a3fc-fcd3644bc7e9","ios":"levelo://app?vid=d75178bc-0cfb-44a1-a3fc-fcd3644bc7e9"},"vehicle_type_id":"4","last_reported":1724951285,"current_range_meters":0,"station_id":"ce4bh2h2rcd13ifvqdh0","pricing_plan_id":"cebpf4jnsgd1na2vs0mg"},{"bike_id":"915f8f87-e2a0-4265-9bfc-7682e46b2c3f","system_id":"levelo_inurba_marseille","lat":43.289184,"lon":5.366408,"is_reserved":false,"is_disabled":false,"rental_uris":{"android":"levelo://app?vid=915f8f87-e2a0-4265-9bfc-7682e46b2c3f","ios":"levelo://app?vid=915f8f87-e2a0-4265-9bfc-7682e46b2c3f"},"vehicle_type_id":"4","last_reported":1724951285,"current_range_meters":23200,"station_id":"ce4bhap2rcd13ifvqek0","pricing_plan_id":"cebpf4jnsgd1na2vs0mg"},{"bike_id":"22c6066e-93e2-47f1-b625-1ec4ba674c8f","system_id":"levelo_inurba_marseille","lat":43.289184,"lon":5.366408,"is_reserved":false,"is_disabled":false,"rental_uris":{"android":"levelo://app?vid=22c6066e-93e2-47f1-b625-1ec4ba674c8f","ios":"levelo://app?vid=22c6066e-93e2-47f1-b625-1ec4ba674c8f"},"vehicle_type_id":"4","last_reported":1724951285,"current_range_meters":16800,"station_id":"ce4bhap2rcd13ifvqek0","pricing_plan_id":"cebpf4jnsgd1na2vs0mg"},{"bike_id":"4b5b8c1d-1b7e-4ed0-a145-4dfd94e9bfd0","system_id":"levelo_inurba_marseille","lat":43.28938,"lon":5.36625,"is_reserved":false,"is_disabled":false,"rental_uris":{"android":"levelo://app?vid=4b5b8c1d-1b7e-4ed0-a145-4dfd94e9bfd0","ios":"levelo://app?vid=4b5b8c1d-1b7e-4ed0-a145-4dfd94e9bfd0"},"vehicle_type_id":"4","last_reported":1724951285,"current_range_meters":31200,"station_id":"ce4bhap2rcd13ifvqek0","pricing_plan_id":"cebpf4jnsgd1na2vs0mg"},{"bike_id":"ffef06e1-c0ef-4a32-bc4a-11585733d862","system_id":"levelo_inurba_marseille","lat":43.289184,"lon":5.366408,"is_reserved":false,"is_disabled":false,"rental_uris":{"android":"levelo://app?vid=ffef06e1-c0ef-4a32-bc4a-11585733d862","ios":"levelo://app?vid=ffef06e1-c0ef-4a32-bc4a-11585733d862"},"vehicle_type_id":"4","last_reported":1724951285,"current_range_meters":4000,"station_id":"ce4bhap2rcd13ifvqek0","pricing_plan_id":"cebpf4jnsgd1na2vs0mg"},{"bike_id":"8f82f7a7-dea2-4608-99c8-396a9d0de577","system_id":"levelo_inurba_marseille","lat":43.28936,"lon":5.366313,"is_reserved":false,"is_disabled":false,"rental_uris":{"android":"levelo://app?vid=8f82f7a7-dea2-4608-99c8-396a9d0de577","ios":"levelo://app?vid=8f82f7a7-dea2-4608-99c8-396a9d0de577"},"vehicle_type_id":"4","last_reported":1724951285,"current_range_meters":20400,"station_id":"ce4bhap2rcd13ifvqek0","pricing_plan_id":"cebpf4jnsgd1na2vs0mg"},{"bike_id":"f9aa50a5-630f-4d60-a715-d8d8dad8addf","system_id":"levelo_inurba_marseille","lat":43.289184,"lon":5.366408,"is_reserved":false,"is_disabled":false,"rental_uris":{"android":"levelo://app?vid=f9aa50a5-630f-4d60-a715-d8d8dad8addf","ios":"levelo://app?vid=f9aa50a5-630f-4d60-a715-d8d8dad8addf"},"vehicle_type_id":"4","last_reported":1724951285,"current_range_meters":800,"station_id":"ce4bhap2rcd13ifvqek0","pricing_plan_id":"cebpf4jnsgd1na2vs0mg"},{"bike_id":"c97dc899-9930-40be-92cc-73bb54c9060a","system_id":"levelo_inurba_marseille","lat":43.304274,"lon":5.397513,"is_reserved":false,"is_disabled":false,"rental_uris":{"android":"levelo://app?vid=c97dc899-9930-40be-92cc-73bb54c9060a","ios":"levelo://app?vid=c97dc899-9930-40be-92cc-73bb54c9060a"},"vehicle_type_id":"4","last_reported":1724951285,"current_range_meters":19200,"station_id":"ce4bh092rcd13ifvqd20","pricing_plan_id":"cebpf4jnsgd1na2vs0mg"},{"bike_id":"fe108d4e-6349-4e9d-b40b-69d64849cbea","system_id":"levelo_inurba_marseille","lat":43.304296,"lon":5.397513,"is_reserved":false,"is_disabled":false,"rental_uris":{"android":"levelo://app?vid=fe108d4e-6349-4e9d-b40b-69d64849cbea","ios":"levelo://app?vid=fe108d4e-6349-4e9d-b40b-69d64849cbea"},"vehicle_type_id":"4","last_reported":1724951285,"current_range_meters":25600,"station_id":"ce4bh092rcd13ifvqd20","pricing_plan_id":"cebpf4jnsgd1na2vs0mg"},{"bike_id":"436b8c6f-0f72-42f6-aac2-03b8519a8a03","system_id":"levelo_inurba_marseille","lat":43.290104,"lon":5.356111,"is_reserved":false,"is_disabled":false,"rental_uris":{"android":"levelo://app?vid=436b8c6f-0f72-42f6-aac2-03b8519a8a03","ios":"levelo://app?vid=436b8c6f-0f72-42f6-aac2-03b8519a8a03"},"vehicle_type_id":"4","last_reported":1724951285,"current_range_meters":5200,"station_id":"ce4bhb92rcd13ifvqen0","pricing_plan_id":"cebpf4jnsgd1na2vs0mg"},{"bike_id":"56e397c5-a055-4c96-822b-d632ebcfc40f","system_id":"levelo_inurba_marseille","lat":43.292644,"lon":5.384257,"is_reserved":false,"is_disabled":false,"rental_uris":{"android":"levelo://app?vid=56e397c5-a055-4c96-822b-d632ebcfc40f","ios":"levelo://app?vid=56e397c5-a055-4c96-822b-d632ebcfc40f"},"vehicle_type_id":"4","last_reported":1724951285,"current_range_meters":29200,"station_id":"ce4bh692rcd13ifvqea0","pricing_plan_id":"cebpf4jnsgd1na2vs0mg"},{"bike_id":"39629159-6cf5-47ff-a4e2-7ad3943f0d4f","system_id":"levelo_inurba_marseille","lat":43.292644,"lon":5.384257,"is_reserved":false,"is_disabled":false,"rental_uris":{"android":"levelo://app?vid=39629159-6cf5-47ff-a4e2-7ad3943f0d4f","ios":"levelo://app?vid=39629159-6cf5-47ff-a4e2-7ad3943f0d4f"},"vehicle_type_id":"4","last_reported":1724951285,"current_range_meters":0,"station_id":"ce4bh692rcd13ifvqea0","pricing_plan_id":"cebpf4jnsgd1na2vs0mg"},{"bike_id":"8a8887de-5c7d-4b1c-91b2-78e9c920b48d","system_id":"levelo_inurba_marseille","lat":43.290104,"lon":5.356111,"is_reserved":false,"is_disabled":false,"rental_uris":{"android":"levelo://app?vid=8a8887de-5c7d-4b1c-91b2-78e9c920b48d","ios":"levelo://app?vid=8a8887de-5c7d-4b1c-91b2-78e9c920b48d"},"vehicle_type_id":"4","last_reported":1724951285,"current_range_meters":31200,"station_id":"ce4bhb92rcd13ifvqen0","pricing_plan_id":"cebpf4jnsgd1na2vs0mg"},{"bike_id":"48974dbd-d5b6-4967-8e44-60b57fb080c3","system_id":"levelo_inurba_marseille","lat":43.289184,"lon":5.366408,"is_reserved":false,"is_disabled":false,"rental_uris":{"android":"levelo://app?vid=48974dbd-d5b6-4967-8e44-60b57fb080c3","ios":"levelo://app?vid=48974dbd-d5b6-4967-8e44-60b57fb080c3"},"vehicle_type_id":"4","last_reported":1724951285,"current_range_meters":11200,"station_id":"ce4bhap2rcd13ifvqek0","pricing_plan_id":"cebpf4jnsgd1na2vs0mg"},{"bike_id":"957cb383-c8c6-472d-9f41-700ced10416e","system_id":"levelo_inurba_marseille","lat":43.290995,"lon":5.381361,"is_reserved":false,"is_disabled":false,"rental_uris":{"android":"levelo://app?vid=957cb383-c8c6-472d-9f41-700ced10416e","ios":"levelo://app?vid=957cb383-c8c6-472d-9f41-700ced10416e"},"vehicle_type_id":"4","last_reported":1724951285,"current_range_meters":0,"station_id":"ce4bh512rcd13ifvqe2g","pricing_plan_id":"cebpf4jnsgd1na2vs0mg"},{"bike_id":"5895fdd2-55d9-4bb2-946d-6b2ecf783cc5","system_id":"levelo_inurba_marseille","lat":43.297815,"lon":5.393548,"is_reserved":false,"is_disabled":false,"rental_uris":{"android":"levelo://app?vid=5895fdd2-55d9-4bb2-946d-6b2ecf783cc5","ios":"levelo://app?vid=5895fdd2-55d9-4bb2-946d-6b2ecf783cc5"},"vehicle_type_id":"4","last_reported":1724951285,"current_range_meters":400,"station_id":"chh1huq6cuj3fo74tm60","pricing_plan_id":"cebpf4jnsgd1na2vs0mg"},{"bike_id":"739becea-479e-49b0-9f49-b9fb35394ec7","system_id":"levelo_inurba_marseille","lat":43.297815,"lon":5.393548,"is_reserved":false,"is_disabled":false,"rental_uris":{"android":"levelo://app?vid=739becea-479e-49b0-9f49-b9fb35394ec7","ios":"levelo://app?vid=739becea-479e-49b0-9f49-b9fb35394ec7"},"vehicle_type_id":"4","last_reported":1724951285,"current_range_meters":14000,"station_id":"chh1huq6cuj3fo74tm60","pricing_plan_id":"cebpf4jnsgd1na2vs0mg"},{"bike_id":"45707e83-d0dd-4caf-89c3-aa4bbc9ebd17","system_id":"levelo_inurba_marseille","lat":43.297815,"lon":5.393548,"is_reserved":false,"is_disabled":false,"rental_uris":{"android":"levelo://app?vid=45707e83-d0dd-4caf-89c3-aa4bbc9ebd17","ios":"levelo://app?vid=45707e83-d0dd-4caf-89c3-aa4bbc9ebd17"},"vehicle_type_id":"4","last_reported":1724951285,"current_range_meters":0,"station_id":"chh1huq6cuj3fo74tm60","pricing_plan_id":"cebpf4jnsgd1na2vs0mg"},{"bike_id":"2631667a-4ba9-4303-9e2f-555d729d4e07","system_id":"levelo_inurba_marseille","lat":43.297815,"lon":5.393548,"is_reserved":false,"is_disabled":false,"rental_uris":{"android":"levelo://app?vid=2631667a-4ba9-4303-9e2f-555d729d4e07","ios":"levelo://app?vid=2631667a-4ba9-4303-9e2f-555d729d4e07"},"vehicle_type_id":"4","last_reported":1724951285,"current_range_meters":0,"station_id":"chh1huq6cuj3fo74tm60","pricing_plan_id":"cebpf4jnsgd1na2vs0mg"},{"bike_id":"639ca52f-c730-4241-8f0b-cffa5279ca0f","system_id":"levelo_inurba_marseille","lat":43.28983,"lon":5.37837,"is_reserved":false,"is_disabled":false,"rental_uris":{"android":"levelo://app?vid=639ca52f-c730-4241-8f0b-cffa5279ca0f","ios":"levelo://app?vid=639ca52f-c730-4241-8f0b-cffa5279ca0f"},"vehicle_type_id":"4","last_reported":1724951285,"current_range_meters":0,"station_id":"ce4bh9p2rcd13ifvqed0","pricing_plan_id":"cebpf4jnsgd1na2vs0mg"},{"bike_id":"783c97d7-04d2-4681-bde1-b19be3124dfb","system_id":"levelo_inurba_marseille","lat":43.295169,"lon":5.390426,"is_reserved":false,"is_disabled":false,"rental_uris":{"android":"levelo://app?vid=783c97d7-04d2-4681-bde1-b19be3124dfb","ios":"levelo://app?vid=783c97d7-04d2-4681-bde1-b19be3124dfb"},"vehicle_type_id":"4","last_reported":1724951285,"current_range_meters":26400,"station_id":"ce4bh3p2rcd13ifvqdp0","pricing_plan_id":"cebpf4jnsgd1na2vs0mg"},{"bike_id":"955764ed-9d0c-4c17-8354-0a36dff08cf0","system_id":"levelo_inurba_marseille","lat":43.330442,"lon":5.389148,"is_reserved":false,"is_disabled":false,"rental_uris":{"android":"levelo://app?vid=955764ed-9d0c-4c17-8354-0a36dff08cf0","ios":"levelo://app?vid=955764ed-9d0c-4c17-8354-0a36dff08cf0"},"vehicle_type_id":"4","last_reported":1724951285,"current_range_meters":26000,"station_id":"ce4bhr92rcd13ifvqhrg","pricing_plan_id":"cebpf4jnsgd1na2vs0mg"},{"bike_id":"9cdf0d0e-7adb-453e-9d3e-657a5a223f36","system_id":"levelo_inurba_marseille","lat":43.295234,"lon":5.390404,"is_reserved":false,"is_disabled":false,"rental_uris":{"android":"levelo://app?vid=9cdf0d0e-7adb-453e-9d3e-657a5a223f36","ios":"levelo://app?vid=9cdf0d0e-7adb-453e-9d3e-657a5a223f36"},"vehicle_type_id":"4","last_reported":1724951285,"current_range_meters":0,"station_id":"ce4bh3p2rcd13ifvqdp0","pricing_plan_id":"cebpf4jnsgd1na2vs0mg"},{"bike_id":"cf15c213-5126-4945-866b-a228ecc5d4ea","system_id":"levelo_inurba_marseille","lat":43.330442,"lon":5.389148,"is_reserved":false,"is_disabled":false,"rental_uris":{"android":"levelo://app?vid=cf15c213-5126-4945-866b-a228ecc5d4ea","ios":"levelo://app?vid=cf15c213-5126-4945-866b-a228ecc5d4ea"},"vehicle_type_id":"4","last_reported":1724951285,"current_range_meters":8800,"station_id":"ce4bhr92rcd13ifvqhrg","pricing_plan_id":"cebpf4jnsgd1na2vs0mg"},{"bike_id":"be492f4c-75ce-4308-b4c1-5e4b1eb65524","system_id":"levelo_inurba_marseille","lat":43.2897,"lon":5.37838,"is_reserved":false,"is_disabled":false,"rental_uris":{"android":"levelo://app?vid=be492f4c-75ce-4308-b4c1-5e4b1eb65524","ios":"levelo://app?vid=be492f4c-75ce-4308-b4c1-5e4b1eb65524"},"vehicle_type_id":"4","last_reported":1724951285,"current_range_meters":0,"station_id":"ce4bh9p2rcd13ifvqed0","pricing_plan_id":"cebpf4jnsgd1na2vs0mg"},{"bike_id":"9a0edc9c-1771-4d44-9ad0-f261943cb679","system_id":"levelo_inurba_marseille","lat":43.290094,"lon":5.381264,"is_reserved":false,"is_disabled":false,"rental_uris":{"android":"levelo://app?vid=9a0edc9c-1771-4d44-9ad0-f261943cb679","ios":"levelo://app?vid=9a0edc9c-1771-4d44-9ad0-f261943cb679"},"vehicle_type_id":"4","last_reported":1724951285,"current_range_meters":16000,"station_id":"ce4bh4p2rcd13ifvqe1g","pricing_plan_id":"cebpf4jnsgd1na2vs0mg"},{"bike_id":"334b18e9-4c89-4dae-a782-2b270fd06f86","system_id":"levelo_inurba_marseille","lat":43.28856,"lon":5.358371,"is_reserved":false,"is_disabled":false,"rental_uris":{"android":"levelo://app?vid=334b18e9-4c89-4dae-a782-2b270fd06f86","ios":"levelo://app?vid=334b18e9-4c89-4dae-a782-2b270fd06f86"},"vehicle_type_id":"4","last_reported":1724951285,"current_range_meters":0,"station_id":"ce4bhb12rcd13ifvqem0","pricing_plan_id":"cebpf4jnsgd1na2vs0mg"},{"bike_id":"3ba478a2-7225-4ce4-8a05-8a280b8242a9","system_id":"levelo_inurba_marseille","lat":43.31268,"lon":5.40163,"is_reserved":false,"is_disabled":false,"rental_uris":{"android":"levelo://app?vid=3ba478a2-7225-4ce4-8a05-8a280b8242a9","ios":"levelo://app?vid=3ba478a2-7225-4ce4-8a05-8a280b8242a9"},"vehicle_type_id":"4","last_reported":1724951285,"current_range_meters":0,"station_id":"ce4bh092rcd13ifvqd30","pricing_plan_id":"cebpf4jnsgd1na2vs0mg"},{"bike_id":"37657346-0421-4e0f-846b-d9aff390b914","system_id":"levelo_inurba_marseille","lat":43.295748,"lon":5.37522,"is_reserved":false,"is_disabled":false,"rental_uris":{"android":"levelo://app?vid=37657346-0421-4e0f-846b-d9aff390b914","ios":"levelo://app?vid=37657346-0421-4e0f-846b-d9aff390b914"},"vehicle_type_id":"4","last_reported":1724951285,"current_range_meters":27200,"station_id":"ce4bgh92rcd13ifvqb50","pricing_plan_id":"cebpf4jnsgd1na2vs0mg"},{"bike_id":"f82ee5c4-6cb0-4128-892b-07ddb78697c3","system_id":"levelo_inurba_marseille","lat":43.312609,"lon":5.401662,"is_reserved":false,"is_disabled":false,"rental_uris":{"android":"levelo://app?vid=f82ee5c4-6cb0-4128-892b-07ddb78697c3","ios":"levelo://app?vid=f82ee5c4-6cb0-4128-892b-07ddb78697c3"},"vehicle_type_id":"4","last_reported":1724951285,"current_range_meters":16800,"station_id":"ce4bh092rcd13ifvqd30","pricing_plan_id":"cebpf4jnsgd1na2vs0mg"},{"bike_id":"dcddd056-a6d2-4d81-aebf-04a2750833cd","system_id":"levelo_inurba_marseille","lat":43.337444,"lon":5.374475,"is_reserved":false,"is_disabled":false,"rental_uris":{"android":"levelo://app?vid=dcddd056-a6d2-4d81-aebf-04a2750833cd","ios":"levelo://app?vid=dcddd056-a6d2-4d81-aebf-04a2750833cd"},"vehicle_type_id":"4","last_reported":1724951285,"current_range_meters":11600,"station_id":"","pricing_plan_id":"cebpf4jnsgd1na2vs0mg"},{"bike_id":"68ec235b-2eb7-469b-90d0-7c9b267d5493","system_id":"levelo_inurba_marseille","lat":43.309371,"lon":5.401449,"is_reserved":false,"is_disabled":false,"rental_uris":{"android":"levelo://app?vid=68ec235b-2eb7-469b-90d0-7c9b267d5493","ios":"levelo://app?vid=68ec235b-2eb7-469b-90d0-7c9b267d5493"},"vehicle_type_id":"4","last_reported":1724951285,"current_range_meters":0,"station_id":"ce4bgvp2rcd13ifvqct0","pricing_plan_id":"cebpf4jnsgd1na2vs0mg"},{"bike_id":"b912dddd-13d2-4db1-b8c9-4fa8effa77d8","system_id":"levelo_inurba_marseille","lat":43.337451,"lon":5.374688,"is_reserved":false,"is_disabled":false,"rental_uris":{"android":"levelo://app?vid=b912dddd-13d2-4db1-b8c9-4fa8effa77d8","ios":"levelo://app?vid=b912dddd-13d2-4db1-b8c9-4fa8effa77d8"},"vehicle_type_id":"4","last_reported":1724951285,"current_range_meters":16400,"station_id":"","pricing_plan_id":"cebpf4jnsgd1na2vs0mg"},{"bike_id":"cd06c70a-7d59-403a-a51a-b7724b26713a","system_id":"levelo_inurba_marseille","lat":43.33748,"lon":5.37452,"is_reserved":false,"is_disabled":false,"rental_uris":{"android":"levelo://app?vid=cd06c70a-7d59-403a-a51a-b7724b26713a","ios":"levelo://app?vid=cd06c70a-7d59-403a-a51a-b7724b26713a"},"vehicle_type_id":"4","last_reported":1724951285,"current_range_meters":22400,"station_id":"","pricing_plan_id":"cebpf4jnsgd1na2vs0mg"},{"bike_id":"59da05ca-eaf9-4850-90a8-9b5ae504306e","system_id":"levelo_inurba_marseille","lat":43.309371,"lon":5.401449,"is_reserved":false,"is_disabled":false,"rental_uris":{"android":"levelo://app?vid=59da05ca-eaf9-4850-90a8-9b5ae504306e","ios":"levelo://app?vid=59da05ca-eaf9-4850-90a8-9b5ae504306e"},"vehicle_type_id":"4","last_reported":1724951285,"current_range_meters":4000,"station_id":"ce4bgvp2rcd13ifvqct0","pricing_plan_id":"cebpf4jnsgd1na2vs0mg"},{"bike_id":"514b7c60-269c-4459-9e6e-643b36ba3f7e","system_id":"levelo_inurba_marseille","lat":43.337625,"lon":5.374416,"is_reserved":false,"is_disabled":false,"rental_uris":{"android":"levelo://app?vid=514b7c60-269c-4459-9e6e-643b36ba3f7e","ios":"levelo://app?vid=514b7c60-269c-4459-9e6e-643b36ba3f7e"},"vehicle_type_id":"4","last_reported":1724951285,"current_range_meters":10400,"station_id":"","pricing_plan_id":"cebpf4jnsgd1na2vs0mg"},{"bike_id":"76b38333-2c25-4a83-92b5-8ebf23c1faf9","system_id":"levelo_inurba_marseille","lat":43.33758,"lon":5.3747,"is_reserved":false,"is_disabled":false,"rental_uris":{"android":"levelo://app?vid=76b38333-2c25-4a83-92b5-8ebf23c1faf9","ios":"levelo://app?vid=76b38333-2c25-4a83-92b5-8ebf23c1faf9"},"vehicle_type_id":"4","last_reported":1724951285,"current_range_meters":5200,"station_id":"","pricing_plan_id":"cebpf4jnsgd1na2vs0mg"},{"bike_id":"40b14f62-1032-41aa-99cc-4ce627a28f5a","system_id":"levelo_inurba_marseille","lat":43.33757,"lon":5.37485,"is_reserved":false,"is_disabled":false,"rental_uris":{"android":"levelo://app?vid=40b14f62-1032-41aa-99cc-4ce627a28f5a","ios":"levelo://app?vid=40b14f62-1032-41aa-99cc-4ce627a28f5a"},"vehicle_type_id":"4","last_reported":1724951285,"current_range_meters":10400,"station_id":"","pricing_plan_id":"cebpf4jnsgd1na2vs0mg"},{"bike_id":"e900e5ef-a7e5-4bc1-ada4-d0331378434c","system_id":"levelo_inurba_marseille","lat":43.337686,"lon":5.374554,"is_reserved":false,"is_disabled":false,"rental_uris":{"android":"levelo://app?vid=e900e5ef-a7e5-4bc1-ada4-d0331378434c","ios":"levelo://app?vid=e900e5ef-a7e5-4bc1-ada4-d0331378434c"},"vehicle_type_id":"4","last_reported":1724951285,"current_range_meters":27600,"station_id":"","pricing_plan_id":"cebpf4jnsgd1na2vs0mg"},{"bike_id":"09e72f92-4ae2-4681-bcc4-0e527166372c","system_id":"levelo_inurba_marseille","lat":43.301117,"lon":5.398795,"is_reserved":false,"is_disabled":false,"rental_uris":{"android":"levelo://app?vid=09e72f92-4ae2-4681-bcc4-0e527166372c","ios":"levelo://app?vid=09e72f92-4ae2-4681-bcc4-0e527166372c"},"vehicle_type_id":"4","last_reported":1724951285,"current_range_meters":20000,"station_id":"ce4bh0h2rcd13ifvqd40","pricing_plan_id":"cebpf4jnsgd1na2vs0mg"},{"bike_id":"42cdf89a-7fe1-4b91-9df4-64a575216f9e","system_id":"levelo_inurba_marseille","lat":43.301117,"lon":5.398795,"is_reserved":false,"is_disabled":false,"rental_uris":{"android":"levelo://app?vid=42cdf89a-7fe1-4b91-9df4-64a575216f9e","ios":"levelo://app?vid=42cdf89a-7fe1-4b91-9df4-64a575216f9e"},"vehicle_type_id":"4","last_reported":1724951285,"current_range_meters":4000,"station_id":"ce4bh0h2rcd13ifvqd40","pricing_plan_id":"cebpf4jnsgd1na2vs0mg"},{"bike_id":"490d9a1c-0c6b-4891-96ba-9418aa7ffbc5","system_id":"levelo_inurba_marseille","lat":43.301117,"lon":5.398795,"is_reserved":false,"is_disabled":false,"rental_uris":{"android":"levelo://app?vid=490d9a1c-0c6b-4891-96ba-9418aa7ffbc5","ios":"levelo://app?vid=490d9a1c-0c6b-4891-96ba-9418aa7ffbc5"},"vehicle_type_id":"4","last_reported":1724951285,"current_range_meters":21200,"station_id":"ce4bh0h2rcd13ifvqd40","pricing_plan_id":"cebpf4jnsgd1na2vs0mg"},{"bike_id":"64d09e14-2534-4d27-a3dd-e2aa6b882762","system_id":"levelo_inurba_marseille","lat":43.298681,"lon":5.397225,"is_reserved":false,"is_disabled":false,"rental_uris":{"android":"levelo://app?vid=64d09e14-2534-4d27-a3dd-e2aa6b882762","ios":"levelo://app?vid=64d09e14-2534-4d27-a3dd-e2aa6b882762"},"vehicle_type_id":"4","last_reported":1724951285,"current_range_meters":0,"station_id":"ce4bh0h2rcd13ifvqd50","pricing_plan_id":"cebpf4jnsgd1na2vs0mg"},{"bike_id":"cfa8a4f6-bd15-4a07-beeb-fade92880696","system_id":"levelo_inurba_marseille","lat":43.286961,"lon":5.373785,"is_reserved":false,"is_disabled":false,"rental_uris":{"android":"levelo://app?vid=cfa8a4f6-bd15-4a07-beeb-fade92880696","ios":"levelo://app?vid=cfa8a4f6-bd15-4a07-beeb-fade92880696"},"vehicle_type_id":"4","last_reported":1724951285,"current_range_meters":2400,"station_id":"ce4bh3p2rcd13ifvqdq0","pricing_plan_id":"cebpf4jnsgd1na2vs0mg"},{"bike_id":"70c18359-9bf9-4075-9eaa-41ab959cd546","system_id":"levelo_inurba_marseille","lat":43.286961,"lon":5.373785,"is_reserved":false,"is_disabled":false,"rental_uris":{"android":"levelo://app?vid=70c18359-9bf9-4075-9eaa-41ab959cd546","ios":"levelo://app?vid=70c18359-9bf9-4075-9eaa-41ab959cd546"},"vehicle_type_id":"4","last_reported":1724951285,"current_range_meters":17200,"station_id":"ce4bh3p2rcd13ifvqdq0","pricing_plan_id":"cebpf4jnsgd1na2vs0mg"},{"bike_id":"abfcbbca-b641-4aa2-99b9-c0e8bc606ab7","system_id":"levelo_inurba_marseille","lat":43.28698,"lon":5.37379,"is_reserved":false,"is_disabled":false,"rental_uris":{"android":"levelo://app?vid=abfcbbca-b641-4aa2-99b9-c0e8bc606ab7","ios":"levelo://app?vid=abfcbbca-b641-4aa2-99b9-c0e8bc606ab7"},"vehicle_type_id":"4","last_reported":1724951285,"current_range_meters":0,"station_id":"ce4bh3p2rcd13ifvqdq0","pricing_plan_id":"cebpf4jnsgd1na2vs0mg"},{"bike_id":"0a53bbc5-c09a-45c1-b46a-d3f4745ff1f7","system_id":"levelo_inurba_marseille","lat":43.286593,"lon":5.363346,"is_reserved":false,"is_disabled":false,"rental_uris":{"android":"levelo://app?vid=0a53bbc5-c09a-45c1-b46a-d3f4745ff1f7","ios":"levelo://app?vid=0a53bbc5-c09a-45c1-b46a-d3f4745ff1f7"},"vehicle_type_id":"4","last_reported":1724951285,"current_range_meters":21200,"station_id":"ce4bhah2rcd13ifvqej0","pricing_plan_id":"cebpf4jnsgd1na2vs0mg"},{"bike_id":"6d3f44db-c832-41e3-95d9-eba0718044e6","system_id":"levelo_inurba_marseille","lat":43.298681,"lon":5.397225,"is_reserved":false,"is_disabled":false,"rental_uris":{"android":"levelo://app?vid=6d3f44db-c832-41e3-95d9-eba0718044e6","ios":"levelo://app?vid=6d3f44db-c832-41e3-95d9-eba0718044e6"},"vehicle_type_id":"4","last_reported":1724951285,"current_range_meters":25600,"station_id":"ce4bh0h2rcd13ifvqd50","pricing_plan_id":"cebpf4jnsgd1na2vs0mg"},{"bike_id":"4f7fdab3-74a3-4a91-b780-12be3c83a43a","system_id":"levelo_inurba_marseille","lat":43.289307,"lon":5.38406,"is_reserved":false,"is_disabled":false,"rental_uris":{"android":"levelo://app?vid=4f7fdab3-74a3-4a91-b780-12be3c83a43a","ios":"levelo://app?vid=4f7fdab3-74a3-4a91-b780-12be3c83a43a"},"vehicle_type_id":"4","last_reported":1724951285,"current_range_meters":0,"station_id":"ce4bh612rcd13ifvqe6g","pricing_plan_id":"cebpf4jnsgd1na2vs0mg"},{"bike_id":"730265af-8f21-4b0a-8cd7-d1e86e9735a7","system_id":"levelo_inurba_marseille","lat":43.28928,"lon":5.38395,"is_reserved":false,"is_disabled":false,"rental_uris":{"android":"levelo://app?vid=730265af-8f21-4b0a-8cd7-d1e86e9735a7","ios":"levelo://app?vid=730265af-8f21-4b0a-8cd7-d1e86e9735a7"},"vehicle_type_id":"4","last_reported":1724951285,"current_range_meters":0,"station_id":"ce4bh612rcd13ifvqe6g","pricing_plan_id":"cebpf4jnsgd1na2vs0mg"},{"bike_id":"c963b776-1897-4044-8fd6-6d8d1559b179","system_id":"levelo_inurba_marseille","lat":43.289307,"lon":5.38406,"is_reserved":false,"is_disabled":false,"rental_uris":{"android":"levelo://app?vid=c963b776-1897-4044-8fd6-6d8d1559b179","ios":"levelo://app?vid=c963b776-1897-4044-8fd6-6d8d1559b179"},"vehicle_type_id":"4","last_reported":1724951285,"current_range_meters":9200,"station_id":"ce4bh612rcd13ifvqe6g","pricing_plan_id":"cebpf4jnsgd1na2vs0mg"},{"bike_id":"de235828-9be4-4d61-a148-3021145fc854","system_id":"levelo_inurba_marseille","lat":43.290345,"lon":5.38646,"is_reserved":false,"is_disabled":false,"rental_uris":{"android":"levelo://app?vid=de235828-9be4-4d61-a148-3021145fc854","ios":"levelo://app?vid=de235828-9be4-4d61-a148-3021145fc854"},"vehicle_type_id":"4","last_reported":1724951285,"current_range_meters":1200,"station_id":"ce4bh4p2rcd13ifvqe0g","pricing_plan_id":"cebpf4jnsgd1na2vs0mg"},{"bike_id":"ae92cb5f-15f1-46ce-aa2c-27ec40f4201c","system_id":"levelo_inurba_marseille","lat":43.290336,"lon":5.386425,"is_reserved":false,"is_disabled":false,"rental_uris":{"android":"levelo://app?vid=ae92cb5f-15f1-46ce-aa2c-27ec40f4201c","ios":"levelo://app?vid=ae92cb5f-15f1-46ce-aa2c-27ec40f4201c"},"vehicle_type_id":"4","last_reported":1724951285,"current_range_meters":2800,"station_id":"ce4bh4p2rcd13ifvqe0g","pricing_plan_id":"cebpf4jnsgd1na2vs0mg"},{"bike_id":"cf4e2d84-1561-4643-bb61-d7af2609a61e","system_id":"levelo_inurba_marseille","lat":43.290336,"lon":5.386425,"is_reserved":false,"is_disabled":false,"rental_uris":{"android":"levelo://app?vid=cf4e2d84-1561-4643-bb61-d7af2609a61e","ios":"levelo://app?vid=cf4e2d84-1561-4643-bb61-d7af2609a61e"},"vehicle_type_id":"4","last_reported":1724951285,"current_range_meters":9200,"station_id":"ce4bh4p2rcd13ifvqe0g","pricing_plan_id":"cebpf4jnsgd1na2vs0mg"},{"bike_id":"21175b9e-6eea-40cf-8461-4fc0583239a7","system_id":"levelo_inurba_marseille","lat":43.290336,"lon":5.386425,"is_reserved":false,"is_disabled":false,"rental_uris":{"android":"levelo://app?vid=21175b9e-6eea-40cf-8461-4fc0583239a7","ios":"levelo://app?vid=21175b9e-6eea-40cf-8461-4fc0583239a7"},"vehicle_type_id":"4","last_reported":1724951285,"current_range_meters":16400,"station_id":"ce4bh4p2rcd13ifvqe0g","pricing_plan_id":"cebpf4jnsgd1na2vs0mg"},{"bike_id":"72af806a-3825-4ddb-a1bc-da4b684db86e","system_id":"levelo_inurba_marseille","lat":43.3025,"lon":5.4007,"is_reserved":false,"is_disabled":false,"rental_uris":{"android":"levelo://app?vid=72af806a-3825-4ddb-a1bc-da4b684db86e","ios":"levelo://app?vid=72af806a-3825-4ddb-a1bc-da4b684db86e"},"vehicle_type_id":"4","last_reported":1724951285,"current_range_meters":0,"station_id":"ce4bgvh2rcd13ifvqcs0","pricing_plan_id":"cebpf4jnsgd1na2vs0mg"},{"bike_id":"a31f1ba0-0b59-4682-8ad1-53da2361e7d2","system_id":"levelo_inurba_marseille","lat":43.302759,"lon":5.400793,"is_reserved":false,"is_disabled":false,"rental_uris":{"android":"levelo://app?vid=a31f1ba0-0b59-4682-8ad1-53da2361e7d2","ios":"levelo://app?vid=a31f1ba0-0b59-4682-8ad1-53da2361e7d2"},"vehicle_type_id":"4","last_reported":1724951285,"current_range_meters":10400,"station_id":"ce4bgvh2rcd13ifvqcs0","pricing_plan_id":"cebpf4jnsgd1na2vs0mg"},{"bike_id":"047b3db1-a98c-4fb5-9851-af31e95b11b3","system_id":"levelo_inurba_marseille","lat":43.286039,"lon":5.370679,"is_reserved":false,"is_disabled":false,"rental_uris":{"android":"levelo://app?vid=047b3db1-a98c-4fb5-9851-af31e95b11b3","ios":"levelo://app?vid=047b3db1-a98c-4fb5-9851-af31e95b11b3"},"vehicle_type_id":"4","last_reported":1724951285,"current_range_meters":26400,"station_id":"ce4bht12rcd13ifvqi60","pricing_plan_id":"cebpf4jnsgd1na2vs0mg"},{"bike_id":"cb369275-bae5-40e4-807b-b758e8cadca7","system_id":"levelo_inurba_marseille","lat":43.287185,"lon":5.379373,"is_reserved":false,"is_disabled":false,"rental_uris":{"android":"levelo://app?vid=cb369275-bae5-40e4-807b-b758e8cadca7","ios":"levelo://app?vid=cb369275-bae5-40e4-807b-b758e8cadca7"},"vehicle_type_id":"4","last_reported":1724951285,"current_range_meters":9200,"station_id":"ce4bh9p2rcd13ifvqec0","pricing_plan_id":"cebpf4jnsgd1na2vs0mg"},{"bike_id":"e66a5253-7cb0-44a0-af74-2979c8d5d323","system_id":"levelo_inurba_marseille","lat":43.287185,"lon":5.379373,"is_reserved":false,"is_disabled":false,"rental_uris":{"android":"levelo://app?vid=e66a5253-7cb0-44a0-af74-2979c8d5d323","ios":"levelo://app?vid=e66a5253-7cb0-44a0-af74-2979c8d5d323"},"vehicle_type_id":"4","last_reported":1724951285,"current_range_meters":27200,"station_id":"ce4bh9p2rcd13ifvqec0","pricing_plan_id":"cebpf4jnsgd1na2vs0mg"},{"bike_id":"ec1183c0-668e-47ad-86ca-b2848e064fb1","system_id":"levelo_inurba_marseille","lat":43.287913,"lon":5.382628,"is_reserved":false,"is_disabled":false,"rental_uris":{"android":"levelo://app?vid=ec1183c0-668e-47ad-86ca-b2848e064fb1","ios":"levelo://app?vid=ec1183c0-668e-47ad-86ca-b2848e064fb1"},"vehicle_type_id":"4","last_reported":1724951285,"current_range_meters":27600,"station_id":"","pricing_plan_id":"cebpf4jnsgd1na2vs0mg"},{"bike_id":"c70d4154-6c2a-4af3-92a6-6157f309ec40","system_id":"levelo_inurba_marseille","lat":43.316828,"lon":5.404723,"is_reserved":false,"is_disabled":false,"rental_uris":{"android":"levelo://app?vid=c70d4154-6c2a-4af3-92a6-6157f309ec40","ios":"levelo://app?vid=c70d4154-6c2a-4af3-92a6-6157f309ec40"},"vehicle_type_id":"4","last_reported":1724951285,"current_range_meters":9600,"station_id":"ce4bh012rcd13ifvqd00","pricing_plan_id":"cebpf4jnsgd1na2vs0mg"},{"bike_id":"ebfb8966-2b1c-40e2-83ce-84fb6a0175c1","system_id":"levelo_inurba_marseille","lat":43.29205,"lon":5.39324,"is_reserved":false,"is_disabled":false,"rental_uris":{"android":"levelo://app?vid=ebfb8966-2b1c-40e2-83ce-84fb6a0175c1","ios":"levelo://app?vid=ebfb8966-2b1c-40e2-83ce-84fb6a0175c1"},"vehicle_type_id":"4","last_reported":1724951285,"current_range_meters":0,"station_id":"ce4bh192rcd13ifvqdd0","pricing_plan_id":"cebpf4jnsgd1na2vs0mg"},{"bike_id":"8bec93a3-21db-4be3-873b-88616290ab9c","system_id":"levelo_inurba_marseille","lat":43.291994,"lon":5.392907,"is_reserved":false,"is_disabled":false,"rental_uris":{"android":"levelo://app?vid=8bec93a3-21db-4be3-873b-88616290ab9c","ios":"levelo://app?vid=8bec93a3-21db-4be3-873b-88616290ab9c"},"vehicle_type_id":"4","last_reported":1724951285,"current_range_meters":400,"station_id":"ce4bh192rcd13ifvqdd0","pricing_plan_id":"cebpf4jnsgd1na2vs0mg"},{"bike_id":"0667b806-4281-4607-8143-9b63170bd117","system_id":"levelo_inurba_marseille","lat":43.28479,"lon":5.374655,"is_reserved":false,"is_disabled":false,"rental_uris":{"android":"levelo://app?vid=0667b806-4281-4607-8143-9b63170bd117","ios":"levelo://app?vid=0667b806-4281-4607-8143-9b63170bd117"},"vehicle_type_id":"4","last_reported":1724951285,"current_range_meters":18400,"station_id":"","pricing_plan_id":"cebpf4jnsgd1na2vs0mg"},{"bike_id":"c8606807-f566-47e0-88a2-075e46490b83","system_id":"levelo_inurba_marseille","lat":43.2846,"lon":5.3588,"is_reserved":false,"is_disabled":false,"rental_uris":{"android":"levelo://app?vid=c8606807-f566-47e0-88a2-075e46490b83","ios":"levelo://app?vid=c8606807-f566-47e0-88a2-075e46490b83"},"vehicle_type_id":"4","last_reported":1724951285,"current_range_meters":0,"station_id":"ce4bhah2rcd13ifvqei0","pricing_plan_id":"cebpf4jnsgd1na2vs0mg"},{"bike_id":"7de4245b-b2b0-40bf-96f2-bd253daffd5b","system_id":"levelo_inurba_marseille","lat":43.29444,"lon":5.39741,"is_reserved":false,"is_disabled":false,"rental_uris":{"android":"levelo://app?vid=7de4245b-b2b0-40bf-96f2-bd253daffd5b","ios":"levelo://app?vid=7de4245b-b2b0-40bf-96f2-bd253daffd5b"},"vehicle_type_id":"4","last_reported":1724951285,"current_range_meters":0,"station_id":"ce4bh3h2rcd13ifvqdo0","pricing_plan_id":"cebpf4jnsgd1na2vs0mg"},{"bike_id":"7289d753-cfc5-4f72-9404-b6e329a1f30a","system_id":"levelo_inurba_marseille","lat":43.284534,"lon":5.358662,"is_reserved":false,"is_disabled":false,"rental_uris":{"android":"levelo://app?vid=7289d753-cfc5-4f72-9404-b6e329a1f30a","ios":"levelo://app?vid=7289d753-cfc5-4f72-9404-b6e329a1f30a"},"vehicle_type_id":"4","last_reported":1724951285,"current_range_meters":19200,"station_id":"ce4bhah2rcd13ifvqei0","pricing_plan_id":"cebpf4jnsgd1na2vs0mg"},{"bike_id":"f524f784-8e8e-4fce-bf3d-acfd285ab858","system_id":"levelo_inurba_marseille","lat":43.284534,"lon":5.358662,"is_reserved":false,"is_disabled":false,"rental_uris":{"android":"levelo://app?vid=f524f784-8e8e-4fce-bf3d-acfd285ab858","ios":"levelo://app?vid=f524f784-8e8e-4fce-bf3d-acfd285ab858"},"vehicle_type_id":"4","last_reported":1724951285,"current_range_meters":9200,"station_id":"ce4bhah2rcd13ifvqei0","pricing_plan_id":"cebpf4jnsgd1na2vs0mg"},{"bike_id":"b3146104-aa6c-4729-bac2-cc9b0086fd12","system_id":"levelo_inurba_marseille","lat":43.284538,"lon":5.358657,"is_reserved":false,"is_disabled":false,"rental_uris":{"android":"levelo://app?vid=b3146104-aa6c-4729-bac2-cc9b0086fd12","ios":"levelo://app?vid=b3146104-aa6c-4729-bac2-cc9b0086fd12"},"vehicle_type_id":"4","last_reported":1724951285,"current_range_meters":6400,"station_id":"ce4bhah2rcd13ifvqei0","pricing_plan_id":"cebpf4jnsgd1na2vs0mg"},{"bike_id":"c19165a9-4736-43ff-bf55-00d9930be935","system_id":"levelo_inurba_marseille","lat":43.294342,"lon":5.397458,"is_reserved":false,"is_disabled":false,"rental_uris":{"android":"levelo://app?vid=c19165a9-4736-43ff-bf55-00d9930be935","ios":"levelo://app?vid=c19165a9-4736-43ff-bf55-00d9930be935"},"vehicle_type_id":"4","last_reported":1724951285,"current_range_meters":3600,"station_id":"","pricing_plan_id":"cebpf4jnsgd1na2vs0mg"},{"bike_id":"aa682bef-1873-4206-83c3-331e1c6c518f","system_id":"levelo_inurba_marseille","lat":43.294314,"lon":5.397498,"is_reserved":false,"is_disabled":false,"rental_uris":{"android":"levelo://app?vid=aa682bef-1873-4206-83c3-331e1c6c518f","ios":"levelo://app?vid=aa682bef-1873-4206-83c3-331e1c6c518f"},"vehicle_type_id":"4","last_reported":1724951285,"current_range_meters":4000,"station_id":"ce4bh3h2rcd13ifvqdo0","pricing_plan_id":"cebpf4jnsgd1na2vs0mg"},{"bike_id":"f0de3541-488f-46f8-82dc-43762a13085c","system_id":"levelo_inurba_marseille","lat":43.28622,"lon":5.35107,"is_reserved":false,"is_disabled":false,"rental_uris":{"android":"levelo://app?vid=f0de3541-488f-46f8-82dc-43762a13085c","ios":"levelo://app?vid=f0de3541-488f-46f8-82dc-43762a13085c"},"vehicle_type_id":"4","last_reported":1724951285,"current_range_meters":21600,"station_id":"ce4bhch2rcd13ifvqeug","pricing_plan_id":"cebpf4jnsgd1na2vs0mg"},{"bike_id":"2881995d-1bc6-4851-9dd4-dc18d9e69747","system_id":"levelo_inurba_marseille","lat":43.28622,"lon":5.35101,"is_reserved":false,"is_disabled":false,"rental_uris":{"android":"levelo://app?vid=2881995d-1bc6-4851-9dd4-dc18d9e69747","ios":"levelo://app?vid=2881995d-1bc6-4851-9dd4-dc18d9e69747"},"vehicle_type_id":"4","last_reported":1724951285,"current_range_meters":31200,"station_id":"ce4bhch2rcd13ifvqeug","pricing_plan_id":"cebpf4jnsgd1na2vs0mg"},{"bike_id":"791283b5-cc31-4fd5-8ee5-00af248f462c","system_id":"levelo_inurba_marseille","lat":43.28619,"lon":5.35109,"is_reserved":false,"is_disabled":false,"rental_uris":{"android":"levelo://app?vid=791283b5-cc31-4fd5-8ee5-00af248f462c","ios":"levelo://app?vid=791283b5-cc31-4fd5-8ee5-00af248f462c"},"vehicle_type_id":"4","last_reported":1724951285,"current_range_meters":9600,"station_id":"ce4bhch2rcd13ifvqeug","pricing_plan_id":"cebpf4jnsgd1na2vs0mg"},{"bike_id":"9402b2db-7af7-4195-b796-69639c9552cb","system_id":"levelo_inurba_marseille","lat":43.28618,"lon":5.35112,"is_reserved":false,"is_disabled":false,"rental_uris":{"android":"levelo://app?vid=9402b2db-7af7-4195-b796-69639c9552cb","ios":"levelo://app?vid=9402b2db-7af7-4195-b796-69639c9552cb"},"vehicle_type_id":"4","last_reported":1724951285,"current_range_meters":31200,"station_id":"ce4bhch2rcd13ifvqeug","pricing_plan_id":"cebpf4jnsgd1na2vs0mg"},{"bike_id":"3c8f7d49-518a-4ca9-88ef-ccd05a6ddf04","system_id":"levelo_inurba_marseille","lat":43.28621,"lon":5.35102,"is_reserved":false,"is_disabled":false,"rental_uris":{"android":"levelo://app?vid=3c8f7d49-518a-4ca9-88ef-ccd05a6ddf04","ios":"levelo://app?vid=3c8f7d49-518a-4ca9-88ef-ccd05a6ddf04"},"vehicle_type_id":"4","last_reported":1724951285,"current_range_meters":6000,"station_id":"ce4bhch2rcd13ifvqeug","pricing_plan_id":"cebpf4jnsgd1na2vs0mg"},{"bike_id":"eadb8992-660d-4557-be99-71641493c5cf","system_id":"levelo_inurba_marseille","lat":43.28622,"lon":5.35098,"is_reserved":false,"is_disabled":false,"rental_uris":{"android":"levelo://app?vid=eadb8992-660d-4557-be99-71641493c5cf","ios":"levelo://app?vid=eadb8992-660d-4557-be99-71641493c5cf"},"vehicle_type_id":"4","last_reported":1724951285,"current_range_meters":16800,"station_id":"ce4bhch2rcd13ifvqeug","pricing_plan_id":"cebpf4jnsgd1na2vs0mg"},{"bike_id":"9250e61c-39d7-4b71-9521-02be6644d446","system_id":"levelo_inurba_marseille","lat":43.28619,"lon":5.35107,"is_reserved":false,"is_disabled":false,"rental_uris":{"android":"levelo://app?vid=9250e61c-39d7-4b71-9521-02be6644d446","ios":"levelo://app?vid=9250e61c-39d7-4b71-9521-02be6644d446"},"vehicle_type_id":"4","last_reported":1724951285,"current_range_meters":31200,"station_id":"ce4bhch2rcd13ifvqeug","pricing_plan_id":"cebpf4jnsgd1na2vs0mg"},{"bike_id":"f853835f-dd1e-4175-98ca-272711fb5766","system_id":"levelo_inurba_marseille","lat":43.28617,"lon":5.35112,"is_reserved":false,"is_disabled":false,"rental_uris":{"android":"levelo://app?vid=f853835f-dd1e-4175-98ca-272711fb5766","ios":"levelo://app?vid=f853835f-dd1e-4175-98ca-272711fb5766"},"vehicle_type_id":"4","last_reported":1724951285,"current_range_meters":9600,"station_id":"ce4bhch2rcd13ifvqeug","pricing_plan_id":"cebpf4jnsgd1na2vs0mg"},{"bike_id":"8c1f225b-39d0-4c0e-b54c-995502ab15b5","system_id":"levelo_inurba_marseille","lat":43.286178,"lon":5.351066,"is_reserved":false,"is_disabled":false,"rental_uris":{"android":"levelo://app?vid=8c1f225b-39d0-4c0e-b54c-995502ab15b5","ios":"levelo://app?vid=8c1f225b-39d0-4c0e-b54c-995502ab15b5"},"vehicle_type_id":"4","last_reported":1724951285,"current_range_meters":5600,"station_id":"","pricing_plan_id":"cebpf4jnsgd1na2vs0mg"},{"bike_id":"c2680aea-0496-4cae-9b2a-d23d44cf6659","system_id":"levelo_inurba_marseille","lat":43.28617,"lon":5.35109,"is_reserved":false,"is_disabled":false,"rental_uris":{"android":"levelo://app?vid=c2680aea-0496-4cae-9b2a-d23d44cf6659","ios":"levelo://app?vid=c2680aea-0496-4cae-9b2a-d23d44cf6659"},"vehicle_type_id":"4","last_reported":1724951285,"current_range_meters":31200,"station_id":"ce4bhch2rcd13ifvqeug","pricing_plan_id":"cebpf4jnsgd1na2vs0mg"},{"bike_id":"ab1a77a3-fa69-4ab8-b356-41f875cb1d9d","system_id":"levelo_inurba_marseille","lat":43.28616,"lon":5.35107,"is_reserved":false,"is_disabled":false,"rental_uris":{"android":"levelo://app?vid=ab1a77a3-fa69-4ab8-b356-41f875cb1d9d","ios":"levelo://app?vid=ab1a77a3-fa69-4ab8-b356-41f875cb1d9d"},"vehicle_type_id":"4","last_reported":1724951285,"current_range_meters":14000,"station_id":"ce4bhch2rcd13ifvqeug","pricing_plan_id":"cebpf4jnsgd1na2vs0mg"},{"bike_id":"e4e9ef9b-0a49-4cbb-9300-1c6af73ef9c5","system_id":"levelo_inurba_marseille","lat":43.28615,"lon":5.3511,"is_reserved":false,"is_disabled":false,"rental_uris":{"android":"levelo://app?vid=e4e9ef9b-0a49-4cbb-9300-1c6af73ef9c5","ios":"levelo://app?vid=e4e9ef9b-0a49-4cbb-9300-1c6af73ef9c5"},"vehicle_type_id":"4","last_reported":1724951285,"current_range_meters":15200,"station_id":"ce4bhch2rcd13ifvqeug","pricing_plan_id":"cebpf4jnsgd1na2vs0mg"},{"bike_id":"f4bccb60-1cb8-401f-bb65-1a6fc5395f51","system_id":"levelo_inurba_marseille","lat":43.28616,"lon":5.35103,"is_reserved":false,"is_disabled":false,"rental_uris":{"android":"levelo://app?vid=f4bccb60-1cb8-401f-bb65-1a6fc5395f51","ios":"levelo://app?vid=f4bccb60-1cb8-401f-bb65-1a6fc5395f51"},"vehicle_type_id":"4","last_reported":1724951285,"current_range_meters":31200,"station_id":"ce4bhch2rcd13ifvqeug","pricing_plan_id":"cebpf4jnsgd1na2vs0mg"},{"bike_id":"d9a07f12-f26b-4552-9514-9851104cea06","system_id":"levelo_inurba_marseille","lat":43.28616,"lon":5.35103,"is_reserved":false,"is_disabled":false,"rental_uris":{"android":"levelo://app?vid=d9a07f12-f26b-4552-9514-9851104cea06","ios":"levelo://app?vid=d9a07f12-f26b-4552-9514-9851104cea06"},"vehicle_type_id":"4","last_reported":1724951285,"current_range_meters":4000,"station_id":"ce4bhch2rcd13ifvqeug","pricing_plan_id":"cebpf4jnsgd1na2vs0mg"},{"bike_id":"047d3ce7-c487-4830-8cf3-bc874e3a89ae","system_id":"levelo_inurba_marseille","lat":43.28615,"lon":5.35105,"is_reserved":false,"is_disabled":false,"rental_uris":{"android":"levelo://app?vid=047d3ce7-c487-4830-8cf3-bc874e3a89ae","ios":"levelo://app?vid=047d3ce7-c487-4830-8cf3-bc874e3a89ae"},"vehicle_type_id":"4","last_reported":1724951285,"current_range_meters":11200,"station_id":"ce4bhch2rcd13ifvqeug","pricing_plan_id":"cebpf4jnsgd1na2vs0mg"},{"bike_id":"72c8b58a-d598-4c72-ad6c-7aa209b1dbb2","system_id":"levelo_inurba_marseille","lat":43.285856,"lon":5.350771,"is_reserved":false,"is_disabled":false,"rental_uris":{"android":"levelo://app?vid=72c8b58a-d598-4c72-ad6c-7aa209b1dbb2","ios":"levelo://app?vid=72c8b58a-d598-4c72-ad6c-7aa209b1dbb2"},"vehicle_type_id":"4","last_reported":1724951285,"current_range_meters":31200,"station_id":"ce4bhch2rcd13ifvqeug","pricing_plan_id":"cebpf4jnsgd1na2vs0mg"},{"bike_id":"a35ed516-d6a8-48ba-82d4-1e4a353f244e","system_id":"levelo_inurba_marseille","lat":43.285856,"lon":5.350771,"is_reserved":false,"is_disabled":false,"rental_uris":{"android":"levelo://app?vid=a35ed516-d6a8-48ba-82d4-1e4a353f244e","ios":"levelo://app?vid=a35ed516-d6a8-48ba-82d4-1e4a353f244e"},"vehicle_type_id":"4","last_reported":1724951285,"current_range_meters":14800,"station_id":"ce4bhch2rcd13ifvqeug","pricing_plan_id":"cebpf4jnsgd1na2vs0mg"},{"bike_id":"5fab741d-7c67-47de-b024-f86cb0af51ff","system_id":"levelo_inurba_marseille","lat":43.28613,"lon":5.35106,"is_reserved":false,"is_disabled":false,"rental_uris":{"android":"levelo://app?vid=5fab741d-7c67-47de-b024-f86cb0af51ff","ios":"levelo://app?vid=5fab741d-7c67-47de-b024-f86cb0af51ff"},"vehicle_type_id":"4","last_reported":1724951285,"current_range_meters":8800,"station_id":"ce4bhch2rcd13ifvqeug","pricing_plan_id":"cebpf4jnsgd1na2vs0mg"},{"bike_id":"65ddab3b-4100-42de-a20e-dafe130ddbf4","system_id":"levelo_inurba_marseille","lat":43.285856,"lon":5.350771,"is_reserved":false,"is_disabled":false,"rental_uris":{"android":"levelo://app?vid=65ddab3b-4100-42de-a20e-dafe130ddbf4","ios":"levelo://app?vid=65ddab3b-4100-42de-a20e-dafe130ddbf4"},"vehicle_type_id":"4","last_reported":1724951285,"current_range_meters":26000,"station_id":"ce4bhch2rcd13ifvqeug","pricing_plan_id":"cebpf4jnsgd1na2vs0mg"},{"bike_id":"f8c5199b-47e1-4ce3-9bb5-21915f5235e2","system_id":"levelo_inurba_marseille","lat":43.285856,"lon":5.350771,"is_reserved":false,"is_disabled":false,"rental_uris":{"android":"levelo://app?vid=f8c5199b-47e1-4ce3-9bb5-21915f5235e2","ios":"levelo://app?vid=f8c5199b-47e1-4ce3-9bb5-21915f5235e2"},"vehicle_type_id":"4","last_reported":1724951285,"current_range_meters":31600,"station_id":"ce4bhch2rcd13ifvqeug","pricing_plan_id":"cebpf4jnsgd1na2vs0mg"},{"bike_id":"c77bc75f-dd8b-4535-9aee-eaf6afea7e64","system_id":"levelo_inurba_marseille","lat":43.28613,"lon":5.35102,"is_reserved":false,"is_disabled":false,"rental_uris":{"android":"levelo://app?vid=c77bc75f-dd8b-4535-9aee-eaf6afea7e64","ios":"levelo://app?vid=c77bc75f-dd8b-4535-9aee-eaf6afea7e64"},"vehicle_type_id":"4","last_reported":1724951285,"current_range_meters":21200,"station_id":"ce4bhch2rcd13ifvqeug","pricing_plan_id":"cebpf4jnsgd1na2vs0mg"},{"bike_id":"a7e55584-8bf8-4329-a1a9-c04f15b0ae8e","system_id":"levelo_inurba_marseille","lat":43.28613,"lon":5.35101,"is_reserved":false,"is_disabled":false,"rental_uris":{"android":"levelo://app?vid=a7e55584-8bf8-4329-a1a9-c04f15b0ae8e","ios":"levelo://app?vid=a7e55584-8bf8-4329-a1a9-c04f15b0ae8e"},"vehicle_type_id":"4","last_reported":1724951285,"current_range_meters":23200,"station_id":"ce4bhch2rcd13ifvqeug","pricing_plan_id":"cebpf4jnsgd1na2vs0mg"},{"bike_id":"70d8fb2c-8b55-415b-9044-8a3cafd19140","system_id":"levelo_inurba_marseille","lat":43.28611,"lon":5.351,"is_reserved":false,"is_disabled":false,"rental_uris":{"android":"levelo://app?vid=70d8fb2c-8b55-415b-9044-8a3cafd19140","ios":"levelo://app?vid=70d8fb2c-8b55-415b-9044-8a3cafd19140"},"vehicle_type_id":"4","last_reported":1724951285,"current_range_meters":21200,"station_id":"ce4bhch2rcd13ifvqeug","pricing_plan_id":"cebpf4jnsgd1na2vs0mg"},{"bike_id":"b9d744f2-71b9-4211-bafd-e5a75bd3e035","system_id":"levelo_inurba_marseille","lat":43.28608,"lon":5.35103,"is_reserved":false,"is_disabled":false,"rental_uris":{"android":"levelo://app?vid=b9d744f2-71b9-4211-bafd-e5a75bd3e035","ios":"levelo://app?vid=b9d744f2-71b9-4211-bafd-e5a75bd3e035"},"vehicle_type_id":"4","last_reported":1724951285,"current_range_meters":3200,"station_id":"ce4bhch2rcd13ifvqeug","pricing_plan_id":"cebpf4jnsgd1na2vs0mg"},{"bike_id":"eb144b26-da00-4e79-9dd9-63cb14480223","system_id":"levelo_inurba_marseille","lat":43.34144,"lon":5.36042,"is_reserved":false,"is_disabled":false,"rental_uris":{"android":"levelo://app?vid=eb144b26-da00-4e79-9dd9-63cb14480223","ios":"levelo://app?vid=eb144b26-da00-4e79-9dd9-63cb14480223"},"vehicle_type_id":"4","last_reported":1724951285,"current_range_meters":21600,"station_id":"","pricing_plan_id":"cebpf4jnsgd1na2vs0mg"},{"bike_id":"926616ad-c603-4cfa-9042-0597ba7fd2a7","system_id":"levelo_inurba_marseille","lat":43.283998,"lon":5.375062,"is_reserved":false,"is_disabled":false,"rental_uris":{"android":"levelo://app?vid=926616ad-c603-4cfa-9042-0597ba7fd2a7","ios":"levelo://app?vid=926616ad-c603-4cfa-9042-0597ba7fd2a7"},"vehicle_type_id":"4","last_reported":1724951285,"current_range_meters":16400,"station_id":"ce4bh412rcd13ifvqds0","pricing_plan_id":"cebpf4jnsgd1na2vs0mg"},{"bike_id":"6a19e1b4-2e6f-4b68-b48f-f6a7013d2d19","system_id":"levelo_inurba_marseille","lat":43.28409,"lon":5.37517,"is_reserved":false,"is_disabled":false,"rental_uris":{"android":"levelo://app?vid=6a19e1b4-2e6f-4b68-b48f-f6a7013d2d19","ios":"levelo://app?vid=6a19e1b4-2e6f-4b68-b48f-f6a7013d2d19"},"vehicle_type_id":"4","last_reported":1724951285,"current_range_meters":0,"station_id":"ce4bh412rcd13ifvqds0","pricing_plan_id":"cebpf4jnsgd1na2vs0mg"},{"bike_id":"f686e35f-7158-4f9e-9721-d3fb45217608","system_id":"levelo_inurba_marseille","lat":43.29568,"lon":5.39974,"is_reserved":false,"is_disabled":false,"rental_uris":{"android":"levelo://app?vid=f686e35f-7158-4f9e-9721-d3fb45217608","ios":"levelo://app?vid=f686e35f-7158-4f9e-9721-d3fb45217608"},"vehicle_type_id":"4","last_reported":1724951285,"current_range_meters":0,"station_id":"ce4bh312rcd13ifvqdj0","pricing_plan_id":"cebpf4jnsgd1na2vs0mg"},{"bike_id":"60114e6f-2d11-44ce-9c19-e46e92a4b6ed","system_id":"levelo_inurba_marseille","lat":43.286595,"lon":5.386795,"is_reserved":false,"is_disabled":false,"rental_uris":{"android":"levelo://app?vid=60114e6f-2d11-44ce-9c19-e46e92a4b6ed","ios":"levelo://app?vid=60114e6f-2d11-44ce-9c19-e46e92a4b6ed"},"vehicle_type_id":"4","last_reported":1724951285,"current_range_meters":20800,"station_id":"ce4bh492rcd13ifvqdug","pricing_plan_id":"cebpf4jnsgd1na2vs0mg"},{"bike_id":"9b5045a3-9c81-475b-acf5-2f8a7fcb0336","system_id":"levelo_inurba_marseille","lat":43.286595,"lon":5.386795,"is_reserved":false,"is_disabled":false,"rental_uris":{"android":"levelo://app?vid=9b5045a3-9c81-475b-acf5-2f8a7fcb0336","ios":"levelo://app?vid=9b5045a3-9c81-475b-acf5-2f8a7fcb0336"},"vehicle_type_id":"4","last_reported":1724951285,"current_range_meters":24400,"station_id":"ce4bh492rcd13ifvqdug","pricing_plan_id":"cebpf4jnsgd1na2vs0mg"},{"bike_id":"1705bed4-631d-46a3-8edd-d36235f17cbf","system_id":"levelo_inurba_marseille","lat":43.286595,"lon":5.386795,"is_reserved":false,"is_disabled":false,"rental_uris":{"android":"levelo://app?vid=1705bed4-631d-46a3-8edd-d36235f17cbf","ios":"levelo://app?vid=1705bed4-631d-46a3-8edd-d36235f17cbf"},"vehicle_type_id":"4","last_reported":1724951285,"current_range_meters":27200,"station_id":"ce4bh492rcd13ifvqdug","pricing_plan_id":"cebpf4jnsgd1na2vs0mg"},{"bike_id":"5abb0c66-a30b-4a99-ab97-c0402596f721","system_id":"levelo_inurba_marseille","lat":43.319179,"lon":5.407725,"is_reserved":false,"is_disabled":false,"rental_uris":{"android":"levelo://app?vid=5abb0c66-a30b-4a99-ab97-c0402596f721","ios":"levelo://app?vid=5abb0c66-a30b-4a99-ab97-c0402596f721"},"vehicle_type_id":"4","last_reported":1724951285,"current_range_meters":20800,"station_id":"ce4bhq12rcd13ifvqhig","pricing_plan_id":"cebpf4jnsgd1na2vs0mg"},{"bike_id":"469eb2c3-efd1-425a-ae21-657f989e3b83","system_id":"levelo_inurba_marseille","lat":43.319179,"lon":5.407725,"is_reserved":false,"is_disabled":false,"rental_uris":{"android":"levelo://app?vid=469eb2c3-efd1-425a-ae21-657f989e3b83","ios":"levelo://app?vid=469eb2c3-efd1-425a-ae21-657f989e3b83"},"vehicle_type_id":"4","last_reported":1724951285,"current_range_meters":20400,"station_id":"ce4bhq12rcd13ifvqhig","pricing_plan_id":"cebpf4jnsgd1na2vs0mg"},