{"last_updated":1737119665,"ttl":60,"version":"2.2","data":{"bikes":[{"bike_id":"f533845e-0478-4b96-9c81-b2cd4574395a","system_id":"levelo_inurba_marseille","lat":43.29658,"lon":5.37777,"is_reserved":false,"is_disabled":false,"rental_uris":{"android":"levelo://app?vid=f533845e-0478-4b96-9c81-b2cd4574395a","ios":"levelo://app?vid=f533845e-0478-4b96-9c81-b2cd4574395a"},"vehicle_type_id":"4","last_reported":1737119665,"current_range_meters":16800,"station_id":"ce4bgip2rcd13ifvqbb0","pricing_plan_id":"cebpf4jnsgd1na2vs0mg"},{"bike_id":"753ccb49-949e-4f76-bbe4-861c2515eec4","system_id":"levelo_inurba_marseille","lat":43.299118,"lon":5.374798,"is_reserved":false,"is_disabled":false,"rental_uris":{"android":"levelo://app?vid=753ccb49-949e-4f76-bbe4-861c2515eec4","ios":"levelo://app?vid=753ccb49-949e-4f76-bbe4-861c2515eec4"},"vehicle_type_id":"4","last_reported":1737119665,"current_range_meters":38800,"station_id":"ce4bgjh2rcd13ifvqbg0","pricing_plan_id":"cebpf4jnsgd1na2vs0mg"},{"bike_id":"0b3db7fa-f56f-431e-9413-b99a7fab1950","system_id":"levelo_inurba_marseille","lat":43.29271,"lon":5.36857,"is_reserved":false,"is_disabled":false,"rental_uris":{"android":"levelo://app?vid=0b3db7fa-f56f-431e-9413-b99a7fab1950","ios":"levelo://app?vid=0b3db7fa-f56f-431e-9413-b99a7fab1950"},"vehicle_type_id":"4","last_reported":1737119665,"current_range_meters":33600,"station_id":"ce4bhbp2rcd13ifvqesg","pricing_plan_id":"cebpf4jnsgd1na2vs0mg"},{"bike_id":"cbf0bd80-761a-4b5c-bbf1-8cd5a4841def","system_id":"levelo_inurba_marseille","lat":43.28926,"lon":5.38396,"is_reserved":false,"is_disabled":false,"rental_uris":{"android":"levelo://app?vid=cbf0bd80-761a-4b5c-bbf1-8cd5a4841def","ios":"levelo://app?vid=cbf0bd80-761a-4b5c-bbf1-8cd5a4841def"},"vehicle_type_id":"4","last_reported":1737119665,"current_range_meters":12400,"station_id":"ce4bh612rcd13ifvqe6g","pricing_plan_id":"cebpf4jnsgd1na2vs0mg"},{"bike_id":"352789ba-5de3-4f6e-84a8-32c41d59996f","system_id":"levelo_inurba_marseille","lat":43.30269,"lon":5.37698,"is_reserved":false,"is_disabled":false,"rental_uris":{"android":"levelo://app?vid=352789ba-5de3-4f6e-84a8-32c41d59996f","ios":"levelo://app?vid=352789ba-5de3-4f6e-84a8-32c41d59996f"},"vehicle_type_id":"4","last_reported":1737119665,"current_range_meters":38800,"station_id":"ce4bguh2rcd13ifvqcj0","pricing_plan_id":"cebpf4jnsgd1na2vs0mg"},{"bike_id":"736aa54d-b902-4630-8a90-71e7dee03587","system_id":"levelo_inurba_marseille","lat":43.26067,"lon":5.394,"is_reserved":false,"is_disabled":false,"rental_uris":{"android":"levelo://app?vid=736aa54d-b902-4630-8a90-71e7dee03587","ios":"levelo://app?vid=736aa54d-b902-4630-8a90-71e7dee03587"},"vehicle_type_id":"4","last_reported":1737119665,"current_range_meters":38400,"station_id":"ce4bhh92rcd13ifvqfj0","pricing_plan_id":"cebpf4jnsgd1na2vs0mg"},{"bike_id":"c8e86a55-202f-4beb-ba90-3cf2ee0357b7","system_id":"levelo_inurba_marseille","lat":43.31364,"lon":5.38492,"is_reserved":false,"is_disabled":false,"rental_uris":{"android":"levelo://app?vid=c8e86a55-202f-4beb-ba90-3cf2ee0357b7","ios":"levelo://app?vid=c8e86a55-202f-4beb-ba90-3cf2ee0357b7"},"vehicle_type_id":"4","last_reported":1737119665,"current_range_meters":38800,"station_id":"ce4bgt92rcd13ifvqcf0","pricing_plan_id":"cebpf4jnsgd1na2vs0mg"},{"bike_id":"2639b42c-ffb4-4688-ab74-37ab803cbe1a","system_id":"levelo_inurba_marseille","lat":43.2965,"lon":5.37159,"is_reserved":false,"is_disabled":false,"rental_uris":{"android":"levelo://app?vid=2639b42c-ffb4-4688-ab74-37ab803cbe1a","ios":"levelo://app?vid=2639b42c-ffb4-4688-ab74-37ab803cbe1a"},"vehicle_type_id":"4","last_reported":1737119665,"current_range_meters":22000,"station_id":"ce4bgnh2rcd13ifvqc0g","pricing_plan_id":"cebpf4jnsgd1na2vs0mg"},{"bike_id":"c86016ea-ba0b-48fd-a5cb-2b376b9dafde","system_id":"levelo_inurba_marseille","lat":43.29527,"lon":5.39043,"is_reserved":false,"is_disabled":false,"rental_uris":{"android":"levelo://app?vid=c86016ea-ba0b-48fd-a5cb-2b376b9dafde","ios":"levelo://app?vid=c86016ea-ba0b-48fd-a5cb-2b376b9dafde"},"vehicle_type_id":"4","last_reported":1737119665,"current_range_meters":38800,"station_id":"ce4bh3p2rcd13ifvqdp0","pricing_plan_id":"cebpf4jnsgd1na2vs0mg"},{"bike_id":"b69b3b31-ea67-43bf-9ec3-ced54a0978e1","system_id":"levelo_inurba_marseille","lat":43.29303,"lon":5.37166,"is_reserved":false,"is_disabled":false,"rental_uris":{"android":"levelo://app?vid=b69b3b31-ea67-43bf-9ec3-ced54a0978e1","ios":"levelo://app?vid=b69b3b31-ea67-43bf-9ec3-ced54a0978e1"},"vehicle_type_id":"4","last_reported":1737119665,"current_range_meters":30400,"station_id":"ce4bgh92rcd13ifvqb40","pricing_plan_id":"cebpf4jnsgd1na2vs0mg"},{"bike_id":"32b5d8a2-dc75-4342-a82c-1079ad6ad3b6","system_id":"levelo_inurba_marseille","lat":43.29559,"lon":5.37541,"is_reserved":false,"is_disabled":false,"rental_uris":{"android":"levelo://app?vid=32b5d8a2-dc75-4342-a82c-1079ad6ad3b6","ios":"levelo://app?vid=32b5d8a2-dc75-4342-a82c-1079ad6ad3b6"},"vehicle_type_id":"4","last_reported":1737119665,"current_range_meters":35200,"station_id":"ce4bgh92rcd13ifvqb50","pricing_plan_id":"cebpf4jnsgd1na2vs0mg"},{"bike_id":"685d9f4a-3e6d-4593-86f0-c4958e7708e8","system_id":"levelo_inurba_marseille","lat":43.2909,"lon":5.38141,"is_reserved":false,"is_disabled":false,"rental_uris":{"android":"levelo://app?vid=685d9f4a-3e6d-4593-86f0-c4958e7708e8","ios":"levelo://app?vid=685d9f4a-3e6d-4593-86f0-c4958e7708e8"},"vehicle_type_id":"4","last_reported":1737119665,"current_range_meters":38800,"station_id":"ce4bh512rcd13ifvqe2g","pricing_plan_id":"cebpf4jnsgd1na2vs0mg"},{"bike_id":"a4607759-bc6a-4b88-a0dc-6331eb2acc8c","system_id":"levelo_inurba_marseille","lat":43.29225,"lon":5.36072,"is_reserved":false,"is_disabled":false,"rental_uris":{"android":"levelo://app?vid=a4607759-bc6a-4b88-a0dc-6331eb2acc8c","ios":"levelo://app?vid=a4607759-bc6a-4b88-a0dc-6331eb2acc8c"},"vehicle_type_id":"4","last_reported":1737119665,"current_range_meters":30000,"station_id":"ce4bhbh2rcd13ifvqeqg","pricing_plan_id":"cebpf4jnsgd1na2vs0mg"},{"bike_id":"fd125d49-ca43-4f5e-b893-cd1b902f65b0","system_id":"levelo_inurba_marseille","lat":43.2958,"lon":5.36747,"is_reserved":false,"is_disabled":false,"rental_uris":{"android":"levelo://app?vid=fd125d49-ca43-4f5e-b893-cd1b902f65b0","ios":"levelo://app?vid=fd125d49-ca43-4f5e-b893-cd1b902f65b0"},"vehicle_type_id":"4","last_reported":1737119665,"current_range_meters":38000,"station_id":"ce4bgph2rcd13ifvqc2g","pricing_plan_id":"cebpf4jnsgd1na2vs0mg"},{"bike_id":"3400bc5d-e982-4bd1-aa7c-d4a0504b5538","system_id":"levelo_inurba_marseille","lat":43.30592,"lon":5.37207,"is_reserved":false,"is_disabled":false,"rental_uris":{"android":"levelo://app?vid=3400bc5d-e982-4bd1-aa7c-d4a0504b5538","ios":"levelo://app?vid=3400bc5d-e982-4bd1-aa7c-d4a0504b5538"},"vehicle_type_id":"4","last_reported":1737119665,"current_range_meters":26000,"station_id":"ce4bgqh2rcd13ifvqc4g","pricing_plan_id":"cebpf4jnsgd1na2vs0mg"},{"bike_id":"98a80188-fca5-4704-808f-eb6255c5042d","system_id":"levelo_inurba_marseille","lat":43.303932,"lon":5.377631,"is_reserved":false,"is_disabled":false,"rental_uris":{"android":"levelo://app?vid=98a80188-fca5-4704-808f-eb6255c5042d","ios":"levelo://app?vid=98a80188-fca5-4704-808f-eb6255c5042d"},"vehicle_type_id":"4","last_reported":1737119665,"current_range_meters":34000,"station_id":"ce4bgl92rcd13ifvqbq0","pricing_plan_id":"cebpf4jnsgd1na2vs0mg"},{"bike_id":"068ab2b9-2819-40c2-84d7-30932c61f188","system_id":"levelo_inurba_marseille","lat":43.30197,"lon":5.39469,"is_reserved":false,"is_disabled":false,"rental_uris":{"android":"levelo://app?vid=068ab2b9-2819-40c2-84d7-30932c61f188","ios":"levelo://app?vid=068ab2b9-2819-40c2-84d7-30932c61f188"},"vehicle_type_id":"4","last_reported":1737119665,"current_range_meters":27200,"station_id":"ce4bh0p2rcd13ifvqd70","pricing_plan_id":"cebpf4jnsgd1na2vs0mg"},{"bike_id":"99ed9aa0-745d-45dd-b3e8-f8ee1e4a9f47","system_id":"levelo_inurba_marseille","lat":43.26949,"lon":5.38647,"is_reserved":false,"is_disabled":false,"rental_uris":{"android":"levelo://app?vid=99ed9aa0-745d-45dd-b3e8-f8ee1e4a9f47","ios":"levelo://app?vid=99ed9aa0-745d-45dd-b3e8-f8ee1e4a9f47"},"vehicle_type_id":"4","last_reported":1737119665,"current_range_meters":38800,"station_id":"ce4bhh92rcd13ifvqfh0","pricing_plan_id":"cebpf4jnsgd1na2vs0mg"},{"bike_id":"c4fc9679-1008-473b-9e9b-26f1ed62312e","system_id":"levelo_inurba_marseille","lat":43.2294,"lon":5.35389,"is_reserved":false,"is_disabled":false,"rental_uris":{"android":"levelo://app?vid=c4fc9679-1008-473b-9e9b-26f1ed62312e","ios":"levelo://app?vid=c4fc9679-1008-473b-9e9b-26f1ed62312e"},"vehicle_type_id":"4","last_reported":1737119665,"current_range_meters":18800,"station_id":"cpo3532slgdg3j2ikp40","pricing_plan_id":"cebpf4jnsgd1na2vs0mg"},{"bike_id":"21066e24-fd5e-40c0-a82a-a1da89fbd9ff","system_id":"levelo_inurba_marseille","lat":43.30123,"lon":5.38111,"is_reserved":false,"is_disabled":false,"rental_uris":{"android":"levelo://app?vid=21066e24-fd5e-40c0-a82a-a1da89fbd9ff","ios":"levelo://app?vid=21066e24-fd5e-40c0-a82a-a1da89fbd9ff"},"vehicle_type_id":"4","last_reported":1737119665,"current_range_meters":24400,"station_id":"ce4bgjp2rcd13ifvqbh0","pricing_plan_id":"cebpf4jnsgd1na2vs0mg"},{"bike_id":"ef45737c-063f-47d0-af9e-636b156d4a9e","system_id":"levelo_inurba_marseille","lat":43.301577,"lon":5.380862,"is_reserved":false,"is_disabled":false,"rental_uris":{"android":"levelo://app?vid=ef45737c-063f-47d0-af9e-636b156d4a9e","ios":"levelo://app?vid=ef45737c-063f-47d0-af9e-636b156d4a9e"},"vehicle_type_id":"4","last_reported":1737119665,"current_range_meters":36400,"station_id":"ce4bgjp2rcd13ifvqbh0","pricing_plan_id":"cebpf4jnsgd1na2vs0mg"},{"bike_id":"5142ff74-1123-41d8-b97d-c2f96516fa84","system_id":"levelo_inurba_marseille","lat":43.29279,"lon":5.36843,"is_reserved":false,"is_disabled":false,"rental_uris":{"android":"levelo://app?vid=5142ff74-1123-41d8-b97d-c2f96516fa84","ios":"levelo://app?vid=5142ff74-1123-41d8-b97d-c2f96516fa84"},"vehicle_type_id":"4","last_reported":1737119665,"current_range_meters":26000,"station_id":"ce4bhbp2rcd13ifvqesg","pricing_plan_id":"cebpf4jnsgd1na2vs0mg"},{"bike_id":"408f63ed-0b70-4ce1-9ff1-9513c58d15fb","system_id":"levelo_inurba_marseille","lat":43.29255,"lon":5.40907,"is_reserved":false,"is_disabled":false,"rental_uris":{"android":"levelo://app?vid=408f63ed-0b70-4ce1-9ff1-9513c58d15fb","ios":"levelo://app?vid=408f63ed-0b70-4ce1-9ff1-9513c58d15fb"},"vehicle_type_id":"4","last_reported":1737119665,"current_range_meters":20400,"station_id":"ce4bh192rcd13ifvqdc0","pricing_plan_id":"cebpf4jnsgd1na2vs0mg"},{"bike_id":"56c51ece-3536-4ce3-befe-a3278e20a131","system_id":"levelo_inurba_marseille","lat":43.30123,"lon":5.37416,"is_reserved":false,"is_disabled":false,"rental_uris":{"android":"levelo://app?vid=56c51ece-3536-4ce3-befe-a3278e20a131","ios":"levelo://app?vid=56c51ece-3536-4ce3-befe-a3278e20a131"},"vehicle_type_id":"4","last_reported":1737119665,"current_range_meters":25600,"station_id":"ce4bgs92rcd13ifvqcc0","pricing_plan_id":"cebpf4jnsgd1na2vs0mg"},{"bike_id":"c3ec5a49-e31f-43da-9a28-df2f71d799a4","system_id":"levelo_inurba_marseille","lat":43.2916,"lon":5.37165,"is_reserved":false,"is_disabled":false,"rental_uris":{"android":"levelo://app?vid=c3ec5a49-e31f-43da-9a28-df2f71d799a4","ios":"levelo://app?vid=c3ec5a49-e31f-43da-9a28-df2f71d799a4"},"vehicle_type_id":"4","last_reported":1737119665,"current_range_meters":6800,"station_id":"ce4bha92rcd13ifvqeh0","pricing_plan_id":"cebpf4jnsgd1na2vs0mg"},{"bike_id":"66065961-8f66-46c8-be70-f9092a8345b6","system_id":"levelo_inurba_marseille","lat":43.29096,"lon":5.38164,"is_reserved":false,"is_disabled":false,"rental_uris":{"android":"levelo://app?vid=66065961-8f66-46c8-be70-f9092a8345b6","ios":"levelo://app?vid=66065961-8f66-46c8-be70-f9092a8345b6"},"vehicle_type_id":"4","last_reported":1737119665,"current_range_meters":36000,"station_id":"ce4bh512rcd13ifvqe2g","pricing_plan_id":"cebpf4jnsgd1na2vs0mg"},{"bike_id":"dcff9f91-1e7c-4a39-9b46-2e878c5e1c72","system_id":"levelo_inurba_marseille","lat":43.31494,"lon":5.37296,"is_reserved":false,"is_disabled":false,"rental_uris":{"android":"levelo://app?vid=dcff9f91-1e7c-4a39-9b46-2e878c5e1c72","ios":"levelo://app?vid=dcff9f91-1e7c-4a39-9b46-2e878c5e1c72"},"vehicle_type_id":"4","last_reported":1737119665,"current_range_meters":28800,"station_id":"ce4bgt12rcd13ifvqcd0","pricing_plan_id":"cebpf4jnsgd1na2vs0mg"},{"bike_id":"1edc7cf7-dc2f-4b0c-ae88-b42e70a3b8d7","system_id":"levelo_inurba_marseille","lat":43.29025,"lon":5.38652,"is_reserved":false,"is_disabled":false,"rental_uris":{"android":"levelo://app?vid=1edc7cf7-dc2f-4b0c-ae88-b42e70a3b8d7","ios":"levelo://app?vid=1edc7cf7-dc2f-4b0c-ae88-b42e70a3b8d7"},"vehicle_type_id":"4","last_reported":1737119665,"current_range_meters":38800,"station_id":"ce4bh4p2rcd13ifvqe0g","pricing_plan_id":"cebpf4jnsgd1na2vs0mg"},{"bike_id":"66ec8711-3dbc-48f7-b091-25773ac6b77c","system_id":"levelo_inurba_marseille","lat":43.2813,"lon":5.44216,"is_reserved":false,"is_disabled":true,"rental_uris":{"android":"levelo://app?vid=66ec8711-3dbc-48f7-b091-25773ac6b77c","ios":"levelo://app?vid=66ec8711-3dbc-48f7-b091-25773ac6b77c"},"vehicle_type_id":"4","last_reported":1737119665,"current_range_meters":0,"station_id":"","pricing_plan_id":"cebpf4jnsgd1na2vs0mg"},{"bike_id":"93558611-9a4e-42d7-bf7c-4cf03b80ec30","system_id":"levelo_inurba_marseille","lat":43.2558,"lon":5.38233,"is_reserved":false,"is_disabled":false,"rental_uris":{"android":"levelo://app?vid=93558611-9a4e-42d7-bf7c-4cf03b80ec30","ios":"levelo://app?vid=93558611-9a4e-42d7-bf7c-4cf03b80ec30"},"vehicle_type_id":"4","last_reported":1737119665,"current_range_meters":20400,"station_id":"ce4bhih2rcd13ifvqfs0","pricing_plan_id":"cebpf4jnsgd1na2vs0mg"},{"bike_id":"0a709f11-4e6a-4d8f-a0b0-f11eab95141b","system_id":"levelo_inurba_marseille","lat":43.29204,"lon":5.39317,"is_reserved":false,"is_disabled":false,"rental_uris":{"android":"levelo://app?vid=0a709f11-4e6a-4d8f-a0b0-f11eab95141b","ios":"levelo://app?vid=0a709f11-4e6a-4d8f-a0b0-f11eab95141b"},"vehicle_type_id":"4","last_reported":1737119665,"current_range_meters":39200,"station_id":"ce4bh192rcd13ifvqdd0","pricing_plan_id":"cebpf4jnsgd1na2vs0mg"},{"bike_id":"3b49f315-aca7-4762-b5be-059514f370ac","system_id":"levelo_inurba_marseille","lat":43.29718,"lon":5.3768,"is_reserved":false,"is_disabled":false,"rental_uris":{"android":"levelo://app?vid=3b49f315-aca7-4762-b5be-059514f370ac","ios":"levelo://app?vid=3b49f315-aca7-4762-b5be-059514f370ac"},"vehicle_type_id":"4","last_reported":1737119665,"current_range_meters":38400,"station_id":"ce4bgkh2rcd13ifvqbl0","pricing_plan_id":"cebpf4jnsgd1na2vs0mg"},{"bike_id":"e94f5751-3760-4f03-84d5-5ceb919334c8","system_id":"levelo_inurba_marseille","lat":43.25109,"lon":5.40288,"is_reserved":false,"is_disabled":false,"rental_uris":{"android":"levelo://app?vid=e94f5751-3760-4f03-84d5-5ceb919334c8","ios":"levelo://app?vid=e94f5751-3760-4f03-84d5-5ceb919334c8"},"vehicle_type_id":"4","last_reported":1737119665,"current_range_meters":14400,"station_id":"ce4bhlh2rcd13ifvqgig","pricing_plan_id":"cebpf4jnsgd1na2vs0mg"},{"bike_id":"954b17d3-0d50-4d1d-9755-857bdc284020","system_id":"levelo_inurba_marseille","lat":43.28153,"lon":5.42637,"is_reserved":false,"is_disabled":false,"rental_uris":{"android":"levelo://app?vid=954b17d3-0d50-4d1d-9755-857bdc284020","ios":"levelo://app?vid=954b17d3-0d50-4d1d-9755-857bdc284020"},"vehicle_type_id":"4","last_reported":1737119665,"current_range_meters":27600,"station_id":"ce4bhnh2rcd13ifvqgug","pricing_plan_id":"cebpf4jnsgd1na2vs0mg"},{"bike_id":"c04d1df8-32ee-4244-979e-fee8b1c6e347","system_id":"levelo_inurba_marseille","lat":43.28481,"lon":5.3841,"is_reserved":false,"is_disabled":false,"rental_uris":{"android":"levelo://app?vid=c04d1df8-32ee-4244-979e-fee8b1c6e347","ios":"levelo://app?vid=c04d1df8-32ee-4244-979e-fee8b1c6e347"},"vehicle_type_id":"4","last_reported":1737119665,"current_range_meters":27600,"station_id":"ce4bh512rcd13ifvqe3g","pricing_plan_id":"cebpf4jnsgd1na2vs0mg"},{"bike_id":"0321cd6b-aaff-46d7-aacd-a1fa403e5c50","system_id":"levelo_inurba_marseille","lat":43.33108,"lon":5.3822,"is_reserved":false,"is_disabled":true,"rental_uris":{"android":"levelo://app?vid=0321cd6b-aaff-46d7-aacd-a1fa403e5c50","ios":"levelo://app?vid=0321cd6b-aaff-46d7-aacd-a1fa403e5c50"},"vehicle_type_id":"4","last_reported":1737119665,"current_range_meters":1600,"station_id":"","pricing_plan_id":"cebpf4jnsgd1na2vs0mg"},{"bike_id":"91900ac4-47c8-4400-a455-eba2ccf2e7e7","system_id":"levelo_inurba_marseille","lat":43.29619,"lon":5.37156,"is_reserved":false,"is_disabled":false,"rental_uris":{"android":"levelo://app?vid=91900ac4-47c8-4400-a455-eba2ccf2e7e7","ios":"levelo://app?vid=91900ac4-47c8-4400-a455-eba2ccf2e7e7"},"vehicle_type_id":"4","last_reported":1737119665,"current_range_meters":39200,"station_id":"ce4bgnh2rcd13ifvqc0g","pricing_plan_id":"cebpf4jnsgd1na2vs0mg"},{"bike_id":"98209367-6a92-46d1-b980-9e484d1970b7","system_id":"levelo_inurba_marseille","lat":43.31324,"lon":5.39704,"is_reserved":false,"is_disabled":false,"rental_uris":{"android":"levelo://app?vid=98209367-6a92-46d1-b980-9e484d1970b7","ios":"levelo://app?vid=98209367-6a92-46d1-b980-9e484d1970b7"},"vehicle_type_id":"4","last_reported":1737119665,"current_range_meters":8000,"station_id":"ce4bgvp2rcd13ifvqcu0","pricing_plan_id":"cebpf4jnsgd1na2vs0mg"},{"bike_id":"569f3824-2521-4c24-85a1-4ab6d6b08add","system_id":"levelo_inurba_marseille","lat":43.29576,"lon":5.37512,"is_reserved":false,"is_disabled":false,"rental_uris":{"android":"levelo://app?vid=569f3824-2521-4c24-85a1-4ab6d6b08add","ios":"levelo://app?vid=569f3824-2521-4c24-85a1-4ab6d6b08add"},"vehicle_type_id":"4","last_reported":1737119665,"current_range_meters":38800,"station_id":"ce4bgh92rcd13ifvqb50","pricing_plan_id":"cebpf4jnsgd1na2vs0mg"},{"bike_id":"f04f9576-0cd5-4d7a-a10d-769fdfb92b42","system_id":"levelo_inurba_marseille","lat":43.24074,"lon":5.37761,"is_reserved":false,"is_disabled":false,"rental_uris":{"android":"levelo://app?vid=f04f9576-0cd5-4d7a-a10d-769fdfb92b42","ios":"levelo://app?vid=f04f9576-0cd5-4d7a-a10d-769fdfb92b42"},"vehicle_type_id":"4","last_reported":1737119665,"current_range_meters":16800,"station_id":"ce4bhnp2rcd13ifvqgvg","pricing_plan_id":"cebpf4jnsgd1na2vs0mg"},{"bike_id":"84ce54be-a8fd-4da8-97fd-174c81fd4e80","system_id":"levelo_inurba_marseille","lat":43.29208,"lon":5.3606,"is_reserved":false,"is_disabled":false,"rental_uris":{"android":"levelo://app?vid=84ce54be-a8fd-4da8-97fd-174c81fd4e80","ios":"levelo://app?vid=84ce54be-a8fd-4da8-97fd-174c81fd4e80"},"vehicle_type_id":"4","last_reported":1737119665,"current_range_meters":28400,"station_id":"ce4bhbh2rcd13ifvqeqg","pricing_plan_id":"cebpf4jnsgd1na2vs0mg"},{"bike_id":"0ca4fbb7-223e-4258-9004-c8d81d5302b2","system_id":"levelo_inurba_marseille","lat":43.28027,"lon":5.36948,"is_reserved":false,"is_disabled":false,"rental_uris":{"android":"levelo://app?vid=0ca4fbb7-223e-4258-9004-c8d81d5302b2","ios":"levelo://app?vid=0ca4fbb7-223e-4258-9004-c8d81d5302b2"},"vehicle_type_id":"4","last_reported":1737119665,"current_range_meters":24400,"station_id":"ce4bha12rcd13ifvqef0","pricing_plan_id":"cebpf4jnsgd1na2vs0mg"},{"bike_id":"fa53afd0-c3c0-46c2-be7e-d056eb14f6b8","system_id":"levelo_inurba_marseille","lat":43.26071,"lon":5.39407,"is_reserved":false,"is_disabled":false,"rental_uris":{"android":"levelo://app?vid=fa53afd0-c3c0-46c2-be7e-d056eb14f6b8","ios":"levelo://app?vid=fa53afd0-c3c0-46c2-be7e-d056eb14f6b8"},"vehicle_type_id":"4","last_reported":1737119665,"current_range_meters":36400,"station_id":"ce4bhh92rcd13ifvqfj0","pricing_plan_id":"cebpf4jnsgd1na2vs0mg"},{"bike_id":"ae8ba11b-30c9-4dd1-8025-3e410396edba","system_id":"levelo_inurba_marseille","lat":43.33024,"lon":5.39042,"is_reserved":false,"is_disabled":false,"rental_uris":{"android":"levelo://app?vid=ae8ba11b-30c9-4dd1-8025-3e410396edba","ios":"levelo://app?vid=ae8ba11b-30c9-4dd1-8025-3e410396edba"},"vehicle_type_id":"4","last_reported":1737119665,"current_range_meters":10000,"station_id":"ce4bhr92rcd13ifvqhrg","pricing_plan_id":"cebpf4jnsgd1na2vs0mg"},{"bike_id":"a0020e87-f021-47c3-9f76-ad458e7049f0","system_id":"levelo_inurba_marseille","lat":43.28272,"lon":5.35063,"is_reserved":false,"is_disabled":false,"rental_uris":{"android":"levelo://app?vid=a0020e87-f021-47c3-9f76-ad458e7049f0","ios":"levelo://app?vid=a0020e87-f021-47c3-9f76-ad458e7049f0"},"vehicle_type_id":"4","last_reported":1737119665,"current_range_meters":38800,"station_id":"ce4bhbp2rcd13ifvqerg","pricing_plan_id":"cebpf4jnsgd1na2vs0mg"},{"bike_id":"7cfe6434-bc40-416b-a67c-6b987e262b97","system_id":"levelo_inurba_marseille","lat":43.29574,"lon":5.37509,"is_reserved":false,"is_disabled":false,"rental_uris":{"android":"levelo://app?vid=7cfe6434-bc40-416b-a67c-6b987e262b97","ios":"levelo://app?vid=7cfe6434-bc40-416b-a67c-6b987e262b97"},"vehicle_type_id":"4","last_reported":1737119665,"current_range_meters":38800,"station_id":"ce4bgh92rcd13ifvqb50","pricing_plan_id":"cebpf4jnsgd1na2vs0mg"},{"bike_id":"0aa09f67-eefc-45de-83cf-46587dbc0656","system_id":"levelo_inurba_marseille","lat":43.23181,"lon":5.39979,"is_reserved":false,"is_disabled":false,"rental_uris":{"android":"levelo://app?vid=0aa09f67-eefc-45de-83cf-46587dbc0656","ios":"levelo://app?vid=0aa09f67-eefc-45de-83cf-46587dbc0656"},"vehicle_type_id":"4","last_reported":1737119665,"current_range_meters":9200,"station_id":"ce4bhn12rcd13ifvqgqg","pricing_plan_id":"cebpf4jnsgd1na2vs0mg"},{"bike_id":"b962d51e-a07c-48fa-9049-988df31aa336","system_id":"levelo_inurba_marseille","lat":43.29018,"lon":5.38143,"is_reserved":false,"is_disabled":false,"rental_uris":{"android":"levelo://app?vid=b962d51e-a07c-48fa-9049-988df31aa336","ios":"levelo://app?vid=b962d51e-a07c-48fa-9049-988df31aa336"},"vehicle_type_id":"4","last_reported":1737119665,"current_range_meters":28800,"station_id":"ce4bh4p2rcd13ifvqe1g","pricing_plan_id":"cebpf4jnsgd1na2vs0mg"},{"bike_id":"ed05d91e-075f-4457-9cea-1cc457a72937","system_id":"levelo_inurba_marseille","lat":43.27366,"lon":5.36253,"is_reserved":false,"is_disabled":false,"rental_uris":{"android":"levelo://app?vid=ed05d91e-075f-4457-9cea-1cc457a72937","ios":"levelo://app?vid=ed05d91e-075f-4457-9cea-1cc457a72937"},"vehicle_type_id":"4","last_reported":1737119665,"current_range_meters":24000,"station_id":"ce4bhbh2rcd13ifvqeo0","pricing_plan_id":"cebpf4jnsgd1na2vs0mg"},{"bike_id":"94339a91-1380-4ff2-8f0e-ccc0d08795da","system_id":"levelo_inurba_marseille","lat":43.27372,"lon":5.36248,"is_reserved":false,"is_disabled":false,"rental_uris":{"android":"levelo://app?vid=94339a91-1380-4ff2-8f0e-ccc0d08795da","ios":"levelo://app?vid=94339a91-1380-4ff2-8f0e-ccc0d08795da"},"vehicle_type_id":"4","last_reported":1737119665,"current_range_meters":22000,"station_id":"ce4bhbh2rcd13ifvqeo0","pricing_plan_id":"cebpf4jnsgd1na2vs0mg"},{"bike_id":"e155dc60-5198-4d48-b1b3-0c54d5e1b4ad","system_id":"levelo_inurba_marseille","lat":43.2997,"lon":5.4132,"is_reserved":false,"is_disabled":false,"rental_uris":{"android":"levelo://app?vid=e155dc60-5198-4d48-b1b3-0c54d5e1b4ad","ios":"levelo://app?vid=e155dc60-5198-4d48-b1b3-0c54d5e1b4ad"},"vehicle_type_id":"4","last_reported":1737119665,"current_range_meters":33200,"station_id":"ce4bhp12rcd13ifvqh9g","pricing_plan_id":"cebpf4jnsgd1na2vs0mg"},{"bike_id":"329b9334-6365-4b2b-9474-77fcac2432ee","system_id":"levelo_inurba_marseille","lat":43.23962,"lon":5.36635,"is_reserved":false,"is_disabled":false,"rental_uris":{"android":"levelo://app?vid=329b9334-6365-4b2b-9474-77fcac2432ee","ios":"levelo://app?vid=329b9334-6365-4b2b-9474-77fcac2432ee"},"vehicle_type_id":"4","last_reported":1737119665,"current_range_meters":38800,"station_id":"ce4bhi12rcd13ifvqfp0","pricing_plan_id":"cebpf4jnsgd1na2vs0mg"},{"bike_id":"1830f3d1-7612-4783-8c78-d817c5ae22bc","system_id":"levelo_inurba_marseille","lat":43.301,"lon":5.39086,"is_reserved":false,"is_disabled":true,"rental_uris":{"android":"levelo://app?vid=1830f3d1-7612-4783-8c78-d817c5ae22bc","ios":"levelo://app?vid=1830f3d1-7612-4783-8c78-d817c5ae22bc"},"vehicle_type_id":"4","last_reported":1737119665,"current_range_meters":34800,"station_id":"","pricing_plan_id":"cebpf4jnsgd1na2vs0mg"},{"bike_id":"1430c178-dce7-4b87-a6b2-ed9967f742bf","system_id":"levelo_inurba_marseille","lat":43.30615,"lon":5.37252,"is_reserved":false,"is_disabled":false,"rental_uris":{"android":"levelo://app?vid=1430c178-dce7-4b87-a6b2-ed9967f742bf","ios":"levelo://app?vid=1430c178-dce7-4b87-a6b2-ed9967f742bf"},"vehicle_type_id":"4","last_reported":1737119665,"current_range_meters":28400,"station_id":"ce4bgqh2rcd13ifvqc4g","pricing_plan_id":"cebpf4jnsgd1na2vs0mg"},{"bike_id":"8129aa24-f6bd-43a9-86ac-695cae9ad950","system_id":"levelo_inurba_marseille","lat":43.33758,"lon":5.37468,"is_reserved":false,"is_disabled":false,"rental_uris":{"android":"levelo://app?vid=8129aa24-f6bd-43a9-86ac-695cae9ad950","ios":"levelo://app?vid=8129aa24-f6bd-43a9-86ac-695cae9ad950"},"vehicle_type_id":"4","last_reported":1737119665,"current_range_meters":38000,"station_id":"","pricing_plan_id":"cebpf4jnsgd1na2vs0mg"},{"bike_id":"6ea4d259-06b8-4e0f-9494-4eae2040b46d","system_id":"levelo_inurba_marseille","lat":43.24181,"lon":5.39724,"is_reserved":false,"is_disabled":false,"rental_uris":{"android":"levelo://app?vid=6ea4d259-06b8-4e0f-9494-4eae2040b46d","ios":"levelo://app?vid=6ea4d259-06b8-4e0f-9494-4eae2040b46d"},"vehicle_type_id":"4","last_reported":1737119665,"current_range_meters":28400,"station_id":"ce4bhn12rcd13ifvqgpg","pricing_plan_id":"cebpf4jnsgd1na2vs0mg"},{"bike_id":"23736063-3d35-4d8d-8671-5ac8421b09a2","system_id":"levelo_inurba_marseille","lat":43.28404,"lon":5.37522,"is_reserved":false,"is_disabled":false,"rental_uris":{"android":"levelo://app?vid=23736063-3d35-4d8d-8671-5ac8421b09a2","ios":"levelo://app?vid=23736063-3d35-4d8d-8671-5ac8421b09a2"},"vehicle_type_id":"4","last_reported":1737119665,"current_range_meters":16000,"station_id":"ce4bh412rcd13ifvqds0","pricing_plan_id":"cebpf4jnsgd1na2vs0mg"},{"bike_id":"3272d129-d6ad-4f2c-b91a-e1d1edf9e2d1","system_id":"levelo_inurba_marseille","lat":43.30543,"lon":5.38431,"is_reserved":false,"is_disabled":false,"rental_uris":{"android":"levelo://app?vid=3272d129-d6ad-4f2c-b91a-e1d1edf9e2d1","ios":"levelo://app?vid=3272d129-d6ad-4f2c-b91a-e1d1edf9e2d1"},"vehicle_type_id":"4","last_reported":1737119665,"current_range_meters":34800,"station_id":"ce4bgg92rcd13ifvqb30","pricing_plan_id":"cebpf4jnsgd1na2vs0mg"},{"bike_id":"811a1ec0-366e-4fd8-8f3c-3e594a31f929","system_id":"levelo_inurba_marseille","lat":43.25565,"lon":5.38241,"is_reserved":false,"is_disabled":false,"rental_uris":{"android":"levelo://app?vid=811a1ec0-366e-4fd8-8f3c-3e594a31f929","ios":"levelo://app?vid=811a1ec0-366e-4fd8-8f3c-3e594a31f929"},"vehicle_type_id":"4","last_reported":1737119665,"current_range_meters":34000,"station_id":"ce4bhih2rcd13ifvqfs0","pricing_plan_id":"cebpf4jnsgd1na2vs0mg"},{"bike_id":"cb72cf41-6af3-4b45-a4e9-1c7a7f95efa1","system_id":"levelo_inurba_marseille","lat":43.32008,"lon":5.3816,"is_reserved":false,"is_disabled":false,"rental_uris":{"android":"levelo://app?vid=cb72cf41-6af3-4b45-a4e9-1c7a7f95efa1","ios":"levelo://app?vid=cb72cf41-6af3-4b45-a4e9-1c7a7f95efa1"},"vehicle_type_id":"4","last_reported":1737119665,"current_range_meters":19600,"station_id":"ce4bhr12rcd13ifvqhpg","pricing_plan_id":"cebpf4jnsgd1na2vs0mg"},{"bike_id":"891d5aa4-b1b0-4e0c-90ac-49e97bf9c382","system_id":"levelo_inurba_marseille","lat":43.23173,"lon":5.39997,"is_reserved":false,"is_disabled":false,"rental_uris":{"android":"levelo://app?vid=891d5aa4-b1b0-4e0c-90ac-49e97bf9c382","ios":"levelo://app?vid=891d5aa4-b1b0-4e0c-90ac-49e97bf9c382"},"vehicle_type_id":"4","last_reported":1737119665,"current_range_meters":33600,"station_id":"ce4bhn12rcd13ifvqgqg","pricing_plan_id":"cebpf4jnsgd1na2vs0mg"},{"bike_id":"30c0a8cd-2aaf-4774-b17a-8d81b6b1b4b5","system_id":"levelo_inurba_marseille","lat":43.29564,"lon":5.37519,"is_reserved":false,"is_disabled":false,"rental_uris":{"android":"levelo://app?vid=30c0a8cd-2aaf-4774-b17a-8d81b6b1b4b5","ios":"levelo://app?vid=30c0a8cd-2aaf-4774-b17a-8d81b6b1b4b5"},"vehicle_type_id":"4","last_reported":1737119665,"current_range_meters":38800,"station_id":"ce4bgh92rcd13ifvqb50","pricing_plan_id":"cebpf4jnsgd1na2vs0mg"},{"bike_id":"2df9646c-a1db-4c59-9bfc-c151cf664b7e","system_id":"levelo_inurba_marseille","lat":43.24071,"lon":5.37753,"is_reserved":false,"is_disabled":true,"rental_uris":{"android":"levelo://app?vid=2df9646c-a1db-4c59-9bfc-c151cf664b7e","ios":"levelo://app?vid=2df9646c-a1db-4c59-9bfc-c151cf664b7e"},"vehicle_type_id":"4","last_reported":1737119665,"current_range_meters":9600,"station_id":"ce4bhnp2rcd13ifvqgvg","pricing_plan_id":"cebpf4jnsgd1na2vs0mg"},{"bike_id":"12262e51-19bb-4897-ab6c-02d967989cde","system_id":"levelo_inurba_marseille","lat":43.29024,"lon":5.38135,"is_reserved":false,"is_disabled":false,"rental_uris":{"android":"levelo://app?vid=12262e51-19bb-4897-ab6c-02d967989cde","ios":"levelo://app?vid=12262e51-19bb-4897-ab6c-02d967989cde"},"vehicle_type_id":"4","last_reported":1737119665,"current_range_meters":11600,"station_id":"ce4bh4p2rcd13ifvqe1g","pricing_plan_id":"cebpf4jnsgd1na2vs0mg"},{"bike_id":"357eaeda-fef2-41f2-9ad0-621ae2cc5c09","system_id":"levelo_inurba_marseille","lat":43.33768,"lon":5.37496,"is_reserved":false,"is_disabled":false,"rental_uris":{"android":"levelo://app?vid=357eaeda-fef2-41f2-9ad0-621ae2cc5c09","ios":"levelo://app?vid=357eaeda-fef2-41f2-9ad0-621ae2cc5c09"},"vehicle_type_id":"4","last_reported":1737119665,"current_range_meters":36000,"station_id":"","pricing_plan_id":"cebpf4jnsgd1na2vs0mg"},{"bike_id":"6d87274a-c28f-4ffd-a6b7-27865a460fe2","system_id":"levelo_inurba_marseille","lat":43.26066,"lon":5.39394,"is_reserved":false,"is_disabled":false,"rental_uris":{"android":"levelo://app?vid=6d87274a-c28f-4ffd-a6b7-27865a460fe2","ios":"levelo://app?vid=6d87274a-c28f-4ffd-a6b7-27865a460fe2"},"vehicle_type_id":"4","last_reported":1737119665,"current_range_meters":20400,"station_id":"ce4bhh92rcd13ifvqfj0","pricing_plan_id":"cebpf4jnsgd1na2vs0mg"},{"bike_id":"e8edcbb7-2c19-49c4-ba54-72098c415d54","system_id":"levelo_inurba_marseille","lat":43.27495,"lon":5.424583,"is_reserved":false,"is_disabled":false,"rental_uris":{"android":"levelo://app?vid=e8edcbb7-2c19-49c4-ba54-72098c415d54","ios":"levelo://app?vid=e8edcbb7-2c19-49c4-ba54-72098c415d54"},"vehicle_type_id":"4","last_reported":1737119665,"current_range_meters":8400,"station_id":"ce4bhn92rcd13ifvqgrg","pricing_plan_id":"cebpf4jnsgd1na2vs0mg"},{"bike_id":"f552b2c7-4dbe-4232-bb40-ec99b9a72d80","system_id":"levelo_inurba_marseille","lat":43.23149,"lon":5.43722,"is_reserved":false,"is_disabled":false,"rental_uris":{"android":"levelo://app?vid=f552b2c7-4dbe-4232-bb40-ec99b9a72d80","ios":"levelo://app?vid=f552b2c7-4dbe-4232-bb40-ec99b9a72d80"},"vehicle_type_id":"4","last_reported":1737119665,"current_range_meters":16800,"station_id":"ce4bhmp2rcd13ifvqgog","pricing_plan_id":"cebpf4jnsgd1na2vs0mg"},{"bike_id":"bbd73dac-e0d6-4fae-ba50-910a0e4499d1","system_id":"levelo_inurba_marseille","lat":43.25503,"lon":5.3765,"is_reserved":false,"is_disabled":false,"rental_uris":{"android":"levelo://app?vid=bbd73dac-e0d6-4fae-ba50-910a0e4499d1","ios":"levelo://app?vid=bbd73dac-e0d6-4fae-ba50-910a0e4499d1"},"vehicle_type_id":"4","last_reported":1737119665,"current_range_meters":18800,"station_id":"ce4bhh12rcd13ifvqff0","pricing_plan_id":"cebpf4jnsgd1na2vs0mg"},{"bike_id":"92221645-888b-497e-8475-7fc2dbd86396","system_id":"levelo_inurba_marseille","lat":43.29539,"lon":5.37512,"is_reserved":false,"is_disabled":false,"rental_uris":{"android":"levelo://app?vid=92221645-888b-497e-8475-7fc2dbd86396","ios":"levelo://app?vid=92221645-888b-497e-8475-7fc2dbd86396"},"vehicle_type_id":"4","last_reported":1737119665,"current_range_meters":17200,"station_id":"ce4bgkp2rcd13ifvqbmg","pricing_plan_id":"cebpf4jnsgd1na2vs0mg"},{"bike_id":"beb934a8-669e-45c0-a57b-432659c27ac4","system_id":"levelo_inurba_marseille","lat":43.33752,"lon":5.3919,"is_reserved":false,"is_disabled":false,"rental_uris":{"android":"levelo://app?vid=beb934a8-669e-45c0-a57b-432659c27ac4","ios":"levelo://app?vid=beb934a8-669e-45c0-a57b-432659c27ac4"},"vehicle_type_id":"4","last_reported":1737119665,"current_range_meters":9200,"station_id":"ce4bhr92rcd13ifvqhsg","pricing_plan_id":"cebpf4jnsgd1na2vs0mg"},{"bike_id":"c9104e92-e31c-4ce3-8511-55eee879104a","system_id":"levelo_inurba_marseille","lat":43.29598,"lon":5.38105,"is_reserved":false,"is_disabled":false,"rental_uris":{"android":"levelo://app?vid=c9104e92-e31c-4ce3-8511-55eee879104a","ios":"levelo://app?vid=c9104e92-e31c-4ce3-8511-55eee879104a"},"vehicle_type_id":"4","last_reported":1737119665,"current_range_meters":28000,"station_id":"ce4bgl12rcd13ifvqbo0","pricing_plan_id":"cebpf4jnsgd1na2vs0mg"},{"bike_id":"1a92a58a-e56b-48bf-b09f-10b0b49f4367","system_id":"levelo_inurba_marseille","lat":43.29905,"lon":5.3814,"is_reserved":false,"is_disabled":false,"rental_uris":{"android":"levelo://app?vid=1a92a58a-e56b-48bf-b09f-10b0b49f4367","ios":"levelo://app?vid=1a92a58a-e56b-48bf-b09f-10b0b49f4367"},"vehicle_type_id":"4","last_reported":1737119665,"current_range_meters":36000,"station_id":"ce4bgj12rcd13ifvqbc0","pricing_plan_id":"cebpf4jnsgd1na2vs0mg"},{"bike_id":"5d014803-69d2-4911-8951-f79b024b518b","system_id":"levelo_inurba_marseille","lat":43.28105,"lon":5.37841,"is_reserved":false,"is_disabled":false,"rental_uris":{"android":"levelo://app?vid=5d014803-69d2-4911-8951-f79b024b518b","ios":"levelo://app?vid=5d014803-69d2-4911-8951-f79b024b518b"},"vehicle_type_id":"4","last_reported":1737119665,"current_range_meters":25200,"station_id":"ce4bha12rcd13ifvqee0","pricing_plan_id":"cebpf4jnsgd1na2vs0mg"},{"bike_id":"323ec3cc-7d98-4a0e-8583-2f48824c100d","system_id":"levelo_inurba_marseille","lat":43.23966,"lon":5.36636,"is_reserved":false,"is_disabled":false,"rental_uris":{"android":"levelo://app?vid=323ec3cc-7d98-4a0e-8583-2f48824c100d","ios":"levelo://app?vid=323ec3cc-7d98-4a0e-8583-2f48824c100d"},"vehicle_type_id":"4","last_reported":1737119665,"current_range_meters":30400,"station_id":"ce4bhi12rcd13ifvqfp0","pricing_plan_id":"cebpf4jnsgd1na2vs0mg"},{"bike_id":"81d0396e-7b47-492a-8771-d5dd4d5f3926","system_id":"levelo_inurba_marseille","lat":43.30681,"lon":5.36858,"is_reserved":false,"is_disabled":false,"rental_uris":{"android":"levelo://app?vid=81d0396e-7b47-492a-8771-d5dd4d5f3926","ios":"levelo://app?vid=81d0396e-7b47-492a-8771-d5dd4d5f3926"},"vehicle_type_id":"4","last_reported":1737119665,"current_range_meters":35600,"station_id":"","pricing_plan_id":"cebpf4jnsgd1na2vs0mg"},{"bike_id":"9be957d2-26d1-49a4-9f85-b06ee3432064","system_id":"levelo_inurba_marseille","lat":43.33738,"lon":5.39191,"is_reserved":false,"is_disabled":false,"rental_uris":{"android":"levelo://app?vid=9be957d2-26d1-49a4-9f85-b06ee3432064","ios":"levelo://app?vid=9be957d2-26d1-49a4-9f85-b06ee3432064"},"vehicle_type_id":"4","last_reported":1737119665,"current_range_meters":30000,"station_id":"ce4bhr92rcd13ifvqhsg","pricing_plan_id":"cebpf4jnsgd1na2vs0mg"},{"bike_id":"a03ea1f0-afa8-4641-9452-4489aca93558","system_id":"levelo_inurba_marseille","lat":43.2953,"lon":5.39034,"is_reserved":false,"is_disabled":false,"rental_uris":{"android":"levelo://app?vid=a03ea1f0-afa8-4641-9452-4489aca93558","ios":"levelo://app?vid=a03ea1f0-afa8-4641-9452-4489aca93558"},"vehicle_type_id":"4","last_reported":1737119665,"current_range_meters":36800,"station_id":"ce4bh3p2rcd13ifvqdp0","pricing_plan_id":"cebpf4jnsgd1na2vs0mg"},{"bike_id":"c485a01f-d89d-4fe7-b38b-68a08e2cbe6a","system_id":"levelo_inurba_marseille","lat":43.30291,"lon":5.39217,"is_reserved":false,"is_disabled":false,"rental_uris":{"android":"levelo://app?vid=c485a01f-d89d-4fe7-b38b-68a08e2cbe6a","ios":"levelo://app?vid=c485a01f-d89d-4fe7-b38b-68a08e2cbe6a"},"vehicle_type_id":"4","last_reported":1737119665,"current_range_meters":28000,"station_id":"ce4bgkh2rcd13ifvqbk0","pricing_plan_id":"cebpf4jnsgd1na2vs0mg"},{"bike_id":"2521f4ac-ca8d-4354-9a91-6bd7fb5b9ce3","system_id":"levelo_inurba_marseille","lat":43.32042,"lon":5.41569,"is_reserved":false,"is_disabled":false,"rental_uris":{"android":"levelo://app?vid=2521f4ac-ca8d-4354-9a91-6bd7fb5b9ce3","ios":"levelo://app?vid=2521f4ac-ca8d-4354-9a91-6bd7fb5b9ce3"},"vehicle_type_id":"4","last_reported":1737119665,"current_range_meters":38800,"station_id":"ce4bhq92rcd13ifvqhkg","pricing_plan_id":"cebpf4jnsgd1na2vs0mg"},{"bike_id":"22da12b5-fe9f-4a79-8db2-003abd1ef685","system_id":"levelo_inurba_marseille","lat":43.30326,"lon":5.40429,"is_reserved":false,"is_disabled":false,"rental_uris":{"android":"levelo://app?vid=22da12b5-fe9f-4a79-8db2-003abd1ef685","ios":"levelo://app?vid=22da12b5-fe9f-4a79-8db2-003abd1ef685"},"vehicle_type_id":"4","last_reported":1737119665,"current_range_meters":6400,"station_id":"ce4bh012rcd13ifvqd10","pricing_plan_id":"cebpf4jnsgd1na2vs0mg"},{"bike_id":"4f2b33bf-5340-41d8-832a-14d80612ba43","system_id":"levelo_inurba_marseille","lat":43.25093,"lon":5.39516,"is_reserved":false,"is_disabled":false,"rental_uris":{"android":"levelo://app?vid=4f2b33bf-5340-41d8-832a-14d80612ba43","ios":"levelo://app?vid=4f2b33bf-5340-41d8-832a-14d80612ba43"},"vehicle_type_id":"4","last_reported":1737119665,"current_range_meters":38800,"station_id":"ce4bhm12rcd13ifvqgkg","pricing_plan_id":"cebpf4jnsgd1na2vs0mg"},{"bike_id":"58e9702f-1964-4e54-97d7-4593d108e9a2","system_id":"levelo_inurba_marseille","lat":43.29558,"lon":5.37519,"is_reserved":false,"is_disabled":false,"rental_uris":{"android":"levelo://app?vid=58e9702f-1964-4e54-97d7-4593d108e9a2","ios":"levelo://app?vid=58e9702f-1964-4e54-97d7-4593d108e9a2"},"vehicle_type_id":"4","last_reported":1737119665,"current_range_meters":20000,"station_id":"ce4bgh92rcd13ifvqb50","pricing_plan_id":"cebpf4jnsgd1na2vs0mg"},{"bike_id":"9024f92c-6349-4237-b9dc-cb650d3ee81e","system_id":"levelo_inurba_marseille","lat":43.26677,"lon":5.38268,"is_reserved":false,"is_disabled":false,"rental_uris":{"android":"levelo://app?vid=9024f92c-6349-4237-b9dc-cb650d3ee81e","ios":"levelo://app?vid=9024f92c-6349-4237-b9dc-cb650d3ee81e"},"vehicle_type_id":"4","last_reported":1737119665,"current_range_meters":38000,"station_id":"ce4bhg92rcd13ifvqf90","pricing_plan_id":"cebpf4jnsgd1na2vs0mg"},{"bike_id":"4a2f4177-e9ec-4a6d-80af-a91a3374033d","system_id":"levelo_inurba_marseille","lat":43.30179,"lon":5.38084,"is_reserved":false,"is_disabled":false,"rental_uris":{"android":"levelo://app?vid=4a2f4177-e9ec-4a6d-80af-a91a3374033d","ios":"levelo://app?vid=4a2f4177-e9ec-4a6d-80af-a91a3374033d"},"vehicle_type_id":"4","last_reported":1737119665,"current_range_meters":6400,"station_id":"ce4bgjp2rcd13ifvqbh0","pricing_plan_id":"cebpf4jnsgd1na2vs0mg"},{"bike_id":"2601a0d8-9840-418b-8ea6-bdad13d6532f","system_id":"levelo_inurba_marseille","lat":43.29531,"lon":5.37498,"is_reserved":false,"is_disabled":false,"rental_uris":{"android":"levelo://app?vid=2601a0d8-9840-418b-8ea6-bdad13d6532f","ios":"levelo://app?vid=2601a0d8-9840-418b-8ea6-bdad13d6532f"},"vehicle_type_id":"4","last_reported":1737119665,"current_range_meters":30800,"station_id":"ce4bgkp2rcd13ifvqbmg","pricing_plan_id":"cebpf4jnsgd1na2vs0mg"},{"bike_id":"ceaa1458-83a9-43c8-aed6-e72ea07fb43a","system_id":"levelo_inurba_marseille","lat":43.31559,"lon":5.3891,"is_reserved":false,"is_disabled":false,"rental_uris":{"android":"levelo://app?vid=ceaa1458-83a9-43c8-aed6-e72ea07fb43a","ios":"levelo://app?vid=ceaa1458-83a9-43c8-aed6-e72ea07fb43a"},"vehicle_type_id":"4","last_reported":1737119665,"current_range_meters":9600,"station_id":"","pricing_plan_id":"cebpf4jnsgd1na2vs0mg"},{"bike_id":"f6681794-f118-4425-8ed2-0db7267b7620","system_id":"levelo_inurba_marseille","lat":43.25576,"lon":5.38244,"is_reserved":false,"is_disabled":true,"rental_uris":{"android":"levelo://app?vid=f6681794-f118-4425-8ed2-0db7267b7620","ios":"levelo://app?vid=f6681794-f118-4425-8ed2-0db7267b7620"},"vehicle_type_id":"4","last_reported":1737119665,"current_range_meters":0,"station_id":"ce4bhih2rcd13ifvqfs0","pricing_plan_id":"cebpf4jnsgd1na2vs0mg"},{"bike_id":"72ee35ea-34ee-4b89-a819-27a2e564f7ec","system_id":"levelo_inurba_marseille","lat":43.25828,"lon":5.39432,"is_reserved":false,"is_disabled":false,"rental_uris":{"android":"levelo://app?vid=72ee35ea-34ee-4b89-a819-27a2e564f7ec","ios":"levelo://app?vid=72ee35ea-34ee-4b89-a819-27a2e564f7ec"},"vehicle_type_id":"4","last_reported":1737119665,"current_range_meters":17200,"station_id":"ce4bhip2rcd13ifvqft0","pricing_plan_id":"cebpf4jnsgd1na2vs0mg"},{"bike_id":"83fce08c-af1c-4c28-9926-5facc31d37af","system_id":"levelo_inurba_marseille","lat":43.29374,"lon":5.37847,"is_reserved":false,"is_disabled":false,"rental_uris":{"android":"levelo://app?vid=83fce08c-af1c-4c28-9926-5facc31d37af","ios":"levelo://app?vid=83fce08c-af1c-4c28-9926-5facc31d37af"},"vehicle_type_id":"4","last_reported":1737119665,"current_range_meters":25200,"station_id":"ce4bgjh2rcd13ifvqbf0","pricing_plan_id":"cebpf4jnsgd1na2vs0mg"},{"bike_id":"9f1e196e-cee2-4e18-b08b-972ac00c60ed","system_id":"levelo_inurba_marseille","lat":43.29367,"lon":5.37828,"is_reserved":false,"is_disabled":false,"rental_uris":{"android":"levelo://app?vid=9f1e196e-cee2-4e18-b08b-972ac00c60ed","ios":"levelo://app?vid=9f1e196e-cee2-4e18-b08b-972ac00c60ed"},"vehicle_type_id":"4","last_reported":1737119665,"current_range_meters":32400,"station_id":"ce4bgjh2rcd13ifvqbf0","pricing_plan_id":"cebpf4jnsgd1na2vs0mg"},{"bike_id":"b6312187-91b2-49e1-90a0-b3f360e72744","system_id":"levelo_inurba_marseille","lat":43.29435,"lon":5.39763,"is_reserved":false,"is_disabled":false,"rental_uris":{"android":"levelo://app?vid=b6312187-91b2-49e1-90a0-b3f360e72744","ios":"levelo://app?vid=b6312187-91b2-49e1-90a0-b3f360e72744"},"vehicle_type_id":"4","last_reported":1737119665,"current_range_meters":29600,"station_id":"ce4bh3h2rcd13ifvqdo0","pricing_plan_id":"cebpf4jnsgd1na2vs0mg"},{"bike_id":"5e34d989-ddaf-4419-ade9-4b78420c51a7","system_id":"levelo_inurba_marseille","lat":43.25015,"lon":5.38923,"is_reserved":false,"is_disabled":false,"rental_uris":{"android":"levelo://app?vid=5e34d989-ddaf-4419-ade9-4b78420c51a7","ios":"levelo://app?vid=5e34d989-ddaf-4419-ade9-4b78420c51a7"},"vehicle_type_id":"4","last_reported":1737119665,"current_range_meters":25600,"station_id":"ce4bhgp2rcd13ifvqfd0","pricing_plan_id":"cebpf4jnsgd1na2vs0mg"},{"bike_id":"1efeaac4-ccfe-4903-aed4-7e9dfa0a1350","system_id":"levelo_inurba_marseille","lat":43.27913,"lon":5.38021,"is_reserved":false,"is_disabled":false,"rental_uris":{"android":"levelo://app?vid=1efeaac4-ccfe-4903-aed4-7e9dfa0a1350","ios":"levelo://app?vid=1efeaac4-ccfe-4903-aed4-7e9dfa0a1350"},"vehicle_type_id":"4","last_reported":1737119665,"current_range_meters":5600,"station_id":"ce4bhf92rcd13ifvqf50","pricing_plan_id":"cebpf4jnsgd1na2vs0mg"},{"bike_id":"06847a7c-81a3-47a7-969a-ce10f7980e65","system_id":"levelo_inurba_marseille","lat":43.23154,"lon":5.43701,"is_reserved":false,"is_disabled":false,"rental_uris":{"android":"levelo://app?vid=06847a7c-81a3-47a7-969a-ce10f7980e65","ios":"levelo://app?vid=06847a7c-81a3-47a7-969a-ce10f7980e65"},"vehicle_type_id":"4","last_reported":1737119665,"current_range_meters":34000,"station_id":"ce4bhmp2rcd13ifvqgog","pricing_plan_id":"cebpf4jnsgd1na2vs0mg"},{"bike_id":"6e0427fc-0033-4ea2-a984-e9bce01de5bf","system_id":"levelo_inurba_marseille","lat":43.30541,"lon":5.36717,"is_reserved":false,"is_disabled":false,"rental_uris":{"android":"levelo://app?vid=6e0427fc-0033-4ea2-a984-e9bce01de5bf","ios":"levelo://app?vid=6e0427fc-0033-4ea2-a984-e9bce01de5bf"},"vehicle_type_id":"4","last_reported":1737119665,"current_range_meters":17200,"station_id":"ce4bgrp2rcd13ifvqc9g","pricing_plan_id":"cebpf4jnsgd1na2vs0mg"},{"bike_id":"10d4a44b-4ac4-4905-b7ec-86d014e96ec1","system_id":"levelo_inurba_marseille","lat":43.3247,"lon":5.36567,"is_reserved":false,"is_disabled":false,"rental_uris":{"android":"levelo://app?vid=10d4a44b-4ac4-4905-b7ec-86d014e96ec1","ios":"levelo://app?vid=10d4a44b-4ac4-4905-b7ec-86d014e96ec1"},"vehicle_type_id":"4","last_reported":1737119665,"current_range_meters":30000,"station_id":"ce4bhs12rcd13ifvqhvg","pricing_plan_id":"cebpf4jnsgd1na2vs0mg"},{"bike_id":"486b82a3-4b5c-4f03-8752-0eea3399df80","system_id":"levelo_inurba_marseille","lat":43.30157,"lon":5.37396,"is_reserved":false,"is_disabled":false,"rental_uris":{"android":"levelo://app?vid=486b82a3-4b5c-4f03-8752-0eea3399df80","ios":"levelo://app?vid=486b82a3-4b5c-4f03-8752-0eea3399df80"},"vehicle_type_id":"4","last_reported":1737119665,"current_range_meters":20800,"station_id":"ce4bgs92rcd13ifvqcc0","pricing_plan_id":"cebpf4jnsgd1na2vs0mg"},{"bike_id":"2cd0985d-7283-4c92-9a82-adccfa2cd63e","system_id":"levelo_inurba_marseille","lat":43.33026,"lon":5.39039,"is_reserved":false,"is_disabled":false,"rental_uris":{"android":"levelo://app?vid=2cd0985d-7283-4c92-9a82-adccfa2cd63e","ios":"levelo://app?vid=2cd0985d-7283-4c92-9a82-adccfa2cd63e"},"vehicle_type_id":"4","last_reported":1737119665,"current_range_meters":20400,"station_id":"ce4bhr92rcd13ifvqhrg","pricing_plan_id":"cebpf4jnsgd1na2vs0mg"},{"bike_id":"a7ee0ebc-b3d3-4de7-b1d0-8e2ec3a5a978","system_id":"levelo_inurba_marseille","lat":43.27651,"lon":5.38934,"is_reserved":false,"is_disabled":false,"rental_uris":{"android":"levelo://app?vid=a7ee0ebc-b3d3-4de7-b1d0-8e2ec3a5a978","ios":"levelo://app?vid=a7ee0ebc-b3d3-4de7-b1d0-8e2ec3a5a978"},"vehicle_type_id":"4","last_reported":1737119665,"current_range_meters":5600,"station_id":"ce4bhi12rcd13ifvqfo0","pricing_plan_id":"cebpf4jnsgd1na2vs0mg"},{"bike_id":"df8b1c3a-18fe-49e2-9d2b-35bf1157f06d","system_id":"levelo_inurba_marseille","lat":43.31539,"lon":5.38044,"is_reserved":false,"is_disabled":true,"rental_uris":{"android":"levelo://app?vid=df8b1c3a-18fe-49e2-9d2b-35bf1157f06d","ios":"levelo://app?vid=df8b1c3a-18fe-49e2-9d2b-35bf1157f06d"},"vehicle_type_id":"4","last_reported":1737119665,"current_range_meters":38800,"station_id":"ce4bhsp2rcd13ifvqi50","pricing_plan_id":"cebpf4jnsgd1na2vs0mg"},{"bike_id":"678e6c21-ae33-4211-9534-682ad57c39c7","system_id":"levelo_inurba_marseille","lat":43.23191,"lon":5.39999,"is_reserved":false,"is_disabled":false,"rental_uris":{"android":"levelo://app?vid=678e6c21-ae33-4211-9534-682ad57c39c7","ios":"levelo://app?vid=678e6c21-ae33-4211-9534-682ad57c39c7"},"vehicle_type_id":"4","last_reported":1737119665,"current_range_meters":14400,"station_id":"ce4bhn12rcd13ifvqgqg","pricing_plan_id":"cebpf4jnsgd1na2vs0mg"},{"bike_id":"67c549d5-ce81-408a-a146-d43915340e7f","system_id":"levelo_inurba_marseille","lat":43.33716,"lon":5.39191,"is_reserved":false,"is_disabled":false,"rental_uris":{"android":"levelo://app?vid=67c549d5-ce81-408a-a146-d43915340e7f","ios":"levelo://app?vid=67c549d5-ce81-408a-a146-d43915340e7f"},"vehicle_type_id":"4","last_reported":1737119665,"current_range_meters":38800,"station_id":"ce4bhr92rcd13ifvqhsg","pricing_plan_id":"cebpf4jnsgd1na2vs0mg"},{"bike_id":"0d56ef11-76e1-49ed-a46f-fb0106e51969","system_id":"levelo_inurba_marseille","lat":43.28363,"lon":5.3812,"is_reserved":false,"is_disabled":false,"rental_uris":{"android":"levelo://app?vid=0d56ef11-76e1-49ed-a46f-fb0106e51969","ios":"levelo://app?vid=0d56ef11-76e1-49ed-a46f-fb0106e51969"},"vehicle_type_id":"4","last_reported":1737119665,"current_range_meters":38800,"station_id":"ce4bh412rcd13ifvqdr0","pricing_plan_id":"cebpf4jnsgd1na2vs0mg"},{"bike_id":"6a575a28-9122-463d-903d-579803bf0e58","system_id":"levelo_inurba_marseille","lat":43.30166,"lon":5.3807,"is_reserved":false,"is_disabled":false,"rental_uris":{"android":"levelo://app?vid=6a575a28-9122-463d-903d-579803bf0e58","ios":"levelo://app?vid=6a575a28-9122-463d-903d-579803bf0e58"},"vehicle_type_id":"4","last_reported":1737119665,"current_range_meters":38800,"station_id":"ce4bgjp2rcd13ifvqbh0","pricing_plan_id":"cebpf4jnsgd1na2vs0mg"},{"bike_id":"26b2b9d0-0f40-4411-b5b2-7f27a5b691d0","system_id":"levelo_inurba_marseille","lat":43.24995,"lon":5.38938,"is_reserved":false,"is_disabled":false,"rental_uris":{"android":"levelo://app?vid=26b2b9d0-0f40-4411-b5b2-7f27a5b691d0","ios":"levelo://app?vid=26b2b9d0-0f40-4411-b5b2-7f27a5b691d0"},"vehicle_type_id":"4","last_reported":1737119665,"current_range_meters":16000,"station_id":"ce4bhgp2rcd13ifvqfd0","pricing_plan_id":"cebpf4jnsgd1na2vs0mg"},{"bike_id":"0d77fce9-cfcb-4693-962c-890840a65109","system_id":"levelo_inurba_marseille","lat":43.29625,"lon":5.37747,"is_reserved":false,"is_disabled":false,"rental_uris":{"android":"levelo://app?vid=0d77fce9-cfcb-4693-962c-890840a65109","ios":"levelo://app?vid=0d77fce9-cfcb-4693-962c-890840a65109"},"vehicle_type_id":"4","last_reported":1737119665,"current_range_meters":30000,"station_id":"ce4bgi92rcd13ifvqb90","pricing_plan_id":"cebpf4jnsgd1na2vs0mg"},{"bike_id":"34709e64-d1c8-4538-88a5-33805792c0a5","system_id":"levelo_inurba_marseille","lat":43.25825,"lon":5.3943,"is_reserved":false,"is_disabled":false,"rental_uris":{"android":"levelo://app?vid=34709e64-d1c8-4538-88a5-33805792c0a5","ios":"levelo://app?vid=34709e64-d1c8-4538-88a5-33805792c0a5"},"vehicle_type_id":"4","last_reported":1737119665,"current_range_meters":38400,"station_id":"ce4bhip2rcd13ifvqft0","pricing_plan_id":"cebpf4jnsgd1na2vs0mg"},{"bike_id":"d4c5158e-511e-4c0e-af6f-6a3bbf5cc0e5","system_id":"levelo_inurba_marseille","lat":43.27068,"lon":5.42285,"is_reserved":false,"is_disabled":true,"rental_uris":{"android":"levelo://app?vid=d4c5158e-511e-4c0e-af6f-6a3bbf5cc0e5","ios":"levelo://app?vid=d4c5158e-511e-4c0e-af6f-6a3bbf5cc0e5"},"vehicle_type_id":"4","last_reported":1737119665,"current_range_meters":0,"station_id":"ce4bhk92rcd13ifvqgb0","pricing_plan_id":"cebpf4jnsgd1na2vs0mg"},{"bike_id":"8067e2c8-91e1-4b01-955b-cb47a104e7dc","system_id":"levelo_inurba_marseille","lat":43.24178,"lon":5.39734,"is_reserved":false,"is_disabled":false,"rental_uris":{"android":"levelo://app?vid=8067e2c8-91e1-4b01-955b-cb47a104e7dc","ios":"levelo://app?vid=8067e2c8-91e1-4b01-955b-cb47a104e7dc"},"vehicle_type_id":"4","last_reported":1737119665,"current_range_meters":27200,"station_id":"ce4bhn12rcd13ifvqgpg","pricing_plan_id":"cebpf4jnsgd1na2vs0mg"},{"bike_id":"58059c20-35ab-411a-9814-0374fc5d25fb","system_id":"levelo_inurba_marseille","lat":43.305338,"lon":5.367017,"is_reserved":false,"is_disabled":false,"rental_uris":{"android":"levelo://app?vid=58059c20-35ab-411a-9814-0374fc5d25fb","ios":"levelo://app?vid=58059c20-35ab-411a-9814-0374fc5d25fb"},"vehicle_type_id":"4","last_reported":1737119665,"current_range_meters":38800,"station_id":"ce4bgrp2rcd13ifvqc9g","pricing_plan_id":"cebpf4jnsgd1na2vs0mg"},{"bike_id":"c9d83c1b-38c3-4e00-90c2-f109919a1c5b","system_id":"levelo_inurba_marseille","lat":43.31363,"lon":5.36731,"is_reserved":false,"is_disabled":false,"rental_uris":{"android":"levelo://app?vid=c9d83c1b-38c3-4e00-90c2-f109919a1c5b","ios":"levelo://app?vid=c9d83c1b-38c3-4e00-90c2-f109919a1c5b"},"vehicle_type_id":"4","last_reported":1737119665,"current_range_meters":30000,"station_id":"ce4bgr92rcd13ifvqc6g","pricing_plan_id":"cebpf4jnsgd1na2vs0mg"},{"bike_id":"f08b6230-f320-4aee-9435-211bf1f67fdf","system_id":"levelo_inurba_marseille","lat":43.28076,"lon":5.39659,"is_reserved":false,"is_disabled":false,"rental_uris":{"android":"levelo://app?vid=f08b6230-f320-4aee-9435-211bf1f67fdf","ios":"levelo://app?vid=f08b6230-f320-4aee-9435-211bf1f67fdf"},"vehicle_type_id":"4","last_reported":1737119665,"current_range_meters":29600,"station_id":"ce4bho12rcd13ifvqh2g","pricing_plan_id":"cebpf4jnsgd1na2vs0mg"},{"bike_id":"77f7cc0f-3e04-4012-a4f8-c0f919395f6a","system_id":"levelo_inurba_marseille","lat":43.29606,"lon":5.38106,"is_reserved":false,"is_disabled":false,"rental_uris":{"android":"levelo://app?vid=77f7cc0f-3e04-4012-a4f8-c0f919395f6a","ios":"levelo://app?vid=77f7cc0f-3e04-4012-a4f8-c0f919395f6a"},"vehicle_type_id":"4","last_reported":1737119665,"current_range_meters":22400,"station_id":"ce4bgl12rcd13ifvqbo0","pricing_plan_id":"cebpf4jnsgd1na2vs0mg"},{"bike_id":"575187ad-6d10-426e-85b8-4268426275d2","system_id":"levelo_inurba_marseille","lat":43.27996,"lon":5.41654,"is_reserved":false,"is_disabled":false,"rental_uris":{"android":"levelo://app?vid=575187ad-6d10-426e-85b8-4268426275d2","ios":"levelo://app?vid=575187ad-6d10-426e-85b8-4268426275d2"},"vehicle_type_id":"4","last_reported":1737119665,"current_range_meters":16400,"station_id":"ce4bho12rcd13ifvqh1g","pricing_plan_id":"cebpf4jnsgd1na2vs0mg"},{"bike_id":"56b8e9bc-f750-4815-bc98-9098414d16db","system_id":"levelo_inurba_marseille","lat":43.23191,"lon":5.35571,"is_reserved":false,"is_disabled":true,"rental_uris":{"android":"levelo://app?vid=56b8e9bc-f750-4815-bc98-9098414d16db","ios":"levelo://app?vid=56b8e9bc-f750-4815-bc98-9098414d16db"},"vehicle_type_id":"4","last_reported":1737119665,"current_range_meters":0,"station_id":"ce4bhu92rcd13ifvqi70","pricing_plan_id":"cebpf4jnsgd1na2vs0mg"},{"bike_id":"4542369c-df9e-49ef-9a6b-43b3cb63e102","system_id":"levelo_inurba_marseille","lat":43.27495,"lon":5.42448,"is_reserved":false,"is_disabled":false,"rental_uris":{"android":"levelo://app?vid=4542369c-df9e-49ef-9a6b-43b3cb63e102","ios":"levelo://app?vid=4542369c-df9e-49ef-9a6b-43b3cb63e102"},"vehicle_type_id":"4","last_reported":1737119665,"current_range_meters":9200,"station_id":"ce4bhn92rcd13ifvqgrg","pricing_plan_id":"cebpf4jnsgd1na2vs0mg"},{"bike_id":"ecaa0c77-1eec-4faa-8f1a-38089f04868c","system_id":"levelo_inurba_marseille","lat":43.28718,"lon":5.37935,"is_reserved":false,"is_disabled":false,"rental_uris":{"android":"levelo://app?vid=ecaa0c77-1eec-4faa-8f1a-38089f04868c","ios":"levelo://app?vid=ecaa0c77-1eec-4faa-8f1a-38089f04868c"},"vehicle_type_id":"4","last_reported":1737119665,"current_range_meters":33600,"station_id":"ce4bh9p2rcd13ifvqec0","pricing_plan_id":"cebpf4jnsgd1na2vs0mg"},{"bike_id":"fe61bab4-2147-46ac-96bc-5b15a0832ed3","system_id":"levelo_inurba_marseille","lat":43.23154,"lon":5.43716,"is_reserved":false,"is_disabled":true,"rental_uris":{"android":"levelo://app?vid=fe61bab4-2147-46ac-96bc-5b15a0832ed3","ios":"levelo://app?vid=fe61bab4-2147-46ac-96bc-5b15a0832ed3"},"vehicle_type_id":"4","last_reported":1737119665,"current_range_meters":0,"station_id":"ce4bhmp2rcd13ifvqgog","pricing_plan_id":"cebpf4jnsgd1na2vs0mg"},{"bike_id":"80d8eccd-3afc-44d9-a476-939f5718f843","system_id":"levelo_inurba_marseille","lat":43.29567,"lon":5.37511,"is_reserved":false,"is_disabled":false,"rental_uris":{"android":"levelo://app?vid=80d8eccd-3afc-44d9-a476-939f5718f843","ios":"levelo://app?vid=80d8eccd-3afc-44d9-a476-939f5718f843"},"vehicle_type_id":"4","last_reported":1737119665,"current_range_meters":38800,"station_id":"ce4bgh92rcd13ifvqb50","pricing_plan_id":"cebpf4jnsgd1na2vs0mg"},{"bike_id":"73801fda-6c2c-41a3-8b93-c2a73942cde1","system_id":"levelo_inurba_marseille","lat":43.29564,"lon":5.37535,"is_reserved":false,"is_disabled":false,"rental_uris":{"android":"levelo://app?vid=73801fda-6c2c-41a3-8b93-c2a73942cde1","ios":"levelo://app?vid=73801fda-6c2c-41a3-8b93-c2a73942cde1"},"vehicle_type_id":"4","last_reported":1737119665,"current_range_meters":9200,"station_id":"ce4bgh92rcd13ifvqb50","pricing_plan_id":"cebpf4jnsgd1na2vs0mg"},{"bike_id":"249592eb-b310-4851-8ce9-c19f7017c80e","system_id":"levelo_inurba_marseille","lat":43.2928,"lon":5.40112,"is_reserved":false,"is_disabled":false,"rental_uris":{"android":"levelo://app?vid=249592eb-b310-4851-8ce9-c19f7017c80e","ios":"levelo://app?vid=249592eb-b310-4851-8ce9-c19f7017c80e"},"vehicle_type_id":"4","last_reported":1737119665,"current_range_meters":8800,"station_id":"ce4bh312rcd13ifvqdk0","pricing_plan_id":"cebpf4jnsgd1na2vs0mg"},{"bike_id":"1b0abdf0-ebc9-477b-9a5c-20d604bc88e3","system_id":"levelo_inurba_marseille","lat":43.25089,"lon":5.3952,"is_reserved":false,"is_disabled":false,"rental_uris":{"android":"levelo://app?vid=1b0abdf0-ebc9-477b-9a5c-20d604bc88e3","ios":"levelo://app?vid=1b0abdf0-ebc9-477b-9a5c-20d604bc88e3"},"vehicle_type_id":"4","last_reported":1737119665,"current_range_meters":38000,"station_id":"ce4bhm12rcd13ifvqgkg","pricing_plan_id":"cebpf4jnsgd1na2vs0mg"},{"bike_id":"df37ceae-4a83-4216-8c0d-57bd86e03370","system_id":"levelo_inurba_marseille","lat":43.24072,"lon":5.37763,"is_reserved":false,"is_disabled":false,"rental_uris":{"android":"levelo://app?vid=df37ceae-4a83-4216-8c0d-57bd86e03370","ios":"levelo://app?vid=df37ceae-4a83-4216-8c0d-57bd86e03370"},"vehicle_type_id":"4","last_reported":1737119665,"current_range_meters":36800,"station_id":"ce4bhnp2rcd13ifvqgvg","pricing_plan_id":"cebpf4jnsgd1na2vs0mg"},{"bike_id":"e7c76594-fea5-4f85-9662-57c0a0d28b3e","system_id":"levelo_inurba_marseille","lat":43.31704,"lon":5.37765,"is_reserved":false,"is_disabled":false,"rental_uris":{"android":"levelo://app?vid=e7c76594-fea5-4f85-9662-57c0a0d28b3e","ios":"levelo://app?vid=e7c76594-fea5-4f85-9662-57c0a0d28b3e"},"vehicle_type_id":"4","last_reported":1737119665,"current_range_meters":3600,"station_id":"ce4bgth2rcd13ifvqch0","pricing_plan_id":"cebpf4jnsgd1na2vs0mg"},{"bike_id":"e81506a0-bf43-4615-ac19-7c5a04c27f29","system_id":"levelo_inurba_marseille","lat":43.29606,"lon":5.381,"is_reserved":false,"is_disabled":false,"rental_uris":{"android":"levelo://app?vid=e81506a0-bf43-4615-ac19-7c5a04c27f29","ios":"levelo://app?vid=e81506a0-bf43-4615-ac19-7c5a04c27f29"},"vehicle_type_id":"4","last_reported":1737119665,"current_range_meters":39200,"station_id":"ce4bgl12rcd13ifvqbo0","pricing_plan_id":"cebpf4jnsgd1na2vs0mg"},{"bike_id":"5d4c23b0-333e-4aba-98f6-c89fb76cfb71","system_id":"levelo_inurba_marseille","lat":43.33747,"lon":5.37455,"is_reserved":false,"is_disabled":false,"rental_uris":{"android":"levelo://app?vid=5d4c23b0-333e-4aba-98f6-c89fb76cfb71","ios":"levelo://app?vid=5d4c23b0-333e-4aba-98f6-c89fb76cfb71"},"vehicle_type_id":"4","last_reported":1737119665,"current_range_meters":38000,"station_id":"","pricing_plan_id":"cebpf4jnsgd1na2vs0mg"},{"bike_id":"22465212-93af-4e0b-b803-6ee82bba56d5","system_id":"levelo_inurba_marseille","lat":43.33775,"lon":5.3748,"is_reserved":false,"is_disabled":false,"rental_uris":{"android":"levelo://app?vid=22465212-93af-4e0b-b803-6ee82bba56d5","ios":"levelo://app?vid=22465212-93af-4e0b-b803-6ee82bba56d5"},"vehicle_type_id":"4","last_reported":1737119665,"current_range_meters":30800,"station_id":"","pricing_plan_id":"cebpf4jnsgd1na2vs0mg"},{"bike_id":"57d28b69-a629-4d00-8952-ad3637220644","system_id":"levelo_inurba_marseille","lat":43.296218,"lon":5.37183,"is_reserved":false,"is_disabled":true,"rental_uris":{"android":"levelo://app?vid=57d28b69-a629-4d00-8952-ad3637220644","ios":"levelo://app?vid=57d28b69-a629-4d00-8952-ad3637220644"},"vehicle_type_id":"4","last_reported":1737119665,"current_range_meters":0,"station_id":"ce4bgnh2rcd13ifvqc0g","pricing_plan_id":"cebpf4jnsgd1na2vs0mg"},{"bike_id":"979d7a5c-00ce-4dcf-a15c-0fc9c9e35c10","system_id":"levelo_inurba_marseille","lat":43.33787,"lon":5.37431,"is_reserved":false,"is_disabled":false,"rental_uris":{"android":"levelo://app?vid=979d7a5c-00ce-4dcf-a15c-0fc9c9e35c10","ios":"levelo://app?vid=979d7a5c-00ce-4dcf-a15c-0fc9c9e35c10"},"vehicle_type_id":"4","last_reported":1737119665,"current_range_meters":37600,"station_id":"","pricing_plan_id":"cebpf4jnsgd1na2vs0mg"},{"bike_id":"a385db0a-015f-4046-bee9-e6e27677dd64","system_id":"levelo_inurba_marseille","lat":43.30538,"lon":5.36701,"is_reserved":false,"is_disabled":false,"rental_uris":{"android":"levelo://app?vid=a385db0a-015f-4046-bee9-e6e27677dd64","ios":"levelo://app?vid=a385db0a-015f-4046-bee9-e6e27677dd64"},"vehicle_type_id":"4","last_reported":1737119665,"current_range_meters":38400,"station_id":"ce4bgrp2rcd13ifvqc9g","pricing_plan_id":"cebpf4jnsgd1na2vs0mg"},{"bike_id":"41ca7c15-f2e6-440c-acda-28638999a7da","system_id":"levelo_inurba_marseille","lat":43.26918,"lon":5.38926,"is_reserved":false,"is_disabled":false,"rental_uris":{"android":"levelo://app?vid=41ca7c15-f2e6-440c-acda-28638999a7da","ios":"levelo://app?vid=41ca7c15-f2e6-440c-acda-28638999a7da"},"vehicle_type_id":"4","last_reported":1737119665,"current_range_meters":19200,"station_id":"ce4bhhh2rcd13ifvqfl0","pricing_plan_id":"cebpf4jnsgd1na2vs0mg"},{"bike_id":"2360f123-f4b2-4852-87a6-e3ab23697278","system_id":"levelo_inurba_marseille","lat":43.31748,"lon":5.39033,"is_reserved":false,"is_disabled":false,"rental_uris":{"android":"levelo://app?vid=2360f123-f4b2-4852-87a6-e3ab23697278","ios":"levelo://app?vid=2360f123-f4b2-4852-87a6-e3ab23697278"},"vehicle_type_id":"4","last_reported":1737119665,"current_range_meters":38800,"station_id":"ce4bhqp2rcd13ifvqhng","pricing_plan_id":"cebpf4jnsgd1na2vs0mg"},{"bike_id":"ba3f556c-cf6a-4039-a072-0e6118db4c47","system_id":"levelo_inurba_marseille","lat":43.23152,"lon":5.43706,"is_reserved":false,"is_disabled":false,"rental_uris":{"android":"levelo://app?vid=ba3f556c-cf6a-4039-a072-0e6118db4c47","ios":"levelo://app?vid=ba3f556c-cf6a-4039-a072-0e6118db4c47"},"vehicle_type_id":"4","last_reported":1737119665,"current_range_meters":8400,"station_id":"ce4bhmp2rcd13ifvqgog","pricing_plan_id":"cebpf4jnsgd1na2vs0mg"},{"bike_id":"16764f9e-b1b9-4d6f-9dca-0161489fba20","system_id":"levelo_inurba_marseille","lat":43.30154,"lon":5.38089,"is_reserved":false,"is_disabled":false,"rental_uris":{"android":"levelo://app?vid=16764f9e-b1b9-4d6f-9dca-0161489fba20","ios":"levelo://app?vid=16764f9e-b1b9-4d6f-9dca-0161489fba20"},"vehicle_type_id":"4","last_reported":1737119665,"current_range_meters":28400,"station_id":"ce4bgjp2rcd13ifvqbh0","pricing_plan_id":"cebpf4jnsgd1na2vs0mg"},{"bike_id":"cefc250c-1baa-4a78-8fed-eb20c7fbb95c","system_id":"levelo_inurba_marseille","lat":43.23182,"lon":5.35566,"is_reserved":false,"is_disabled":true,"rental_uris":{"android":"levelo://app?vid=cefc250c-1baa-4a78-8fed-eb20c7fbb95c","ios":"levelo://app?vid=cefc250c-1baa-4a78-8fed-eb20c7fbb95c"},"vehicle_type_id":"4","last_reported":1737119665,"current_range_meters":0,"station_id":"ce4bhu92rcd13ifvqi70","pricing_plan_id":"cebpf4jnsgd1na2vs0mg"},{"bike_id":"6a7366d7-ed8c-4629-bf0c-70c2abcda36d","system_id":"levelo_inurba_marseille","lat":43.23196,"lon":5.35556,"is_reserved":false,"is_disabled":false,"rental_uris":{"android":"levelo://app?vid=6a7366d7-ed8c-4629-bf0c-70c2abcda36d","ios":"levelo://app?vid=6a7366d7-ed8c-4629-bf0c-70c2abcda36d"},"vehicle_type_id":"4","last_reported":1737119665,"current_range_meters":8000,"station_id":"ce4bhu92rcd13ifvqi70","pricing_plan_id":"cebpf4jnsgd1na2vs0mg"},{"bike_id":"9c715e44-709a-40f7-85d2-858a61405d8a","system_id":"levelo_inurba_marseille","lat":43.31328,"lon":5.36707,"is_reserved":false,"is_disabled":false,"rental_uris":{"android":"levelo://app?vid=9c715e44-709a-40f7-85d2-858a61405d8a","ios":"levelo://app?vid=9c715e44-709a-40f7-85d2-858a61405d8a"},"vehicle_type_id":"4","last_reported":1737119665,"current_range_meters":17600,"station_id":"ce4bgr92rcd13ifvqc6g","pricing_plan_id":"cebpf4jnsgd1na2vs0mg"},{"bike_id":"2d7f3353-743b-41e1-85f2-e32181d4ae48","system_id":"levelo_inurba_marseille","lat":43.32012,"lon":5.38154,"is_reserved":false,"is_disabled":false,"rental_uris":{"android":"levelo://app?vid=2d7f3353-743b-41e1-85f2-e32181d4ae48","ios":"levelo://app?vid=2d7f3353-743b-41e1-85f2-e32181d4ae48"},"vehicle_type_id":"4","last_reported":1737119665,"current_range_meters":28400,"station_id":"ce4bhr12rcd13ifvqhpg","pricing_plan_id":"cebpf4jnsgd1na2vs0mg"},{"bike_id":"c07f8db7-af70-4947-b8df-b0e94b1e5603","system_id":"levelo_inurba_marseille","lat":43.2657,"lon":5.39035,"is_reserved":false,"is_disabled":false,"rental_uris":{"android":"levelo://app?vid=c07f8db7-af70-4947-b8df-b0e94b1e5603","ios":"levelo://app?vid=c07f8db7-af70-4947-b8df-b0e94b1e5603"},"vehicle_type_id":"4","last_reported":1737119665,"current_range_meters":32400,"station_id":"ce4bhe12rcd13ifvqf30","pricing_plan_id":"cebpf4jnsgd1na2vs0mg"},{"bike_id":"4ee2395d-ba72-43e0-9b84-ea966e903d30","system_id":"levelo_inurba_marseille","lat":43.2937,"lon":5.37857,"is_reserved":false,"is_disabled":false,"rental_uris":{"android":"levelo://app?vid=4ee2395d-ba72-43e0-9b84-ea966e903d30","ios":"levelo://app?vid=4ee2395d-ba72-43e0-9b84-ea966e903d30"},"vehicle_type_id":"4","last_reported":1737119665,"current_range_meters":11200,"station_id":"ce4bgjh2rcd13ifvqbf0","pricing_plan_id":"cebpf4jnsgd1na2vs0mg"},{"bike_id":"35deb437-7ef2-4ee7-9ea5-27ce0001ca7b","system_id":"levelo_inurba_marseille","lat":43.26052,"lon":5.3939,"is_reserved":false,"is_disabled":false,"rental_uris":{"android":"levelo://app?vid=35deb437-7ef2-4ee7-9ea5-27ce0001ca7b","ios":"levelo://app?vid=35deb437-7ef2-4ee7-9ea5-27ce0001ca7b"},"vehicle_type_id":"4","last_reported":1737119665,"current_range_meters":38800,"station_id":"ce4bhh92rcd13ifvqfj0","pricing_plan_id":"cebpf4jnsgd1na2vs0mg"},{"bike_id":"401864e0-5a18-47f8-946b-0a4d3027b5a4","system_id":"levelo_inurba_marseille","lat":43.22931,"lon":5.35391,"is_reserved":false,"is_disabled":false,"rental_uris":{"android":"levelo://app?vid=401864e0-5a18-47f8-946b-0a4d3027b5a4","ios":"levelo://app?vid=401864e0-5a18-47f8-946b-0a4d3027b5a4"},"vehicle_type_id":"4","last_reported":1737119665,"current_range_meters":27200,"station_id":"cpo3532slgdg3j2ikp40","pricing_plan_id":"cebpf4jnsgd1na2vs0mg"},{"bike_id":"74c0cea3-29d9-433e-a4da-1101e5070b9d","system_id":"levelo_inurba_marseille","lat":43.26213,"lon":5.37441,"is_reserved":false,"is_disabled":false,"rental_uris":{"android":"levelo://app?vid=74c0cea3-29d9-433e-a4da-1101e5070b9d","ios":"levelo://app?vid=74c0cea3-29d9-433e-a4da-1101e5070b9d"},"vehicle_type_id":"4","last_reported":1737119665,"current_range_meters":16800,"station_id":"ce4bhgp2rcd13ifvqfc0","pricing_plan_id":"cebpf4jnsgd1na2vs0mg"},{"bike_id":"1f5f13df-3329-4e8f-9dad-86a21ac71aec","system_id":"levelo_inurba_marseille","lat":43.29709,"lon":5.36621,"is_reserved":false,"is_disabled":false,"rental_uris":{"android":"levelo://app?vid=1f5f13df-3329-4e8f-9dad-86a21ac71aec","ios":"levelo://app?vid=1f5f13df-3329-4e8f-9dad-86a21ac71aec"},"vehicle_type_id":"4","last_reported":1737119665,"current_range_meters":21600,"station_id":"ce4bgn12rcd13ifvqbt0","pricing_plan_id":"cebpf4jnsgd1na2vs0mg"},{"bike_id":"d9a0f924-c960-4b40-990e-491418899ef5","system_id":"levelo_inurba_marseille","lat":43.29949,"lon":5.37157,"is_reserved":false,"is_disabled":false,"rental_uris":{"android":"levelo://app?vid=d9a0f924-c960-4b40-990e-491418899ef5","ios":"levelo://app?vid=d9a0f924-c960-4b40-990e-491418899ef5"},"vehicle_type_id":"4","last_reported":1737119665,"current_range_meters":19200,"station_id":"ce4bgr92rcd13ifvqc7g","pricing_plan_id":"cebpf4jnsgd1na2vs0mg"},{"bike_id":"fdf33bbc-5457-4539-bb6d-ebcf1b6a63ed","system_id":"levelo_inurba_marseille","lat":43.28265,"lon":5.35059,"is_reserved":false,"is_disabled":false,"rental_uris":{"android":"levelo://app?vid=fdf33bbc-5457-4539-bb6d-ebcf1b6a63ed","ios":"levelo://app?vid=fdf33bbc-5457-4539-bb6d-ebcf1b6a63ed"},"vehicle_type_id":"4","last_reported":1737119665,"current_range_meters":11600,"station_id":"ce4bhbp2rcd13ifvqerg","pricing_plan_id":"cebpf4jnsgd1na2vs0mg"},{"bike_id":"343ace60-e1c5-4a88-8111-b8dee9027e0a","system_id":"levelo_inurba_marseille","lat":43.30557,"lon":5.38431,"is_reserved":false,"is_disabled":false,"rental_uris":{"android":"levelo://app?vid=343ace60-e1c5-4a88-8111-b8dee9027e0a","ios":"levelo://app?vid=343ace60-e1c5-4a88-8111-b8dee9027e0a"},"vehicle_type_id":"4","last_reported":1737119665,"current_range_meters":37600,"station_id":"ce4bgg92rcd13ifvqb30","pricing_plan_id":"cebpf4jnsgd1na2vs0mg"},{"bike_id":"3a41bba2-0f7c-408e-a6fe-8a364b529f4c","system_id":"levelo_inurba_marseille","lat":43.27204,"lon":5.39188,"is_reserved":false,"is_disabled":false,"rental_uris":{"android":"levelo://app?vid=3a41bba2-0f7c-408e-a6fe-8a364b529f4c","ios":"levelo://app?vid=3a41bba2-0f7c-408e-a6fe-8a364b529f4c"},"vehicle_type_id":"4","last_reported":1737119665,"current_range_meters":38000,"station_id":"ce4bhhp2rcd13ifvqfm0","pricing_plan_id":"cebpf4jnsgd1na2vs0mg"},{"bike_id":"ddfefd90-07be-4973-9578-35038fe52ce0","system_id":"levelo_inurba_marseille","lat":43.25825,"lon":5.39442,"is_reserved":false,"is_disabled":false,"rental_uris":{"android":"levelo://app?vid=ddfefd90-07be-4973-9578-35038fe52ce0","ios":"levelo://app?vid=ddfefd90-07be-4973-9578-35038fe52ce0"},"vehicle_type_id":"4","last_reported":1737119665,"current_range_meters":20000,"station_id":"ce4bhip2rcd13ifvqft0","pricing_plan_id":"cebpf4jnsgd1na2vs0mg"},{"bike_id":"d60479e6-98ee-480e-bc82-d76b72d43880","system_id":"levelo_inurba_marseille","lat":43.26777,"lon":5.3942,"is_reserved":false,"is_disabled":false,"rental_uris":{"android":"levelo://app?vid=d60479e6-98ee-480e-bc82-d76b72d43880","ios":"levelo://app?vid=d60479e6-98ee-480e-bc82-d76b72d43880"},"vehicle_type_id":"4","last_reported":1737119665,"current_range_meters":23200,"station_id":"ce4bhh12rcd13ifvqfg0","pricing_plan_id":"cebpf4jnsgd1na2vs0mg"},{"bike_id":"bd9daa77-af0f-465a-b1d5-e9953ab5e6da","system_id":"levelo_inurba_marseille","lat":43.28455,"lon":5.35883,"is_reserved":false,"is_disabled":false,"rental_uris":{"android":"levelo://app?vid=bd9daa77-af0f-465a-b1d5-e9953ab5e6da","ios":"levelo://app?vid=bd9daa77-af0f-465a-b1d5-e9953ab5e6da"},"vehicle_type_id":"4","last_reported":1737119665,"current_range_meters":9600,"station_id":"ce4bhah2rcd13ifvqei0","pricing_plan_id":"cebpf4jnsgd1na2vs0mg"},{"bike_id":"c900a35e-adb0-4181-8b02-4ef655f399fb","system_id":"levelo_inurba_marseille","lat":43.33723,"lon":5.39181,"is_reserved":false,"is_disabled":false,"rental_uris":{"android":"levelo://app?vid=c900a35e-adb0-4181-8b02-4ef655f399fb","ios":"levelo://app?vid=c900a35e-adb0-4181-8b02-4ef655f399fb"},"vehicle_type_id":"4","last_reported":1737119665,"current_range_meters":21600,"station_id":"ce4bhr92rcd13ifvqhsg","pricing_plan_id":"cebpf4jnsgd1na2vs0mg"},{"bike_id":"a46ca539-a7aa-4178-b673-268342d45dbd","system_id":"levelo_inurba_marseille","lat":43.29867,"lon":5.39735,"is_reserved":false,"is_disabled":false,"rental_uris":{"android":"levelo://app?vid=a46ca539-a7aa-4178-b673-268342d45dbd","ios":"levelo://app?vid=a46ca539-a7aa-4178-b673-268342d45dbd"},"vehicle_type_id":"4","last_reported":1737119665,"current_range_meters":36400,"station_id":"","pricing_plan_id":"cebpf4jnsgd1na2vs0mg"},{"bike_id":"72ca0742-1df6-4026-87cc-098e9e8db1ab","system_id":"levelo_inurba_marseille","lat":43.23966,"lon":5.36627,"is_reserved":false,"is_disabled":false,"rental_uris":{"android":"levelo://app?vid=72ca0742-1df6-4026-87cc-098e9e8db1ab","ios":"levelo://app?vid=72ca0742-1df6-4026-87cc-098e9e8db1ab"},"vehicle_type_id":"4","last_reported":1737119665,"current_range_meters":28400,"station_id":"ce4bhi12rcd13ifvqfp0","pricing_plan_id":"cebpf4jnsgd1na2vs0mg"},{"bike_id":"9370995a-0faf-41aa-bfba-e8f18c48b388","system_id":"levelo_inurba_marseille","lat":43.27345,"lon":5.36194,"is_reserved":false,"is_disabled":false,"rental_uris":{"android":"levelo://app?vid=9370995a-0faf-41aa-bfba-e8f18c48b388","ios":"levelo://app?vid=9370995a-0faf-41aa-bfba-e8f18c48b388"},"vehicle_type_id":"4","last_reported":1737119665,"current_range_meters":30000,"station_id":"","pricing_plan_id":"cebpf4jnsgd1na2vs0mg"},{"bike_id":"18a984e6-9095-424c-bc4e-9d1acddd0e7d","system_id":"levelo_inurba_marseille","lat":43.2867,"lon":5.38663,"is_reserved":false,"is_disabled":false,"rental_uris":{"android":"levelo://app?vid=18a984e6-9095-424c-bc4e-9d1acddd0e7d","ios":"levelo://app?vid=18a984e6-9095-424c-bc4e-9d1acddd0e7d"},"vehicle_type_id":"4","last_reported":1737119665,"current_range_meters":25600,"station_id":"ce4bh492rcd13ifvqdug","pricing_plan_id":"cebpf4jnsgd1na2vs0mg"},{"bike_id":"b385fb6c-70f6-4939-946c-b2099424a1de","system_id":"levelo_inurba_marseille","lat":43.27201,"lon":5.39181,"is_reserved":false,"is_disabled":false,"rental_uris":{"android":"levelo://app?vid=b385fb6c-70f6-4939-946c-b2099424a1de","ios":"levelo://app?vid=b385fb6c-70f6-4939-946c-b2099424a1de"},"vehicle_type_id":"4","last_reported":1737119665,"current_range_meters":27200,"station_id":"ce4bhhp2rcd13ifvqfm0","pricing_plan_id":"cebpf4jnsgd1na2vs0mg"},{"bike_id":"7383474c-b45a-4438-837c-99d7ae866fe7","system_id":"levelo_inurba_marseille","lat":43.26066,"lon":5.39412,"is_reserved":false,"is_disabled":false,"rental_uris":{"android":"levelo://app?vid=7383474c-b45a-4438-837c-99d7ae866fe7","ios":"levelo://app?vid=7383474c-b45a-4438-837c-99d7ae866fe7"},"vehicle_type_id":"4","last_reported":1737119665,"current_range_meters":38800,"station_id":"ce4bhh92rcd13ifvqfj0","pricing_plan_id":"cebpf4jnsgd1na2vs0mg"},{"bike_id":"21335a81-06b0-42e9-a5f8-3992402d742f","system_id":"levelo_inurba_marseille","lat":43.24178,"lon":5.39731,"is_reserved":false,"is_disabled":false,"rental_uris":{"android":"levelo://app?vid=21335a81-06b0-42e9-a5f8-3992402d742f","ios":"levelo://app?vid=21335a81-06b0-42e9-a5f8-3992402d742f"},"vehicle_type_id":"4","last_reported":1737119665,"current_range_meters":32400,"station_id":"ce4bhn12rcd13ifvqgpg","pricing_plan_id":"cebpf4jnsgd1na2vs0mg"},{"bike_id":"411a3486-e7ec-459b-b89c-b54d20bc02f3","system_id":"levelo_inurba_marseille","lat":43.31272,"lon":5.40178,"is_reserved":false,"is_disabled":false,"rental_uris":{"android":"levelo://app?vid=411a3486-e7ec-459b-b89c-b54d20bc02f3","ios":"levelo://app?vid=411a3486-e7ec-459b-b89c-b54d20bc02f3"},"vehicle_type_id":"4","last_reported":1737119665,"current_range_meters":36400,"station_id":"ce4bh092rcd13ifvqd30","pricing_plan_id":"cebpf4jnsgd1na2vs0mg"},{"bike_id":"8dc4bafa-c9bb-418a-b39d-925b47ae4c83","system_id":"levelo_inurba_marseille","lat":43.25928,"lon":5.409,"is_reserved":false,"is_disabled":false,"rental_uris":{"android":"levelo://app?vid=8dc4bafa-c9bb-418a-b39d-925b47ae4c83","ios":"levelo://app?vid=8dc4bafa-c9bb-418a-b39d-925b47ae4c83"},"vehicle_type_id":"4","last_reported":1737119665,"current_range_meters":38400,"station_id":"ce4bhm92rcd13ifvqglg","pricing_plan_id":"cebpf4jnsgd1na2vs0mg"},{"bike_id":"7f0d2565-6823-4143-8b01-e650deeed535","system_id":"levelo_inurba_marseille","lat":43.30206,"lon":5.39459,"is_reserved":false,"is_disabled":false,"rental_uris":{"android":"levelo://app?vid=7f0d2565-6823-4143-8b01-e650deeed535","ios":"levelo://app?vid=7f0d2565-6823-4143-8b01-e650deeed535"},"vehicle_type_id":"4","last_reported":1737119665,"current_range_meters":36000,"station_id":"ce4bh0p2rcd13ifvqd70","pricing_plan_id":"cebpf4jnsgd1na2vs0mg"},{"bike_id":"0dd19019-f68e-4196-b969-e64a3d920187","system_id":"levelo_inurba_marseille","lat":43.30542,"lon":5.36697,"is_reserved":false,"is_disabled":false,"rental_uris":{"android":"levelo://app?vid=0dd19019-f68e-4196-b969-e64a3d920187","ios":"levelo://app?vid=0dd19019-f68e-4196-b969-e64a3d920187"},"vehicle_type_id":"4","last_reported":1737119665,"current_range_meters":30400,"station_id":"ce4bgrp2rcd13ifvqc9g","pricing_plan_id":"cebpf4jnsgd1na2vs0mg"},{"bike_id":"bf43374e-1830-4f3b-9852-0c4c91e32c2c","system_id":"levelo_inurba_marseille","lat":43.27374,"lon":5.36257,"is_reserved":false,"is_disabled":false,"rental_uris":{"android":"levelo://app?vid=bf43374e-1830-4f3b-9852-0c4c91e32c2c","ios":"levelo://app?vid=bf43374e-1830-4f3b-9852-0c4c91e32c2c"},"vehicle_type_id":"4","last_reported":1737119665,"current_range_meters":22400,"station_id":"ce4bhbh2rcd13ifvqeo0","pricing_plan_id":"cebpf4jnsgd1na2vs0mg"},{"bike_id":"44721705-52d0-4eba-b0b2-b41ea9586411","system_id":"levelo_inurba_marseille","lat":43.23193,"lon":5.35548,"is_reserved":false,"is_disabled":false,"rental_uris":{"android":"levelo://app?vid=44721705-52d0-4eba-b0b2-b41ea9586411","ios":"levelo://app?vid=44721705-52d0-4eba-b0b2-b41ea9586411"},"vehicle_type_id":"4","last_reported":1737119665,"current_range_meters":30000,"station_id":"ce4bhu92rcd13ifvqi70","pricing_plan_id":"cebpf4jnsgd1na2vs0mg"},{"bike_id":"fe4ca2de-39b1-4c54-a18c-5b9311dc9a5e","system_id":"levelo_inurba_marseille","lat":43.29513,"lon":5.39034,"is_reserved":false,"is_disabled":false,"rental_uris":{"android":"levelo://app?vid=fe4ca2de-39b1-4c54-a18c-5b9311dc9a5e","ios":"levelo://app?vid=fe4ca2de-39b1-4c54-a18c-5b9311dc9a5e"},"vehicle_type_id":"4","last_reported":1737119665,"current_range_meters":38800,"station_id":"ce4bh3p2rcd13ifvqdp0","pricing_plan_id":"cebpf4jnsgd1na2vs0mg"},{"bike_id":"f9a54342-ea5e-4577-8acc-954ce0520303","system_id":"levelo_inurba_marseille","lat":43.28349,"lon":5.3812,"is_reserved":false,"is_disabled":false,"rental_uris":{"android":"levelo://app?vid=f9a54342-ea5e-4577-8acc-954ce0520303","ios":"levelo://app?vid=f9a54342-ea5e-4577-8acc-954ce0520303"},"vehicle_type_id":"4","last_reported":1737119665,"current_range_meters":6800,"station_id":"ce4bh412rcd13ifvqdr0","pricing_plan_id":"cebpf4jnsgd1na2vs0mg"},{"bike_id":"a21e7b8b-68c2-4ba8-99c6-49d5f0a2ebc6","system_id":"levelo_inurba_marseille","lat":43.2619,"lon":5.37449,"is_reserved":false,"is_disabled":false,"rental_uris":{"android":"levelo://app?vid=a21e7b8b-68c2-4ba8-99c6-49d5f0a2ebc6","ios":"levelo://app?vid=a21e7b8b-68c2-4ba8-99c6-49d5f0a2ebc6"},"vehicle_type_id":"4","last_reported":1737119665,"current_range_meters":38800,"station_id":"ce4bhgp2rcd13ifvqfc0","pricing_plan_id":"cebpf4jnsgd1na2vs0mg"},{"bike_id":"e1f9a0b5-1419-4e67-ab24-a72ee45dfd85","system_id":"levelo_inurba_marseille","lat":43.24168,"lon":5.36408,"is_reserved":false,"is_disabled":false,"rental_uris":{"android":"levelo://app?vid=e1f9a0b5-1419-4e67-ab24-a72ee45dfd85","ios":"levelo://app?vid=e1f9a0b5-1419-4e67-ab24-a72ee45dfd85"},"vehicle_type_id":"4","last_reported":1737119665,"current_range_meters":16400,"station_id":"cpo36qri1sfpv3e86is0","pricing_plan_id":"cebpf4jnsgd1na2vs0mg"},{"bike_id":"ebaff725-ca95-47a3-9db5-6686cd2b19fb","system_id":"levelo_inurba_marseille","lat":43.3055,"lon":5.36719,"is_reserved":false,"is_disabled":false,"rental_uris":{"android":"levelo://app?vid=ebaff725-ca95-47a3-9db5-6686cd2b19fb","ios":"levelo://app?vid=ebaff725-ca95-47a3-9db5-6686cd2b19fb"},"vehicle_type_id":"4","last_reported":1737119665,"current_range_meters":27200,"station_id":"ce4bgrp2rcd13ifvqc9g","pricing_plan_id":"cebpf4jnsgd1na2vs0mg"},{"bike_id":"882e3c20-dd13-45c9-b2cc-b9e0e7c63a64","system_id":"levelo_inurba_marseille","lat":43.29542,"lon":5.3904,"is_reserved":false,"is_disabled":false,"rental_uris":{"android":"levelo://app?vid=882e3c20-dd13-45c9-b2cc-b9e0e7c63a64","ios":"levelo://app?vid=882e3c20-dd13-45c9-b2cc-b9e0e7c63a64"},"vehicle_type_id":"4","last_reported":1737119665,"current_range_meters":38800,"station_id":"ce4bh3p2rcd13ifvqdp0","pricing_plan_id":"cebpf4jnsgd1na2vs0mg"},{"bike_id":"c3de6877-1f6c-46f2-8ace-6b8834abcbb4","system_id":"levelo_inurba_marseille","lat":43.29057,"lon":5.37152,"is_reserved":false,"is_disabled":true,"rental_uris":{"android":"levelo://app?vid=c3de6877-1f6c-46f2-8ace-6b8834abcbb4","ios":"levelo://app?vid=c3de6877-1f6c-46f2-8ace-6b8834abcbb4"},"vehicle_type_id":"4","last_reported":1737119665,"current_range_meters":26000,"station_id":"ce4bh5p2rcd13ifvqe4g","pricing_plan_id":"cebpf4jnsgd1na2vs0mg"},{"bike_id":"2aa98a8e-265a-4dfa-baae-3da013df4e11","system_id":"levelo_inurba_marseille","lat":43.27363,"lon":5.36249,"is_reserved":false,"is_disabled":false,"rental_uris":{"android":"levelo://app?vid=2aa98a8e-265a-4dfa-baae-3da013df4e11","ios":"levelo://app?vid=2aa98a8e-265a-4dfa-baae-3da013df4e11"},"vehicle_type_id":"4","last_reported":1737119665,"current_range_meters":8800,"station_id":"ce4bhbh2rcd13ifvqeo0","pricing_plan_id":"cebpf4jnsgd1na2vs0mg"},{"bike_id":"9fd67735-0e42-4ea3-ba49-b3e72ffcfb28","system_id":"levelo_inurba_marseille","lat":43.30525,"lon":5.36724,"is_reserved":false,"is_disabled":false,"rental_uris":{"android":"levelo://app?vid=9fd67735-0e42-4ea3-ba49-b3e72ffcfb28","ios":"levelo://app?vid=9fd67735-0e42-4ea3-ba49-b3e72ffcfb28"},"vehicle_type_id":"4","last_reported":1737119665,"current_range_meters":38800,"station_id":"ce4bgrp2rcd13ifvqc9g","pricing_plan_id":"cebpf4jnsgd1na2vs0mg"},{"bike_id":"7d3c749d-4eb6-4ace-b278-8c043ec9d8f5","system_id":"levelo_inurba_marseille","lat":43.26564,"lon":5.373,"is_reserved":false,"is_disabled":false,"rental_uris":{"android":"levelo://app?vid=7d3c749d-4eb6-4ace-b278-8c043ec9d8f5","ios":"levelo://app?vid=7d3c749d-4eb6-4ace-b278-8c043ec9d8f5"},"vehicle_type_id":"4","last_reported":1737119665,"current_range_meters":28400,"station_id":"ce4bhg12rcd13ifvqf70","pricing_plan_id":"cebpf4jnsgd1na2vs0mg"},{"bike_id":"f5863b18-13a1-4c6e-92de-5668ea912ad3","system_id":"levelo_inurba_marseille","lat":43.26209,"lon":5.40438,"is_reserved":false,"is_disabled":true,"rental_uris":{"android":"levelo://app?vid=f5863b18-13a1-4c6e-92de-5668ea912ad3","ios":"levelo://app?vid=f5863b18-13a1-4c6e-92de-5668ea912ad3"},"vehicle_type_id":"4","last_reported":1737119665,"current_range_meters":0,"station_id":"","pricing_plan_id":"cebpf4jnsgd1na2vs0mg"},{"bike_id":"633c61d4-43b5-407e-821a-950590f7f4d7","system_id":"levelo_inurba_marseille","lat":43.27434,"lon":5.39413,"is_reserved":false,"is_disabled":false,"rental_uris":{"android":"levelo://app?vid=633c61d4-43b5-407e-821a-950590f7f4d7","ios":"levelo://app?vid=633c61d4-43b5-407e-821a-950590f7f4d7"},"vehicle_type_id":"4","last_reported":1737119665,"current_range_meters":38800,"station_id":"ce4bhdp2rcd13ifvqf20","pricing_plan_id":"cebpf4jnsgd1na2vs0mg"},{"bike_id":"a8fad254-19bb-48fe-801d-9e93d4767cef","system_id":"levelo_inurba_marseille","lat":43.3143,"lon":5.37396,"is_reserved":false,"is_disabled":true,"rental_uris":{"android":"levelo://app?vid=a8fad254-19bb-48fe-801d-9e93d4767cef","ios":"levelo://app?vid=a8fad254-19bb-48fe-801d-9e93d4767cef"},"vehicle_type_id":"4","last_reported":1737119665,"current_range_meters":0,"station_id":"","pricing_plan_id":"cebpf4jnsgd1na2vs0mg"},{"bike_id":"395abbb0-e30b-4c9b-b6f0-604a718fd11d","system_id":"levelo_inurba_marseille","lat":43.27071,"lon":5.42275,"is_reserved":false,"is_disabled":false,"rental_uris":{"android":"levelo://app?vid=395abbb0-e30b-4c9b-b6f0-604a718fd11d","ios":"levelo://app?vid=395abbb0-e30b-4c9b-b6f0-604a718fd11d"},"vehicle_type_id":"4","last_reported":1737119665,"current_range_meters":8000,"station_id":"ce4bhk92rcd13ifvqgb0","pricing_plan_id":"cebpf4jnsgd1na2vs0mg"},{"bike_id":"d0335aa9-5096-4d0b-bab9-ff3e00a4b234","system_id":"levelo_inurba_marseille","lat":43.30551,"lon":5.36535,"is_reserved":false,"is_disabled":false,"rental_uris":{"android":"levelo://app?vid=d0335aa9-5096-4d0b-bab9-ff3e00a4b234","ios":"levelo://app?vid=d0335aa9-5096-4d0b-bab9-ff3e00a4b234"},"vehicle_type_id":"4","last_reported":1737119665,"current_range_meters":28000,"station_id":"ce4bgs12rcd13ifvqcag","pricing_plan_id":"cebpf4jnsgd1na2vs0mg"},{"bike_id":"e5f71037-c3e2-4a5c-b185-51bcddd625d8","system_id":"levelo_inurba_marseille","lat":43.23064,"lon":5.35492,"is_reserved":false,"is_disabled":false,"rental_uris":{"android":"levelo://app?vid=e5f71037-c3e2-4a5c-b185-51bcddd625d8","ios":"levelo://app?vid=e5f71037-c3e2-4a5c-b185-51bcddd625d8"},"vehicle_type_id":"4","last_reported":1737119665,"current_range_meters":4400,"station_id":"cpo3342slgdg3j2ifvpg","pricing_plan_id":"cebpf4jnsgd1na2vs0mg"},{"bike_id":"46686b70-f375-4947-b209-2f4548c2edcf","system_id":"levelo_inurba_marseille","lat":43.288905,"lon":5.394679,"is_reserved":false,"is_disabled":true,"rental_uris":{"android":"levelo://app?vid=46686b70-f375-4947-b209-2f4548c2edcf","ios":"levelo://app?vid=46686b70-f375-4947-b209-2f4548c2edcf"},"vehicle_type_id":"4","last_reported":1737119665,"current_range_meters":0,"station_id":"","pricing_plan_id":"cebpf4jnsgd1na2vs0mg"},{"bike_id":"206d5af6-a497-4fdd-a402-15ad7925a188","system_id":"levelo_inurba_marseille","lat":43.27421,"lon":5.39417,"is_reserved":false,"is_disabled":false,"rental_uris":{"android":"levelo://app?vid=206d5af6-a497-4fdd-a402-15ad7925a188","ios":"levelo://app?vid=206d5af6-a497-4fdd-a402-15ad7925a188"},"vehicle_type_id":"4","last_reported":1737119665,"current_range_meters":9200,"station_id":"ce4bhdp2rcd13ifvqf20","pricing_plan_id":"cebpf4jnsgd1na2vs0mg"},{"bike_id":"1e4067fa-9321-4a2b-8041-2f3326f54dda","system_id":"levelo_inurba_marseille","lat":43.30289,"lon":5.37719,"is_reserved":false,"is_disabled":false,"rental_uris":{"android":"levelo://app?vid=1e4067fa-9321-4a2b-8041-2f3326f54dda","ios":"levelo://app?vid=1e4067fa-9321-4a2b-8041-2f3326f54dda"},"vehicle_type_id":"4","last_reported":1737119665,"current_range_meters":38800,"station_id":"ce4bguh2rcd13ifvqcj0","pricing_plan_id":"cebpf4jnsgd1na2vs0mg"},{"bike_id":"50a4222e-4010-4594-9f5f-75337d04aecd","system_id":"levelo_inurba_marseille","lat":43.29052,"lon":5.3715,"is_reserved":false,"is_disabled":true,"rental_uris":{"android":"levelo://app?vid=50a4222e-4010-4594-9f5f-75337d04aecd","ios":"levelo://app?vid=50a4222e-4010-4594-9f5f-75337d04aecd"},"vehicle_type_id":"4","last_reported":1737119665,"current_range_meters":33200,"station_id":"ce4bh5p2rcd13ifvqe4g","pricing_plan_id":"cebpf4jnsgd1na2vs0mg"},{"bike_id":"cbdfe32c-6b00-47bd-974d-311487c5e69c","system_id":"levelo_inurba_marseille","lat":43.29291,"lon":5.37465,"is_reserved":false,"is_disabled":false,"rental_uris":{"android":"levelo://app?vid=cbdfe32c-6b00-47bd-974d-311487c5e69c","ios":"levelo://app?vid=cbdfe32c-6b00-47bd-974d-311487c5e69c"},"vehicle_type_id":"4","last_reported":1737119665,"current_range_meters":22800,"station_id":"ce4bgi12rcd13ifvqb70","pricing_plan_id":"cebpf4jnsgd1na2vs0mg"},{"bike_id":"162e74e4-7cde-4983-afbf-6133953791de","system_id":"levelo_inurba_marseille","lat":43.27373,"lon":5.36261,"is_reserved":false,"is_disabled":false,"rental_uris":{"android":"levelo://app?vid=162e74e4-7cde-4983-afbf-6133953791de","ios":"levelo://app?vid=162e74e4-7cde-4983-afbf-6133953791de"},"vehicle_type_id":"4","last_reported":1737119665,"current_range_meters":39200,"station_id":"ce4bhbh2rcd13ifvqeo0","pricing_plan_id":"cebpf4jnsgd1na2vs0mg"},{"bike_id":"53c26170-756a-4ffa-a56a-36d0d287c54c","system_id":"levelo_inurba_marseille","lat":43.31076,"lon":5.42455,"is_reserved":false,"is_disabled":false,"rental_uris":{"android":"levelo://app?vid=53c26170-756a-4ffa-a56a-36d0d287c54c","ios":"levelo://app?vid=53c26170-756a-4ffa-a56a-36d0d287c54c"},"vehicle_type_id":"4","last_reported":1737119665,"current_range_meters":38800,"station_id":"ce4bhp92rcd13ifvqhag","pricing_plan_id":"cebpf4jnsgd1na2vs0mg"},{"bike_id":"4774e4a1-7875-478e-94e6-a0cd5f996476","system_id":"levelo_inurba_marseille","lat":43.32336,"lon":5.40633,"is_reserved":false,"is_disabled":false,"rental_uris":{"android":"levelo://app?vid=4774e4a1-7875-478e-94e6-a0cd5f996476","ios":"levelo://app?vid=4774e4a1-7875-478e-94e6-a0cd5f996476"},"vehicle_type_id":"4","last_reported":1737119665,"current_range_meters":38400,"station_id":"ce4bhq92rcd13ifvqhjg","pricing_plan_id":"cebpf4jnsgd1na2vs0mg"},{"bike_id":"6fd6e968-3cda-4943-8532-d4df4d874d56","system_id":"levelo_inurba_marseille","lat":43.26229,"lon":5.40469,"is_reserved":false,"is_disabled":false,"rental_uris":{"android":"levelo://app?vid=6fd6e968-3cda-4943-8532-d4df4d874d56","ios":"levelo://app?vid=6fd6e968-3cda-4943-8532-d4df4d874d56"},"vehicle_type_id":"4","last_reported":1737119665,"current_range_meters":7200,"station_id":"","pricing_plan_id":"cebpf4jnsgd1na2vs0mg"},{"bike_id":"2e54eed8-f855-4dc7-8558-e74f215391b0","system_id":"levelo_inurba_marseille","lat":43.2408,"lon":5.37775,"is_reserved":false,"is_disabled":false,"rental_uris":{"android":"levelo://app?vid=2e54eed8-f855-4dc7-8558-e74f215391b0","ios":"levelo://app?vid=2e54eed8-f855-4dc7-8558-e74f215391b0"},"vehicle_type_id":"4","last_reported":1737119665,"current_range_meters":36000,"station_id":"ce4bhnp2rcd13ifvqgvg","pricing_plan_id":"cebpf4jnsgd1na2vs0mg"},{"bike_id":"a66d6c58-eb43-4976-925a-213a5b7be83d","system_id":"levelo_inurba_marseille","lat":43.29915,"lon":5.37451,"is_reserved":false,"is_disabled":false,"rental_uris":{"android":"levelo://app?vid=a66d6c58-eb43-4976-925a-213a5b7be83d","ios":"levelo://app?vid=a66d6c58-eb43-4976-925a-213a5b7be83d"},"vehicle_type_id":"4","last_reported":1737119665,"current_range_meters":25200,"station_id":"ce4bgjh2rcd13ifvqbg0","pricing_plan_id":"cebpf4jnsgd1na2vs0mg"},{"bike_id":"a8116cd0-980c-498d-aa22-e6b45cccc882","system_id":"levelo_inurba_marseille","lat":43.28355,"lon":5.38107,"is_reserved":false,"is_disabled":false,"rental_uris":{"android":"levelo://app?vid=a8116cd0-980c-498d-aa22-e6b45cccc882","ios":"levelo://app?vid=a8116cd0-980c-498d-aa22-e6b45cccc882"},"vehicle_type_id":"4","last_reported":1737119665,"current_range_meters":30800,"station_id":"ce4bh412rcd13ifvqdr0","pricing_plan_id":"cebpf4jnsgd1na2vs0mg"},{"bike_id":"f3d2350f-ba34-4a9d-8ccc-de94508495c2","system_id":"levelo_inurba_marseille","lat":43.283636,"lon":5.381062,"is_reserved":false,"is_disabled":false,"rental_uris":{"android":"levelo://app?vid=f3d2350f-ba34-4a9d-8ccc-de94508495c2","ios":"levelo://app?vid=f3d2350f-ba34-4a9d-8ccc-de94508495c2"},"vehicle_type_id":"4","last_reported":1737119665,"current_range_meters":29600,"station_id":"ce4bh412rcd13ifvqdr0","pricing_plan_id":"cebpf4jnsgd1na2vs0mg"},{"bike_id":"e7120db1-cc09-44ac-98ae-a4059feaa7ae","system_id":"levelo_inurba_marseille","lat":43.30559,"lon":5.3671,"is_reserved":false,"is_disabled":false,"rental_uris":{"android":"levelo://app?vid=e7120db1-cc09-44ac-98ae-a4059feaa7ae","ios":"levelo://app?vid=e7120db1-cc09-44ac-98ae-a4059feaa7ae"},"vehicle_type_id":"4","last_reported":1737119665,"current_range_meters":38000,"station_id":"ce4bgrp2rcd13ifvqc9g","pricing_plan_id":"cebpf4jnsgd1na2vs0mg"},{"bike_id":"e3511289-c3a4-42f1-99b3-3410bfb58752","system_id":"levelo_inurba_marseille","lat":43.287,"lon":5.39989,"is_reserved":false,"is_disabled":false,"rental_uris":{"android":"levelo://app?vid=e3511289-c3a4-42f1-99b3-3410bfb58752","ios":"levelo://app?vid=e3511289-c3a4-42f1-99b3-3410bfb58752"},"vehicle_type_id":"4","last_reported":1737119665,"current_range_meters":20800,"station_id":"ce4bho92rcd13ifvqh3g","pricing_plan_id":"cebpf4jnsgd1na2vs0mg"},{"bike_id":"c545084e-a464-43ad-a0d3-118acf76523b","system_id":"levelo_inurba_marseille","lat":43.25947,"lon":5.4091,"is_reserved":false,"is_disabled":false,"rental_uris":{"android":"levelo://app?vid=c545084e-a464-43ad-a0d3-118acf76523b","ios":"levelo://app?vid=c545084e-a464-43ad-a0d3-118acf76523b"},"vehicle_type_id":"4","last_reported":1737119665,"current_range_meters":36000,"station_id":"ce4bhm92rcd13ifvqglg","pricing_plan_id":"cebpf4jnsgd1na2vs0mg"},{"bike_id":"33218fcd-70b5-4354-99e4-b145e74477a9","system_id":"levelo_inurba_marseille","lat":43.29515,"lon":5.39407,"is_reserved":false,"is_disabled":true,"rental_uris":{"android":"levelo://app?vid=33218fcd-70b5-4354-99e4-b145e74477a9","ios":"levelo://app?vid=33218fcd-70b5-4354-99e4-b145e74477a9"},"vehicle_type_id":"4","last_reported":1737119665,"current_range_meters":37600,"station_id":"ce4bh292rcd13ifvqdf0","pricing_plan_id":"cebpf4jnsgd1na2vs0mg"},{"bike_id":"04a81482-e924-4b44-8ec5-a486e5ec2bde","system_id":"levelo_inurba_marseille","lat":43.29281,"lon":5.40123,"is_reserved":false,"is_disabled":false,"rental_uris":{"android":"levelo://app?vid=04a81482-e924-4b44-8ec5-a486e5ec2bde","ios":"levelo://app?vid=04a81482-e924-4b44-8ec5-a486e5ec2bde"},"vehicle_type_id":"4","last_reported":1737119665,"current_range_meters":36800,"station_id":"ce4bh312rcd13ifvqdk0","pricing_plan_id":"cebpf4jnsgd1na2vs0mg"},{"bike_id":"763cbeaa-3641-4f62-ad77-738af81e48d8","system_id":"levelo_inurba_marseille","lat":43.32472,"lon":5.36583,"is_reserved":false,"is_disabled":false,"rental_uris":{"android":"levelo://app?vid=763cbeaa-3641-4f62-ad77-738af81e48d8","ios":"levelo://app?vid=763cbeaa-3641-4f62-ad77-738af81e48d8"},"vehicle_type_id":"4","last_reported":1737119665,"current_range_meters":24400,"station_id":"ce4bhs12rcd13ifvqhvg","pricing_plan_id":"cebpf4jnsgd1na2vs0mg"},{"bike_id":"7f63b915-76e3-4f39-a9d0-728324e0f02c","system_id":"levelo_inurba_marseille","lat":43.29513,"lon":5.39052,"is_reserved":false,"is_disabled":false,"rental_uris":{"android":"levelo://app?vid=7f63b915-76e3-4f39-a9d0-728324e0f02c","ios":"levelo://app?vid=7f63b915-76e3-4f39-a9d0-728324e0f02c"},"vehicle_type_id":"4","last_reported":1737119665,"current_range_meters":38400,"station_id":"ce4bh3p2rcd13ifvqdp0","pricing_plan_id":"cebpf4jnsgd1na2vs0mg"},{"bike_id":"e0465de2-1648-4504-9618-59b63e2acad8","system_id":"levelo_inurba_marseille","lat":43.321057,"lon":5.367744,"is_reserved":false,"is_disabled":false,"rental_uris":{"android":"levelo://app?vid=e0465de2-1648-4504-9618-59b63e2acad8","ios":"levelo://app?vid=e0465de2-1648-4504-9618-59b63e2acad8"},"vehicle_type_id":"4","last_reported":1737119665,"current_range_meters":35600,"station_id":"ce4bhrh2rcd13ifvqhug","pricing_plan_id":"cebpf4jnsgd1na2vs0mg"},{"bike_id":"0a077bf0-535d-4da1-bbe1-aea99ebc0c09","system_id":"levelo_inurba_marseille","lat":43.25117,"lon":5.40325,"is_reserved":false,"is_disabled":true,"rental_uris":{"android":"levelo://app?vid=0a077bf0-535d-4da1-bbe1-aea99ebc0c09","ios":"levelo://app?vid=0a077bf0-535d-4da1-bbe1-aea99ebc0c09"},"vehicle_type_id":"4","last_reported":1737119665,"current_range_meters":1200,"station_id":"ce4bhlh2rcd13ifvqgig","pricing_plan_id":"cebpf4jnsgd1na2vs0mg"},{"bike_id":"61f6d027-7bbe-4f2a-8da9-204164873693","system_id":"levelo_inurba_marseille","lat":43.25586,"lon":5.38234,"is_reserved":false,"is_disabled":false,"rental_uris":{"android":"levelo://app?vid=61f6d027-7bbe-4f2a-8da9-204164873693","ios":"levelo://app?vid=61f6d027-7bbe-4f2a-8da9-204164873693"},"vehicle_type_id":"4","last_reported":1737119665,"current_range_meters":38800,"station_id":"ce4bhih2rcd13ifvqfs0","pricing_plan_id":"cebpf4jnsgd1na2vs0mg"},{"bike_id":"14d50ee7-3c2e-42df-8fe6-bff610a0d90b","system_id":"levelo_inurba_marseille","lat":43.27208,"lon":5.39181,"is_reserved":false,"is_disabled":false,"rental_uris":{"android":"levelo://app?vid=14d50ee7-3c2e-42df-8fe6-bff610a0d90b","ios":"levelo://app?vid=14d50ee7-3c2e-42df-8fe6-bff610a0d90b"},"vehicle_type_id":"4","last_reported":1737119665,"current_range_meters":38800,"station_id":"ce4bhhp2rcd13ifvqfm0","pricing_plan_id":"cebpf4jnsgd1na2vs0mg"},{"bike_id":"dfaa04f2-effd-4b73-b57f-7518ee93e68b","system_id":"levelo_inurba_marseille","lat":43.32475,"lon":5.36575,"is_reserved":false,"is_disabled":false,"rental_uris":{"android":"levelo://app?vid=dfaa04f2-effd-4b73-b57f-7518ee93e68b","ios":"levelo://app?vid=dfaa04f2-effd-4b73-b57f-7518ee93e68b"},"vehicle_type_id":"4","last_reported":1737119665,"current_range_meters":10800,"station_id":"ce4bhs12rcd13ifvqhvg","pricing_plan_id":"cebpf4jnsgd1na2vs0mg"},{"bike_id":"22a89a9c-835b-4e6f-8824-e6358159f6ce","system_id":"levelo_inurba_marseille","lat":43.2929,"lon":5.37469,"is_reserved":false,"is_disabled":false,"rental_uris":{"android":"levelo://app?vid=22a89a9c-835b-4e6f-8824-e6358159f6ce","ios":"levelo://app?vid=22a89a9c-835b-4e6f-8824-e6358159f6ce"},"vehicle_type_id":"4","last_reported":1737119665,"current_range_meters":35200,"station_id":"ce4bgi12rcd13ifvqb70","pricing_plan_id":"cebpf4jnsgd1na2vs0mg"},{"bike_id":"ffb094aa-6d18-401e-97ff-8abf1525358f","system_id":"levelo_inurba_marseille","lat":43.26205,"lon":5.37444,"is_reserved":false,"is_disabled":false,"rental_uris":{"android":"levelo://app?vid=ffb094aa-6d18-401e-97ff-8abf1525358f","ios":"levelo://app?vid=ffb094aa-6d18-401e-97ff-8abf1525358f"},"vehicle_type_id":"4","last_reported":1737119665,"current_range_meters":22000,"station_id":"ce4bhgp2rcd13ifvqfc0","pricing_plan_id":"cebpf4jnsgd1na2vs0mg"},{"bike_id":"d56c9101-5834-4595-9dbc-4861d059ffd9","system_id":"levelo_inurba_marseille","lat":43.25947,"lon":5.40922,"is_reserved":false,"is_disabled":false,"rental_uris":{"android":"levelo://app?vid=d56c9101-5834-4595-9dbc-4861d059ffd9","ios":"levelo://app?vid=d56c9101-5834-4595-9dbc-4861d059ffd9"},"vehicle_type_id":"4","last_reported":1737119665,"current_range_meters":24400,"station_id":"ce4bhm92rcd13ifvqglg","pricing_plan_id":"cebpf4jnsgd1na2vs0mg"},{"bike_id":"a04119e7-f867-4b51-94d2-c8e7c3fb7d2d","system_id":"levelo_inurba_marseille","lat":43.26949,"lon":5.38645,"is_reserved":false,"is_disabled":false,"rental_uris":{"android":"levelo://app?vid=a04119e7-f867-4b51-94d2-c8e7c3fb7d2d","ios":"levelo://app?vid=a04119e7-f867-4b51-94d2-c8e7c3fb7d2d"},"vehicle_type_id":"4","last_reported":1737119665,"current_range_meters":6800,"station_id":"ce4bhh92rcd13ifvqfh0","pricing_plan_id":"cebpf4jnsgd1na2vs0mg"},{"bike_id":"1116f425-9c6a-4910-85ac-9a6e96c21c03","system_id":"levelo_inurba_marseille","lat":43.2815,"lon":5.4265,"is_reserved":false,"is_disabled":false,"rental_uris":{"android":"levelo://app?vid=1116f425-9c6a-4910-85ac-9a6e96c21c03","ios":"levelo://app?vid=1116f425-9c6a-4910-85ac-9a6e96c21c03"},"vehicle_type_id":"4","last_reported":1737119665,"current_range_meters":32400,"station_id":"ce4bhnh2rcd13ifvqgug","pricing_plan_id":"cebpf4jnsgd1na2vs0mg"},{"bike_id":"a58407ca-740a-48fa-99c8-f139eec2cb17","system_id":"levelo_inurba_marseille","lat":43.294769,"lon":5.421492,"is_reserved":false,"is_disabled":true,"rental_uris":{"android":"levelo://app?vid=a58407ca-740a-48fa-99c8-f139eec2cb17","ios":"levelo://app?vid=a58407ca-740a-48fa-99c8-f139eec2cb17"},"vehicle_type_id":"4","last_reported":1737119665,"current_range_meters":400,"station_id":"ce4bhph2rcd13ifvqhdg","pricing_plan_id":"cebpf4jnsgd1na2vs0mg"},{"bike_id":"7558e7ca-10a5-472f-8ebb-036359109a2c","system_id":"levelo_inurba_marseille","lat":43.28357,"lon":5.38101,"is_reserved":false,"is_disabled":false,"rental_uris":{"android":"levelo://app?vid=7558e7ca-10a5-472f-8ebb-036359109a2c","ios":"levelo://app?vid=7558e7ca-10a5-472f-8ebb-036359109a2c"},"vehicle_type_id":"4","last_reported":1737119665,"current_range_meters":4000,"station_id":"ce4bh412rcd13ifvqdr0","pricing_plan_id":"cebpf4jnsgd1na2vs0mg"},{"bike_id":"00ab0abd-a207-4659-8a49-1e2920ee4ec2","system_id":"levelo_inurba_marseille","lat":43.29963,"lon":5.4134,"is_reserved":false,"is_disabled":false,"rental_uris":{"android":"levelo://app?vid=00ab0abd-a207-4659-8a49-1e2920ee4ec2","ios":"levelo://app?vid=00ab0abd-a207-4659-8a49-1e2920ee4ec2"},"vehicle_type_id":"4","last_reported":1737119665,"current_range_meters":25200,"station_id":"ce4bhp12rcd13ifvqh9g","pricing_plan_id":"cebpf4jnsgd1na2vs0mg"},{"bike_id":"ff3c3090-4314-4d76-b27b-47cf85b887ee","system_id":"levelo_inurba_marseille","lat":43.29225,"lon":5.36063,"is_reserved":false,"is_disabled":false,"rental_uris":{"android":"levelo://app?vid=ff3c3090-4314-4d76-b27b-47cf85b887ee","ios":"levelo://app?vid=ff3c3090-4314-4d76-b27b-47cf85b887ee"},"vehicle_type_id":"4","last_reported":1737119665,"current_range_meters":18000,"station_id":"ce4bhbh2rcd13ifvqeqg","pricing_plan_id":"cebpf4jnsgd1na2vs0mg"},{"bike_id":"215f473c-3e4d-4f4d-aa86-a340349f632e","system_id":"levelo_inurba_marseille","lat":43.30137,"lon":5.38076,"is_reserved":false,"is_disabled":false,"rental_uris":{"android":"levelo://app?vid=215f473c-3e4d-4f4d-aa86-a340349f632e","ios":"levelo://app?vid=215f473c-3e4d-4f4d-aa86-a340349f632e"},"vehicle_type_id":"4","last_reported":1737119665,"current_range_meters":18000,"station_id":"ce4bgjp2rcd13ifvqbh0","pricing_plan_id":"cebpf4jnsgd1na2vs0mg"},{"bike_id":"8c9a93b1-e1ca-407a-8f0b-fb3ed3abeb1a","system_id":"levelo_inurba_marseille","lat":43.32476,"lon":5.36564,"is_reserved":false,"is_disabled":false,"rental_uris":{"android":"levelo://app?vid=8c9a93b1-e1ca-407a-8f0b-fb3ed3abeb1a","ios":"levelo://app?vid=8c9a93b1-e1ca-407a-8f0b-fb3ed3abeb1a"},"vehicle_type_id":"4","last_reported":1737119665,"current_range_meters":33600,"station_id":"ce4bhs12rcd13ifvqhvg","pricing_plan_id":"cebpf4jnsgd1na2vs0mg"},{"bike_id":"b31099f5-c7b5-41e8-8368-18185751617b","system_id":"levelo_inurba_marseille","lat":43.30214,"lon":5.3948,"is_reserved":false,"is_disabled":false,"rental_uris":{"android":"levelo://app?vid=b31099f5-c7b5-41e8-8368-18185751617b","ios":"levelo://app?vid=b31099f5-c7b5-41e8-8368-18185751617b"},"vehicle_type_id":"4","last_reported":1737119665,"current_range_meters":34000,"station_id":"ce4bh0p2rcd13ifvqd70","pricing_plan_id":"cebpf4jnsgd1na2vs0mg"},