{"last_updated":1717600072,"ttl":30,"version":"2.2","data":{"bikes":[{"bike_id":"86095135-ca3e-49dd-90a7-6073a72b46ab","system_id":"levelo_inurba_marseille","lat":43.312239,"lon":5.368562,"is_reserved":false,"is_disabled":false,"rental_uris":{"android":"levelo://app?vid=86095135-ca3e-49dd-90a7-6073a72b46ab","ios":"levelo://app?vid=86095135-ca3e-49dd-90a7-6073a72b46ab"},"vehicle_type_id":"4","last_reported":1717600072,"current_range_meters":20000,"station_id":"ce4bgl92rcd13ifvqbq0","pricing_plan_id":"cebpf4jnsgd1na2vs0mg"},{"bike_id":"a34be3f9-64ae-4f50-9014-053107344430","system_id":"levelo_inurba_marseille","lat":43.30908,"lon":5.36845,"is_reserved":false,"is_disabled":false,"rental_uris":{"android":"levelo://app?vid=a34be3f9-64ae-4f50-9014-053107344430","ios":"levelo://app?vid=a34be3f9-64ae-4f50-9014-053107344430"},"vehicle_type_id":"4","last_reported":1717600072,"current_range_meters":31200,"station_id":"ce4bgn92rcd13ifvqbvg","pricing_plan_id":"cebpf4jnsgd1na2vs0mg"},{"bike_id":"6ad71072-1af1-4102-80df-a45abd890de9","system_id":"levelo_inurba_marseille","lat":43.309034,"lon":5.371783,"is_reserved":false,"is_disabled":false,"rental_uris":{"android":"levelo://app?vid=6ad71072-1af1-4102-80df-a45abd890de9","ios":"levelo://app?vid=6ad71072-1af1-4102-80df-a45abd890de9"},"vehicle_type_id":"4","last_reported":1717600072,"current_range_meters":16800,"station_id":"ce4bguh2rcd13ifvqckg","pricing_plan_id":"cebpf4jnsgd1na2vs0mg"},{"bike_id":"bac96751-9319-4c74-8c45-333571f3f614","system_id":"levelo_inurba_marseille","lat":43.30885,"lon":5.37194,"is_reserved":false,"is_disabled":false,"rental_uris":{"android":"levelo://app?vid=bac96751-9319-4c74-8c45-333571f3f614","ios":"levelo://app?vid=bac96751-9319-4c74-8c45-333571f3f614"},"vehicle_type_id":"4","last_reported":1717600072,"current_range_meters":0,"station_id":"ce4bguh2rcd13ifvqckg","pricing_plan_id":"cebpf4jnsgd1na2vs0mg"},{"bike_id":"1175dca4-a724-4e69-9a6b-7d41c3f8aabf","system_id":"levelo_inurba_marseille","lat":43.31455,"lon":5.37387,"is_reserved":false,"is_disabled":false,"rental_uris":{"android":"levelo://app?vid=1175dca4-a724-4e69-9a6b-7d41c3f8aabf","ios":"levelo://app?vid=1175dca4-a724-4e69-9a6b-7d41c3f8aabf"},"vehicle_type_id":"4","last_reported":1717600072,"current_range_meters":18800,"station_id":"","pricing_plan_id":"cebpf4jnsgd1na2vs0mg"},{"bike_id":"57f63957-4ed3-4679-a90b-22346566eea6","system_id":"levelo_inurba_marseille","lat":43.309034,"lon":5.371783,"is_reserved":false,"is_disabled":false,"rental_uris":{"android":"levelo://app?vid=57f63957-4ed3-4679-a90b-22346566eea6","ios":"levelo://app?vid=57f63957-4ed3-4679-a90b-22346566eea6"},"vehicle_type_id":"4","last_reported":1717600072,"current_range_meters":1200,"station_id":"ce4bguh2rcd13ifvqckg","pricing_plan_id":"cebpf4jnsgd1na2vs0mg"},{"bike_id":"f06cce94-4e39-4530-a803-39bcaf8445b6","system_id":"levelo_inurba_marseille","lat":43.309076,"lon":5.368465,"is_reserved":false,"is_disabled":false,"rental_uris":{"android":"levelo://app?vid=f06cce94-4e39-4530-a803-39bcaf8445b6","ios":"levelo://app?vid=f06cce94-4e39-4530-a803-39bcaf8445b6"},"vehicle_type_id":"4","last_reported":1717600072,"current_range_meters":400,"station_id":"ce4bgn92rcd13ifvqbvg","pricing_plan_id":"cebpf4jnsgd1na2vs0mg"},{"bike_id":"d21b3fdf-36f8-44d2-a569-54c4f8a7e640","system_id":"levelo_inurba_marseille","lat":43.305714,"lon":5.365633,"is_reserved":false,"is_disabled":false,"rental_uris":{"android":"levelo://app?vid=d21b3fdf-36f8-44d2-a569-54c4f8a7e640","ios":"levelo://app?vid=d21b3fdf-36f8-44d2-a569-54c4f8a7e640"},"vehicle_type_id":"4","last_reported":1717600072,"current_range_meters":19200,"station_id":"ce4bgs12rcd13ifvqcag","pricing_plan_id":"cebpf4jnsgd1na2vs0mg"},{"bike_id":"8b1db85c-e2f2-4b79-805d-9fb73b32d56c","system_id":"levelo_inurba_marseille","lat":43.305714,"lon":5.365633,"is_reserved":false,"is_disabled":false,"rental_uris":{"android":"levelo://app?vid=8b1db85c-e2f2-4b79-805d-9fb73b32d56c","ios":"levelo://app?vid=8b1db85c-e2f2-4b79-805d-9fb73b32d56c"},"vehicle_type_id":"4","last_reported":1717600072,"current_range_meters":8000,"station_id":"ce4bgs12rcd13ifvqcag","pricing_plan_id":"cebpf4jnsgd1na2vs0mg"},{"bike_id":"fd84b85e-1356-4cd9-8d1f-1636df0d3591","system_id":"levelo_inurba_marseille","lat":43.311131,"lon":5.377651,"is_reserved":false,"is_disabled":false,"rental_uris":{"android":"levelo://app?vid=fd84b85e-1356-4cd9-8d1f-1636df0d3591","ios":"levelo://app?vid=fd84b85e-1356-4cd9-8d1f-1636df0d3591"},"vehicle_type_id":"4","last_reported":1717600072,"current_range_meters":22400,"station_id":"ce4bgt92rcd13ifvqcg0","pricing_plan_id":"cebpf4jnsgd1na2vs0mg"},{"bike_id":"0d23d9c8-0076-4b9d-9f49-f27496923799","system_id":"levelo_inurba_marseille","lat":43.307945,"lon":5.376487,"is_reserved":false,"is_disabled":false,"rental_uris":{"android":"levelo://app?vid=0d23d9c8-0076-4b9d-9f49-f27496923799","ios":"levelo://app?vid=0d23d9c8-0076-4b9d-9f49-f27496923799"},"vehicle_type_id":"4","last_reported":1717600072,"current_range_meters":5200,"station_id":"ce4bgv92rcd13ifvqcq0","pricing_plan_id":"cebpf4jnsgd1na2vs0mg"},{"bike_id":"3c3589f3-3f42-447d-8590-bc701bea3347","system_id":"levelo_inurba_marseille","lat":43.317075,"lon":5.377367,"is_reserved":false,"is_disabled":false,"rental_uris":{"android":"levelo://app?vid=3c3589f3-3f42-447d-8590-bc701bea3347","ios":"levelo://app?vid=3c3589f3-3f42-447d-8590-bc701bea3347"},"vehicle_type_id":"4","last_reported":1717600072,"current_range_meters":31200,"station_id":"ce4bgth2rcd13ifvqch0","pricing_plan_id":"cebpf4jnsgd1na2vs0mg"},{"bike_id":"90fefb8d-be0a-4baf-92dc-539d7c126457","system_id":"levelo_inurba_marseille","lat":43.30095,"lon":5.36527,"is_reserved":false,"is_disabled":false,"rental_uris":{"android":"levelo://app?vid=90fefb8d-be0a-4baf-92dc-539d7c126457","ios":"levelo://app?vid=90fefb8d-be0a-4baf-92dc-539d7c126457"},"vehicle_type_id":"4","last_reported":1717600072,"current_range_meters":26000,"station_id":"ce4bgrh2rcd13ifvqc8g","pricing_plan_id":"cebpf4jnsgd1na2vs0mg"},{"bike_id":"ab0f0d1b-d02d-452a-8780-7f5e6e85af40","system_id":"levelo_inurba_marseille","lat":43.304606,"lon":5.379026,"is_reserved":false,"is_disabled":false,"rental_uris":{"android":"levelo://app?vid=ab0f0d1b-d02d-452a-8780-7f5e6e85af40","ios":"levelo://app?vid=ab0f0d1b-d02d-452a-8780-7f5e6e85af40"},"vehicle_type_id":"4","last_reported":1717600072,"current_range_meters":11200,"station_id":"ce4bgup2rcd13ifvqcn0","pricing_plan_id":"cebpf4jnsgd1na2vs0mg"},{"bike_id":"b1913667-a3a7-43c8-a92f-a238818391a3","system_id":"levelo_inurba_marseille","lat":43.304606,"lon":5.379026,"is_reserved":false,"is_disabled":false,"rental_uris":{"android":"levelo://app?vid=b1913667-a3a7-43c8-a92f-a238818391a3","ios":"levelo://app?vid=b1913667-a3a7-43c8-a92f-a238818391a3"},"vehicle_type_id":"4","last_reported":1717600072,"current_range_meters":26800,"station_id":"ce4bgup2rcd13ifvqcn0","pricing_plan_id":"cebpf4jnsgd1na2vs0mg"},{"bike_id":"9f1d0a96-49ea-4fd6-82d6-a49ef1b62586","system_id":"levelo_inurba_marseille","lat":43.304606,"lon":5.379026,"is_reserved":false,"is_disabled":false,"rental_uris":{"android":"levelo://app?vid=9f1d0a96-49ea-4fd6-82d6-a49ef1b62586","ios":"levelo://app?vid=9f1d0a96-49ea-4fd6-82d6-a49ef1b62586"},"vehicle_type_id":"4","last_reported":1717600072,"current_range_meters":0,"station_id":"ce4bgup2rcd13ifvqcn0","pricing_plan_id":"cebpf4jnsgd1na2vs0mg"},{"bike_id":"c9eae6f0-f6ec-4b82-9155-33e0e3d5f572","system_id":"levelo_inurba_marseille","lat":43.324701,"lon":5.365663,"is_reserved":false,"is_disabled":false,"rental_uris":{"android":"levelo://app?vid=c9eae6f0-f6ec-4b82-9155-33e0e3d5f572","ios":"levelo://app?vid=c9eae6f0-f6ec-4b82-9155-33e0e3d5f572"},"vehicle_type_id":"4","last_reported":1717600072,"current_range_meters":5600,"station_id":"ce4bhs12rcd13ifvqhvg","pricing_plan_id":"cebpf4jnsgd1na2vs0mg"},{"bike_id":"cdede79c-1ba4-45be-8549-3319573eba00","system_id":"levelo_inurba_marseille","lat":43.324771,"lon":5.36557,"is_reserved":false,"is_disabled":false,"rental_uris":{"android":"levelo://app?vid=cdede79c-1ba4-45be-8549-3319573eba00","ios":"levelo://app?vid=cdede79c-1ba4-45be-8549-3319573eba00"},"vehicle_type_id":"4","last_reported":1717600072,"current_range_meters":6400,"station_id":"ce4bhs12rcd13ifvqhvg","pricing_plan_id":"cebpf4jnsgd1na2vs0mg"},{"bike_id":"72fd960f-ac23-4364-b392-d8adcc05c68b","system_id":"levelo_inurba_marseille","lat":43.301429,"lon":5.37413,"is_reserved":false,"is_disabled":false,"rental_uris":{"android":"levelo://app?vid=72fd960f-ac23-4364-b392-d8adcc05c68b","ios":"levelo://app?vid=72fd960f-ac23-4364-b392-d8adcc05c68b"},"vehicle_type_id":"4","last_reported":1717600072,"current_range_meters":17600,"station_id":"ce4bgs92rcd13ifvqcc0","pricing_plan_id":"cebpf4jnsgd1na2vs0mg"},{"bike_id":"53a1ba06-87ae-46e4-af94-f303d873b9da","system_id":"levelo_inurba_marseille","lat":43.324779,"lon":5.365612,"is_reserved":false,"is_disabled":false,"rental_uris":{"android":"levelo://app?vid=53a1ba06-87ae-46e4-af94-f303d873b9da","ios":"levelo://app?vid=53a1ba06-87ae-46e4-af94-f303d873b9da"},"vehicle_type_id":"4","last_reported":1717600072,"current_range_meters":400,"station_id":"","pricing_plan_id":"cebpf4jnsgd1na2vs0mg"},{"bike_id":"bd55f0ad-d0b9-4be9-b1df-a77e932c37a4","system_id":"levelo_inurba_marseille","lat":43.324787,"lon":5.365658,"is_reserved":false,"is_disabled":false,"rental_uris":{"android":"levelo://app?vid=bd55f0ad-d0b9-4be9-b1df-a77e932c37a4","ios":"levelo://app?vid=bd55f0ad-d0b9-4be9-b1df-a77e932c37a4"},"vehicle_type_id":"4","last_reported":1717600072,"current_range_meters":6000,"station_id":"ce4bhs12rcd13ifvqhvg","pricing_plan_id":"cebpf4jnsgd1na2vs0mg"},{"bike_id":"8cc252b0-bbe6-4169-9f50-168867ce9fee","system_id":"levelo_inurba_marseille","lat":43.305046,"lon":5.37974,"is_reserved":false,"is_disabled":false,"rental_uris":{"android":"levelo://app?vid=8cc252b0-bbe6-4169-9f50-168867ce9fee","ios":"levelo://app?vid=8cc252b0-bbe6-4169-9f50-168867ce9fee"},"vehicle_type_id":"4","last_reported":1717600072,"current_range_meters":2800,"station_id":"ce4bhqp2rcd13ifvqhog","pricing_plan_id":"cebpf4jnsgd1na2vs0mg"},{"bike_id":"b4b5347d-c42c-4e30-bc22-49e8141ee132","system_id":"levelo_inurba_marseille","lat":43.324771,"lon":5.36557,"is_reserved":false,"is_disabled":false,"rental_uris":{"android":"levelo://app?vid=b4b5347d-c42c-4e30-bc22-49e8141ee132","ios":"levelo://app?vid=b4b5347d-c42c-4e30-bc22-49e8141ee132"},"vehicle_type_id":"4","last_reported":1717600072,"current_range_meters":21200,"station_id":"ce4bhs12rcd13ifvqhvg","pricing_plan_id":"cebpf4jnsgd1na2vs0mg"},{"bike_id":"335e4bcf-a3fe-477d-b4e1-87fa3fb6b452","system_id":"levelo_inurba_marseille","lat":43.324867,"lon":5.365784,"is_reserved":false,"is_disabled":false,"rental_uris":{"android":"levelo://app?vid=335e4bcf-a3fe-477d-b4e1-87fa3fb6b452","ios":"levelo://app?vid=335e4bcf-a3fe-477d-b4e1-87fa3fb6b452"},"vehicle_type_id":"4","last_reported":1717600072,"current_range_meters":11600,"station_id":"ce4bhs12rcd13ifvqhvg","pricing_plan_id":"cebpf4jnsgd1na2vs0mg"},{"bike_id":"35c52545-6e4b-426a-a0a8-964bc6c2b26d","system_id":"levelo_inurba_marseille","lat":43.310804,"lon":5.38359,"is_reserved":false,"is_disabled":false,"rental_uris":{"android":"levelo://app?vid=35c52545-6e4b-426a-a0a8-964bc6c2b26d","ios":"levelo://app?vid=35c52545-6e4b-426a-a0a8-964bc6c2b26d"},"vehicle_type_id":"4","last_reported":1717600072,"current_range_meters":14400,"station_id":"ce4bgv92rcd13ifvqcr0","pricing_plan_id":"cebpf4jnsgd1na2vs0mg"},{"bike_id":"59aef39b-eea6-4727-90a0-450e43943345","system_id":"levelo_inurba_marseille","lat":43.301429,"lon":5.37413,"is_reserved":false,"is_disabled":false,"rental_uris":{"android":"levelo://app?vid=59aef39b-eea6-4727-90a0-450e43943345","ios":"levelo://app?vid=59aef39b-eea6-4727-90a0-450e43943345"},"vehicle_type_id":"4","last_reported":1717600072,"current_range_meters":22000,"station_id":"ce4bgs92rcd13ifvqcc0","pricing_plan_id":"cebpf4jnsgd1na2vs0mg"},{"bike_id":"b49f6187-59fd-4667-a631-42d0758c17be","system_id":"levelo_inurba_marseille","lat":43.301429,"lon":5.37413,"is_reserved":false,"is_disabled":false,"rental_uris":{"android":"levelo://app?vid=b49f6187-59fd-4667-a631-42d0758c17be","ios":"levelo://app?vid=b49f6187-59fd-4667-a631-42d0758c17be"},"vehicle_type_id":"4","last_reported":1717600072,"current_range_meters":2800,"station_id":"ce4bgs92rcd13ifvqcc0","pricing_plan_id":"cebpf4jnsgd1na2vs0mg"},{"bike_id":"620994c9-d48a-4e85-907b-b0f37321f16c","system_id":"levelo_inurba_marseille","lat":43.301429,"lon":5.37413,"is_reserved":false,"is_disabled":false,"rental_uris":{"android":"levelo://app?vid=620994c9-d48a-4e85-907b-b0f37321f16c","ios":"levelo://app?vid=620994c9-d48a-4e85-907b-b0f37321f16c"},"vehicle_type_id":"4","last_reported":1717600072,"current_range_meters":13600,"station_id":"ce4bgs92rcd13ifvqcc0","pricing_plan_id":"cebpf4jnsgd1na2vs0mg"},{"bike_id":"dde1d133-0d26-436a-8da4-a63dd6c44c29","system_id":"levelo_inurba_marseille","lat":43.305006,"lon":5.380672,"is_reserved":false,"is_disabled":false,"rental_uris":{"android":"levelo://app?vid=dde1d133-0d26-436a-8da4-a63dd6c44c29","ios":"levelo://app?vid=dde1d133-0d26-436a-8da4-a63dd6c44c29"},"vehicle_type_id":"4","last_reported":1717600072,"current_range_meters":5600,"station_id":"","pricing_plan_id":"cebpf4jnsgd1na2vs0mg"},{"bike_id":"5d0a0c69-4226-465b-ad7b-2dda4e217c16","system_id":"levelo_inurba_marseille","lat":43.319899,"lon":5.381482,"is_reserved":false,"is_disabled":false,"rental_uris":{"android":"levelo://app?vid=5d0a0c69-4226-465b-ad7b-2dda4e217c16","ios":"levelo://app?vid=5d0a0c69-4226-465b-ad7b-2dda4e217c16"},"vehicle_type_id":"4","last_reported":1717600072,"current_range_meters":5600,"station_id":"ce4bhr12rcd13ifvqhpg","pricing_plan_id":"cebpf4jnsgd1na2vs0mg"},{"bike_id":"dadf127d-e7ef-4bd2-a7b3-1e85b4f2b632","system_id":"levelo_inurba_marseille","lat":43.3138,"lon":5.385,"is_reserved":false,"is_disabled":false,"rental_uris":{"android":"levelo://app?vid=dadf127d-e7ef-4bd2-a7b3-1e85b4f2b632","ios":"levelo://app?vid=dadf127d-e7ef-4bd2-a7b3-1e85b4f2b632"},"vehicle_type_id":"4","last_reported":1717600072,"current_range_meters":10000,"station_id":"ce4bgt92rcd13ifvqcf0","pricing_plan_id":"cebpf4jnsgd1na2vs0mg"},{"bike_id":"00900cf7-a3cc-43f2-b029-e0d080c4fbc1","system_id":"levelo_inurba_marseille","lat":43.298433,"lon":5.362774,"is_reserved":false,"is_disabled":false,"rental_uris":{"android":"levelo://app?vid=00900cf7-a3cc-43f2-b029-e0d080c4fbc1","ios":"levelo://app?vid=00900cf7-a3cc-43f2-b029-e0d080c4fbc1"},"vehicle_type_id":"4","last_reported":1717600072,"current_range_meters":25600,"station_id":"ce4bgpp2rcd13ifvqc3g","pricing_plan_id":"cebpf4jnsgd1na2vs0mg"},{"bike_id":"66f84ccd-e072-48a0-9cf9-7990b4718c7c","system_id":"levelo_inurba_marseille","lat":43.298433,"lon":5.362774,"is_reserved":false,"is_disabled":false,"rental_uris":{"android":"levelo://app?vid=66f84ccd-e072-48a0-9cf9-7990b4718c7c","ios":"levelo://app?vid=66f84ccd-e072-48a0-9cf9-7990b4718c7c"},"vehicle_type_id":"4","last_reported":1717600072,"current_range_meters":1200,"station_id":"ce4bgpp2rcd13ifvqc3g","pricing_plan_id":"cebpf4jnsgd1na2vs0mg"},{"bike_id":"de19e3b0-d242-4f7e-b578-c07d75c3df29","system_id":"levelo_inurba_marseille","lat":43.299028,"lon":5.381509,"is_reserved":false,"is_disabled":false,"rental_uris":{"android":"levelo://app?vid=de19e3b0-d242-4f7e-b578-c07d75c3df29","ios":"levelo://app?vid=de19e3b0-d242-4f7e-b578-c07d75c3df29"},"vehicle_type_id":"4","last_reported":1717600072,"current_range_meters":18000,"station_id":"ce4bgj12rcd13ifvqbc0","pricing_plan_id":"cebpf4jnsgd1na2vs0mg"},{"bike_id":"88be2dd7-f412-4dcd-a012-f86c05894a64","system_id":"levelo_inurba_marseille","lat":43.297794,"lon":5.370888,"is_reserved":false,"is_disabled":false,"rental_uris":{"android":"levelo://app?vid=88be2dd7-f412-4dcd-a012-f86c05894a64","ios":"levelo://app?vid=88be2dd7-f412-4dcd-a012-f86c05894a64"},"vehicle_type_id":"4","last_reported":1717600072,"current_range_meters":31200,"station_id":"ce4bgop2rcd13ifvqc1g","pricing_plan_id":"cebpf4jnsgd1na2vs0mg"},{"bike_id":"93e9c7c5-6d98-49d7-8e99-d20ee14e2682","system_id":"levelo_inurba_marseille","lat":43.297163,"lon":5.365866,"is_reserved":false,"is_disabled":false,"rental_uris":{"android":"levelo://app?vid=93e9c7c5-6d98-49d7-8e99-d20ee14e2682","ios":"levelo://app?vid=93e9c7c5-6d98-49d7-8e99-d20ee14e2682"},"vehicle_type_id":"4","last_reported":1717600072,"current_range_meters":20000,"station_id":"ce4bgn12rcd13ifvqbt0","pricing_plan_id":"cebpf4jnsgd1na2vs0mg"},{"bike_id":"4f861e39-8526-4c6f-a5e0-1abc1ff6a059","system_id":"levelo_inurba_marseille","lat":43.2968,"lon":5.37291,"is_reserved":false,"is_disabled":false,"rental_uris":{"android":"levelo://app?vid=4f861e39-8526-4c6f-a5e0-1abc1ff6a059","ios":"levelo://app?vid=4f861e39-8526-4c6f-a5e0-1abc1ff6a059"},"vehicle_type_id":"4","last_reported":1717600072,"current_range_meters":27600,"station_id":"ce4bgk12rcd13ifvqbj0","pricing_plan_id":"cebpf4jnsgd1na2vs0mg"},{"bike_id":"64ed1cb4-d8c8-441d-bf95-48bc952a257f","system_id":"levelo_inurba_marseille","lat":43.29573,"lon":5.367355,"is_reserved":false,"is_disabled":false,"rental_uris":{"android":"levelo://app?vid=64ed1cb4-d8c8-441d-bf95-48bc952a257f","ios":"levelo://app?vid=64ed1cb4-d8c8-441d-bf95-48bc952a257f"},"vehicle_type_id":"4","last_reported":1717600072,"current_range_meters":14000,"station_id":"ce4bgph2rcd13ifvqc2g","pricing_plan_id":"cebpf4jnsgd1na2vs0mg"},{"bike_id":"e65b656b-a460-4573-a10a-502f05fee2e6","system_id":"levelo_inurba_marseille","lat":43.29573,"lon":5.367355,"is_reserved":false,"is_disabled":false,"rental_uris":{"android":"levelo://app?vid=e65b656b-a460-4573-a10a-502f05fee2e6","ios":"levelo://app?vid=e65b656b-a460-4573-a10a-502f05fee2e6"},"vehicle_type_id":"4","last_reported":1717600072,"current_range_meters":22400,"station_id":"ce4bgph2rcd13ifvqc2g","pricing_plan_id":"cebpf4jnsgd1na2vs0mg"},{"bike_id":"870398eb-3115-498a-a357-84c3e2832ad9","system_id":"levelo_inurba_marseille","lat":43.29585,"lon":5.36736,"is_reserved":false,"is_disabled":false,"rental_uris":{"android":"levelo://app?vid=870398eb-3115-498a-a357-84c3e2832ad9","ios":"levelo://app?vid=870398eb-3115-498a-a357-84c3e2832ad9"},"vehicle_type_id":"4","last_reported":1717600072,"current_range_meters":31200,"station_id":"ce4bgph2rcd13ifvqc2g","pricing_plan_id":"cebpf4jnsgd1na2vs0mg"},{"bike_id":"076b07e1-c967-43fa-89e6-d507f48c74d5","system_id":"levelo_inurba_marseille","lat":43.29573,"lon":5.367355,"is_reserved":false,"is_disabled":false,"rental_uris":{"android":"levelo://app?vid=076b07e1-c967-43fa-89e6-d507f48c74d5","ios":"levelo://app?vid=076b07e1-c967-43fa-89e6-d507f48c74d5"},"vehicle_type_id":"4","last_reported":1717600072,"current_range_meters":13200,"station_id":"ce4bgph2rcd13ifvqc2g","pricing_plan_id":"cebpf4jnsgd1na2vs0mg"},{"bike_id":"0ea0b76f-5f60-421a-8439-eb4d824bf91d","system_id":"levelo_inurba_marseille","lat":43.299028,"lon":5.381509,"is_reserved":false,"is_disabled":false,"rental_uris":{"android":"levelo://app?vid=0ea0b76f-5f60-421a-8439-eb4d824bf91d","ios":"levelo://app?vid=0ea0b76f-5f60-421a-8439-eb4d824bf91d"},"vehicle_type_id":"4","last_reported":1717600072,"current_range_meters":3600,"station_id":"ce4bgj12rcd13ifvqbc0","pricing_plan_id":"cebpf4jnsgd1na2vs0mg"},{"bike_id":"b10e60dd-b3eb-49a9-ad38-4acfc4463a97","system_id":"levelo_inurba_marseille","lat":43.299028,"lon":5.381509,"is_reserved":false,"is_disabled":false,"rental_uris":{"android":"levelo://app?vid=b10e60dd-b3eb-49a9-ad38-4acfc4463a97","ios":"levelo://app?vid=b10e60dd-b3eb-49a9-ad38-4acfc4463a97"},"vehicle_type_id":"4","last_reported":1717600072,"current_range_meters":2800,"station_id":"ce4bgj12rcd13ifvqbc0","pricing_plan_id":"cebpf4jnsgd1na2vs0mg"},{"bike_id":"8ad2ef74-1c57-4454-9f8b-b5ac6490d848","system_id":"levelo_inurba_marseille","lat":43.309589,"lon":5.390258,"is_reserved":false,"is_disabled":false,"rental_uris":{"android":"levelo://app?vid=8ad2ef74-1c57-4454-9f8b-b5ac6490d848","ios":"levelo://app?vid=8ad2ef74-1c57-4454-9f8b-b5ac6490d848"},"vehicle_type_id":"4","last_reported":1717600072,"current_range_meters":1200,"station_id":"ce4bgup2rcd13ifvqco0","pricing_plan_id":"cebpf4jnsgd1na2vs0mg"},{"bike_id":"1303649a-b9d0-480b-9d23-869200162d11","system_id":"levelo_inurba_marseille","lat":43.296895,"lon":5.377525,"is_reserved":false,"is_disabled":false,"rental_uris":{"android":"levelo://app?vid=1303649a-b9d0-480b-9d23-869200162d11","ios":"levelo://app?vid=1303649a-b9d0-480b-9d23-869200162d11"},"vehicle_type_id":"4","last_reported":1717600072,"current_range_meters":0,"station_id":"","pricing_plan_id":"cebpf4jnsgd1na2vs0mg"},{"bike_id":"80611dcc-566f-45a3-adc4-3b8bfdb95eb0","system_id":"levelo_inurba_marseille","lat":43.317557,"lon":5.390173,"is_reserved":false,"is_disabled":false,"rental_uris":{"android":"levelo://app?vid=80611dcc-566f-45a3-adc4-3b8bfdb95eb0","ios":"levelo://app?vid=80611dcc-566f-45a3-adc4-3b8bfdb95eb0"},"vehicle_type_id":"4","last_reported":1717600072,"current_range_meters":14800,"station_id":"ce4bhqp2rcd13ifvqhng","pricing_plan_id":"cebpf4jnsgd1na2vs0mg"},{"bike_id":"9014f7ab-b91a-476f-a86f-b5fa74070462","system_id":"levelo_inurba_marseille","lat":43.295748,"lon":5.37522,"is_reserved":false,"is_disabled":false,"rental_uris":{"android":"levelo://app?vid=9014f7ab-b91a-476f-a86f-b5fa74070462","ios":"levelo://app?vid=9014f7ab-b91a-476f-a86f-b5fa74070462"},"vehicle_type_id":"4","last_reported":1717600072,"current_range_meters":9600,"station_id":"ce4bgh92rcd13ifvqb50","pricing_plan_id":"cebpf4jnsgd1na2vs0mg"},{"bike_id":"cd440127-ad65-450e-9d90-1e6d44b41a7c","system_id":"levelo_inurba_marseille","lat":43.295748,"lon":5.37522,"is_reserved":false,"is_disabled":false,"rental_uris":{"android":"levelo://app?vid=cd440127-ad65-450e-9d90-1e6d44b41a7c","ios":"levelo://app?vid=cd440127-ad65-450e-9d90-1e6d44b41a7c"},"vehicle_type_id":"4","last_reported":1717600072,"current_range_meters":0,"station_id":"ce4bgh92rcd13ifvqb50","pricing_plan_id":"cebpf4jnsgd1na2vs0mg"},{"bike_id":"04ba9770-5991-4bce-ad37-9ce22e1d574c","system_id":"levelo_inurba_marseille","lat":43.295983,"lon":5.376344,"is_reserved":false,"is_disabled":false,"rental_uris":{"android":"levelo://app?vid=04ba9770-5991-4bce-ad37-9ce22e1d574c","ios":"levelo://app?vid=04ba9770-5991-4bce-ad37-9ce22e1d574c"},"vehicle_type_id":"4","last_reported":1717600072,"current_range_meters":18400,"station_id":"","pricing_plan_id":"cebpf4jnsgd1na2vs0mg"},{"bike_id":"aef10135-dfbc-4929-93a9-740101e73c4b","system_id":"levelo_inurba_marseille","lat":43.298037,"lon":5.381066,"is_reserved":false,"is_disabled":false,"rental_uris":{"android":"levelo://app?vid=aef10135-dfbc-4929-93a9-740101e73c4b","ios":"levelo://app?vid=aef10135-dfbc-4929-93a9-740101e73c4b"},"vehicle_type_id":"4","last_reported":1717600072,"current_range_meters":29200,"station_id":"ce4bgip2rcd13ifvqbb0","pricing_plan_id":"cebpf4jnsgd1na2vs0mg"},{"bike_id":"6d6d7490-1be7-46e9-a8fa-f8121a568cf2","system_id":"levelo_inurba_marseille","lat":43.296702,"lon":5.378641,"is_reserved":false,"is_disabled":false,"rental_uris":{"android":"levelo://app?vid=6d6d7490-1be7-46e9-a8fa-f8121a568cf2","ios":"levelo://app?vid=6d6d7490-1be7-46e9-a8fa-f8121a568cf2"},"vehicle_type_id":"4","last_reported":1717600072,"current_range_meters":20800,"station_id":"","pricing_plan_id":"cebpf4jnsgd1na2vs0mg"},{"bike_id":"aa23dbfc-d48f-4a5d-a031-87154bcd6176","system_id":"levelo_inurba_marseille","lat":43.296263,"lon":5.377094,"is_reserved":false,"is_disabled":false,"rental_uris":{"android":"levelo://app?vid=aa23dbfc-d48f-4a5d-a031-87154bcd6176","ios":"levelo://app?vid=aa23dbfc-d48f-4a5d-a031-87154bcd6176"},"vehicle_type_id":"4","last_reported":1717600072,"current_range_meters":2000,"station_id":"ce4bgi92rcd13ifvqb90","pricing_plan_id":"cebpf4jnsgd1na2vs0mg"},{"bike_id":"0630808b-b6d9-4138-8f3d-e0a6375eb3c1","system_id":"levelo_inurba_marseille","lat":43.321948,"lon":5.388578,"is_reserved":false,"is_disabled":false,"rental_uris":{"android":"levelo://app?vid=0630808b-b6d9-4138-8f3d-e0a6375eb3c1","ios":"levelo://app?vid=0630808b-b6d9-4138-8f3d-e0a6375eb3c1"},"vehicle_type_id":"4","last_reported":1717600072,"current_range_meters":6800,"station_id":"","pricing_plan_id":"cebpf4jnsgd1na2vs0mg"},{"bike_id":"8e59e1e2-c4fd-45b1-8977-0150b29355c2","system_id":"levelo_inurba_marseille","lat":43.295279,"lon":5.375048,"is_reserved":false,"is_disabled":false,"rental_uris":{"android":"levelo://app?vid=8e59e1e2-c4fd-45b1-8977-0150b29355c2","ios":"levelo://app?vid=8e59e1e2-c4fd-45b1-8977-0150b29355c2"},"vehicle_type_id":"4","last_reported":1717600072,"current_range_meters":400,"station_id":"ce4bgkp2rcd13ifvqbmg","pricing_plan_id":"cebpf4jnsgd1na2vs0mg"},{"bike_id":"77c8e5c0-9faa-4a67-b78a-e5cae873ad82","system_id":"levelo_inurba_marseille","lat":43.295279,"lon":5.375048,"is_reserved":false,"is_disabled":false,"rental_uris":{"android":"levelo://app?vid=77c8e5c0-9faa-4a67-b78a-e5cae873ad82","ios":"levelo://app?vid=77c8e5c0-9faa-4a67-b78a-e5cae873ad82"},"vehicle_type_id":"4","last_reported":1717600072,"current_range_meters":0,"station_id":"ce4bgkp2rcd13ifvqbmg","pricing_plan_id":"cebpf4jnsgd1na2vs0mg"},{"bike_id":"3b661486-437e-4cdc-bc98-2ac6ef96f4eb","system_id":"levelo_inurba_marseille","lat":43.299784,"lon":5.384871,"is_reserved":false,"is_disabled":false,"rental_uris":{"android":"levelo://app?vid=3b661486-437e-4cdc-bc98-2ac6ef96f4eb","ios":"levelo://app?vid=3b661486-437e-4cdc-bc98-2ac6ef96f4eb"},"vehicle_type_id":"4","last_reported":1717600072,"current_range_meters":31200,"station_id":"ce4bgj92rcd13ifvqbd0","pricing_plan_id":"cebpf4jnsgd1na2vs0mg"},{"bike_id":"ac06c72d-4e5d-49fb-9f9a-b8e82b440305","system_id":"levelo_inurba_marseille","lat":43.295279,"lon":5.375048,"is_reserved":false,"is_disabled":false,"rental_uris":{"android":"levelo://app?vid=ac06c72d-4e5d-49fb-9f9a-b8e82b440305","ios":"levelo://app?vid=ac06c72d-4e5d-49fb-9f9a-b8e82b440305"},"vehicle_type_id":"4","last_reported":1717600072,"current_range_meters":17200,"station_id":"ce4bgkp2rcd13ifvqbmg","pricing_plan_id":"cebpf4jnsgd1na2vs0mg"},{"bike_id":"55d28c81-9379-413b-842c-c01a46ff064a","system_id":"levelo_inurba_marseille","lat":43.299717,"lon":5.384845,"is_reserved":false,"is_disabled":false,"rental_uris":{"android":"levelo://app?vid=55d28c81-9379-413b-842c-c01a46ff064a","ios":"levelo://app?vid=55d28c81-9379-413b-842c-c01a46ff064a"},"vehicle_type_id":"4","last_reported":1717600072,"current_range_meters":31200,"station_id":"ce4bgj92rcd13ifvqbd0","pricing_plan_id":"cebpf4jnsgd1na2vs0mg"},{"bike_id":"94fee434-1698-4816-b3e0-1cf020c99f2f","system_id":"levelo_inurba_marseille","lat":43.29969,"lon":5.38493,"is_reserved":false,"is_disabled":false,"rental_uris":{"android":"levelo://app?vid=94fee434-1698-4816-b3e0-1cf020c99f2f","ios":"levelo://app?vid=94fee434-1698-4816-b3e0-1cf020c99f2f"},"vehicle_type_id":"4","last_reported":1717600072,"current_range_meters":31200,"station_id":"ce4bgj92rcd13ifvqbd0","pricing_plan_id":"cebpf4jnsgd1na2vs0mg"},{"bike_id":"4728ea4d-c831-4bca-a138-dccdd6c489aa","system_id":"levelo_inurba_marseille","lat":43.299724,"lon":5.384848,"is_reserved":false,"is_disabled":false,"rental_uris":{"android":"levelo://app?vid=4728ea4d-c831-4bca-a138-dccdd6c489aa","ios":"levelo://app?vid=4728ea4d-c831-4bca-a138-dccdd6c489aa"},"vehicle_type_id":"4","last_reported":1717600072,"current_range_meters":8800,"station_id":"ce4bgj92rcd13ifvqbd0","pricing_plan_id":"cebpf4jnsgd1na2vs0mg"},{"bike_id":"b7273de8-d7bc-460e-8c9a-578339f47745","system_id":"levelo_inurba_marseille","lat":43.299443,"lon":5.384691,"is_reserved":false,"is_disabled":false,"rental_uris":{"android":"levelo://app?vid=b7273de8-d7bc-460e-8c9a-578339f47745","ios":"levelo://app?vid=b7273de8-d7bc-460e-8c9a-578339f47745"},"vehicle_type_id":"4","last_reported":1717600072,"current_range_meters":15600,"station_id":"ce4bgj92rcd13ifvqbd0","pricing_plan_id":"cebpf4jnsgd1na2vs0mg"},{"bike_id":"7de63289-faf2-4799-81ed-0c56e1f779a1","system_id":"levelo_inurba_marseille","lat":43.273609,"lon":5.362708,"is_reserved":false,"is_disabled":false,"rental_uris":{"android":"levelo://app?vid=7de63289-faf2-4799-81ed-0c56e1f779a1","ios":"levelo://app?vid=7de63289-faf2-4799-81ed-0c56e1f779a1"},"vehicle_type_id":"4","last_reported":1717600072,"current_range_meters":8000,"station_id":"ce4bhbh2rcd13ifvqeo0","pricing_plan_id":"cebpf4jnsgd1na2vs0mg"},{"bike_id":"87242a2c-4b59-47d3-85f4-e7e81e852a0a","system_id":"levelo_inurba_marseille","lat":43.301273,"lon":5.387853,"is_reserved":false,"is_disabled":false,"rental_uris":{"android":"levelo://app?vid=87242a2c-4b59-47d3-85f4-e7e81e852a0a","ios":"levelo://app?vid=87242a2c-4b59-47d3-85f4-e7e81e852a0a"},"vehicle_type_id":"4","last_reported":1717600072,"current_range_meters":0,"station_id":"","pricing_plan_id":"cebpf4jnsgd1na2vs0mg"},{"bike_id":"e878a30e-f270-40f0-986c-0d713bfeaa8d","system_id":"levelo_inurba_marseille","lat":43.323626,"lon":5.388947,"is_reserved":false,"is_disabled":false,"rental_uris":{"android":"levelo://app?vid=e878a30e-f270-40f0-986c-0d713bfeaa8d","ios":"levelo://app?vid=e878a30e-f270-40f0-986c-0d713bfeaa8d"},"vehicle_type_id":"4","last_reported":1717600072,"current_range_meters":4400,"station_id":"ce4bhqp2rcd13ifvqhog","pricing_plan_id":"cebpf4jnsgd1na2vs0mg"},{"bike_id":"fcac13a6-44f4-446e-8ca2-1e288f42793b","system_id":"levelo_inurba_marseille","lat":43.32367,"lon":5.388836,"is_reserved":false,"is_disabled":false,"rental_uris":{"android":"levelo://app?vid=fcac13a6-44f4-446e-8ca2-1e288f42793b","ios":"levelo://app?vid=fcac13a6-44f4-446e-8ca2-1e288f42793b"},"vehicle_type_id":"4","last_reported":1717600072,"current_range_meters":5200,"station_id":"ce4bhqp2rcd13ifvqhog","pricing_plan_id":"cebpf4jnsgd1na2vs0mg"},{"bike_id":"c0d10622-adda-4795-ba5a-25beb8fcbde5","system_id":"levelo_inurba_marseille","lat":43.32367,"lon":5.388836,"is_reserved":false,"is_disabled":false,"rental_uris":{"android":"levelo://app?vid=c0d10622-adda-4795-ba5a-25beb8fcbde5","ios":"levelo://app?vid=c0d10622-adda-4795-ba5a-25beb8fcbde5"},"vehicle_type_id":"4","last_reported":1717600072,"current_range_meters":9600,"station_id":"ce4bhqp2rcd13ifvqhog","pricing_plan_id":"cebpf4jnsgd1na2vs0mg"},{"bike_id":"6c5add67-37a4-41d2-8a0a-0b942ae97f48","system_id":"levelo_inurba_marseille","lat":43.293112,"lon":5.371806,"is_reserved":false,"is_disabled":false,"rental_uris":{"android":"levelo://app?vid=6c5add67-37a4-41d2-8a0a-0b942ae97f48","ios":"levelo://app?vid=6c5add67-37a4-41d2-8a0a-0b942ae97f48"},"vehicle_type_id":"4","last_reported":1717600072,"current_range_meters":16400,"station_id":"ce4bgh92rcd13ifvqb40","pricing_plan_id":"cebpf4jnsgd1na2vs0mg"},{"bike_id":"c7bcf6a6-e25e-4b21-978a-b81b0c42a53c","system_id":"levelo_inurba_marseille","lat":43.292749,"lon":5.368402,"is_reserved":false,"is_disabled":false,"rental_uris":{"android":"levelo://app?vid=c7bcf6a6-e25e-4b21-978a-b81b0c42a53c","ios":"levelo://app?vid=c7bcf6a6-e25e-4b21-978a-b81b0c42a53c"},"vehicle_type_id":"4","last_reported":1717600072,"current_range_meters":31200,"station_id":"ce4bhbp2rcd13ifvqesg","pricing_plan_id":"cebpf4jnsgd1na2vs0mg"},{"bike_id":"7c5b9d9a-eae5-45d2-afec-2d78920d896b","system_id":"levelo_inurba_marseille","lat":43.300852,"lon":5.390859,"is_reserved":false,"is_disabled":false,"rental_uris":{"android":"levelo://app?vid=7c5b9d9a-eae5-45d2-afec-2d78920d896b","ios":"levelo://app?vid=7c5b9d9a-eae5-45d2-afec-2d78920d896b"},"vehicle_type_id":"4","last_reported":1717600072,"current_range_meters":8000,"station_id":"ce4bh192rcd13ifvqdb0","pricing_plan_id":"cebpf4jnsgd1na2vs0mg"},{"bike_id":"e31c1555-61e5-4b9c-a474-ca30e7e3bab0","system_id":"levelo_inurba_marseille","lat":43.2936,"lon":5.37835,"is_reserved":false,"is_disabled":false,"rental_uris":{"android":"levelo://app?vid=e31c1555-61e5-4b9c-a474-ca30e7e3bab0","ios":"levelo://app?vid=e31c1555-61e5-4b9c-a474-ca30e7e3bab0"},"vehicle_type_id":"4","last_reported":1717600072,"current_range_meters":0,"station_id":"ce4bgjh2rcd13ifvqbf0","pricing_plan_id":"cebpf4jnsgd1na2vs0mg"},{"bike_id":"0d4f88a3-e292-411a-864a-37654127283e","system_id":"levelo_inurba_marseille","lat":43.303002,"lon":5.392142,"is_reserved":false,"is_disabled":false,"rental_uris":{"android":"levelo://app?vid=0d4f88a3-e292-411a-864a-37654127283e","ios":"levelo://app?vid=0d4f88a3-e292-411a-864a-37654127283e"},"vehicle_type_id":"4","last_reported":1717600072,"current_range_meters":27200,"station_id":"ce4bgkh2rcd13ifvqbk0","pricing_plan_id":"cebpf4jnsgd1na2vs0mg"},{"bike_id":"5c555795-6227-46de-b9b0-70766ed46b5c","system_id":"levelo_inurba_marseille","lat":43.2936,"lon":5.37835,"is_reserved":false,"is_disabled":false,"rental_uris":{"android":"levelo://app?vid=5c555795-6227-46de-b9b0-70766ed46b5c","ios":"levelo://app?vid=5c555795-6227-46de-b9b0-70766ed46b5c"},"vehicle_type_id":"4","last_reported":1717600072,"current_range_meters":12400,"station_id":"ce4bgjh2rcd13ifvqbf0","pricing_plan_id":"cebpf4jnsgd1na2vs0mg"},{"bike_id":"6e1572a3-e88f-48ee-afbd-a0bbcfcc2ae1","system_id":"levelo_inurba_marseille","lat":43.302992,"lon":5.392136,"is_reserved":false,"is_disabled":false,"rental_uris":{"android":"levelo://app?vid=6e1572a3-e88f-48ee-afbd-a0bbcfcc2ae1","ios":"levelo://app?vid=6e1572a3-e88f-48ee-afbd-a0bbcfcc2ae1"},"vehicle_type_id":"4","last_reported":1717600072,"current_range_meters":16400,"station_id":"ce4bgkh2rcd13ifvqbk0","pricing_plan_id":"cebpf4jnsgd1na2vs0mg"},{"bike_id":"6f73d1d2-7bf0-4e7a-a54b-78ee86a869c0","system_id":"levelo_inurba_marseille","lat":43.30085,"lon":5.390856,"is_reserved":false,"is_disabled":false,"rental_uris":{"android":"levelo://app?vid=6f73d1d2-7bf0-4e7a-a54b-78ee86a869c0","ios":"levelo://app?vid=6f73d1d2-7bf0-4e7a-a54b-78ee86a869c0"},"vehicle_type_id":"4","last_reported":1717600072,"current_range_meters":24000,"station_id":"ce4bh192rcd13ifvqdb0","pricing_plan_id":"cebpf4jnsgd1na2vs0mg"},{"bike_id":"84489e72-85e8-47cd-8767-bfd3ce74f872","system_id":"levelo_inurba_marseille","lat":43.30337,"lon":5.39252,"is_reserved":false,"is_disabled":false,"rental_uris":{"android":"levelo://app?vid=84489e72-85e8-47cd-8767-bfd3ce74f872","ios":"levelo://app?vid=84489e72-85e8-47cd-8767-bfd3ce74f872"},"vehicle_type_id":"4","last_reported":1717600072,"current_range_meters":1200,"station_id":"","pricing_plan_id":"cebpf4jnsgd1na2vs0mg"},{"bike_id":"95b1db09-7e0d-42f0-bfb8-8f1e136158f7","system_id":"levelo_inurba_marseille","lat":43.29228,"lon":5.36061,"is_reserved":false,"is_disabled":false,"rental_uris":{"android":"levelo://app?vid=95b1db09-7e0d-42f0-bfb8-8f1e136158f7","ios":"levelo://app?vid=95b1db09-7e0d-42f0-bfb8-8f1e136158f7"},"vehicle_type_id":"4","last_reported":1717600072,"current_range_meters":1600,"station_id":"ce4bhch2rcd13ifvqeug","pricing_plan_id":"cebpf4jnsgd1na2vs0mg"},{"bike_id":"737d9841-db46-4133-8675-71638e5416de","system_id":"levelo_inurba_marseille","lat":43.303438,"lon":5.392788,"is_reserved":false,"is_disabled":false,"rental_uris":{"android":"levelo://app?vid=737d9841-db46-4133-8675-71638e5416de","ios":"levelo://app?vid=737d9841-db46-4133-8675-71638e5416de"},"vehicle_type_id":"4","last_reported":1717600072,"current_range_meters":0,"station_id":"","pricing_plan_id":"cebpf4jnsgd1na2vs0mg"},{"bike_id":"bc31d5cb-4889-41c0-8220-115c3dc386d1","system_id":"levelo_inurba_marseille","lat":43.2936,"lon":5.37835,"is_reserved":false,"is_disabled":false,"rental_uris":{"android":"levelo://app?vid=bc31d5cb-4889-41c0-8220-115c3dc386d1","ios":"levelo://app?vid=bc31d5cb-4889-41c0-8220-115c3dc386d1"},"vehicle_type_id":"4","last_reported":1717600072,"current_range_meters":0,"station_id":"ce4bgjh2rcd13ifvqbf0","pricing_plan_id":"cebpf4jnsgd1na2vs0mg"},{"bike_id":"f8938e2f-12aa-4836-8a08-69ab88c44885","system_id":"levelo_inurba_marseille","lat":43.291671,"lon":5.371575,"is_reserved":false,"is_disabled":false,"rental_uris":{"android":"levelo://app?vid=f8938e2f-12aa-4836-8a08-69ab88c44885","ios":"levelo://app?vid=f8938e2f-12aa-4836-8a08-69ab88c44885"},"vehicle_type_id":"4","last_reported":1717600072,"current_range_meters":0,"station_id":"ce4bha92rcd13ifvqeh0","pricing_plan_id":"cebpf4jnsgd1na2vs0mg"},{"bike_id":"30e91f26-a9f7-4010-85d1-2e51cb492729","system_id":"levelo_inurba_marseille","lat":43.298764,"lon":5.388973,"is_reserved":false,"is_disabled":false,"rental_uris":{"android":"levelo://app?vid=30e91f26-a9f7-4010-85d1-2e51cb492729","ios":"levelo://app?vid=30e91f26-a9f7-4010-85d1-2e51cb492729"},"vehicle_type_id":"4","last_reported":1717600072,"current_range_meters":23600,"station_id":"ce4bh392rcd13ifvqdl0","pricing_plan_id":"cebpf4jnsgd1na2vs0mg"},{"bike_id":"3f16d939-ee61-4474-bad3-fd88aae74005","system_id":"levelo_inurba_marseille","lat":43.298764,"lon":5.388973,"is_reserved":false,"is_disabled":false,"rental_uris":{"android":"levelo://app?vid=3f16d939-ee61-4474-bad3-fd88aae74005","ios":"levelo://app?vid=3f16d939-ee61-4474-bad3-fd88aae74005"},"vehicle_type_id":"4","last_reported":1717600072,"current_range_meters":15600,"station_id":"ce4bh392rcd13ifvqdl0","pricing_plan_id":"cebpf4jnsgd1na2vs0mg"},{"bike_id":"e23fbe02-2fc3-41d1-beda-89397b665131","system_id":"levelo_inurba_marseille","lat":43.291994,"lon":5.357886,"is_reserved":false,"is_disabled":false,"rental_uris":{"android":"levelo://app?vid=e23fbe02-2fc3-41d1-beda-89397b665131","ios":"levelo://app?vid=e23fbe02-2fc3-41d1-beda-89397b665131"},"vehicle_type_id":"4","last_reported":1717600072,"current_range_meters":22400,"station_id":"ce4bhb12rcd13ifvqel0","pricing_plan_id":"cebpf4jnsgd1na2vs0mg"},{"bike_id":"54024c56-b130-45c9-8691-05efc8df73a7","system_id":"levelo_inurba_marseille","lat":43.313328,"lon":5.396922,"is_reserved":false,"is_disabled":false,"rental_uris":{"android":"levelo://app?vid=54024c56-b130-45c9-8691-05efc8df73a7","ios":"levelo://app?vid=54024c56-b130-45c9-8691-05efc8df73a7"},"vehicle_type_id":"4","last_reported":1717600072,"current_range_meters":0,"station_id":"ce4bgvp2rcd13ifvqcu0","pricing_plan_id":"cebpf4jnsgd1na2vs0mg"},{"bike_id":"4d3c82a3-c6c6-4d5c-a61a-301f82f9bcdc","system_id":"levelo_inurba_marseille","lat":43.313291,"lon":5.396838,"is_reserved":false,"is_disabled":false,"rental_uris":{"android":"levelo://app?vid=4d3c82a3-c6c6-4d5c-a61a-301f82f9bcdc","ios":"levelo://app?vid=4d3c82a3-c6c6-4d5c-a61a-301f82f9bcdc"},"vehicle_type_id":"4","last_reported":1717600072,"current_range_meters":28400,"station_id":"ce4bgvp2rcd13ifvqcu0","pricing_plan_id":"cebpf4jnsgd1na2vs0mg"},{"bike_id":"c94bab0b-d2f7-47d7-92b2-107f4405a890","system_id":"levelo_inurba_marseille","lat":43.313291,"lon":5.396838,"is_reserved":false,"is_disabled":false,"rental_uris":{"android":"levelo://app?vid=c94bab0b-d2f7-47d7-92b2-107f4405a890","ios":"levelo://app?vid=c94bab0b-d2f7-47d7-92b2-107f4405a890"},"vehicle_type_id":"4","last_reported":1717600072,"current_range_meters":17600,"station_id":"ce4bgvp2rcd13ifvqcu0","pricing_plan_id":"cebpf4jnsgd1na2vs0mg"},{"bike_id":"2faca20c-afbb-4af1-9335-3cc4d55885f1","system_id":"levelo_inurba_marseille","lat":43.29529,"lon":5.385581,"is_reserved":false,"is_disabled":false,"rental_uris":{"android":"levelo://app?vid=2faca20c-afbb-4af1-9335-3cc4d55885f1","ios":"levelo://app?vid=2faca20c-afbb-4af1-9335-3cc4d55885f1"},"vehicle_type_id":"4","last_reported":1717600072,"current_range_meters":28400,"station_id":"ce4bgih2rcd13ifvqba0","pricing_plan_id":"cebpf4jnsgd1na2vs0mg"},{"bike_id":"bd3385c7-545d-4a76-96e9-56d2704dab7d","system_id":"levelo_inurba_marseille","lat":43.29529,"lon":5.385581,"is_reserved":false,"is_disabled":false,"rental_uris":{"android":"levelo://app?vid=bd3385c7-545d-4a76-96e9-56d2704dab7d","ios":"levelo://app?vid=bd3385c7-545d-4a76-96e9-56d2704dab7d"},"vehicle_type_id":"4","last_reported":1717600072,"current_range_meters":24000,"station_id":"ce4bgih2rcd13ifvqba0","pricing_plan_id":"cebpf4jnsgd1na2vs0mg"},{"bike_id":"6b90dd65-c703-40b6-a805-d3c324158d5b","system_id":"levelo_inurba_marseille","lat":43.29033,"lon":5.36969,"is_reserved":false,"is_disabled":false,"rental_uris":{"android":"levelo://app?vid=6b90dd65-c703-40b6-a805-d3c324158d5b","ios":"levelo://app?vid=6b90dd65-c703-40b6-a805-d3c324158d5b"},"vehicle_type_id":"4","last_reported":1717600072,"current_range_meters":3600,"station_id":"ce4bh312rcd13ifvqdj0","pricing_plan_id":"cebpf4jnsgd1na2vs0mg"},{"bike_id":"31ee597c-3efd-4f7c-a912-414fd81e7e2f","system_id":"levelo_inurba_marseille","lat":43.302008,"lon":5.394694,"is_reserved":false,"is_disabled":false,"rental_uris":{"android":"levelo://app?vid=31ee597c-3efd-4f7c-a912-414fd81e7e2f","ios":"levelo://app?vid=31ee597c-3efd-4f7c-a912-414fd81e7e2f"},"vehicle_type_id":"4","last_reported":1717600072,"current_range_meters":8400,"station_id":"ce4bh0p2rcd13ifvqd70","pricing_plan_id":"cebpf4jnsgd1na2vs0mg"},{"bike_id":"a7ad9419-f900-49bf-b9b4-26041dca8a6a","system_id":"levelo_inurba_marseille","lat":43.302992,"lon":5.392136,"is_reserved":false,"is_disabled":false,"rental_uris":{"android":"levelo://app?vid=a7ad9419-f900-49bf-b9b4-26041dca8a6a","ios":"levelo://app?vid=a7ad9419-f900-49bf-b9b4-26041dca8a6a"},"vehicle_type_id":"4","last_reported":1717600072,"current_range_meters":0,"station_id":"ce4bgkh2rcd13ifvqbk0","pricing_plan_id":"cebpf4jnsgd1na2vs0mg"},{"bike_id":"3b7d7404-023e-4248-9c91-315624a0acf2","system_id":"levelo_inurba_marseille","lat":43.302008,"lon":5.394694,"is_reserved":false,"is_disabled":false,"rental_uris":{"android":"levelo://app?vid=3b7d7404-023e-4248-9c91-315624a0acf2","ios":"levelo://app?vid=3b7d7404-023e-4248-9c91-315624a0acf2"},"vehicle_type_id":"4","last_reported":1717600072,"current_range_meters":24400,"station_id":"ce4bh0p2rcd13ifvqd70","pricing_plan_id":"cebpf4jnsgd1na2vs0mg"},{"bike_id":"429b0d6b-24f4-4119-ad2a-2a6c0dda2f4c","system_id":"levelo_inurba_marseille","lat":43.302008,"lon":5.394694,"is_reserved":false,"is_disabled":false,"rental_uris":{"android":"levelo://app?vid=429b0d6b-24f4-4119-ad2a-2a6c0dda2f4c","ios":"levelo://app?vid=429b0d6b-24f4-4119-ad2a-2a6c0dda2f4c"},"vehicle_type_id":"4","last_reported":1717600072,"current_range_meters":20400,"station_id":"ce4bh0p2rcd13ifvqd70","pricing_plan_id":"cebpf4jnsgd1na2vs0mg"},{"bike_id":"06d47c30-9312-4a94-b828-a8c4ef652062","system_id":"levelo_inurba_marseille","lat":43.290378,"lon":5.359302,"is_reserved":false,"is_disabled":false,"rental_uris":{"android":"levelo://app?vid=06d47c30-9312-4a94-b828-a8c4ef652062","ios":"levelo://app?vid=06d47c30-9312-4a94-b828-a8c4ef652062"},"vehicle_type_id":"4","last_reported":1717600072,"current_range_meters":0,"station_id":"","pricing_plan_id":"cebpf4jnsgd1na2vs0mg"},{"bike_id":"b048e2fc-3a43-4e17-b196-cb52cf7ce9ab","system_id":"levelo_inurba_marseille","lat":43.294153,"lon":5.386305,"is_reserved":false,"is_disabled":false,"rental_uris":{"android":"levelo://app?vid=b048e2fc-3a43-4e17-b196-cb52cf7ce9ab","ios":"levelo://app?vid=b048e2fc-3a43-4e17-b196-cb52cf7ce9ab"},"vehicle_type_id":"4","last_reported":1717600072,"current_range_meters":0,"station_id":"ce4bh2h2rcd13ifvqdh0","pricing_plan_id":"cebpf4jnsgd1na2vs0mg"},{"bike_id":"21d008a5-99dd-480a-8db3-7c04549af5c4","system_id":"levelo_inurba_marseille","lat":43.294162,"lon":5.386292,"is_reserved":false,"is_disabled":false,"rental_uris":{"android":"levelo://app?vid=21d008a5-99dd-480a-8db3-7c04549af5c4","ios":"levelo://app?vid=21d008a5-99dd-480a-8db3-7c04549af5c4"},"vehicle_type_id":"4","last_reported":1717600072,"current_range_meters":0,"station_id":"ce4bh2h2rcd13ifvqdh0","pricing_plan_id":"cebpf4jnsgd1na2vs0mg"},{"bike_id":"09eca868-d0f0-45df-9735-40decef0b545","system_id":"levelo_inurba_marseille","lat":43.290385,"lon":5.375653,"is_reserved":false,"is_disabled":false,"rental_uris":{"android":"levelo://app?vid=09eca868-d0f0-45df-9735-40decef0b545","ios":"levelo://app?vid=09eca868-d0f0-45df-9735-40decef0b545"},"vehicle_type_id":"4","last_reported":1717600072,"current_range_meters":31200,"station_id":"ce4bh692rcd13ifvqe90","pricing_plan_id":"cebpf4jnsgd1na2vs0mg"},{"bike_id":"3d5b012a-1854-49dd-a8e5-da2c76cec58f","system_id":"levelo_inurba_marseille","lat":43.290327,"lon":5.375711,"is_reserved":false,"is_disabled":false,"rental_uris":{"android":"levelo://app?vid=3d5b012a-1854-49dd-a8e5-da2c76cec58f","ios":"levelo://app?vid=3d5b012a-1854-49dd-a8e5-da2c76cec58f"},"vehicle_type_id":"4","last_reported":1717600072,"current_range_meters":16800,"station_id":"ce4bh692rcd13ifvqe90","pricing_plan_id":"cebpf4jnsgd1na2vs0mg"},{"bike_id":"88d6f6d9-972f-4bc3-84c9-52d58340396c","system_id":"levelo_inurba_marseille","lat":43.289184,"lon":5.366408,"is_reserved":false,"is_disabled":false,"rental_uris":{"android":"levelo://app?vid=88d6f6d9-972f-4bc3-84c9-52d58340396c","ios":"levelo://app?vid=88d6f6d9-972f-4bc3-84c9-52d58340396c"},"vehicle_type_id":"4","last_reported":1717600072,"current_range_meters":28800,"station_id":"ce4bhap2rcd13ifvqek0","pricing_plan_id":"cebpf4jnsgd1na2vs0mg"},{"bike_id":"ecb47211-676c-4e00-865d-16c0741cba35","system_id":"levelo_inurba_marseille","lat":43.289468,"lon":5.363719,"is_reserved":false,"is_disabled":false,"rental_uris":{"android":"levelo://app?vid=ecb47211-676c-4e00-865d-16c0741cba35","ios":"levelo://app?vid=ecb47211-676c-4e00-865d-16c0741cba35"},"vehicle_type_id":"4","last_reported":1717600072,"current_range_meters":22000,"station_id":"ce4bhc92rcd13ifvqetg","pricing_plan_id":"cebpf4jnsgd1na2vs0mg"},{"bike_id":"6f60e0f7-168a-4e0b-823d-a277d27bc528","system_id":"levelo_inurba_marseille","lat":43.28937,"lon":5.3664,"is_reserved":false,"is_disabled":false,"rental_uris":{"android":"levelo://app?vid=6f60e0f7-168a-4e0b-823d-a277d27bc528","ios":"levelo://app?vid=6f60e0f7-168a-4e0b-823d-a277d27bc528"},"vehicle_type_id":"4","last_reported":1717600072,"current_range_meters":0,"station_id":"ce4bhap2rcd13ifvqek0","pricing_plan_id":"cebpf4jnsgd1na2vs0mg"},{"bike_id":"4c7951c2-9e30-4244-afe8-d6ee28722787","system_id":"levelo_inurba_marseille","lat":43.30294,"lon":5.3964,"is_reserved":false,"is_disabled":false,"rental_uris":{"android":"levelo://app?vid=4c7951c2-9e30-4244-afe8-d6ee28722787","ios":"levelo://app?vid=4c7951c2-9e30-4244-afe8-d6ee28722787"},"vehicle_type_id":"4","last_reported":1717600072,"current_range_meters":27200,"station_id":"","pricing_plan_id":"cebpf4jnsgd1na2vs0mg"},{"bike_id":"a73355e3-3e63-4e18-adeb-0901075b1150","system_id":"levelo_inurba_marseille","lat":43.30421,"lon":5.39754,"is_reserved":false,"is_disabled":false,"rental_uris":{"android":"levelo://app?vid=a73355e3-3e63-4e18-adeb-0901075b1150","ios":"levelo://app?vid=a73355e3-3e63-4e18-adeb-0901075b1150"},"vehicle_type_id":"4","last_reported":1717600072,"current_range_meters":2800,"station_id":"ce4bh092rcd13ifvqd20","pricing_plan_id":"cebpf4jnsgd1na2vs0mg"},{"bike_id":"96ff04dc-f891-45f6-bf8b-2f99e28f8ef8","system_id":"levelo_inurba_marseille","lat":43.29012,"lon":5.35609,"is_reserved":false,"is_disabled":false,"rental_uris":{"android":"levelo://app?vid=96ff04dc-f891-45f6-bf8b-2f99e28f8ef8","ios":"levelo://app?vid=96ff04dc-f891-45f6-bf8b-2f99e28f8ef8"},"vehicle_type_id":"4","last_reported":1717600072,"current_range_meters":29200,"station_id":"ce4bhb92rcd13ifvqen0","pricing_plan_id":"cebpf4jnsgd1na2vs0mg"},{"bike_id":"a407dc00-1c3d-43ac-9052-460823eb5d89","system_id":"levelo_inurba_marseille","lat":43.29009,"lon":5.3561,"is_reserved":false,"is_disabled":false,"rental_uris":{"android":"levelo://app?vid=a407dc00-1c3d-43ac-9052-460823eb5d89","ios":"levelo://app?vid=a407dc00-1c3d-43ac-9052-460823eb5d89"},"vehicle_type_id":"4","last_reported":1717600072,"current_range_meters":17200,"station_id":"ce4bhb92rcd13ifvqen0","pricing_plan_id":"cebpf4jnsgd1na2vs0mg"},{"bike_id":"903b3577-541f-42e3-ba71-56e64fee50d6","system_id":"levelo_inurba_marseille","lat":43.29009,"lon":5.35607,"is_reserved":false,"is_disabled":false,"rental_uris":{"android":"levelo://app?vid=903b3577-541f-42e3-ba71-56e64fee50d6","ios":"levelo://app?vid=903b3577-541f-42e3-ba71-56e64fee50d6"},"vehicle_type_id":"4","last_reported":1717600072,"current_range_meters":0,"station_id":"ce4bhb92rcd13ifvqen0","pricing_plan_id":"cebpf4jnsgd1na2vs0mg"},{"bike_id":"07e04d50-0d27-443e-bf02-4848a27ee8b5","system_id":"levelo_inurba_marseille","lat":43.290051,"lon":5.356137,"is_reserved":false,"is_disabled":false,"rental_uris":{"android":"levelo://app?vid=07e04d50-0d27-443e-bf02-4848a27ee8b5","ios":"levelo://app?vid=07e04d50-0d27-443e-bf02-4848a27ee8b5"},"vehicle_type_id":"4","last_reported":1717600072,"current_range_meters":0,"station_id":"ce4bhb92rcd13ifvqen0","pricing_plan_id":"cebpf4jnsgd1na2vs0mg"},{"bike_id":"27765284-fe66-4538-97e0-884f257e3744","system_id":"levelo_inurba_marseille","lat":43.290049,"lon":5.355781,"is_reserved":false,"is_disabled":false,"rental_uris":{"android":"levelo://app?vid=27765284-fe66-4538-97e0-884f257e3744","ios":"levelo://app?vid=27765284-fe66-4538-97e0-884f257e3744"},"vehicle_type_id":"4","last_reported":1717600072,"current_range_meters":3200,"station_id":"","pricing_plan_id":"cebpf4jnsgd1na2vs0mg"},{"bike_id":"d3a4cabe-942b-4c46-a1fa-37fd10d97b76","system_id":"levelo_inurba_marseille","lat":43.28727,"lon":5.36078,"is_reserved":false,"is_disabled":false,"rental_uris":{"android":"levelo://app?vid=d3a4cabe-942b-4c46-a1fa-37fd10d97b76","ios":"levelo://app?vid=d3a4cabe-942b-4c46-a1fa-37fd10d97b76"},"vehicle_type_id":"4","last_reported":1717600072,"current_range_meters":20800,"station_id":"cki0cbj6b192h4jlfktg","pricing_plan_id":"cebpf4jnsgd1na2vs0mg"},{"bike_id":"8dc3217b-d2a8-49db-849a-73a5cab48961","system_id":"levelo_inurba_marseille","lat":43.29789,"lon":5.39341,"is_reserved":false,"is_disabled":false,"rental_uris":{"android":"levelo://app?vid=8dc3217b-d2a8-49db-849a-73a5cab48961","ios":"levelo://app?vid=8dc3217b-d2a8-49db-849a-73a5cab48961"},"vehicle_type_id":"4","last_reported":1717600072,"current_range_meters":26400,"station_id":"chh1huq6cuj3fo74tm60","pricing_plan_id":"cebpf4jnsgd1na2vs0mg"},{"bike_id":"7b61b852-b76a-4dfa-8695-bb2f44cc17c8","system_id":"levelo_inurba_marseille","lat":43.289741,"lon":5.378306,"is_reserved":false,"is_disabled":false,"rental_uris":{"android":"levelo://app?vid=7b61b852-b76a-4dfa-8695-bb2f44cc17c8","ios":"levelo://app?vid=7b61b852-b76a-4dfa-8695-bb2f44cc17c8"},"vehicle_type_id":"4","last_reported":1717600072,"current_range_meters":22000,"station_id":"ce4bh9p2rcd13ifvqed0","pricing_plan_id":"cebpf4jnsgd1na2vs0mg"},{"bike_id":"622c241b-2e20-44d7-b3e0-75ed8875b7b1","system_id":"levelo_inurba_marseille","lat":43.29783,"lon":5.39348,"is_reserved":false,"is_disabled":false,"rental_uris":{"android":"levelo://app?vid=622c241b-2e20-44d7-b3e0-75ed8875b7b1","ios":"levelo://app?vid=622c241b-2e20-44d7-b3e0-75ed8875b7b1"},"vehicle_type_id":"4","last_reported":1717600072,"current_range_meters":15600,"station_id":"chh1huq6cuj3fo74tm60","pricing_plan_id":"cebpf4jnsgd1na2vs0mg"},{"bike_id":"a480314a-c121-4afa-bd4d-cad736287c49","system_id":"levelo_inurba_marseille","lat":43.295284,"lon":5.390407,"is_reserved":false,"is_disabled":false,"rental_uris":{"android":"levelo://app?vid=a480314a-c121-4afa-bd4d-cad736287c49","ios":"levelo://app?vid=a480314a-c121-4afa-bd4d-cad736287c49"},"vehicle_type_id":"4","last_reported":1717600072,"current_range_meters":0,"station_id":"ce4bh3p2rcd13ifvqdp0","pricing_plan_id":"cebpf4jnsgd1na2vs0mg"},{"bike_id":"1e9d731c-566f-4fe7-846b-4712e0062363","system_id":"levelo_inurba_marseille","lat":43.297685,"lon":5.393362,"is_reserved":false,"is_disabled":false,"rental_uris":{"android":"levelo://app?vid=1e9d731c-566f-4fe7-846b-4712e0062363","ios":"levelo://app?vid=1e9d731c-566f-4fe7-846b-4712e0062363"},"vehicle_type_id":"4","last_reported":1717600072,"current_range_meters":15600,"station_id":"chh1huq6cuj3fo74tm60","pricing_plan_id":"cebpf4jnsgd1na2vs0mg"},{"bike_id":"05a8e0bc-4331-4b17-b47b-bfeaf08bc546","system_id":"levelo_inurba_marseille","lat":43.330442,"lon":5.389148,"is_reserved":false,"is_disabled":false,"rental_uris":{"android":"levelo://app?vid=05a8e0bc-4331-4b17-b47b-bfeaf08bc546","ios":"levelo://app?vid=05a8e0bc-4331-4b17-b47b-bfeaf08bc546"},"vehicle_type_id":"4","last_reported":1717600072,"current_range_meters":13200,"station_id":"ce4bhr92rcd13ifvqhrg","pricing_plan_id":"cebpf4jnsgd1na2vs0mg"},{"bike_id":"133856b8-8eb2-4717-a7d9-11765c3ebb0e","system_id":"levelo_inurba_marseille","lat":43.330442,"lon":5.389148,"is_reserved":false,"is_disabled":false,"rental_uris":{"android":"levelo://app?vid=133856b8-8eb2-4717-a7d9-11765c3ebb0e","ios":"levelo://app?vid=133856b8-8eb2-4717-a7d9-11765c3ebb0e"},"vehicle_type_id":"4","last_reported":1717600072,"current_range_meters":3200,"station_id":"ce4bhr92rcd13ifvqhrg","pricing_plan_id":"cebpf4jnsgd1na2vs0mg"},{"bike_id":"4737ceb4-e491-4898-afba-89da1fd8ec29","system_id":"levelo_inurba_marseille","lat":43.33733,"lon":5.374603,"is_reserved":false,"is_disabled":false,"rental_uris":{"android":"levelo://app?vid=4737ceb4-e491-4898-afba-89da1fd8ec29","ios":"levelo://app?vid=4737ceb4-e491-4898-afba-89da1fd8ec29"},"vehicle_type_id":"4","last_reported":1717600072,"current_range_meters":19200,"station_id":"","pricing_plan_id":"cebpf4jnsgd1na2vs0mg"},{"bike_id":"ed10c4e4-d3ba-48d3-9097-538e65a623f5","system_id":"levelo_inurba_marseille","lat":43.33731,"lon":5.37482,"is_reserved":false,"is_disabled":false,"rental_uris":{"android":"levelo://app?vid=ed10c4e4-d3ba-48d3-9097-538e65a623f5","ios":"levelo://app?vid=ed10c4e4-d3ba-48d3-9097-538e65a623f5"},"vehicle_type_id":"4","last_reported":1717600072,"current_range_meters":29200,"station_id":"","pricing_plan_id":"cebpf4jnsgd1na2vs0mg"},{"bike_id":"8fa5a9b8-2cc5-4ab5-9126-4106e10e01d4","system_id":"levelo_inurba_marseille","lat":43.312609,"lon":5.401662,"is_reserved":false,"is_disabled":false,"rental_uris":{"android":"levelo://app?vid=8fa5a9b8-2cc5-4ab5-9126-4106e10e01d4","ios":"levelo://app?vid=8fa5a9b8-2cc5-4ab5-9126-4106e10e01d4"},"vehicle_type_id":"4","last_reported":1717600072,"current_range_meters":0,"station_id":"ce4bh092rcd13ifvqd30","pricing_plan_id":"cebpf4jnsgd1na2vs0mg"},{"bike_id":"8c7e8cc6-c8e7-4720-b6a8-c947b0117879","system_id":"levelo_inurba_marseille","lat":43.312609,"lon":5.401662,"is_reserved":false,"is_disabled":false,"rental_uris":{"android":"levelo://app?vid=8c7e8cc6-c8e7-4720-b6a8-c947b0117879","ios":"levelo://app?vid=8c7e8cc6-c8e7-4720-b6a8-c947b0117879"},"vehicle_type_id":"4","last_reported":1717600072,"current_range_meters":8800,"station_id":"ce4bh092rcd13ifvqd30","pricing_plan_id":"cebpf4jnsgd1na2vs0mg"},{"bike_id":"12fccb3f-05f5-4432-aa0c-081372abfdf4","system_id":"levelo_inurba_marseille","lat":43.309371,"lon":5.401449,"is_reserved":false,"is_disabled":false,"rental_uris":{"android":"levelo://app?vid=12fccb3f-05f5-4432-aa0c-081372abfdf4","ios":"levelo://app?vid=12fccb3f-05f5-4432-aa0c-081372abfdf4"},"vehicle_type_id":"4","last_reported":1717600072,"current_range_meters":0,"station_id":"ce4bgvp2rcd13ifvqct0","pricing_plan_id":"cebpf4jnsgd1na2vs0mg"},{"bike_id":"26e88c15-1ebf-4978-814d-f8bc280f73dc","system_id":"levelo_inurba_marseille","lat":43.337446,"lon":5.37483,"is_reserved":false,"is_disabled":false,"rental_uris":{"android":"levelo://app?vid=26e88c15-1ebf-4978-814d-f8bc280f73dc","ios":"levelo://app?vid=26e88c15-1ebf-4978-814d-f8bc280f73dc"},"vehicle_type_id":"4","last_reported":1717600072,"current_range_meters":18800,"station_id":"","pricing_plan_id":"cebpf4jnsgd1na2vs0mg"},{"bike_id":"472bf191-d295-4388-8607-d6f8058bd035","system_id":"levelo_inurba_marseille","lat":43.33754,"lon":5.37442,"is_reserved":false,"is_disabled":false,"rental_uris":{"android":"levelo://app?vid=472bf191-d295-4388-8607-d6f8058bd035","ios":"levelo://app?vid=472bf191-d295-4388-8607-d6f8058bd035"},"vehicle_type_id":"4","last_reported":1717600072,"current_range_meters":29600,"station_id":"","pricing_plan_id":"cebpf4jnsgd1na2vs0mg"},{"bike_id":"2c7b6b28-c029-4170-9dd2-4d16d50d5ecc","system_id":"levelo_inurba_marseille","lat":43.33762,"lon":5.3745,"is_reserved":false,"is_disabled":false,"rental_uris":{"android":"levelo://app?vid=2c7b6b28-c029-4170-9dd2-4d16d50d5ecc","ios":"levelo://app?vid=2c7b6b28-c029-4170-9dd2-4d16d50d5ecc"},"vehicle_type_id":"4","last_reported":1717600072,"current_range_meters":19600,"station_id":"","pricing_plan_id":"cebpf4jnsgd1na2vs0mg"},{"bike_id":"9cc41a33-a751-446f-8c5d-9bf598c80681","system_id":"levelo_inurba_marseille","lat":43.306412,"lon":5.401035,"is_reserved":false,"is_disabled":false,"rental_uris":{"android":"levelo://app?vid=9cc41a33-a751-446f-8c5d-9bf598c80681","ios":"levelo://app?vid=9cc41a33-a751-446f-8c5d-9bf598c80681"},"vehicle_type_id":"4","last_reported":1717600072,"current_range_meters":2800,"station_id":"ce4bh112rcd13ifvqda0","pricing_plan_id":"cebpf4jnsgd1na2vs0mg"},{"bike_id":"685828a6-6926-4a0b-acc7-ff389062fdbf","system_id":"levelo_inurba_marseille","lat":43.337671,"lon":5.374612,"is_reserved":false,"is_disabled":false,"rental_uris":{"android":"levelo://app?vid=685828a6-6926-4a0b-acc7-ff389062fdbf","ios":"levelo://app?vid=685828a6-6926-4a0b-acc7-ff389062fdbf"},"vehicle_type_id":"4","last_reported":1717600072,"current_range_meters":20000,"station_id":"","pricing_plan_id":"cebpf4jnsgd1na2vs0mg"},{"bike_id":"b6dc5fc1-33cc-4734-8453-98b18fff8801","system_id":"levelo_inurba_marseille","lat":43.301117,"lon":5.398795,"is_reserved":false,"is_disabled":false,"rental_uris":{"android":"levelo://app?vid=b6dc5fc1-33cc-4734-8453-98b18fff8801","ios":"levelo://app?vid=b6dc5fc1-33cc-4734-8453-98b18fff8801"},"vehicle_type_id":"4","last_reported":1717600072,"current_range_meters":17200,"station_id":"ce4bh0h2rcd13ifvqd40","pricing_plan_id":"cebpf4jnsgd1na2vs0mg"},{"bike_id":"a2e81671-958c-47b9-88ad-9c2a747a2afa","system_id":"levelo_inurba_marseille","lat":43.301117,"lon":5.398795,"is_reserved":false,"is_disabled":false,"rental_uris":{"android":"levelo://app?vid=a2e81671-958c-47b9-88ad-9c2a747a2afa","ios":"levelo://app?vid=a2e81671-958c-47b9-88ad-9c2a747a2afa"},"vehicle_type_id":"4","last_reported":1717600072,"current_range_meters":6800,"station_id":"ce4bh0h2rcd13ifvqd40","pricing_plan_id":"cebpf4jnsgd1na2vs0mg"},{"bike_id":"78519143-94e3-4918-afa8-709b2f0bb947","system_id":"levelo_inurba_marseille","lat":43.28727,"lon":5.36078,"is_reserved":false,"is_disabled":false,"rental_uris":{"android":"levelo://app?vid=78519143-94e3-4918-afa8-709b2f0bb947","ios":"levelo://app?vid=78519143-94e3-4918-afa8-709b2f0bb947"},"vehicle_type_id":"4","last_reported":1717600072,"current_range_meters":23600,"station_id":"cki0cbj6b192h4jlfktg","pricing_plan_id":"cebpf4jnsgd1na2vs0mg"},{"bike_id":"2c4d3a16-47ff-4a21-aa40-6636a785ea3a","system_id":"levelo_inurba_marseille","lat":43.301117,"lon":5.398795,"is_reserved":false,"is_disabled":false,"rental_uris":{"android":"levelo://app?vid=2c4d3a16-47ff-4a21-aa40-6636a785ea3a","ios":"levelo://app?vid=2c4d3a16-47ff-4a21-aa40-6636a785ea3a"},"vehicle_type_id":"4","last_reported":1717600072,"current_range_meters":0,"station_id":"ce4bh0h2rcd13ifvqd40","pricing_plan_id":"cebpf4jnsgd1na2vs0mg"},{"bike_id":"fa53cc7a-2cf0-42ff-80bb-00e89758e2b2","system_id":"levelo_inurba_marseille","lat":43.286961,"lon":5.373785,"is_reserved":false,"is_disabled":false,"rental_uris":{"android":"levelo://app?vid=fa53cc7a-2cf0-42ff-80bb-00e89758e2b2","ios":"levelo://app?vid=fa53cc7a-2cf0-42ff-80bb-00e89758e2b2"},"vehicle_type_id":"4","last_reported":1717600072,"current_range_meters":27600,"station_id":"ce4bh3p2rcd13ifvqdq0","pricing_plan_id":"cebpf4jnsgd1na2vs0mg"},{"bike_id":"cb06ce97-e9b5-437b-92c8-0b54d1e2597e","system_id":"levelo_inurba_marseille","lat":43.286591,"lon":5.363346,"is_reserved":false,"is_disabled":false,"rental_uris":{"android":"levelo://app?vid=cb06ce97-e9b5-437b-92c8-0b54d1e2597e","ios":"levelo://app?vid=cb06ce97-e9b5-437b-92c8-0b54d1e2597e"},"vehicle_type_id":"4","last_reported":1717600072,"current_range_meters":4800,"station_id":"ce4bhah2rcd13ifvqej0","pricing_plan_id":"cebpf4jnsgd1na2vs0mg"},{"bike_id":"bf10b274-a950-4ac1-bf7a-c4163e0490bc","system_id":"levelo_inurba_marseille","lat":43.298681,"lon":5.397225,"is_reserved":false,"is_disabled":false,"rental_uris":{"android":"levelo://app?vid=bf10b274-a950-4ac1-bf7a-c4163e0490bc","ios":"levelo://app?vid=bf10b274-a950-4ac1-bf7a-c4163e0490bc"},"vehicle_type_id":"4","last_reported":1717600072,"current_range_meters":20000,"station_id":"ce4bh0h2rcd13ifvqd50","pricing_plan_id":"cebpf4jnsgd1na2vs0mg"},{"bike_id":"0a7be9e7-65f3-4e93-94b0-f3029ab6996e","system_id":"levelo_inurba_marseille","lat":43.298681,"lon":5.397225,"is_reserved":false,"is_disabled":false,"rental_uris":{"android":"levelo://app?vid=0a7be9e7-65f3-4e93-94b0-f3029ab6996e","ios":"levelo://app?vid=0a7be9e7-65f3-4e93-94b0-f3029ab6996e"},"vehicle_type_id":"4","last_reported":1717600072,"current_range_meters":12000,"station_id":"ce4bh0h2rcd13ifvqd50","pricing_plan_id":"cebpf4jnsgd1na2vs0mg"},{"bike_id":"337fefa2-b98d-4fe4-bcc2-448968c586bc","system_id":"levelo_inurba_marseille","lat":43.298681,"lon":5.397225,"is_reserved":false,"is_disabled":false,"rental_uris":{"android":"levelo://app?vid=337fefa2-b98d-4fe4-bcc2-448968c586bc","ios":"levelo://app?vid=337fefa2-b98d-4fe4-bcc2-448968c586bc"},"vehicle_type_id":"4","last_reported":1717600072,"current_range_meters":17200,"station_id":"ce4bh0h2rcd13ifvqd50","pricing_plan_id":"cebpf4jnsgd1na2vs0mg"},{"bike_id":"e7b5ffba-a550-41d1-9e82-e60d612b42cf","system_id":"levelo_inurba_marseille","lat":43.298681,"lon":5.397225,"is_reserved":false,"is_disabled":false,"rental_uris":{"android":"levelo://app?vid=e7b5ffba-a550-41d1-9e82-e60d612b42cf","ios":"levelo://app?vid=e7b5ffba-a550-41d1-9e82-e60d612b42cf"},"vehicle_type_id":"4","last_reported":1717600072,"current_range_meters":26800,"station_id":"ce4bh0h2rcd13ifvqd50","pricing_plan_id":"cebpf4jnsgd1na2vs0mg"},{"bike_id":"27ae0b46-bf14-4042-b9cb-8437c40b023d","system_id":"levelo_inurba_marseille","lat":43.298681,"lon":5.397225,"is_reserved":false,"is_disabled":false,"rental_uris":{"android":"levelo://app?vid=27ae0b46-bf14-4042-b9cb-8437c40b023d","ios":"levelo://app?vid=27ae0b46-bf14-4042-b9cb-8437c40b023d"},"vehicle_type_id":"4","last_reported":1717600072,"current_range_meters":29600,"station_id":"ce4bh0h2rcd13ifvqd50","pricing_plan_id":"cebpf4jnsgd1na2vs0mg"},{"bike_id":"60debc04-3ee7-4ba8-9d78-c8f04abcb8d0","system_id":"levelo_inurba_marseille","lat":43.298681,"lon":5.397225,"is_reserved":false,"is_disabled":false,"rental_uris":{"android":"levelo://app?vid=60debc04-3ee7-4ba8-9d78-c8f04abcb8d0","ios":"levelo://app?vid=60debc04-3ee7-4ba8-9d78-c8f04abcb8d0"},"vehicle_type_id":"4","last_reported":1717600072,"current_range_meters":4000,"station_id":"ce4bh0h2rcd13ifvqd50","pricing_plan_id":"cebpf4jnsgd1na2vs0mg"},{"bike_id":"cda20d39-61e6-412c-9a68-d1e7b85373ec","system_id":"levelo_inurba_marseille","lat":43.286591,"lon":5.363346,"is_reserved":false,"is_disabled":false,"rental_uris":{"android":"levelo://app?vid=cda20d39-61e6-412c-9a68-d1e7b85373ec","ios":"levelo://app?vid=cda20d39-61e6-412c-9a68-d1e7b85373ec"},"vehicle_type_id":"4","last_reported":1717600072,"current_range_meters":2800,"station_id":"ce4bhah2rcd13ifvqej0","pricing_plan_id":"cebpf4jnsgd1na2vs0mg"},{"bike_id":"ce6e0089-8856-44a6-a317-75b5f11ac67a","system_id":"levelo_inurba_marseille","lat":43.289307,"lon":5.38406,"is_reserved":false,"is_disabled":false,"rental_uris":{"android":"levelo://app?vid=ce6e0089-8856-44a6-a317-75b5f11ac67a","ios":"levelo://app?vid=ce6e0089-8856-44a6-a317-75b5f11ac67a"},"vehicle_type_id":"4","last_reported":1717600072,"current_range_meters":23200,"station_id":"ce4bh612rcd13ifvqe6g","pricing_plan_id":"cebpf4jnsgd1na2vs0mg"},{"bike_id":"71d0fa0b-1b7b-43fe-9783-04a61fef989a","system_id":"levelo_inurba_marseille","lat":43.302759,"lon":5.400793,"is_reserved":false,"is_disabled":false,"rental_uris":{"android":"levelo://app?vid=71d0fa0b-1b7b-43fe-9783-04a61fef989a","ios":"levelo://app?vid=71d0fa0b-1b7b-43fe-9783-04a61fef989a"},"vehicle_type_id":"4","last_reported":1717600072,"current_range_meters":28400,"station_id":"ce4bgvh2rcd13ifvqcs0","pricing_plan_id":"cebpf4jnsgd1na2vs0mg"},{"bike_id":"15b3af1a-c4c4-4ae5-b2c8-198ef9c5028a","system_id":"levelo_inurba_marseille","lat":43.302759,"lon":5.400793,"is_reserved":false,"is_disabled":false,"rental_uris":{"android":"levelo://app?vid=15b3af1a-c4c4-4ae5-b2c8-198ef9c5028a","ios":"levelo://app?vid=15b3af1a-c4c4-4ae5-b2c8-198ef9c5028a"},"vehicle_type_id":"4","last_reported":1717600072,"current_range_meters":31200,"station_id":"ce4bgvh2rcd13ifvqcs0","pricing_plan_id":"cebpf4jnsgd1na2vs0mg"},{"bike_id":"9bf84dd5-0e9b-4572-9d52-7117d291c5f5","system_id":"levelo_inurba_marseille","lat":43.286039,"lon":5.370679,"is_reserved":false,"is_disabled":false,"rental_uris":{"android":"levelo://app?vid=9bf84dd5-0e9b-4572-9d52-7117d291c5f5","ios":"levelo://app?vid=9bf84dd5-0e9b-4572-9d52-7117d291c5f5"},"vehicle_type_id":"4","last_reported":1717600072,"current_range_meters":16000,"station_id":"ce4bht12rcd13ifvqi60","pricing_plan_id":"cebpf4jnsgd1na2vs0mg"},{"bike_id":"cea5f649-0280-48d0-8571-4c11e10dacd4","system_id":"levelo_inurba_marseille","lat":43.286039,"lon":5.370679,"is_reserved":false,"is_disabled":false,"rental_uris":{"android":"levelo://app?vid=cea5f649-0280-48d0-8571-4c11e10dacd4","ios":"levelo://app?vid=cea5f649-0280-48d0-8571-4c11e10dacd4"},"vehicle_type_id":"4","last_reported":1717600072,"current_range_meters":14400,"station_id":"ce4bht12rcd13ifvqi60","pricing_plan_id":"cebpf4jnsgd1na2vs0mg"},{"bike_id":"be97d939-757d-4364-a216-b82f92d188da","system_id":"levelo_inurba_marseille","lat":43.287185,"lon":5.379373,"is_reserved":false,"is_disabled":false,"rental_uris":{"android":"levelo://app?vid=be97d939-757d-4364-a216-b82f92d188da","ios":"levelo://app?vid=be97d939-757d-4364-a216-b82f92d188da"},"vehicle_type_id":"4","last_reported":1717600072,"current_range_meters":24400,"station_id":"ce4bh9p2rcd13ifvqec0","pricing_plan_id":"cebpf4jnsgd1na2vs0mg"},{"bike_id":"678c4b4f-8bd7-4656-a6fd-f98b0b23c215","system_id":"levelo_inurba_marseille","lat":43.287169,"lon":5.379384,"is_reserved":false,"is_disabled":false,"rental_uris":{"android":"levelo://app?vid=678c4b4f-8bd7-4656-a6fd-f98b0b23c215","ios":"levelo://app?vid=678c4b4f-8bd7-4656-a6fd-f98b0b23c215"},"vehicle_type_id":"4","last_reported":1717600072,"current_range_meters":0,"station_id":"ce4bh9p2rcd13ifvqec0","pricing_plan_id":"cebpf4jnsgd1na2vs0mg"},{"bike_id":"5e33e0d3-ab8c-4851-8201-17f5f7f18be1","system_id":"levelo_inurba_marseille","lat":43.316821,"lon":5.404737,"is_reserved":false,"is_disabled":false,"rental_uris":{"android":"levelo://app?vid=5e33e0d3-ab8c-4851-8201-17f5f7f18be1","ios":"levelo://app?vid=5e33e0d3-ab8c-4851-8201-17f5f7f18be1"},"vehicle_type_id":"4","last_reported":1717600072,"current_range_meters":15600,"station_id":"ce4bh012rcd13ifvqd00","pricing_plan_id":"cebpf4jnsgd1na2vs0mg"},{"bike_id":"19d91229-05e7-4e02-ace4-7c7621ecc49c","system_id":"levelo_inurba_marseille","lat":43.312773,"lon":5.40492,"is_reserved":false,"is_disabled":false,"rental_uris":{"android":"levelo://app?vid=19d91229-05e7-4e02-ace4-7c7621ecc49c","ios":"levelo://app?vid=19d91229-05e7-4e02-ace4-7c7621ecc49c"},"vehicle_type_id":"4","last_reported":1717600072,"current_range_meters":6400,"station_id":"","pricing_plan_id":"cebpf4jnsgd1na2vs0mg"},{"bike_id":"ebbe1b0f-1a70-45d5-a850-cacca5bb4fe7","system_id":"levelo_inurba_marseille","lat":43.287495,"lon":5.384773,"is_reserved":false,"is_disabled":false,"rental_uris":{"android":"levelo://app?vid=ebbe1b0f-1a70-45d5-a850-cacca5bb4fe7","ios":"levelo://app?vid=ebbe1b0f-1a70-45d5-a850-cacca5bb4fe7"},"vehicle_type_id":"4","last_reported":1717600072,"current_range_meters":12000,"station_id":"","pricing_plan_id":"cebpf4jnsgd1na2vs0mg"},{"bike_id":"d89741d5-1a47-4294-9636-12229fab547e","system_id":"levelo_inurba_marseille","lat":43.284538,"lon":5.358657,"is_reserved":false,"is_disabled":false,"rental_uris":{"android":"levelo://app?vid=d89741d5-1a47-4294-9636-12229fab547e","ios":"levelo://app?vid=d89741d5-1a47-4294-9636-12229fab547e"},"vehicle_type_id":"4","last_reported":1717600072,"current_range_meters":3200,"station_id":"ce4bhah2rcd13ifvqei0","pricing_plan_id":"cebpf4jnsgd1na2vs0mg"},{"bike_id":"d6f9ae22-02c5-4fc2-8990-6539f85a1ffc","system_id":"levelo_inurba_marseille","lat":43.294314,"lon":5.397498,"is_reserved":false,"is_disabled":false,"rental_uris":{"android":"levelo://app?vid=d6f9ae22-02c5-4fc2-8990-6539f85a1ffc","ios":"levelo://app?vid=d6f9ae22-02c5-4fc2-8990-6539f85a1ffc"},"vehicle_type_id":"4","last_reported":1717600072,"current_range_meters":14000,"station_id":"ce4bh3h2rcd13ifvqdo0","pricing_plan_id":"cebpf4jnsgd1na2vs0mg"},{"bike_id":"28133f36-8d66-49f2-8ade-f89b6558bdcf","system_id":"levelo_inurba_marseille","lat":43.284534,"lon":5.358662,"is_reserved":false,"is_disabled":false,"rental_uris":{"android":"levelo://app?vid=28133f36-8d66-49f2-8ade-f89b6558bdcf","ios":"levelo://app?vid=28133f36-8d66-49f2-8ade-f89b6558bdcf"},"vehicle_type_id":"4","last_reported":1717600072,"current_range_meters":0,"station_id":"ce4bhah2rcd13ifvqei0","pricing_plan_id":"cebpf4jnsgd1na2vs0mg"},{"bike_id":"b110b1db-4de2-49ec-be09-b265374d8525","system_id":"levelo_inurba_marseille","lat":43.2863,"lon":5.351,"is_reserved":false,"is_disabled":false,"rental_uris":{"android":"levelo://app?vid=b110b1db-4de2-49ec-be09-b265374d8525","ios":"levelo://app?vid=b110b1db-4de2-49ec-be09-b265374d8525"},"vehicle_type_id":"4","last_reported":1717600072,"current_range_meters":7200,"station_id":"ce4bhch2rcd13ifvqeug","pricing_plan_id":"cebpf4jnsgd1na2vs0mg"},{"bike_id":"506b1347-35d8-4430-a05d-0c1c2103649d","system_id":"levelo_inurba_marseille","lat":43.28624,"lon":5.35102,"is_reserved":false,"is_disabled":false,"rental_uris":{"android":"levelo://app?vid=506b1347-35d8-4430-a05d-0c1c2103649d","ios":"levelo://app?vid=506b1347-35d8-4430-a05d-0c1c2103649d"},"vehicle_type_id":"4","last_reported":1717600072,"current_range_meters":19600,"station_id":"ce4bhch2rcd13ifvqeug","pricing_plan_id":"cebpf4jnsgd1na2vs0mg"},{"bike_id":"42f5357c-172c-4062-a646-05d0fc0a8c20","system_id":"levelo_inurba_marseille","lat":43.28624,"lon":5.35099,"is_reserved":false,"is_disabled":false,"rental_uris":{"android":"levelo://app?vid=42f5357c-172c-4062-a646-05d0fc0a8c20","ios":"levelo://app?vid=42f5357c-172c-4062-a646-05d0fc0a8c20"},"vehicle_type_id":"4","last_reported":1717600072,"current_range_meters":20400,"station_id":"ce4bhch2rcd13ifvqeug","pricing_plan_id":"cebpf4jnsgd1na2vs0mg"},{"bike_id":"648d1e1b-9393-475d-984d-715691096d1a","system_id":"levelo_inurba_marseille","lat":43.2862,"lon":5.35107,"is_reserved":false,"is_disabled":false,"rental_uris":{"android":"levelo://app?vid=648d1e1b-9393-475d-984d-715691096d1a","ios":"levelo://app?vid=648d1e1b-9393-475d-984d-715691096d1a"},"vehicle_type_id":"4","last_reported":1717600072,"current_range_meters":24000,"station_id":"ce4bhch2rcd13ifvqeug","pricing_plan_id":"cebpf4jnsgd1na2vs0mg"},{"bike_id":"e79c35fe-2724-4983-97b8-40e6ec05c4b4","system_id":"levelo_inurba_marseille","lat":43.28619,"lon":5.3511,"is_reserved":false,"is_disabled":false,"rental_uris":{"android":"levelo://app?vid=e79c35fe-2724-4983-97b8-40e6ec05c4b4","ios":"levelo://app?vid=e79c35fe-2724-4983-97b8-40e6ec05c4b4"},"vehicle_type_id":"4","last_reported":1717600072,"current_range_meters":6000,"station_id":"ce4bhch2rcd13ifvqeug","pricing_plan_id":"cebpf4jnsgd1na2vs0mg"},{"bike_id":"d648e554-11bc-49e8-89a9-1d6e6efcd18a","system_id":"levelo_inurba_marseille","lat":43.28619,"lon":5.35109,"is_reserved":false,"is_disabled":false,"rental_uris":{"android":"levelo://app?vid=d648e554-11bc-49e8-89a9-1d6e6efcd18a","ios":"levelo://app?vid=d648e554-11bc-49e8-89a9-1d6e6efcd18a"},"vehicle_type_id":"4","last_reported":1717600072,"current_range_meters":18800,"station_id":"ce4bhch2rcd13ifvqeug","pricing_plan_id":"cebpf4jnsgd1na2vs0mg"},{"bike_id":"44757c61-2853-4ea0-96a1-fbd6127db2fb","system_id":"levelo_inurba_marseille","lat":43.2862,"lon":5.35105,"is_reserved":false,"is_disabled":false,"rental_uris":{"android":"levelo://app?vid=44757c61-2853-4ea0-96a1-fbd6127db2fb","ios":"levelo://app?vid=44757c61-2853-4ea0-96a1-fbd6127db2fb"},"vehicle_type_id":"4","last_reported":1717600072,"current_range_meters":20400,"station_id":"ce4bhch2rcd13ifvqeug","pricing_plan_id":"cebpf4jnsgd1na2vs0mg"},{"bike_id":"1b9a8585-f198-4e5e-94bb-7de9bffad5f7","system_id":"levelo_inurba_marseille","lat":43.28619,"lon":5.35104,"is_reserved":false,"is_disabled":false,"rental_uris":{"android":"levelo://app?vid=1b9a8585-f198-4e5e-94bb-7de9bffad5f7","ios":"levelo://app?vid=1b9a8585-f198-4e5e-94bb-7de9bffad5f7"},"vehicle_type_id":"4","last_reported":1717600072,"current_range_meters":29600,"station_id":"ce4bhch2rcd13ifvqeug","pricing_plan_id":"cebpf4jnsgd1na2vs0mg"},{"bike_id":"c0104293-3684-48a8-9fe9-78d0304f2203","system_id":"levelo_inurba_marseille","lat":43.28616,"lon":5.35113,"is_reserved":false,"is_disabled":false,"rental_uris":{"android":"levelo://app?vid=c0104293-3684-48a8-9fe9-78d0304f2203","ios":"levelo://app?vid=c0104293-3684-48a8-9fe9-78d0304f2203"},"vehicle_type_id":"4","last_reported":1717600072,"current_range_meters":30800,"station_id":"ce4bhch2rcd13ifvqeug","pricing_plan_id":"cebpf4jnsgd1na2vs0mg"},{"bike_id":"58a0a307-2799-48ed-85b7-efd8d8d6499e","system_id":"levelo_inurba_marseille","lat":43.28618,"lon":5.35105,"is_reserved":false,"is_disabled":false,"rental_uris":{"android":"levelo://app?vid=58a0a307-2799-48ed-85b7-efd8d8d6499e","ios":"levelo://app?vid=58a0a307-2799-48ed-85b7-efd8d8d6499e"},"vehicle_type_id":"4","last_reported":1717600072,"current_range_meters":31200,"station_id":"ce4bhch2rcd13ifvqeug","pricing_plan_id":"cebpf4jnsgd1na2vs0mg"},{"bike_id":"d7f6bcac-64dd-4987-8b92-3b93881bb644","system_id":"levelo_inurba_marseille","lat":43.28618,"lon":5.351036,"is_reserved":false,"is_disabled":false,"rental_uris":{"android":"levelo://app?vid=d7f6bcac-64dd-4987-8b92-3b93881bb644","ios":"levelo://app?vid=d7f6bcac-64dd-4987-8b92-3b93881bb644"},"vehicle_type_id":"4","last_reported":1717600072,"current_range_meters":6800,"station_id":"ce4bhch2rcd13ifvqeug","pricing_plan_id":"cebpf4jnsgd1na2vs0mg"},{"bike_id":"6cd294bc-009e-4000-a098-7a1d276dd0b0","system_id":"levelo_inurba_marseille","lat":43.28619,"lon":5.351,"is_reserved":false,"is_disabled":false,"rental_uris":{"android":"levelo://app?vid=6cd294bc-009e-4000-a098-7a1d276dd0b0","ios":"levelo://app?vid=6cd294bc-009e-4000-a098-7a1d276dd0b0"},"vehicle_type_id":"4","last_reported":1717600072,"current_range_meters":10800,"station_id":"ce4bhch2rcd13ifvqeug","pricing_plan_id":"cebpf4jnsgd1na2vs0mg"},{"bike_id":"95d23276-c7cc-4d4e-8d8a-f0eb60f815a4","system_id":"levelo_inurba_marseille","lat":43.28618,"lon":5.35102,"is_reserved":false,"is_disabled":false,"rental_uris":{"android":"levelo://app?vid=95d23276-c7cc-4d4e-8d8a-f0eb60f815a4","ios":"levelo://app?vid=95d23276-c7cc-4d4e-8d8a-f0eb60f815a4"},"vehicle_type_id":"4","last_reported":1717600072,"current_range_meters":25600,"station_id":"ce4bhch2rcd13ifvqeug","pricing_plan_id":"cebpf4jnsgd1na2vs0mg"},{"bike_id":"2d30db32-954a-4e9a-b343-de588a868395","system_id":"levelo_inurba_marseille","lat":43.28617,"lon":5.35105,"is_reserved":false,"is_disabled":false,"rental_uris":{"android":"levelo://app?vid=2d30db32-954a-4e9a-b343-de588a868395","ios":"levelo://app?vid=2d30db32-954a-4e9a-b343-de588a868395"},"vehicle_type_id":"4","last_reported":1717600072,"current_range_meters":800,"station_id":"ce4bhch2rcd13ifvqeug","pricing_plan_id":"cebpf4jnsgd1na2vs0mg"},{"bike_id":"1dabb859-3f93-4cc1-b1ba-b271fee8ac98","system_id":"levelo_inurba_marseille","lat":43.28615,"lon":5.3511,"is_reserved":false,"is_disabled":false,"rental_uris":{"android":"levelo://app?vid=1dabb859-3f93-4cc1-b1ba-b271fee8ac98","ios":"levelo://app?vid=1dabb859-3f93-4cc1-b1ba-b271fee8ac98"},"vehicle_type_id":"4","last_reported":1717600072,"current_range_meters":13200,"station_id":"ce4bhch2rcd13ifvqeug","pricing_plan_id":"cebpf4jnsgd1na2vs0mg"},{"bike_id":"f8275d0d-0034-4e39-ac18-5767b6c19ef3","system_id":"levelo_inurba_marseille","lat":43.28617,"lon":5.35103,"is_reserved":false,"is_disabled":false,"rental_uris":{"android":"levelo://app?vid=f8275d0d-0034-4e39-ac18-5767b6c19ef3","ios":"levelo://app?vid=f8275d0d-0034-4e39-ac18-5767b6c19ef3"},"vehicle_type_id":"4","last_reported":1717600072,"current_range_meters":6000,"station_id":"ce4bhch2rcd13ifvqeug","pricing_plan_id":"cebpf4jnsgd1na2vs0mg"},{"bike_id":"91a9c4c7-670f-458a-8cb3-6177bec35519","system_id":"levelo_inurba_marseille","lat":43.286119,"lon":5.351121,"is_reserved":false,"is_disabled":false,"rental_uris":{"android":"levelo://app?vid=91a9c4c7-670f-458a-8cb3-6177bec35519","ios":"levelo://app?vid=91a9c4c7-670f-458a-8cb3-6177bec35519"},"vehicle_type_id":"4","last_reported":1717600072,"current_range_meters":7600,"station_id":"ce4bhch2rcd13ifvqeug","pricing_plan_id":"cebpf4jnsgd1na2vs0mg"},{"bike_id":"b6d6bf09-3e0d-4487-ad32-7bd6caddc5c8","system_id":"levelo_inurba_marseille","lat":43.285848,"lon":5.350787,"is_reserved":false,"is_disabled":false,"rental_uris":{"android":"levelo://app?vid=b6d6bf09-3e0d-4487-ad32-7bd6caddc5c8","ios":"levelo://app?vid=b6d6bf09-3e0d-4487-ad32-7bd6caddc5c8"},"vehicle_type_id":"4","last_reported":1717600072,"current_range_meters":12400,"station_id":"ce4bhch2rcd13ifvqeug","pricing_plan_id":"cebpf4jnsgd1na2vs0mg"},{"bike_id":"13601edb-f8cf-4d04-b3e7-1563d0eeecfd","system_id":"levelo_inurba_marseille","lat":43.28614,"lon":5.35098,"is_reserved":false,"is_disabled":false,"rental_uris":{"android":"levelo://app?vid=13601edb-f8cf-4d04-b3e7-1563d0eeecfd","ios":"levelo://app?vid=13601edb-f8cf-4d04-b3e7-1563d0eeecfd"},"vehicle_type_id":"4","last_reported":1717600072,"current_range_meters":26400,"station_id":"ce4bhch2rcd13ifvqeug","pricing_plan_id":"cebpf4jnsgd1na2vs0mg"},{"bike_id":"c03842e5-1a9b-43ce-8fc4-aabbe61937eb","system_id":"levelo_inurba_marseille","lat":43.28612,"lon":5.35104,"is_reserved":false,"is_disabled":false,"rental_uris":{"android":"levelo://app?vid=c03842e5-1a9b-43ce-8fc4-aabbe61937eb","ios":"levelo://app?vid=c03842e5-1a9b-43ce-8fc4-aabbe61937eb"},"vehicle_type_id":"4","last_reported":1717600072,"current_range_meters":0,"station_id":"ce4bhch2rcd13ifvqeug","pricing_plan_id":"cebpf4jnsgd1na2vs0mg"},{"bike_id":"31014096-db83-48aa-8c47-b60602722005","system_id":"levelo_inurba_marseille","lat":43.28613,"lon":5.351,"is_reserved":false,"is_disabled":false,"rental_uris":{"android":"levelo://app?vid=31014096-db83-48aa-8c47-b60602722005","ios":"levelo://app?vid=31014096-db83-48aa-8c47-b60602722005"},"vehicle_type_id":"4","last_reported":1717600072,"current_range_meters":6800,"station_id":"ce4bhch2rcd13ifvqeug","pricing_plan_id":"cebpf4jnsgd1na2vs0mg"},{"bike_id":"ed96af69-ebff-48d0-9dbe-9f33325a9d35","system_id":"levelo_inurba_marseille","lat":43.28613,"lon":5.35098,"is_reserved":false,"is_disabled":false,"rental_uris":{"android":"levelo://app?vid=ed96af69-ebff-48d0-9dbe-9f33325a9d35","ios":"levelo://app?vid=ed96af69-ebff-48d0-9dbe-9f33325a9d35"},"vehicle_type_id":"4","last_reported":1717600072,"current_range_meters":20400,"station_id":"ce4bhch2rcd13ifvqeug","pricing_plan_id":"cebpf4jnsgd1na2vs0mg"},{"bike_id":"1cfbd49b-ca0c-4474-b272-62b822c3b907","system_id":"levelo_inurba_marseille","lat":43.28612,"lon":5.35098,"is_reserved":false,"is_disabled":false,"rental_uris":{"android":"levelo://app?vid=1cfbd49b-ca0c-4474-b272-62b822c3b907","ios":"levelo://app?vid=1cfbd49b-ca0c-4474-b272-62b822c3b907"},"vehicle_type_id":"4","last_reported":1717600072,"current_range_meters":1600,"station_id":"ce4bhch2rcd13ifvqeug","pricing_plan_id":"cebpf4jnsgd1na2vs0mg"},{"bike_id":"1e210cc5-fae9-48ef-900e-f96be2fc6126","system_id":"levelo_inurba_marseille","lat":43.295713,"lon":5.399639,"is_reserved":false,"is_disabled":false,"rental_uris":{"android":"levelo://app?vid=1e210cc5-fae9-48ef-900e-f96be2fc6126","ios":"levelo://app?vid=1e210cc5-fae9-48ef-900e-f96be2fc6126"},"vehicle_type_id":"4","last_reported":1717600072,"current_range_meters":2800,"station_id":"ce4bh312rcd13ifvqdj0","pricing_plan_id":"cebpf4jnsgd1na2vs0mg"},{"bike_id":"a3e78f59-53ba-4c9a-95d4-fa8be317a6ee","system_id":"levelo_inurba_marseille","lat":43.295713,"lon":5.399639,"is_reserved":false,"is_disabled":false,"rental_uris":{"android":"levelo://app?vid=a3e78f59-53ba-4c9a-95d4-fa8be317a6ee","ios":"levelo://app?vid=a3e78f59-53ba-4c9a-95d4-fa8be317a6ee"},"vehicle_type_id":"4","last_reported":1717600072,"current_range_meters":1200,"station_id":"ce4bh312rcd13ifvqdj0","pricing_plan_id":"cebpf4jnsgd1na2vs0mg"},{"bike_id":"3c74c2c6-4573-4df1-8fa5-3c458385990a","system_id":"levelo_inurba_marseille","lat":43.286595,"lon":5.386795,"is_reserved":false,"is_disabled":false,"rental_uris":{"android":"levelo://app?vid=3c74c2c6-4573-4df1-8fa5-3c458385990a","ios":"levelo://app?vid=3c74c2c6-4573-4df1-8fa5-3c458385990a"},"vehicle_type_id":"4","last_reported":1717600072,"current_range_meters":0,"station_id":"ce4bh492rcd13ifvqdug","pricing_plan_id":"cebpf4jnsgd1na2vs0mg"},{"bike_id":"4b1355f6-ebe5-4bd5-bc9b-b4af726328d1","system_id":"levelo_inurba_marseille","lat":43.284793,"lon":5.384119,"is_reserved":false,"is_disabled":false,"rental_uris":{"android":"levelo://app?vid=4b1355f6-ebe5-4bd5-bc9b-b4af726328d1","ios":"levelo://app?vid=4b1355f6-ebe5-4bd5-bc9b-b4af726328d1"},"vehicle_type_id":"4","last_reported":1717600072,"current_range_meters":17600,"station_id":"ce4bh512rcd13ifvqe3g","pricing_plan_id":"cebpf4jnsgd1na2vs0mg"},{"bike_id":"6c55c3be-c99e-4ca3-bddb-219b92001164","system_id":"levelo_inurba_marseille","lat":43.296263,"lon":5.40601,"is_reserved":false,"is_disabled":false,"rental_uris":{"android":"levelo://app?vid=6c55c3be-c99e-4ca3-bddb-219b92001164","ios":"levelo://app?vid=6c55c3be-c99e-4ca3-bddb-219b92001164"},"vehicle_type_id":"4","last_reported":1717600072,"current_range_meters":2000,"station_id":"ce4bh0h2rcd13ifvqd60","pricing_plan_id":"cebpf4jnsgd1na2vs0mg"},{"bike_id":"3d60be17-1964-461e-8592-372ccbf3843b","system_id":"levelo_inurba_marseille","lat":43.286595,"lon":5.386795,"is_reserved":false,"is_disabled":false,"rental_uris":{"android":"levelo://app?vid=3d60be17-1964-461e-8592-372ccbf3843b","ios":"levelo://app?vid=3d60be17-1964-461e-8592-372ccbf3843b"},"vehicle_type_id":"4","last_reported":1717600072,"current_range_meters":800,"station_id":"ce4bh492rcd13ifvqdug","pricing_plan_id":"cebpf4jnsgd1na2vs0mg"},{"bike_id":"93bf9cd1-4c58-4625-a6bd-f262e27a8c18","system_id":"levelo_inurba_marseille","lat":43.318517,"lon":5.407045,"is_reserved":false,"is_disabled":false,"rental_uris":{"android":"levelo://app?vid=93bf9cd1-4c58-4625-a6bd-f262e27a8c18","ios":"levelo://app?vid=93bf9cd1-4c58-4625-a6bd-f262e27a8c18"},"vehicle_type_id":"4","last_reported":1717600072,"current_range_meters":0,"station_id":"ce4bhq12rcd13ifvqhig","pricing_plan_id":"cebpf4jnsgd1na2vs0mg"},{"bike_id":"02f0daa8-67ca-485a-bf54-5490be613080","system_id":"levelo_inurba_marseille","lat":43.319179,"lon":5.407725,"is_reserved":false,"is_disabled":false,"rental_uris":{"android":"levelo://app?vid=02f0daa8-67ca-485a-bf54-5490be613080","ios":"levelo://app?vid=02f0daa8-67ca-485a-bf54-5490be613080"},"vehicle_type_id":"4","last_reported":1717600072,"current_range_meters":10400,"station_id":"ce4bhq12rcd13ifvqhig","pricing_plan_id":"cebpf4jnsgd1na2vs0mg"},{"bike_id":"cd96529c-9689-470c-83be-3698ab582134","system_id":"levelo_inurba_marseille","lat":43.323521,"lon":5.405923,"is_reserved":false,"is_disabled":false,"rental_uris":{"android":"levelo://app?vid=cd96529c-9689-470c-83be-3698ab582134","ios":"levelo://app?vid=cd96529c-9689-470c-83be-3698ab582134"},"vehicle_type_id":"4","last_reported":1717600072,"current_range_meters":0,"station_id":"ce4bhq92rcd13ifvqhjg","pricing_plan_id":"cebpf4jnsgd1na2vs0mg"},{"bike_id":"f355fc72-e7fd-48a1-9530-fdc71f8237ae","system_id":"levelo_inurba_marseille","lat":43.32338,"lon":5.40623,"is_reserved":false,"is_disabled":false,"rental_uris":{"android":"levelo://app?vid=f355fc72-e7fd-48a1-9530-fdc71f8237ae","ios":"levelo://app?vid=f355fc72-e7fd-48a1-9530-fdc71f8237ae"},"vehicle_type_id":"4","last_reported":1717600072,"current_range_meters":10800,"station_id":"ce4bhq92rcd13ifvqhjg","pricing_plan_id":"cebpf4jnsgd1na2vs0mg"},{"bike_id":"dc76c81d-3727-4066-ae4d-a4a1d20fe90f","system_id":"levelo_inurba_marseille","lat":43.284848,"lon":5.384081,"is_reserved":false,"is_disabled":false,"rental_uris":{"android":"levelo://app?vid=dc76c81d-3727-4066-ae4d-a4a1d20fe90f","ios":"levelo://app?vid=dc76c81d-3727-4066-ae4d-a4a1d20fe90f"},"vehicle_type_id":"4","last_reported":1717600072,"current_range_meters":6800,"station_id":"ce4bh512rcd13ifvqe3g","pricing_plan_id":"cebpf4jnsgd1na2vs0mg"},{"bike_id":"31a40b9e-768f-45ba-bd03-a7537a62d404","system_id":"levelo_inurba_marseille","lat":43.284718,"lon":5.350079,"is_reserved":false,"is_disabled":false,"rental_uris":{"android":"levelo://app?vid=31a40b9e-768f-45ba-bd03-a7537a62d404","ios":"levelo://app?vid=31a40b9e-768f-45ba-bd03-a7537a62d404"},"vehicle_type_id":"4","last_reported":1717600072,"current_range_meters":11600,"station_id":"ce4bhbh2rcd13ifvqepg","pricing_plan_id":"cebpf4jnsgd1na2vs0mg"},{"bike_id":"272a7c19-cae5-4a89-8074-80135eb32135","system_id":"levelo_inurba_marseille","lat":43.284787,"lon":5.384116,"is_reserved":false,"is_disabled":false,"rental_uris":{"android":"levelo://app?vid=272a7c19-cae5-4a89-8074-80135eb32135","ios":"levelo://app?vid=272a7c19-cae5-4a89-8074-80135eb32135"},"vehicle_type_id":"4","last_reported":1717600072,"current_range_meters":0,"station_id":"ce4bh512rcd13ifvqe3g","pricing_plan_id":"cebpf4jnsgd1na2vs0mg"},{"bike_id":"f5c00df6-fa70-412b-b901-267065b1747a","system_id":"levelo_inurba_marseille","lat":43.297946,"lon":5.404063,"is_reserved":false,"is_disabled":false,"rental_uris":{"android":"levelo://app?vid=f5c00df6-fa70-412b-b901-267065b1747a","ios":"levelo://app?vid=f5c00df6-fa70-412b-b901-267065b1747a"},"vehicle_type_id":"4","last_reported":1717600072,"current_range_meters":22400,"station_id":"ce4bh112rcd13ifvqd90","pricing_plan_id":"cebpf4jnsgd1na2vs0mg"},{"bike_id":"fd104d94-5b3a-4e99-85bf-6f30314e4051","system_id":"levelo_inurba_marseille","lat":43.29795,"lon":5.404086,"is_reserved":false,"is_disabled":false,"rental_uris":{"android":"levelo://app?vid=fd104d94-5b3a-4e99-85bf-6f30314e4051","ios":"levelo://app?vid=fd104d94-5b3a-4e99-85bf-6f30314e4051"},"vehicle_type_id":"4","last_reported":1717600072,"current_range_meters":24400,"station_id":"ce4bh112rcd13ifvqd90","pricing_plan_id":"cebpf4jnsgd1na2vs0mg"},{"bike_id":"e847b231-a881-4b00-ad35-6889deecfcbb","system_id":"levelo_inurba_marseille","lat":43.284432,"lon":5.350029,"is_reserved":false,"is_disabled":false,"rental_uris":{"android":"levelo://app?vid=e847b231-a881-4b00-ad35-6889deecfcbb","ios":"levelo://app?vid=e847b231-a881-4b00-ad35-6889deecfcbb"},"vehicle_type_id":"4","last_reported":1717600072,"current_range_meters":0,"station_id":"ce4bhbh2rcd13ifvqepg","pricing_plan_id":"cebpf4jnsgd1na2vs0mg"},{"bike_id":"ed2b1234-2a86-4be6-9c2c-31b7c1fe3ebb","system_id":"levelo_inurba_marseille","lat":43.284414,"lon":5.349873,"is_reserved":false,"is_disabled":false,"rental_uris":{"android":"levelo://app?vid=ed2b1234-2a86-4be6-9c2c-31b7c1fe3ebb","ios":"levelo://app?vid=ed2b1234-2a86-4be6-9c2c-31b7c1fe3ebb"},"vehicle_type_id":"4","last_reported":1717600072,"current_range_meters":7600,"station_id":"ce4bhbh2rcd13ifvqepg","pricing_plan_id":"cebpf4jnsgd1na2vs0mg"},{"bike_id":"90ba74c0-c2e1-4866-8ab7-faa3a2bc701a","system_id":"levelo_inurba_marseille","lat":43.275625,"lon":5.384392,"is_reserved":false,"is_disabled":false,"rental_uris":{"android":"levelo://app?vid=90ba74c0-c2e1-4866-8ab7-faa3a2bc701a","ios":"levelo://app?vid=90ba74c0-c2e1-4866-8ab7-faa3a2bc701a"},"vehicle_type_id":"4","last_reported":1717600072,"current_range_meters":0,"station_id":"ce4bhh92rcd13ifvqfi0","pricing_plan_id":"cebpf4jnsgd1na2vs0mg"},{"bike_id":"2b468ffd-0a76-4e6c-b75c-be758de2392e","system_id":"levelo_inurba_marseille","lat":43.28432,"lon":5.34986,"is_reserved":false,"is_disabled":false,"rental_uris":{"android":"levelo://app?vid=2b468ffd-0a76-4e6c-b75c-be758de2392e","ios":"levelo://app?vid=2b468ffd-0a76-4e6c-b75c-be758de2392e"},"vehicle_type_id":"4","last_reported":1717600072,"current_range_meters":31200,"station_id":"ce4bhbh2rcd13ifvqepg","pricing_plan_id":"cebpf4jnsgd1na2vs0mg"},{"bike_id":"98c012b4-ddf7-4775-bac4-bdeb65ebd893","system_id":"levelo_inurba_marseille","lat":43.284321,"lon":5.349824,"is_reserved":false,"is_disabled":false,"rental_uris":{"android":"levelo://app?vid=98c012b4-ddf7-4775-bac4-bdeb65ebd893","ios":"levelo://app?vid=98c012b4-ddf7-4775-bac4-bdeb65ebd893"},"vehicle_type_id":"4","last_reported":1717600072,"current_range_meters":27200,"station_id":"ce4bhbh2rcd13ifvqepg","pricing_plan_id":"cebpf4jnsgd1na2vs0mg"},{"bike_id":"1019f494-e19d-4281-b240-187d3115dab5","system_id":"levelo_inurba_marseille","lat":43.284293,"lon":5.349905,"is_reserved":false,"is_disabled":false,"rental_uris":{"android":"levelo://app?vid=1019f494-e19d-4281-b240-187d3115dab5","ios":"levelo://app?vid=1019f494-e19d-4281-b240-187d3115dab5"},"vehicle_type_id":"4","last_reported":1717600072,"current_range_meters":6800,"station_id":"ce4bhbh2rcd13ifvqepg","pricing_plan_id":"cebpf4jnsgd1na2vs0mg"},{"bike_id":"2d76bb1e-efbc-444a-a26f-afe498f75be9","system_id":"levelo_inurba_marseille","lat":43.2843,"lon":5.34988,"is_reserved":false,"is_disabled":false,"rental_uris":{"android":"levelo://app?vid=2d76bb1e-efbc-444a-a26f-afe498f75be9","ios":"levelo://app?vid=2d76bb1e-efbc-444a-a26f-afe498f75be9"},"vehicle_type_id":"4","last_reported":1717600072,"current_range_meters":16800,"station_id":"ce4bhbh2rcd13ifvqepg","pricing_plan_id":"cebpf4jnsgd1na2vs0mg"},{"bike_id":"e86aaffa-82c2-4691-9dbb-7f5d9069bb8b","system_id":"levelo_inurba_marseille","lat":43.28428,"lon":5.349884,"is_reserved":false,"is_disabled":false,"rental_uris":{"android":"levelo://app?vid=e86aaffa-82c2-4691-9dbb-7f5d9069bb8b","ios":"levelo://app?vid=e86aaffa-82c2-4691-9dbb-7f5d9069bb8b"},"vehicle_type_id":"4","last_reported":1717600072,"current_range_meters":10800,"station_id":"ce4bhbh2rcd13ifvqepg","pricing_plan_id":"cebpf4jnsgd1na2vs0mg"},{"bike_id":"3d8fcaf8-1ef8-4f28-84d4-7098d0b0d4e6","system_id":"levelo_inurba_marseille","lat":43.28429,"lon":5.34983,"is_reserved":false,"is_disabled":false,"rental_uris":{"android":"levelo://app?vid=3d8fcaf8-1ef8-4f28-84d4-7098d0b0d4e6","ios":"levelo://app?vid=3d8fcaf8-1ef8-4f28-84d4-7098d0b0d4e6"},"vehicle_type_id":"4","last_reported":1717600072,"current_range_meters":1600,"station_id":"ce4bhbh2rcd13ifvqepg","pricing_plan_id":"cebpf4jnsgd1na2vs0mg"},{"bike_id":"345787fc-8700-4187-b0d6-55a2c1ab8a28","system_id":"levelo_inurba_marseille","lat":43.283498,"lon":5.380948,"is_reserved":false,"is_disabled":false,"rental_uris":{"android":"levelo://app?vid=345787fc-8700-4187-b0d6-55a2c1ab8a28","ios":"levelo://app?vid=345787fc-8700-4187-b0d6-55a2c1ab8a28"},"vehicle_type_id":"4","last_reported":1717600072,"current_range_meters":6400,"station_id":"ce4bh412rcd13ifvqdr0","pricing_plan_id":"cebpf4jnsgd1na2vs0mg"},{"bike_id":"97a4434e-d9db-4996-82b3-5b18b1549d02","system_id":"levelo_inurba_marseille","lat":43.284217,"lon":5.349697,"is_reserved":false,"is_disabled":false,"rental_uris":{"android":"levelo://app?vid=97a4434e-d9db-4996-82b3-5b18b1549d02","ios":"levelo://app?vid=97a4434e-d9db-4996-82b3-5b18b1549d02"},"vehicle_type_id":"4","last_reported":1717600072,"current_range_meters":13200,"station_id":"ce4bhbh2rcd13ifvqepg","pricing_plan_id":"cebpf4jnsgd1na2vs0mg"},{"bike_id":"b57892b9-3728-460c-8085-21784eaac56c","system_id":"levelo_inurba_marseille","lat":43.284251,"lon":5.349902,"is_reserved":false,"is_disabled":false,"rental_uris":{"android":"levelo://app?vid=b57892b9-3728-460c-8085-21784eaac56c","ios":"levelo://app?vid=b57892b9-3728-460c-8085-21784eaac56c"},"vehicle_type_id":"4","last_reported":1717600072,"current_range_meters":800,"station_id":"ce4bhbh2rcd13ifvqepg","pricing_plan_id":"cebpf4jnsgd1na2vs0mg"},{"bike_id":"e58f1080-54db-4de8-9fed-b11e43e6555d","system_id":"levelo_inurba_marseille","lat":43.28428,"lon":5.34981,"is_reserved":false,"is_disabled":false,"rental_uris":{"android":"levelo://app?vid=e58f1080-54db-4de8-9fed-b11e43e6555d","ios":"levelo://app?vid=e58f1080-54db-4de8-9fed-b11e43e6555d"},"vehicle_type_id":"4","last_reported":1717600072,"current_range_meters":31200,"station_id":"ce4bhbh2rcd13ifvqepg","pricing_plan_id":"cebpf4jnsgd1na2vs0mg"},{"bike_id":"469ed30c-5048-4d6d-b23d-b5fea42cf9d4","system_id":"levelo_inurba_marseille","lat":43.284249,"lon":5.349887,"is_reserved":false,"is_disabled":false,"rental_uris":{"android":"levelo://app?vid=469ed30c-5048-4d6d-b23d-b5fea42cf9d4","ios":"levelo://app?vid=469ed30c-5048-4d6d-b23d-b5fea42cf9d4"},"vehicle_type_id":"4","last_reported":1717600072,"current_range_meters":23600,"station_id":"ce4bhbh2rcd13ifvqepg","pricing_plan_id":"cebpf4jnsgd1na2vs0mg"},{"bike_id":"ffe64993-b8a2-4dee-91a1-08c630a5f02e","system_id":"levelo_inurba_marseille","lat":43.28426,"lon":5.34985,"is_reserved":false,"is_disabled":false,"rental_uris":{"android":"levelo://app?vid=ffe64993-b8a2-4dee-91a1-08c630a5f02e","ios":"levelo://app?vid=ffe64993-b8a2-4dee-91a1-08c630a5f02e"},"vehicle_type_id":"4","last_reported":1717600072,"current_range_meters":30800,"station_id":"ce4bhbh2rcd13ifvqepg","pricing_plan_id":"cebpf4jnsgd1na2vs0mg"},{"bike_id":"ef8d3d77-d799-482c-b4b5-2212172044b2","system_id":"levelo_inurba_marseille","lat":43.284269,"lon":5.349817,"is_reserved":false,"is_disabled":false,"rental_uris":{"android":"levelo://app?vid=ef8d3d77-d799-482c-b4b5-2212172044b2","ios":"levelo://app?vid=ef8d3d77-d799-482c-b4b5-2212172044b2"},"vehicle_type_id":"4","last_reported":1717600072,"current_range_meters":15600,"station_id":"ce4bhbh2rcd13ifvqepg","pricing_plan_id":"cebpf4jnsgd1na2vs0mg"},{"bike_id":"41354743-025d-4014-a162-89cb692d443e","system_id":"levelo_inurba_marseille","lat":43.28426,"lon":5.34984,"is_reserved":false,"is_disabled":false,"rental_uris":{"android":"levelo://app?vid=41354743-025d-4014-a162-89cb692d443e","ios":"levelo://app?vid=41354743-025d-4014-a162-89cb692d443e"},"vehicle_type_id":"4","last_reported":1717600072,"current_range_meters":13200,"station_id":"ce4bhbh2rcd13ifvqepg","pricing_plan_id":"cebpf4jnsgd1na2vs0mg"},{"bike_id":"26c822a0-ba2f-4687-8a15-2f750130e80f","system_id":"levelo_inurba_marseille","lat":43.284217,"lon":5.349697,"is_reserved":false,"is_disabled":false,"rental_uris":{"android":"levelo://app?vid=26c822a0-ba2f-4687-8a15-2f750130e80f","ios":"levelo://app?vid=26c822a0-ba2f-4687-8a15-2f750130e80f"},"vehicle_type_id":"4","last_reported":1717600072,"current_range_meters":8000,"station_id":"ce4bhbh2rcd13ifvqepg","pricing_plan_id":"cebpf4jnsgd1na2vs0mg"},{"bike_id":"e04cdb58-fc30-4e0e-9a31-6bf9eaa6e9ce","system_id":"levelo_inurba_marseille","lat":43.284217,"lon":5.349697,"is_reserved":false,"is_disabled":false,"rental_uris":{"android":"levelo://app?vid=e04cdb58-fc30-4e0e-9a31-6bf9eaa6e9ce","ios":"levelo://app?vid=e04cdb58-fc30-4e0e-9a31-6bf9eaa6e9ce"},"vehicle_type_id":"4","last_reported":1717600072,"current_range_meters":8800,"station_id":"ce4bhbh2rcd13ifvqepg","pricing_plan_id":"cebpf4jnsgd1na2vs0mg"},{"bike_id":"bab4a312-35b8-41aa-9fc9-75304fde5e11","system_id":"levelo_inurba_marseille","lat":43.28423,"lon":5.34992,"is_reserved":false,"is_disabled":false,"rental_uris":{"android":"levelo://app?vid=bab4a312-35b8-41aa-9fc9-75304fde5e11","ios":"levelo://app?vid=bab4a312-35b8-41aa-9fc9-75304fde5e11"},"vehicle_type_id":"4","last_reported":1717600072,"current_range_meters":12000,"station_id":"ce4bhbh2rcd13ifvqepg","pricing_plan_id":"cebpf4jnsgd1na2vs0mg"},{"bike_id":"b3d0f628-9e81-43a4-8353-0171de140c07","system_id":"levelo_inurba_marseille","lat":43.28425,"lon":5.34982,"is_reserved":false,"is_disabled":false,"rental_uris":{"android":"levelo://app?vid=b3d0f628-9e81-43a4-8353-0171de140c07","ios":"levelo://app?vid=b3d0f628-9e81-43a4-8353-0171de140c07"},"vehicle_type_id":"4","last_reported":1717600072,"current_range_meters":10800,"station_id":"ce4bhbh2rcd13ifvqepg","pricing_plan_id":"cebpf4jnsgd1na2vs0mg"},{"bike_id":"204a0a05-99de-43ef-9899-5ff9d096960a","system_id":"levelo_inurba_marseille","lat":43.28424,"lon":5.34983,"is_reserved":false,"is_disabled":false,"rental_uris":{"android":"levelo://app?vid=204a0a05-99de-43ef-9899-5ff9d096960a","ios":"levelo://app?vid=204a0a05-99de-43ef-9899-5ff9d096960a"},"vehicle_type_id":"4","last_reported":1717600072,"current_range_meters":24800,"station_id":"ce4bhbh2rcd13ifvqepg","pricing_plan_id":"cebpf4jnsgd1na2vs0mg"},{"bike_id":"2da111f8-7dce-4134-9ee1-35d59ed1bc94","system_id":"levelo_inurba_marseille","lat":43.284222,"lon":5.349886,"is_reserved":false,"is_disabled":false,"rental_uris":{"android":"levelo://app?vid=2da111f8-7dce-4134-9ee1-35d59ed1bc94","ios":"levelo://app?vid=2da111f8-7dce-4134-9ee1-35d59ed1bc94"},"vehicle_type_id":"4","last_reported":1717600072,"current_range_meters":17600,"station_id":"ce4bhbh2rcd13ifvqepg","pricing_plan_id":"cebpf4jnsgd1na2vs0mg"},{"bike_id":"103e2df7-28fb-4361-a691-f3370a1dbc90","system_id":"levelo_inurba_marseille","lat":43.284258,"lon":5.349762,"is_reserved":false,"is_disabled":false,"rental_uris":{"android":"levelo://app?vid=103e2df7-28fb-4361-a691-f3370a1dbc90","ios":"levelo://app?vid=103e2df7-28fb-4361-a691-f3370a1dbc90"},"vehicle_type_id":"4","last_reported":1717600072,"current_range_meters":31200,"station_id":"ce4bhbh2rcd13ifvqepg","pricing_plan_id":"cebpf4jnsgd1na2vs0mg"},{"bike_id":"d85d855a-8eaa-4588-a9be-20a623ad7032","system_id":"levelo_inurba_marseille","lat":43.28421,"lon":5.34991,"is_reserved":false,"is_disabled":false,"rental_uris":{"android":"levelo://app?vid=d85d855a-8eaa-4588-a9be-20a623ad7032","ios":"levelo://app?vid=d85d855a-8eaa-4588-a9be-20a623ad7032"},"vehicle_type_id":"4","last_reported":1717600072,"current_range_meters":6400,"station_id":"ce4bhbh2rcd13ifvqepg","pricing_plan_id":"cebpf4jnsgd1na2vs0mg"},{"bike_id":"f7c711aa-31b1-4c98-be96-bbb8692224cb","system_id":"levelo_inurba_marseille","lat":43.284216,"lon":5.349889,"is_reserved":false,"is_disabled":false,"rental_uris":{"android":"levelo://app?vid=f7c711aa-31b1-4c98-be96-bbb8692224cb","ios":"levelo://app?vid=f7c711aa-31b1-4c98-be96-bbb8692224cb"},"vehicle_type_id":"4","last_reported":1717600072,"current_range_meters":20800,"station_id":"ce4bhbh2rcd13ifvqepg","pricing_plan_id":"cebpf4jnsgd1na2vs0mg"},{"bike_id":"0210c3e1-34be-431d-b20a-38b1f810887f","system_id":"levelo_inurba_marseille","lat":43.284254,"lon":5.349765,"is_reserved":false,"is_disabled":false,"rental_uris":{"android":"levelo://app?vid=0210c3e1-34be-431d-b20a-38b1f810887f","ios":"levelo://app?vid=0210c3e1-34be-431d-b20a-38b1f810887f"},"vehicle_type_id":"4","last_reported":1717600072,"current_range_meters":17200,"station_id":"ce4bhbh2rcd13ifvqepg","pricing_plan_id":"cebpf4jnsgd1na2vs0mg"},{"bike_id":"984649cc-5d17-4fe4-b7e4-479a2522bd30","system_id":"levelo_inurba_marseille","lat":43.28421,"lon":5.3499,"is_reserved":false,"is_disabled":false,"rental_uris":{"android":"levelo://app?vid=984649cc-5d17-4fe4-b7e4-479a2522bd30","ios":"levelo://app?vid=984649cc-5d17-4fe4-b7e4-479a2522bd30"},"vehicle_type_id":"4","last_reported":1717600072,"current_range_meters":5600,"station_id":"ce4bhbh2rcd13ifvqepg","pricing_plan_id":"cebpf4jnsgd1na2vs0mg"},{"bike_id":"902a901f-13de-470f-bb39-464dc903abbe","system_id":"levelo_inurba_marseille","lat":43.284219,"lon":5.349866,"is_reserved":false,"is_disabled":false,"rental_uris":{"android":"levelo://app?vid=902a901f-13de-470f-bb39-464dc903abbe","ios":"levelo://app?vid=902a901f-13de-470f-bb39-464dc903abbe"},"vehicle_type_id":"4","last_reported":1717600072,"current_range_meters":6000,"station_id":"ce4bhbh2rcd13ifvqepg","pricing_plan_id":"cebpf4jnsgd1na2vs0mg"},{"bike_id":"5dbc5d6e-cbc3-4812-aa41-3111d1c26f2f","system_id":"levelo_inurba_marseille","lat":43.284217,"lon":5.349697,"is_reserved":false,"is_disabled":false,"rental_uris":{"android":"levelo://app?vid=5dbc5d6e-cbc3-4812-aa41-3111d1c26f2f","ios":"levelo://app?vid=5dbc5d6e-cbc3-4812-aa41-3111d1c26f2f"},"vehicle_type_id":"4","last_reported":1717600072,"current_range_meters":31600,"station_id":"ce4bhbh2rcd13ifvqepg","pricing_plan_id":"cebpf4jnsgd1na2vs0mg"},