{"last_updated":1692371253,"ttl":30,"version":"2.2","data":{"bikes":[{"bike_id":"cee888f4-7723-4a45-a060-2497b7c83f6b","system_id":"levelo_inurba_marseille","lat":43.314811,"lon":5.373103,"is_reserved":false,"is_disabled":false,"rental_uris":{"android":"levelo://app?vid=cee888f4-7723-4a45-a060-2497b7c83f6b","ios":"levelo://app?vid=cee888f4-7723-4a45-a060-2497b7c83f6b"},"vehicle_type_id":"4","last_reported":1692371253,"current_range_meters":27200,"station_id":"ce4bgt12rcd13ifvqcd0","pricing_plan_id":"free"},{"bike_id":"c39e94bf-8052-410d-8cff-1b75d877395b","system_id":"levelo_inurba_marseille","lat":43.314811,"lon":5.373103,"is_reserved":false,"is_disabled":false,"rental_uris":{"android":"levelo://app?vid=c39e94bf-8052-410d-8cff-1b75d877395b","ios":"levelo://app?vid=c39e94bf-8052-410d-8cff-1b75d877395b"},"vehicle_type_id":"4","last_reported":1692371253,"current_range_meters":31200,"station_id":"ce4bgt12rcd13ifvqcd0","pricing_plan_id":"free"},{"bike_id":"d92b3447-4b8a-4d20-a0f2-dbc361a0d47a","system_id":"levelo_inurba_marseille","lat":43.314811,"lon":5.373104,"is_reserved":false,"is_disabled":false,"rental_uris":{"android":"levelo://app?vid=d92b3447-4b8a-4d20-a0f2-dbc361a0d47a","ios":"levelo://app?vid=d92b3447-4b8a-4d20-a0f2-dbc361a0d47a"},"vehicle_type_id":"4","last_reported":1692371253,"current_range_meters":30800,"station_id":"ce4bgt12rcd13ifvqcd0","pricing_plan_id":"free"},{"bike_id":"005fa4d8-e633-418e-a067-9eeea8b183f0","system_id":"levelo_inurba_marseille","lat":43.314811,"lon":5.373103,"is_reserved":false,"is_disabled":false,"rental_uris":{"android":"levelo://app?vid=005fa4d8-e633-418e-a067-9eeea8b183f0","ios":"levelo://app?vid=005fa4d8-e633-418e-a067-9eeea8b183f0"},"vehicle_type_id":"4","last_reported":1692371253,"current_range_meters":27200,"station_id":"ce4bgt12rcd13ifvqcd0","pricing_plan_id":"free"},{"bike_id":"b1eea415-15be-42d9-93ff-b87bd8cc4e3f","system_id":"levelo_inurba_marseille","lat":43.314811,"lon":5.373104,"is_reserved":false,"is_disabled":false,"rental_uris":{"android":"levelo://app?vid=b1eea415-15be-42d9-93ff-b87bd8cc4e3f","ios":"levelo://app?vid=b1eea415-15be-42d9-93ff-b87bd8cc4e3f"},"vehicle_type_id":"4","last_reported":1692371253,"current_range_meters":30000,"station_id":"ce4bgt12rcd13ifvqcd0","pricing_plan_id":"free"},{"bike_id":"f4fe275a-0648-4a48-961a-bcd291784ba6","system_id":"levelo_inurba_marseille","lat":43.309061,"lon":5.371821,"is_reserved":false,"is_disabled":false,"rental_uris":{"android":"levelo://app?vid=f4fe275a-0648-4a48-961a-bcd291784ba6","ios":"levelo://app?vid=f4fe275a-0648-4a48-961a-bcd291784ba6"},"vehicle_type_id":"4","last_reported":1692371253,"current_range_meters":7200,"station_id":"","pricing_plan_id":"free"},{"bike_id":"ac770c66-296b-4543-b032-3bef667b8f1c","system_id":"levelo_inurba_marseille","lat":43.309039,"lon":5.371797,"is_reserved":false,"is_disabled":false,"rental_uris":{"android":"levelo://app?vid=ac770c66-296b-4543-b032-3bef667b8f1c","ios":"levelo://app?vid=ac770c66-296b-4543-b032-3bef667b8f1c"},"vehicle_type_id":"4","last_reported":1692371253,"current_range_meters":8000,"station_id":"ce4bguh2rcd13ifvqckg","pricing_plan_id":"free"},{"bike_id":"e3adda0e-f867-469f-9824-4a3980c85e2c","system_id":"levelo_inurba_marseille","lat":43.30889,"lon":5.37191,"is_reserved":false,"is_disabled":false,"rental_uris":{"android":"levelo://app?vid=e3adda0e-f867-469f-9824-4a3980c85e2c","ios":"levelo://app?vid=e3adda0e-f867-469f-9824-4a3980c85e2c"},"vehicle_type_id":"4","last_reported":1692371253,"current_range_meters":29200,"station_id":"ce4bguh2rcd13ifvqckg","pricing_plan_id":"free"},{"bike_id":"8e282257-5c1b-47f9-8bd4-e61679c24a4a","system_id":"levelo_inurba_marseille","lat":43.30685,"lon":5.37177,"is_reserved":false,"is_disabled":false,"rental_uris":{"android":"levelo://app?vid=8e282257-5c1b-47f9-8bd4-e61679c24a4a","ios":"levelo://app?vid=8e282257-5c1b-47f9-8bd4-e61679c24a4a"},"vehicle_type_id":"4","last_reported":1692371253,"current_range_meters":13200,"station_id":"","pricing_plan_id":"free"},{"bike_id":"386ed8e3-b71e-4f68-86af-202c5b76503e","system_id":"levelo_inurba_marseille","lat":43.30556,"lon":5.36707,"is_reserved":false,"is_disabled":false,"rental_uris":{"android":"levelo://app?vid=386ed8e3-b71e-4f68-86af-202c5b76503e","ios":"levelo://app?vid=386ed8e3-b71e-4f68-86af-202c5b76503e"},"vehicle_type_id":"4","last_reported":1692371253,"current_range_meters":30400,"station_id":"ce4bgrp2rcd13ifvqc9g","pricing_plan_id":"free"},{"bike_id":"9fbe6e18-d192-44c2-98b5-cafb68b41aa4","system_id":"levelo_inurba_marseille","lat":43.30544,"lon":5.3654,"is_reserved":false,"is_disabled":false,"rental_uris":{"android":"levelo://app?vid=9fbe6e18-d192-44c2-98b5-cafb68b41aa4","ios":"levelo://app?vid=9fbe6e18-d192-44c2-98b5-cafb68b41aa4"},"vehicle_type_id":"4","last_reported":1692371253,"current_range_meters":16000,"station_id":"ce4bgs12rcd13ifvqcag","pricing_plan_id":"free"},{"bike_id":"b6a503fc-c0a1-4486-be9c-e5345fac369e","system_id":"levelo_inurba_marseille","lat":43.30595,"lon":5.37228,"is_reserved":false,"is_disabled":false,"rental_uris":{"android":"levelo://app?vid=b6a503fc-c0a1-4486-be9c-e5345fac369e","ios":"levelo://app?vid=b6a503fc-c0a1-4486-be9c-e5345fac369e"},"vehicle_type_id":"4","last_reported":1692371253,"current_range_meters":26800,"station_id":"ce4bgqh2rcd13ifvqc4g","pricing_plan_id":"free"},{"bike_id":"1eb3c832-2c84-451c-b0df-c991f4940d48","system_id":"levelo_inurba_marseille","lat":43.307945,"lon":5.376487,"is_reserved":false,"is_disabled":false,"rental_uris":{"android":"levelo://app?vid=1eb3c832-2c84-451c-b0df-c991f4940d48","ios":"levelo://app?vid=1eb3c832-2c84-451c-b0df-c991f4940d48"},"vehicle_type_id":"4","last_reported":1692371253,"current_range_meters":14400,"station_id":"ce4bgv92rcd13ifvqcq0","pricing_plan_id":"free"},{"bike_id":"8f8b4126-2ec1-4650-8578-1319d6b8e138","system_id":"levelo_inurba_marseille","lat":43.307945,"lon":5.376487,"is_reserved":false,"is_disabled":false,"rental_uris":{"android":"levelo://app?vid=8f8b4126-2ec1-4650-8578-1319d6b8e138","ios":"levelo://app?vid=8f8b4126-2ec1-4650-8578-1319d6b8e138"},"vehicle_type_id":"4","last_reported":1692371253,"current_range_meters":12000,"station_id":"ce4bgv92rcd13ifvqcq0","pricing_plan_id":"free"},{"bike_id":"48f76f76-4873-4b80-8920-9a656353db6a","system_id":"levelo_inurba_marseille","lat":43.30776,"lon":5.37662,"is_reserved":false,"is_disabled":false,"rental_uris":{"android":"levelo://app?vid=48f76f76-4873-4b80-8920-9a656353db6a","ios":"levelo://app?vid=48f76f76-4873-4b80-8920-9a656353db6a"},"vehicle_type_id":"4","last_reported":1692371253,"current_range_meters":28400,"station_id":"ce4bgv92rcd13ifvqcq0","pricing_plan_id":"free"},{"bike_id":"994e1083-fc3b-4514-a167-276dafec07c0","system_id":"levelo_inurba_marseille","lat":43.317075,"lon":5.377367,"is_reserved":false,"is_disabled":false,"rental_uris":{"android":"levelo://app?vid=994e1083-fc3b-4514-a167-276dafec07c0","ios":"levelo://app?vid=994e1083-fc3b-4514-a167-276dafec07c0"},"vehicle_type_id":"4","last_reported":1692371253,"current_range_meters":29200,"station_id":"ce4bgth2rcd13ifvqch0","pricing_plan_id":"free"},{"bike_id":"543527f6-a687-471e-9e5e-ed6793a0106a","system_id":"levelo_inurba_marseille","lat":43.317075,"lon":5.377367,"is_reserved":false,"is_disabled":false,"rental_uris":{"android":"levelo://app?vid=543527f6-a687-471e-9e5e-ed6793a0106a","ios":"levelo://app?vid=543527f6-a687-471e-9e5e-ed6793a0106a"},"vehicle_type_id":"4","last_reported":1692371253,"current_range_meters":31200,"station_id":"ce4bgth2rcd13ifvqch0","pricing_plan_id":"free"},{"bike_id":"b8ae413a-68e4-44c5-b830-62ffd3a32298","system_id":"levelo_inurba_marseille","lat":43.303046,"lon":5.368981,"is_reserved":false,"is_disabled":false,"rental_uris":{"android":"levelo://app?vid=b8ae413a-68e4-44c5-b830-62ffd3a32298","ios":"levelo://app?vid=b8ae413a-68e4-44c5-b830-62ffd3a32298"},"vehicle_type_id":"4","last_reported":1692371253,"current_range_meters":24800,"station_id":"ce4bgqh2rcd13ifvqc5g","pricing_plan_id":"free"},{"bike_id":"7d29ee12-7a22-4bde-b74c-f2aaeee845c7","system_id":"levelo_inurba_marseille","lat":43.315293,"lon":5.380349,"is_reserved":false,"is_disabled":false,"rental_uris":{"android":"levelo://app?vid=7d29ee12-7a22-4bde-b74c-f2aaeee845c7","ios":"levelo://app?vid=7d29ee12-7a22-4bde-b74c-f2aaeee845c7"},"vehicle_type_id":"4","last_reported":1692371253,"current_range_meters":20400,"station_id":"ce4bhsp2rcd13ifvqi50","pricing_plan_id":"free"},{"bike_id":"bfd18b81-7891-4c2a-9875-8c3cac67fc01","system_id":"levelo_inurba_marseille","lat":43.315293,"lon":5.380349,"is_reserved":false,"is_disabled":false,"rental_uris":{"android":"levelo://app?vid=bfd18b81-7891-4c2a-9875-8c3cac67fc01","ios":"levelo://app?vid=bfd18b81-7891-4c2a-9875-8c3cac67fc01"},"vehicle_type_id":"4","last_reported":1692371253,"current_range_meters":30800,"station_id":"ce4bhsp2rcd13ifvqi50","pricing_plan_id":"free"},{"bike_id":"28b8c7fd-4c88-403f-9814-975b1d0e7007","system_id":"levelo_inurba_marseille","lat":43.3154,"lon":5.38036,"is_reserved":false,"is_disabled":false,"rental_uris":{"android":"levelo://app?vid=28b8c7fd-4c88-403f-9814-975b1d0e7007","ios":"levelo://app?vid=28b8c7fd-4c88-403f-9814-975b1d0e7007"},"vehicle_type_id":"4","last_reported":1692371253,"current_range_meters":29600,"station_id":"ce4bhsp2rcd13ifvqi50","pricing_plan_id":"free"},{"bike_id":"2ea97f1a-1347-4738-a08b-7b9e24416fd8","system_id":"levelo_inurba_marseille","lat":43.31526,"lon":5.38042,"is_reserved":false,"is_disabled":false,"rental_uris":{"android":"levelo://app?vid=2ea97f1a-1347-4738-a08b-7b9e24416fd8","ios":"levelo://app?vid=2ea97f1a-1347-4738-a08b-7b9e24416fd8"},"vehicle_type_id":"4","last_reported":1692371253,"current_range_meters":22400,"station_id":"ce4bhsp2rcd13ifvqi50","pricing_plan_id":"free"},{"bike_id":"b1ce8c2f-d585-4193-8765-0ab0d3fd8f86","system_id":"levelo_inurba_marseille","lat":43.31532,"lon":5.38041,"is_reserved":false,"is_disabled":false,"rental_uris":{"android":"levelo://app?vid=b1ce8c2f-d585-4193-8765-0ab0d3fd8f86","ios":"levelo://app?vid=b1ce8c2f-d585-4193-8765-0ab0d3fd8f86"},"vehicle_type_id":"4","last_reported":1692371253,"current_range_meters":19200,"station_id":"ce4bhsp2rcd13ifvqi50","pricing_plan_id":"free"},{"bike_id":"a6651547-d993-431a-9bb2-3389a1270c4d","system_id":"levelo_inurba_marseille","lat":43.315293,"lon":5.380349,"is_reserved":false,"is_disabled":false,"rental_uris":{"android":"levelo://app?vid=a6651547-d993-431a-9bb2-3389a1270c4d","ios":"levelo://app?vid=a6651547-d993-431a-9bb2-3389a1270c4d"},"vehicle_type_id":"4","last_reported":1692371253,"current_range_meters":30000,"station_id":"ce4bhsp2rcd13ifvqi50","pricing_plan_id":"free"},{"bike_id":"8f9b8953-558e-47df-b985-a4a0df165736","system_id":"levelo_inurba_marseille","lat":43.30184,"lon":5.36627,"is_reserved":false,"is_disabled":false,"rental_uris":{"android":"levelo://app?vid=8f9b8953-558e-47df-b985-a4a0df165736","ios":"levelo://app?vid=8f9b8953-558e-47df-b985-a4a0df165736"},"vehicle_type_id":"4","last_reported":1692371253,"current_range_meters":10400,"station_id":"ce4bgrh2rcd13ifvqc8g","pricing_plan_id":"free"},{"bike_id":"3f6175ca-0f1c-4c1a-8b87-1616e023ac0f","system_id":"levelo_inurba_marseille","lat":43.30805,"lon":5.38146,"is_reserved":false,"is_disabled":false,"rental_uris":{"android":"levelo://app?vid=3f6175ca-0f1c-4c1a-8b87-1616e023ac0f","ios":"levelo://app?vid=3f6175ca-0f1c-4c1a-8b87-1616e023ac0f"},"vehicle_type_id":"4","last_reported":1692371253,"current_range_meters":0,"station_id":"ce4bgt12rcd13ifvqce0","pricing_plan_id":"free"},{"bike_id":"adf25e9a-d7d8-42e5-9623-3bc38957c46d","system_id":"levelo_inurba_marseille","lat":43.304606,"lon":5.379026,"is_reserved":false,"is_disabled":false,"rental_uris":{"android":"levelo://app?vid=adf25e9a-d7d8-42e5-9623-3bc38957c46d","ios":"levelo://app?vid=adf25e9a-d7d8-42e5-9623-3bc38957c46d"},"vehicle_type_id":"4","last_reported":1692371253,"current_range_meters":29600,"station_id":"ce4bgup2rcd13ifvqcn0","pricing_plan_id":"free"},{"bike_id":"e2aee149-cf0c-4825-8f94-3c1c6f95a7d6","system_id":"levelo_inurba_marseille","lat":43.304606,"lon":5.379026,"is_reserved":false,"is_disabled":false,"rental_uris":{"android":"levelo://app?vid=e2aee149-cf0c-4825-8f94-3c1c6f95a7d6","ios":"levelo://app?vid=e2aee149-cf0c-4825-8f94-3c1c6f95a7d6"},"vehicle_type_id":"4","last_reported":1692371253,"current_range_meters":31600,"station_id":"ce4bgup2rcd13ifvqcn0","pricing_plan_id":"free"},{"bike_id":"a4a1a0dd-4500-40ac-af79-9463aa020571","system_id":"levelo_inurba_marseille","lat":43.304606,"lon":5.379026,"is_reserved":false,"is_disabled":false,"rental_uris":{"android":"levelo://app?vid=a4a1a0dd-4500-40ac-af79-9463aa020571","ios":"levelo://app?vid=a4a1a0dd-4500-40ac-af79-9463aa020571"},"vehicle_type_id":"4","last_reported":1692371253,"current_range_meters":23600,"station_id":"ce4bgup2rcd13ifvqcn0","pricing_plan_id":"free"},{"bike_id":"3ef77a1c-101c-4e7b-bbf2-41a2523f0f8a","system_id":"levelo_inurba_marseille","lat":43.304606,"lon":5.379026,"is_reserved":false,"is_disabled":false,"rental_uris":{"android":"levelo://app?vid=3ef77a1c-101c-4e7b-bbf2-41a2523f0f8a","ios":"levelo://app?vid=3ef77a1c-101c-4e7b-bbf2-41a2523f0f8a"},"vehicle_type_id":"4","last_reported":1692371253,"current_range_meters":31200,"station_id":"ce4bgup2rcd13ifvqcn0","pricing_plan_id":"free"},{"bike_id":"409d67d7-4724-418c-a124-4b882b170cab","system_id":"levelo_inurba_marseille","lat":43.302784,"lon":5.377158,"is_reserved":false,"is_disabled":false,"rental_uris":{"android":"levelo://app?vid=409d67d7-4724-418c-a124-4b882b170cab","ios":"levelo://app?vid=409d67d7-4724-418c-a124-4b882b170cab"},"vehicle_type_id":"4","last_reported":1692371253,"current_range_meters":21600,"station_id":"ce4bguh2rcd13ifvqcj0","pricing_plan_id":"free"},{"bike_id":"e5ef90d3-e5f8-4b5c-a08d-51dede3e6151","system_id":"levelo_inurba_marseille","lat":43.319935,"lon":5.381699,"is_reserved":false,"is_disabled":false,"rental_uris":{"android":"levelo://app?vid=e5ef90d3-e5f8-4b5c-a08d-51dede3e6151","ios":"levelo://app?vid=e5ef90d3-e5f8-4b5c-a08d-51dede3e6151"},"vehicle_type_id":"4","last_reported":1692371253,"current_range_meters":22400,"station_id":"ce4bhr12rcd13ifvqhpg","pricing_plan_id":"free"},{"bike_id":"8f9423b6-2f75-4d37-9601-472d76ede970","system_id":"levelo_inurba_marseille","lat":43.31364,"lon":5.38472,"is_reserved":false,"is_disabled":false,"rental_uris":{"android":"levelo://app?vid=8f9423b6-2f75-4d37-9601-472d76ede970","ios":"levelo://app?vid=8f9423b6-2f75-4d37-9601-472d76ede970"},"vehicle_type_id":"4","last_reported":1692371253,"current_range_meters":12000,"station_id":"ce4bgt92rcd13ifvqcf0","pricing_plan_id":"free"},{"bike_id":"1f9c03a4-c4a5-4cfb-9248-d0d66536b8fd","system_id":"levelo_inurba_marseille","lat":43.313571,"lon":5.384829,"is_reserved":false,"is_disabled":false,"rental_uris":{"android":"levelo://app?vid=1f9c03a4-c4a5-4cfb-9248-d0d66536b8fd","ios":"levelo://app?vid=1f9c03a4-c4a5-4cfb-9248-d0d66536b8fd"},"vehicle_type_id":"4","last_reported":1692371253,"current_range_meters":17200,"station_id":"ce4bgt92rcd13ifvqcf0","pricing_plan_id":"free"},{"bike_id":"6a12ac38-9b3e-4797-b5e9-854e098e9dc9","system_id":"levelo_inurba_marseille","lat":43.313571,"lon":5.384829,"is_reserved":false,"is_disabled":false,"rental_uris":{"android":"levelo://app?vid=6a12ac38-9b3e-4797-b5e9-854e098e9dc9","ios":"levelo://app?vid=6a12ac38-9b3e-4797-b5e9-854e098e9dc9"},"vehicle_type_id":"4","last_reported":1692371253,"current_range_meters":22400,"station_id":"ce4bgt92rcd13ifvqcf0","pricing_plan_id":"free"},{"bike_id":"e6257211-b7b4-4b83-a8fe-8e2f478200a5","system_id":"levelo_inurba_marseille","lat":43.31366,"lon":5.38487,"is_reserved":false,"is_disabled":false,"rental_uris":{"android":"levelo://app?vid=e6257211-b7b4-4b83-a8fe-8e2f478200a5","ios":"levelo://app?vid=e6257211-b7b4-4b83-a8fe-8e2f478200a5"},"vehicle_type_id":"4","last_reported":1692371253,"current_range_meters":20800,"station_id":"ce4bgt92rcd13ifvqcf0","pricing_plan_id":"free"},{"bike_id":"6595eed2-e273-44f7-b404-19d6bbaf0246","system_id":"levelo_inurba_marseille","lat":43.313571,"lon":5.384829,"is_reserved":false,"is_disabled":false,"rental_uris":{"android":"levelo://app?vid=6595eed2-e273-44f7-b404-19d6bbaf0246","ios":"levelo://app?vid=6595eed2-e273-44f7-b404-19d6bbaf0246"},"vehicle_type_id":"4","last_reported":1692371253,"current_range_meters":20400,"station_id":"ce4bgt92rcd13ifvqcf0","pricing_plan_id":"free"},{"bike_id":"d9ea1a8a-3c57-43e0-ab2b-62d41adf7ef7","system_id":"levelo_inurba_marseille","lat":43.313571,"lon":5.384829,"is_reserved":false,"is_disabled":false,"rental_uris":{"android":"levelo://app?vid=d9ea1a8a-3c57-43e0-ab2b-62d41adf7ef7","ios":"levelo://app?vid=d9ea1a8a-3c57-43e0-ab2b-62d41adf7ef7"},"vehicle_type_id":"4","last_reported":1692371253,"current_range_meters":26400,"station_id":"ce4bgt92rcd13ifvqcf0","pricing_plan_id":"free"},{"bike_id":"b1ebe854-e92d-44cc-86d8-320fd1d75a74","system_id":"levelo_inurba_marseille","lat":43.31361,"lon":5.38498,"is_reserved":false,"is_disabled":false,"rental_uris":{"android":"levelo://app?vid=b1ebe854-e92d-44cc-86d8-320fd1d75a74","ios":"levelo://app?vid=b1ebe854-e92d-44cc-86d8-320fd1d75a74"},"vehicle_type_id":"4","last_reported":1692371253,"current_range_meters":24000,"station_id":"ce4bgt92rcd13ifvqcf0","pricing_plan_id":"free"},{"bike_id":"eb37f834-e0d5-4ed1-bfe0-9507c0b580e1","system_id":"levelo_inurba_marseille","lat":43.299724,"lon":5.371829,"is_reserved":false,"is_disabled":false,"rental_uris":{"android":"levelo://app?vid=eb37f834-e0d5-4ed1-bfe0-9507c0b580e1","ios":"levelo://app?vid=eb37f834-e0d5-4ed1-bfe0-9507c0b580e1"},"vehicle_type_id":"4","last_reported":1692371253,"current_range_meters":24400,"station_id":"ce4bgr92rcd13ifvqc7g","pricing_plan_id":"free"},{"bike_id":"2c2efae8-f71e-4909-8ef7-d7c7381536a8","system_id":"levelo_inurba_marseille","lat":43.298433,"lon":5.362774,"is_reserved":false,"is_disabled":false,"rental_uris":{"android":"levelo://app?vid=2c2efae8-f71e-4909-8ef7-d7c7381536a8","ios":"levelo://app?vid=2c2efae8-f71e-4909-8ef7-d7c7381536a8"},"vehicle_type_id":"4","last_reported":1692371253,"current_range_meters":31200,"station_id":"ce4bgpp2rcd13ifvqc3g","pricing_plan_id":"free"},{"bike_id":"f3f3d663-ef55-4906-af88-f39fdc78dbd2","system_id":"levelo_inurba_marseille","lat":43.298433,"lon":5.362774,"is_reserved":false,"is_disabled":false,"rental_uris":{"android":"levelo://app?vid=f3f3d663-ef55-4906-af88-f39fdc78dbd2","ios":"levelo://app?vid=f3f3d663-ef55-4906-af88-f39fdc78dbd2"},"vehicle_type_id":"4","last_reported":1692371253,"current_range_meters":21600,"station_id":"ce4bgpp2rcd13ifvqc3g","pricing_plan_id":"free"},{"bike_id":"dca1a63a-7db6-42ee-bd56-c537f3967b4a","system_id":"levelo_inurba_marseille","lat":43.298433,"lon":5.362774,"is_reserved":false,"is_disabled":false,"rental_uris":{"android":"levelo://app?vid=dca1a63a-7db6-42ee-bd56-c537f3967b4a","ios":"levelo://app?vid=dca1a63a-7db6-42ee-bd56-c537f3967b4a"},"vehicle_type_id":"4","last_reported":1692371253,"current_range_meters":25200,"station_id":"ce4bgpp2rcd13ifvqc3g","pricing_plan_id":"free"},{"bike_id":"1d92cadb-5407-4b57-b890-e85f5b75262f","system_id":"levelo_inurba_marseille","lat":43.298433,"lon":5.362774,"is_reserved":false,"is_disabled":false,"rental_uris":{"android":"levelo://app?vid=1d92cadb-5407-4b57-b890-e85f5b75262f","ios":"levelo://app?vid=1d92cadb-5407-4b57-b890-e85f5b75262f"},"vehicle_type_id":"4","last_reported":1692371253,"current_range_meters":31200,"station_id":"ce4bgpp2rcd13ifvqc3g","pricing_plan_id":"free"},{"bike_id":"5bb1abb9-a1a2-4395-a76f-79dcdb924a98","system_id":"levelo_inurba_marseille","lat":43.30517,"lon":5.38415,"is_reserved":false,"is_disabled":false,"rental_uris":{"android":"levelo://app?vid=5bb1abb9-a1a2-4395-a76f-79dcdb924a98","ios":"levelo://app?vid=5bb1abb9-a1a2-4395-a76f-79dcdb924a98"},"vehicle_type_id":"4","last_reported":1692371253,"current_range_meters":30000,"station_id":"ce4bgg92rcd13ifvqb30","pricing_plan_id":"free"},{"bike_id":"260b4d4f-f978-408f-91b2-0c9d44ae45e1","system_id":"levelo_inurba_marseille","lat":43.298433,"lon":5.362774,"is_reserved":false,"is_disabled":false,"rental_uris":{"android":"levelo://app?vid=260b4d4f-f978-408f-91b2-0c9d44ae45e1","ios":"levelo://app?vid=260b4d4f-f978-408f-91b2-0c9d44ae45e1"},"vehicle_type_id":"4","last_reported":1692371253,"current_range_meters":13200,"station_id":"ce4bgpp2rcd13ifvqc3g","pricing_plan_id":"free"},{"bike_id":"4befc6d4-6604-49f8-ac93-3174c272984c","system_id":"levelo_inurba_marseille","lat":43.298433,"lon":5.362774,"is_reserved":false,"is_disabled":false,"rental_uris":{"android":"levelo://app?vid=4befc6d4-6604-49f8-ac93-3174c272984c","ios":"levelo://app?vid=4befc6d4-6604-49f8-ac93-3174c272984c"},"vehicle_type_id":"4","last_reported":1692371253,"current_range_meters":31600,"station_id":"ce4bgpp2rcd13ifvqc3g","pricing_plan_id":"free"},{"bike_id":"d14fb2ae-29e7-49ec-b315-96046bd4a3b0","system_id":"levelo_inurba_marseille","lat":43.298433,"lon":5.362774,"is_reserved":false,"is_disabled":false,"rental_uris":{"android":"levelo://app?vid=d14fb2ae-29e7-49ec-b315-96046bd4a3b0","ios":"levelo://app?vid=d14fb2ae-29e7-49ec-b315-96046bd4a3b0"},"vehicle_type_id":"4","last_reported":1692371253,"current_range_meters":31600,"station_id":"ce4bgpp2rcd13ifvqc3g","pricing_plan_id":"free"},{"bike_id":"42acfcf8-d128-49cb-b137-de8e31641fe7","system_id":"levelo_inurba_marseille","lat":43.311722,"lon":5.387247,"is_reserved":false,"is_disabled":false,"rental_uris":{"android":"levelo://app?vid=42acfcf8-d128-49cb-b137-de8e31641fe7","ios":"levelo://app?vid=42acfcf8-d128-49cb-b137-de8e31641fe7"},"vehicle_type_id":"4","last_reported":1692371253,"current_range_meters":30000,"station_id":"ce4bgv12rcd13ifvqcp0","pricing_plan_id":"free"},{"bike_id":"5b5c8cae-b425-4976-9ba8-5ae205664d6b","system_id":"levelo_inurba_marseille","lat":43.322872,"lon":5.382756,"is_reserved":false,"is_disabled":false,"rental_uris":{"android":"levelo://app?vid=5b5c8cae-b425-4976-9ba8-5ae205664d6b","ios":"levelo://app?vid=5b5c8cae-b425-4976-9ba8-5ae205664d6b"},"vehicle_type_id":"4","last_reported":1692371253,"current_range_meters":24000,"station_id":"ce4bhr12rcd13ifvqhqg","pricing_plan_id":"free"},{"bike_id":"a44b71ef-ee3d-4136-befd-819896b837a1","system_id":"levelo_inurba_marseille","lat":43.297774,"lon":5.370875,"is_reserved":false,"is_disabled":false,"rental_uris":{"android":"levelo://app?vid=a44b71ef-ee3d-4136-befd-819896b837a1","ios":"levelo://app?vid=a44b71ef-ee3d-4136-befd-819896b837a1"},"vehicle_type_id":"4","last_reported":1692371253,"current_range_meters":2000,"station_id":"ce4bgop2rcd13ifvqc1g","pricing_plan_id":"free"},{"bike_id":"67c43f86-fcb6-41cc-8957-c0d7033c94b6","system_id":"levelo_inurba_marseille","lat":43.32293,"lon":5.38264,"is_reserved":false,"is_disabled":false,"rental_uris":{"android":"levelo://app?vid=67c43f86-fcb6-41cc-8957-c0d7033c94b6","ios":"levelo://app?vid=67c43f86-fcb6-41cc-8957-c0d7033c94b6"},"vehicle_type_id":"4","last_reported":1692371253,"current_range_meters":23200,"station_id":"ce4bhr12rcd13ifvqhqg","pricing_plan_id":"free"},{"bike_id":"2655ed25-ff91-44e2-9350-639e39275cf7","system_id":"levelo_inurba_marseille","lat":43.32284,"lon":5.38275,"is_reserved":false,"is_disabled":false,"rental_uris":{"android":"levelo://app?vid=2655ed25-ff91-44e2-9350-639e39275cf7","ios":"levelo://app?vid=2655ed25-ff91-44e2-9350-639e39275cf7"},"vehicle_type_id":"4","last_reported":1692371253,"current_range_meters":27200,"station_id":"ce4bhr12rcd13ifvqhqg","pricing_plan_id":"free"},{"bike_id":"b9784bc4-a1f4-4e7b-a996-3746dcc4c656","system_id":"levelo_inurba_marseille","lat":43.32284,"lon":5.38278,"is_reserved":false,"is_disabled":false,"rental_uris":{"android":"levelo://app?vid=b9784bc4-a1f4-4e7b-a996-3746dcc4c656","ios":"levelo://app?vid=b9784bc4-a1f4-4e7b-a996-3746dcc4c656"},"vehicle_type_id":"4","last_reported":1692371253,"current_range_meters":14800,"station_id":"ce4bhr12rcd13ifvqhqg","pricing_plan_id":"free"},{"bike_id":"673200d6-9c00-4797-bd65-06254571f6fe","system_id":"levelo_inurba_marseille","lat":43.3228,"lon":5.38283,"is_reserved":false,"is_disabled":false,"rental_uris":{"android":"levelo://app?vid=673200d6-9c00-4797-bd65-06254571f6fe","ios":"levelo://app?vid=673200d6-9c00-4797-bd65-06254571f6fe"},"vehicle_type_id":"4","last_reported":1692371253,"current_range_meters":28000,"station_id":"ce4bhr12rcd13ifvqhqg","pricing_plan_id":"free"},{"bike_id":"2b488fa5-6690-49f1-8674-7d2969f31eb4","system_id":"levelo_inurba_marseille","lat":43.32282,"lon":5.38281,"is_reserved":false,"is_disabled":false,"rental_uris":{"android":"levelo://app?vid=2b488fa5-6690-49f1-8674-7d2969f31eb4","ios":"levelo://app?vid=2b488fa5-6690-49f1-8674-7d2969f31eb4"},"vehicle_type_id":"4","last_reported":1692371253,"current_range_meters":16800,"station_id":"ce4bhr12rcd13ifvqhqg","pricing_plan_id":"free"},{"bike_id":"5f91fc7d-0833-4a7c-a0d8-21ec0ad5455a","system_id":"levelo_inurba_marseille","lat":43.322872,"lon":5.382756,"is_reserved":false,"is_disabled":false,"rental_uris":{"android":"levelo://app?vid=5f91fc7d-0833-4a7c-a0d8-21ec0ad5455a","ios":"levelo://app?vid=5f91fc7d-0833-4a7c-a0d8-21ec0ad5455a"},"vehicle_type_id":"4","last_reported":1692371253,"current_range_meters":25600,"station_id":"ce4bhr12rcd13ifvqhqg","pricing_plan_id":"free"},{"bike_id":"a1f7b084-f437-4e0c-8b20-334f54c48d59","system_id":"levelo_inurba_marseille","lat":43.32288,"lon":5.38274,"is_reserved":false,"is_disabled":false,"rental_uris":{"android":"levelo://app?vid=a1f7b084-f437-4e0c-8b20-334f54c48d59","ios":"levelo://app?vid=a1f7b084-f437-4e0c-8b20-334f54c48d59"},"vehicle_type_id":"4","last_reported":1692371253,"current_range_meters":22800,"station_id":"ce4bhr12rcd13ifvqhqg","pricing_plan_id":"free"},{"bike_id":"15120a69-1dc0-488d-b5dc-3813b3f3db2b","system_id":"levelo_inurba_marseille","lat":43.32284,"lon":5.38281,"is_reserved":false,"is_disabled":false,"rental_uris":{"android":"levelo://app?vid=15120a69-1dc0-488d-b5dc-3813b3f3db2b","ios":"levelo://app?vid=15120a69-1dc0-488d-b5dc-3813b3f3db2b"},"vehicle_type_id":"4","last_reported":1692371253,"current_range_meters":2000,"station_id":"ce4bhr12rcd13ifvqhqg","pricing_plan_id":"free"},{"bike_id":"20066552-063e-4d3e-9e10-e0e8a6d2c838","system_id":"levelo_inurba_marseille","lat":43.322872,"lon":5.382756,"is_reserved":false,"is_disabled":false,"rental_uris":{"android":"levelo://app?vid=20066552-063e-4d3e-9e10-e0e8a6d2c838","ios":"levelo://app?vid=20066552-063e-4d3e-9e10-e0e8a6d2c838"},"vehicle_type_id":"4","last_reported":1692371253,"current_range_meters":6800,"station_id":"ce4bhr12rcd13ifvqhqg","pricing_plan_id":"free"},{"bike_id":"dfeeac75-820a-4455-804e-e17b713a5fe3","system_id":"levelo_inurba_marseille","lat":43.32822,"lon":5.36686,"is_reserved":false,"is_disabled":false,"rental_uris":{"android":"levelo://app?vid=dfeeac75-820a-4455-804e-e17b713a5fe3","ios":"levelo://app?vid=dfeeac75-820a-4455-804e-e17b713a5fe3"},"vehicle_type_id":"4","last_reported":1692371253,"current_range_meters":6000,"station_id":"ce4bhs92rcd13ifvqi0g","pricing_plan_id":"free"},{"bike_id":"ebf9e0b0-bdba-46f0-81fb-f6661582b8ff","system_id":"levelo_inurba_marseille","lat":43.32823,"lon":5.36685,"is_reserved":false,"is_disabled":false,"rental_uris":{"android":"levelo://app?vid=ebf9e0b0-bdba-46f0-81fb-f6661582b8ff","ios":"levelo://app?vid=ebf9e0b0-bdba-46f0-81fb-f6661582b8ff"},"vehicle_type_id":"4","last_reported":1692371253,"current_range_meters":20800,"station_id":"ce4bhs92rcd13ifvqi0g","pricing_plan_id":"free"},{"bike_id":"4ed96fad-2e51-49a2-879d-e8c05ef80263","system_id":"levelo_inurba_marseille","lat":43.32825,"lon":5.36673,"is_reserved":false,"is_disabled":false,"rental_uris":{"android":"levelo://app?vid=4ed96fad-2e51-49a2-879d-e8c05ef80263","ios":"levelo://app?vid=4ed96fad-2e51-49a2-879d-e8c05ef80263"},"vehicle_type_id":"4","last_reported":1692371253,"current_range_meters":28400,"station_id":"ce4bhs92rcd13ifvqi0g","pricing_plan_id":"free"},{"bike_id":"3dc8ddfd-e386-4774-938c-dc3a7b25274a","system_id":"levelo_inurba_marseille","lat":43.328371,"lon":5.366909,"is_reserved":false,"is_disabled":false,"rental_uris":{"android":"levelo://app?vid=3dc8ddfd-e386-4774-938c-dc3a7b25274a","ios":"levelo://app?vid=3dc8ddfd-e386-4774-938c-dc3a7b25274a"},"vehicle_type_id":"4","last_reported":1692371253,"current_range_meters":28800,"station_id":"ce4bhs92rcd13ifvqi0g","pricing_plan_id":"free"},{"bike_id":"2cacf4ba-30f0-4f40-92af-cee799fe4c0c","system_id":"levelo_inurba_marseille","lat":43.32828,"lon":5.36683,"is_reserved":false,"is_disabled":false,"rental_uris":{"android":"levelo://app?vid=2cacf4ba-30f0-4f40-92af-cee799fe4c0c","ios":"levelo://app?vid=2cacf4ba-30f0-4f40-92af-cee799fe4c0c"},"vehicle_type_id":"4","last_reported":1692371253,"current_range_meters":18400,"station_id":"ce4bhs92rcd13ifvqi0g","pricing_plan_id":"free"},{"bike_id":"8eaa55d3-fafe-4542-90b0-9ec600e8ab38","system_id":"levelo_inurba_marseille","lat":43.328371,"lon":5.366909,"is_reserved":false,"is_disabled":false,"rental_uris":{"android":"levelo://app?vid=8eaa55d3-fafe-4542-90b0-9ec600e8ab38","ios":"levelo://app?vid=8eaa55d3-fafe-4542-90b0-9ec600e8ab38"},"vehicle_type_id":"4","last_reported":1692371253,"current_range_meters":22400,"station_id":"ce4bhs92rcd13ifvqi0g","pricing_plan_id":"free"},{"bike_id":"e3a21d07-f446-4608-85be-12a81574bffc","system_id":"levelo_inurba_marseille","lat":43.3283,"lon":5.36678,"is_reserved":false,"is_disabled":false,"rental_uris":{"android":"levelo://app?vid=e3a21d07-f446-4608-85be-12a81574bffc","ios":"levelo://app?vid=e3a21d07-f446-4608-85be-12a81574bffc"},"vehicle_type_id":"4","last_reported":1692371253,"current_range_meters":20800,"station_id":"ce4bhs92rcd13ifvqi0g","pricing_plan_id":"free"},{"bike_id":"54004dd5-a87c-4c2d-aec9-93cf55b6de7f","system_id":"levelo_inurba_marseille","lat":43.3283,"lon":5.36677,"is_reserved":false,"is_disabled":false,"rental_uris":{"android":"levelo://app?vid=54004dd5-a87c-4c2d-aec9-93cf55b6de7f","ios":"levelo://app?vid=54004dd5-a87c-4c2d-aec9-93cf55b6de7f"},"vehicle_type_id":"4","last_reported":1692371253,"current_range_meters":12000,"station_id":"ce4bhs92rcd13ifvqi0g","pricing_plan_id":"free"},{"bike_id":"6c09ece3-fe71-4fe5-a01c-e1589bb6a40e","system_id":"levelo_inurba_marseille","lat":43.32831,"lon":5.36685,"is_reserved":false,"is_disabled":false,"rental_uris":{"android":"levelo://app?vid=6c09ece3-fe71-4fe5-a01c-e1589bb6a40e","ios":"levelo://app?vid=6c09ece3-fe71-4fe5-a01c-e1589bb6a40e"},"vehicle_type_id":"4","last_reported":1692371253,"current_range_meters":26400,"station_id":"ce4bhs92rcd13ifvqi0g","pricing_plan_id":"free"},{"bike_id":"c84822bd-f81b-4f6c-9edf-3a63395bc23a","system_id":"levelo_inurba_marseille","lat":43.32832,"lon":5.36681,"is_reserved":false,"is_disabled":false,"rental_uris":{"android":"levelo://app?vid=c84822bd-f81b-4f6c-9edf-3a63395bc23a","ios":"levelo://app?vid=c84822bd-f81b-4f6c-9edf-3a63395bc23a"},"vehicle_type_id":"4","last_reported":1692371253,"current_range_meters":30400,"station_id":"ce4bhs92rcd13ifvqi0g","pricing_plan_id":"free"},{"bike_id":"bd4a701c-f50b-4d1b-bf0d-48b2ef9640ff","system_id":"levelo_inurba_marseille","lat":43.328371,"lon":5.366909,"is_reserved":false,"is_disabled":false,"rental_uris":{"android":"levelo://app?vid=bd4a701c-f50b-4d1b-bf0d-48b2ef9640ff","ios":"levelo://app?vid=bd4a701c-f50b-4d1b-bf0d-48b2ef9640ff"},"vehicle_type_id":"4","last_reported":1692371253,"current_range_meters":28800,"station_id":"ce4bhs92rcd13ifvqi0g","pricing_plan_id":"free"},{"bike_id":"dd789220-e7b5-42c1-b9dc-dc4243148021","system_id":"levelo_inurba_marseille","lat":43.297163,"lon":5.365866,"is_reserved":false,"is_disabled":false,"rental_uris":{"android":"levelo://app?vid=dd789220-e7b5-42c1-b9dc-dc4243148021","ios":"levelo://app?vid=dd789220-e7b5-42c1-b9dc-dc4243148021"},"vehicle_type_id":"4","last_reported":1692371253,"current_range_meters":31200,"station_id":"ce4bgn12rcd13ifvqbt0","pricing_plan_id":"free"},{"bike_id":"d3139180-8ba9-4c91-b6e4-8baae3c22113","system_id":"levelo_inurba_marseille","lat":43.296131,"lon":5.370773,"is_reserved":false,"is_disabled":false,"rental_uris":{"android":"levelo://app?vid=d3139180-8ba9-4c91-b6e4-8baae3c22113","ios":"levelo://app?vid=d3139180-8ba9-4c91-b6e4-8baae3c22113"},"vehicle_type_id":"4","last_reported":1692371253,"current_range_meters":31200,"station_id":"ce4bgnh2rcd13ifvqc0g","pricing_plan_id":"free"},{"bike_id":"bb155e93-116e-494a-9911-2df351c7dae8","system_id":"levelo_inurba_marseille","lat":43.296131,"lon":5.370791,"is_reserved":false,"is_disabled":false,"rental_uris":{"android":"levelo://app?vid=bb155e93-116e-494a-9911-2df351c7dae8","ios":"levelo://app?vid=bb155e93-116e-494a-9911-2df351c7dae8"},"vehicle_type_id":"4","last_reported":1692371253,"current_range_meters":30400,"station_id":"ce4bgnh2rcd13ifvqc0g","pricing_plan_id":"free"},{"bike_id":"b69a6c89-0ba5-47b8-88be-9c9bf0abcaaa","system_id":"levelo_inurba_marseille","lat":43.29573,"lon":5.367355,"is_reserved":false,"is_disabled":false,"rental_uris":{"android":"levelo://app?vid=b69a6c89-0ba5-47b8-88be-9c9bf0abcaaa","ios":"levelo://app?vid=b69a6c89-0ba5-47b8-88be-9c9bf0abcaaa"},"vehicle_type_id":"4","last_reported":1692371253,"current_range_meters":4800,"station_id":"ce4bgph2rcd13ifvqc2g","pricing_plan_id":"free"},{"bike_id":"1fe0ef54-f301-4359-938d-c7775e7bad35","system_id":"levelo_inurba_marseille","lat":43.29573,"lon":5.367355,"is_reserved":false,"is_disabled":false,"rental_uris":{"android":"levelo://app?vid=1fe0ef54-f301-4359-938d-c7775e7bad35","ios":"levelo://app?vid=1fe0ef54-f301-4359-938d-c7775e7bad35"},"vehicle_type_id":"4","last_reported":1692371253,"current_range_meters":13600,"station_id":"ce4bgph2rcd13ifvqc2g","pricing_plan_id":"free"},{"bike_id":"fdb7edcf-852b-4e11-b6f1-9aa9f118e490","system_id":"levelo_inurba_marseille","lat":43.29573,"lon":5.367355,"is_reserved":false,"is_disabled":false,"rental_uris":{"android":"levelo://app?vid=fdb7edcf-852b-4e11-b6f1-9aa9f118e490","ios":"levelo://app?vid=fdb7edcf-852b-4e11-b6f1-9aa9f118e490"},"vehicle_type_id":"4","last_reported":1692371253,"current_range_meters":15200,"station_id":"ce4bgph2rcd13ifvqc2g","pricing_plan_id":"free"},{"bike_id":"1b7bde28-e973-4158-94c2-b855f2d5557b","system_id":"levelo_inurba_marseille","lat":43.29573,"lon":5.367355,"is_reserved":false,"is_disabled":false,"rental_uris":{"android":"levelo://app?vid=1b7bde28-e973-4158-94c2-b855f2d5557b","ios":"levelo://app?vid=1b7bde28-e973-4158-94c2-b855f2d5557b"},"vehicle_type_id":"4","last_reported":1692371253,"current_range_meters":25200,"station_id":"ce4bgph2rcd13ifvqc2g","pricing_plan_id":"free"},{"bike_id":"6635f32a-5d1b-48d2-9f9b-4626d01b984e","system_id":"levelo_inurba_marseille","lat":43.317557,"lon":5.390173,"is_reserved":false,"is_disabled":false,"rental_uris":{"android":"levelo://app?vid=6635f32a-5d1b-48d2-9f9b-4626d01b984e","ios":"levelo://app?vid=6635f32a-5d1b-48d2-9f9b-4626d01b984e"},"vehicle_type_id":"4","last_reported":1692371253,"current_range_meters":24800,"station_id":"ce4bhqp2rcd13ifvqhng","pricing_plan_id":"free"},{"bike_id":"1726be02-de4c-440e-aab1-0b190db88c64","system_id":"levelo_inurba_marseille","lat":43.29802,"lon":5.38099,"is_reserved":false,"is_disabled":false,"rental_uris":{"android":"levelo://app?vid=1726be02-de4c-440e-aab1-0b190db88c64","ios":"levelo://app?vid=1726be02-de4c-440e-aab1-0b190db88c64"},"vehicle_type_id":"4","last_reported":1692371253,"current_range_meters":25200,"station_id":"","pricing_plan_id":"free"},{"bike_id":"9bb4151c-c763-4689-aed0-cd2d3087aa61","system_id":"levelo_inurba_marseille","lat":43.29578,"lon":5.375,"is_reserved":false,"is_disabled":false,"rental_uris":{"android":"levelo://app?vid=9bb4151c-c763-4689-aed0-cd2d3087aa61","ios":"levelo://app?vid=9bb4151c-c763-4689-aed0-cd2d3087aa61"},"vehicle_type_id":"4","last_reported":1692371253,"current_range_meters":26800,"station_id":"ce4bgh92rcd13ifvqb50","pricing_plan_id":"free"},{"bike_id":"a4df99ce-0488-49dd-a888-94686f562e88","system_id":"levelo_inurba_marseille","lat":43.295748,"lon":5.37522,"is_reserved":false,"is_disabled":false,"rental_uris":{"android":"levelo://app?vid=a4df99ce-0488-49dd-a888-94686f562e88","ios":"levelo://app?vid=a4df99ce-0488-49dd-a888-94686f562e88"},"vehicle_type_id":"4","last_reported":1692371253,"current_range_meters":27600,"station_id":"ce4bgh92rcd13ifvqb50","pricing_plan_id":"free"},{"bike_id":"bbd04f68-8534-4804-a43f-b9ee2ab1e9df","system_id":"levelo_inurba_marseille","lat":43.299707,"lon":5.384859,"is_reserved":false,"is_disabled":false,"rental_uris":{"android":"levelo://app?vid=bbd04f68-8534-4804-a43f-b9ee2ab1e9df","ios":"levelo://app?vid=bbd04f68-8534-4804-a43f-b9ee2ab1e9df"},"vehicle_type_id":"4","last_reported":1692371253,"current_range_meters":22800,"station_id":"ce4bgj92rcd13ifvqbd0","pricing_plan_id":"free"},{"bike_id":"05f1c062-8fcb-4bbe-9109-da6a34509e55","system_id":"levelo_inurba_marseille","lat":43.295279,"lon":5.375048,"is_reserved":false,"is_disabled":false,"rental_uris":{"android":"levelo://app?vid=05f1c062-8fcb-4bbe-9109-da6a34509e55","ios":"levelo://app?vid=05f1c062-8fcb-4bbe-9109-da6a34509e55"},"vehicle_type_id":"4","last_reported":1692371253,"current_range_meters":10800,"station_id":"ce4bgkp2rcd13ifvqbmg","pricing_plan_id":"free"},{"bike_id":"86e578b2-1561-4ecb-a1d8-c5a127ed4bda","system_id":"levelo_inurba_marseille","lat":43.295279,"lon":5.375048,"is_reserved":false,"is_disabled":false,"rental_uris":{"android":"levelo://app?vid=86e578b2-1561-4ecb-a1d8-c5a127ed4bda","ios":"levelo://app?vid=86e578b2-1561-4ecb-a1d8-c5a127ed4bda"},"vehicle_type_id":"4","last_reported":1692371253,"current_range_meters":10800,"station_id":"ce4bgkp2rcd13ifvqbmg","pricing_plan_id":"free"},{"bike_id":"32a579f4-a77e-4089-9137-3fc22c8afa17","system_id":"levelo_inurba_marseille","lat":43.3237,"lon":5.3887,"is_reserved":false,"is_disabled":false,"rental_uris":{"android":"levelo://app?vid=32a579f4-a77e-4089-9137-3fc22c8afa17","ios":"levelo://app?vid=32a579f4-a77e-4089-9137-3fc22c8afa17"},"vehicle_type_id":"4","last_reported":1692371253,"current_range_meters":21600,"station_id":"ce4bhqp2rcd13ifvqhog","pricing_plan_id":"free"},{"bike_id":"63396931-3c86-400b-9cfa-e42c81141461","system_id":"levelo_inurba_marseille","lat":43.32366,"lon":5.38874,"is_reserved":false,"is_disabled":false,"rental_uris":{"android":"levelo://app?vid=63396931-3c86-400b-9cfa-e42c81141461","ios":"levelo://app?vid=63396931-3c86-400b-9cfa-e42c81141461"},"vehicle_type_id":"4","last_reported":1692371253,"current_range_meters":14800,"station_id":"ce4bhqp2rcd13ifvqhog","pricing_plan_id":"free"},{"bike_id":"450b6384-3b45-4695-a86b-848539f6da31","system_id":"levelo_inurba_marseille","lat":43.32363,"lon":5.3888,"is_reserved":false,"is_disabled":false,"rental_uris":{"android":"levelo://app?vid=450b6384-3b45-4695-a86b-848539f6da31","ios":"levelo://app?vid=450b6384-3b45-4695-a86b-848539f6da31"},"vehicle_type_id":"4","last_reported":1692371253,"current_range_meters":13600,"station_id":"ce4bhqp2rcd13ifvqhog","pricing_plan_id":"free"},{"bike_id":"55f08f4d-333e-4077-9882-16e72e12ddbf","system_id":"levelo_inurba_marseille","lat":43.32369,"lon":5.38878,"is_reserved":false,"is_disabled":false,"rental_uris":{"android":"levelo://app?vid=55f08f4d-333e-4077-9882-16e72e12ddbf","ios":"levelo://app?vid=55f08f4d-333e-4077-9882-16e72e12ddbf"},"vehicle_type_id":"4","last_reported":1692371253,"current_range_meters":10000,"station_id":"ce4bhqp2rcd13ifvqhog","pricing_plan_id":"free"},{"bike_id":"6b6cba89-d2b8-44bb-8454-5df08cf65f67","system_id":"levelo_inurba_marseille","lat":43.32369,"lon":5.3888,"is_reserved":false,"is_disabled":false,"rental_uris":{"android":"levelo://app?vid=6b6cba89-d2b8-44bb-8454-5df08cf65f67","ios":"levelo://app?vid=6b6cba89-d2b8-44bb-8454-5df08cf65f67"},"vehicle_type_id":"4","last_reported":1692371253,"current_range_meters":17600,"station_id":"ce4bhqp2rcd13ifvqhog","pricing_plan_id":"free"},{"bike_id":"0b218697-402e-427c-8cbb-e52d50dc36a4","system_id":"levelo_inurba_marseille","lat":43.32372,"lon":5.38879,"is_reserved":false,"is_disabled":false,"rental_uris":{"android":"levelo://app?vid=0b218697-402e-427c-8cbb-e52d50dc36a4","ios":"levelo://app?vid=0b218697-402e-427c-8cbb-e52d50dc36a4"},"vehicle_type_id":"4","last_reported":1692371253,"current_range_meters":4800,"station_id":"ce4bhqp2rcd13ifvqhog","pricing_plan_id":"free"},{"bike_id":"810e5c4e-cfbd-4fb4-b6d8-02289cde4c80","system_id":"levelo_inurba_marseille","lat":43.32373,"lon":5.38879,"is_reserved":false,"is_disabled":false,"rental_uris":{"android":"levelo://app?vid=810e5c4e-cfbd-4fb4-b6d8-02289cde4c80","ios":"levelo://app?vid=810e5c4e-cfbd-4fb4-b6d8-02289cde4c80"},"vehicle_type_id":"4","last_reported":1692371253,"current_range_meters":17600,"station_id":"ce4bhqp2rcd13ifvqhog","pricing_plan_id":"free"},{"bike_id":"4314cd19-09e7-4af1-900a-88512d095e20","system_id":"levelo_inurba_marseille","lat":43.32371,"lon":5.38883,"is_reserved":false,"is_disabled":false,"rental_uris":{"android":"levelo://app?vid=4314cd19-09e7-4af1-900a-88512d095e20","ios":"levelo://app?vid=4314cd19-09e7-4af1-900a-88512d095e20"},"vehicle_type_id":"4","last_reported":1692371253,"current_range_meters":12400,"station_id":"ce4bhqp2rcd13ifvqhog","pricing_plan_id":"free"},{"bike_id":"dee3b37d-585c-4496-863c-8c6a2ad2f3e5","system_id":"levelo_inurba_marseille","lat":43.32369,"lon":5.38885,"is_reserved":false,"is_disabled":false,"rental_uris":{"android":"levelo://app?vid=dee3b37d-585c-4496-863c-8c6a2ad2f3e5","ios":"levelo://app?vid=dee3b37d-585c-4496-863c-8c6a2ad2f3e5"},"vehicle_type_id":"4","last_reported":1692371253,"current_range_meters":17600,"station_id":"ce4bhqp2rcd13ifvqhog","pricing_plan_id":"free"},{"bike_id":"38fef587-7cc5-4800-b069-87b8f296a10a","system_id":"levelo_inurba_marseille","lat":43.293009,"lon":5.374584,"is_reserved":false,"is_disabled":false,"rental_uris":{"android":"levelo://app?vid=38fef587-7cc5-4800-b069-87b8f296a10a","ios":"levelo://app?vid=38fef587-7cc5-4800-b069-87b8f296a10a"},"vehicle_type_id":"4","last_reported":1692371253,"current_range_meters":31200,"station_id":"ce4bgi12rcd13ifvqb70","pricing_plan_id":"free"},{"bike_id":"35368eb1-5d6a-4eb2-a3a4-2eb2ac218abb","system_id":"levelo_inurba_marseille","lat":43.305994,"lon":5.393687,"is_reserved":false,"is_disabled":false,"rental_uris":{"android":"levelo://app?vid=35368eb1-5d6a-4eb2-a3a4-2eb2ac218abb","ios":"levelo://app?vid=35368eb1-5d6a-4eb2-a3a4-2eb2ac218abb"},"vehicle_type_id":"4","last_reported":1692371253,"current_range_meters":17200,"station_id":"ce4bh0p2rcd13ifvqd80","pricing_plan_id":"free"},{"bike_id":"f83a1872-f4c3-4522-92b7-968491ffd00c","system_id":"levelo_inurba_marseille","lat":43.305994,"lon":5.393687,"is_reserved":false,"is_disabled":false,"rental_uris":{"android":"levelo://app?vid=f83a1872-f4c3-4522-92b7-968491ffd00c","ios":"levelo://app?vid=f83a1872-f4c3-4522-92b7-968491ffd00c"},"vehicle_type_id":"4","last_reported":1692371253,"current_range_meters":2400,"station_id":"ce4bh0p2rcd13ifvqd80","pricing_plan_id":"free"},{"bike_id":"fc1debb7-2270-4e06-9929-2a61d2d5338b","system_id":"levelo_inurba_marseille","lat":43.2936,"lon":5.37835,"is_reserved":false,"is_disabled":false,"rental_uris":{"android":"levelo://app?vid=fc1debb7-2270-4e06-9929-2a61d2d5338b","ios":"levelo://app?vid=fc1debb7-2270-4e06-9929-2a61d2d5338b"},"vehicle_type_id":"4","last_reported":1692371253,"current_range_meters":13600,"station_id":"ce4bgjh2rcd13ifvqbf0","pricing_plan_id":"free"},{"bike_id":"b427772f-2feb-4c02-b772-c2e63087b3f9","system_id":"levelo_inurba_marseille","lat":43.2936,"lon":5.37835,"is_reserved":false,"is_disabled":false,"rental_uris":{"android":"levelo://app?vid=b427772f-2feb-4c02-b772-c2e63087b3f9","ios":"levelo://app?vid=b427772f-2feb-4c02-b772-c2e63087b3f9"},"vehicle_type_id":"4","last_reported":1692371253,"current_range_meters":27200,"station_id":"ce4bgjh2rcd13ifvqbf0","pricing_plan_id":"free"},{"bike_id":"dbc22087-89ee-4022-ad37-3abb7ba81b02","system_id":"levelo_inurba_marseille","lat":43.290336,"lon":5.386425,"is_reserved":false,"is_disabled":false,"rental_uris":{"android":"levelo://app?vid=dbc22087-89ee-4022-ad37-3abb7ba81b02","ios":"levelo://app?vid=dbc22087-89ee-4022-ad37-3abb7ba81b02"},"vehicle_type_id":"4","last_reported":1692371253,"current_range_meters":16400,"station_id":"ce4bh4p2rcd13ifvqe0g","pricing_plan_id":"free"},{"bike_id":"f191e706-f218-4eef-a011-f45f75464524","system_id":"levelo_inurba_marseille","lat":43.292311,"lon":5.360731,"is_reserved":false,"is_disabled":false,"rental_uris":{"android":"levelo://app?vid=f191e706-f218-4eef-a011-f45f75464524","ios":"levelo://app?vid=f191e706-f218-4eef-a011-f45f75464524"},"vehicle_type_id":"4","last_reported":1692371253,"current_range_meters":31200,"station_id":"ce4bhbh2rcd13ifvqeqg","pricing_plan_id":"free"},{"bike_id":"fcaf329b-87ba-4672-8bda-52035ee253c7","system_id":"levelo_inurba_marseille","lat":43.292311,"lon":5.360731,"is_reserved":false,"is_disabled":false,"rental_uris":{"android":"levelo://app?vid=fcaf329b-87ba-4672-8bda-52035ee253c7","ios":"levelo://app?vid=fcaf329b-87ba-4672-8bda-52035ee253c7"},"vehicle_type_id":"4","last_reported":1692371253,"current_range_meters":31200,"station_id":"ce4bhbh2rcd13ifvqeqg","pricing_plan_id":"free"},{"bike_id":"57f9834e-5f38-4f96-a94f-e50404b3798a","system_id":"levelo_inurba_marseille","lat":43.292311,"lon":5.360731,"is_reserved":false,"is_disabled":false,"rental_uris":{"android":"levelo://app?vid=57f9834e-5f38-4f96-a94f-e50404b3798a","ios":"levelo://app?vid=57f9834e-5f38-4f96-a94f-e50404b3798a"},"vehicle_type_id":"4","last_reported":1692371253,"current_range_meters":0,"station_id":"ce4bhbh2rcd13ifvqeqg","pricing_plan_id":"free"},{"bike_id":"66cac1db-d8a1-49a3-b063-38342716fc9a","system_id":"levelo_inurba_marseille","lat":43.300852,"lon":5.390859,"is_reserved":false,"is_disabled":false,"rental_uris":{"android":"levelo://app?vid=66cac1db-d8a1-49a3-b063-38342716fc9a","ios":"levelo://app?vid=66cac1db-d8a1-49a3-b063-38342716fc9a"},"vehicle_type_id":"4","last_reported":1692371253,"current_range_meters":28800,"station_id":"ce4bh192rcd13ifvqdb0","pricing_plan_id":"free"},{"bike_id":"647f75c9-f16a-4780-b654-c3aba5519296","system_id":"levelo_inurba_marseille","lat":43.31324,"lon":5.39686,"is_reserved":false,"is_disabled":false,"rental_uris":{"android":"levelo://app?vid=647f75c9-f16a-4780-b654-c3aba5519296","ios":"levelo://app?vid=647f75c9-f16a-4780-b654-c3aba5519296"},"vehicle_type_id":"4","last_reported":1692371253,"current_range_meters":3200,"station_id":"ce4bgvp2rcd13ifvqcu0","pricing_plan_id":"free"},{"bike_id":"b3511cb4-2eb7-40d6-93ab-21c564320fcb","system_id":"levelo_inurba_marseille","lat":43.3133,"lon":5.39695,"is_reserved":false,"is_disabled":false,"rental_uris":{"android":"levelo://app?vid=b3511cb4-2eb7-40d6-93ab-21c564320fcb","ios":"levelo://app?vid=b3511cb4-2eb7-40d6-93ab-21c564320fcb"},"vehicle_type_id":"4","last_reported":1692371253,"current_range_meters":22800,"station_id":"ce4bgvp2rcd13ifvqcu0","pricing_plan_id":"free"},{"bike_id":"f530ef7c-0365-472b-82ea-4a2ce68936cc","system_id":"levelo_inurba_marseille","lat":43.31328,"lon":5.39696,"is_reserved":false,"is_disabled":false,"rental_uris":{"android":"levelo://app?vid=f530ef7c-0365-472b-82ea-4a2ce68936cc","ios":"levelo://app?vid=f530ef7c-0365-472b-82ea-4a2ce68936cc"},"vehicle_type_id":"4","last_reported":1692371253,"current_range_meters":30800,"station_id":"ce4bgvp2rcd13ifvqcu0","pricing_plan_id":"free"},{"bike_id":"fc16cc48-bb6a-4cf5-9704-811b67f15f9c","system_id":"levelo_inurba_marseille","lat":43.30874,"lon":5.39649,"is_reserved":false,"is_disabled":false,"rental_uris":{"android":"levelo://app?vid=fc16cc48-bb6a-4cf5-9704-811b67f15f9c","ios":"levelo://app?vid=fc16cc48-bb6a-4cf5-9704-811b67f15f9c"},"vehicle_type_id":"4","last_reported":1692371253,"current_range_meters":14000,"station_id":"ce4bh012rcd13ifvqcv0","pricing_plan_id":"free"},{"bike_id":"0c7c2b59-dc13-48cc-b522-04862a7965e3","system_id":"levelo_inurba_marseille","lat":43.30881,"lon":5.39651,"is_reserved":false,"is_disabled":false,"rental_uris":{"android":"levelo://app?vid=0c7c2b59-dc13-48cc-b522-04862a7965e3","ios":"levelo://app?vid=0c7c2b59-dc13-48cc-b522-04862a7965e3"},"vehicle_type_id":"4","last_reported":1692371253,"current_range_meters":19600,"station_id":"ce4bh012rcd13ifvqcv0","pricing_plan_id":"free"},{"bike_id":"f8e22b43-9b04-48fe-b796-2d8d3e42740f","system_id":"levelo_inurba_marseille","lat":43.31324,"lon":5.397,"is_reserved":false,"is_disabled":false,"rental_uris":{"android":"levelo://app?vid=f8e22b43-9b04-48fe-b796-2d8d3e42740f","ios":"levelo://app?vid=f8e22b43-9b04-48fe-b796-2d8d3e42740f"},"vehicle_type_id":"4","last_reported":1692371253,"current_range_meters":10800,"station_id":"ce4bgvp2rcd13ifvqcu0","pricing_plan_id":"free"},{"bike_id":"13e77aba-c111-4a5b-8392-35e64a059e1f","system_id":"levelo_inurba_marseille","lat":43.29529,"lon":5.385581,"is_reserved":false,"is_disabled":false,"rental_uris":{"android":"levelo://app?vid=13e77aba-c111-4a5b-8392-35e64a059e1f","ios":"levelo://app?vid=13e77aba-c111-4a5b-8392-35e64a059e1f"},"vehicle_type_id":"4","last_reported":1692371253,"current_range_meters":22000,"station_id":"ce4bgih2rcd13ifvqba0","pricing_plan_id":"free"},{"bike_id":"8ada4bc3-6cb2-413e-87ed-852883df915e","system_id":"levelo_inurba_marseille","lat":43.29529,"lon":5.385581,"is_reserved":false,"is_disabled":false,"rental_uris":{"android":"levelo://app?vid=8ada4bc3-6cb2-413e-87ed-852883df915e","ios":"levelo://app?vid=8ada4bc3-6cb2-413e-87ed-852883df915e"},"vehicle_type_id":"4","last_reported":1692371253,"current_range_meters":26400,"station_id":"ce4bgih2rcd13ifvqba0","pricing_plan_id":"free"},{"bike_id":"13467004-162f-46c4-b6f9-5062a6169f3e","system_id":"levelo_inurba_marseille","lat":43.284219,"lon":5.3497,"is_reserved":false,"is_disabled":false,"rental_uris":{"android":"levelo://app?vid=13467004-162f-46c4-b6f9-5062a6169f3e","ios":"levelo://app?vid=13467004-162f-46c4-b6f9-5062a6169f3e"},"vehicle_type_id":"4","last_reported":1692371253,"current_range_meters":3200,"station_id":"ce4bhbh2rcd13ifvqepg","pricing_plan_id":"free"},{"bike_id":"ddb678ec-a785-4309-8da7-ff2f63c03a1b","system_id":"levelo_inurba_marseille","lat":43.290631,"lon":5.359244,"is_reserved":false,"is_disabled":false,"rental_uris":{"android":"levelo://app?vid=ddb678ec-a785-4309-8da7-ff2f63c03a1b","ios":"levelo://app?vid=ddb678ec-a785-4309-8da7-ff2f63c03a1b"},"vehicle_type_id":"4","last_reported":1692371253,"current_range_meters":24000,"station_id":"ce4bha92rcd13ifvqeg0","pricing_plan_id":"free"},{"bike_id":"d7735fd4-2b27-48a8-9269-c8191ff95d97","system_id":"levelo_inurba_marseille","lat":43.294153,"lon":5.386305,"is_reserved":false,"is_disabled":false,"rental_uris":{"android":"levelo://app?vid=d7735fd4-2b27-48a8-9269-c8191ff95d97","ios":"levelo://app?vid=d7735fd4-2b27-48a8-9269-c8191ff95d97"},"vehicle_type_id":"4","last_reported":1692371253,"current_range_meters":24400,"station_id":"ce4bh2h2rcd13ifvqdh0","pricing_plan_id":"free"},{"bike_id":"d725d7d0-8568-46d7-92d0-19a2984279b8","system_id":"levelo_inurba_marseille","lat":43.294153,"lon":5.386305,"is_reserved":false,"is_disabled":false,"rental_uris":{"android":"levelo://app?vid=d725d7d0-8568-46d7-92d0-19a2984279b8","ios":"levelo://app?vid=d725d7d0-8568-46d7-92d0-19a2984279b8"},"vehicle_type_id":"4","last_reported":1692371253,"current_range_meters":22400,"station_id":"ce4bh2h2rcd13ifvqdh0","pricing_plan_id":"free"},{"bike_id":"c26b7e0f-4fce-41ee-8cdf-b1fb2727de80","system_id":"levelo_inurba_marseille","lat":43.289184,"lon":5.366408,"is_reserved":false,"is_disabled":false,"rental_uris":{"android":"levelo://app?vid=c26b7e0f-4fce-41ee-8cdf-b1fb2727de80","ios":"levelo://app?vid=c26b7e0f-4fce-41ee-8cdf-b1fb2727de80"},"vehicle_type_id":"4","last_reported":1692371253,"current_range_meters":6400,"station_id":"ce4bhap2rcd13ifvqek0","pricing_plan_id":"free"},{"bike_id":"f781cfbd-5f69-46df-b5dd-c957c91af4ab","system_id":"levelo_inurba_marseille","lat":43.289184,"lon":5.366408,"is_reserved":false,"is_disabled":false,"rental_uris":{"android":"levelo://app?vid=f781cfbd-5f69-46df-b5dd-c957c91af4ab","ios":"levelo://app?vid=f781cfbd-5f69-46df-b5dd-c957c91af4ab"},"vehicle_type_id":"4","last_reported":1692371253,"current_range_meters":15200,"station_id":"ce4bhap2rcd13ifvqek0","pricing_plan_id":"free"},{"bike_id":"92adcc0c-8aa3-4298-af0d-4cb77bd8d939","system_id":"levelo_inurba_marseille","lat":43.289184,"lon":5.366408,"is_reserved":false,"is_disabled":false,"rental_uris":{"android":"levelo://app?vid=92adcc0c-8aa3-4298-af0d-4cb77bd8d939","ios":"levelo://app?vid=92adcc0c-8aa3-4298-af0d-4cb77bd8d939"},"vehicle_type_id":"4","last_reported":1692371253,"current_range_meters":26800,"station_id":"ce4bhap2rcd13ifvqek0","pricing_plan_id":"free"},{"bike_id":"c9e6b12b-e1c6-43a4-8dc2-ee24b5bfaa71","system_id":"levelo_inurba_marseille","lat":43.292644,"lon":5.384257,"is_reserved":false,"is_disabled":false,"rental_uris":{"android":"levelo://app?vid=c9e6b12b-e1c6-43a4-8dc2-ee24b5bfaa71","ios":"levelo://app?vid=c9e6b12b-e1c6-43a4-8dc2-ee24b5bfaa71"},"vehicle_type_id":"4","last_reported":1692371253,"current_range_meters":16400,"station_id":"ce4bh692rcd13ifvqea0","pricing_plan_id":"free"},{"bike_id":"448a9d55-c10e-4e9b-a834-3e472923bf04","system_id":"levelo_inurba_marseille","lat":43.30468,"lon":5.39788,"is_reserved":false,"is_disabled":false,"rental_uris":{"android":"levelo://app?vid=448a9d55-c10e-4e9b-a834-3e472923bf04","ios":"levelo://app?vid=448a9d55-c10e-4e9b-a834-3e472923bf04"},"vehicle_type_id":"4","last_reported":1692371253,"current_range_meters":14800,"station_id":"","pricing_plan_id":"free"},{"bike_id":"ee6169e7-305c-48b3-9bc0-ac90e4868c39","system_id":"levelo_inurba_marseille","lat":43.33044,"lon":5.38913,"is_reserved":false,"is_disabled":false,"rental_uris":{"android":"levelo://app?vid=ee6169e7-305c-48b3-9bc0-ac90e4868c39","ios":"levelo://app?vid=ee6169e7-305c-48b3-9bc0-ac90e4868c39"},"vehicle_type_id":"4","last_reported":1692371253,"current_range_meters":17200,"station_id":"ce4bhr92rcd13ifvqhrg","pricing_plan_id":"free"},{"bike_id":"05a435a6-3097-4f21-ba91-7b2f8513cb9c","system_id":"levelo_inurba_marseille","lat":43.290103,"lon":5.356114,"is_reserved":false,"is_disabled":false,"rental_uris":{"android":"levelo://app?vid=05a435a6-3097-4f21-ba91-7b2f8513cb9c","ios":"levelo://app?vid=05a435a6-3097-4f21-ba91-7b2f8513cb9c"},"vehicle_type_id":"4","last_reported":1692371253,"current_range_meters":31200,"station_id":"ce4bhb92rcd13ifvqen0","pricing_plan_id":"free"},{"bike_id":"744af631-9308-4f4a-95a4-e577973aa0e3","system_id":"levelo_inurba_marseille","lat":43.29008,"lon":5.35617,"is_reserved":false,"is_disabled":false,"rental_uris":{"android":"levelo://app?vid=744af631-9308-4f4a-95a4-e577973aa0e3","ios":"levelo://app?vid=744af631-9308-4f4a-95a4-e577973aa0e3"},"vehicle_type_id":"4","last_reported":1692371253,"current_range_meters":31200,"station_id":"","pricing_plan_id":"free"},{"bike_id":"10c4aadc-2085-4f35-8ff3-9ac4fdb75221","system_id":"levelo_inurba_marseille","lat":43.33046,"lon":5.38914,"is_reserved":false,"is_disabled":false,"rental_uris":{"android":"levelo://app?vid=10c4aadc-2085-4f35-8ff3-9ac4fdb75221","ios":"levelo://app?vid=10c4aadc-2085-4f35-8ff3-9ac4fdb75221"},"vehicle_type_id":"4","last_reported":1692371253,"current_range_meters":24400,"station_id":"ce4bhr92rcd13ifvqhrg","pricing_plan_id":"free"},{"bike_id":"2b80de14-59ed-4cf4-8f77-c1ce738a7471","system_id":"levelo_inurba_marseille","lat":43.33047,"lon":5.38915,"is_reserved":false,"is_disabled":false,"rental_uris":{"android":"levelo://app?vid=2b80de14-59ed-4cf4-8f77-c1ce738a7471","ios":"levelo://app?vid=2b80de14-59ed-4cf4-8f77-c1ce738a7471"},"vehicle_type_id":"4","last_reported":1692371253,"current_range_meters":16800,"station_id":"ce4bhr92rcd13ifvqhrg","pricing_plan_id":"free"},{"bike_id":"e17c71d4-fc9a-4ba6-a1eb-e9daef1ac72f","system_id":"levelo_inurba_marseille","lat":43.33045,"lon":5.3892,"is_reserved":false,"is_disabled":false,"rental_uris":{"android":"levelo://app?vid=e17c71d4-fc9a-4ba6-a1eb-e9daef1ac72f","ios":"levelo://app?vid=e17c71d4-fc9a-4ba6-a1eb-e9daef1ac72f"},"vehicle_type_id":"4","last_reported":1692371253,"current_range_meters":28400,"station_id":"ce4bhr92rcd13ifvqhrg","pricing_plan_id":"free"},{"bike_id":"78f1a325-e5b4-4a72-bb0e-b29d3285ba24","system_id":"levelo_inurba_marseille","lat":43.290104,"lon":5.356111,"is_reserved":false,"is_disabled":false,"rental_uris":{"android":"levelo://app?vid=78f1a325-e5b4-4a72-bb0e-b29d3285ba24","ios":"levelo://app?vid=78f1a325-e5b4-4a72-bb0e-b29d3285ba24"},"vehicle_type_id":"4","last_reported":1692371253,"current_range_meters":31200,"station_id":"ce4bhb92rcd13ifvqen0","pricing_plan_id":"free"},{"bike_id":"27f55e80-c5e5-4ece-963a-1777c6d0deae","system_id":"levelo_inurba_marseille","lat":43.290045,"lon":5.356088,"is_reserved":false,"is_disabled":false,"rental_uris":{"android":"levelo://app?vid=27f55e80-c5e5-4ece-963a-1777c6d0deae","ios":"levelo://app?vid=27f55e80-c5e5-4ece-963a-1777c6d0deae"},"vehicle_type_id":"4","last_reported":1692371253,"current_range_meters":19200,"station_id":"ce4bhb92rcd13ifvqen0","pricing_plan_id":"free"},{"bike_id":"62256a70-a932-4d3f-a43c-f48748c58a43","system_id":"levelo_inurba_marseille","lat":43.290022,"lon":5.356139,"is_reserved":false,"is_disabled":false,"rental_uris":{"android":"levelo://app?vid=62256a70-a932-4d3f-a43c-f48748c58a43","ios":"levelo://app?vid=62256a70-a932-4d3f-a43c-f48748c58a43"},"vehicle_type_id":"4","last_reported":1692371253,"current_range_meters":31600,"station_id":"","pricing_plan_id":"free"},{"bike_id":"9e9e9179-e3fa-4fb0-8e96-6528a4b2bce7","system_id":"levelo_inurba_marseille","lat":43.295169,"lon":5.390426,"is_reserved":false,"is_disabled":false,"rental_uris":{"android":"levelo://app?vid=9e9e9179-e3fa-4fb0-8e96-6528a4b2bce7","ios":"levelo://app?vid=9e9e9179-e3fa-4fb0-8e96-6528a4b2bce7"},"vehicle_type_id":"4","last_reported":1692371253,"current_range_meters":28400,"station_id":"ce4bh3p2rcd13ifvqdp0","pricing_plan_id":"free"},{"bike_id":"f57500ad-59c8-4c33-a0e9-2c63b93c6f0f","system_id":"levelo_inurba_marseille","lat":43.29024,"lon":5.38123,"is_reserved":false,"is_disabled":false,"rental_uris":{"android":"levelo://app?vid=f57500ad-59c8-4c33-a0e9-2c63b93c6f0f","ios":"levelo://app?vid=f57500ad-59c8-4c33-a0e9-2c63b93c6f0f"},"vehicle_type_id":"4","last_reported":1692371253,"current_range_meters":7200,"station_id":"ce4bh4p2rcd13ifvqe1g","pricing_plan_id":"free"},{"bike_id":"aa3c713c-4e53-4363-a2d1-208a6815da5b","system_id":"levelo_inurba_marseille","lat":43.28857,"lon":5.35859,"is_reserved":false,"is_disabled":false,"rental_uris":{"android":"levelo://app?vid=aa3c713c-4e53-4363-a2d1-208a6815da5b","ios":"levelo://app?vid=aa3c713c-4e53-4363-a2d1-208a6815da5b"},"vehicle_type_id":"4","last_reported":1692371253,"current_range_meters":21200,"station_id":"","pricing_plan_id":"free"},{"bike_id":"c72abfd6-b6d4-4e0d-aca4-940c9f8b61a8","system_id":"levelo_inurba_marseille","lat":43.28856,"lon":5.358371,"is_reserved":false,"is_disabled":false,"rental_uris":{"android":"levelo://app?vid=c72abfd6-b6d4-4e0d-aca4-940c9f8b61a8","ios":"levelo://app?vid=c72abfd6-b6d4-4e0d-aca4-940c9f8b61a8"},"vehicle_type_id":"4","last_reported":1692371253,"current_range_meters":28800,"station_id":"ce4bhb12rcd13ifvqem0","pricing_plan_id":"free"},{"bike_id":"402f91d5-492e-45d8-83be-93e5a2b6defb","system_id":"levelo_inurba_marseille","lat":43.28856,"lon":5.358371,"is_reserved":false,"is_disabled":false,"rental_uris":{"android":"levelo://app?vid=402f91d5-492e-45d8-83be-93e5a2b6defb","ios":"levelo://app?vid=402f91d5-492e-45d8-83be-93e5a2b6defb"},"vehicle_type_id":"4","last_reported":1692371253,"current_range_meters":14000,"station_id":"ce4bhb12rcd13ifvqem0","pricing_plan_id":"free"},{"bike_id":"ff44e586-d1a7-496a-9f97-0d2f052fedf6","system_id":"levelo_inurba_marseille","lat":43.30944,"lon":5.40142,"is_reserved":false,"is_disabled":false,"rental_uris":{"android":"levelo://app?vid=ff44e586-d1a7-496a-9f97-0d2f052fedf6","ios":"levelo://app?vid=ff44e586-d1a7-496a-9f97-0d2f052fedf6"},"vehicle_type_id":"4","last_reported":1692371253,"current_range_meters":15600,"station_id":"ce4bgvp2rcd13ifvqct0","pricing_plan_id":"free"},{"bike_id":"99d343dd-7199-48b8-9178-823f2da8e4aa","system_id":"levelo_inurba_marseille","lat":43.33761,"lon":5.37452,"is_reserved":false,"is_disabled":false,"rental_uris":{"android":"levelo://app?vid=99d343dd-7199-48b8-9178-823f2da8e4aa","ios":"levelo://app?vid=99d343dd-7199-48b8-9178-823f2da8e4aa"},"vehicle_type_id":"4","last_reported":1692371253,"current_range_meters":26000,"station_id":"","pricing_plan_id":"free"},{"bike_id":"b82a3b97-3837-4f07-be70-de9868852a28","system_id":"levelo_inurba_marseille","lat":43.286961,"lon":5.373785,"is_reserved":false,"is_disabled":false,"rental_uris":{"android":"levelo://app?vid=b82a3b97-3837-4f07-be70-de9868852a28","ios":"levelo://app?vid=b82a3b97-3837-4f07-be70-de9868852a28"},"vehicle_type_id":"4","last_reported":1692371253,"current_range_meters":4800,"station_id":"ce4bh3p2rcd13ifvqdq0","pricing_plan_id":"free"},{"bike_id":"346a2f9c-8682-4618-8c72-d6f800a87990","system_id":"levelo_inurba_marseille","lat":43.298681,"lon":5.397225,"is_reserved":false,"is_disabled":false,"rental_uris":{"android":"levelo://app?vid=346a2f9c-8682-4618-8c72-d6f800a87990","ios":"levelo://app?vid=346a2f9c-8682-4618-8c72-d6f800a87990"},"vehicle_type_id":"4","last_reported":1692371253,"current_range_meters":29600,"station_id":"ce4bh0h2rcd13ifvqd50","pricing_plan_id":"free"},{"bike_id":"75199276-b705-4ad7-b6a9-49aeaa84628a","system_id":"levelo_inurba_marseille","lat":43.286591,"lon":5.363346,"is_reserved":false,"is_disabled":false,"rental_uris":{"android":"levelo://app?vid=75199276-b705-4ad7-b6a9-49aeaa84628a","ios":"levelo://app?vid=75199276-b705-4ad7-b6a9-49aeaa84628a"},"vehicle_type_id":"4","last_reported":1692371253,"current_range_meters":29600,"station_id":"ce4bhah2rcd13ifvqej0","pricing_plan_id":"free"},{"bike_id":"94004ef2-3dfc-4a2a-ab58-3f0bbac05f71","system_id":"levelo_inurba_marseille","lat":43.295196,"lon":5.39397,"is_reserved":false,"is_disabled":false,"rental_uris":{"android":"levelo://app?vid=94004ef2-3dfc-4a2a-ab58-3f0bbac05f71","ios":"levelo://app?vid=94004ef2-3dfc-4a2a-ab58-3f0bbac05f71"},"vehicle_type_id":"4","last_reported":1692371253,"current_range_meters":27200,"station_id":"ce4bh292rcd13ifvqdf0","pricing_plan_id":"free"},{"bike_id":"4b6ef5fb-1f69-48ee-ac19-1f7b58d69169","system_id":"levelo_inurba_marseille","lat":43.295196,"lon":5.39397,"is_reserved":false,"is_disabled":false,"rental_uris":{"android":"levelo://app?vid=4b6ef5fb-1f69-48ee-ac19-1f7b58d69169","ios":"levelo://app?vid=4b6ef5fb-1f69-48ee-ac19-1f7b58d69169"},"vehicle_type_id":"4","last_reported":1692371253,"current_range_meters":18800,"station_id":"ce4bh292rcd13ifvqdf0","pricing_plan_id":"free"},{"bike_id":"160c0349-0f32-478f-abfa-94e6771fadaa","system_id":"levelo_inurba_marseille","lat":43.295196,"lon":5.39397,"is_reserved":false,"is_disabled":false,"rental_uris":{"android":"levelo://app?vid=160c0349-0f32-478f-abfa-94e6771fadaa","ios":"levelo://app?vid=160c0349-0f32-478f-abfa-94e6771fadaa"},"vehicle_type_id":"4","last_reported":1692371253,"current_range_meters":9600,"station_id":"ce4bh292rcd13ifvqdf0","pricing_plan_id":"free"},{"bike_id":"2b54dd7f-bff5-450a-8056-f63c70ababf2","system_id":"levelo_inurba_marseille","lat":43.286961,"lon":5.373785,"is_reserved":false,"is_disabled":false,"rental_uris":{"android":"levelo://app?vid=2b54dd7f-bff5-450a-8056-f63c70ababf2","ios":"levelo://app?vid=2b54dd7f-bff5-450a-8056-f63c70ababf2"},"vehicle_type_id":"4","last_reported":1692371253,"current_range_meters":4800,"station_id":"ce4bh3p2rcd13ifvqdq0","pricing_plan_id":"free"},{"bike_id":"34cd6beb-0059-4f51-b26a-3a202867791c","system_id":"levelo_inurba_marseille","lat":43.286961,"lon":5.373785,"is_reserved":false,"is_disabled":false,"rental_uris":{"android":"levelo://app?vid=34cd6beb-0059-4f51-b26a-3a202867791c","ios":"levelo://app?vid=34cd6beb-0059-4f51-b26a-3a202867791c"},"vehicle_type_id":"4","last_reported":1692371253,"current_range_meters":22800,"station_id":"ce4bh3p2rcd13ifvqdq0","pricing_plan_id":"free"},{"bike_id":"e8856128-b2da-4f5d-872b-485ba937753a","system_id":"levelo_inurba_marseille","lat":43.286593,"lon":5.363346,"is_reserved":false,"is_disabled":false,"rental_uris":{"android":"levelo://app?vid=e8856128-b2da-4f5d-872b-485ba937753a","ios":"levelo://app?vid=e8856128-b2da-4f5d-872b-485ba937753a"},"vehicle_type_id":"4","last_reported":1692371253,"current_range_meters":9200,"station_id":"ce4bhah2rcd13ifvqej0","pricing_plan_id":"free"},{"bike_id":"f8d77897-c33e-4fc9-beb8-711fbfa583ee","system_id":"levelo_inurba_marseille","lat":43.28714,"lon":5.37556,"is_reserved":false,"is_disabled":false,"rental_uris":{"android":"levelo://app?vid=f8d77897-c33e-4fc9-beb8-711fbfa583ee","ios":"levelo://app?vid=f8d77897-c33e-4fc9-beb8-711fbfa583ee"},"vehicle_type_id":"4","last_reported":1692371253,"current_range_meters":16400,"station_id":"","pricing_plan_id":"free"},{"bike_id":"dae1539d-03ad-47c3-b831-70093568de0d","system_id":"levelo_inurba_marseille","lat":43.290345,"lon":5.38646,"is_reserved":false,"is_disabled":false,"rental_uris":{"android":"levelo://app?vid=dae1539d-03ad-47c3-b831-70093568de0d","ios":"levelo://app?vid=dae1539d-03ad-47c3-b831-70093568de0d"},"vehicle_type_id":"4","last_reported":1692371253,"current_range_meters":12400,"station_id":"ce4bh4p2rcd13ifvqe0g","pricing_plan_id":"free"},{"bike_id":"9fc71737-b03a-4861-9d7b-45e9b72254de","system_id":"levelo_inurba_marseille","lat":43.290345,"lon":5.38646,"is_reserved":false,"is_disabled":false,"rental_uris":{"android":"levelo://app?vid=9fc71737-b03a-4861-9d7b-45e9b72254de","ios":"levelo://app?vid=9fc71737-b03a-4861-9d7b-45e9b72254de"},"vehicle_type_id":"4","last_reported":1692371253,"current_range_meters":30800,"station_id":"ce4bh4p2rcd13ifvqe0g","pricing_plan_id":"free"},{"bike_id":"621e9210-e1e3-488d-9e6a-db789a2457db","system_id":"levelo_inurba_marseille","lat":43.29032,"lon":5.38643,"is_reserved":false,"is_disabled":false,"rental_uris":{"android":"levelo://app?vid=621e9210-e1e3-488d-9e6a-db789a2457db","ios":"levelo://app?vid=621e9210-e1e3-488d-9e6a-db789a2457db"},"vehicle_type_id":"4","last_reported":1692371253,"current_range_meters":21200,"station_id":"","pricing_plan_id":"free"},{"bike_id":"2d815246-718c-46d9-8f54-8aea4027f55c","system_id":"levelo_inurba_marseille","lat":43.290336,"lon":5.386425,"is_reserved":false,"is_disabled":false,"rental_uris":{"android":"levelo://app?vid=2d815246-718c-46d9-8f54-8aea4027f55c","ios":"levelo://app?vid=2d815246-718c-46d9-8f54-8aea4027f55c"},"vehicle_type_id":"4","last_reported":1692371253,"current_range_meters":15200,"station_id":"ce4bh4p2rcd13ifvqe0g","pricing_plan_id":"free"},{"bike_id":"1f8c4555-6258-49ee-81fc-77657aa629da","system_id":"levelo_inurba_marseille","lat":43.295169,"lon":5.390426,"is_reserved":false,"is_disabled":false,"rental_uris":{"android":"levelo://app?vid=1f8c4555-6258-49ee-81fc-77657aa629da","ios":"levelo://app?vid=1f8c4555-6258-49ee-81fc-77657aa629da"},"vehicle_type_id":"4","last_reported":1692371253,"current_range_meters":30800,"station_id":"ce4bh3p2rcd13ifvqdp0","pricing_plan_id":"free"},{"bike_id":"6af65aae-9f07-4756-90fa-ce74876a7d49","system_id":"levelo_inurba_marseille","lat":43.286039,"lon":5.370679,"is_reserved":false,"is_disabled":false,"rental_uris":{"android":"levelo://app?vid=6af65aae-9f07-4756-90fa-ce74876a7d49","ios":"levelo://app?vid=6af65aae-9f07-4756-90fa-ce74876a7d49"},"vehicle_type_id":"4","last_reported":1692371253,"current_range_meters":24800,"station_id":"ce4bht12rcd13ifvqi60","pricing_plan_id":"free"},{"bike_id":"c4580212-7503-4b80-b4ee-084938da1d5e","system_id":"levelo_inurba_marseille","lat":43.286039,"lon":5.370679,"is_reserved":false,"is_disabled":false,"rental_uris":{"android":"levelo://app?vid=c4580212-7503-4b80-b4ee-084938da1d5e","ios":"levelo://app?vid=c4580212-7503-4b80-b4ee-084938da1d5e"},"vehicle_type_id":"4","last_reported":1692371253,"current_range_meters":31200,"station_id":"ce4bht12rcd13ifvqi60","pricing_plan_id":"free"},{"bike_id":"3ee45d83-7bca-41d7-8979-ec4a0293ec8b","system_id":"levelo_inurba_marseille","lat":43.286039,"lon":5.370681,"is_reserved":false,"is_disabled":false,"rental_uris":{"android":"levelo://app?vid=3ee45d83-7bca-41d7-8979-ec4a0293ec8b","ios":"levelo://app?vid=3ee45d83-7bca-41d7-8979-ec4a0293ec8b"},"vehicle_type_id":"4","last_reported":1692371253,"current_range_meters":30000,"station_id":"ce4bht12rcd13ifvqi60","pricing_plan_id":"free"},{"bike_id":"86e45201-91f5-4a0e-8471-6587ac1879ea","system_id":"levelo_inurba_marseille","lat":43.286039,"lon":5.370679,"is_reserved":false,"is_disabled":false,"rental_uris":{"android":"levelo://app?vid=86e45201-91f5-4a0e-8471-6587ac1879ea","ios":"levelo://app?vid=86e45201-91f5-4a0e-8471-6587ac1879ea"},"vehicle_type_id":"4","last_reported":1692371253,"current_range_meters":20000,"station_id":"ce4bht12rcd13ifvqi60","pricing_plan_id":"free"},{"bike_id":"78cb2593-9d0e-4589-8fa4-22629ed452a9","system_id":"levelo_inurba_marseille","lat":43.286039,"lon":5.370679,"is_reserved":false,"is_disabled":false,"rental_uris":{"android":"levelo://app?vid=78cb2593-9d0e-4589-8fa4-22629ed452a9","ios":"levelo://app?vid=78cb2593-9d0e-4589-8fa4-22629ed452a9"},"vehicle_type_id":"4","last_reported":1692371253,"current_range_meters":31200,"station_id":"ce4bht12rcd13ifvqi60","pricing_plan_id":"free"},{"bike_id":"66598a31-7f02-4dd8-8217-5ca20fc690fa","system_id":"levelo_inurba_marseille","lat":43.287184,"lon":5.37937,"is_reserved":false,"is_disabled":false,"rental_uris":{"android":"levelo://app?vid=66598a31-7f02-4dd8-8217-5ca20fc690fa","ios":"levelo://app?vid=66598a31-7f02-4dd8-8217-5ca20fc690fa"},"vehicle_type_id":"4","last_reported":1692371253,"current_range_meters":20800,"station_id":"ce4bh9p2rcd13ifvqec0","pricing_plan_id":"free"},{"bike_id":"ac934f45-1ee8-4fcb-bd1a-b445f563c4da","system_id":"levelo_inurba_marseille","lat":43.31645,"lon":5.40428,"is_reserved":false,"is_disabled":false,"rental_uris":{"android":"levelo://app?vid=ac934f45-1ee8-4fcb-bd1a-b445f563c4da","ios":"levelo://app?vid=ac934f45-1ee8-4fcb-bd1a-b445f563c4da"},"vehicle_type_id":"4","last_reported":1692371253,"current_range_meters":10400,"station_id":"ce4bh012rcd13ifvqd00","pricing_plan_id":"free"},{"bike_id":"7da9e437-1e79-4b5f-9ab0-65254ac17dd7","system_id":"levelo_inurba_marseille","lat":43.31643,"lon":5.40436,"is_reserved":false,"is_disabled":false,"rental_uris":{"android":"levelo://app?vid=7da9e437-1e79-4b5f-9ab0-65254ac17dd7","ios":"levelo://app?vid=7da9e437-1e79-4b5f-9ab0-65254ac17dd7"},"vehicle_type_id":"4","last_reported":1692371253,"current_range_meters":30400,"station_id":"ce4bh012rcd13ifvqd00","pricing_plan_id":"free"},{"bike_id":"c11e9455-0e46-4a3b-81bb-70d545a361f1","system_id":"levelo_inurba_marseille","lat":43.28747,"lon":5.38522,"is_reserved":false,"is_disabled":false,"rental_uris":{"android":"levelo://app?vid=c11e9455-0e46-4a3b-81bb-70d545a361f1","ios":"levelo://app?vid=c11e9455-0e46-4a3b-81bb-70d545a361f1"},"vehicle_type_id":"4","last_reported":1692371253,"current_range_meters":18000,"station_id":"","pricing_plan_id":"free"},{"bike_id":"a0b7fdd4-cad1-4a9d-a19d-c752405add28","system_id":"levelo_inurba_marseille","lat":43.284538,"lon":5.358657,"is_reserved":false,"is_disabled":false,"rental_uris":{"android":"levelo://app?vid=a0b7fdd4-cad1-4a9d-a19d-c752405add28","ios":"levelo://app?vid=a0b7fdd4-cad1-4a9d-a19d-c752405add28"},"vehicle_type_id":"4","last_reported":1692371253,"current_range_meters":1600,"station_id":"ce4bhah2rcd13ifvqei0","pricing_plan_id":"free"},{"bike_id":"527da5d0-7ba7-47cc-a5b0-d216463bf473","system_id":"levelo_inurba_marseille","lat":43.284538,"lon":5.358657,"is_reserved":false,"is_disabled":false,"rental_uris":{"android":"levelo://app?vid=527da5d0-7ba7-47cc-a5b0-d216463bf473","ios":"levelo://app?vid=527da5d0-7ba7-47cc-a5b0-d216463bf473"},"vehicle_type_id":"4","last_reported":1692371253,"current_range_meters":6000,"station_id":"ce4bhah2rcd13ifvqei0","pricing_plan_id":"free"},{"bike_id":"fbfb8a45-a9b6-4e9a-a839-13c3eeeb25f7","system_id":"levelo_inurba_marseille","lat":43.284538,"lon":5.358657,"is_reserved":false,"is_disabled":false,"rental_uris":{"android":"levelo://app?vid=fbfb8a45-a9b6-4e9a-a839-13c3eeeb25f7","ios":"levelo://app?vid=fbfb8a45-a9b6-4e9a-a839-13c3eeeb25f7"},"vehicle_type_id":"4","last_reported":1692371253,"current_range_meters":20400,"station_id":"ce4bhah2rcd13ifvqei0","pricing_plan_id":"free"},{"bike_id":"707c6d53-015b-4a99-909b-e6d871137208","system_id":"levelo_inurba_marseille","lat":43.28725,"lon":5.38521,"is_reserved":false,"is_disabled":false,"rental_uris":{"android":"levelo://app?vid=707c6d53-015b-4a99-909b-e6d871137208","ios":"levelo://app?vid=707c6d53-015b-4a99-909b-e6d871137208"},"vehicle_type_id":"4","last_reported":1692371253,"current_range_meters":31200,"station_id":"","pricing_plan_id":"free"},{"bike_id":"d520bb44-19d6-4b7a-897a-91b44c410c23","system_id":"levelo_inurba_marseille","lat":43.284538,"lon":5.358657,"is_reserved":false,"is_disabled":false,"rental_uris":{"android":"levelo://app?vid=d520bb44-19d6-4b7a-897a-91b44c410c23","ios":"levelo://app?vid=d520bb44-19d6-4b7a-897a-91b44c410c23"},"vehicle_type_id":"4","last_reported":1692371253,"current_range_meters":3600,"station_id":"ce4bhah2rcd13ifvqei0","pricing_plan_id":"free"},{"bike_id":"8bb2fa72-b09a-434e-a673-007380e2eb70","system_id":"levelo_inurba_marseille","lat":43.284538,"lon":5.358657,"is_reserved":false,"is_disabled":false,"rental_uris":{"android":"levelo://app?vid=8bb2fa72-b09a-434e-a673-007380e2eb70","ios":"levelo://app?vid=8bb2fa72-b09a-434e-a673-007380e2eb70"},"vehicle_type_id":"4","last_reported":1692371253,"current_range_meters":16400,"station_id":"ce4bhah2rcd13ifvqei0","pricing_plan_id":"free"},{"bike_id":"1eb90258-89eb-4984-b1cf-e002215f44e0","system_id":"levelo_inurba_marseille","lat":43.284538,"lon":5.358657,"is_reserved":false,"is_disabled":false,"rental_uris":{"android":"levelo://app?vid=1eb90258-89eb-4984-b1cf-e002215f44e0","ios":"levelo://app?vid=1eb90258-89eb-4984-b1cf-e002215f44e0"},"vehicle_type_id":"4","last_reported":1692371253,"current_range_meters":27600,"station_id":"ce4bhah2rcd13ifvqei0","pricing_plan_id":"free"},{"bike_id":"b886f000-3b7b-4d0c-974e-333ba04ee9eb","system_id":"levelo_inurba_marseille","lat":43.284534,"lon":5.358662,"is_reserved":false,"is_disabled":false,"rental_uris":{"android":"levelo://app?vid=b886f000-3b7b-4d0c-974e-333ba04ee9eb","ios":"levelo://app?vid=b886f000-3b7b-4d0c-974e-333ba04ee9eb"},"vehicle_type_id":"4","last_reported":1692371253,"current_range_meters":8400,"station_id":"ce4bhah2rcd13ifvqei0","pricing_plan_id":"free"},{"bike_id":"378f0ee2-541e-4e26-b713-2a4739376c69","system_id":"levelo_inurba_marseille","lat":43.284534,"lon":5.358662,"is_reserved":false,"is_disabled":false,"rental_uris":{"android":"levelo://app?vid=378f0ee2-541e-4e26-b713-2a4739376c69","ios":"levelo://app?vid=378f0ee2-541e-4e26-b713-2a4739376c69"},"vehicle_type_id":"4","last_reported":1692371253,"current_range_meters":24000,"station_id":"ce4bhah2rcd13ifvqei0","pricing_plan_id":"free"},{"bike_id":"c4ae2963-6e65-4245-a61d-85bb4c31556e","system_id":"levelo_inurba_marseille","lat":43.28708,"lon":5.38523,"is_reserved":false,"is_disabled":false,"rental_uris":{"android":"levelo://app?vid=c4ae2963-6e65-4245-a61d-85bb4c31556e","ios":"levelo://app?vid=c4ae2963-6e65-4245-a61d-85bb4c31556e"},"vehicle_type_id":"4","last_reported":1692371253,"current_range_meters":1600,"station_id":"","pricing_plan_id":"free"},{"bike_id":"fd9dbda4-5f8e-4e3e-a981-27741cf171d5","system_id":"levelo_inurba_marseille","lat":43.28619,"lon":5.35107,"is_reserved":false,"is_disabled":false,"rental_uris":{"android":"levelo://app?vid=fd9dbda4-5f8e-4e3e-a981-27741cf171d5","ios":"levelo://app?vid=fd9dbda4-5f8e-4e3e-a981-27741cf171d5"},"vehicle_type_id":"4","last_reported":1692371253,"current_range_meters":31200,"station_id":"ce4bhch2rcd13ifvqeug","pricing_plan_id":"free"},{"bike_id":"4c628d7d-0f4a-433c-9e8e-3b6ca068234b","system_id":"levelo_inurba_marseille","lat":43.28622,"lon":5.35097,"is_reserved":false,"is_disabled":false,"rental_uris":{"android":"levelo://app?vid=4c628d7d-0f4a-433c-9e8e-3b6ca068234b","ios":"levelo://app?vid=4c628d7d-0f4a-433c-9e8e-3b6ca068234b"},"vehicle_type_id":"4","last_reported":1692371253,"current_range_meters":28400,"station_id":"ce4bhch2rcd13ifvqeug","pricing_plan_id":"free"},{"bike_id":"eae85b0a-ded6-4282-8892-3f9bf17c7fd4","system_id":"levelo_inurba_marseille","lat":43.28618,"lon":5.35107,"is_reserved":false,"is_disabled":false,"rental_uris":{"android":"levelo://app?vid=eae85b0a-ded6-4282-8892-3f9bf17c7fd4","ios":"levelo://app?vid=eae85b0a-ded6-4282-8892-3f9bf17c7fd4"},"vehicle_type_id":"4","last_reported":1692371253,"current_range_meters":19200,"station_id":"ce4bhch2rcd13ifvqeug","pricing_plan_id":"free"},{"bike_id":"931e179a-707a-4609-9a7d-2a8625e1d12a","system_id":"levelo_inurba_marseille","lat":43.28618,"lon":5.35101,"is_reserved":false,"is_disabled":false,"rental_uris":{"android":"levelo://app?vid=931e179a-707a-4609-9a7d-2a8625e1d12a","ios":"levelo://app?vid=931e179a-707a-4609-9a7d-2a8625e1d12a"},"vehicle_type_id":"4","last_reported":1692371253,"current_range_meters":27200,"station_id":"ce4bhch2rcd13ifvqeug","pricing_plan_id":"free"},{"bike_id":"f36a10b9-69c8-42c9-a34e-a4d9361d03e0","system_id":"levelo_inurba_marseille","lat":43.28617,"lon":5.35103,"is_reserved":false,"is_disabled":false,"rental_uris":{"android":"levelo://app?vid=f36a10b9-69c8-42c9-a34e-a4d9361d03e0","ios":"levelo://app?vid=f36a10b9-69c8-42c9-a34e-a4d9361d03e0"},"vehicle_type_id":"4","last_reported":1692371253,"current_range_meters":24800,"station_id":"ce4bhch2rcd13ifvqeug","pricing_plan_id":"free"},{"bike_id":"a48e2ffb-cd0f-4cab-a703-b1b1313cf6c7","system_id":"levelo_inurba_marseille","lat":43.28617,"lon":5.35103,"is_reserved":false,"is_disabled":false,"rental_uris":{"android":"levelo://app?vid=a48e2ffb-cd0f-4cab-a703-b1b1313cf6c7","ios":"levelo://app?vid=a48e2ffb-cd0f-4cab-a703-b1b1313cf6c7"},"vehicle_type_id":"4","last_reported":1692371253,"current_range_meters":31200,"station_id":"ce4bhch2rcd13ifvqeug","pricing_plan_id":"free"},{"bike_id":"634f02f7-87c2-478a-ae51-faa98d8ae846","system_id":"levelo_inurba_marseille","lat":43.285856,"lon":5.350771,"is_reserved":false,"is_disabled":false,"rental_uris":{"android":"levelo://app?vid=634f02f7-87c2-478a-ae51-faa98d8ae846","ios":"levelo://app?vid=634f02f7-87c2-478a-ae51-faa98d8ae846"},"vehicle_type_id":"4","last_reported":1692371253,"current_range_meters":28400,"station_id":"ce4bhch2rcd13ifvqeug","pricing_plan_id":"free"},{"bike_id":"4f088b85-bc1c-452b-b098-ebd646c25eaf","system_id":"levelo_inurba_marseille","lat":43.285856,"lon":5.350771,"is_reserved":false,"is_disabled":false,"rental_uris":{"android":"levelo://app?vid=4f088b85-bc1c-452b-b098-ebd646c25eaf","ios":"levelo://app?vid=4f088b85-bc1c-452b-b098-ebd646c25eaf"},"vehicle_type_id":"4","last_reported":1692371253,"current_range_meters":25600,"station_id":"ce4bhch2rcd13ifvqeug","pricing_plan_id":"free"},{"bike_id":"45b73794-40da-485e-85aa-03dd3f9b124a","system_id":"levelo_inurba_marseille","lat":43.28616,"lon":5.35104,"is_reserved":false,"is_disabled":false,"rental_uris":{"android":"levelo://app?vid=45b73794-40da-485e-85aa-03dd3f9b124a","ios":"levelo://app?vid=45b73794-40da-485e-85aa-03dd3f9b124a"},"vehicle_type_id":"4","last_reported":1692371253,"current_range_meters":18400,"station_id":"ce4bhch2rcd13ifvqeug","pricing_plan_id":"free"},{"bike_id":"9078e016-5b59-4d58-b3a9-c7c611e1e35f","system_id":"levelo_inurba_marseille","lat":43.28616,"lon":5.35103,"is_reserved":false,"is_disabled":false,"rental_uris":{"android":"levelo://app?vid=9078e016-5b59-4d58-b3a9-c7c611e1e35f","ios":"levelo://app?vid=9078e016-5b59-4d58-b3a9-c7c611e1e35f"},"vehicle_type_id":"4","last_reported":1692371253,"current_range_meters":30800,"station_id":"ce4bhch2rcd13ifvqeug","pricing_plan_id":"free"},{"bike_id":"1229f522-7e2b-4023-96a2-da4dd6ba1115","system_id":"levelo_inurba_marseille","lat":43.28614,"lon":5.35109,"is_reserved":false,"is_disabled":false,"rental_uris":{"android":"levelo://app?vid=1229f522-7e2b-4023-96a2-da4dd6ba1115","ios":"levelo://app?vid=1229f522-7e2b-4023-96a2-da4dd6ba1115"},"vehicle_type_id":"4","last_reported":1692371253,"current_range_meters":13200,"station_id":"ce4bhch2rcd13ifvqeug","pricing_plan_id":"free"},{"bike_id":"35eec3a1-aa54-4990-8eb4-78e6c0dd24d0","system_id":"levelo_inurba_marseille","lat":43.28615,"lon":5.35105,"is_reserved":false,"is_disabled":false,"rental_uris":{"android":"levelo://app?vid=35eec3a1-aa54-4990-8eb4-78e6c0dd24d0","ios":"levelo://app?vid=35eec3a1-aa54-4990-8eb4-78e6c0dd24d0"},"vehicle_type_id":"4","last_reported":1692371253,"current_range_meters":16000,"station_id":"ce4bhch2rcd13ifvqeug","pricing_plan_id":"free"},{"bike_id":"21171883-9ed8-4a52-8625-f874a133b3bf","system_id":"levelo_inurba_marseille","lat":43.28615,"lon":5.35105,"is_reserved":false,"is_disabled":false,"rental_uris":{"android":"levelo://app?vid=21171883-9ed8-4a52-8625-f874a133b3bf","ios":"levelo://app?vid=21171883-9ed8-4a52-8625-f874a133b3bf"},"vehicle_type_id":"4","last_reported":1692371253,"current_range_meters":30400,"station_id":"ce4bhch2rcd13ifvqeug","pricing_plan_id":"free"},{"bike_id":"ddd0b29d-387e-4b54-88d7-1164646a8d82","system_id":"levelo_inurba_marseille","lat":43.28614,"lon":5.35106,"is_reserved":false,"is_disabled":false,"rental_uris":{"android":"levelo://app?vid=ddd0b29d-387e-4b54-88d7-1164646a8d82","ios":"levelo://app?vid=ddd0b29d-387e-4b54-88d7-1164646a8d82"},"vehicle_type_id":"4","last_reported":1692371253,"current_range_meters":31200,"station_id":"ce4bhch2rcd13ifvqeug","pricing_plan_id":"free"},{"bike_id":"bb5191df-0e63-434c-a435-eb2c83d7a898","system_id":"levelo_inurba_marseille","lat":43.28615,"lon":5.35101,"is_reserved":false,"is_disabled":false,"rental_uris":{"android":"levelo://app?vid=bb5191df-0e63-434c-a435-eb2c83d7a898","ios":"levelo://app?vid=bb5191df-0e63-434c-a435-eb2c83d7a898"},"vehicle_type_id":"4","last_reported":1692371253,"current_range_meters":17600,"station_id":"ce4bhch2rcd13ifvqeug","pricing_plan_id":"free"},{"bike_id":"6dddc3de-37fa-4074-ad10-09bbed85d9ff","system_id":"levelo_inurba_marseille","lat":43.28613,"lon":5.35106,"is_reserved":false,"is_disabled":false,"rental_uris":{"android":"levelo://app?vid=6dddc3de-37fa-4074-ad10-09bbed85d9ff","ios":"levelo://app?vid=6dddc3de-37fa-4074-ad10-09bbed85d9ff"},"vehicle_type_id":"4","last_reported":1692371253,"current_range_meters":0,"station_id":"ce4bhch2rcd13ifvqeug","pricing_plan_id":"free"},{"bike_id":"44802cab-ee73-460b-ace4-5f45606226cc","system_id":"levelo_inurba_marseille","lat":43.28615,"lon":5.35098,"is_reserved":false,"is_disabled":false,"rental_uris":{"android":"levelo://app?vid=44802cab-ee73-460b-ace4-5f45606226cc","ios":"levelo://app?vid=44802cab-ee73-460b-ace4-5f45606226cc"},"vehicle_type_id":"4","last_reported":1692371253,"current_range_meters":31200,"station_id":"ce4bhch2rcd13ifvqeug","pricing_plan_id":"free"},{"bike_id":"90d32c9e-76c1-4a8b-8d91-bd1df1b7362a","system_id":"levelo_inurba_marseille","lat":43.28614,"lon":5.35101,"is_reserved":false,"is_disabled":false,"rental_uris":{"android":"levelo://app?vid=90d32c9e-76c1-4a8b-8d91-bd1df1b7362a","ios":"levelo://app?vid=90d32c9e-76c1-4a8b-8d91-bd1df1b7362a"},"vehicle_type_id":"4","last_reported":1692371253,"current_range_meters":31600,"station_id":"ce4bhch2rcd13ifvqeug","pricing_plan_id":"free"},{"bike_id":"2a20d555-5ccf-477f-8da9-8f62831f5d1c","system_id":"levelo_inurba_marseille","lat":43.286127,"lon":5.351022,"is_reserved":false,"is_disabled":false,"rental_uris":{"android":"levelo://app?vid=2a20d555-5ccf-477f-8da9-8f62831f5d1c","ios":"levelo://app?vid=2a20d555-5ccf-477f-8da9-8f62831f5d1c"},"vehicle_type_id":"4","last_reported":1692371253,"current_range_meters":0,"station_id":"ce4bhch2rcd13ifvqeug","pricing_plan_id":"free"},{"bike_id":"d63085a2-1892-4a6c-a101-7de8e8f16169","system_id":"levelo_inurba_marseille","lat":43.2861,"lon":5.3511,"is_reserved":false,"is_disabled":false,"rental_uris":{"android":"levelo://app?vid=d63085a2-1892-4a6c-a101-7de8e8f16169","ios":"levelo://app?vid=d63085a2-1892-4a6c-a101-7de8e8f16169"},"vehicle_type_id":"4","last_reported":1692371253,"current_range_meters":31200,"station_id":"ce4bhch2rcd13ifvqeug","pricing_plan_id":"free"},{"bike_id":"7a158af3-8202-4f23-a5d7-b43ad5b054f0","system_id":"levelo_inurba_marseille","lat":43.28615,"lon":5.35094,"is_reserved":false,"is_disabled":false,"rental_uris":{"android":"levelo://app?vid=7a158af3-8202-4f23-a5d7-b43ad5b054f0","ios":"levelo://app?vid=7a158af3-8202-4f23-a5d7-b43ad5b054f0"},"vehicle_type_id":"4","last_reported":1692371253,"current_range_meters":20000,"station_id":"ce4bhch2rcd13ifvqeug","pricing_plan_id":"free"},{"bike_id":"57fcefb7-108f-4fcb-95e3-16b91a72584e","system_id":"levelo_inurba_marseille","lat":43.28697,"lon":5.38528,"is_reserved":false,"is_disabled":false,"rental_uris":{"android":"levelo://app?vid=57fcefb7-108f-4fcb-95e3-16b91a72584e","ios":"levelo://app?vid=57fcefb7-108f-4fcb-95e3-16b91a72584e"},"vehicle_type_id":"4","last_reported":1692371253,"current_range_meters":14800,"station_id":"","pricing_plan_id":"free"},{"bike_id":"fcf01e60-fd11-4dbb-b673-ee180ee2c0f8","system_id":"levelo_inurba_marseille","lat":43.28612,"lon":5.35101,"is_reserved":false,"is_disabled":false,"rental_uris":{"android":"levelo://app?vid=fcf01e60-fd11-4dbb-b673-ee180ee2c0f8","ios":"levelo://app?vid=fcf01e60-fd11-4dbb-b673-ee180ee2c0f8"},"vehicle_type_id":"4","last_reported":1692371253,"current_range_meters":13200,"station_id":"ce4bhch2rcd13ifvqeug","pricing_plan_id":"free"},{"bike_id":"b35e83bf-16b7-41c7-9055-f4998755f543","system_id":"levelo_inurba_marseille","lat":43.28609,"lon":5.35101,"is_reserved":false,"is_disabled":false,"rental_uris":{"android":"levelo://app?vid=b35e83bf-16b7-41c7-9055-f4998755f543","ios":"levelo://app?vid=b35e83bf-16b7-41c7-9055-f4998755f543"},"vehicle_type_id":"4","last_reported":1692371253,"current_range_meters":14400,"station_id":"ce4bhch2rcd13ifvqeug","pricing_plan_id":"free"},{"bike_id":"2363d3b5-6c15-401a-a59c-ee80bd4af927","system_id":"levelo_inurba_marseille","lat":43.28415,"lon":5.37522,"is_reserved":false,"is_disabled":false,"rental_uris":{"android":"levelo://app?vid=2363d3b5-6c15-401a-a59c-ee80bd4af927","ios":"levelo://app?vid=2363d3b5-6c15-401a-a59c-ee80bd4af927"},"vehicle_type_id":"4","last_reported":1692371253,"current_range_meters":24400,"station_id":"ce4bh412rcd13ifvqds0","pricing_plan_id":"free"},{"bike_id":"14f54cd7-af3b-49f5-b9b2-f280c119e715","system_id":"levelo_inurba_marseille","lat":43.283998,"lon":5.375062,"is_reserved":false,"is_disabled":false,"rental_uris":{"android":"levelo://app?vid=14f54cd7-af3b-49f5-b9b2-f280c119e715","ios":"levelo://app?vid=14f54cd7-af3b-49f5-b9b2-f280c119e715"},"vehicle_type_id":"4","last_reported":1692371253,"current_range_meters":18400,"station_id":"ce4bh412rcd13ifvqds0","pricing_plan_id":"free"},{"bike_id":"59349f5f-79c8-4af5-980a-9f88c8dfcd45","system_id":"levelo_inurba_marseille","lat":43.283998,"lon":5.375062,"is_reserved":false,"is_disabled":false,"rental_uris":{"android":"levelo://app?vid=59349f5f-79c8-4af5-980a-9f88c8dfcd45","ios":"levelo://app?vid=59349f5f-79c8-4af5-980a-9f88c8dfcd45"},"vehicle_type_id":"4","last_reported":1692371253,"current_range_meters":1200,"station_id":"ce4bh412rcd13ifvqds0","pricing_plan_id":"free"},{"bike_id":"0c18e999-47da-4f4d-bcc0-9d57b3fbc434","system_id":"levelo_inurba_marseille","lat":43.28393,"lon":5.37529,"is_reserved":false,"is_disabled":false,"rental_uris":{"android":"levelo://app?vid=0c18e999-47da-4f4d-bcc0-9d57b3fbc434","ios":"levelo://app?vid=0c18e999-47da-4f4d-bcc0-9d57b3fbc434"},"vehicle_type_id":"4","last_reported":1692371253,"current_range_meters":0,"station_id":"ce4bh412rcd13ifvqds0","pricing_plan_id":"free"},{"bike_id":"8b6aaf61-fd6e-4115-ba8c-1b5e43919e43","system_id":"levelo_inurba_marseille","lat":43.28648,"lon":5.38536,"is_reserved":false,"is_disabled":false,"rental_uris":{"android":"levelo://app?vid=8b6aaf61-fd6e-4115-ba8c-1b5e43919e43","ios":"levelo://app?vid=8b6aaf61-fd6e-4115-ba8c-1b5e43919e43"},"vehicle_type_id":"4","last_reported":1692371253,"current_range_meters":28400,"station_id":"","pricing_plan_id":"free"},{"bike_id":"73167a88-b6ff-4e8d-a71a-3b8fce2f9f32","system_id":"levelo_inurba_marseille","lat":43.28632,"lon":5.38506,"is_reserved":false,"is_disabled":false,"rental_uris":{"android":"levelo://app?vid=73167a88-b6ff-4e8d-a71a-3b8fce2f9f32","ios":"levelo://app?vid=73167a88-b6ff-4e8d-a71a-3b8fce2f9f32"},"vehicle_type_id":"4","last_reported":1692371253,"current_range_meters":10000,"station_id":"","pricing_plan_id":"free"},{"bike_id":"a207a493-7cda-42f2-be11-5fe0fe289b18","system_id":"levelo_inurba_marseille","lat":43.28651,"lon":5.38559,"is_reserved":false,"is_disabled":false,"rental_uris":{"android":"levelo://app?vid=a207a493-7cda-42f2-be11-5fe0fe289b18","ios":"levelo://app?vid=a207a493-7cda-42f2-be11-5fe0fe289b18"},"vehicle_type_id":"4","last_reported":1692371253,"current_range_meters":19600,"station_id":"","pricing_plan_id":"free"},{"bike_id":"94a30278-d453-4e11-b043-39bad199292a","system_id":"levelo_inurba_marseille","lat":43.28635,"lon":5.38549,"is_reserved":false,"is_disabled":false,"rental_uris":{"android":"levelo://app?vid=94a30278-d453-4e11-b043-39bad199292a","ios":"levelo://app?vid=94a30278-d453-4e11-b043-39bad199292a"},"vehicle_type_id":"4","last_reported":1692371253,"current_range_meters":11600,"station_id":"","pricing_plan_id":"free"},{"bike_id":"bd8d8ee3-bfd0-42e6-a1be-ea4d9e74d632","system_id":"levelo_inurba_marseille","lat":43.286595,"lon":5.386795,"is_reserved":false,"is_disabled":false,"rental_uris":{"android":"levelo://app?vid=bd8d8ee3-bfd0-42e6-a1be-ea4d9e74d632","ios":"levelo://app?vid=bd8d8ee3-bfd0-42e6-a1be-ea4d9e74d632"},"vehicle_type_id":"4","last_reported":1692371253,"current_range_meters":27200,"station_id":"ce4bh492rcd13ifvqdug","pricing_plan_id":"free"},{"bike_id":"5307dc84-2ace-45f3-bbd6-875f50f6e626","system_id":"levelo_inurba_marseille","lat":43.286595,"lon":5.386795,"is_reserved":false,"is_disabled":false,"rental_uris":{"android":"levelo://app?vid=5307dc84-2ace-45f3-bbd6-875f50f6e626","ios":"levelo://app?vid=5307dc84-2ace-45f3-bbd6-875f50f6e626"},"vehicle_type_id":"4","last_reported":1692371253,"current_range_meters":27200,"station_id":"ce4bh492rcd13ifvqdug","pricing_plan_id":"free"},{"bike_id":"98c278e5-8d4e-4a8d-ad3a-cf52c9a9ee28","system_id":"levelo_inurba_marseille","lat":43.28505,"lon":5.38423,"is_reserved":false,"is_disabled":false,"rental_uris":{"android":"levelo://app?vid=98c278e5-8d4e-4a8d-ad3a-cf52c9a9ee28","ios":"levelo://app?vid=98c278e5-8d4e-4a8d-ad3a-cf52c9a9ee28"},"vehicle_type_id":"4","last_reported":1692371253,"current_range_meters":18000,"station_id":"ce4bh512rcd13ifvqe3g","pricing_plan_id":"free"},{"bike_id":"ea40413c-7c2f-4273-aab4-6a724e79b1ba","system_id":"levelo_inurba_marseille","lat":43.33722,"lon":5.39184,"is_reserved":false,"is_disabled":false,"rental_uris":{"android":"levelo://app?vid=ea40413c-7c2f-4273-aab4-6a724e79b1ba","ios":"levelo://app?vid=ea40413c-7c2f-4273-aab4-6a724e79b1ba"},"vehicle_type_id":"4","last_reported":1692371253,"current_range_meters":28000,"station_id":"ce4bhr92rcd13ifvqhsg","pricing_plan_id":"free"},{"bike_id":"01958a70-72a7-4436-94d6-471473804a11","system_id":"levelo_inurba_marseille","lat":43.323464,"lon":5.406297,"is_reserved":false,"is_disabled":false,"rental_uris":{"android":"levelo://app?vid=01958a70-72a7-4436-94d6-471473804a11","ios":"levelo://app?vid=01958a70-72a7-4436-94d6-471473804a11"},"vehicle_type_id":"4","last_reported":1692371253,"current_range_meters":26000,"station_id":"ce4bhq92rcd13ifvqhjg","pricing_plan_id":"free"},{"bike_id":"c7f55b38-f91b-41fb-a480-21b4dec7e541","system_id":"levelo_inurba_marseille","lat":43.337168,"lon":5.391825,"is_reserved":false,"is_disabled":false,"rental_uris":{"android":"levelo://app?vid=c7f55b38-f91b-41fb-a480-21b4dec7e541","ios":"levelo://app?vid=c7f55b38-f91b-41fb-a480-21b4dec7e541"},"vehicle_type_id":"4","last_reported":1692371253,"current_range_meters":10800,"station_id":"ce4bhr92rcd13ifvqhsg","pricing_plan_id":"free"},{"bike_id":"90233cfb-de78-4d62-beca-f790574836da","system_id":"levelo_inurba_marseille","lat":43.33729,"lon":5.39183,"is_reserved":false,"is_disabled":false,"rental_uris":{"android":"levelo://app?vid=90233cfb-de78-4d62-beca-f790574836da","ios":"levelo://app?vid=90233cfb-de78-4d62-beca-f790574836da"},"vehicle_type_id":"4","last_reported":1692371253,"current_range_meters":17200,"station_id":"ce4bhr92rcd13ifvqhsg","pricing_plan_id":"free"},{"bike_id":"02d88cde-1210-4353-b1ac-cc67509d4dbe","system_id":"levelo_inurba_marseille","lat":43.33717,"lon":5.391857,"is_reserved":false,"is_disabled":false,"rental_uris":{"android":"levelo://app?vid=02d88cde-1210-4353-b1ac-cc67509d4dbe","ios":"levelo://app?vid=02d88cde-1210-4353-b1ac-cc67509d4dbe"},"vehicle_type_id":"4","last_reported":1692371253,"current_range_meters":8000,"station_id":"ce4bhr92rcd13ifvqhsg","pricing_plan_id":"free"},{"bike_id":"9901c883-048b-463e-8b05-84c3969771fd","system_id":"levelo_inurba_marseille","lat":43.33717,"lon":5.391857,"is_reserved":false,"is_disabled":false,"rental_uris":{"android":"levelo://app?vid=9901c883-048b-463e-8b05-84c3969771fd","ios":"levelo://app?vid=9901c883-048b-463e-8b05-84c3969771fd"},"vehicle_type_id":"4","last_reported":1692371253,"current_range_meters":20800,"station_id":"ce4bhr92rcd13ifvqhsg","pricing_plan_id":"free"},{"bike_id":"f6375ec0-4f1d-47c6-91ac-8f9e093e062b","system_id":"levelo_inurba_marseille","lat":43.33728,"lon":5.3919,"is_reserved":false,"is_disabled":false,"rental_uris":{"android":"levelo://app?vid=f6375ec0-4f1d-47c6-91ac-8f9e093e062b","ios":"levelo://app?vid=f6375ec0-4f1d-47c6-91ac-8f9e093e062b"},"vehicle_type_id":"4","last_reported":1692371253,"current_range_meters":7200,"station_id":"ce4bhr92rcd13ifvqhsg","pricing_plan_id":"free"},{"bike_id":"6fb36002-bc24-427c-a16e-585470e55deb","system_id":"levelo_inurba_marseille","lat":43.32609,"lon":5.40505,"is_reserved":false,"is_disabled":false,"rental_uris":{"android":"levelo://app?vid=6fb36002-bc24-427c-a16e-585470e55deb","ios":"levelo://app?vid=6fb36002-bc24-427c-a16e-585470e55deb"},"vehicle_type_id":"4","last_reported":1692371253,"current_range_meters":21600,"station_id":"","pricing_plan_id":"free"},{"bike_id":"23f5f11c-1631-4826-9b70-90ab56e6e026","system_id":"levelo_inurba_marseille","lat":43.32386,"lon":5.40642,"is_reserved":false,"is_disabled":false,"rental_uris":{"android":"levelo://app?vid=23f5f11c-1631-4826-9b70-90ab56e6e026","ios":"levelo://app?vid=23f5f11c-1631-4826-9b70-90ab56e6e026"},"vehicle_type_id":"4","last_reported":1692371253,"current_range_meters":8800,"station_id":"ce4bhq92rcd13ifvqhjg","pricing_plan_id":"free"},{"bike_id":"374ad874-b653-4f2d-934d-14067d104ab1","system_id":"levelo_inurba_marseille","lat":43.283494,"lon":5.380945,"is_reserved":false,"is_disabled":false,"rental_uris":{"android":"levelo://app?vid=374ad874-b653-4f2d-934d-14067d104ab1","ios":"levelo://app?vid=374ad874-b653-4f2d-934d-14067d104ab1"},"vehicle_type_id":"4","last_reported":1692371253,"current_range_meters":400,"station_id":"ce4bh412rcd13ifvqdr0","pricing_plan_id":"free"},{"bike_id":"b0ae84a8-5be3-42e1-bf93-6a5f4ba3290a","system_id":"levelo_inurba_marseille","lat":43.284219,"lon":5.3497,"is_reserved":false,"is_disabled":false,"rental_uris":{"android":"levelo://app?vid=b0ae84a8-5be3-42e1-bf93-6a5f4ba3290a","ios":"levelo://app?vid=b0ae84a8-5be3-42e1-bf93-6a5f4ba3290a"},"vehicle_type_id":"4","last_reported":1692371253,"current_range_meters":30800,"station_id":"ce4bhbh2rcd13ifvqepg","pricing_plan_id":"free"},{"bike_id":"54c15eab-99e6-4366-9d2d-114b5f91930e","system_id":"levelo_inurba_marseille","lat":43.284219,"lon":5.3497,"is_reserved":false,"is_disabled":false,"rental_uris":{"android":"levelo://app?vid=54c15eab-99e6-4366-9d2d-114b5f91930e","ios":"levelo://app?vid=54c15eab-99e6-4366-9d2d-114b5f91930e"},"vehicle_type_id":"4","last_reported":1692371253,"current_range_meters":25200,"station_id":"ce4bhbh2rcd13ifvqepg","pricing_plan_id":"free"},{"bike_id":"c3343812-ebb2-4488-88de-99e713acef16","system_id":"levelo_inurba_marseille","lat":43.284219,"lon":5.3497,"is_reserved":false,"is_disabled":false,"rental_uris":{"android":"levelo://app?vid=c3343812-ebb2-4488-88de-99e713acef16","ios":"levelo://app?vid=c3343812-ebb2-4488-88de-99e713acef16"},"vehicle_type_id":"4","last_reported":1692371253,"current_range_meters":16400,"station_id":"ce4bhbh2rcd13ifvqepg","pricing_plan_id":"free"},{"bike_id":"61c2cf0b-883d-4d6f-ab57-f0fb67f53757","system_id":"levelo_inurba_marseille","lat":43.28422,"lon":5.34986,"is_reserved":false,"is_disabled":false,"rental_uris":{"android":"levelo://app?vid=61c2cf0b-883d-4d6f-ab57-f0fb67f53757","ios":"levelo://app?vid=61c2cf0b-883d-4d6f-ab57-f0fb67f53757"},"vehicle_type_id":"4","last_reported":1692371253,"current_range_meters":26000,"station_id":"ce4bhbh2rcd13ifvqepg","pricing_plan_id":"free"},{"bike_id":"86f7612b-b76d-459f-a712-079e4a5f360e","system_id":"levelo_inurba_marseille","lat":43.284219,"lon":5.3497,"is_reserved":false,"is_disabled":false,"rental_uris":{"android":"levelo://app?vid=86f7612b-b76d-459f-a712-079e4a5f360e","ios":"levelo://app?vid=86f7612b-b76d-459f-a712-079e4a5f360e"},"vehicle_type_id":"4","last_reported":1692371253,"current_range_meters":31200,"station_id":"ce4bhbh2rcd13ifvqepg","pricing_plan_id":"free"},{"bike_id":"b1b18b45-e05a-4fc6-97cc-52dd3d1ea7cf","system_id":"levelo_inurba_marseille","lat":43.284219,"lon":5.3497,"is_reserved":false,"is_disabled":false,"rental_uris":{"android":"levelo://app?vid=b1b18b45-e05a-4fc6-97cc-52dd3d1ea7cf","ios":"levelo://app?vid=b1b18b45-e05a-4fc6-97cc-52dd3d1ea7cf"},"vehicle_type_id":"4","last_reported":1692371253,"current_range_meters":22400,"station_id":"ce4bhbh2rcd13ifvqepg","pricing_plan_id":"free"},{"bike_id":"b587097a-787b-4f0b-8b6b-d16f7f5ed313","system_id":"levelo_inurba_marseille","lat":43.28419,"lon":5.34992,"is_reserved":false,"is_disabled":false,"rental_uris":{"android":"levelo://app?vid=b587097a-787b-4f0b-8b6b-d16f7f5ed313","ios":"levelo://app?vid=b587097a-787b-4f0b-8b6b-d16f7f5ed313"},"vehicle_type_id":"4","last_reported":1692371253,"current_range_meters":21600,"station_id":"ce4bhbh2rcd13ifvqepg","pricing_plan_id":"free"},{"bike_id":"ede9ae7f-93c6-4a5a-9368-1a2d0da3c2db","system_id":"levelo_inurba_marseille","lat":43.284219,"lon":5.3497,"is_reserved":false,"is_disabled":false,"rental_uris":{"android":"levelo://app?vid=ede9ae7f-93c6-4a5a-9368-1a2d0da3c2db","ios":"levelo://app?vid=ede9ae7f-93c6-4a5a-9368-1a2d0da3c2db"},"vehicle_type_id":"4","last_reported":1692371253,"current_range_meters":31600,"station_id":"ce4bhbh2rcd13ifvqepg","pricing_plan_id":"free"},{"bike_id":"18f20116-83e1-4e9b-8ab9-59d3ba65d563","system_id":"levelo_inurba_marseille","lat":43.28417,"lon":5.34993,"is_reserved":false,"is_disabled":false,"rental_uris":{"android":"levelo://app?vid=18f20116-83e1-4e9b-8ab9-59d3ba65d563","ios":"levelo://app?vid=18f20116-83e1-4e9b-8ab9-59d3ba65d563"},"vehicle_type_id":"4","last_reported":1692371253,"current_range_meters":18400,"station_id":"ce4bhbh2rcd13ifvqepg","pricing_plan_id":"free"},{"bike_id":"10b4cd5c-25bb-4297-839f-3ead540766ac","system_id":"levelo_inurba_marseille","lat":43.2842,"lon":5.34983,"is_reserved":false,"is_disabled":false,"rental_uris":{"android":"levelo://app?vid=10b4cd5c-25bb-4297-839f-3ead540766ac","ios":"levelo://app?vid=10b4cd5c-25bb-4297-839f-3ead540766ac"},"vehicle_type_id":"4","last_reported":1692371253,"current_range_meters":15600,"station_id":"ce4bhbh2rcd13ifvqepg","pricing_plan_id":"free"},{"bike_id":"207ae65e-d68e-441b-8517-b24869dd401f","system_id":"levelo_inurba_marseille","lat":43.28416,"lon":5.34995,"is_reserved":false,"is_disabled":false,"rental_uris":{"android":"levelo://app?vid=207ae65e-d68e-441b-8517-b24869dd401f","ios":"levelo://app?vid=207ae65e-d68e-441b-8517-b24869dd401f"},"vehicle_type_id":"4","last_reported":1692371253,"current_range_meters":23600,"station_id":"ce4bhbh2rcd13ifvqepg","pricing_plan_id":"free"},