{"last_updated":1698712408,"ttl":30,"version":"2.2","data":{"bikes":[{"bike_id":"b1cb48cb-22d4-4cd4-97b0-038c1cf723b7","system_id":"levelo_inurba_marseille","lat":43.315186,"lon":5.371432,"is_reserved":false,"is_disabled":false,"rental_uris":{"android":"levelo://app?vid=b1cb48cb-22d4-4cd4-97b0-038c1cf723b7","ios":"levelo://app?vid=b1cb48cb-22d4-4cd4-97b0-038c1cf723b7"},"vehicle_type_id":"4","last_reported":1698712408,"current_range_meters":9600,"station_id":"","pricing_plan_id":"free"},{"bike_id":"edf13610-a386-4fe9-933d-ed40ee1a760a","system_id":"levelo_inurba_marseille","lat":43.315785,"lon":5.372585,"is_reserved":false,"is_disabled":false,"rental_uris":{"android":"levelo://app?vid=edf13610-a386-4fe9-933d-ed40ee1a760a","ios":"levelo://app?vid=edf13610-a386-4fe9-933d-ed40ee1a760a"},"vehicle_type_id":"4","last_reported":1698712408,"current_range_meters":28400,"station_id":"ce4bgrp2rcd13ifvqc9g","pricing_plan_id":"free"},{"bike_id":"ea0bf3c2-b613-4409-baed-dcd1fe4550d2","system_id":"levelo_inurba_marseille","lat":43.309039,"lon":5.371797,"is_reserved":false,"is_disabled":false,"rental_uris":{"android":"levelo://app?vid=ea0bf3c2-b613-4409-baed-dcd1fe4550d2","ios":"levelo://app?vid=ea0bf3c2-b613-4409-baed-dcd1fe4550d2"},"vehicle_type_id":"4","last_reported":1698712408,"current_range_meters":9600,"station_id":"ce4bguh2rcd13ifvqckg","pricing_plan_id":"free"},{"bike_id":"e79a71f5-8d15-49ed-a12a-4d1f1aeddeb7","system_id":"levelo_inurba_marseille","lat":43.309039,"lon":5.371797,"is_reserved":false,"is_disabled":false,"rental_uris":{"android":"levelo://app?vid=e79a71f5-8d15-49ed-a12a-4d1f1aeddeb7","ios":"levelo://app?vid=e79a71f5-8d15-49ed-a12a-4d1f1aeddeb7"},"vehicle_type_id":"4","last_reported":1698712408,"current_range_meters":31200,"station_id":"ce4bguh2rcd13ifvqckg","pricing_plan_id":"free"},{"bike_id":"29cbe666-717a-41a6-ac0a-f30e2d6aecc8","system_id":"levelo_inurba_marseille","lat":43.309039,"lon":5.371797,"is_reserved":false,"is_disabled":false,"rental_uris":{"android":"levelo://app?vid=29cbe666-717a-41a6-ac0a-f30e2d6aecc8","ios":"levelo://app?vid=29cbe666-717a-41a6-ac0a-f30e2d6aecc8"},"vehicle_type_id":"4","last_reported":1698712408,"current_range_meters":29200,"station_id":"ce4bguh2rcd13ifvqckg","pricing_plan_id":"free"},{"bike_id":"07f56112-1748-4d50-99f8-39bc6196f9b8","system_id":"levelo_inurba_marseille","lat":43.30611,"lon":5.36602,"is_reserved":false,"is_disabled":false,"rental_uris":{"android":"levelo://app?vid=07f56112-1748-4d50-99f8-39bc6196f9b8","ios":"levelo://app?vid=07f56112-1748-4d50-99f8-39bc6196f9b8"},"vehicle_type_id":"4","last_reported":1698712408,"current_range_meters":4400,"station_id":"","pricing_plan_id":"free"},{"bike_id":"f252b071-dddd-4e5f-ad07-506846af6d1a","system_id":"levelo_inurba_marseille","lat":43.305714,"lon":5.365633,"is_reserved":false,"is_disabled":false,"rental_uris":{"android":"levelo://app?vid=f252b071-dddd-4e5f-ad07-506846af6d1a","ios":"levelo://app?vid=f252b071-dddd-4e5f-ad07-506846af6d1a"},"vehicle_type_id":"4","last_reported":1698712408,"current_range_meters":26400,"station_id":"ce4bgs12rcd13ifvqcag","pricing_plan_id":"free"},{"bike_id":"b6ca1fce-538e-40b0-84be-fb3fe91cbd42","system_id":"levelo_inurba_marseille","lat":43.305989,"lon":5.37225,"is_reserved":false,"is_disabled":false,"rental_uris":{"android":"levelo://app?vid=b6ca1fce-538e-40b0-84be-fb3fe91cbd42","ios":"levelo://app?vid=b6ca1fce-538e-40b0-84be-fb3fe91cbd42"},"vehicle_type_id":"4","last_reported":1698712408,"current_range_meters":24000,"station_id":"ce4bgqh2rcd13ifvqc4g","pricing_plan_id":"free"},{"bike_id":"d47a8040-d804-4c1c-b6c2-d252b970ede0","system_id":"levelo_inurba_marseille","lat":43.305989,"lon":5.37225,"is_reserved":false,"is_disabled":false,"rental_uris":{"android":"levelo://app?vid=d47a8040-d804-4c1c-b6c2-d252b970ede0","ios":"levelo://app?vid=d47a8040-d804-4c1c-b6c2-d252b970ede0"},"vehicle_type_id":"4","last_reported":1698712408,"current_range_meters":27200,"station_id":"ce4bgqh2rcd13ifvqc4g","pricing_plan_id":"free"},{"bike_id":"a5068b7c-cd59-412e-8f23-354579f5c22c","system_id":"levelo_inurba_marseille","lat":43.311131,"lon":5.377651,"is_reserved":false,"is_disabled":false,"rental_uris":{"android":"levelo://app?vid=a5068b7c-cd59-412e-8f23-354579f5c22c","ios":"levelo://app?vid=a5068b7c-cd59-412e-8f23-354579f5c22c"},"vehicle_type_id":"4","last_reported":1698712408,"current_range_meters":29200,"station_id":"ce4bgt92rcd13ifvqcg0","pricing_plan_id":"free"},{"bike_id":"5bf9ccac-c98f-4446-99f7-bcdf8ab1b089","system_id":"levelo_inurba_marseille","lat":43.311131,"lon":5.377651,"is_reserved":false,"is_disabled":false,"rental_uris":{"android":"levelo://app?vid=5bf9ccac-c98f-4446-99f7-bcdf8ab1b089","ios":"levelo://app?vid=5bf9ccac-c98f-4446-99f7-bcdf8ab1b089"},"vehicle_type_id":"4","last_reported":1698712408,"current_range_meters":25200,"station_id":"ce4bgt92rcd13ifvqcg0","pricing_plan_id":"free"},{"bike_id":"fa8ae9af-9976-42c7-b019-9ac4a449f258","system_id":"levelo_inurba_marseille","lat":43.311131,"lon":5.377651,"is_reserved":false,"is_disabled":false,"rental_uris":{"android":"levelo://app?vid=fa8ae9af-9976-42c7-b019-9ac4a449f258","ios":"levelo://app?vid=fa8ae9af-9976-42c7-b019-9ac4a449f258"},"vehicle_type_id":"4","last_reported":1698712408,"current_range_meters":31200,"station_id":"ce4bgt92rcd13ifvqcg0","pricing_plan_id":"free"},{"bike_id":"4be438cb-9f99-4ef6-b792-a4ab3686c70d","system_id":"levelo_inurba_marseille","lat":43.311131,"lon":5.377651,"is_reserved":false,"is_disabled":false,"rental_uris":{"android":"levelo://app?vid=4be438cb-9f99-4ef6-b792-a4ab3686c70d","ios":"levelo://app?vid=4be438cb-9f99-4ef6-b792-a4ab3686c70d"},"vehicle_type_id":"4","last_reported":1698712408,"current_range_meters":29200,"station_id":"ce4bgt92rcd13ifvqcg0","pricing_plan_id":"free"},{"bike_id":"b3ecbfc3-38b4-4797-943e-59a2bca58c5e","system_id":"levelo_inurba_marseille","lat":43.311131,"lon":5.377651,"is_reserved":false,"is_disabled":false,"rental_uris":{"android":"levelo://app?vid=b3ecbfc3-38b4-4797-943e-59a2bca58c5e","ios":"levelo://app?vid=b3ecbfc3-38b4-4797-943e-59a2bca58c5e"},"vehicle_type_id":"4","last_reported":1698712408,"current_range_meters":27200,"station_id":"ce4bgt92rcd13ifvqcg0","pricing_plan_id":"free"},{"bike_id":"64973aae-651e-405e-a672-75a995509e3f","system_id":"levelo_inurba_marseille","lat":43.30791,"lon":5.37646,"is_reserved":false,"is_disabled":false,"rental_uris":{"android":"levelo://app?vid=64973aae-651e-405e-a672-75a995509e3f","ios":"levelo://app?vid=64973aae-651e-405e-a672-75a995509e3f"},"vehicle_type_id":"4","last_reported":1698712408,"current_range_meters":5200,"station_id":"ce4bgv92rcd13ifvqcq0","pricing_plan_id":"free"},{"bike_id":"700c7e1b-3095-43f2-8364-c2c213e38eec","system_id":"levelo_inurba_marseille","lat":43.307878,"lon":5.376525,"is_reserved":false,"is_disabled":false,"rental_uris":{"android":"levelo://app?vid=700c7e1b-3095-43f2-8364-c2c213e38eec","ios":"levelo://app?vid=700c7e1b-3095-43f2-8364-c2c213e38eec"},"vehicle_type_id":"4","last_reported":1698712408,"current_range_meters":5600,"station_id":"ce4bgv92rcd13ifvqcq0","pricing_plan_id":"free"},{"bike_id":"4bf1dbe7-2eb0-44d1-92d2-a086361cfbf8","system_id":"levelo_inurba_marseille","lat":43.307945,"lon":5.376487,"is_reserved":false,"is_disabled":false,"rental_uris":{"android":"levelo://app?vid=4bf1dbe7-2eb0-44d1-92d2-a086361cfbf8","ios":"levelo://app?vid=4bf1dbe7-2eb0-44d1-92d2-a086361cfbf8"},"vehicle_type_id":"4","last_reported":1698712408,"current_range_meters":18000,"station_id":"ce4bgv92rcd13ifvqcq0","pricing_plan_id":"free"},{"bike_id":"a85ea2f1-b11c-432c-acef-4d11871cee58","system_id":"levelo_inurba_marseille","lat":43.317116,"lon":5.377524,"is_reserved":false,"is_disabled":false,"rental_uris":{"android":"levelo://app?vid=a85ea2f1-b11c-432c-acef-4d11871cee58","ios":"levelo://app?vid=a85ea2f1-b11c-432c-acef-4d11871cee58"},"vehicle_type_id":"4","last_reported":1698712408,"current_range_meters":12400,"station_id":"","pricing_plan_id":"free"},{"bike_id":"d58b55df-f8fb-495f-a1fd-866b69e588ed","system_id":"levelo_inurba_marseille","lat":43.317075,"lon":5.377367,"is_reserved":false,"is_disabled":false,"rental_uris":{"android":"levelo://app?vid=d58b55df-f8fb-495f-a1fd-866b69e588ed","ios":"levelo://app?vid=d58b55df-f8fb-495f-a1fd-866b69e588ed"},"vehicle_type_id":"4","last_reported":1698712408,"current_range_meters":10400,"station_id":"ce4bgth2rcd13ifvqch0","pricing_plan_id":"free"},{"bike_id":"ecb976c1-44d1-4d61-b053-6c38f17d0422","system_id":"levelo_inurba_marseille","lat":43.317075,"lon":5.377367,"is_reserved":false,"is_disabled":false,"rental_uris":{"android":"levelo://app?vid=ecb976c1-44d1-4d61-b053-6c38f17d0422","ios":"levelo://app?vid=ecb976c1-44d1-4d61-b053-6c38f17d0422"},"vehicle_type_id":"4","last_reported":1698712408,"current_range_meters":30000,"station_id":"ce4bgth2rcd13ifvqch0","pricing_plan_id":"free"},{"bike_id":"c9a7b9a7-e06a-40fc-939a-c2d64206752b","system_id":"levelo_inurba_marseille","lat":43.31531,"lon":5.38024,"is_reserved":false,"is_disabled":false,"rental_uris":{"android":"levelo://app?vid=c9a7b9a7-e06a-40fc-939a-c2d64206752b","ios":"levelo://app?vid=c9a7b9a7-e06a-40fc-939a-c2d64206752b"},"vehicle_type_id":"4","last_reported":1698712408,"current_range_meters":18800,"station_id":"ce4bhsp2rcd13ifvqi50","pricing_plan_id":"free"},{"bike_id":"ecf6c1fb-613d-4816-9f94-e23d95a91883","system_id":"levelo_inurba_marseille","lat":43.315282,"lon":5.380252,"is_reserved":false,"is_disabled":false,"rental_uris":{"android":"levelo://app?vid=ecf6c1fb-613d-4816-9f94-e23d95a91883","ios":"levelo://app?vid=ecf6c1fb-613d-4816-9f94-e23d95a91883"},"vehicle_type_id":"4","last_reported":1698712408,"current_range_meters":31200,"station_id":"ce4bhsp2rcd13ifvqi50","pricing_plan_id":"free"},{"bike_id":"877c4877-25c1-44de-a3f7-14596e656663","system_id":"levelo_inurba_marseille","lat":43.301939,"lon":5.366286,"is_reserved":false,"is_disabled":false,"rental_uris":{"android":"levelo://app?vid=877c4877-25c1-44de-a3f7-14596e656663","ios":"levelo://app?vid=877c4877-25c1-44de-a3f7-14596e656663"},"vehicle_type_id":"4","last_reported":1698712408,"current_range_meters":800,"station_id":"ce4bgrh2rcd13ifvqc8g","pricing_plan_id":"free"},{"bike_id":"b901f424-cda5-46bd-943c-c6980a3878d6","system_id":"levelo_inurba_marseille","lat":43.301939,"lon":5.366286,"is_reserved":false,"is_disabled":false,"rental_uris":{"android":"levelo://app?vid=b901f424-cda5-46bd-943c-c6980a3878d6","ios":"levelo://app?vid=b901f424-cda5-46bd-943c-c6980a3878d6"},"vehicle_type_id":"4","last_reported":1698712408,"current_range_meters":6400,"station_id":"ce4bgrh2rcd13ifvqc8g","pricing_plan_id":"free"},{"bike_id":"54d9a808-7a25-49f0-8d8f-34c20d738668","system_id":"levelo_inurba_marseille","lat":43.301939,"lon":5.366286,"is_reserved":false,"is_disabled":false,"rental_uris":{"android":"levelo://app?vid=54d9a808-7a25-49f0-8d8f-34c20d738668","ios":"levelo://app?vid=54d9a808-7a25-49f0-8d8f-34c20d738668"},"vehicle_type_id":"4","last_reported":1698712408,"current_range_meters":21200,"station_id":"ce4bgrh2rcd13ifvqc8g","pricing_plan_id":"free"},{"bike_id":"1d2f823c-cef6-40eb-9bb8-760b0e28e2dd","system_id":"levelo_inurba_marseille","lat":43.301939,"lon":5.366286,"is_reserved":false,"is_disabled":false,"rental_uris":{"android":"levelo://app?vid=1d2f823c-cef6-40eb-9bb8-760b0e28e2dd","ios":"levelo://app?vid=1d2f823c-cef6-40eb-9bb8-760b0e28e2dd"},"vehicle_type_id":"4","last_reported":1698712408,"current_range_meters":31200,"station_id":"ce4bgrh2rcd13ifvqc8g","pricing_plan_id":"free"},{"bike_id":"e3f253a1-9788-4492-938f-39b642fbd881","system_id":"levelo_inurba_marseille","lat":43.3245,"lon":5.36788,"is_reserved":false,"is_disabled":false,"rental_uris":{"android":"levelo://app?vid=e3f253a1-9788-4492-938f-39b642fbd881","ios":"levelo://app?vid=e3f253a1-9788-4492-938f-39b642fbd881"},"vehicle_type_id":"4","last_reported":1698712408,"current_range_meters":400,"station_id":"","pricing_plan_id":"free"},{"bike_id":"cbf6c31f-44b7-416b-a417-76354c3555d2","system_id":"levelo_inurba_marseille","lat":43.304606,"lon":5.379026,"is_reserved":false,"is_disabled":false,"rental_uris":{"android":"levelo://app?vid=cbf6c31f-44b7-416b-a417-76354c3555d2","ios":"levelo://app?vid=cbf6c31f-44b7-416b-a417-76354c3555d2"},"vehicle_type_id":"4","last_reported":1698712408,"current_range_meters":31200,"station_id":"ce4bgup2rcd13ifvqcn0","pricing_plan_id":"free"},{"bike_id":"b5628e1d-c0d9-4e4e-bdc1-9b1b39e51708","system_id":"levelo_inurba_marseille","lat":43.30458,"lon":5.37902,"is_reserved":false,"is_disabled":false,"rental_uris":{"android":"levelo://app?vid=b5628e1d-c0d9-4e4e-bdc1-9b1b39e51708","ios":"levelo://app?vid=b5628e1d-c0d9-4e4e-bdc1-9b1b39e51708"},"vehicle_type_id":"4","last_reported":1698712408,"current_range_meters":16000,"station_id":"ce4bgup2rcd13ifvqcn0","pricing_plan_id":"free"},{"bike_id":"854cf306-b1e0-48c3-b6a4-b0942a3af5bf","system_id":"levelo_inurba_marseille","lat":43.304606,"lon":5.379026,"is_reserved":false,"is_disabled":false,"rental_uris":{"android":"levelo://app?vid=854cf306-b1e0-48c3-b6a4-b0942a3af5bf","ios":"levelo://app?vid=854cf306-b1e0-48c3-b6a4-b0942a3af5bf"},"vehicle_type_id":"4","last_reported":1698712408,"current_range_meters":16800,"station_id":"ce4bgup2rcd13ifvqcn0","pricing_plan_id":"free"},{"bike_id":"d797f1e6-f3ca-4ad7-8b56-5ed6191da53c","system_id":"levelo_inurba_marseille","lat":43.304606,"lon":5.379026,"is_reserved":false,"is_disabled":false,"rental_uris":{"android":"levelo://app?vid=d797f1e6-f3ca-4ad7-8b56-5ed6191da53c","ios":"levelo://app?vid=d797f1e6-f3ca-4ad7-8b56-5ed6191da53c"},"vehicle_type_id":"4","last_reported":1698712408,"current_range_meters":31200,"station_id":"ce4bgup2rcd13ifvqcn0","pricing_plan_id":"free"},{"bike_id":"46fc4e79-91a7-4931-acc6-c875e6fdf0de","system_id":"levelo_inurba_marseille","lat":43.302784,"lon":5.377158,"is_reserved":false,"is_disabled":false,"rental_uris":{"android":"levelo://app?vid=46fc4e79-91a7-4931-acc6-c875e6fdf0de","ios":"levelo://app?vid=46fc4e79-91a7-4931-acc6-c875e6fdf0de"},"vehicle_type_id":"4","last_reported":1698712408,"current_range_meters":28800,"station_id":"ce4bguh2rcd13ifvqcj0","pricing_plan_id":"free"},{"bike_id":"5669f47c-9cd1-4ef8-97c4-f3cdd9d7b77f","system_id":"levelo_inurba_marseille","lat":43.301429,"lon":5.37413,"is_reserved":false,"is_disabled":false,"rental_uris":{"android":"levelo://app?vid=5669f47c-9cd1-4ef8-97c4-f3cdd9d7b77f","ios":"levelo://app?vid=5669f47c-9cd1-4ef8-97c4-f3cdd9d7b77f"},"vehicle_type_id":"4","last_reported":1698712408,"current_range_meters":30400,"station_id":"ce4bgs92rcd13ifvqcc0","pricing_plan_id":"free"},{"bike_id":"be059b3a-b5be-483d-aa4d-0b2a15587f0b","system_id":"levelo_inurba_marseille","lat":43.30143,"lon":5.37413,"is_reserved":false,"is_disabled":false,"rental_uris":{"android":"levelo://app?vid=be059b3a-b5be-483d-aa4d-0b2a15587f0b","ios":"levelo://app?vid=be059b3a-b5be-483d-aa4d-0b2a15587f0b"},"vehicle_type_id":"4","last_reported":1698712408,"current_range_meters":26000,"station_id":"ce4bgs92rcd13ifvqcc0","pricing_plan_id":"free"},{"bike_id":"427c2b69-1d50-46e4-b841-1f99f29b87d0","system_id":"levelo_inurba_marseille","lat":43.319935,"lon":5.381699,"is_reserved":false,"is_disabled":false,"rental_uris":{"android":"levelo://app?vid=427c2b69-1d50-46e4-b841-1f99f29b87d0","ios":"levelo://app?vid=427c2b69-1d50-46e4-b841-1f99f29b87d0"},"vehicle_type_id":"4","last_reported":1698712408,"current_range_meters":3600,"station_id":"ce4bhr12rcd13ifvqhpg","pricing_plan_id":"free"},{"bike_id":"5bf990a1-908b-4165-b1fc-d91e4c1fae20","system_id":"levelo_inurba_marseille","lat":43.313571,"lon":5.384829,"is_reserved":false,"is_disabled":false,"rental_uris":{"android":"levelo://app?vid=5bf990a1-908b-4165-b1fc-d91e4c1fae20","ios":"levelo://app?vid=5bf990a1-908b-4165-b1fc-d91e4c1fae20"},"vehicle_type_id":"4","last_reported":1698712408,"current_range_meters":14400,"station_id":"ce4bgt92rcd13ifvqcf0","pricing_plan_id":"free"},{"bike_id":"38c08019-e6c0-4c1a-ab98-93a0e82f4448","system_id":"levelo_inurba_marseille","lat":43.313571,"lon":5.384829,"is_reserved":false,"is_disabled":false,"rental_uris":{"android":"levelo://app?vid=38c08019-e6c0-4c1a-ab98-93a0e82f4448","ios":"levelo://app?vid=38c08019-e6c0-4c1a-ab98-93a0e82f4448"},"vehicle_type_id":"4","last_reported":1698712408,"current_range_meters":28400,"station_id":"ce4bgt92rcd13ifvqcf0","pricing_plan_id":"free"},{"bike_id":"f18e7738-66ad-4a6c-92ff-25540beb95fb","system_id":"levelo_inurba_marseille","lat":43.313571,"lon":5.384829,"is_reserved":false,"is_disabled":false,"rental_uris":{"android":"levelo://app?vid=f18e7738-66ad-4a6c-92ff-25540beb95fb","ios":"levelo://app?vid=f18e7738-66ad-4a6c-92ff-25540beb95fb"},"vehicle_type_id":"4","last_reported":1698712408,"current_range_meters":31200,"station_id":"ce4bgt92rcd13ifvqcf0","pricing_plan_id":"free"},{"bike_id":"e494c90a-6af3-4a60-80e1-413231a9d9d7","system_id":"levelo_inurba_marseille","lat":43.29935,"lon":5.36568,"is_reserved":false,"is_disabled":false,"rental_uris":{"android":"levelo://app?vid=e494c90a-6af3-4a60-80e1-413231a9d9d7","ios":"levelo://app?vid=e494c90a-6af3-4a60-80e1-413231a9d9d7"},"vehicle_type_id":"4","last_reported":1698712408,"current_range_meters":24400,"station_id":"ce4bgm92rcd13ifvqbr0","pricing_plan_id":"free"},{"bike_id":"2f29a650-f843-4fdf-9749-906f6f04b616","system_id":"levelo_inurba_marseille","lat":43.299361,"lon":5.365427,"is_reserved":false,"is_disabled":false,"rental_uris":{"android":"levelo://app?vid=2f29a650-f843-4fdf-9749-906f6f04b616","ios":"levelo://app?vid=2f29a650-f843-4fdf-9749-906f6f04b616"},"vehicle_type_id":"4","last_reported":1698712408,"current_range_meters":0,"station_id":"ce4bgm92rcd13ifvqbr0","pricing_plan_id":"free"},{"bike_id":"4f1ce335-2245-4999-8ed7-b7911f491dab","system_id":"levelo_inurba_marseille","lat":43.299339,"lon":5.36541,"is_reserved":false,"is_disabled":false,"rental_uris":{"android":"levelo://app?vid=4f1ce335-2245-4999-8ed7-b7911f491dab","ios":"levelo://app?vid=4f1ce335-2245-4999-8ed7-b7911f491dab"},"vehicle_type_id":"4","last_reported":1698712408,"current_range_meters":22800,"station_id":"ce4bgm92rcd13ifvqbr0","pricing_plan_id":"free"},{"bike_id":"2e1c11c0-faac-4533-8713-a1d114d16e8e","system_id":"levelo_inurba_marseille","lat":43.314351,"lon":5.385519,"is_reserved":false,"is_disabled":false,"rental_uris":{"android":"levelo://app?vid=2e1c11c0-faac-4533-8713-a1d114d16e8e","ios":"levelo://app?vid=2e1c11c0-faac-4533-8713-a1d114d16e8e"},"vehicle_type_id":"4","last_reported":1698712408,"current_range_meters":10400,"station_id":"","pricing_plan_id":"free"},{"bike_id":"5ba66772-20b6-408d-a6c3-0df1cd4bb678","system_id":"levelo_inurba_marseille","lat":43.3264,"lon":5.367334,"is_reserved":false,"is_disabled":false,"rental_uris":{"android":"levelo://app?vid=5ba66772-20b6-408d-a6c3-0df1cd4bb678","ios":"levelo://app?vid=5ba66772-20b6-408d-a6c3-0df1cd4bb678"},"vehicle_type_id":"4","last_reported":1698712408,"current_range_meters":8400,"station_id":"","pricing_plan_id":"free"},{"bike_id":"6da9cb0d-7911-41f8-b708-535a0e5a6752","system_id":"levelo_inurba_marseille","lat":43.327242,"lon":5.367028,"is_reserved":false,"is_disabled":false,"rental_uris":{"android":"levelo://app?vid=6da9cb0d-7911-41f8-b708-535a0e5a6752","ios":"levelo://app?vid=6da9cb0d-7911-41f8-b708-535a0e5a6752"},"vehicle_type_id":"4","last_reported":1698712408,"current_range_meters":17200,"station_id":"","pricing_plan_id":"free"},{"bike_id":"a4ec5234-c381-4131-aad9-b2b5fc91425e","system_id":"levelo_inurba_marseille","lat":43.299243,"lon":5.374807,"is_reserved":false,"is_disabled":false,"rental_uris":{"android":"levelo://app?vid=a4ec5234-c381-4131-aad9-b2b5fc91425e","ios":"levelo://app?vid=a4ec5234-c381-4131-aad9-b2b5fc91425e"},"vehicle_type_id":"4","last_reported":1698712408,"current_range_meters":30000,"station_id":"ce4bgjh2rcd13ifvqbg0","pricing_plan_id":"free"},{"bike_id":"4c6dd693-f840-4d24-8a4b-a0962668a856","system_id":"levelo_inurba_marseille","lat":43.299243,"lon":5.374807,"is_reserved":false,"is_disabled":false,"rental_uris":{"android":"levelo://app?vid=4c6dd693-f840-4d24-8a4b-a0962668a856","ios":"levelo://app?vid=4c6dd693-f840-4d24-8a4b-a0962668a856"},"vehicle_type_id":"4","last_reported":1698712408,"current_range_meters":28000,"station_id":"ce4bgjh2rcd13ifvqbg0","pricing_plan_id":"free"},{"bike_id":"80cef56a-710f-4386-8da7-2a2b2eb9782d","system_id":"levelo_inurba_marseille","lat":43.311722,"lon":5.387247,"is_reserved":false,"is_disabled":false,"rental_uris":{"android":"levelo://app?vid=80cef56a-710f-4386-8da7-2a2b2eb9782d","ios":"levelo://app?vid=80cef56a-710f-4386-8da7-2a2b2eb9782d"},"vehicle_type_id":"4","last_reported":1698712408,"current_range_meters":31200,"station_id":"ce4bgv12rcd13ifvqcp0","pricing_plan_id":"free"},{"bike_id":"29ca6a3a-0cb3-4d0a-9fb6-94933d421d32","system_id":"levelo_inurba_marseille","lat":43.311722,"lon":5.387247,"is_reserved":false,"is_disabled":false,"rental_uris":{"android":"levelo://app?vid=29ca6a3a-0cb3-4d0a-9fb6-94933d421d32","ios":"levelo://app?vid=29ca6a3a-0cb3-4d0a-9fb6-94933d421d32"},"vehicle_type_id":"4","last_reported":1698712408,"current_range_meters":22800,"station_id":"ce4bgv12rcd13ifvqcp0","pricing_plan_id":"free"},{"bike_id":"9d5c842d-d7af-49cb-b623-3b243558f1f6","system_id":"levelo_inurba_marseille","lat":43.311722,"lon":5.387247,"is_reserved":false,"is_disabled":false,"rental_uris":{"android":"levelo://app?vid=9d5c842d-d7af-49cb-b623-3b243558f1f6","ios":"levelo://app?vid=9d5c842d-d7af-49cb-b623-3b243558f1f6"},"vehicle_type_id":"4","last_reported":1698712408,"current_range_meters":28000,"station_id":"ce4bgv12rcd13ifvqcp0","pricing_plan_id":"free"},{"bike_id":"cb519998-acb7-44d8-9c2f-589ab2b1865f","system_id":"levelo_inurba_marseille","lat":43.299243,"lon":5.37481,"is_reserved":false,"is_disabled":false,"rental_uris":{"android":"levelo://app?vid=cb519998-acb7-44d8-9c2f-589ab2b1865f","ios":"levelo://app?vid=cb519998-acb7-44d8-9c2f-589ab2b1865f"},"vehicle_type_id":"4","last_reported":1698712408,"current_range_meters":18400,"station_id":"ce4bgjh2rcd13ifvqbg0","pricing_plan_id":"free"},{"bike_id":"c522bbbb-67c5-40a0-9102-442bf1076337","system_id":"levelo_inurba_marseille","lat":43.322872,"lon":5.382756,"is_reserved":false,"is_disabled":false,"rental_uris":{"android":"levelo://app?vid=c522bbbb-67c5-40a0-9102-442bf1076337","ios":"levelo://app?vid=c522bbbb-67c5-40a0-9102-442bf1076337"},"vehicle_type_id":"4","last_reported":1698712408,"current_range_meters":29200,"station_id":"ce4bhr12rcd13ifvqhqg","pricing_plan_id":"free"},{"bike_id":"791947d5-c9ad-486d-afa3-b3a19476d1f6","system_id":"levelo_inurba_marseille","lat":43.322872,"lon":5.382756,"is_reserved":false,"is_disabled":false,"rental_uris":{"android":"levelo://app?vid=791947d5-c9ad-486d-afa3-b3a19476d1f6","ios":"levelo://app?vid=791947d5-c9ad-486d-afa3-b3a19476d1f6"},"vehicle_type_id":"4","last_reported":1698712408,"current_range_meters":31200,"station_id":"ce4bhr12rcd13ifvqhqg","pricing_plan_id":"free"},{"bike_id":"5d47b174-f627-4ac5-aa1b-f082327b8ceb","system_id":"levelo_inurba_marseille","lat":43.322872,"lon":5.382756,"is_reserved":false,"is_disabled":false,"rental_uris":{"android":"levelo://app?vid=5d47b174-f627-4ac5-aa1b-f082327b8ceb","ios":"levelo://app?vid=5d47b174-f627-4ac5-aa1b-f082327b8ceb"},"vehicle_type_id":"4","last_reported":1698712408,"current_range_meters":29200,"station_id":"ce4bhr12rcd13ifvqhqg","pricing_plan_id":"free"},{"bike_id":"7b3357b3-8d7c-4607-b356-001902761bf9","system_id":"levelo_inurba_marseille","lat":43.328371,"lon":5.366909,"is_reserved":false,"is_disabled":false,"rental_uris":{"android":"levelo://app?vid=7b3357b3-8d7c-4607-b356-001902761bf9","ios":"levelo://app?vid=7b3357b3-8d7c-4607-b356-001902761bf9"},"vehicle_type_id":"4","last_reported":1698712408,"current_range_meters":15200,"station_id":"ce4bhs92rcd13ifvqi0g","pricing_plan_id":"free"},{"bike_id":"2bf09692-7151-4aba-9fa7-8ce1d6106004","system_id":"levelo_inurba_marseille","lat":43.328303,"lon":5.366873,"is_reserved":false,"is_disabled":false,"rental_uris":{"android":"levelo://app?vid=2bf09692-7151-4aba-9fa7-8ce1d6106004","ios":"levelo://app?vid=2bf09692-7151-4aba-9fa7-8ce1d6106004"},"vehicle_type_id":"4","last_reported":1698712408,"current_range_meters":3600,"station_id":"","pricing_plan_id":"free"},{"bike_id":"95de5542-6169-4cc9-ac6c-3d5eadba97c0","system_id":"levelo_inurba_marseille","lat":43.320457,"lon":5.385933,"is_reserved":false,"is_disabled":false,"rental_uris":{"android":"levelo://app?vid=95de5542-6169-4cc9-ac6c-3d5eadba97c0","ios":"levelo://app?vid=95de5542-6169-4cc9-ac6c-3d5eadba97c0"},"vehicle_type_id":"4","last_reported":1698712408,"current_range_meters":30400,"station_id":"","pricing_plan_id":"free"},{"bike_id":"dd1c0b20-019a-4f88-ae15-bb2c3eed70ed","system_id":"levelo_inurba_marseille","lat":43.318911,"lon":5.387546,"is_reserved":false,"is_disabled":false,"rental_uris":{"android":"levelo://app?vid=dd1c0b20-019a-4f88-ae15-bb2c3eed70ed","ios":"levelo://app?vid=dd1c0b20-019a-4f88-ae15-bb2c3eed70ed"},"vehicle_type_id":"4","last_reported":1698712408,"current_range_meters":0,"station_id":"","pricing_plan_id":"free"},{"bike_id":"0e83f483-ae50-47af-9a42-f8f2247c1a9b","system_id":"levelo_inurba_marseille","lat":43.2962,"lon":5.37164,"is_reserved":false,"is_disabled":false,"rental_uris":{"android":"levelo://app?vid=0e83f483-ae50-47af-9a42-f8f2247c1a9b","ios":"levelo://app?vid=0e83f483-ae50-47af-9a42-f8f2247c1a9b"},"vehicle_type_id":"4","last_reported":1698712408,"current_range_meters":24400,"station_id":"ce4bgnh2rcd13ifvqc0g","pricing_plan_id":"free"},{"bike_id":"f3d0381f-7a2d-409e-a12f-bd3d9095653d","system_id":"levelo_inurba_marseille","lat":43.329673,"lon":5.365468,"is_reserved":false,"is_disabled":false,"rental_uris":{"android":"levelo://app?vid=f3d0381f-7a2d-409e-a12f-bd3d9095653d","ios":"levelo://app?vid=f3d0381f-7a2d-409e-a12f-bd3d9095653d"},"vehicle_type_id":"4","last_reported":1698712408,"current_range_meters":0,"station_id":"","pricing_plan_id":"free"},{"bike_id":"5e8f462a-087a-4277-9c83-b2a2ecc31fd6","system_id":"levelo_inurba_marseille","lat":43.296921,"lon":5.376579,"is_reserved":false,"is_disabled":false,"rental_uris":{"android":"levelo://app?vid=5e8f462a-087a-4277-9c83-b2a2ecc31fd6","ios":"levelo://app?vid=5e8f462a-087a-4277-9c83-b2a2ecc31fd6"},"vehicle_type_id":"4","last_reported":1698712408,"current_range_meters":31200,"station_id":"ce4bgkh2rcd13ifvqbl0","pricing_plan_id":"free"},{"bike_id":"67bb7dbe-50ea-4249-bc98-d0ad4814b4a6","system_id":"levelo_inurba_marseille","lat":43.322081,"lon":5.386854,"is_reserved":false,"is_disabled":false,"rental_uris":{"android":"levelo://app?vid=67bb7dbe-50ea-4249-bc98-d0ad4814b4a6","ios":"levelo://app?vid=67bb7dbe-50ea-4249-bc98-d0ad4814b4a6"},"vehicle_type_id":"4","last_reported":1698712408,"current_range_meters":29200,"station_id":"","pricing_plan_id":"free"},{"bike_id":"2c70c727-81b3-497a-87e0-7488ff42b390","system_id":"levelo_inurba_marseille","lat":43.309589,"lon":5.390258,"is_reserved":false,"is_disabled":false,"rental_uris":{"android":"levelo://app?vid=2c70c727-81b3-497a-87e0-7488ff42b390","ios":"levelo://app?vid=2c70c727-81b3-497a-87e0-7488ff42b390"},"vehicle_type_id":"4","last_reported":1698712408,"current_range_meters":28000,"station_id":"ce4bgup2rcd13ifvqco0","pricing_plan_id":"free"},{"bike_id":"a5615430-2f92-482a-ab41-c926b4f7d0f8","system_id":"levelo_inurba_marseille","lat":43.317557,"lon":5.390173,"is_reserved":false,"is_disabled":false,"rental_uris":{"android":"levelo://app?vid=a5615430-2f92-482a-ab41-c926b4f7d0f8","ios":"levelo://app?vid=a5615430-2f92-482a-ab41-c926b4f7d0f8"},"vehicle_type_id":"4","last_reported":1698712408,"current_range_meters":31200,"station_id":"ce4bhqp2rcd13ifvqhng","pricing_plan_id":"free"},{"bike_id":"6d8f0a3a-8a74-47ed-8609-b1fcfad28a31","system_id":"levelo_inurba_marseille","lat":43.304278,"lon":5.388868,"is_reserved":false,"is_disabled":false,"rental_uris":{"android":"levelo://app?vid=6d8f0a3a-8a74-47ed-8609-b1fcfad28a31","ios":"levelo://app?vid=6d8f0a3a-8a74-47ed-8609-b1fcfad28a31"},"vehicle_type_id":"4","last_reported":1698712408,"current_range_meters":26400,"station_id":"ce4bgk12rcd13ifvqbi0","pricing_plan_id":"free"},{"bike_id":"cfa6e5c3-3acf-42d3-9361-014ab26aec92","system_id":"levelo_inurba_marseille","lat":43.304278,"lon":5.388868,"is_reserved":false,"is_disabled":false,"rental_uris":{"android":"levelo://app?vid=cfa6e5c3-3acf-42d3-9361-014ab26aec92","ios":"levelo://app?vid=cfa6e5c3-3acf-42d3-9361-014ab26aec92"},"vehicle_type_id":"4","last_reported":1698712408,"current_range_meters":6800,"station_id":"ce4bgk12rcd13ifvqbi0","pricing_plan_id":"free"},{"bike_id":"b4e21bf7-6e89-4e22-83fb-90d8cc14fe09","system_id":"levelo_inurba_marseille","lat":43.298037,"lon":5.381066,"is_reserved":false,"is_disabled":false,"rental_uris":{"android":"levelo://app?vid=b4e21bf7-6e89-4e22-83fb-90d8cc14fe09","ios":"levelo://app?vid=b4e21bf7-6e89-4e22-83fb-90d8cc14fe09"},"vehicle_type_id":"4","last_reported":1698712408,"current_range_meters":28400,"station_id":"ce4bgip2rcd13ifvqbb0","pricing_plan_id":"free"},{"bike_id":"aaf775f6-170e-4a14-a88d-ffe5dc8a3f5b","system_id":"levelo_inurba_marseille","lat":43.295748,"lon":5.37522,"is_reserved":false,"is_disabled":false,"rental_uris":{"android":"levelo://app?vid=aaf775f6-170e-4a14-a88d-ffe5dc8a3f5b","ios":"levelo://app?vid=aaf775f6-170e-4a14-a88d-ffe5dc8a3f5b"},"vehicle_type_id":"4","last_reported":1698712408,"current_range_meters":12800,"station_id":"ce4bgh92rcd13ifvqb50","pricing_plan_id":"free"},{"bike_id":"3cb199f0-737c-45aa-8d48-a3dfd8174255","system_id":"levelo_inurba_marseille","lat":43.295379,"lon":5.374897,"is_reserved":false,"is_disabled":false,"rental_uris":{"android":"levelo://app?vid=3cb199f0-737c-45aa-8d48-a3dfd8174255","ios":"levelo://app?vid=3cb199f0-737c-45aa-8d48-a3dfd8174255"},"vehicle_type_id":"4","last_reported":1698712408,"current_range_meters":28000,"station_id":"ce4bgkp2rcd13ifvqbmg","pricing_plan_id":"free"},{"bike_id":"10ef47a8-1621-481e-98f1-5d88edc1d726","system_id":"levelo_inurba_marseille","lat":43.29529,"lon":5.374955,"is_reserved":false,"is_disabled":false,"rental_uris":{"android":"levelo://app?vid=10ef47a8-1621-481e-98f1-5d88edc1d726","ios":"levelo://app?vid=10ef47a8-1621-481e-98f1-5d88edc1d726"},"vehicle_type_id":"4","last_reported":1698712408,"current_range_meters":28800,"station_id":"","pricing_plan_id":"free"},{"bike_id":"216e3b44-6936-4dec-acf6-6d82318fb3d5","system_id":"levelo_inurba_marseille","lat":43.299724,"lon":5.384848,"is_reserved":false,"is_disabled":false,"rental_uris":{"android":"levelo://app?vid=216e3b44-6936-4dec-acf6-6d82318fb3d5","ios":"levelo://app?vid=216e3b44-6936-4dec-acf6-6d82318fb3d5"},"vehicle_type_id":"4","last_reported":1698712408,"current_range_meters":29600,"station_id":"ce4bgj92rcd13ifvqbd0","pricing_plan_id":"free"},{"bike_id":"1f580447-7b2c-4630-9a51-33e28281b372","system_id":"levelo_inurba_marseille","lat":43.329065,"lon":5.379814,"is_reserved":false,"is_disabled":false,"rental_uris":{"android":"levelo://app?vid=1f580447-7b2c-4630-9a51-33e28281b372","ios":"levelo://app?vid=1f580447-7b2c-4630-9a51-33e28281b372"},"vehicle_type_id":"4","last_reported":1698712408,"current_range_meters":30800,"station_id":"","pricing_plan_id":"free"},{"bike_id":"fffdb89f-d0fa-48b2-8a15-e8865b4139a1","system_id":"levelo_inurba_marseille","lat":43.32361,"lon":5.388838,"is_reserved":false,"is_disabled":false,"rental_uris":{"android":"levelo://app?vid=fffdb89f-d0fa-48b2-8a15-e8865b4139a1","ios":"levelo://app?vid=fffdb89f-d0fa-48b2-8a15-e8865b4139a1"},"vehicle_type_id":"4","last_reported":1698712408,"current_range_meters":29200,"station_id":"ce4bhqp2rcd13ifvqhog","pricing_plan_id":"free"},{"bike_id":"14cb116c-d033-41aa-8c28-7112d2f26341","system_id":"levelo_inurba_marseille","lat":43.32365,"lon":5.3888,"is_reserved":false,"is_disabled":false,"rental_uris":{"android":"levelo://app?vid=14cb116c-d033-41aa-8c28-7112d2f26341","ios":"levelo://app?vid=14cb116c-d033-41aa-8c28-7112d2f26341"},"vehicle_type_id":"4","last_reported":1698712408,"current_range_meters":24800,"station_id":"ce4bhqp2rcd13ifvqhog","pricing_plan_id":"free"},{"bike_id":"f3d6307b-7601-45cd-b002-94a476fea003","system_id":"levelo_inurba_marseille","lat":43.32365,"lon":5.38882,"is_reserved":false,"is_disabled":false,"rental_uris":{"android":"levelo://app?vid=f3d6307b-7601-45cd-b002-94a476fea003","ios":"levelo://app?vid=f3d6307b-7601-45cd-b002-94a476fea003"},"vehicle_type_id":"4","last_reported":1698712408,"current_range_meters":12800,"station_id":"ce4bhqp2rcd13ifvqhog","pricing_plan_id":"free"},{"bike_id":"4be058cb-9caa-426c-a66e-e91832272d0f","system_id":"levelo_inurba_marseille","lat":43.32366,"lon":5.38882,"is_reserved":false,"is_disabled":false,"rental_uris":{"android":"levelo://app?vid=4be058cb-9caa-426c-a66e-e91832272d0f","ios":"levelo://app?vid=4be058cb-9caa-426c-a66e-e91832272d0f"},"vehicle_type_id":"4","last_reported":1698712408,"current_range_meters":9600,"station_id":"ce4bhqp2rcd13ifvqhog","pricing_plan_id":"free"},{"bike_id":"737f75f0-640b-4c36-aa29-c516475cabbb","system_id":"levelo_inurba_marseille","lat":43.32367,"lon":5.388836,"is_reserved":false,"is_disabled":false,"rental_uris":{"android":"levelo://app?vid=737f75f0-640b-4c36-aa29-c516475cabbb","ios":"levelo://app?vid=737f75f0-640b-4c36-aa29-c516475cabbb"},"vehicle_type_id":"4","last_reported":1698712408,"current_range_meters":4800,"station_id":"ce4bhqp2rcd13ifvqhog","pricing_plan_id":"free"},{"bike_id":"6d795555-d637-4c69-907b-87ca843b9486","system_id":"levelo_inurba_marseille","lat":43.32369,"lon":5.38883,"is_reserved":false,"is_disabled":false,"rental_uris":{"android":"levelo://app?vid=6d795555-d637-4c69-907b-87ca843b9486","ios":"levelo://app?vid=6d795555-d637-4c69-907b-87ca843b9486"},"vehicle_type_id":"4","last_reported":1698712408,"current_range_meters":30400,"station_id":"ce4bhqp2rcd13ifvqhog","pricing_plan_id":"free"},{"bike_id":"95f88435-e6d4-4be3-a0fe-eb83282d635d","system_id":"levelo_inurba_marseille","lat":43.29298,"lon":5.37453,"is_reserved":false,"is_disabled":false,"rental_uris":{"android":"levelo://app?vid=95f88435-e6d4-4be3-a0fe-eb83282d635d","ios":"levelo://app?vid=95f88435-e6d4-4be3-a0fe-eb83282d635d"},"vehicle_type_id":"4","last_reported":1698712408,"current_range_meters":0,"station_id":"ce4bgi12rcd13ifvqb70","pricing_plan_id":"free"},{"bike_id":"0134a282-8865-469d-90b5-931eb037cf8e","system_id":"levelo_inurba_marseille","lat":43.30592,"lon":5.39358,"is_reserved":false,"is_disabled":false,"rental_uris":{"android":"levelo://app?vid=0134a282-8865-469d-90b5-931eb037cf8e","ios":"levelo://app?vid=0134a282-8865-469d-90b5-931eb037cf8e"},"vehicle_type_id":"4","last_reported":1698712408,"current_range_meters":7600,"station_id":"ce4bh0p2rcd13ifvqd80","pricing_plan_id":"free"},{"bike_id":"28dbe3df-9f09-45c4-a93f-b8045ba8712a","system_id":"levelo_inurba_marseille","lat":43.300852,"lon":5.390859,"is_reserved":false,"is_disabled":false,"rental_uris":{"android":"levelo://app?vid=28dbe3df-9f09-45c4-a93f-b8045ba8712a","ios":"levelo://app?vid=28dbe3df-9f09-45c4-a93f-b8045ba8712a"},"vehicle_type_id":"4","last_reported":1698712408,"current_range_meters":28000,"station_id":"ce4bh192rcd13ifvqdb0","pricing_plan_id":"free"},{"bike_id":"63885597-301e-4da6-95c1-6cec64ecc5e0","system_id":"levelo_inurba_marseille","lat":43.292663,"lon":5.376389,"is_reserved":false,"is_disabled":false,"rental_uris":{"android":"levelo://app?vid=63885597-301e-4da6-95c1-6cec64ecc5e0","ios":"levelo://app?vid=63885597-301e-4da6-95c1-6cec64ecc5e0"},"vehicle_type_id":"4","last_reported":1698712408,"current_range_meters":0,"station_id":"ce4bgi12rcd13ifvqb80","pricing_plan_id":"free"},{"bike_id":"0e8233d2-0d57-470f-8c07-e9f753046a4f","system_id":"levelo_inurba_marseille","lat":43.33217,"lon":5.3788,"is_reserved":false,"is_disabled":false,"rental_uris":{"android":"levelo://app?vid=0e8233d2-0d57-470f-8c07-e9f753046a4f","ios":"levelo://app?vid=0e8233d2-0d57-470f-8c07-e9f753046a4f"},"vehicle_type_id":"4","last_reported":1698712408,"current_range_meters":28400,"station_id":"","pricing_plan_id":"free"},{"bike_id":"f1f92cf0-c9f5-4a2c-af06-4c290ca73f45","system_id":"levelo_inurba_marseille","lat":43.291671,"lon":5.371575,"is_reserved":false,"is_disabled":false,"rental_uris":{"android":"levelo://app?vid=f1f92cf0-c9f5-4a2c-af06-4c290ca73f45","ios":"levelo://app?vid=f1f92cf0-c9f5-4a2c-af06-4c290ca73f45"},"vehicle_type_id":"4","last_reported":1698712408,"current_range_meters":30800,"station_id":"ce4bha92rcd13ifvqeh0","pricing_plan_id":"free"},{"bike_id":"e7c17355-a7f9-4f3d-bb3a-24ec1b044267","system_id":"levelo_inurba_marseille","lat":43.309047,"lon":5.396551,"is_reserved":false,"is_disabled":false,"rental_uris":{"android":"levelo://app?vid=e7c17355-a7f9-4f3d-bb3a-24ec1b044267","ios":"levelo://app?vid=e7c17355-a7f9-4f3d-bb3a-24ec1b044267"},"vehicle_type_id":"4","last_reported":1698712408,"current_range_meters":18400,"station_id":"ce4bh012rcd13ifvqcv0","pricing_plan_id":"free"},{"bike_id":"c10da6c2-beda-4ee6-b96c-ba5d86476fb1","system_id":"levelo_inurba_marseille","lat":43.32803,"lon":5.38811,"is_reserved":false,"is_disabled":false,"rental_uris":{"android":"levelo://app?vid=c10da6c2-beda-4ee6-b96c-ba5d86476fb1","ios":"levelo://app?vid=c10da6c2-beda-4ee6-b96c-ba5d86476fb1"},"vehicle_type_id":"4","last_reported":1698712408,"current_range_meters":12400,"station_id":"","pricing_plan_id":"free"},{"bike_id":"df27873d-08cd-4199-850a-de48858a9cfe","system_id":"levelo_inurba_marseille","lat":43.313291,"lon":5.396838,"is_reserved":false,"is_disabled":false,"rental_uris":{"android":"levelo://app?vid=df27873d-08cd-4199-850a-de48858a9cfe","ios":"levelo://app?vid=df27873d-08cd-4199-850a-de48858a9cfe"},"vehicle_type_id":"4","last_reported":1698712408,"current_range_meters":22800,"station_id":"ce4bgvp2rcd13ifvqcu0","pricing_plan_id":"free"},{"bike_id":"13bf13c2-cf44-4bd6-959e-b5d8f27a290e","system_id":"levelo_inurba_marseille","lat":43.309038,"lon":5.396546,"is_reserved":false,"is_disabled":false,"rental_uris":{"android":"levelo://app?vid=13bf13c2-cf44-4bd6-959e-b5d8f27a290e","ios":"levelo://app?vid=13bf13c2-cf44-4bd6-959e-b5d8f27a290e"},"vehicle_type_id":"4","last_reported":1698712408,"current_range_meters":25200,"station_id":"ce4bh012rcd13ifvqcv0","pricing_plan_id":"free"},{"bike_id":"c85ac39a-b31a-408a-be73-f9e5f6f4203e","system_id":"levelo_inurba_marseille","lat":43.31329,"lon":5.39688,"is_reserved":false,"is_disabled":false,"rental_uris":{"android":"levelo://app?vid=c85ac39a-b31a-408a-be73-f9e5f6f4203e","ios":"levelo://app?vid=c85ac39a-b31a-408a-be73-f9e5f6f4203e"},"vehicle_type_id":"4","last_reported":1698712408,"current_range_meters":28800,"station_id":"ce4bgvp2rcd13ifvqcu0","pricing_plan_id":"free"},{"bike_id":"712bc517-c3a0-45bc-883b-064193c1c6b1","system_id":"levelo_inurba_marseille","lat":43.309047,"lon":5.396551,"is_reserved":false,"is_disabled":false,"rental_uris":{"android":"levelo://app?vid=712bc517-c3a0-45bc-883b-064193c1c6b1","ios":"levelo://app?vid=712bc517-c3a0-45bc-883b-064193c1c6b1"},"vehicle_type_id":"4","last_reported":1698712408,"current_range_meters":1600,"station_id":"ce4bh012rcd13ifvqcv0","pricing_plan_id":"free"},{"bike_id":"dbb9335c-5543-4b5c-b9d7-db52a3796a04","system_id":"levelo_inurba_marseille","lat":43.31331,"lon":5.3969,"is_reserved":false,"is_disabled":false,"rental_uris":{"android":"levelo://app?vid=dbb9335c-5543-4b5c-b9d7-db52a3796a04","ios":"levelo://app?vid=dbb9335c-5543-4b5c-b9d7-db52a3796a04"},"vehicle_type_id":"4","last_reported":1698712408,"current_range_meters":26000,"station_id":"ce4bgvp2rcd13ifvqcu0","pricing_plan_id":"free"},{"bike_id":"8fd9317e-d4c1-4339-a95b-017490001285","system_id":"levelo_inurba_marseille","lat":43.291892,"lon":5.358004,"is_reserved":false,"is_disabled":false,"rental_uris":{"android":"levelo://app?vid=8fd9317e-d4c1-4339-a95b-017490001285","ios":"levelo://app?vid=8fd9317e-d4c1-4339-a95b-017490001285"},"vehicle_type_id":"4","last_reported":1698712408,"current_range_meters":17600,"station_id":"ce4bhb12rcd13ifvqel0","pricing_plan_id":"free"},{"bike_id":"6028bf03-d125-431a-a3fc-1575f1b1b927","system_id":"levelo_inurba_marseille","lat":43.309047,"lon":5.396551,"is_reserved":false,"is_disabled":false,"rental_uris":{"android":"levelo://app?vid=6028bf03-d125-431a-a3fc-1575f1b1b927","ios":"levelo://app?vid=6028bf03-d125-431a-a3fc-1575f1b1b927"},"vehicle_type_id":"4","last_reported":1698712408,"current_range_meters":31200,"station_id":"ce4bh012rcd13ifvqcv0","pricing_plan_id":"free"},{"bike_id":"f6b299d0-efc5-43c7-96ae-3e9bfe9e0ec1","system_id":"levelo_inurba_marseille","lat":43.309038,"lon":5.396546,"is_reserved":false,"is_disabled":false,"rental_uris":{"android":"levelo://app?vid=f6b299d0-efc5-43c7-96ae-3e9bfe9e0ec1","ios":"levelo://app?vid=f6b299d0-efc5-43c7-96ae-3e9bfe9e0ec1"},"vehicle_type_id":"4","last_reported":1698712408,"current_range_meters":21600,"station_id":"ce4bh012rcd13ifvqcv0","pricing_plan_id":"free"},{"bike_id":"3763d9b4-55dc-4bf1-85d2-623b456f8c62","system_id":"levelo_inurba_marseille","lat":43.29536,"lon":5.38551,"is_reserved":false,"is_disabled":false,"rental_uris":{"android":"levelo://app?vid=3763d9b4-55dc-4bf1-85d2-623b456f8c62","ios":"levelo://app?vid=3763d9b4-55dc-4bf1-85d2-623b456f8c62"},"vehicle_type_id":"4","last_reported":1698712408,"current_range_meters":14000,"station_id":"ce4bgih2rcd13ifvqba0","pricing_plan_id":"free"},{"bike_id":"5d419f5d-0da3-4c72-a6c5-fe0ffcdbf267","system_id":"levelo_inurba_marseille","lat":43.29529,"lon":5.385581,"is_reserved":false,"is_disabled":false,"rental_uris":{"android":"levelo://app?vid=5d419f5d-0da3-4c72-a6c5-fe0ffcdbf267","ios":"levelo://app?vid=5d419f5d-0da3-4c72-a6c5-fe0ffcdbf267"},"vehicle_type_id":"4","last_reported":1698712408,"current_range_meters":30400,"station_id":"ce4bgih2rcd13ifvqba0","pricing_plan_id":"free"},{"bike_id":"659f3916-2f2f-4685-a364-8b7a5babef32","system_id":"levelo_inurba_marseille","lat":43.290624,"lon":5.359245,"is_reserved":false,"is_disabled":false,"rental_uris":{"android":"levelo://app?vid=659f3916-2f2f-4685-a364-8b7a5babef32","ios":"levelo://app?vid=659f3916-2f2f-4685-a364-8b7a5babef32"},"vehicle_type_id":"4","last_reported":1698712408,"current_range_meters":28400,"station_id":"ce4bha92rcd13ifvqeg0","pricing_plan_id":"free"},{"bike_id":"f7df5467-6fea-490c-87f7-75a552f42e94","system_id":"levelo_inurba_marseille","lat":43.290624,"lon":5.359245,"is_reserved":false,"is_disabled":false,"rental_uris":{"android":"levelo://app?vid=f7df5467-6fea-490c-87f7-75a552f42e94","ios":"levelo://app?vid=f7df5467-6fea-490c-87f7-75a552f42e94"},"vehicle_type_id":"4","last_reported":1698712408,"current_range_meters":23600,"station_id":"ce4bha92rcd13ifvqeg0","pricing_plan_id":"free"},{"bike_id":"e5aea568-d238-4e1a-9e9e-c19823428580","system_id":"levelo_inurba_marseille","lat":43.290631,"lon":5.359244,"is_reserved":false,"is_disabled":false,"rental_uris":{"android":"levelo://app?vid=e5aea568-d238-4e1a-9e9e-c19823428580","ios":"levelo://app?vid=e5aea568-d238-4e1a-9e9e-c19823428580"},"vehicle_type_id":"4","last_reported":1698712408,"current_range_meters":31200,"station_id":"ce4bha92rcd13ifvqeg0","pricing_plan_id":"free"},{"bike_id":"2fed4c2c-26a0-4ce6-aad7-2a383f8c8550","system_id":"levelo_inurba_marseille","lat":43.290631,"lon":5.359244,"is_reserved":false,"is_disabled":false,"rental_uris":{"android":"levelo://app?vid=2fed4c2c-26a0-4ce6-aad7-2a383f8c8550","ios":"levelo://app?vid=2fed4c2c-26a0-4ce6-aad7-2a383f8c8550"},"vehicle_type_id":"4","last_reported":1698712408,"current_range_meters":23200,"station_id":"ce4bha92rcd13ifvqeg0","pricing_plan_id":"free"},{"bike_id":"8ead88c2-7fa5-403b-9aa6-a99b08ba367d","system_id":"levelo_inurba_marseille","lat":43.290631,"lon":5.359244,"is_reserved":false,"is_disabled":false,"rental_uris":{"android":"levelo://app?vid=8ead88c2-7fa5-403b-9aa6-a99b08ba367d","ios":"levelo://app?vid=8ead88c2-7fa5-403b-9aa6-a99b08ba367d"},"vehicle_type_id":"4","last_reported":1698712408,"current_range_meters":30800,"station_id":"ce4bha92rcd13ifvqeg0","pricing_plan_id":"free"},{"bike_id":"144d1335-6b98-44cb-bb88-c8d227ae2287","system_id":"levelo_inurba_marseille","lat":43.290631,"lon":5.359244,"is_reserved":false,"is_disabled":false,"rental_uris":{"android":"levelo://app?vid=144d1335-6b98-44cb-bb88-c8d227ae2287","ios":"levelo://app?vid=144d1335-6b98-44cb-bb88-c8d227ae2287"},"vehicle_type_id":"4","last_reported":1698712408,"current_range_meters":26400,"station_id":"ce4bha92rcd13ifvqeg0","pricing_plan_id":"free"},{"bike_id":"bdeed7cb-efd4-48f2-91e3-e5ba4b37f929","system_id":"levelo_inurba_marseille","lat":43.28939,"lon":5.36638,"is_reserved":false,"is_disabled":false,"rental_uris":{"android":"levelo://app?vid=bdeed7cb-efd4-48f2-91e3-e5ba4b37f929","ios":"levelo://app?vid=bdeed7cb-efd4-48f2-91e3-e5ba4b37f929"},"vehicle_type_id":"4","last_reported":1698712408,"current_range_meters":13600,"station_id":"ce4bhap2rcd13ifvqek0","pricing_plan_id":"free"},{"bike_id":"65e0d0ce-648a-4769-918c-2b81038ca83a","system_id":"levelo_inurba_marseille","lat":43.289184,"lon":5.366408,"is_reserved":false,"is_disabled":false,"rental_uris":{"android":"levelo://app?vid=65e0d0ce-648a-4769-918c-2b81038ca83a","ios":"levelo://app?vid=65e0d0ce-648a-4769-918c-2b81038ca83a"},"vehicle_type_id":"4","last_reported":1698712408,"current_range_meters":23600,"station_id":"ce4bhap2rcd13ifvqek0","pricing_plan_id":"free"},{"bike_id":"9fa5f61c-89c5-45aa-87c1-ad7f5cd27267","system_id":"levelo_inurba_marseille","lat":43.28938,"lon":5.36635,"is_reserved":false,"is_disabled":false,"rental_uris":{"android":"levelo://app?vid=9fa5f61c-89c5-45aa-87c1-ad7f5cd27267","ios":"levelo://app?vid=9fa5f61c-89c5-45aa-87c1-ad7f5cd27267"},"vehicle_type_id":"4","last_reported":1698712408,"current_range_meters":29600,"station_id":"ce4bhap2rcd13ifvqek0","pricing_plan_id":"free"},{"bike_id":"dd3aadd3-e54b-4437-907b-e624c68edc09","system_id":"levelo_inurba_marseille","lat":43.289184,"lon":5.366408,"is_reserved":false,"is_disabled":false,"rental_uris":{"android":"levelo://app?vid=dd3aadd3-e54b-4437-907b-e624c68edc09","ios":"levelo://app?vid=dd3aadd3-e54b-4437-907b-e624c68edc09"},"vehicle_type_id":"4","last_reported":1698712408,"current_range_meters":14000,"station_id":"ce4bhap2rcd13ifvqek0","pricing_plan_id":"free"},{"bike_id":"ed52bc5e-87b3-48fc-8fe6-6f666cc99ee6","system_id":"levelo_inurba_marseille","lat":43.289184,"lon":5.366408,"is_reserved":false,"is_disabled":false,"rental_uris":{"android":"levelo://app?vid=ed52bc5e-87b3-48fc-8fe6-6f666cc99ee6","ios":"levelo://app?vid=ed52bc5e-87b3-48fc-8fe6-6f666cc99ee6"},"vehicle_type_id":"4","last_reported":1698712408,"current_range_meters":9200,"station_id":"ce4bhap2rcd13ifvqek0","pricing_plan_id":"free"},{"bike_id":"1f0e63f1-eaa8-4f78-8563-63eda95f4cf5","system_id":"levelo_inurba_marseille","lat":43.289184,"lon":5.366408,"is_reserved":false,"is_disabled":false,"rental_uris":{"android":"levelo://app?vid=1f0e63f1-eaa8-4f78-8563-63eda95f4cf5","ios":"levelo://app?vid=1f0e63f1-eaa8-4f78-8563-63eda95f4cf5"},"vehicle_type_id":"4","last_reported":1698712408,"current_range_meters":29200,"station_id":"ce4bhap2rcd13ifvqek0","pricing_plan_id":"free"},{"bike_id":"88d2119e-0ef5-49eb-a638-373178f6f316","system_id":"levelo_inurba_marseille","lat":43.304274,"lon":5.397513,"is_reserved":false,"is_disabled":false,"rental_uris":{"android":"levelo://app?vid=88d2119e-0ef5-49eb-a638-373178f6f316","ios":"levelo://app?vid=88d2119e-0ef5-49eb-a638-373178f6f316"},"vehicle_type_id":"4","last_reported":1698712408,"current_range_meters":29200,"station_id":"ce4bh092rcd13ifvqd20","pricing_plan_id":"free"},{"bike_id":"adc3c863-5459-4e5d-b5d1-2e320f015261","system_id":"levelo_inurba_marseille","lat":43.304296,"lon":5.397513,"is_reserved":false,"is_disabled":false,"rental_uris":{"android":"levelo://app?vid=adc3c863-5459-4e5d-b5d1-2e320f015261","ios":"levelo://app?vid=adc3c863-5459-4e5d-b5d1-2e320f015261"},"vehicle_type_id":"4","last_reported":1698712408,"current_range_meters":0,"station_id":"ce4bh092rcd13ifvqd20","pricing_plan_id":"free"},{"bike_id":"8e8b3f89-aee3-46d3-99e6-416733cd1d62","system_id":"levelo_inurba_marseille","lat":43.304296,"lon":5.397513,"is_reserved":false,"is_disabled":false,"rental_uris":{"android":"levelo://app?vid=8e8b3f89-aee3-46d3-99e6-416733cd1d62","ios":"levelo://app?vid=8e8b3f89-aee3-46d3-99e6-416733cd1d62"},"vehicle_type_id":"4","last_reported":1698712408,"current_range_meters":24000,"station_id":"ce4bh092rcd13ifvqd20","pricing_plan_id":"free"},{"bike_id":"71592c63-ca0f-430b-9652-6e5925f73a8a","system_id":"levelo_inurba_marseille","lat":43.330442,"lon":5.389148,"is_reserved":false,"is_disabled":false,"rental_uris":{"android":"levelo://app?vid=71592c63-ca0f-430b-9652-6e5925f73a8a","ios":"levelo://app?vid=71592c63-ca0f-430b-9652-6e5925f73a8a"},"vehicle_type_id":"4","last_reported":1698712408,"current_range_meters":17200,"station_id":"ce4bhr92rcd13ifvqhrg","pricing_plan_id":"free"},{"bike_id":"4292bce0-7740-485a-94ac-2de111ed6536","system_id":"levelo_inurba_marseille","lat":43.33039,"lon":5.38924,"is_reserved":false,"is_disabled":false,"rental_uris":{"android":"levelo://app?vid=4292bce0-7740-485a-94ac-2de111ed6536","ios":"levelo://app?vid=4292bce0-7740-485a-94ac-2de111ed6536"},"vehicle_type_id":"4","last_reported":1698712408,"current_range_meters":16800,"station_id":"ce4bhr92rcd13ifvqhrg","pricing_plan_id":"free"},{"bike_id":"8ec8b72c-dd6f-469d-aee0-017da7f125f4","system_id":"levelo_inurba_marseille","lat":43.330384,"lon":5.389249,"is_reserved":false,"is_disabled":false,"rental_uris":{"android":"levelo://app?vid=8ec8b72c-dd6f-469d-aee0-017da7f125f4","ios":"levelo://app?vid=8ec8b72c-dd6f-469d-aee0-017da7f125f4"},"vehicle_type_id":"4","last_reported":1698712408,"current_range_meters":31200,"station_id":"ce4bhr92rcd13ifvqhrg","pricing_plan_id":"free"},{"bike_id":"8abc5b7d-4b22-49fd-aa4c-fa5b00fd3186","system_id":"levelo_inurba_marseille","lat":43.33044,"lon":5.38917,"is_reserved":false,"is_disabled":false,"rental_uris":{"android":"levelo://app?vid=8abc5b7d-4b22-49fd-aa4c-fa5b00fd3186","ios":"levelo://app?vid=8abc5b7d-4b22-49fd-aa4c-fa5b00fd3186"},"vehicle_type_id":"4","last_reported":1698712408,"current_range_meters":31200,"station_id":"ce4bhr92rcd13ifvqhrg","pricing_plan_id":"free"},{"bike_id":"bd0aff3a-9d0b-40ae-bdd7-be8e317371ef","system_id":"levelo_inurba_marseille","lat":43.290104,"lon":5.356111,"is_reserved":false,"is_disabled":false,"rental_uris":{"android":"levelo://app?vid=bd0aff3a-9d0b-40ae-bdd7-be8e317371ef","ios":"levelo://app?vid=bd0aff3a-9d0b-40ae-bdd7-be8e317371ef"},"vehicle_type_id":"4","last_reported":1698712408,"current_range_meters":22400,"station_id":"ce4bhb92rcd13ifvqen0","pricing_plan_id":"free"},{"bike_id":"de0c862d-863d-4710-b8df-8914a0d564f7","system_id":"levelo_inurba_marseille","lat":43.290104,"lon":5.356111,"is_reserved":false,"is_disabled":false,"rental_uris":{"android":"levelo://app?vid=de0c862d-863d-4710-b8df-8914a0d564f7","ios":"levelo://app?vid=de0c862d-863d-4710-b8df-8914a0d564f7"},"vehicle_type_id":"4","last_reported":1698712408,"current_range_meters":30400,"station_id":"ce4bhb92rcd13ifvqen0","pricing_plan_id":"free"},{"bike_id":"e0d713cd-ec81-44ec-8ba4-571dd76a2b05","system_id":"levelo_inurba_marseille","lat":43.295169,"lon":5.390426,"is_reserved":false,"is_disabled":false,"rental_uris":{"android":"levelo://app?vid=e0d713cd-ec81-44ec-8ba4-571dd76a2b05","ios":"levelo://app?vid=e0d713cd-ec81-44ec-8ba4-571dd76a2b05"},"vehicle_type_id":"4","last_reported":1698712408,"current_range_meters":18800,"station_id":"ce4bh3p2rcd13ifvqdp0","pricing_plan_id":"free"},{"bike_id":"77116d85-2783-4edc-b210-05219c76076e","system_id":"levelo_inurba_marseille","lat":43.297815,"lon":5.393548,"is_reserved":false,"is_disabled":false,"rental_uris":{"android":"levelo://app?vid=77116d85-2783-4edc-b210-05219c76076e","ios":"levelo://app?vid=77116d85-2783-4edc-b210-05219c76076e"},"vehicle_type_id":"4","last_reported":1698712408,"current_range_meters":26000,"station_id":"chh1huq6cuj3fo74tm60","pricing_plan_id":"free"},{"bike_id":"826f8a43-0fe1-41d6-ac50-feaac369d887","system_id":"levelo_inurba_marseille","lat":43.297854,"lon":5.393421,"is_reserved":false,"is_disabled":false,"rental_uris":{"android":"levelo://app?vid=826f8a43-0fe1-41d6-ac50-feaac369d887","ios":"levelo://app?vid=826f8a43-0fe1-41d6-ac50-feaac369d887"},"vehicle_type_id":"4","last_reported":1698712408,"current_range_meters":22400,"station_id":"chh1huq6cuj3fo74tm60","pricing_plan_id":"free"},{"bike_id":"8d58ba7b-231d-41ec-aa0d-74b2e0ec3a93","system_id":"levelo_inurba_marseille","lat":43.297817,"lon":5.393409,"is_reserved":false,"is_disabled":false,"rental_uris":{"android":"levelo://app?vid=8d58ba7b-231d-41ec-aa0d-74b2e0ec3a93","ios":"levelo://app?vid=8d58ba7b-231d-41ec-aa0d-74b2e0ec3a93"},"vehicle_type_id":"4","last_reported":1698712408,"current_range_meters":31200,"station_id":"chh1huq6cuj3fo74tm60","pricing_plan_id":"free"},{"bike_id":"097107b1-0a68-45df-9ecd-d836119dc4fc","system_id":"levelo_inurba_marseille","lat":43.28856,"lon":5.358371,"is_reserved":false,"is_disabled":false,"rental_uris":{"android":"levelo://app?vid=097107b1-0a68-45df-9ecd-d836119dc4fc","ios":"levelo://app?vid=097107b1-0a68-45df-9ecd-d836119dc4fc"},"vehicle_type_id":"4","last_reported":1698712408,"current_range_meters":30400,"station_id":"ce4bhb12rcd13ifvqem0","pricing_plan_id":"free"},{"bike_id":"d6a3fca3-eeae-4150-b28f-2c0cd1d839a8","system_id":"levelo_inurba_marseille","lat":43.28856,"lon":5.358371,"is_reserved":false,"is_disabled":false,"rental_uris":{"android":"levelo://app?vid=d6a3fca3-eeae-4150-b28f-2c0cd1d839a8","ios":"levelo://app?vid=d6a3fca3-eeae-4150-b28f-2c0cd1d839a8"},"vehicle_type_id":"4","last_reported":1698712408,"current_range_meters":11600,"station_id":"ce4bhb12rcd13ifvqem0","pricing_plan_id":"free"},{"bike_id":"644c3d52-a076-4bee-b659-7a11a41045e2","system_id":"levelo_inurba_marseille","lat":43.28856,"lon":5.358371,"is_reserved":false,"is_disabled":false,"rental_uris":{"android":"levelo://app?vid=644c3d52-a076-4bee-b659-7a11a41045e2","ios":"levelo://app?vid=644c3d52-a076-4bee-b659-7a11a41045e2"},"vehicle_type_id":"4","last_reported":1698712408,"current_range_meters":24000,"station_id":"ce4bhb12rcd13ifvqem0","pricing_plan_id":"free"},{"bike_id":"b616e12c-d32f-48be-8c7d-2f8f737f9eac","system_id":"levelo_inurba_marseille","lat":43.28856,"lon":5.358371,"is_reserved":false,"is_disabled":false,"rental_uris":{"android":"levelo://app?vid=b616e12c-d32f-48be-8c7d-2f8f737f9eac","ios":"levelo://app?vid=b616e12c-d32f-48be-8c7d-2f8f737f9eac"},"vehicle_type_id":"4","last_reported":1698712408,"current_range_meters":29600,"station_id":"ce4bhb12rcd13ifvqem0","pricing_plan_id":"free"},{"bike_id":"560475da-5cbd-4430-8a5c-f9bbcc3c7b42","system_id":"levelo_inurba_marseille","lat":43.28856,"lon":5.358371,"is_reserved":false,"is_disabled":false,"rental_uris":{"android":"levelo://app?vid=560475da-5cbd-4430-8a5c-f9bbcc3c7b42","ios":"levelo://app?vid=560475da-5cbd-4430-8a5c-f9bbcc3c7b42"},"vehicle_type_id":"4","last_reported":1698712408,"current_range_meters":24800,"station_id":"ce4bhb12rcd13ifvqem0","pricing_plan_id":"free"},{"bike_id":"4cf995f5-f671-455a-8425-3d6ce0ca8940","system_id":"levelo_inurba_marseille","lat":43.28856,"lon":5.358371,"is_reserved":false,"is_disabled":false,"rental_uris":{"android":"levelo://app?vid=4cf995f5-f671-455a-8425-3d6ce0ca8940","ios":"levelo://app?vid=4cf995f5-f671-455a-8425-3d6ce0ca8940"},"vehicle_type_id":"4","last_reported":1698712408,"current_range_meters":30000,"station_id":"ce4bhb12rcd13ifvqem0","pricing_plan_id":"free"},{"bike_id":"87397bf9-c740-4bc6-b966-c8e3cc688545","system_id":"levelo_inurba_marseille","lat":43.28856,"lon":5.358371,"is_reserved":false,"is_disabled":false,"rental_uris":{"android":"levelo://app?vid=87397bf9-c740-4bc6-b966-c8e3cc688545","ios":"levelo://app?vid=87397bf9-c740-4bc6-b966-c8e3cc688545"},"vehicle_type_id":"4","last_reported":1698712408,"current_range_meters":26400,"station_id":"ce4bhb12rcd13ifvqem0","pricing_plan_id":"free"},{"bike_id":"6a590a71-c706-4886-b27d-77acdcd5751e","system_id":"levelo_inurba_marseille","lat":43.28856,"lon":5.358371,"is_reserved":false,"is_disabled":false,"rental_uris":{"android":"levelo://app?vid=6a590a71-c706-4886-b27d-77acdcd5751e","ios":"levelo://app?vid=6a590a71-c706-4886-b27d-77acdcd5751e"},"vehicle_type_id":"4","last_reported":1698712408,"current_range_meters":31200,"station_id":"ce4bhb12rcd13ifvqem0","pricing_plan_id":"free"},{"bike_id":"5b5ae2a2-6208-4c31-8e94-d046f4f4c8f3","system_id":"levelo_inurba_marseille","lat":43.28856,"lon":5.358371,"is_reserved":false,"is_disabled":false,"rental_uris":{"android":"levelo://app?vid=5b5ae2a2-6208-4c31-8e94-d046f4f4c8f3","ios":"levelo://app?vid=5b5ae2a2-6208-4c31-8e94-d046f4f4c8f3"},"vehicle_type_id":"4","last_reported":1698712408,"current_range_meters":25600,"station_id":"ce4bhb12rcd13ifvqem0","pricing_plan_id":"free"},{"bike_id":"9308d0df-4b94-42d4-9c25-53262c885f39","system_id":"levelo_inurba_marseille","lat":43.28856,"lon":5.358371,"is_reserved":false,"is_disabled":false,"rental_uris":{"android":"levelo://app?vid=9308d0df-4b94-42d4-9c25-53262c885f39","ios":"levelo://app?vid=9308d0df-4b94-42d4-9c25-53262c885f39"},"vehicle_type_id":"4","last_reported":1698712408,"current_range_meters":31200,"station_id":"ce4bhb12rcd13ifvqem0","pricing_plan_id":"free"},{"bike_id":"773f3938-f22f-4f4b-b072-17145c5249f5","system_id":"levelo_inurba_marseille","lat":43.28856,"lon":5.358371,"is_reserved":false,"is_disabled":false,"rental_uris":{"android":"levelo://app?vid=773f3938-f22f-4f4b-b072-17145c5249f5","ios":"levelo://app?vid=773f3938-f22f-4f4b-b072-17145c5249f5"},"vehicle_type_id":"4","last_reported":1698712408,"current_range_meters":19600,"station_id":"ce4bhb12rcd13ifvqem0","pricing_plan_id":"free"},{"bike_id":"6d985032-a40b-4242-ab9c-d272efbf1b29","system_id":"levelo_inurba_marseille","lat":43.28856,"lon":5.358371,"is_reserved":false,"is_disabled":false,"rental_uris":{"android":"levelo://app?vid=6d985032-a40b-4242-ab9c-d272efbf1b29","ios":"levelo://app?vid=6d985032-a40b-4242-ab9c-d272efbf1b29"},"vehicle_type_id":"4","last_reported":1698712408,"current_range_meters":6000,"station_id":"ce4bhb12rcd13ifvqem0","pricing_plan_id":"free"},{"bike_id":"5577c633-1ba2-4078-a1c3-b7b82a33c5e6","system_id":"levelo_inurba_marseille","lat":43.30913,"lon":5.40133,"is_reserved":false,"is_disabled":false,"rental_uris":{"android":"levelo://app?vid=5577c633-1ba2-4078-a1c3-b7b82a33c5e6","ios":"levelo://app?vid=5577c633-1ba2-4078-a1c3-b7b82a33c5e6"},"vehicle_type_id":"4","last_reported":1698712408,"current_range_meters":13600,"station_id":"ce4bgvp2rcd13ifvqct0","pricing_plan_id":"free"},{"bike_id":"4719cd35-693e-4f53-a8bc-bc638e98b4b5","system_id":"levelo_inurba_marseille","lat":43.309306,"lon":5.401371,"is_reserved":false,"is_disabled":false,"rental_uris":{"android":"levelo://app?vid=4719cd35-693e-4f53-a8bc-bc638e98b4b5","ios":"levelo://app?vid=4719cd35-693e-4f53-a8bc-bc638e98b4b5"},"vehicle_type_id":"4","last_reported":1698712408,"current_range_meters":20000,"station_id":"ce4bgvp2rcd13ifvqct0","pricing_plan_id":"free"},{"bike_id":"89884d79-a10b-4471-8b1c-7e2a6fc91be0","system_id":"levelo_inurba_marseille","lat":43.337413,"lon":5.37471,"is_reserved":false,"is_disabled":false,"rental_uris":{"android":"levelo://app?vid=89884d79-a10b-4471-8b1c-7e2a6fc91be0","ios":"levelo://app?vid=89884d79-a10b-4471-8b1c-7e2a6fc91be0"},"vehicle_type_id":"4","last_reported":1698712408,"current_range_meters":3200,"station_id":"","pricing_plan_id":"free"},{"bike_id":"4c3080fd-981e-4be1-92dc-73e9047d1fd9","system_id":"levelo_inurba_marseille","lat":43.30939,"lon":5.40143,"is_reserved":false,"is_disabled":false,"rental_uris":{"android":"levelo://app?vid=4c3080fd-981e-4be1-92dc-73e9047d1fd9","ios":"levelo://app?vid=4c3080fd-981e-4be1-92dc-73e9047d1fd9"},"vehicle_type_id":"4","last_reported":1698712408,"current_range_meters":18000,"station_id":"ce4bgvp2rcd13ifvqct0","pricing_plan_id":"free"},{"bike_id":"b46ace51-d597-44c7-aba8-e65311050fa2","system_id":"levelo_inurba_marseille","lat":43.309305,"lon":5.401417,"is_reserved":false,"is_disabled":false,"rental_uris":{"android":"levelo://app?vid=b46ace51-d597-44c7-aba8-e65311050fa2","ios":"levelo://app?vid=b46ace51-d597-44c7-aba8-e65311050fa2"},"vehicle_type_id":"4","last_reported":1698712408,"current_range_meters":16800,"station_id":"ce4bgvp2rcd13ifvqct0","pricing_plan_id":"free"},{"bike_id":"8dbbf511-eb16-403b-9f5a-04b33e56616e","system_id":"levelo_inurba_marseille","lat":43.309196,"lon":5.4014,"is_reserved":false,"is_disabled":false,"rental_uris":{"android":"levelo://app?vid=8dbbf511-eb16-403b-9f5a-04b33e56616e","ios":"levelo://app?vid=8dbbf511-eb16-403b-9f5a-04b33e56616e"},"vehicle_type_id":"4","last_reported":1698712408,"current_range_meters":25600,"station_id":"ce4bgvp2rcd13ifvqct0","pricing_plan_id":"free"},{"bike_id":"cd819051-6ed0-4143-a7c2-db56fc928e2d","system_id":"levelo_inurba_marseille","lat":43.31266,"lon":5.40177,"is_reserved":false,"is_disabled":false,"rental_uris":{"android":"levelo://app?vid=cd819051-6ed0-4143-a7c2-db56fc928e2d","ios":"levelo://app?vid=cd819051-6ed0-4143-a7c2-db56fc928e2d"},"vehicle_type_id":"4","last_reported":1698712408,"current_range_meters":18800,"station_id":"ce4bh092rcd13ifvqd30","pricing_plan_id":"free"},{"bike_id":"d75d8559-e229-47c7-ac48-abc9eb7aec48","system_id":"levelo_inurba_marseille","lat":43.337445,"lon":5.374763,"is_reserved":false,"is_disabled":false,"rental_uris":{"android":"levelo://app?vid=d75d8559-e229-47c7-ac48-abc9eb7aec48","ios":"levelo://app?vid=d75d8559-e229-47c7-ac48-abc9eb7aec48"},"vehicle_type_id":"4","last_reported":1698712408,"current_range_meters":30800,"station_id":"","pricing_plan_id":"free"},{"bike_id":"2c7a3c96-26ed-4822-8a0b-3f90ed79bd30","system_id":"levelo_inurba_marseille","lat":43.30916,"lon":5.401433,"is_reserved":false,"is_disabled":false,"rental_uris":{"android":"levelo://app?vid=2c7a3c96-26ed-4822-8a0b-3f90ed79bd30","ios":"levelo://app?vid=2c7a3c96-26ed-4822-8a0b-3f90ed79bd30"},"vehicle_type_id":"4","last_reported":1698712408,"current_range_meters":25200,"station_id":"ce4bgvp2rcd13ifvqct0","pricing_plan_id":"free"},{"bike_id":"617d812a-df4a-4143-ae32-662f962bf938","system_id":"levelo_inurba_marseille","lat":43.30928,"lon":5.40146,"is_reserved":false,"is_disabled":false,"rental_uris":{"android":"levelo://app?vid=617d812a-df4a-4143-ae32-662f962bf938","ios":"levelo://app?vid=617d812a-df4a-4143-ae32-662f962bf938"},"vehicle_type_id":"4","last_reported":1698712408,"current_range_meters":24800,"station_id":"ce4bgvp2rcd13ifvqct0","pricing_plan_id":"free"},{"bike_id":"44bd4ca0-9910-45bb-96ef-2c3513f049a4","system_id":"levelo_inurba_marseille","lat":43.30645,"lon":5.4007,"is_reserved":false,"is_disabled":false,"rental_uris":{"android":"levelo://app?vid=44bd4ca0-9910-45bb-96ef-2c3513f049a4","ios":"levelo://app?vid=44bd4ca0-9910-45bb-96ef-2c3513f049a4"},"vehicle_type_id":"4","last_reported":1698712408,"current_range_meters":9200,"station_id":"ce4bh112rcd13ifvqda0","pricing_plan_id":"free"},{"bike_id":"8ac99df5-4b71-4100-9ed1-faebfa7de28e","system_id":"levelo_inurba_marseille","lat":43.306412,"lon":5.401035,"is_reserved":false,"is_disabled":false,"rental_uris":{"android":"levelo://app?vid=8ac99df5-4b71-4100-9ed1-faebfa7de28e","ios":"levelo://app?vid=8ac99df5-4b71-4100-9ed1-faebfa7de28e"},"vehicle_type_id":"4","last_reported":1698712408,"current_range_meters":20400,"station_id":"ce4bh112rcd13ifvqda0","pricing_plan_id":"free"},{"bike_id":"d8968e16-4990-42f0-9c64-1ae7694486e7","system_id":"levelo_inurba_marseille","lat":43.306362,"lon":5.400738,"is_reserved":false,"is_disabled":false,"rental_uris":{"android":"levelo://app?vid=d8968e16-4990-42f0-9c64-1ae7694486e7","ios":"levelo://app?vid=d8968e16-4990-42f0-9c64-1ae7694486e7"},"vehicle_type_id":"4","last_reported":1698712408,"current_range_meters":28800,"station_id":"ce4bh112rcd13ifvqda0","pricing_plan_id":"free"},{"bike_id":"7cc33fa8-bdce-448b-b2fe-f4ed610c9de8","system_id":"levelo_inurba_marseille","lat":43.33762,"lon":5.374614,"is_reserved":false,"is_disabled":false,"rental_uris":{"android":"levelo://app?vid=7cc33fa8-bdce-448b-b2fe-f4ed610c9de8","ios":"levelo://app?vid=7cc33fa8-bdce-448b-b2fe-f4ed610c9de8"},"vehicle_type_id":"4","last_reported":1698712408,"current_range_meters":29600,"station_id":"","pricing_plan_id":"free"},{"bike_id":"c9de256f-a394-4d61-8b15-1a1190eb92ca","system_id":"levelo_inurba_marseille","lat":43.306412,"lon":5.401035,"is_reserved":false,"is_disabled":false,"rental_uris":{"android":"levelo://app?vid=c9de256f-a394-4d61-8b15-1a1190eb92ca","ios":"levelo://app?vid=c9de256f-a394-4d61-8b15-1a1190eb92ca"},"vehicle_type_id":"4","last_reported":1698712408,"current_range_meters":31200,"station_id":"ce4bh112rcd13ifvqda0","pricing_plan_id":"free"},{"bike_id":"d3b49d4c-9d53-447d-837f-de6c293be278","system_id":"levelo_inurba_marseille","lat":43.306412,"lon":5.401035,"is_reserved":false,"is_disabled":false,"rental_uris":{"android":"levelo://app?vid=d3b49d4c-9d53-447d-837f-de6c293be278","ios":"levelo://app?vid=d3b49d4c-9d53-447d-837f-de6c293be278"},"vehicle_type_id":"4","last_reported":1698712408,"current_range_meters":27200,"station_id":"ce4bh112rcd13ifvqda0","pricing_plan_id":"free"},{"bike_id":"c6ad6bae-53b1-4f34-9cf4-c69efe00abc3","system_id":"levelo_inurba_marseille","lat":43.306412,"lon":5.401035,"is_reserved":false,"is_disabled":false,"rental_uris":{"android":"levelo://app?vid=c6ad6bae-53b1-4f34-9cf4-c69efe00abc3","ios":"levelo://app?vid=c6ad6bae-53b1-4f34-9cf4-c69efe00abc3"},"vehicle_type_id":"4","last_reported":1698712408,"current_range_meters":20800,"station_id":"ce4bh112rcd13ifvqda0","pricing_plan_id":"free"},{"bike_id":"8991a833-ff8c-41fb-a194-2cb7a4aece99","system_id":"levelo_inurba_marseille","lat":43.301117,"lon":5.398795,"is_reserved":false,"is_disabled":false,"rental_uris":{"android":"levelo://app?vid=8991a833-ff8c-41fb-a194-2cb7a4aece99","ios":"levelo://app?vid=8991a833-ff8c-41fb-a194-2cb7a4aece99"},"vehicle_type_id":"4","last_reported":1698712408,"current_range_meters":31200,"station_id":"ce4bh0h2rcd13ifvqd40","pricing_plan_id":"free"},{"bike_id":"630133d2-352b-4586-a0b8-1ee56509784c","system_id":"levelo_inurba_marseille","lat":43.3379,"lon":5.3742,"is_reserved":false,"is_disabled":false,"rental_uris":{"android":"levelo://app?vid=630133d2-352b-4586-a0b8-1ee56509784c","ios":"levelo://app?vid=630133d2-352b-4586-a0b8-1ee56509784c"},"vehicle_type_id":"4","last_reported":1698712408,"current_range_meters":13200,"station_id":"","pricing_plan_id":"free"},{"bike_id":"2cdb8c13-bef9-43ec-9810-e109099ecc40","system_id":"levelo_inurba_marseille","lat":43.301117,"lon":5.398795,"is_reserved":false,"is_disabled":false,"rental_uris":{"android":"levelo://app?vid=2cdb8c13-bef9-43ec-9810-e109099ecc40","ios":"levelo://app?vid=2cdb8c13-bef9-43ec-9810-e109099ecc40"},"vehicle_type_id":"4","last_reported":1698712408,"current_range_meters":29200,"station_id":"ce4bh0h2rcd13ifvqd40","pricing_plan_id":"free"},{"bike_id":"bff23a90-3c55-41b4-8462-a355cddb3dd9","system_id":"levelo_inurba_marseille","lat":43.301117,"lon":5.398795,"is_reserved":false,"is_disabled":false,"rental_uris":{"android":"levelo://app?vid=bff23a90-3c55-41b4-8462-a355cddb3dd9","ios":"levelo://app?vid=bff23a90-3c55-41b4-8462-a355cddb3dd9"},"vehicle_type_id":"4","last_reported":1698712408,"current_range_meters":23200,"station_id":"ce4bh0h2rcd13ifvqd40","pricing_plan_id":"free"},{"bike_id":"df051314-74dd-46ab-8d7e-101f5d258dc8","system_id":"levelo_inurba_marseille","lat":43.28727,"lon":5.36078,"is_reserved":false,"is_disabled":false,"rental_uris":{"android":"levelo://app?vid=df051314-74dd-46ab-8d7e-101f5d258dc8","ios":"levelo://app?vid=df051314-74dd-46ab-8d7e-101f5d258dc8"},"vehicle_type_id":"4","last_reported":1698712408,"current_range_meters":27600,"station_id":"cki0cbj6b192h4jlfktg","pricing_plan_id":"free"},{"bike_id":"737a2f7b-fe53-4633-a290-89de8f6d57b5","system_id":"levelo_inurba_marseille","lat":43.28733,"lon":5.36079,"is_reserved":false,"is_disabled":false,"rental_uris":{"android":"levelo://app?vid=737a2f7b-fe53-4633-a290-89de8f6d57b5","ios":"levelo://app?vid=737a2f7b-fe53-4633-a290-89de8f6d57b5"},"vehicle_type_id":"4","last_reported":1698712408,"current_range_meters":18400,"station_id":"cki0cbj6b192h4jlfktg","pricing_plan_id":"free"},{"bike_id":"5ad67e56-15c6-435d-b7fb-83edb37deaf5","system_id":"levelo_inurba_marseille","lat":43.301321,"lon":5.398768,"is_reserved":false,"is_disabled":false,"rental_uris":{"android":"levelo://app?vid=5ad67e56-15c6-435d-b7fb-83edb37deaf5","ios":"levelo://app?vid=5ad67e56-15c6-435d-b7fb-83edb37deaf5"},"vehicle_type_id":"4","last_reported":1698712408,"current_range_meters":8800,"station_id":"ce4bh0h2rcd13ifvqd40","pricing_plan_id":"free"},{"bike_id":"92f42489-a920-433c-8d23-22426702d6f3","system_id":"levelo_inurba_marseille","lat":43.28727,"lon":5.36078,"is_reserved":false,"is_disabled":false,"rental_uris":{"android":"levelo://app?vid=92f42489-a920-433c-8d23-22426702d6f3","ios":"levelo://app?vid=92f42489-a920-433c-8d23-22426702d6f3"},"vehicle_type_id":"4","last_reported":1698712408,"current_range_meters":31200,"station_id":"cki0cbj6b192h4jlfktg","pricing_plan_id":"free"},{"bike_id":"63f48769-26b7-4bfe-a836-661a9924c4e7","system_id":"levelo_inurba_marseille","lat":43.28727,"lon":5.36078,"is_reserved":false,"is_disabled":false,"rental_uris":{"android":"levelo://app?vid=63f48769-26b7-4bfe-a836-661a9924c4e7","ios":"levelo://app?vid=63f48769-26b7-4bfe-a836-661a9924c4e7"},"vehicle_type_id":"4","last_reported":1698712408,"current_range_meters":9200,"station_id":"cki0cbj6b192h4jlfktg","pricing_plan_id":"free"},{"bike_id":"61509424-7949-42b7-a64f-efa52a2cc143","system_id":"levelo_inurba_marseille","lat":43.298809,"lon":5.397279,"is_reserved":false,"is_disabled":false,"rental_uris":{"android":"levelo://app?vid=61509424-7949-42b7-a64f-efa52a2cc143","ios":"levelo://app?vid=61509424-7949-42b7-a64f-efa52a2cc143"},"vehicle_type_id":"4","last_reported":1698712408,"current_range_meters":24400,"station_id":"","pricing_plan_id":"free"},{"bike_id":"9eb4f770-a12c-4f64-85e0-739e5a38f79c","system_id":"levelo_inurba_marseille","lat":43.286961,"lon":5.373785,"is_reserved":false,"is_disabled":false,"rental_uris":{"android":"levelo://app?vid=9eb4f770-a12c-4f64-85e0-739e5a38f79c","ios":"levelo://app?vid=9eb4f770-a12c-4f64-85e0-739e5a38f79c"},"vehicle_type_id":"4","last_reported":1698712408,"current_range_meters":9600,"station_id":"ce4bh3p2rcd13ifvqdq0","pricing_plan_id":"free"},{"bike_id":"70db90a7-d555-40ca-b6be-dae35609de11","system_id":"levelo_inurba_marseille","lat":43.286961,"lon":5.373785,"is_reserved":false,"is_disabled":false,"rental_uris":{"android":"levelo://app?vid=70db90a7-d555-40ca-b6be-dae35609de11","ios":"levelo://app?vid=70db90a7-d555-40ca-b6be-dae35609de11"},"vehicle_type_id":"4","last_reported":1698712408,"current_range_meters":31200,"station_id":"ce4bh3p2rcd13ifvqdq0","pricing_plan_id":"free"},{"bike_id":"51660965-1a0a-4cd7-a833-0df99341a210","system_id":"levelo_inurba_marseille","lat":43.286961,"lon":5.373785,"is_reserved":false,"is_disabled":false,"rental_uris":{"android":"levelo://app?vid=51660965-1a0a-4cd7-a833-0df99341a210","ios":"levelo://app?vid=51660965-1a0a-4cd7-a833-0df99341a210"},"vehicle_type_id":"4","last_reported":1698712408,"current_range_meters":10800,"station_id":"ce4bh3p2rcd13ifvqdq0","pricing_plan_id":"free"},{"bike_id":"ece8ee0f-14b3-4b57-9963-d06b54e9b6d1","system_id":"levelo_inurba_marseille","lat":43.286591,"lon":5.363346,"is_reserved":false,"is_disabled":false,"rental_uris":{"android":"levelo://app?vid=ece8ee0f-14b3-4b57-9963-d06b54e9b6d1","ios":"levelo://app?vid=ece8ee0f-14b3-4b57-9963-d06b54e9b6d1"},"vehicle_type_id":"4","last_reported":1698712408,"current_range_meters":1200,"station_id":"ce4bhah2rcd13ifvqej0","pricing_plan_id":"free"},{"bike_id":"c55b9fe6-94ac-4481-b070-d9f60711efd6","system_id":"levelo_inurba_marseille","lat":43.286591,"lon":5.363346,"is_reserved":false,"is_disabled":false,"rental_uris":{"android":"levelo://app?vid=c55b9fe6-94ac-4481-b070-d9f60711efd6","ios":"levelo://app?vid=c55b9fe6-94ac-4481-b070-d9f60711efd6"},"vehicle_type_id":"4","last_reported":1698712408,"current_range_meters":31600,"station_id":"ce4bhah2rcd13ifvqej0","pricing_plan_id":"free"},{"bike_id":"ba462955-4f5a-48c8-84f1-bc794aac8918","system_id":"levelo_inurba_marseille","lat":43.286591,"lon":5.363346,"is_reserved":false,"is_disabled":false,"rental_uris":{"android":"levelo://app?vid=ba462955-4f5a-48c8-84f1-bc794aac8918","ios":"levelo://app?vid=ba462955-4f5a-48c8-84f1-bc794aac8918"},"vehicle_type_id":"4","last_reported":1698712408,"current_range_meters":23600,"station_id":"ce4bhah2rcd13ifvqej0","pricing_plan_id":"free"},{"bike_id":"d9b330c1-6895-4e13-8e08-fe37e7b915a6","system_id":"levelo_inurba_marseille","lat":43.286593,"lon":5.363346,"is_reserved":false,"is_disabled":false,"rental_uris":{"android":"levelo://app?vid=d9b330c1-6895-4e13-8e08-fe37e7b915a6","ios":"levelo://app?vid=d9b330c1-6895-4e13-8e08-fe37e7b915a6"},"vehicle_type_id":"4","last_reported":1698712408,"current_range_meters":23600,"station_id":"ce4bhah2rcd13ifvqej0","pricing_plan_id":"free"},{"bike_id":"e3d5f1ad-5bf6-4d9e-9946-60466cf7be12","system_id":"levelo_inurba_marseille","lat":43.286961,"lon":5.373785,"is_reserved":false,"is_disabled":false,"rental_uris":{"android":"levelo://app?vid=e3d5f1ad-5bf6-4d9e-9946-60466cf7be12","ios":"levelo://app?vid=e3d5f1ad-5bf6-4d9e-9946-60466cf7be12"},"vehicle_type_id":"4","last_reported":1698712408,"current_range_meters":4000,"station_id":"ce4bh3p2rcd13ifvqdq0","pricing_plan_id":"free"},{"bike_id":"1d57a291-d25c-4a79-8a38-b3a9fbd0f873","system_id":"levelo_inurba_marseille","lat":43.286593,"lon":5.363346,"is_reserved":false,"is_disabled":false,"rental_uris":{"android":"levelo://app?vid=1d57a291-d25c-4a79-8a38-b3a9fbd0f873","ios":"levelo://app?vid=1d57a291-d25c-4a79-8a38-b3a9fbd0f873"},"vehicle_type_id":"4","last_reported":1698712408,"current_range_meters":27600,"station_id":"ce4bhah2rcd13ifvqej0","pricing_plan_id":"free"},{"bike_id":"68c4695f-eec0-468c-b0d3-341803914921","system_id":"levelo_inurba_marseille","lat":43.295196,"lon":5.39397,"is_reserved":false,"is_disabled":false,"rental_uris":{"android":"levelo://app?vid=68c4695f-eec0-468c-b0d3-341803914921","ios":"levelo://app?vid=68c4695f-eec0-468c-b0d3-341803914921"},"vehicle_type_id":"4","last_reported":1698712408,"current_range_meters":24400,"station_id":"ce4bh292rcd13ifvqdf0","pricing_plan_id":"free"},{"bike_id":"538ae2aa-b1fb-40ec-9ba6-75ef5992b188","system_id":"levelo_inurba_marseille","lat":43.290385,"lon":5.386425,"is_reserved":false,"is_disabled":false,"rental_uris":{"android":"levelo://app?vid=538ae2aa-b1fb-40ec-9ba6-75ef5992b188","ios":"levelo://app?vid=538ae2aa-b1fb-40ec-9ba6-75ef5992b188"},"vehicle_type_id":"4","last_reported":1698712408,"current_range_meters":17600,"station_id":"ce4bh4p2rcd13ifvqe0g","pricing_plan_id":"free"},{"bike_id":"6d30c235-81f4-4623-bd7e-f6ca13ecc1ab","system_id":"levelo_inurba_marseille","lat":43.29032,"lon":5.38646,"is_reserved":false,"is_disabled":false,"rental_uris":{"android":"levelo://app?vid=6d30c235-81f4-4623-bd7e-f6ca13ecc1ab","ios":"levelo://app?vid=6d30c235-81f4-4623-bd7e-f6ca13ecc1ab"},"vehicle_type_id":"4","last_reported":1698712408,"current_range_meters":30000,"station_id":"ce4bh4p2rcd13ifvqe0g","pricing_plan_id":"free"},{"bike_id":"a36ba9dd-ad7b-43d9-b998-342a28333adf","system_id":"levelo_inurba_marseille","lat":43.2903,"lon":5.38643,"is_reserved":false,"is_disabled":false,"rental_uris":{"android":"levelo://app?vid=a36ba9dd-ad7b-43d9-b998-342a28333adf","ios":"levelo://app?vid=a36ba9dd-ad7b-43d9-b998-342a28333adf"},"vehicle_type_id":"4","last_reported":1698712408,"current_range_meters":9600,"station_id":"ce4bh4p2rcd13ifvqe0g","pricing_plan_id":"free"},{"bike_id":"c75a7b91-68cc-49b1-ac47-8fa17645cac3","system_id":"levelo_inurba_marseille","lat":43.29029,"lon":5.38647,"is_reserved":false,"is_disabled":false,"rental_uris":{"android":"levelo://app?vid=c75a7b91-68cc-49b1-ac47-8fa17645cac3","ios":"levelo://app?vid=c75a7b91-68cc-49b1-ac47-8fa17645cac3"},"vehicle_type_id":"4","last_reported":1698712408,"current_range_meters":31200,"station_id":"ce4bh4p2rcd13ifvqe0g","pricing_plan_id":"free"},{"bike_id":"11c67543-fade-409c-a8ca-5b80c74dedd7","system_id":"levelo_inurba_marseille","lat":43.289307,"lon":5.38406,"is_reserved":false,"is_disabled":false,"rental_uris":{"android":"levelo://app?vid=11c67543-fade-409c-a8ca-5b80c74dedd7","ios":"levelo://app?vid=11c67543-fade-409c-a8ca-5b80c74dedd7"},"vehicle_type_id":"4","last_reported":1698712408,"current_range_meters":31200,"station_id":"ce4bh612rcd13ifvqe6g","pricing_plan_id":"free"},{"bike_id":"06b7e4d9-740e-4bf0-93f4-fbe99fb89ee4","system_id":"levelo_inurba_marseille","lat":43.287184,"lon":5.37937,"is_reserved":false,"is_disabled":false,"rental_uris":{"android":"levelo://app?vid=06b7e4d9-740e-4bf0-93f4-fbe99fb89ee4","ios":"levelo://app?vid=06b7e4d9-740e-4bf0-93f4-fbe99fb89ee4"},"vehicle_type_id":"4","last_reported":1698712408,"current_range_meters":20000,"station_id":"ce4bh9p2rcd13ifvqec0","pricing_plan_id":"free"},{"bike_id":"3c466167-4f84-4cf7-9161-68e30b8c10ce","system_id":"levelo_inurba_marseille","lat":43.31641,"lon":5.40437,"is_reserved":false,"is_disabled":false,"rental_uris":{"android":"levelo://app?vid=3c466167-4f84-4cf7-9161-68e30b8c10ce","ios":"levelo://app?vid=3c466167-4f84-4cf7-9161-68e30b8c10ce"},"vehicle_type_id":"4","last_reported":1698712408,"current_range_meters":19200,"station_id":"ce4bh012rcd13ifvqd00","pricing_plan_id":"free"},{"bike_id":"d0a91734-443d-4393-b578-192848417db0","system_id":"levelo_inurba_marseille","lat":43.31652,"lon":5.40436,"is_reserved":false,"is_disabled":false,"rental_uris":{"android":"levelo://app?vid=d0a91734-443d-4393-b578-192848417db0","ios":"levelo://app?vid=d0a91734-443d-4393-b578-192848417db0"},"vehicle_type_id":"4","last_reported":1698712408,"current_range_meters":3200,"station_id":"ce4bh012rcd13ifvqd00","pricing_plan_id":"free"},{"bike_id":"d108e245-9fad-40ef-8f96-bfa4be5848f1","system_id":"levelo_inurba_marseille","lat":43.292033,"lon":5.393197,"is_reserved":false,"is_disabled":false,"rental_uris":{"android":"levelo://app?vid=d108e245-9fad-40ef-8f96-bfa4be5848f1","ios":"levelo://app?vid=d108e245-9fad-40ef-8f96-bfa4be5848f1"},"vehicle_type_id":"4","last_reported":1698712408,"current_range_meters":28800,"station_id":"ce4bh192rcd13ifvqdd0","pricing_plan_id":"free"},{"bike_id":"7f5799d2-5779-4e7d-81a6-dee2fb3e9b25","system_id":"levelo_inurba_marseille","lat":43.291994,"lon":5.392907,"is_reserved":false,"is_disabled":false,"rental_uris":{"android":"levelo://app?vid=7f5799d2-5779-4e7d-81a6-dee2fb3e9b25","ios":"levelo://app?vid=7f5799d2-5779-4e7d-81a6-dee2fb3e9b25"},"vehicle_type_id":"4","last_reported":1698712408,"current_range_meters":28800,"station_id":"ce4bh192rcd13ifvqdd0","pricing_plan_id":"free"},{"bike_id":"178ce738-286e-4bb9-9f09-3590a0ed57a4","system_id":"levelo_inurba_marseille","lat":43.291933,"lon":5.393266,"is_reserved":false,"is_disabled":false,"rental_uris":{"android":"levelo://app?vid=178ce738-286e-4bb9-9f09-3590a0ed57a4","ios":"levelo://app?vid=178ce738-286e-4bb9-9f09-3590a0ed57a4"},"vehicle_type_id":"4","last_reported":1698712408,"current_range_meters":0,"station_id":"ce4bh192rcd13ifvqdd0","pricing_plan_id":"free"},{"bike_id":"a3511994-68c4-4705-b95e-7bafec936763","system_id":"levelo_inurba_marseille","lat":43.291994,"lon":5.392907,"is_reserved":false,"is_disabled":false,"rental_uris":{"android":"levelo://app?vid=a3511994-68c4-4705-b95e-7bafec936763","ios":"levelo://app?vid=a3511994-68c4-4705-b95e-7bafec936763"},"vehicle_type_id":"4","last_reported":1698712408,"current_range_meters":31200,"station_id":"ce4bh192rcd13ifvqdd0","pricing_plan_id":"free"},{"bike_id":"0859fc8c-b3c9-4873-ab0a-427045fbb22c","system_id":"levelo_inurba_marseille","lat":43.284534,"lon":5.358662,"is_reserved":false,"is_disabled":false,"rental_uris":{"android":"levelo://app?vid=0859fc8c-b3c9-4873-ab0a-427045fbb22c","ios":"levelo://app?vid=0859fc8c-b3c9-4873-ab0a-427045fbb22c"},"vehicle_type_id":"4","last_reported":1698712408,"current_range_meters":31200,"station_id":"ce4bhah2rcd13ifvqei0","pricing_plan_id":"free"},{"bike_id":"124aa9d3-a4a4-4698-930d-d62e8f77d6bb","system_id":"levelo_inurba_marseille","lat":43.284534,"lon":5.358662,"is_reserved":false,"is_disabled":false,"rental_uris":{"android":"levelo://app?vid=124aa9d3-a4a4-4698-930d-d62e8f77d6bb","ios":"levelo://app?vid=124aa9d3-a4a4-4698-930d-d62e8f77d6bb"},"vehicle_type_id":"4","last_reported":1698712408,"current_range_meters":30800,"station_id":"ce4bhah2rcd13ifvqei0","pricing_plan_id":"free"},{"bike_id":"70f3de42-8024-40c7-a205-61e2a2c60053","system_id":"levelo_inurba_marseille","lat":43.284534,"lon":5.358662,"is_reserved":false,"is_disabled":false,"rental_uris":{"android":"levelo://app?vid=70f3de42-8024-40c7-a205-61e2a2c60053","ios":"levelo://app?vid=70f3de42-8024-40c7-a205-61e2a2c60053"},"vehicle_type_id":"4","last_reported":1698712408,"current_range_meters":26000,"station_id":"ce4bhah2rcd13ifvqei0","pricing_plan_id":"free"},{"bike_id":"befc823a-0dab-4f04-b977-5a8976f6d991","system_id":"levelo_inurba_marseille","lat":43.284534,"lon":5.358662,"is_reserved":false,"is_disabled":false,"rental_uris":{"android":"levelo://app?vid=befc823a-0dab-4f04-b977-5a8976f6d991","ios":"levelo://app?vid=befc823a-0dab-4f04-b977-5a8976f6d991"},"vehicle_type_id":"4","last_reported":1698712408,"current_range_meters":21200,"station_id":"ce4bhah2rcd13ifvqei0","pricing_plan_id":"free"},{"bike_id":"0e0aa2b1-a70c-4762-9908-b3c4a594cb18","system_id":"levelo_inurba_marseille","lat":43.284609,"lon":5.358939,"is_reserved":false,"is_disabled":false,"rental_uris":{"android":"levelo://app?vid=0e0aa2b1-a70c-4762-9908-b3c4a594cb18","ios":"levelo://app?vid=0e0aa2b1-a70c-4762-9908-b3c4a594cb18"},"vehicle_type_id":"4","last_reported":1698712408,"current_range_meters":12400,"station_id":"ce4bhah2rcd13ifvqei0","pricing_plan_id":"free"},{"bike_id":"d1d33dad-7070-4a01-89a4-7aaed8e14482","system_id":"levelo_inurba_marseille","lat":43.284534,"lon":5.358662,"is_reserved":false,"is_disabled":false,"rental_uris":{"android":"levelo://app?vid=d1d33dad-7070-4a01-89a4-7aaed8e14482","ios":"levelo://app?vid=d1d33dad-7070-4a01-89a4-7aaed8e14482"},"vehicle_type_id":"4","last_reported":1698712408,"current_range_meters":29200,"station_id":"ce4bhah2rcd13ifvqei0","pricing_plan_id":"free"},{"bike_id":"5eded460-ce65-4f50-9a94-481f3e64aed0","system_id":"levelo_inurba_marseille","lat":43.284578,"lon":5.358923,"is_reserved":false,"is_disabled":false,"rental_uris":{"android":"levelo://app?vid=5eded460-ce65-4f50-9a94-481f3e64aed0","ios":"levelo://app?vid=5eded460-ce65-4f50-9a94-481f3e64aed0"},"vehicle_type_id":"4","last_reported":1698712408,"current_range_meters":14800,"station_id":"ce4bhah2rcd13ifvqei0","pricing_plan_id":"free"},{"bike_id":"e718df89-2b7f-434a-9d05-be9879408085","system_id":"levelo_inurba_marseille","lat":43.284534,"lon":5.358662,"is_reserved":false,"is_disabled":false,"rental_uris":{"android":"levelo://app?vid=e718df89-2b7f-434a-9d05-be9879408085","ios":"levelo://app?vid=e718df89-2b7f-434a-9d05-be9879408085"},"vehicle_type_id":"4","last_reported":1698712408,"current_range_meters":31200,"station_id":"ce4bhah2rcd13ifvqei0","pricing_plan_id":"free"},{"bike_id":"4fcc6ecd-2b85-4ec2-84b5-afed81b310ba","system_id":"levelo_inurba_marseille","lat":43.284534,"lon":5.358662,"is_reserved":false,"is_disabled":false,"rental_uris":{"android":"levelo://app?vid=4fcc6ecd-2b85-4ec2-84b5-afed81b310ba","ios":"levelo://app?vid=4fcc6ecd-2b85-4ec2-84b5-afed81b310ba"},"vehicle_type_id":"4","last_reported":1698712408,"current_range_meters":31200,"station_id":"ce4bhah2rcd13ifvqei0","pricing_plan_id":"free"},{"bike_id":"5d3d3eab-e717-4672-aabf-d20a8c27934e","system_id":"levelo_inurba_marseille","lat":43.294314,"lon":5.397498,"is_reserved":false,"is_disabled":false,"rental_uris":{"android":"levelo://app?vid=5d3d3eab-e717-4672-aabf-d20a8c27934e","ios":"levelo://app?vid=5d3d3eab-e717-4672-aabf-d20a8c27934e"},"vehicle_type_id":"4","last_reported":1698712408,"current_range_meters":30000,"station_id":"ce4bh3h2rcd13ifvqdo0","pricing_plan_id":"free"},{"bike_id":"8b106b54-299a-4db9-aec2-e64e0b7c61bf","system_id":"levelo_inurba_marseille","lat":43.284534,"lon":5.358662,"is_reserved":false,"is_disabled":false,"rental_uris":{"android":"levelo://app?vid=8b106b54-299a-4db9-aec2-e64e0b7c61bf","ios":"levelo://app?vid=8b106b54-299a-4db9-aec2-e64e0b7c61bf"},"vehicle_type_id":"4","last_reported":1698712408,"current_range_meters":28800,"station_id":"ce4bhah2rcd13ifvqei0","pricing_plan_id":"free"},{"bike_id":"da432c07-983b-42d2-b980-5d2664e5cccd","system_id":"levelo_inurba_marseille","lat":43.28458,"lon":5.35875,"is_reserved":false,"is_disabled":false,"rental_uris":{"android":"levelo://app?vid=da432c07-983b-42d2-b980-5d2664e5cccd","ios":"levelo://app?vid=da432c07-983b-42d2-b980-5d2664e5cccd"},"vehicle_type_id":"4","last_reported":1698712408,"current_range_meters":26400,"station_id":"ce4bhah2rcd13ifvqei0","pricing_plan_id":"free"},{"bike_id":"7e228510-488a-4455-ae29-c48d1e253c03","system_id":"levelo_inurba_marseille","lat":43.284534,"lon":5.358662,"is_reserved":false,"is_disabled":false,"rental_uris":{"android":"levelo://app?vid=7e228510-488a-4455-ae29-c48d1e253c03","ios":"levelo://app?vid=7e228510-488a-4455-ae29-c48d1e253c03"},"vehicle_type_id":"4","last_reported":1698712408,"current_range_meters":8400,"station_id":"ce4bhah2rcd13ifvqei0","pricing_plan_id":"free"},{"bike_id":"06735c8f-9523-4cb9-8233-49e337c15d44","system_id":"levelo_inurba_marseille","lat":43.28457,"lon":5.35876,"is_reserved":false,"is_disabled":false,"rental_uris":{"android":"levelo://app?vid=06735c8f-9523-4cb9-8233-49e337c15d44","ios":"levelo://app?vid=06735c8f-9523-4cb9-8233-49e337c15d44"},"vehicle_type_id":"4","last_reported":1698712408,"current_range_meters":31200,"station_id":"ce4bhah2rcd13ifvqei0","pricing_plan_id":"free"},{"bike_id":"275e0af3-9b89-40df-bbcd-119e34373350","system_id":"levelo_inurba_marseille","lat":43.28455,"lon":5.35884,"is_reserved":false,"is_disabled":false,"rental_uris":{"android":"levelo://app?vid=275e0af3-9b89-40df-bbcd-119e34373350","ios":"levelo://app?vid=275e0af3-9b89-40df-bbcd-119e34373350"},"vehicle_type_id":"4","last_reported":1698712408,"current_range_meters":25200,"station_id":"ce4bhah2rcd13ifvqei0","pricing_plan_id":"free"},{"bike_id":"0efad326-c186-4e10-bd00-44376f32a168","system_id":"levelo_inurba_marseille","lat":43.284534,"lon":5.358662,"is_reserved":false,"is_disabled":false,"rental_uris":{"android":"levelo://app?vid=0efad326-c186-4e10-bd00-44376f32a168","ios":"levelo://app?vid=0efad326-c186-4e10-bd00-44376f32a168"},"vehicle_type_id":"4","last_reported":1698712408,"current_range_meters":30800,"station_id":"ce4bhah2rcd13ifvqei0","pricing_plan_id":"free"},{"bike_id":"6d1c1622-7c9e-45c4-a317-293a1276ae3c","system_id":"levelo_inurba_marseille","lat":43.28452,"lon":5.35878,"is_reserved":false,"is_disabled":false,"rental_uris":{"android":"levelo://app?vid=6d1c1622-7c9e-45c4-a317-293a1276ae3c","ios":"levelo://app?vid=6d1c1622-7c9e-45c4-a317-293a1276ae3c"},"vehicle_type_id":"4","last_reported":1698712408,"current_range_meters":25200,"station_id":"ce4bhah2rcd13ifvqei0","pricing_plan_id":"free"},{"bike_id":"82e6ee5f-87ff-4fb4-820d-244ba46b5a0b","system_id":"levelo_inurba_marseille","lat":43.285856,"lon":5.350771,"is_reserved":false,"is_disabled":false,"rental_uris":{"android":"levelo://app?vid=82e6ee5f-87ff-4fb4-820d-244ba46b5a0b","ios":"levelo://app?vid=82e6ee5f-87ff-4fb4-820d-244ba46b5a0b"},"vehicle_type_id":"4","last_reported":1698712408,"current_range_meters":14000,"station_id":"ce4bhch2rcd13ifvqeug","pricing_plan_id":"free"},{"bike_id":"e70fbee5-082b-4012-964d-d0e8e5bfe7f0","system_id":"levelo_inurba_marseille","lat":43.28614,"lon":5.35099,"is_reserved":false,"is_disabled":false,"rental_uris":{"android":"levelo://app?vid=e70fbee5-082b-4012-964d-d0e8e5bfe7f0","ios":"levelo://app?vid=e70fbee5-082b-4012-964d-d0e8e5bfe7f0"},"vehicle_type_id":"4","last_reported":1698712408,"current_range_meters":4400,"station_id":"ce4bhch2rcd13ifvqeug","pricing_plan_id":"free"},{"bike_id":"6993bb6d-884d-4d17-b572-bc14f19c60f1","system_id":"levelo_inurba_marseille","lat":43.283998,"lon":5.375062,"is_reserved":false,"is_disabled":false,"rental_uris":{"android":"levelo://app?vid=6993bb6d-884d-4d17-b572-bc14f19c60f1","ios":"levelo://app?vid=6993bb6d-884d-4d17-b572-bc14f19c60f1"},"vehicle_type_id":"4","last_reported":1698712408,"current_range_meters":23200,"station_id":"ce4bh412rcd13ifvqds0","pricing_plan_id":"free"},{"bike_id":"91f10432-124c-438b-8221-38f9e2fd0625","system_id":"levelo_inurba_marseille","lat":43.283998,"lon":5.375062,"is_reserved":false,"is_disabled":false,"rental_uris":{"android":"levelo://app?vid=91f10432-124c-438b-8221-38f9e2fd0625","ios":"levelo://app?vid=91f10432-124c-438b-8221-38f9e2fd0625"},"vehicle_type_id":"4","last_reported":1698712408,"current_range_meters":21600,"station_id":"ce4bh412rcd13ifvqds0","pricing_plan_id":"free"},{"bike_id":"e5a0864a-f440-4c8f-aae0-31f92bc04fd5","system_id":"levelo_inurba_marseille","lat":43.28413,"lon":5.37514,"is_reserved":false,"is_disabled":false,"rental_uris":{"android":"levelo://app?vid=e5a0864a-f440-4c8f-aae0-31f92bc04fd5","ios":"levelo://app?vid=e5a0864a-f440-4c8f-aae0-31f92bc04fd5"},"vehicle_type_id":"4","last_reported":1698712408,"current_range_meters":8000,"station_id":"ce4bh412rcd13ifvqds0","pricing_plan_id":"free"},{"bike_id":"37771ebe-3c9d-4563-b2f5-e0d43df481c8","system_id":"levelo_inurba_marseille","lat":43.283998,"lon":5.375062,"is_reserved":false,"is_disabled":false,"rental_uris":{"android":"levelo://app?vid=37771ebe-3c9d-4563-b2f5-e0d43df481c8","ios":"levelo://app?vid=37771ebe-3c9d-4563-b2f5-e0d43df481c8"},"vehicle_type_id":"4","last_reported":1698712408,"current_range_meters":18800,"station_id":"ce4bh412rcd13ifvqds0","pricing_plan_id":"free"},{"bike_id":"ff0a19da-d349-4150-88b1-721a5b75cff5","system_id":"levelo_inurba_marseille","lat":43.283998,"lon":5.375062,"is_reserved":false,"is_disabled":false,"rental_uris":{"android":"levelo://app?vid=ff0a19da-d349-4150-88b1-721a5b75cff5","ios":"levelo://app?vid=ff0a19da-d349-4150-88b1-721a5b75cff5"},"vehicle_type_id":"4","last_reported":1698712408,"current_range_meters":18000,"station_id":"ce4bh412rcd13ifvqds0","pricing_plan_id":"free"},{"bike_id":"b92c4f34-e29f-48b9-a318-b95ac6862592","system_id":"levelo_inurba_marseille","lat":43.28409,"lon":5.37518,"is_reserved":false,"is_disabled":false,"rental_uris":{"android":"levelo://app?vid=b92c4f34-e29f-48b9-a318-b95ac6862592","ios":"levelo://app?vid=b92c4f34-e29f-48b9-a318-b95ac6862592"},"vehicle_type_id":"4","last_reported":1698712408,"current_range_meters":18400,"station_id":"ce4bh412rcd13ifvqds0","pricing_plan_id":"free"},{"bike_id":"2255c7f2-b2a1-4bc2-b2df-40d4d40e2aff","system_id":"levelo_inurba_marseille","lat":43.283998,"lon":5.375062,"is_reserved":false,"is_disabled":false,"rental_uris":{"android":"levelo://app?vid=2255c7f2-b2a1-4bc2-b2df-40d4d40e2aff","ios":"levelo://app?vid=2255c7f2-b2a1-4bc2-b2df-40d4d40e2aff"},"vehicle_type_id":"4","last_reported":1698712408,"current_range_meters":30400,"station_id":"ce4bh412rcd13ifvqds0","pricing_plan_id":"free"},{"bike_id":"53cd843c-ab13-4d23-8756-7174a8d650e3","system_id":"levelo_inurba_marseille","lat":43.295713,"lon":5.399639,"is_reserved":false,"is_disabled":false,"rental_uris":{"android":"levelo://app?vid=53cd843c-ab13-4d23-8756-7174a8d650e3","ios":"levelo://app?vid=53cd843c-ab13-4d23-8756-7174a8d650e3"},"vehicle_type_id":"4","last_reported":1698712408,"current_range_meters":28000,"station_id":"ce4bh312rcd13ifvqdj0","pricing_plan_id":"free"},{"bike_id":"11b16ed3-288b-4f4f-9536-15f40a531e1e","system_id":"levelo_inurba_marseille","lat":43.295713,"lon":5.399639,"is_reserved":false,"is_disabled":false,"rental_uris":{"android":"levelo://app?vid=11b16ed3-288b-4f4f-9536-15f40a531e1e","ios":"levelo://app?vid=11b16ed3-288b-4f4f-9536-15f40a531e1e"},"vehicle_type_id":"4","last_reported":1698712408,"current_range_meters":30000,"station_id":"ce4bh312rcd13ifvqdj0","pricing_plan_id":"free"},{"bike_id":"ca502a18-ef73-467a-9cb3-09b9ac201324","system_id":"levelo_inurba_marseille","lat":43.32966,"lon":5.399911,"is_reserved":false,"is_disabled":false,"rental_uris":{"android":"levelo://app?vid=ca502a18-ef73-467a-9cb3-09b9ac201324","ios":"levelo://app?vid=ca502a18-ef73-467a-9cb3-09b9ac201324"},"vehicle_type_id":"4","last_reported":1698712408,"current_range_meters":14800,"station_id":"","pricing_plan_id":"free"},{"bike_id":"a88221e4-b07a-4bf1-b517-cfac7de9c8b8","system_id":"levelo_inurba_marseille","lat":43.33277,"lon":5.39648,"is_reserved":false,"is_disabled":false,"rental_uris":{"android":"levelo://app?vid=a88221e4-b07a-4bf1-b517-cfac7de9c8b8","ios":"levelo://app?vid=a88221e4-b07a-4bf1-b517-cfac7de9c8b8"},"vehicle_type_id":"4","last_reported":1698712408,"current_range_meters":20400,"station_id":"","pricing_plan_id":"free"},{"bike_id":"1ab591f7-87c8-4054-b554-e02fed8356b7","system_id":"levelo_inurba_marseille","lat":43.319179,"lon":5.407725,"is_reserved":false,"is_disabled":false,"rental_uris":{"android":"levelo://app?vid=1ab591f7-87c8-4054-b554-e02fed8356b7","ios":"levelo://app?vid=1ab591f7-87c8-4054-b554-e02fed8356b7"},"vehicle_type_id":"4","last_reported":1698712408,"current_range_meters":20400,"station_id":"ce4bhq12rcd13ifvqhig","pricing_plan_id":"free"},{"bike_id":"59ad992a-2242-4333-bcbb-14c5a61abb4f","system_id":"levelo_inurba_marseille","lat":43.319179,"lon":5.407725,"is_reserved":false,"is_disabled":false,"rental_uris":{"android":"levelo://app?vid=59ad992a-2242-4333-bcbb-14c5a61abb4f","ios":"levelo://app?vid=59ad992a-2242-4333-bcbb-14c5a61abb4f"},"vehicle_type_id":"4","last_reported":1698712408,"current_range_meters":0,"station_id":"ce4bhq12rcd13ifvqhig","pricing_plan_id":"free"},{"bike_id":"e145edb2-be75-41cd-9d1a-a8eb7178312c","system_id":"levelo_inurba_marseille","lat":43.319179,"lon":5.407725,"is_reserved":false,"is_disabled":false,"rental_uris":{"android":"levelo://app?vid=e145edb2-be75-41cd-9d1a-a8eb7178312c","ios":"levelo://app?vid=e145edb2-be75-41cd-9d1a-a8eb7178312c"},"vehicle_type_id":"4","last_reported":1698712408,"current_range_meters":17200,"station_id":"ce4bhq12rcd13ifvqhig","pricing_plan_id":"free"},{"bike_id":"f805bd9a-39d1-4a28-9435-f4000879feba","system_id":"levelo_inurba_marseille","lat":43.33717,"lon":5.391857,"is_reserved":false,"is_disabled":false,"rental_uris":{"android":"levelo://app?vid=f805bd9a-39d1-4a28-9435-f4000879feba","ios":"levelo://app?vid=f805bd9a-39d1-4a28-9435-f4000879feba"},"vehicle_type_id":"4","last_reported":1698712408,"current_range_meters":30000,"station_id":"ce4bhr92rcd13ifvqhsg","pricing_plan_id":"free"},{"bike_id":"dee60840-3a51-43fa-9f4b-75ee88b36672","system_id":"levelo_inurba_marseille","lat":43.323464,"lon":5.406297,"is_reserved":false,"is_disabled":false,"rental_uris":{"android":"levelo://app?vid=dee60840-3a51-43fa-9f4b-75ee88b36672","ios":"levelo://app?vid=dee60840-3a51-43fa-9f4b-75ee88b36672"},"vehicle_type_id":"4","last_reported":1698712408,"current_range_meters":31200,"station_id":"ce4bhq92rcd13ifvqhjg","pricing_plan_id":"free"},{"bike_id":"b7d4af58-6dda-455a-82ec-d9026e43abcd","system_id":"levelo_inurba_marseille","lat":43.323464,"lon":5.406297,"is_reserved":false,"is_disabled":false,"rental_uris":{"android":"levelo://app?vid=b7d4af58-6dda-455a-82ec-d9026e43abcd","ios":"levelo://app?vid=b7d4af58-6dda-455a-82ec-d9026e43abcd"},"vehicle_type_id":"4","last_reported":1698712408,"current_range_meters":31200,"station_id":"ce4bhq92rcd13ifvqhjg","pricing_plan_id":"free"},{"bike_id":"1a8a2e6c-6576-4ad7-a05f-93f99de0a8db","system_id":"levelo_inurba_marseille","lat":43.337168,"lon":5.391825,"is_reserved":false,"is_disabled":false,"rental_uris":{"android":"levelo://app?vid=1a8a2e6c-6576-4ad7-a05f-93f99de0a8db","ios":"levelo://app?vid=1a8a2e6c-6576-4ad7-a05f-93f99de0a8db"},"vehicle_type_id":"4","last_reported":1698712408,"current_range_meters":30400,"station_id":"ce4bhr92rcd13ifvqhsg","pricing_plan_id":"free"},{"bike_id":"fceb2f5a-6aa3-462f-83db-0b9253193b47","system_id":"levelo_inurba_marseille","lat":43.323464,"lon":5.406297,"is_reserved":false,"is_disabled":false,"rental_uris":{"android":"levelo://app?vid=fceb2f5a-6aa3-462f-83db-0b9253193b47","ios":"levelo://app?vid=fceb2f5a-6aa3-462f-83db-0b9253193b47"},"vehicle_type_id":"4","last_reported":1698712408,"current_range_meters":30000,"station_id":"ce4bhq92rcd13ifvqhjg","pricing_plan_id":"free"},{"bike_id":"e73a9d8f-e8e7-4814-a363-11ac88c34d85","system_id":"levelo_inurba_marseille","lat":43.284787,"lon":5.384116,"is_reserved":false,"is_disabled":false,"rental_uris":{"android":"levelo://app?vid=e73a9d8f-e8e7-4814-a363-11ac88c34d85","ios":"levelo://app?vid=e73a9d8f-e8e7-4814-a363-11ac88c34d85"},"vehicle_type_id":"4","last_reported":1698712408,"current_range_meters":16800,"station_id":"ce4bh512rcd13ifvqe3g","pricing_plan_id":"free"},{"bike_id":"c5af369d-bd2b-40fb-9951-c424b52f1677","system_id":"levelo_inurba_marseille","lat":43.297946,"lon":5.404063,"is_reserved":false,"is_disabled":false,"rental_uris":{"android":"levelo://app?vid=c5af369d-bd2b-40fb-9951-c424b52f1677","ios":"levelo://app?vid=c5af369d-bd2b-40fb-9951-c424b52f1677"},"vehicle_type_id":"4","last_reported":1698712408,"current_range_meters":20400,"station_id":"ce4bh112rcd13ifvqd90","pricing_plan_id":"free"},{"bike_id":"6ad89886-05ac-471c-9a3e-14de33f861c6","system_id":"levelo_inurba_marseille","lat":43.297946,"lon":5.404063,"is_reserved":false,"is_disabled":false,"rental_uris":{"android":"levelo://app?vid=6ad89886-05ac-471c-9a3e-14de33f861c6","ios":"levelo://app?vid=6ad89886-05ac-471c-9a3e-14de33f861c6"},"vehicle_type_id":"4","last_reported":1698712408,"current_range_meters":17600,"station_id":"ce4bh112rcd13ifvqd90","pricing_plan_id":"free"},{"bike_id":"2f666bbb-190f-4291-ade2-95e2c0cfd815","system_id":"levelo_inurba_marseille","lat":43.325281,"lon":5.405683,"is_reserved":false,"is_disabled":false,"rental_uris":{"android":"levelo://app?vid=2f666bbb-190f-4291-ade2-95e2c0cfd815","ios":"levelo://app?vid=2f666bbb-190f-4291-ade2-95e2c0cfd815"},"vehicle_type_id":"4","last_reported":1698712408,"current_range_meters":8400,"station_id":"","pricing_plan_id":"free"},{"bike_id":"5e21b8d7-861f-4ca4-b688-ad06b650a072","system_id":"levelo_inurba_marseille","lat":43.283498,"lon":5.380948,"is_reserved":false,"is_disabled":false,"rental_uris":{"android":"levelo://app?vid=5e21b8d7-861f-4ca4-b688-ad06b650a072","ios":"levelo://app?vid=5e21b8d7-861f-4ca4-b688-ad06b650a072"},"vehicle_type_id":"4","last_reported":1698712408,"current_range_meters":31200,"station_id":"ce4bh412rcd13ifvqdr0","pricing_plan_id":"free"},{"bike_id":"1eca5e61-29fb-47d8-a63e-be161144dc66","system_id":"levelo_inurba_marseille","lat":43.283494,"lon":5.380945,"is_reserved":false,"is_disabled":false,"rental_uris":{"android":"levelo://app?vid=1eca5e61-29fb-47d8-a63e-be161144dc66","ios":"levelo://app?vid=1eca5e61-29fb-47d8-a63e-be161144dc66"},"vehicle_type_id":"4","last_reported":1698712408,"current_range_meters":23200,"station_id":"ce4bh412rcd13ifvqdr0","pricing_plan_id":"free"},{"bike_id":"d03e290a-1d73-48a0-83b4-44b7f36cbb6e","system_id":"levelo_inurba_marseille","lat":43.284125,"lon":5.34987,"is_reserved":false,"is_disabled":false,"rental_uris":{"android":"levelo://app?vid=d03e290a-1d73-48a0-83b4-44b7f36cbb6e","ios":"levelo://app?vid=d03e290a-1d73-48a0-83b4-44b7f36cbb6e"},"vehicle_type_id":"4","last_reported":1698712408,"current_range_meters":28400,"station_id":"ce4bhbh2rcd13ifvqepg","pricing_plan_id":"free"},{"bike_id":"590d840d-2ace-4ea0-84d0-4640e48f8afe","system_id":"levelo_inurba_marseille","lat":43.29275,"lon":5.40109,"is_reserved":false,"is_disabled":false,"rental_uris":{"android":"levelo://app?vid=590d840d-2ace-4ea0-84d0-4640e48f8afe","ios":"levelo://app?vid=590d840d-2ace-4ea0-84d0-4640e48f8afe"},"vehicle_type_id":"4","last_reported":1698712408,"current_range_meters":19600,"station_id":"ce4bh312rcd13ifvqdk0","pricing_plan_id":"free"},