{"last_updated":1704308735,"ttl":30,"version":"2.2","data":{"bikes":[{"bike_id":"789cb21a-28a0-4507-882c-95a7b55a8b8f","system_id":"levelo_inurba_marseille","lat":43.312239,"lon":5.368562,"is_reserved":false,"is_disabled":false,"rental_uris":{"android":"levelo://app?vid=789cb21a-28a0-4507-882c-95a7b55a8b8f","ios":"levelo://app?vid=789cb21a-28a0-4507-882c-95a7b55a8b8f"},"vehicle_type_id":"4","last_reported":1704308735,"current_range_meters":15600,"station_id":"ce4bgl92rcd13ifvqbq0","pricing_plan_id":"free"},{"bike_id":"730d1160-642a-4735-aeaa-50a5925460fe","system_id":"levelo_inurba_marseille","lat":43.312239,"lon":5.368562,"is_reserved":false,"is_disabled":false,"rental_uris":{"android":"levelo://app?vid=730d1160-642a-4735-aeaa-50a5925460fe","ios":"levelo://app?vid=730d1160-642a-4735-aeaa-50a5925460fe"},"vehicle_type_id":"4","last_reported":1704308735,"current_range_meters":15600,"station_id":"ce4bgl92rcd13ifvqbq0","pricing_plan_id":"free"},{"bike_id":"472d7880-631c-48bd-938a-a55af25db655","system_id":"levelo_inurba_marseille","lat":43.312239,"lon":5.368562,"is_reserved":false,"is_disabled":false,"rental_uris":{"android":"levelo://app?vid=472d7880-631c-48bd-938a-a55af25db655","ios":"levelo://app?vid=472d7880-631c-48bd-938a-a55af25db655"},"vehicle_type_id":"4","last_reported":1704308735,"current_range_meters":15200,"station_id":"ce4bgl92rcd13ifvqbq0","pricing_plan_id":"free"},{"bike_id":"ef56b1e2-9c80-4bbc-be94-435c74c3d194","system_id":"levelo_inurba_marseille","lat":43.312239,"lon":5.368562,"is_reserved":false,"is_disabled":false,"rental_uris":{"android":"levelo://app?vid=ef56b1e2-9c80-4bbc-be94-435c74c3d194","ios":"levelo://app?vid=ef56b1e2-9c80-4bbc-be94-435c74c3d194"},"vehicle_type_id":"4","last_reported":1704308735,"current_range_meters":13600,"station_id":"ce4bgl92rcd13ifvqbq0","pricing_plan_id":"free"},{"bike_id":"0179919a-9242-4e29-b03b-70d1d532b086","system_id":"levelo_inurba_marseille","lat":43.312239,"lon":5.368562,"is_reserved":false,"is_disabled":false,"rental_uris":{"android":"levelo://app?vid=0179919a-9242-4e29-b03b-70d1d532b086","ios":"levelo://app?vid=0179919a-9242-4e29-b03b-70d1d532b086"},"vehicle_type_id":"4","last_reported":1704308735,"current_range_meters":17600,"station_id":"ce4bgl92rcd13ifvqbq0","pricing_plan_id":"free"},{"bike_id":"a5ec7141-2000-4cfd-8482-141a614f274d","system_id":"levelo_inurba_marseille","lat":43.312239,"lon":5.368562,"is_reserved":false,"is_disabled":false,"rental_uris":{"android":"levelo://app?vid=a5ec7141-2000-4cfd-8482-141a614f274d","ios":"levelo://app?vid=a5ec7141-2000-4cfd-8482-141a614f274d"},"vehicle_type_id":"4","last_reported":1704308735,"current_range_meters":15200,"station_id":"ce4bgl92rcd13ifvqbq0","pricing_plan_id":"free"},{"bike_id":"1766f07d-a303-4d12-9a43-d495ad4da547","system_id":"levelo_inurba_marseille","lat":43.30904,"lon":5.36854,"is_reserved":false,"is_disabled":false,"rental_uris":{"android":"levelo://app?vid=1766f07d-a303-4d12-9a43-d495ad4da547","ios":"levelo://app?vid=1766f07d-a303-4d12-9a43-d495ad4da547"},"vehicle_type_id":"4","last_reported":1704308735,"current_range_meters":6400,"station_id":"ce4bgn92rcd13ifvqbvg","pricing_plan_id":"free"},{"bike_id":"dd66ae8a-4933-4ea8-b3ba-65fdbee4bb3c","system_id":"levelo_inurba_marseille","lat":43.314811,"lon":5.373104,"is_reserved":false,"is_disabled":false,"rental_uris":{"android":"levelo://app?vid=dd66ae8a-4933-4ea8-b3ba-65fdbee4bb3c","ios":"levelo://app?vid=dd66ae8a-4933-4ea8-b3ba-65fdbee4bb3c"},"vehicle_type_id":"4","last_reported":1704308735,"current_range_meters":22400,"station_id":"ce4bgt12rcd13ifvqcd0","pricing_plan_id":"free"},{"bike_id":"194d9916-6530-4d99-a2ce-dbb7210258ec","system_id":"levelo_inurba_marseille","lat":43.314811,"lon":5.373103,"is_reserved":false,"is_disabled":false,"rental_uris":{"android":"levelo://app?vid=194d9916-6530-4d99-a2ce-dbb7210258ec","ios":"levelo://app?vid=194d9916-6530-4d99-a2ce-dbb7210258ec"},"vehicle_type_id":"4","last_reported":1704308735,"current_range_meters":400,"station_id":"ce4bgt12rcd13ifvqcd0","pricing_plan_id":"free"},{"bike_id":"f39af422-b66f-40df-905d-211a51d2db7d","system_id":"levelo_inurba_marseille","lat":43.314811,"lon":5.373104,"is_reserved":false,"is_disabled":false,"rental_uris":{"android":"levelo://app?vid=f39af422-b66f-40df-905d-211a51d2db7d","ios":"levelo://app?vid=f39af422-b66f-40df-905d-211a51d2db7d"},"vehicle_type_id":"4","last_reported":1704308735,"current_range_meters":16400,"station_id":"ce4bgt12rcd13ifvqcd0","pricing_plan_id":"free"},{"bike_id":"de2d62fc-c4ac-4f9d-addc-3c268404097a","system_id":"levelo_inurba_marseille","lat":43.30893,"lon":5.37189,"is_reserved":false,"is_disabled":false,"rental_uris":{"android":"levelo://app?vid=de2d62fc-c4ac-4f9d-addc-3c268404097a","ios":"levelo://app?vid=de2d62fc-c4ac-4f9d-addc-3c268404097a"},"vehicle_type_id":"4","last_reported":1704308735,"current_range_meters":4400,"station_id":"ce4bguh2rcd13ifvqckg","pricing_plan_id":"free"},{"bike_id":"c0665a06-46a2-44f0-b0ee-a6eacf959149","system_id":"levelo_inurba_marseille","lat":43.305989,"lon":5.37225,"is_reserved":false,"is_disabled":false,"rental_uris":{"android":"levelo://app?vid=c0665a06-46a2-44f0-b0ee-a6eacf959149","ios":"levelo://app?vid=c0665a06-46a2-44f0-b0ee-a6eacf959149"},"vehicle_type_id":"4","last_reported":1704308735,"current_range_meters":0,"station_id":"ce4bgqh2rcd13ifvqc4g","pricing_plan_id":"free"},{"bike_id":"ccc517b6-d8f6-4564-99c7-caac90d22c9d","system_id":"levelo_inurba_marseille","lat":43.30789,"lon":5.37648,"is_reserved":false,"is_disabled":false,"rental_uris":{"android":"levelo://app?vid=ccc517b6-d8f6-4564-99c7-caac90d22c9d","ios":"levelo://app?vid=ccc517b6-d8f6-4564-99c7-caac90d22c9d"},"vehicle_type_id":"4","last_reported":1704308735,"current_range_meters":16000,"station_id":"ce4bgv92rcd13ifvqcq0","pricing_plan_id":"free"},{"bike_id":"d090650c-84e6-4360-be73-3303b7a3535c","system_id":"levelo_inurba_marseille","lat":43.307945,"lon":5.376487,"is_reserved":false,"is_disabled":false,"rental_uris":{"android":"levelo://app?vid=d090650c-84e6-4360-be73-3303b7a3535c","ios":"levelo://app?vid=d090650c-84e6-4360-be73-3303b7a3535c"},"vehicle_type_id":"4","last_reported":1704308735,"current_range_meters":15200,"station_id":"ce4bgv92rcd13ifvqcq0","pricing_plan_id":"free"},{"bike_id":"93e39cdc-eeb7-4bbc-8bd1-abdcc5339080","system_id":"levelo_inurba_marseille","lat":43.317075,"lon":5.377367,"is_reserved":false,"is_disabled":false,"rental_uris":{"android":"levelo://app?vid=93e39cdc-eeb7-4bbc-8bd1-abdcc5339080","ios":"levelo://app?vid=93e39cdc-eeb7-4bbc-8bd1-abdcc5339080"},"vehicle_type_id":"4","last_reported":1704308735,"current_range_meters":30000,"station_id":"ce4bgth2rcd13ifvqch0","pricing_plan_id":"free"},{"bike_id":"c2775606-fc04-48a8-8700-1cc14f96a7e9","system_id":"levelo_inurba_marseille","lat":43.310636,"lon":5.378774,"is_reserved":false,"is_disabled":false,"rental_uris":{"android":"levelo://app?vid=c2775606-fc04-48a8-8700-1cc14f96a7e9","ios":"levelo://app?vid=c2775606-fc04-48a8-8700-1cc14f96a7e9"},"vehicle_type_id":"4","last_reported":1704308735,"current_range_meters":15600,"station_id":"","pricing_plan_id":"free"},{"bike_id":"c4e90871-bb94-4085-82dc-ccbd997a22ca","system_id":"levelo_inurba_marseille","lat":43.315211,"lon":5.379088,"is_reserved":false,"is_disabled":false,"rental_uris":{"android":"levelo://app?vid=c4e90871-bb94-4085-82dc-ccbd997a22ca","ios":"levelo://app?vid=c4e90871-bb94-4085-82dc-ccbd997a22ca"},"vehicle_type_id":"4","last_reported":1704308735,"current_range_meters":22000,"station_id":"","pricing_plan_id":"free"},{"bike_id":"4810d17d-15f2-4699-980f-89ebf8877f7a","system_id":"levelo_inurba_marseille","lat":43.31529,"lon":5.38025,"is_reserved":false,"is_disabled":false,"rental_uris":{"android":"levelo://app?vid=4810d17d-15f2-4699-980f-89ebf8877f7a","ios":"levelo://app?vid=4810d17d-15f2-4699-980f-89ebf8877f7a"},"vehicle_type_id":"4","last_reported":1704308735,"current_range_meters":29600,"station_id":"ce4bhsp2rcd13ifvqi50","pricing_plan_id":"free"},{"bike_id":"c444fea3-2153-424e-a0e2-ece099edd618","system_id":"levelo_inurba_marseille","lat":43.301939,"lon":5.366286,"is_reserved":false,"is_disabled":false,"rental_uris":{"android":"levelo://app?vid=c444fea3-2153-424e-a0e2-ece099edd618","ios":"levelo://app?vid=c444fea3-2153-424e-a0e2-ece099edd618"},"vehicle_type_id":"4","last_reported":1704308735,"current_range_meters":11600,"station_id":"ce4bgrh2rcd13ifvqc8g","pricing_plan_id":"free"},{"bike_id":"aba1f9f6-f696-42a1-b549-30b8ababd703","system_id":"levelo_inurba_marseille","lat":43.301939,"lon":5.366286,"is_reserved":false,"is_disabled":false,"rental_uris":{"android":"levelo://app?vid=aba1f9f6-f696-42a1-b549-30b8ababd703","ios":"levelo://app?vid=aba1f9f6-f696-42a1-b549-30b8ababd703"},"vehicle_type_id":"4","last_reported":1704308735,"current_range_meters":16400,"station_id":"ce4bgrh2rcd13ifvqc8g","pricing_plan_id":"free"},{"bike_id":"9781594a-d619-4d2c-b63f-b0cc77efc10b","system_id":"levelo_inurba_marseille","lat":43.308012,"lon":5.381511,"is_reserved":false,"is_disabled":false,"rental_uris":{"android":"levelo://app?vid=9781594a-d619-4d2c-b63f-b0cc77efc10b","ios":"levelo://app?vid=9781594a-d619-4d2c-b63f-b0cc77efc10b"},"vehicle_type_id":"4","last_reported":1704308735,"current_range_meters":22000,"station_id":"ce4bgt12rcd13ifvqce0","pricing_plan_id":"free"},{"bike_id":"580ba7d6-a6f0-4b2e-865e-c88ed06683a3","system_id":"levelo_inurba_marseille","lat":43.308012,"lon":5.381511,"is_reserved":false,"is_disabled":false,"rental_uris":{"android":"levelo://app?vid=580ba7d6-a6f0-4b2e-865e-c88ed06683a3","ios":"levelo://app?vid=580ba7d6-a6f0-4b2e-865e-c88ed06683a3"},"vehicle_type_id":"4","last_reported":1704308735,"current_range_meters":26400,"station_id":"ce4bgt12rcd13ifvqce0","pricing_plan_id":"free"},{"bike_id":"f3ba6b22-fe10-418e-bae3-9485fb9788f6","system_id":"levelo_inurba_marseille","lat":43.308012,"lon":5.381511,"is_reserved":false,"is_disabled":false,"rental_uris":{"android":"levelo://app?vid=f3ba6b22-fe10-418e-bae3-9485fb9788f6","ios":"levelo://app?vid=f3ba6b22-fe10-418e-bae3-9485fb9788f6"},"vehicle_type_id":"4","last_reported":1704308735,"current_range_meters":12000,"station_id":"ce4bgt12rcd13ifvqce0","pricing_plan_id":"free"},{"bike_id":"497346b1-0b4b-44c0-87b7-8193dd1aab8f","system_id":"levelo_inurba_marseille","lat":43.308012,"lon":5.381511,"is_reserved":false,"is_disabled":false,"rental_uris":{"android":"levelo://app?vid=497346b1-0b4b-44c0-87b7-8193dd1aab8f","ios":"levelo://app?vid=497346b1-0b4b-44c0-87b7-8193dd1aab8f"},"vehicle_type_id":"4","last_reported":1704308735,"current_range_meters":24400,"station_id":"ce4bgt12rcd13ifvqce0","pricing_plan_id":"free"},{"bike_id":"5377074b-30e2-4d67-825b-9deb3b1dbed3","system_id":"levelo_inurba_marseille","lat":43.304708,"lon":5.379039,"is_reserved":false,"is_disabled":false,"rental_uris":{"android":"levelo://app?vid=5377074b-30e2-4d67-825b-9deb3b1dbed3","ios":"levelo://app?vid=5377074b-30e2-4d67-825b-9deb3b1dbed3"},"vehicle_type_id":"4","last_reported":1704308735,"current_range_meters":6000,"station_id":"","pricing_plan_id":"free"},{"bike_id":"a4535830-2f3b-479e-a939-f97547203e35","system_id":"levelo_inurba_marseille","lat":43.31364,"lon":5.38339,"is_reserved":false,"is_disabled":false,"rental_uris":{"android":"levelo://app?vid=a4535830-2f3b-479e-a939-f97547203e35","ios":"levelo://app?vid=a4535830-2f3b-479e-a939-f97547203e35"},"vehicle_type_id":"4","last_reported":1704308735,"current_range_meters":4800,"station_id":"","pricing_plan_id":"free"},{"bike_id":"1c6e55bf-6b0c-4848-96ae-9e712df180c6","system_id":"levelo_inurba_marseille","lat":43.319935,"lon":5.381699,"is_reserved":false,"is_disabled":false,"rental_uris":{"android":"levelo://app?vid=1c6e55bf-6b0c-4848-96ae-9e712df180c6","ios":"levelo://app?vid=1c6e55bf-6b0c-4848-96ae-9e712df180c6"},"vehicle_type_id":"4","last_reported":1704308735,"current_range_meters":31200,"station_id":"ce4bhr12rcd13ifvqhpg","pricing_plan_id":"free"},{"bike_id":"442c1b48-0c9d-41d7-80ff-51493b8682d0","system_id":"levelo_inurba_marseille","lat":43.319935,"lon":5.381699,"is_reserved":false,"is_disabled":false,"rental_uris":{"android":"levelo://app?vid=442c1b48-0c9d-41d7-80ff-51493b8682d0","ios":"levelo://app?vid=442c1b48-0c9d-41d7-80ff-51493b8682d0"},"vehicle_type_id":"4","last_reported":1704308735,"current_range_meters":16400,"station_id":"ce4bhr12rcd13ifvqhpg","pricing_plan_id":"free"},{"bike_id":"2a6911e4-99f7-4853-9039-ac05cf0c6d2a","system_id":"levelo_inurba_marseille","lat":43.319935,"lon":5.381699,"is_reserved":false,"is_disabled":false,"rental_uris":{"android":"levelo://app?vid=2a6911e4-99f7-4853-9039-ac05cf0c6d2a","ios":"levelo://app?vid=2a6911e4-99f7-4853-9039-ac05cf0c6d2a"},"vehicle_type_id":"4","last_reported":1704308735,"current_range_meters":30000,"station_id":"ce4bhr12rcd13ifvqhpg","pricing_plan_id":"free"},{"bike_id":"17504bde-947a-4cd6-98b3-9a4c66aca99b","system_id":"levelo_inurba_marseille","lat":43.313827,"lon":5.385007,"is_reserved":false,"is_disabled":false,"rental_uris":{"android":"levelo://app?vid=17504bde-947a-4cd6-98b3-9a4c66aca99b","ios":"levelo://app?vid=17504bde-947a-4cd6-98b3-9a4c66aca99b"},"vehicle_type_id":"4","last_reported":1704308735,"current_range_meters":16400,"station_id":"ce4bgt92rcd13ifvqcf0","pricing_plan_id":"free"},{"bike_id":"a930e640-78e8-4b58-8411-c4ec23c37477","system_id":"levelo_inurba_marseille","lat":43.29932,"lon":5.365457,"is_reserved":false,"is_disabled":false,"rental_uris":{"android":"levelo://app?vid=a930e640-78e8-4b58-8411-c4ec23c37477","ios":"levelo://app?vid=a930e640-78e8-4b58-8411-c4ec23c37477"},"vehicle_type_id":"4","last_reported":1704308735,"current_range_meters":0,"station_id":"ce4bgm92rcd13ifvqbr0","pricing_plan_id":"free"},{"bike_id":"a804eb7e-920a-4b19-bd72-7bb4332841ac","system_id":"levelo_inurba_marseille","lat":43.299724,"lon":5.371829,"is_reserved":false,"is_disabled":false,"rental_uris":{"android":"levelo://app?vid=a804eb7e-920a-4b19-bd72-7bb4332841ac","ios":"levelo://app?vid=a804eb7e-920a-4b19-bd72-7bb4332841ac"},"vehicle_type_id":"4","last_reported":1704308735,"current_range_meters":13600,"station_id":"ce4bgr92rcd13ifvqc7g","pricing_plan_id":"free"},{"bike_id":"9be232a9-881a-46ee-9f12-36a54c95961d","system_id":"levelo_inurba_marseille","lat":43.299724,"lon":5.371829,"is_reserved":false,"is_disabled":false,"rental_uris":{"android":"levelo://app?vid=9be232a9-881a-46ee-9f12-36a54c95961d","ios":"levelo://app?vid=9be232a9-881a-46ee-9f12-36a54c95961d"},"vehicle_type_id":"4","last_reported":1704308735,"current_range_meters":24800,"station_id":"ce4bgr92rcd13ifvqc7g","pricing_plan_id":"free"},{"bike_id":"ccf52b64-b47f-46d5-8ba1-45f7cfdb9da2","system_id":"levelo_inurba_marseille","lat":43.305364,"lon":5.384119,"is_reserved":false,"is_disabled":false,"rental_uris":{"android":"levelo://app?vid=ccf52b64-b47f-46d5-8ba1-45f7cfdb9da2","ios":"levelo://app?vid=ccf52b64-b47f-46d5-8ba1-45f7cfdb9da2"},"vehicle_type_id":"4","last_reported":1704308735,"current_range_meters":1200,"station_id":"ce4bgg92rcd13ifvqb30","pricing_plan_id":"free"},{"bike_id":"03d9a952-6bd8-4eec-a020-5abcb5f4bff7","system_id":"levelo_inurba_marseille","lat":43.305364,"lon":5.384119,"is_reserved":false,"is_disabled":false,"rental_uris":{"android":"levelo://app?vid=03d9a952-6bd8-4eec-a020-5abcb5f4bff7","ios":"levelo://app?vid=03d9a952-6bd8-4eec-a020-5abcb5f4bff7"},"vehicle_type_id":"4","last_reported":1704308735,"current_range_meters":4000,"station_id":"ce4bgg92rcd13ifvqb30","pricing_plan_id":"free"},{"bike_id":"e67ce35e-22da-4d32-9fd1-f0e9702f0c84","system_id":"levelo_inurba_marseille","lat":43.305364,"lon":5.384119,"is_reserved":false,"is_disabled":false,"rental_uris":{"android":"levelo://app?vid=e67ce35e-22da-4d32-9fd1-f0e9702f0c84","ios":"levelo://app?vid=e67ce35e-22da-4d32-9fd1-f0e9702f0c84"},"vehicle_type_id":"4","last_reported":1704308735,"current_range_meters":28000,"station_id":"ce4bgg92rcd13ifvqb30","pricing_plan_id":"free"},{"bike_id":"355b9567-2c3e-41c6-b49a-73fc7ab389d4","system_id":"levelo_inurba_marseille","lat":43.305364,"lon":5.384119,"is_reserved":false,"is_disabled":false,"rental_uris":{"android":"levelo://app?vid=355b9567-2c3e-41c6-b49a-73fc7ab389d4","ios":"levelo://app?vid=355b9567-2c3e-41c6-b49a-73fc7ab389d4"},"vehicle_type_id":"4","last_reported":1704308735,"current_range_meters":16800,"station_id":"ce4bgg92rcd13ifvqb30","pricing_plan_id":"free"},{"bike_id":"de71f5a1-c732-451e-b4ec-df4cda404f99","system_id":"levelo_inurba_marseille","lat":43.297794,"lon":5.370888,"is_reserved":false,"is_disabled":false,"rental_uris":{"android":"levelo://app?vid=de71f5a1-c732-451e-b4ec-df4cda404f99","ios":"levelo://app?vid=de71f5a1-c732-451e-b4ec-df4cda404f99"},"vehicle_type_id":"4","last_reported":1704308735,"current_range_meters":26000,"station_id":"ce4bgop2rcd13ifvqc1g","pricing_plan_id":"free"},{"bike_id":"f53e7a9d-7ee6-4428-85bd-3db5d7cc3975","system_id":"levelo_inurba_marseille","lat":43.322872,"lon":5.382756,"is_reserved":false,"is_disabled":false,"rental_uris":{"android":"levelo://app?vid=f53e7a9d-7ee6-4428-85bd-3db5d7cc3975","ios":"levelo://app?vid=f53e7a9d-7ee6-4428-85bd-3db5d7cc3975"},"vehicle_type_id":"4","last_reported":1704308735,"current_range_meters":24000,"station_id":"ce4bhr12rcd13ifvqhqg","pricing_plan_id":"free"},{"bike_id":"6d90e6d0-18f2-4d59-a7c0-6f5d8f3563c2","system_id":"levelo_inurba_marseille","lat":43.322872,"lon":5.382756,"is_reserved":false,"is_disabled":false,"rental_uris":{"android":"levelo://app?vid=6d90e6d0-18f2-4d59-a7c0-6f5d8f3563c2","ios":"levelo://app?vid=6d90e6d0-18f2-4d59-a7c0-6f5d8f3563c2"},"vehicle_type_id":"4","last_reported":1704308735,"current_range_meters":26000,"station_id":"ce4bhr12rcd13ifvqhqg","pricing_plan_id":"free"},{"bike_id":"e344a4f8-37b0-4824-b7de-a9d0470bf846","system_id":"levelo_inurba_marseille","lat":43.322872,"lon":5.382756,"is_reserved":false,"is_disabled":false,"rental_uris":{"android":"levelo://app?vid=e344a4f8-37b0-4824-b7de-a9d0470bf846","ios":"levelo://app?vid=e344a4f8-37b0-4824-b7de-a9d0470bf846"},"vehicle_type_id":"4","last_reported":1704308735,"current_range_meters":31600,"station_id":"ce4bhr12rcd13ifvqhqg","pricing_plan_id":"free"},{"bike_id":"b1b531a6-b271-457f-a47c-b5f17d57c6b0","system_id":"levelo_inurba_marseille","lat":43.322872,"lon":5.382756,"is_reserved":false,"is_disabled":false,"rental_uris":{"android":"levelo://app?vid=b1b531a6-b271-457f-a47c-b5f17d57c6b0","ios":"levelo://app?vid=b1b531a6-b271-457f-a47c-b5f17d57c6b0"},"vehicle_type_id":"4","last_reported":1704308735,"current_range_meters":22800,"station_id":"ce4bhr12rcd13ifvqhqg","pricing_plan_id":"free"},{"bike_id":"282990a5-37f6-4baa-8fe8-f98cb5dcf1b9","system_id":"levelo_inurba_marseille","lat":43.322872,"lon":5.382756,"is_reserved":false,"is_disabled":false,"rental_uris":{"android":"levelo://app?vid=282990a5-37f6-4baa-8fe8-f98cb5dcf1b9","ios":"levelo://app?vid=282990a5-37f6-4baa-8fe8-f98cb5dcf1b9"},"vehicle_type_id":"4","last_reported":1704308735,"current_range_meters":16800,"station_id":"ce4bhr12rcd13ifvqhqg","pricing_plan_id":"free"},{"bike_id":"0fd1a754-34d0-4db5-92ef-c7d51180155b","system_id":"levelo_inurba_marseille","lat":43.322872,"lon":5.382756,"is_reserved":false,"is_disabled":false,"rental_uris":{"android":"levelo://app?vid=0fd1a754-34d0-4db5-92ef-c7d51180155b","ios":"levelo://app?vid=0fd1a754-34d0-4db5-92ef-c7d51180155b"},"vehicle_type_id":"4","last_reported":1704308735,"current_range_meters":20400,"station_id":"ce4bhr12rcd13ifvqhqg","pricing_plan_id":"free"},{"bike_id":"b3dc36b5-78bd-4891-ba38-a66f92777aa9","system_id":"levelo_inurba_marseille","lat":43.322872,"lon":5.382756,"is_reserved":false,"is_disabled":false,"rental_uris":{"android":"levelo://app?vid=b3dc36b5-78bd-4891-ba38-a66f92777aa9","ios":"levelo://app?vid=b3dc36b5-78bd-4891-ba38-a66f92777aa9"},"vehicle_type_id":"4","last_reported":1704308735,"current_range_meters":8400,"station_id":"ce4bhr12rcd13ifvqhqg","pricing_plan_id":"free"},{"bike_id":"370cccf7-c9ba-46c2-819b-c8e8cacc4c21","system_id":"levelo_inurba_marseille","lat":43.3277,"lon":5.37458,"is_reserved":false,"is_disabled":false,"rental_uris":{"android":"levelo://app?vid=370cccf7-c9ba-46c2-819b-c8e8cacc4c21","ios":"levelo://app?vid=370cccf7-c9ba-46c2-819b-c8e8cacc4c21"},"vehicle_type_id":"4","last_reported":1704308735,"current_range_meters":4000,"station_id":"","pricing_plan_id":"free"},{"bike_id":"f1908e61-5202-43e3-bf16-d91f711a0b5b","system_id":"levelo_inurba_marseille","lat":43.2968,"lon":5.37291,"is_reserved":false,"is_disabled":false,"rental_uris":{"android":"levelo://app?vid=f1908e61-5202-43e3-bf16-d91f711a0b5b","ios":"levelo://app?vid=f1908e61-5202-43e3-bf16-d91f711a0b5b"},"vehicle_type_id":"4","last_reported":1704308735,"current_range_meters":3200,"station_id":"ce4bgk12rcd13ifvqbj0","pricing_plan_id":"free"},{"bike_id":"9b538b89-a43e-4336-9013-73742aa3d750","system_id":"levelo_inurba_marseille","lat":43.29573,"lon":5.367355,"is_reserved":false,"is_disabled":false,"rental_uris":{"android":"levelo://app?vid=9b538b89-a43e-4336-9013-73742aa3d750","ios":"levelo://app?vid=9b538b89-a43e-4336-9013-73742aa3d750"},"vehicle_type_id":"4","last_reported":1704308735,"current_range_meters":7200,"station_id":"ce4bgph2rcd13ifvqc2g","pricing_plan_id":"free"},{"bike_id":"8f60c0cd-bcc8-42c3-9973-824c2c1dd492","system_id":"levelo_inurba_marseille","lat":43.296921,"lon":5.376579,"is_reserved":false,"is_disabled":false,"rental_uris":{"android":"levelo://app?vid=8f60c0cd-bcc8-42c3-9973-824c2c1dd492","ios":"levelo://app?vid=8f60c0cd-bcc8-42c3-9973-824c2c1dd492"},"vehicle_type_id":"4","last_reported":1704308735,"current_range_meters":27200,"station_id":"ce4bgkh2rcd13ifvqbl0","pricing_plan_id":"free"},{"bike_id":"2b803e19-07a1-423f-b720-58b9701aecb5","system_id":"levelo_inurba_marseille","lat":43.299028,"lon":5.381509,"is_reserved":false,"is_disabled":false,"rental_uris":{"android":"levelo://app?vid=2b803e19-07a1-423f-b720-58b9701aecb5","ios":"levelo://app?vid=2b803e19-07a1-423f-b720-58b9701aecb5"},"vehicle_type_id":"4","last_reported":1704308735,"current_range_meters":7600,"station_id":"ce4bgj12rcd13ifvqbc0","pricing_plan_id":"free"},{"bike_id":"9881dddd-25a4-4223-bde3-dc6ad58b6e50","system_id":"levelo_inurba_marseille","lat":43.304274,"lon":5.388873,"is_reserved":false,"is_disabled":false,"rental_uris":{"android":"levelo://app?vid=9881dddd-25a4-4223-bde3-dc6ad58b6e50","ios":"levelo://app?vid=9881dddd-25a4-4223-bde3-dc6ad58b6e50"},"vehicle_type_id":"4","last_reported":1704308735,"current_range_meters":10400,"station_id":"ce4bgk12rcd13ifvqbi0","pricing_plan_id":"free"},{"bike_id":"121c4fe7-4f1c-45ef-8446-b2caa58f848c","system_id":"levelo_inurba_marseille","lat":43.309589,"lon":5.390258,"is_reserved":false,"is_disabled":false,"rental_uris":{"android":"levelo://app?vid=121c4fe7-4f1c-45ef-8446-b2caa58f848c","ios":"levelo://app?vid=121c4fe7-4f1c-45ef-8446-b2caa58f848c"},"vehicle_type_id":"4","last_reported":1704308735,"current_range_meters":13200,"station_id":"ce4bgup2rcd13ifvqco0","pricing_plan_id":"free"},{"bike_id":"f8377170-c826-45fe-b8a0-85653e6fdb04","system_id":"levelo_inurba_marseille","lat":43.309589,"lon":5.390258,"is_reserved":false,"is_disabled":false,"rental_uris":{"android":"levelo://app?vid=f8377170-c826-45fe-b8a0-85653e6fdb04","ios":"levelo://app?vid=f8377170-c826-45fe-b8a0-85653e6fdb04"},"vehicle_type_id":"4","last_reported":1704308735,"current_range_meters":7600,"station_id":"ce4bgup2rcd13ifvqco0","pricing_plan_id":"free"},{"bike_id":"c45955cd-c08a-44c9-a8aa-d6757945c061","system_id":"levelo_inurba_marseille","lat":43.317557,"lon":5.390173,"is_reserved":false,"is_disabled":false,"rental_uris":{"android":"levelo://app?vid=c45955cd-c08a-44c9-a8aa-d6757945c061","ios":"levelo://app?vid=c45955cd-c08a-44c9-a8aa-d6757945c061"},"vehicle_type_id":"4","last_reported":1704308735,"current_range_meters":29600,"station_id":"ce4bhqp2rcd13ifvqhng","pricing_plan_id":"free"},{"bike_id":"9acd8c50-958b-43d5-bf3c-1f56bec08413","system_id":"levelo_inurba_marseille","lat":43.304274,"lon":5.388873,"is_reserved":false,"is_disabled":false,"rental_uris":{"android":"levelo://app?vid=9acd8c50-958b-43d5-bf3c-1f56bec08413","ios":"levelo://app?vid=9acd8c50-958b-43d5-bf3c-1f56bec08413"},"vehicle_type_id":"4","last_reported":1704308735,"current_range_meters":800,"station_id":"ce4bgk12rcd13ifvqbi0","pricing_plan_id":"free"},{"bike_id":"6652ff40-60a1-48e9-b922-746b005d593f","system_id":"levelo_inurba_marseille","lat":43.298037,"lon":5.381066,"is_reserved":false,"is_disabled":false,"rental_uris":{"android":"levelo://app?vid=6652ff40-60a1-48e9-b922-746b005d593f","ios":"levelo://app?vid=6652ff40-60a1-48e9-b922-746b005d593f"},"vehicle_type_id":"4","last_reported":1704308735,"current_range_meters":0,"station_id":"ce4bgip2rcd13ifvqbb0","pricing_plan_id":"free"},{"bike_id":"d60802d6-4f47-444a-b234-883690eec05b","system_id":"levelo_inurba_marseille","lat":43.33062,"lon":5.3627,"is_reserved":false,"is_disabled":false,"rental_uris":{"android":"levelo://app?vid=d60802d6-4f47-444a-b234-883690eec05b","ios":"levelo://app?vid=d60802d6-4f47-444a-b234-883690eec05b"},"vehicle_type_id":"4","last_reported":1704308735,"current_range_meters":10800,"station_id":"","pricing_plan_id":"free"},{"bike_id":"c989a9c8-3482-475e-a715-6254f82c8b76","system_id":"levelo_inurba_marseille","lat":43.304274,"lon":5.388873,"is_reserved":false,"is_disabled":false,"rental_uris":{"android":"levelo://app?vid=c989a9c8-3482-475e-a715-6254f82c8b76","ios":"levelo://app?vid=c989a9c8-3482-475e-a715-6254f82c8b76"},"vehicle_type_id":"4","last_reported":1704308735,"current_range_meters":16000,"station_id":"ce4bgk12rcd13ifvqbi0","pricing_plan_id":"free"},{"bike_id":"7119845d-00aa-4d9f-be8c-fc97d41f1380","system_id":"levelo_inurba_marseille","lat":43.297594,"lon":5.381134,"is_reserved":false,"is_disabled":false,"rental_uris":{"android":"levelo://app?vid=7119845d-00aa-4d9f-be8c-fc97d41f1380","ios":"levelo://app?vid=7119845d-00aa-4d9f-be8c-fc97d41f1380"},"vehicle_type_id":"4","last_reported":1704308735,"current_range_meters":0,"station_id":"ce4bgip2rcd13ifvqbb0","pricing_plan_id":"free"},{"bike_id":"19fd667d-603d-4d68-b6e8-54ff878cd8a9","system_id":"levelo_inurba_marseille","lat":43.32367,"lon":5.388836,"is_reserved":false,"is_disabled":false,"rental_uris":{"android":"levelo://app?vid=19fd667d-603d-4d68-b6e8-54ff878cd8a9","ios":"levelo://app?vid=19fd667d-603d-4d68-b6e8-54ff878cd8a9"},"vehicle_type_id":"4","last_reported":1704308735,"current_range_meters":24800,"station_id":"ce4bhqp2rcd13ifvqhog","pricing_plan_id":"free"},{"bike_id":"a082d93e-a2f1-41b2-af8f-b1546d9caff3","system_id":"levelo_inurba_marseille","lat":43.304278,"lon":5.388868,"is_reserved":false,"is_disabled":false,"rental_uris":{"android":"levelo://app?vid=a082d93e-a2f1-41b2-af8f-b1546d9caff3","ios":"levelo://app?vid=a082d93e-a2f1-41b2-af8f-b1546d9caff3"},"vehicle_type_id":"4","last_reported":1704308735,"current_range_meters":0,"station_id":"ce4bgk12rcd13ifvqbi0","pricing_plan_id":"free"},{"bike_id":"394e2bbb-a8e7-4e5d-a1ac-a58d750f91ed","system_id":"levelo_inurba_marseille","lat":43.29601,"lon":5.381084,"is_reserved":false,"is_disabled":false,"rental_uris":{"android":"levelo://app?vid=394e2bbb-a8e7-4e5d-a1ac-a58d750f91ed","ios":"levelo://app?vid=394e2bbb-a8e7-4e5d-a1ac-a58d750f91ed"},"vehicle_type_id":"4","last_reported":1704308735,"current_range_meters":1600,"station_id":"ce4bgl12rcd13ifvqbo0","pricing_plan_id":"free"},{"bike_id":"fa27da48-3ec3-4d39-9776-ac64ee4cbcf5","system_id":"levelo_inurba_marseille","lat":43.293259,"lon":5.371586,"is_reserved":false,"is_disabled":false,"rental_uris":{"android":"levelo://app?vid=fa27da48-3ec3-4d39-9776-ac64ee4cbcf5","ios":"levelo://app?vid=fa27da48-3ec3-4d39-9776-ac64ee4cbcf5"},"vehicle_type_id":"4","last_reported":1704308735,"current_range_meters":23200,"station_id":"ce4bgh92rcd13ifvqb40","pricing_plan_id":"free"},{"bike_id":"34ca2f56-ab8f-4eae-a881-9d140d3ae950","system_id":"levelo_inurba_marseille","lat":43.292749,"lon":5.368402,"is_reserved":false,"is_disabled":false,"rental_uris":{"android":"levelo://app?vid=34ca2f56-ab8f-4eae-a881-9d140d3ae950","ios":"levelo://app?vid=34ca2f56-ab8f-4eae-a881-9d140d3ae950"},"vehicle_type_id":"4","last_reported":1704308735,"current_range_meters":19600,"station_id":"ce4bhbp2rcd13ifvqesg","pricing_plan_id":"free"},{"bike_id":"f882fc57-398f-4e90-b3b0-6b3f9cf3445f","system_id":"levelo_inurba_marseille","lat":43.305994,"lon":5.393687,"is_reserved":false,"is_disabled":false,"rental_uris":{"android":"levelo://app?vid=f882fc57-398f-4e90-b3b0-6b3f9cf3445f","ios":"levelo://app?vid=f882fc57-398f-4e90-b3b0-6b3f9cf3445f"},"vehicle_type_id":"4","last_reported":1704308735,"current_range_meters":15600,"station_id":"ce4bh0p2rcd13ifvqd80","pricing_plan_id":"free"},{"bike_id":"daf5f2d4-5b69-414a-8823-07d6055e9504","system_id":"levelo_inurba_marseille","lat":43.305994,"lon":5.393687,"is_reserved":false,"is_disabled":false,"rental_uris":{"android":"levelo://app?vid=daf5f2d4-5b69-414a-8823-07d6055e9504","ios":"levelo://app?vid=daf5f2d4-5b69-414a-8823-07d6055e9504"},"vehicle_type_id":"4","last_reported":1704308735,"current_range_meters":7600,"station_id":"ce4bh0p2rcd13ifvqd80","pricing_plan_id":"free"},{"bike_id":"a0603ad6-1a97-4c40-8755-26bfea1691a4","system_id":"levelo_inurba_marseille","lat":43.293009,"lon":5.374584,"is_reserved":false,"is_disabled":false,"rental_uris":{"android":"levelo://app?vid=a0603ad6-1a97-4c40-8755-26bfea1691a4","ios":"levelo://app?vid=a0603ad6-1a97-4c40-8755-26bfea1691a4"},"vehicle_type_id":"4","last_reported":1704308735,"current_range_meters":25600,"station_id":"ce4bgi12rcd13ifvqb70","pricing_plan_id":"free"},{"bike_id":"841d87f1-853c-4cc4-a6ab-5ce12ca07038","system_id":"levelo_inurba_marseille","lat":43.301847,"lon":5.39096,"is_reserved":false,"is_disabled":false,"rental_uris":{"android":"levelo://app?vid=841d87f1-853c-4cc4-a6ab-5ce12ca07038","ios":"levelo://app?vid=841d87f1-853c-4cc4-a6ab-5ce12ca07038"},"vehicle_type_id":"4","last_reported":1704308735,"current_range_meters":20800,"station_id":"","pricing_plan_id":"free"},{"bike_id":"5bc67119-667b-462a-8525-ef241864ed74","system_id":"levelo_inurba_marseille","lat":43.303002,"lon":5.392142,"is_reserved":false,"is_disabled":false,"rental_uris":{"android":"levelo://app?vid=5bc67119-667b-462a-8525-ef241864ed74","ios":"levelo://app?vid=5bc67119-667b-462a-8525-ef241864ed74"},"vehicle_type_id":"4","last_reported":1704308735,"current_range_meters":28000,"station_id":"ce4bgkh2rcd13ifvqbk0","pricing_plan_id":"free"},{"bike_id":"fe0eecee-ef4d-4c8c-8e85-b51a92098417","system_id":"levelo_inurba_marseille","lat":43.30029,"lon":5.38983,"is_reserved":false,"is_disabled":false,"rental_uris":{"android":"levelo://app?vid=fe0eecee-ef4d-4c8c-8e85-b51a92098417","ios":"levelo://app?vid=fe0eecee-ef4d-4c8c-8e85-b51a92098417"},"vehicle_type_id":"4","last_reported":1704308735,"current_range_meters":0,"station_id":"ce4bh2h2rcd13ifvqdh0","pricing_plan_id":"free"},{"bike_id":"d80ba4cd-7d11-4d92-8717-ba512caf55e9","system_id":"levelo_inurba_marseille","lat":43.2936,"lon":5.37835,"is_reserved":false,"is_disabled":false,"rental_uris":{"android":"levelo://app?vid=d80ba4cd-7d11-4d92-8717-ba512caf55e9","ios":"levelo://app?vid=d80ba4cd-7d11-4d92-8717-ba512caf55e9"},"vehicle_type_id":"4","last_reported":1704308735,"current_range_meters":16000,"station_id":"ce4bgjh2rcd13ifvqbf0","pricing_plan_id":"free"},{"bike_id":"bee0d25e-5928-4166-a427-6e32ca8691d8","system_id":"levelo_inurba_marseille","lat":43.292602,"lon":5.376186,"is_reserved":false,"is_disabled":false,"rental_uris":{"android":"levelo://app?vid=bee0d25e-5928-4166-a427-6e32ca8691d8","ios":"levelo://app?vid=bee0d25e-5928-4166-a427-6e32ca8691d8"},"vehicle_type_id":"4","last_reported":1704308735,"current_range_meters":14800,"station_id":"","pricing_plan_id":"free"},{"bike_id":"8f86e043-0dac-4467-b8ef-615961dba736","system_id":"levelo_inurba_marseille","lat":43.298705,"lon":5.388998,"is_reserved":false,"is_disabled":false,"rental_uris":{"android":"levelo://app?vid=8f86e043-0dac-4467-b8ef-615961dba736","ios":"levelo://app?vid=8f86e043-0dac-4467-b8ef-615961dba736"},"vehicle_type_id":"4","last_reported":1704308735,"current_range_meters":24800,"station_id":"","pricing_plan_id":"free"},{"bike_id":"b72bfd7b-7097-48b8-9bce-f5040737e3e0","system_id":"levelo_inurba_marseille","lat":43.291675,"lon":5.371583,"is_reserved":false,"is_disabled":false,"rental_uris":{"android":"levelo://app?vid=b72bfd7b-7097-48b8-9bce-f5040737e3e0","ios":"levelo://app?vid=b72bfd7b-7097-48b8-9bce-f5040737e3e0"},"vehicle_type_id":"4","last_reported":1704308735,"current_range_meters":23600,"station_id":"ce4bha92rcd13ifvqeh0","pricing_plan_id":"free"},{"bike_id":"4a9311c4-4db5-4367-b1f7-d435bd185033","system_id":"levelo_inurba_marseille","lat":43.33182,"lon":5.38075,"is_reserved":false,"is_disabled":false,"rental_uris":{"android":"levelo://app?vid=4a9311c4-4db5-4367-b1f7-d435bd185033","ios":"levelo://app?vid=4a9311c4-4db5-4367-b1f7-d435bd185033"},"vehicle_type_id":"4","last_reported":1704308735,"current_range_meters":9600,"station_id":"","pricing_plan_id":"free"},{"bike_id":"7f7c01df-ff2f-4da9-bb63-e147698deda9","system_id":"levelo_inurba_marseille","lat":43.30876,"lon":5.39629,"is_reserved":false,"is_disabled":false,"rental_uris":{"android":"levelo://app?vid=7f7c01df-ff2f-4da9-bb63-e147698deda9","ios":"levelo://app?vid=7f7c01df-ff2f-4da9-bb63-e147698deda9"},"vehicle_type_id":"4","last_reported":1704308735,"current_range_meters":0,"station_id":"ce4bh012rcd13ifvqcv0","pricing_plan_id":"free"},{"bike_id":"dfebc943-e094-4094-b5b8-1edfe748e45e","system_id":"levelo_inurba_marseille","lat":43.308798,"lon":5.396308,"is_reserved":false,"is_disabled":false,"rental_uris":{"android":"levelo://app?vid=dfebc943-e094-4094-b5b8-1edfe748e45e","ios":"levelo://app?vid=dfebc943-e094-4094-b5b8-1edfe748e45e"},"vehicle_type_id":"4","last_reported":1704308735,"current_range_meters":9200,"station_id":"ce4bh012rcd13ifvqcv0","pricing_plan_id":"free"},{"bike_id":"4e6e447a-17f6-4981-ac18-91ec05c1f791","system_id":"levelo_inurba_marseille","lat":43.313291,"lon":5.396838,"is_reserved":false,"is_disabled":false,"rental_uris":{"android":"levelo://app?vid=4e6e447a-17f6-4981-ac18-91ec05c1f791","ios":"levelo://app?vid=4e6e447a-17f6-4981-ac18-91ec05c1f791"},"vehicle_type_id":"4","last_reported":1704308735,"current_range_meters":24400,"station_id":"ce4bgvp2rcd13ifvqcu0","pricing_plan_id":"free"},{"bike_id":"b9d5d6bb-b122-457b-bf67-61aeee7a48e7","system_id":"levelo_inurba_marseille","lat":43.313291,"lon":5.396838,"is_reserved":false,"is_disabled":false,"rental_uris":{"android":"levelo://app?vid=b9d5d6bb-b122-457b-bf67-61aeee7a48e7","ios":"levelo://app?vid=b9d5d6bb-b122-457b-bf67-61aeee7a48e7"},"vehicle_type_id":"4","last_reported":1704308735,"current_range_meters":2000,"station_id":"ce4bgvp2rcd13ifvqcu0","pricing_plan_id":"free"},{"bike_id":"1cc38257-8190-4cf3-b3e7-fae6d986f472","system_id":"levelo_inurba_marseille","lat":43.313291,"lon":5.396838,"is_reserved":false,"is_disabled":false,"rental_uris":{"android":"levelo://app?vid=1cc38257-8190-4cf3-b3e7-fae6d986f472","ios":"levelo://app?vid=1cc38257-8190-4cf3-b3e7-fae6d986f472"},"vehicle_type_id":"4","last_reported":1704308735,"current_range_meters":12000,"station_id":"ce4bgvp2rcd13ifvqcu0","pricing_plan_id":"free"},{"bike_id":"4632b70d-b9bd-4373-84dd-9a7c8befe5cf","system_id":"levelo_inurba_marseille","lat":43.313291,"lon":5.396838,"is_reserved":false,"is_disabled":false,"rental_uris":{"android":"levelo://app?vid=4632b70d-b9bd-4373-84dd-9a7c8befe5cf","ios":"levelo://app?vid=4632b70d-b9bd-4373-84dd-9a7c8befe5cf"},"vehicle_type_id":"4","last_reported":1704308735,"current_range_meters":0,"station_id":"ce4bgvp2rcd13ifvqcu0","pricing_plan_id":"free"},{"bike_id":"4a0dd34f-cbba-4f1c-8073-356b945f6d42","system_id":"levelo_inurba_marseille","lat":43.291994,"lon":5.357886,"is_reserved":false,"is_disabled":false,"rental_uris":{"android":"levelo://app?vid=4a0dd34f-cbba-4f1c-8073-356b945f6d42","ios":"levelo://app?vid=4a0dd34f-cbba-4f1c-8073-356b945f6d42"},"vehicle_type_id":"4","last_reported":1704308735,"current_range_meters":11600,"station_id":"ce4bhb12rcd13ifvqel0","pricing_plan_id":"free"},{"bike_id":"8205d084-c47b-4fd2-ab65-c1ed9e2ca6ac","system_id":"levelo_inurba_marseille","lat":43.313291,"lon":5.396838,"is_reserved":false,"is_disabled":false,"rental_uris":{"android":"levelo://app?vid=8205d084-c47b-4fd2-ab65-c1ed9e2ca6ac","ios":"levelo://app?vid=8205d084-c47b-4fd2-ab65-c1ed9e2ca6ac"},"vehicle_type_id":"4","last_reported":1704308735,"current_range_meters":16800,"station_id":"ce4bgvp2rcd13ifvqcu0","pricing_plan_id":"free"},{"bike_id":"db0b473c-b957-4b85-92d4-070515c92a07","system_id":"levelo_inurba_marseille","lat":43.309038,"lon":5.396546,"is_reserved":false,"is_disabled":false,"rental_uris":{"android":"levelo://app?vid=db0b473c-b957-4b85-92d4-070515c92a07","ios":"levelo://app?vid=db0b473c-b957-4b85-92d4-070515c92a07"},"vehicle_type_id":"4","last_reported":1704308735,"current_range_meters":28400,"station_id":"ce4bh012rcd13ifvqcv0","pricing_plan_id":"free"},{"bike_id":"ac200040-1a82-4963-b4a5-725d0db99592","system_id":"levelo_inurba_marseille","lat":43.309038,"lon":5.396546,"is_reserved":false,"is_disabled":false,"rental_uris":{"android":"levelo://app?vid=ac200040-1a82-4963-b4a5-725d0db99592","ios":"levelo://app?vid=ac200040-1a82-4963-b4a5-725d0db99592"},"vehicle_type_id":"4","last_reported":1704308735,"current_range_meters":4800,"station_id":"ce4bh012rcd13ifvqcv0","pricing_plan_id":"free"},{"bike_id":"52cb9422-bdda-444e-acf8-53ea52ac4c8d","system_id":"levelo_inurba_marseille","lat":43.309047,"lon":5.396551,"is_reserved":false,"is_disabled":false,"rental_uris":{"android":"levelo://app?vid=52cb9422-bdda-444e-acf8-53ea52ac4c8d","ios":"levelo://app?vid=52cb9422-bdda-444e-acf8-53ea52ac4c8d"},"vehicle_type_id":"4","last_reported":1704308735,"current_range_meters":23600,"station_id":"ce4bh012rcd13ifvqcv0","pricing_plan_id":"free"},{"bike_id":"bcfa8101-8549-4290-95ee-c9ef9f526b61","system_id":"levelo_inurba_marseille","lat":43.309038,"lon":5.396546,"is_reserved":false,"is_disabled":false,"rental_uris":{"android":"levelo://app?vid=bcfa8101-8549-4290-95ee-c9ef9f526b61","ios":"levelo://app?vid=bcfa8101-8549-4290-95ee-c9ef9f526b61"},"vehicle_type_id":"4","last_reported":1704308735,"current_range_meters":12400,"station_id":"ce4bh012rcd13ifvqcv0","pricing_plan_id":"free"},{"bike_id":"31361286-2cac-4459-af7c-94abe9b7a69d","system_id":"levelo_inurba_marseille","lat":43.308809,"lon":5.396512,"is_reserved":false,"is_disabled":false,"rental_uris":{"android":"levelo://app?vid=31361286-2cac-4459-af7c-94abe9b7a69d","ios":"levelo://app?vid=31361286-2cac-4459-af7c-94abe9b7a69d"},"vehicle_type_id":"4","last_reported":1704308735,"current_range_meters":16400,"station_id":"ce4bh012rcd13ifvqcv0","pricing_plan_id":"free"},{"bike_id":"a0e8c38c-f03e-4b2c-afde-c831fcf1dfa6","system_id":"levelo_inurba_marseille","lat":43.290327,"lon":5.375711,"is_reserved":false,"is_disabled":false,"rental_uris":{"android":"levelo://app?vid=a0e8c38c-f03e-4b2c-afde-c831fcf1dfa6","ios":"levelo://app?vid=a0e8c38c-f03e-4b2c-afde-c831fcf1dfa6"},"vehicle_type_id":"4","last_reported":1704308735,"current_range_meters":20400,"station_id":"ce4bh692rcd13ifvqe90","pricing_plan_id":"free"},{"bike_id":"0c437dcb-5577-4cd3-8d8c-ab3cd599e1f1","system_id":"levelo_inurba_marseille","lat":43.2926,"lon":5.383207,"is_reserved":false,"is_disabled":false,"rental_uris":{"android":"levelo://app?vid=0c437dcb-5577-4cd3-8d8c-ab3cd599e1f1","ios":"levelo://app?vid=0c437dcb-5577-4cd3-8d8c-ab3cd599e1f1"},"vehicle_type_id":"4","last_reported":1704308735,"current_range_meters":21200,"station_id":"","pricing_plan_id":"free"},{"bike_id":"d6c4e73a-d563-4894-b881-3bf4e24bd3aa","system_id":"levelo_inurba_marseille","lat":43.289184,"lon":5.366408,"is_reserved":false,"is_disabled":false,"rental_uris":{"android":"levelo://app?vid=d6c4e73a-d563-4894-b881-3bf4e24bd3aa","ios":"levelo://app?vid=d6c4e73a-d563-4894-b881-3bf4e24bd3aa"},"vehicle_type_id":"4","last_reported":1704308735,"current_range_meters":25600,"station_id":"ce4bhap2rcd13ifvqek0","pricing_plan_id":"free"},{"bike_id":"dfeac2fd-f9ca-43fb-b5ac-cfbe030697c1","system_id":"levelo_inurba_marseille","lat":43.289184,"lon":5.366408,"is_reserved":false,"is_disabled":false,"rental_uris":{"android":"levelo://app?vid=dfeac2fd-f9ca-43fb-b5ac-cfbe030697c1","ios":"levelo://app?vid=dfeac2fd-f9ca-43fb-b5ac-cfbe030697c1"},"vehicle_type_id":"4","last_reported":1704308735,"current_range_meters":30000,"station_id":"ce4bhap2rcd13ifvqek0","pricing_plan_id":"free"},{"bike_id":"fc4df2a4-2eda-44ab-b226-75facb68d773","system_id":"levelo_inurba_marseille","lat":43.289468,"lon":5.363719,"is_reserved":false,"is_disabled":false,"rental_uris":{"android":"levelo://app?vid=fc4df2a4-2eda-44ab-b226-75facb68d773","ios":"levelo://app?vid=fc4df2a4-2eda-44ab-b226-75facb68d773"},"vehicle_type_id":"4","last_reported":1704308735,"current_range_meters":31200,"station_id":"ce4bhc92rcd13ifvqetg","pricing_plan_id":"free"},{"bike_id":"9fd1c300-c707-4202-952d-9c389d4c1adf","system_id":"levelo_inurba_marseille","lat":43.292644,"lon":5.384257,"is_reserved":false,"is_disabled":false,"rental_uris":{"android":"levelo://app?vid=9fd1c300-c707-4202-952d-9c389d4c1adf","ios":"levelo://app?vid=9fd1c300-c707-4202-952d-9c389d4c1adf"},"vehicle_type_id":"4","last_reported":1704308735,"current_range_meters":4000,"station_id":"ce4bh692rcd13ifvqea0","pricing_plan_id":"free"},{"bike_id":"14d0dfec-db65-47d0-9bf9-b438a3699c9d","system_id":"levelo_inurba_marseille","lat":43.292642,"lon":5.384254,"is_reserved":false,"is_disabled":false,"rental_uris":{"android":"levelo://app?vid=14d0dfec-db65-47d0-9bf9-b438a3699c9d","ios":"levelo://app?vid=14d0dfec-db65-47d0-9bf9-b438a3699c9d"},"vehicle_type_id":"4","last_reported":1704308735,"current_range_meters":17600,"station_id":"ce4bh692rcd13ifvqea0","pricing_plan_id":"free"},{"bike_id":"befcfb75-5b8f-4d24-a461-f0207c89114a","system_id":"levelo_inurba_marseille","lat":43.292642,"lon":5.384254,"is_reserved":false,"is_disabled":false,"rental_uris":{"android":"levelo://app?vid=befcfb75-5b8f-4d24-a461-f0207c89114a","ios":"levelo://app?vid=befcfb75-5b8f-4d24-a461-f0207c89114a"},"vehicle_type_id":"4","last_reported":1704308735,"current_range_meters":23200,"station_id":"ce4bh692rcd13ifvqea0","pricing_plan_id":"free"},{"bike_id":"7bcfaf0c-db40-4049-9e62-e165192f445d","system_id":"levelo_inurba_marseille","lat":43.292644,"lon":5.384257,"is_reserved":false,"is_disabled":false,"rental_uris":{"android":"levelo://app?vid=7bcfaf0c-db40-4049-9e62-e165192f445d","ios":"levelo://app?vid=7bcfaf0c-db40-4049-9e62-e165192f445d"},"vehicle_type_id":"4","last_reported":1704308735,"current_range_meters":0,"station_id":"ce4bh692rcd13ifvqea0","pricing_plan_id":"free"},{"bike_id":"3214b76d-0390-44a9-8091-e02429372c31","system_id":"levelo_inurba_marseille","lat":43.29256,"lon":5.38452,"is_reserved":false,"is_disabled":false,"rental_uris":{"android":"levelo://app?vid=3214b76d-0390-44a9-8091-e02429372c31","ios":"levelo://app?vid=3214b76d-0390-44a9-8091-e02429372c31"},"vehicle_type_id":"4","last_reported":1704308735,"current_range_meters":0,"station_id":"ce4bh692rcd13ifvqea0","pricing_plan_id":"free"},{"bike_id":"c0f78171-2e0a-4e1c-bdc6-54db651d0e22","system_id":"levelo_inurba_marseille","lat":43.290103,"lon":5.356114,"is_reserved":false,"is_disabled":false,"rental_uris":{"android":"levelo://app?vid=c0f78171-2e0a-4e1c-bdc6-54db651d0e22","ios":"levelo://app?vid=c0f78171-2e0a-4e1c-bdc6-54db651d0e22"},"vehicle_type_id":"4","last_reported":1704308735,"current_range_meters":21600,"station_id":"ce4bhb92rcd13ifvqen0","pricing_plan_id":"free"},{"bike_id":"cf3362bb-edcb-4081-871c-5e6462c87f1e","system_id":"levelo_inurba_marseille","lat":43.290995,"lon":5.381361,"is_reserved":false,"is_disabled":false,"rental_uris":{"android":"levelo://app?vid=cf3362bb-edcb-4081-871c-5e6462c87f1e","ios":"levelo://app?vid=cf3362bb-edcb-4081-871c-5e6462c87f1e"},"vehicle_type_id":"4","last_reported":1704308735,"current_range_meters":24000,"station_id":"ce4bh512rcd13ifvqe2g","pricing_plan_id":"free"},{"bike_id":"437fda1a-75a8-4281-8e17-87c545b925fe","system_id":"levelo_inurba_marseille","lat":43.29787,"lon":5.39343,"is_reserved":false,"is_disabled":false,"rental_uris":{"android":"levelo://app?vid=437fda1a-75a8-4281-8e17-87c545b925fe","ios":"levelo://app?vid=437fda1a-75a8-4281-8e17-87c545b925fe"},"vehicle_type_id":"4","last_reported":1704308735,"current_range_meters":3600,"station_id":"chh1huq6cuj3fo74tm60","pricing_plan_id":"free"},{"bike_id":"b9f1870d-91b7-4991-8da2-fb88515c5d8e","system_id":"levelo_inurba_marseille","lat":43.330442,"lon":5.389148,"is_reserved":false,"is_disabled":false,"rental_uris":{"android":"levelo://app?vid=b9f1870d-91b7-4991-8da2-fb88515c5d8e","ios":"levelo://app?vid=b9f1870d-91b7-4991-8da2-fb88515c5d8e"},"vehicle_type_id":"4","last_reported":1704308735,"current_range_meters":18000,"station_id":"ce4bhr92rcd13ifvqhrg","pricing_plan_id":"free"},{"bike_id":"b4dc5f58-d698-47e4-9d04-a65a1aac924a","system_id":"levelo_inurba_marseille","lat":43.330442,"lon":5.389148,"is_reserved":false,"is_disabled":false,"rental_uris":{"android":"levelo://app?vid=b4dc5f58-d698-47e4-9d04-a65a1aac924a","ios":"levelo://app?vid=b4dc5f58-d698-47e4-9d04-a65a1aac924a"},"vehicle_type_id":"4","last_reported":1704308735,"current_range_meters":12400,"station_id":"ce4bhr92rcd13ifvqhrg","pricing_plan_id":"free"},{"bike_id":"3537c72e-affb-4603-a0d4-44c57db301e5","system_id":"levelo_inurba_marseille","lat":43.330442,"lon":5.389148,"is_reserved":false,"is_disabled":false,"rental_uris":{"android":"levelo://app?vid=3537c72e-affb-4603-a0d4-44c57db301e5","ios":"levelo://app?vid=3537c72e-affb-4603-a0d4-44c57db301e5"},"vehicle_type_id":"4","last_reported":1704308735,"current_range_meters":9600,"station_id":"ce4bhr92rcd13ifvqhrg","pricing_plan_id":"free"},{"bike_id":"d9852308-447b-4d56-ba4c-f18536f77895","system_id":"levelo_inurba_marseille","lat":43.295169,"lon":5.390426,"is_reserved":false,"is_disabled":false,"rental_uris":{"android":"levelo://app?vid=d9852308-447b-4d56-ba4c-f18536f77895","ios":"levelo://app?vid=d9852308-447b-4d56-ba4c-f18536f77895"},"vehicle_type_id":"4","last_reported":1704308735,"current_range_meters":29200,"station_id":"ce4bh3p2rcd13ifvqdp0","pricing_plan_id":"free"},{"bike_id":"a4544299-4117-4ba4-98ad-2dcd1cebe1e8","system_id":"levelo_inurba_marseille","lat":43.330442,"lon":5.389148,"is_reserved":false,"is_disabled":false,"rental_uris":{"android":"levelo://app?vid=a4544299-4117-4ba4-98ad-2dcd1cebe1e8","ios":"levelo://app?vid=a4544299-4117-4ba4-98ad-2dcd1cebe1e8"},"vehicle_type_id":"4","last_reported":1704308735,"current_range_meters":23600,"station_id":"ce4bhr92rcd13ifvqhrg","pricing_plan_id":"free"},{"bike_id":"a45508dc-3e20-4dc2-a3f2-c48092cac22d","system_id":"levelo_inurba_marseille","lat":43.330442,"lon":5.389148,"is_reserved":false,"is_disabled":false,"rental_uris":{"android":"levelo://app?vid=a45508dc-3e20-4dc2-a3f2-c48092cac22d","ios":"levelo://app?vid=a45508dc-3e20-4dc2-a3f2-c48092cac22d"},"vehicle_type_id":"4","last_reported":1704308735,"current_range_meters":6400,"station_id":"ce4bhr92rcd13ifvqhrg","pricing_plan_id":"free"},{"bike_id":"557653f5-5e41-4bfe-9328-72ae314f7e0c","system_id":"levelo_inurba_marseille","lat":43.295169,"lon":5.390426,"is_reserved":false,"is_disabled":false,"rental_uris":{"android":"levelo://app?vid=557653f5-5e41-4bfe-9328-72ae314f7e0c","ios":"levelo://app?vid=557653f5-5e41-4bfe-9328-72ae314f7e0c"},"vehicle_type_id":"4","last_reported":1704308735,"current_range_meters":29600,"station_id":"ce4bh3p2rcd13ifvqdp0","pricing_plan_id":"free"},{"bike_id":"c299dfaa-6ba9-45af-8e05-d073c8d25271","system_id":"levelo_inurba_marseille","lat":43.290094,"lon":5.381264,"is_reserved":false,"is_disabled":false,"rental_uris":{"android":"levelo://app?vid=c299dfaa-6ba9-45af-8e05-d073c8d25271","ios":"levelo://app?vid=c299dfaa-6ba9-45af-8e05-d073c8d25271"},"vehicle_type_id":"4","last_reported":1704308735,"current_range_meters":10000,"station_id":"ce4bh4p2rcd13ifvqe1g","pricing_plan_id":"free"},{"bike_id":"3e2f2edd-b93e-4bf2-be71-a5f91a327f6f","system_id":"levelo_inurba_marseille","lat":43.28849,"lon":5.35859,"is_reserved":false,"is_disabled":false,"rental_uris":{"android":"levelo://app?vid=3e2f2edd-b93e-4bf2-be71-a5f91a327f6f","ios":"levelo://app?vid=3e2f2edd-b93e-4bf2-be71-a5f91a327f6f"},"vehicle_type_id":"4","last_reported":1704308735,"current_range_meters":26400,"station_id":"ce4bhb12rcd13ifvqem0","pricing_plan_id":"free"},{"bike_id":"bf8cbc99-1c75-4030-9950-2229ecf52928","system_id":"levelo_inurba_marseille","lat":43.2884,"lon":5.35858,"is_reserved":false,"is_disabled":false,"rental_uris":{"android":"levelo://app?vid=bf8cbc99-1c75-4030-9950-2229ecf52928","ios":"levelo://app?vid=bf8cbc99-1c75-4030-9950-2229ecf52928"},"vehicle_type_id":"4","last_reported":1704308735,"current_range_meters":22000,"station_id":"ce4bhb12rcd13ifvqem0","pricing_plan_id":"free"},{"bike_id":"bfb9dffb-5724-4ee6-9798-ce264e7aa95e","system_id":"levelo_inurba_marseille","lat":43.312609,"lon":5.401662,"is_reserved":false,"is_disabled":false,"rental_uris":{"android":"levelo://app?vid=bfb9dffb-5724-4ee6-9798-ce264e7aa95e","ios":"levelo://app?vid=bfb9dffb-5724-4ee6-9798-ce264e7aa95e"},"vehicle_type_id":"4","last_reported":1704308735,"current_range_meters":17200,"station_id":"ce4bh092rcd13ifvqd30","pricing_plan_id":"free"},{"bike_id":"8436be69-9835-4bbb-8e22-574227ba5ba1","system_id":"levelo_inurba_marseille","lat":43.3374,"lon":5.37453,"is_reserved":false,"is_disabled":false,"rental_uris":{"android":"levelo://app?vid=8436be69-9835-4bbb-8e22-574227ba5ba1","ios":"levelo://app?vid=8436be69-9835-4bbb-8e22-574227ba5ba1"},"vehicle_type_id":"4","last_reported":1704308735,"current_range_meters":28800,"station_id":"","pricing_plan_id":"free"},{"bike_id":"56eea705-8312-497c-a7a5-2d086e47098a","system_id":"levelo_inurba_marseille","lat":43.312609,"lon":5.401662,"is_reserved":false,"is_disabled":false,"rental_uris":{"android":"levelo://app?vid=56eea705-8312-497c-a7a5-2d086e47098a","ios":"levelo://app?vid=56eea705-8312-497c-a7a5-2d086e47098a"},"vehicle_type_id":"4","last_reported":1704308735,"current_range_meters":20800,"station_id":"ce4bh092rcd13ifvqd30","pricing_plan_id":"free"},{"bike_id":"b0952245-9fb6-48db-ada0-ffa31ed5e542","system_id":"levelo_inurba_marseille","lat":43.30926,"lon":5.40136,"is_reserved":false,"is_disabled":false,"rental_uris":{"android":"levelo://app?vid=b0952245-9fb6-48db-ada0-ffa31ed5e542","ios":"levelo://app?vid=b0952245-9fb6-48db-ada0-ffa31ed5e542"},"vehicle_type_id":"4","last_reported":1704308735,"current_range_meters":0,"station_id":"ce4bgvp2rcd13ifvqct0","pricing_plan_id":"free"},{"bike_id":"c473dc02-8994-4174-a9e4-3a30dad995ff","system_id":"levelo_inurba_marseille","lat":43.337492,"lon":5.374444,"is_reserved":false,"is_disabled":false,"rental_uris":{"android":"levelo://app?vid=c473dc02-8994-4174-a9e4-3a30dad995ff","ios":"levelo://app?vid=c473dc02-8994-4174-a9e4-3a30dad995ff"},"vehicle_type_id":"4","last_reported":1704308735,"current_range_meters":28800,"station_id":"","pricing_plan_id":"free"},{"bike_id":"2c0d1c7a-52d6-45c8-b950-66774576aada","system_id":"levelo_inurba_marseille","lat":43.33751,"lon":5.37446,"is_reserved":false,"is_disabled":false,"rental_uris":{"android":"levelo://app?vid=2c0d1c7a-52d6-45c8-b950-66774576aada","ios":"levelo://app?vid=2c0d1c7a-52d6-45c8-b950-66774576aada"},"vehicle_type_id":"4","last_reported":1704308735,"current_range_meters":26800,"station_id":"","pricing_plan_id":"free"},{"bike_id":"cf21f113-3dc6-4a4d-beda-1c56139d5517","system_id":"levelo_inurba_marseille","lat":43.33755,"lon":5.37444,"is_reserved":false,"is_disabled":false,"rental_uris":{"android":"levelo://app?vid=cf21f113-3dc6-4a4d-beda-1c56139d5517","ios":"levelo://app?vid=cf21f113-3dc6-4a4d-beda-1c56139d5517"},"vehicle_type_id":"4","last_reported":1704308735,"current_range_meters":30800,"station_id":"","pricing_plan_id":"free"},{"bike_id":"708c4582-5aea-4cab-9229-8933638c2651","system_id":"levelo_inurba_marseille","lat":43.309371,"lon":5.401449,"is_reserved":false,"is_disabled":false,"rental_uris":{"android":"levelo://app?vid=708c4582-5aea-4cab-9229-8933638c2651","ios":"levelo://app?vid=708c4582-5aea-4cab-9229-8933638c2651"},"vehicle_type_id":"4","last_reported":1704308735,"current_range_meters":0,"station_id":"ce4bgvp2rcd13ifvqct0","pricing_plan_id":"free"},{"bike_id":"d678275e-668b-4e64-ae77-467386b91e4f","system_id":"levelo_inurba_marseille","lat":43.33761,"lon":5.37481,"is_reserved":false,"is_disabled":false,"rental_uris":{"android":"levelo://app?vid=d678275e-668b-4e64-ae77-467386b91e4f","ios":"levelo://app?vid=d678275e-668b-4e64-ae77-467386b91e4f"},"vehicle_type_id":"4","last_reported":1704308735,"current_range_meters":26400,"station_id":"","pricing_plan_id":"free"},{"bike_id":"a0dfacd7-d7a5-4972-ba74-a055d1378402","system_id":"levelo_inurba_marseille","lat":43.301117,"lon":5.398795,"is_reserved":false,"is_disabled":false,"rental_uris":{"android":"levelo://app?vid=a0dfacd7-d7a5-4972-ba74-a055d1378402","ios":"levelo://app?vid=a0dfacd7-d7a5-4972-ba74-a055d1378402"},"vehicle_type_id":"4","last_reported":1704308735,"current_range_meters":22000,"station_id":"ce4bh0h2rcd13ifvqd40","pricing_plan_id":"free"},{"bike_id":"f963ecae-ccdf-4b8b-8e48-49346eba778a","system_id":"levelo_inurba_marseille","lat":43.28727,"lon":5.36078,"is_reserved":false,"is_disabled":false,"rental_uris":{"android":"levelo://app?vid=f963ecae-ccdf-4b8b-8e48-49346eba778a","ios":"levelo://app?vid=f963ecae-ccdf-4b8b-8e48-49346eba778a"},"vehicle_type_id":"4","last_reported":1704308735,"current_range_meters":19200,"station_id":"cki0cbj6b192h4jlfktg","pricing_plan_id":"free"},{"bike_id":"1fae5872-4781-4be3-a7e3-08510609eb2a","system_id":"levelo_inurba_marseille","lat":43.28727,"lon":5.36078,"is_reserved":false,"is_disabled":false,"rental_uris":{"android":"levelo://app?vid=1fae5872-4781-4be3-a7e3-08510609eb2a","ios":"levelo://app?vid=1fae5872-4781-4be3-a7e3-08510609eb2a"},"vehicle_type_id":"4","last_reported":1704308735,"current_range_meters":12400,"station_id":"cki0cbj6b192h4jlfktg","pricing_plan_id":"free"},{"bike_id":"b896c28b-8222-419c-94f7-2c9bc6c4b90e","system_id":"levelo_inurba_marseille","lat":43.286593,"lon":5.363346,"is_reserved":false,"is_disabled":false,"rental_uris":{"android":"levelo://app?vid=b896c28b-8222-419c-94f7-2c9bc6c4b90e","ios":"levelo://app?vid=b896c28b-8222-419c-94f7-2c9bc6c4b90e"},"vehicle_type_id":"4","last_reported":1704308735,"current_range_meters":10800,"station_id":"ce4bhah2rcd13ifvqej0","pricing_plan_id":"free"},{"bike_id":"101a1ac2-9e31-49a5-ae3a-ae697a974c7c","system_id":"levelo_inurba_marseille","lat":43.286593,"lon":5.363346,"is_reserved":false,"is_disabled":false,"rental_uris":{"android":"levelo://app?vid=101a1ac2-9e31-49a5-ae3a-ae697a974c7c","ios":"levelo://app?vid=101a1ac2-9e31-49a5-ae3a-ae697a974c7c"},"vehicle_type_id":"4","last_reported":1704308735,"current_range_meters":23600,"station_id":"ce4bhah2rcd13ifvqej0","pricing_plan_id":"free"},{"bike_id":"2b9212d8-5c12-4bf3-96c9-cccc2ec9b286","system_id":"levelo_inurba_marseille","lat":43.286593,"lon":5.363346,"is_reserved":false,"is_disabled":false,"rental_uris":{"android":"levelo://app?vid=2b9212d8-5c12-4bf3-96c9-cccc2ec9b286","ios":"levelo://app?vid=2b9212d8-5c12-4bf3-96c9-cccc2ec9b286"},"vehicle_type_id":"4","last_reported":1704308735,"current_range_meters":23600,"station_id":"ce4bhah2rcd13ifvqej0","pricing_plan_id":"free"},{"bike_id":"d38121da-17a8-4f6f-966b-17745041e426","system_id":"levelo_inurba_marseille","lat":43.295196,"lon":5.39397,"is_reserved":false,"is_disabled":false,"rental_uris":{"android":"levelo://app?vid=d38121da-17a8-4f6f-966b-17745041e426","ios":"levelo://app?vid=d38121da-17a8-4f6f-966b-17745041e426"},"vehicle_type_id":"4","last_reported":1704308735,"current_range_meters":16400,"station_id":"ce4bh292rcd13ifvqdf0","pricing_plan_id":"free"},{"bike_id":"a74fb89c-afd8-40a6-9e45-afeb337cfb62","system_id":"levelo_inurba_marseille","lat":43.286593,"lon":5.363346,"is_reserved":false,"is_disabled":false,"rental_uris":{"android":"levelo://app?vid=a74fb89c-afd8-40a6-9e45-afeb337cfb62","ios":"levelo://app?vid=a74fb89c-afd8-40a6-9e45-afeb337cfb62"},"vehicle_type_id":"4","last_reported":1704308735,"current_range_meters":12000,"station_id":"ce4bhah2rcd13ifvqej0","pricing_plan_id":"free"},{"bike_id":"1f0dcbee-eb1b-4e7d-9660-30633d5155a8","system_id":"levelo_inurba_marseille","lat":43.295194,"lon":5.39397,"is_reserved":false,"is_disabled":false,"rental_uris":{"android":"levelo://app?vid=1f0dcbee-eb1b-4e7d-9660-30633d5155a8","ios":"levelo://app?vid=1f0dcbee-eb1b-4e7d-9660-30633d5155a8"},"vehicle_type_id":"4","last_reported":1704308735,"current_range_meters":0,"station_id":"ce4bh292rcd13ifvqdf0","pricing_plan_id":"free"},{"bike_id":"4e495ce6-520e-4612-8446-0c86c318675e","system_id":"levelo_inurba_marseille","lat":43.29513,"lon":5.39406,"is_reserved":false,"is_disabled":false,"rental_uris":{"android":"levelo://app?vid=4e495ce6-520e-4612-8446-0c86c318675e","ios":"levelo://app?vid=4e495ce6-520e-4612-8446-0c86c318675e"},"vehicle_type_id":"4","last_reported":1704308735,"current_range_meters":0,"station_id":"ce4bh292rcd13ifvqdf0","pricing_plan_id":"free"},{"bike_id":"41f160ee-9d8e-4960-8721-b5dc7ef09b3a","system_id":"levelo_inurba_marseille","lat":43.289307,"lon":5.38406,"is_reserved":false,"is_disabled":false,"rental_uris":{"android":"levelo://app?vid=41f160ee-9d8e-4960-8721-b5dc7ef09b3a","ios":"levelo://app?vid=41f160ee-9d8e-4960-8721-b5dc7ef09b3a"},"vehicle_type_id":"4","last_reported":1704308735,"current_range_meters":30400,"station_id":"ce4bh612rcd13ifvqe6g","pricing_plan_id":"free"},{"bike_id":"6c5cddd1-05e0-42e5-8618-756822f7fcb4","system_id":"levelo_inurba_marseille","lat":43.290345,"lon":5.38646,"is_reserved":false,"is_disabled":false,"rental_uris":{"android":"levelo://app?vid=6c5cddd1-05e0-42e5-8618-756822f7fcb4","ios":"levelo://app?vid=6c5cddd1-05e0-42e5-8618-756822f7fcb4"},"vehicle_type_id":"4","last_reported":1704308735,"current_range_meters":1600,"station_id":"ce4bh4p2rcd13ifvqe0g","pricing_plan_id":"free"},{"bike_id":"476c7065-f9e1-42b8-af46-f2bacc7597cd","system_id":"levelo_inurba_marseille","lat":43.302759,"lon":5.400793,"is_reserved":false,"is_disabled":false,"rental_uris":{"android":"levelo://app?vid=476c7065-f9e1-42b8-af46-f2bacc7597cd","ios":"levelo://app?vid=476c7065-f9e1-42b8-af46-f2bacc7597cd"},"vehicle_type_id":"4","last_reported":1704308735,"current_range_meters":29600,"station_id":"ce4bgvh2rcd13ifvqcs0","pricing_plan_id":"free"},{"bike_id":"d9b38e0d-2caa-46a3-9c01-8676640e9f06","system_id":"levelo_inurba_marseille","lat":43.286039,"lon":5.370679,"is_reserved":false,"is_disabled":false,"rental_uris":{"android":"levelo://app?vid=d9b38e0d-2caa-46a3-9c01-8676640e9f06","ios":"levelo://app?vid=d9b38e0d-2caa-46a3-9c01-8676640e9f06"},"vehicle_type_id":"4","last_reported":1704308735,"current_range_meters":16400,"station_id":"ce4bht12rcd13ifvqi60","pricing_plan_id":"free"},{"bike_id":"7886eaa6-4080-45a4-b584-10320559dd6b","system_id":"levelo_inurba_marseille","lat":43.316828,"lon":5.404723,"is_reserved":false,"is_disabled":false,"rental_uris":{"android":"levelo://app?vid=7886eaa6-4080-45a4-b584-10320559dd6b","ios":"levelo://app?vid=7886eaa6-4080-45a4-b584-10320559dd6b"},"vehicle_type_id":"4","last_reported":1704308735,"current_range_meters":25200,"station_id":"ce4bh012rcd13ifvqd00","pricing_plan_id":"free"},{"bike_id":"adea8985-e82c-4127-a01a-49ba1ee2e129","system_id":"levelo_inurba_marseille","lat":43.2999,"lon":5.40102,"is_reserved":false,"is_disabled":false,"rental_uris":{"android":"levelo://app?vid=adea8985-e82c-4127-a01a-49ba1ee2e129","ios":"levelo://app?vid=adea8985-e82c-4127-a01a-49ba1ee2e129"},"vehicle_type_id":"4","last_reported":1704308735,"current_range_meters":0,"station_id":"","pricing_plan_id":"free"},{"bike_id":"4fbd45c9-7045-4421-a97b-bf0c706479e3","system_id":"levelo_inurba_marseille","lat":43.291994,"lon":5.392907,"is_reserved":false,"is_disabled":false,"rental_uris":{"android":"levelo://app?vid=4fbd45c9-7045-4421-a97b-bf0c706479e3","ios":"levelo://app?vid=4fbd45c9-7045-4421-a97b-bf0c706479e3"},"vehicle_type_id":"4","last_reported":1704308735,"current_range_meters":21200,"station_id":"ce4bh192rcd13ifvqdd0","pricing_plan_id":"free"},{"bike_id":"66014ab3-c834-41de-9fd7-9050abfbee5a","system_id":"levelo_inurba_marseille","lat":43.291994,"lon":5.392907,"is_reserved":false,"is_disabled":false,"rental_uris":{"android":"levelo://app?vid=66014ab3-c834-41de-9fd7-9050abfbee5a","ios":"levelo://app?vid=66014ab3-c834-41de-9fd7-9050abfbee5a"},"vehicle_type_id":"4","last_reported":1704308735,"current_range_meters":24000,"station_id":"ce4bh192rcd13ifvqdd0","pricing_plan_id":"free"},{"bike_id":"433287b5-119b-45b2-aaba-c16ca0f4ce3b","system_id":"levelo_inurba_marseille","lat":43.28465,"lon":5.35888,"is_reserved":false,"is_disabled":false,"rental_uris":{"android":"levelo://app?vid=433287b5-119b-45b2-aaba-c16ca0f4ce3b","ios":"levelo://app?vid=433287b5-119b-45b2-aaba-c16ca0f4ce3b"},"vehicle_type_id":"4","last_reported":1704308735,"current_range_meters":22800,"station_id":"ce4bhah2rcd13ifvqei0","pricing_plan_id":"free"},{"bike_id":"21148d89-07ce-4f2d-b946-836e3fe295f3","system_id":"levelo_inurba_marseille","lat":43.28464,"lon":5.35885,"is_reserved":false,"is_disabled":false,"rental_uris":{"android":"levelo://app?vid=21148d89-07ce-4f2d-b946-836e3fe295f3","ios":"levelo://app?vid=21148d89-07ce-4f2d-b946-836e3fe295f3"},"vehicle_type_id":"4","last_reported":1704308735,"current_range_meters":1200,"station_id":"ce4bhah2rcd13ifvqei0","pricing_plan_id":"free"},{"bike_id":"9896b5d0-5213-459e-a581-a913d1ad644b","system_id":"levelo_inurba_marseille","lat":43.2846,"lon":5.35892,"is_reserved":false,"is_disabled":false,"rental_uris":{"android":"levelo://app?vid=9896b5d0-5213-459e-a581-a913d1ad644b","ios":"levelo://app?vid=9896b5d0-5213-459e-a581-a913d1ad644b"},"vehicle_type_id":"4","last_reported":1704308735,"current_range_meters":16800,"station_id":"ce4bhah2rcd13ifvqei0","pricing_plan_id":"free"},{"bike_id":"c9e7ba4d-c3f5-4da0-adaf-4408bb675013","system_id":"levelo_inurba_marseille","lat":43.28457,"lon":5.35897,"is_reserved":false,"is_disabled":false,"rental_uris":{"android":"levelo://app?vid=c9e7ba4d-c3f5-4da0-adaf-4408bb675013","ios":"levelo://app?vid=c9e7ba4d-c3f5-4da0-adaf-4408bb675013"},"vehicle_type_id":"4","last_reported":1704308735,"current_range_meters":15600,"station_id":"ce4bhah2rcd13ifvqei0","pricing_plan_id":"free"},{"bike_id":"19b9e84f-524a-4cc7-bf6b-c6ae6180830f","system_id":"levelo_inurba_marseille","lat":43.284534,"lon":5.358662,"is_reserved":false,"is_disabled":false,"rental_uris":{"android":"levelo://app?vid=19b9e84f-524a-4cc7-bf6b-c6ae6180830f","ios":"levelo://app?vid=19b9e84f-524a-4cc7-bf6b-c6ae6180830f"},"vehicle_type_id":"4","last_reported":1704308735,"current_range_meters":5600,"station_id":"ce4bhah2rcd13ifvqei0","pricing_plan_id":"free"},{"bike_id":"9f7113b3-1728-4c68-81ba-7d16231fba75","system_id":"levelo_inurba_marseille","lat":43.284534,"lon":5.358662,"is_reserved":false,"is_disabled":false,"rental_uris":{"android":"levelo://app?vid=9f7113b3-1728-4c68-81ba-7d16231fba75","ios":"levelo://app?vid=9f7113b3-1728-4c68-81ba-7d16231fba75"},"vehicle_type_id":"4","last_reported":1704308735,"current_range_meters":26000,"station_id":"ce4bhah2rcd13ifvqei0","pricing_plan_id":"free"},{"bike_id":"4d661c2c-3e3f-4720-b225-a79bc8d328cb","system_id":"levelo_inurba_marseille","lat":43.28447,"lon":5.35896,"is_reserved":false,"is_disabled":false,"rental_uris":{"android":"levelo://app?vid=4d661c2c-3e3f-4720-b225-a79bc8d328cb","ios":"levelo://app?vid=4d661c2c-3e3f-4720-b225-a79bc8d328cb"},"vehicle_type_id":"4","last_reported":1704308735,"current_range_meters":23600,"station_id":"ce4bhah2rcd13ifvqei0","pricing_plan_id":"free"},{"bike_id":"f5e25b60-ea27-4ab9-9928-3cdf9d972625","system_id":"levelo_inurba_marseille","lat":43.294314,"lon":5.397498,"is_reserved":false,"is_disabled":false,"rental_uris":{"android":"levelo://app?vid=f5e25b60-ea27-4ab9-9928-3cdf9d972625","ios":"levelo://app?vid=f5e25b60-ea27-4ab9-9928-3cdf9d972625"},"vehicle_type_id":"4","last_reported":1704308735,"current_range_meters":30000,"station_id":"ce4bh3h2rcd13ifvqdo0","pricing_plan_id":"free"},{"bike_id":"836ec681-ca8d-4a14-8c8b-8f940f575aa9","system_id":"levelo_inurba_marseille","lat":43.29436,"lon":5.3976,"is_reserved":false,"is_disabled":false,"rental_uris":{"android":"levelo://app?vid=836ec681-ca8d-4a14-8c8b-8f940f575aa9","ios":"levelo://app?vid=836ec681-ca8d-4a14-8c8b-8f940f575aa9"},"vehicle_type_id":"4","last_reported":1704308735,"current_range_meters":31200,"station_id":"ce4bh3h2rcd13ifvqdo0","pricing_plan_id":"free"},{"bike_id":"0a33f248-3afd-44e0-af30-8d029a1edb6f","system_id":"levelo_inurba_marseille","lat":43.285856,"lon":5.350771,"is_reserved":false,"is_disabled":false,"rental_uris":{"android":"levelo://app?vid=0a33f248-3afd-44e0-af30-8d029a1edb6f","ios":"levelo://app?vid=0a33f248-3afd-44e0-af30-8d029a1edb6f"},"vehicle_type_id":"4","last_reported":1704308735,"current_range_meters":24800,"station_id":"ce4bhch2rcd13ifvqeug","pricing_plan_id":"free"},{"bike_id":"5e1de10c-cd80-4a42-958b-83bc9f2388b2","system_id":"levelo_inurba_marseille","lat":43.285848,"lon":5.350787,"is_reserved":false,"is_disabled":false,"rental_uris":{"android":"levelo://app?vid=5e1de10c-cd80-4a42-958b-83bc9f2388b2","ios":"levelo://app?vid=5e1de10c-cd80-4a42-958b-83bc9f2388b2"},"vehicle_type_id":"4","last_reported":1704308735,"current_range_meters":10000,"station_id":"ce4bhch2rcd13ifvqeug","pricing_plan_id":"free"},{"bike_id":"1e52997c-8974-4d59-b055-8a584af829f1","system_id":"levelo_inurba_marseille","lat":43.28615,"lon":5.35105,"is_reserved":false,"is_disabled":false,"rental_uris":{"android":"levelo://app?vid=1e52997c-8974-4d59-b055-8a584af829f1","ios":"levelo://app?vid=1e52997c-8974-4d59-b055-8a584af829f1"},"vehicle_type_id":"4","last_reported":1704308735,"current_range_meters":22800,"station_id":"ce4bhch2rcd13ifvqeug","pricing_plan_id":"free"},{"bike_id":"87683641-7624-4067-a8f5-5417c315ce19","system_id":"levelo_inurba_marseille","lat":43.285848,"lon":5.350787,"is_reserved":false,"is_disabled":false,"rental_uris":{"android":"levelo://app?vid=87683641-7624-4067-a8f5-5417c315ce19","ios":"levelo://app?vid=87683641-7624-4067-a8f5-5417c315ce19"},"vehicle_type_id":"4","last_reported":1704308735,"current_range_meters":14800,"station_id":"ce4bhch2rcd13ifvqeug","pricing_plan_id":"free"},{"bike_id":"cd50297d-45fb-4eed-acac-5bbb06c99f86","system_id":"levelo_inurba_marseille","lat":43.285848,"lon":5.350787,"is_reserved":false,"is_disabled":false,"rental_uris":{"android":"levelo://app?vid=cd50297d-45fb-4eed-acac-5bbb06c99f86","ios":"levelo://app?vid=cd50297d-45fb-4eed-acac-5bbb06c99f86"},"vehicle_type_id":"4","last_reported":1704308735,"current_range_meters":15600,"station_id":"ce4bhch2rcd13ifvqeug","pricing_plan_id":"free"},{"bike_id":"e41df8c7-2972-46f1-95a6-c26e555d4a97","system_id":"levelo_inurba_marseille","lat":43.285848,"lon":5.350787,"is_reserved":false,"is_disabled":false,"rental_uris":{"android":"levelo://app?vid=e41df8c7-2972-46f1-95a6-c26e555d4a97","ios":"levelo://app?vid=e41df8c7-2972-46f1-95a6-c26e555d4a97"},"vehicle_type_id":"4","last_reported":1704308735,"current_range_meters":15600,"station_id":"ce4bhch2rcd13ifvqeug","pricing_plan_id":"free"},{"bike_id":"73d6d06e-244a-46d2-adc8-e6e586ceb96b","system_id":"levelo_inurba_marseille","lat":43.285848,"lon":5.350787,"is_reserved":false,"is_disabled":false,"rental_uris":{"android":"levelo://app?vid=73d6d06e-244a-46d2-adc8-e6e586ceb96b","ios":"levelo://app?vid=73d6d06e-244a-46d2-adc8-e6e586ceb96b"},"vehicle_type_id":"4","last_reported":1704308735,"current_range_meters":4000,"station_id":"ce4bhch2rcd13ifvqeug","pricing_plan_id":"free"},{"bike_id":"f99006df-0376-429f-ab2e-144629f2fc8b","system_id":"levelo_inurba_marseille","lat":43.283998,"lon":5.375062,"is_reserved":false,"is_disabled":false,"rental_uris":{"android":"levelo://app?vid=f99006df-0376-429f-ab2e-144629f2fc8b","ios":"levelo://app?vid=f99006df-0376-429f-ab2e-144629f2fc8b"},"vehicle_type_id":"4","last_reported":1704308735,"current_range_meters":0,"station_id":"ce4bh412rcd13ifvqds0","pricing_plan_id":"free"},{"bike_id":"c4b6a10c-ad2d-4b12-9d1a-e195297213c7","system_id":"levelo_inurba_marseille","lat":43.295713,"lon":5.399639,"is_reserved":false,"is_disabled":false,"rental_uris":{"android":"levelo://app?vid=c4b6a10c-ad2d-4b12-9d1a-e195297213c7","ios":"levelo://app?vid=c4b6a10c-ad2d-4b12-9d1a-e195297213c7"},"vehicle_type_id":"4","last_reported":1704308735,"current_range_meters":26400,"station_id":"ce4bh312rcd13ifvqdj0","pricing_plan_id":"free"},{"bike_id":"acc00585-f5f0-4ca8-84b1-60bd191e1233","system_id":"levelo_inurba_marseille","lat":43.286595,"lon":5.386795,"is_reserved":false,"is_disabled":false,"rental_uris":{"android":"levelo://app?vid=acc00585-f5f0-4ca8-84b1-60bd191e1233","ios":"levelo://app?vid=acc00585-f5f0-4ca8-84b1-60bd191e1233"},"vehicle_type_id":"4","last_reported":1704308735,"current_range_meters":30800,"station_id":"ce4bh492rcd13ifvqdug","pricing_plan_id":"free"},{"bike_id":"f5cb0c25-b286-41bb-8639-b300a1319619","system_id":"levelo_inurba_marseille","lat":43.286595,"lon":5.386795,"is_reserved":false,"is_disabled":false,"rental_uris":{"android":"levelo://app?vid=f5cb0c25-b286-41bb-8639-b300a1319619","ios":"levelo://app?vid=f5cb0c25-b286-41bb-8639-b300a1319619"},"vehicle_type_id":"4","last_reported":1704308735,"current_range_meters":6400,"station_id":"ce4bh492rcd13ifvqdug","pricing_plan_id":"free"},{"bike_id":"eec460a8-21c4-47fd-9a26-7963f5f1892d","system_id":"levelo_inurba_marseille","lat":43.284793,"lon":5.384113,"is_reserved":false,"is_disabled":false,"rental_uris":{"android":"levelo://app?vid=eec460a8-21c4-47fd-9a26-7963f5f1892d","ios":"levelo://app?vid=eec460a8-21c4-47fd-9a26-7963f5f1892d"},"vehicle_type_id":"4","last_reported":1704308735,"current_range_meters":31200,"station_id":"ce4bh512rcd13ifvqe3g","pricing_plan_id":"free"},{"bike_id":"1d5e7d8d-bde2-4934-81e8-5cb3f5c05f04","system_id":"levelo_inurba_marseille","lat":43.28472,"lon":5.38405,"is_reserved":false,"is_disabled":false,"rental_uris":{"android":"levelo://app?vid=1d5e7d8d-bde2-4934-81e8-5cb3f5c05f04","ios":"levelo://app?vid=1d5e7d8d-bde2-4934-81e8-5cb3f5c05f04"},"vehicle_type_id":"4","last_reported":1704308735,"current_range_meters":0,"station_id":"ce4bh512rcd13ifvqe3g","pricing_plan_id":"free"},{"bike_id":"108a3cb3-1fd3-4d8c-b09e-874af55549b9","system_id":"levelo_inurba_marseille","lat":43.297946,"lon":5.404063,"is_reserved":false,"is_disabled":false,"rental_uris":{"android":"levelo://app?vid=108a3cb3-1fd3-4d8c-b09e-874af55549b9","ios":"levelo://app?vid=108a3cb3-1fd3-4d8c-b09e-874af55549b9"},"vehicle_type_id":"4","last_reported":1704308735,"current_range_meters":13200,"station_id":"ce4bh112rcd13ifvqd90","pricing_plan_id":"free"},{"bike_id":"5fa7e908-4d0c-4a43-9d0b-27719adbbd30","system_id":"levelo_inurba_marseille","lat":43.29795,"lon":5.404086,"is_reserved":false,"is_disabled":false,"rental_uris":{"android":"levelo://app?vid=5fa7e908-4d0c-4a43-9d0b-27719adbbd30","ios":"levelo://app?vid=5fa7e908-4d0c-4a43-9d0b-27719adbbd30"},"vehicle_type_id":"4","last_reported":1704308735,"current_range_meters":10400,"station_id":"ce4bh112rcd13ifvqd90","pricing_plan_id":"free"},{"bike_id":"c79bbec0-5b45-4028-aa88-b3391f12681c","system_id":"levelo_inurba_marseille","lat":43.283494,"lon":5.380945,"is_reserved":false,"is_disabled":false,"rental_uris":{"android":"levelo://app?vid=c79bbec0-5b45-4028-aa88-b3391f12681c","ios":"levelo://app?vid=c79bbec0-5b45-4028-aa88-b3391f12681c"},"vehicle_type_id":"4","last_reported":1704308735,"current_range_meters":1600,"station_id":"ce4bh412rcd13ifvqdr0","pricing_plan_id":"free"},{"bike_id":"a98304e0-e3a2-4748-90c0-981767c54353","system_id":"levelo_inurba_marseille","lat":43.283494,"lon":5.380945,"is_reserved":false,"is_disabled":false,"rental_uris":{"android":"levelo://app?vid=a98304e0-e3a2-4748-90c0-981767c54353","ios":"levelo://app?vid=a98304e0-e3a2-4748-90c0-981767c54353"},"vehicle_type_id":"4","last_reported":1704308735,"current_range_meters":31600,"station_id":"ce4bh412rcd13ifvqdr0","pricing_plan_id":"free"},{"bike_id":"66b4292d-dc98-46df-9b21-8af588de8586","system_id":"levelo_inurba_marseille","lat":43.283498,"lon":5.380948,"is_reserved":false,"is_disabled":false,"rental_uris":{"android":"levelo://app?vid=66b4292d-dc98-46df-9b21-8af588de8586","ios":"levelo://app?vid=66b4292d-dc98-46df-9b21-8af588de8586"},"vehicle_type_id":"4","last_reported":1704308735,"current_range_meters":5600,"station_id":"ce4bh412rcd13ifvqdr0","pricing_plan_id":"free"},{"bike_id":"cfef0251-c388-430f-9f9f-8eda80137627","system_id":"levelo_inurba_marseille","lat":43.283498,"lon":5.380948,"is_reserved":false,"is_disabled":false,"rental_uris":{"android":"levelo://app?vid=cfef0251-c388-430f-9f9f-8eda80137627","ios":"levelo://app?vid=cfef0251-c388-430f-9f9f-8eda80137627"},"vehicle_type_id":"4","last_reported":1704308735,"current_range_meters":6000,"station_id":"ce4bh412rcd13ifvqdr0","pricing_plan_id":"free"},{"bike_id":"4cc32faf-c266-4535-bdff-c42098dbefc9","system_id":"levelo_inurba_marseille","lat":43.321455,"lon":5.407922,"is_reserved":false,"is_disabled":false,"rental_uris":{"android":"levelo://app?vid=4cc32faf-c266-4535-bdff-c42098dbefc9","ios":"levelo://app?vid=4cc32faf-c266-4535-bdff-c42098dbefc9"},"vehicle_type_id":"4","last_reported":1704308735,"current_range_meters":18800,"station_id":"","pricing_plan_id":"free"},{"bike_id":"6dec6b5f-e11d-4ba0-9551-b0421749019a","system_id":"levelo_inurba_marseille","lat":43.283498,"lon":5.380948,"is_reserved":false,"is_disabled":false,"rental_uris":{"android":"levelo://app?vid=6dec6b5f-e11d-4ba0-9551-b0421749019a","ios":"levelo://app?vid=6dec6b5f-e11d-4ba0-9551-b0421749019a"},"vehicle_type_id":"4","last_reported":1704308735,"current_range_meters":14800,"station_id":"ce4bh412rcd13ifvqdr0","pricing_plan_id":"free"},{"bike_id":"9d49eb9e-6e7f-44e2-935d-39807e18497f","system_id":"levelo_inurba_marseille","lat":43.292724,"lon":5.401131,"is_reserved":false,"is_disabled":false,"rental_uris":{"android":"levelo://app?vid=9d49eb9e-6e7f-44e2-935d-39807e18497f","ios":"levelo://app?vid=9d49eb9e-6e7f-44e2-935d-39807e18497f"},"vehicle_type_id":"4","last_reported":1704308735,"current_range_meters":28000,"station_id":"ce4bh312rcd13ifvqdk0","pricing_plan_id":"free"},{"bike_id":"20004556-0887-4fdf-9eae-029b2009dac5","system_id":"levelo_inurba_marseille","lat":43.282744,"lon":5.350533,"is_reserved":false,"is_disabled":false,"rental_uris":{"android":"levelo://app?vid=20004556-0887-4fdf-9eae-029b2009dac5","ios":"levelo://app?vid=20004556-0887-4fdf-9eae-029b2009dac5"},"vehicle_type_id":"4","last_reported":1704308735,"current_range_meters":19200,"station_id":"ce4bhbp2rcd13ifvqerg","pricing_plan_id":"free"},{"bike_id":"b4304143-a21f-4cfe-b2a2-5c2bb5bb69d2","system_id":"levelo_inurba_marseille","lat":43.282744,"lon":5.350533,"is_reserved":false,"is_disabled":false,"rental_uris":{"android":"levelo://app?vid=b4304143-a21f-4cfe-b2a2-5c2bb5bb69d2","ios":"levelo://app?vid=b4304143-a21f-4cfe-b2a2-5c2bb5bb69d2"},"vehicle_type_id":"4","last_reported":1704308735,"current_range_meters":22400,"station_id":"ce4bhbp2rcd13ifvqerg","pricing_plan_id":"free"},{"bike_id":"79837741-56a5-43d5-82bd-fc00e6332b2a","system_id":"levelo_inurba_marseille","lat":43.282744,"lon":5.350533,"is_reserved":false,"is_disabled":false,"rental_uris":{"android":"levelo://app?vid=79837741-56a5-43d5-82bd-fc00e6332b2a","ios":"levelo://app?vid=79837741-56a5-43d5-82bd-fc00e6332b2a"},"vehicle_type_id":"4","last_reported":1704308735,"current_range_meters":12800,"station_id":"ce4bhbp2rcd13ifvqerg","pricing_plan_id":"free"},{"bike_id":"25b380da-505b-4db3-be4f-b23395e8f1ee","system_id":"levelo_inurba_marseille","lat":43.282754,"lon":5.350519,"is_reserved":false,"is_disabled":false,"rental_uris":{"android":"levelo://app?vid=25b380da-505b-4db3-be4f-b23395e8f1ee","ios":"levelo://app?vid=25b380da-505b-4db3-be4f-b23395e8f1ee"},"vehicle_type_id":"4","last_reported":1704308735,"current_range_meters":11600,"station_id":"ce4bhbp2rcd13ifvqerg","pricing_plan_id":"free"},{"bike_id":"35ff1647-a820-4cae-b68f-04ab6aa16600","system_id":"levelo_inurba_marseille","lat":43.282744,"lon":5.350533,"is_reserved":false,"is_disabled":false,"rental_uris":{"android":"levelo://app?vid=35ff1647-a820-4cae-b68f-04ab6aa16600","ios":"levelo://app?vid=35ff1647-a820-4cae-b68f-04ab6aa16600"},"vehicle_type_id":"4","last_reported":1704308735,"current_range_meters":19200,"station_id":"ce4bhbp2rcd13ifvqerg","pricing_plan_id":"free"},{"bike_id":"c955f64c-c35d-4ac4-af5c-5bcaf7e8ddbb","system_id":"levelo_inurba_marseille","lat":43.282744,"lon":5.350533,"is_reserved":false,"is_disabled":false,"rental_uris":{"android":"levelo://app?vid=c955f64c-c35d-4ac4-af5c-5bcaf7e8ddbb","ios":"levelo://app?vid=c955f64c-c35d-4ac4-af5c-5bcaf7e8ddbb"},"vehicle_type_id":"4","last_reported":1704308735,"current_range_meters":6000,"station_id":"ce4bhbp2rcd13ifvqerg","pricing_plan_id":"free"},{"bike_id":"b0d71ed9-2e4a-4896-80b1-f614c14a0d2d","system_id":"levelo_inurba_marseille","lat":43.28039,"lon":5.369297,"is_reserved":false,"is_disabled":false,"rental_uris":{"android":"levelo://app?vid=b0d71ed9-2e4a-4896-80b1-f614c14a0d2d","ios":"levelo://app?vid=b0d71ed9-2e4a-4896-80b1-f614c14a0d2d"},"vehicle_type_id":"4","last_reported":1704308735,"current_range_meters":16400,"station_id":"ce4bha12rcd13ifvqef0","pricing_plan_id":"free"},{"bike_id":"0b9dc9ef-dc6d-4dbd-93ff-0c71ad3307c9","system_id":"levelo_inurba_marseille","lat":43.281044,"lon":5.378308,"is_reserved":false,"is_disabled":false,"rental_uris":{"android":"levelo://app?vid=0b9dc9ef-dc6d-4dbd-93ff-0c71ad3307c9","ios":"levelo://app?vid=0b9dc9ef-dc6d-4dbd-93ff-0c71ad3307c9"},"vehicle_type_id":"4","last_reported":1704308735,"current_range_meters":19600,"station_id":"ce4bha12rcd13ifvqee0","pricing_plan_id":"free"},{"bike_id":"18632d31-3e4c-4088-ab2e-8444973ca7f0","system_id":"levelo_inurba_marseille","lat":43.281044,"lon":5.378308,"is_reserved":false,"is_disabled":false,"rental_uris":{"android":"levelo://app?vid=18632d31-3e4c-4088-ab2e-8444973ca7f0","ios":"levelo://app?vid=18632d31-3e4c-4088-ab2e-8444973ca7f0"},"vehicle_type_id":"4","last_reported":1704308735,"current_range_meters":14000,"station_id":"ce4bha12rcd13ifvqee0","pricing_plan_id":"free"},{"bike_id":"507cc011-b0f1-407e-a4ca-21f10d36b9b3","system_id":"levelo_inurba_marseille","lat":43.281044,"lon":5.378308,"is_reserved":false,"is_disabled":false,"rental_uris":{"android":"levelo://app?vid=507cc011-b0f1-407e-a4ca-21f10d36b9b3","ios":"levelo://app?vid=507cc011-b0f1-407e-a4ca-21f10d36b9b3"},"vehicle_type_id":"4","last_reported":1704308735,"current_range_meters":13600,"station_id":"ce4bha12rcd13ifvqee0","pricing_plan_id":"free"},{"bike_id":"338e8182-5338-443c-8d3e-44225ddbf0ff","system_id":"levelo_inurba_marseille","lat":43.304188,"lon":5.412904,"is_reserved":false,"is_disabled":false,"rental_uris":{"android":"levelo://app?vid=338e8182-5338-443c-8d3e-44225ddbf0ff","ios":"levelo://app?vid=338e8182-5338-443c-8d3e-44225ddbf0ff"},"vehicle_type_id":"4","last_reported":1704308735,"current_range_meters":21200,"station_id":"ce4bhop2rcd13ifvqh8g","pricing_plan_id":"free"},{"bike_id":"8b32f731-9a8c-4c2b-9a2a-8108ef4979e2","system_id":"levelo_inurba_marseille","lat":43.304188,"lon":5.412904,"is_reserved":false,"is_disabled":false,"rental_uris":{"android":"levelo://app?vid=8b32f731-9a8c-4c2b-9a2a-8108ef4979e2","ios":"levelo://app?vid=8b32f731-9a8c-4c2b-9a2a-8108ef4979e2"},"vehicle_type_id":"4","last_reported":1704308735,"current_range_meters":30400,"station_id":"ce4bhop2rcd13ifvqh8g","pricing_plan_id":"free"},{"bike_id":"7001f7b2-08bc-4b89-826e-286daa0f7ff4","system_id":"levelo_inurba_marseille","lat":43.304188,"lon":5.412904,"is_reserved":false,"is_disabled":false,"rental_uris":{"android":"levelo://app?vid=7001f7b2-08bc-4b89-826e-286daa0f7ff4","ios":"levelo://app?vid=7001f7b2-08bc-4b89-826e-286daa0f7ff4"},"vehicle_type_id":"4","last_reported":1704308735,"current_range_meters":21200,"station_id":"ce4bhop2rcd13ifvqh8g","pricing_plan_id":"free"},{"bike_id":"58da5a3e-3b8a-4228-bba6-0d3ba2f719d5","system_id":"levelo_inurba_marseille","lat":43.28573,"lon":5.394992,"is_reserved":false,"is_disabled":false,"rental_uris":{"android":"levelo://app?vid=58da5a3e-3b8a-4228-bba6-0d3ba2f719d5","ios":"levelo://app?vid=58da5a3e-3b8a-4228-bba6-0d3ba2f719d5"},"vehicle_type_id":"4","last_reported":1704308735,"current_range_meters":13200,"station_id":"ce4bh292rcd13ifvqdg0","pricing_plan_id":"free"},{"bike_id":"f6fa35e6-5bd2-45f8-82c1-1f19c9bd5a57","system_id":"levelo_inurba_marseille","lat":43.287154,"lon":5.399979,"is_reserved":false,"is_disabled":false,"rental_uris":{"android":"levelo://app?vid=f6fa35e6-5bd2-45f8-82c1-1f19c9bd5a57","ios":"levelo://app?vid=f6fa35e6-5bd2-45f8-82c1-1f19c9bd5a57"},"vehicle_type_id":"4","last_reported":1704308735,"current_range_meters":10000,"station_id":"ce4bho92rcd13ifvqh3g","pricing_plan_id":"free"},{"bike_id":"6cfb8d10-a4ba-473c-8182-5b4961f48d1a","system_id":"levelo_inurba_marseille","lat":43.28698,"lon":5.39984,"is_reserved":false,"is_disabled":false,"rental_uris":{"android":"levelo://app?vid=6cfb8d10-a4ba-473c-8182-5b4961f48d1a","ios":"levelo://app?vid=6cfb8d10-a4ba-473c-8182-5b4961f48d1a"},"vehicle_type_id":"4","last_reported":1704308735,"current_range_meters":14400,"station_id":"ce4bho92rcd13ifvqh3g","pricing_plan_id":"free"},{"bike_id":"63c74dd7-8350-4537-b230-7b61f66c99c5","system_id":"levelo_inurba_marseille","lat":43.326605,"lon":5.409903,"is_reserved":false,"is_disabled":false,"rental_uris":{"android":"levelo://app?vid=63c74dd7-8350-4537-b230-7b61f66c99c5","ios":"levelo://app?vid=63c74dd7-8350-4537-b230-7b61f66c99c5"},"vehicle_type_id":"4","last_reported":1704308735,"current_range_meters":20800,"station_id":"ce4bhpp2rcd13ifvqhgg","pricing_plan_id":"free"},{"bike_id":"1d7d0b44-395f-4e21-af9d-8af1ed86a5aa","system_id":"levelo_inurba_marseille","lat":43.299579,"lon":5.413255,"is_reserved":false,"is_disabled":false,"rental_uris":{"android":"levelo://app?vid=1d7d0b44-395f-4e21-af9d-8af1ed86a5aa","ios":"levelo://app?vid=1d7d0b44-395f-4e21-af9d-8af1ed86a5aa"},"vehicle_type_id":"4","last_reported":1704308735,"current_range_meters":26400,"station_id":"ce4bhp12rcd13ifvqh9g","pricing_plan_id":"free"},{"bike_id":"99b971ef-24e7-4418-a422-06f2333f702f","system_id":"levelo_inurba_marseille","lat":43.320574,"lon":5.415417,"is_reserved":false,"is_disabled":false,"rental_uris":{"android":"levelo://app?vid=99b971ef-24e7-4418-a422-06f2333f702f","ios":"levelo://app?vid=99b971ef-24e7-4418-a422-06f2333f702f"},"vehicle_type_id":"4","last_reported":1704308735,"current_range_meters":22000,"station_id":"ce4bhq92rcd13ifvqhkg","pricing_plan_id":"free"},{"bike_id":"fa72c58f-2db4-4f60-8912-244e3fb19e05","system_id":"levelo_inurba_marseille","lat":43.3205,"lon":5.415493,"is_reserved":false,"is_disabled":false,"rental_uris":{"android":"levelo://app?vid=fa72c58f-2db4-4f60-8912-244e3fb19e05","ios":"levelo://app?vid=fa72c58f-2db4-4f60-8912-244e3fb19e05"},"vehicle_type_id":"4","last_reported":1704308735,"current_range_meters":19200,"station_id":"ce4bhq92rcd13ifvqhkg","pricing_plan_id":"free"},{"bike_id":"80699dff-d2c3-4a46-a800-fe16199edb74","system_id":"levelo_inurba_marseille","lat":43.292571,"lon":5.409107,"is_reserved":false,"is_disabled":false,"rental_uris":{"android":"levelo://app?vid=80699dff-d2c3-4a46-a800-fe16199edb74","ios":"levelo://app?vid=80699dff-d2c3-4a46-a800-fe16199edb74"},"vehicle_type_id":"4","last_reported":1704308735,"current_range_meters":17600,"station_id":"ce4bh192rcd13ifvqdc0","pricing_plan_id":"free"},{"bike_id":"d3f25bcc-da64-44bb-8495-bf854b2f447f","system_id":"levelo_inurba_marseille","lat":43.325243,"lon":5.414326,"is_reserved":false,"is_disabled":false,"rental_uris":{"android":"levelo://app?vid=d3f25bcc-da64-44bb-8495-bf854b2f447f","ios":"levelo://app?vid=d3f25bcc-da64-44bb-8495-bf854b2f447f"},"vehicle_type_id":"4","last_reported":1704308735,"current_range_meters":11200,"station_id":"ce4bhq12rcd13ifvqhhg","pricing_plan_id":"free"},{"bike_id":"4c7f4829-27bf-44ad-b4ff-99eba7fde8b1","system_id":"levelo_inurba_marseille","lat":43.292569,"lon":5.409107,"is_reserved":false,"is_disabled":false,"rental_uris":{"android":"levelo://app?vid=4c7f4829-27bf-44ad-b4ff-99eba7fde8b1","ios":"levelo://app?vid=4c7f4829-27bf-44ad-b4ff-99eba7fde8b1"},"vehicle_type_id":"4","last_reported":1704308735,"current_range_meters":26400,"station_id":"ce4bh192rcd13ifvqdc0","pricing_plan_id":"free"},{"bike_id":"878989f4-64e5-45eb-97fd-e2c865789826","system_id":"levelo_inurba_marseille","lat":43.280784,"lon":5.396622,"is_reserved":false,"is_disabled":false,"rental_uris":{"android":"levelo://app?vid=878989f4-64e5-45eb-97fd-e2c865789826","ios":"levelo://app?vid=878989f4-64e5-45eb-97fd-e2c865789826"},"vehicle_type_id":"4","last_reported":1704308735,"current_range_meters":26000,"station_id":"ce4bho12rcd13ifvqh2g","pricing_plan_id":"free"},{"bike_id":"cce89fc2-8980-4e8a-91b4-3d474529ae07","system_id":"levelo_inurba_marseille","lat":43.280784,"lon":5.396622,"is_reserved":false,"is_disabled":false,"rental_uris":{"android":"levelo://app?vid=cce89fc2-8980-4e8a-91b4-3d474529ae07","ios":"levelo://app?vid=cce89fc2-8980-4e8a-91b4-3d474529ae07"},"vehicle_type_id":"4","last_reported":1704308735,"current_range_meters":17200,"station_id":"ce4bho12rcd13ifvqh2g","pricing_plan_id":"free"},{"bike_id":"c4600377-8e04-45b6-9db9-0c83242bb074","system_id":"levelo_inurba_marseille","lat":43.278401,"lon":5.392152,"is_reserved":false,"is_disabled":false,"rental_uris":{"android":"levelo://app?vid=c4600377-8e04-45b6-9db9-0c83242bb074","ios":"levelo://app?vid=c4600377-8e04-45b6-9db9-0c83242bb074"},"vehicle_type_id":"4","last_reported":1704308735,"current_range_meters":4400,"station_id":"ce4bhjp2rcd13ifvqga0","pricing_plan_id":"free"},{"bike_id":"00bfeec9-00d2-4d5a-93a5-d874b3d9fb0a","system_id":"levelo_inurba_marseille","lat":43.278399,"lon":5.392139,"is_reserved":false,"is_disabled":false,"rental_uris":{"android":"levelo://app?vid=00bfeec9-00d2-4d5a-93a5-d874b3d9fb0a","ios":"levelo://app?vid=00bfeec9-00d2-4d5a-93a5-d874b3d9fb0a"},"vehicle_type_id":"4","last_reported":1704308735,"current_range_meters":15600,"station_id":"ce4bhjp2rcd13ifvqga0","pricing_plan_id":"free"},{"bike_id":"bb8179dc-0581-476a-a8fd-3b4d7341c0f3","system_id":"levelo_inurba_marseille","lat":43.276769,"lon":5.388787,"is_reserved":false,"is_disabled":false,"rental_uris":{"android":"levelo://app?vid=bb8179dc-0581-476a-a8fd-3b4d7341c0f3","ios":"levelo://app?vid=bb8179dc-0581-476a-a8fd-3b4d7341c0f3"},"vehicle_type_id":"4","last_reported":1704308735,"current_range_meters":4800,"station_id":"ce4bhi12rcd13ifvqfo0","pricing_plan_id":"free"},{"bike_id":"f032b453-a126-41e0-a88f-645784b8569b","system_id":"levelo_inurba_marseille","lat":43.276771,"lon":5.388799,"is_reserved":false,"is_disabled":false,"rental_uris":{"android":"levelo://app?vid=f032b453-a126-41e0-a88f-645784b8569b","ios":"levelo://app?vid=f032b453-a126-41e0-a88f-645784b8569b"},"vehicle_type_id":"4","last_reported":1704308735,"current_range_meters":17200,"station_id":"ce4bhi12rcd13ifvqfo0","pricing_plan_id":"free"},{"bike_id":"decdad25-c5e5-417b-b63a-9987ac36e603","system_id":"levelo_inurba_marseille","lat":43.276769,"lon":5.388787,"is_reserved":false,"is_disabled":false,"rental_uris":{"android":"levelo://app?vid=decdad25-c5e5-417b-b63a-9987ac36e603","ios":"levelo://app?vid=decdad25-c5e5-417b-b63a-9987ac36e603"},"vehicle_type_id":"4","last_reported":1704308735,"current_range_meters":5600,"station_id":"ce4bhi12rcd13ifvqfo0","pricing_plan_id":"free"},{"bike_id":"fb9f3fee-8a96-4d86-bfd6-caed95c25143","system_id":"levelo_inurba_marseille","lat":43.279975,"lon":5.40009,"is_reserved":false,"is_disabled":false,"rental_uris":{"android":"levelo://app?vid=fb9f3fee-8a96-4d86-bfd6-caed95c25143","ios":"levelo://app?vid=fb9f3fee-8a96-4d86-bfd6-caed95c25143"},"vehicle_type_id":"4","last_reported":1704308735,"current_range_meters":24800,"station_id":"ce4bho92rcd13ifvqh4g","pricing_plan_id":"free"},{"bike_id":"4cd6c5e9-b385-4fe7-8022-3b52bb9e1d40","system_id":"levelo_inurba_marseille","lat":43.317121,"lon":5.423936,"is_reserved":false,"is_disabled":false,"rental_uris":{"android":"levelo://app?vid=4cd6c5e9-b385-4fe7-8022-3b52bb9e1d40","ios":"levelo://app?vid=4cd6c5e9-b385-4fe7-8022-3b52bb9e1d40"},"vehicle_type_id":"4","last_reported":1704308735,"current_range_meters":15200,"station_id":"ce4bhp92rcd13ifvqhbg","pricing_plan_id":"free"},{"bike_id":"dba161a3-eca7-47af-a2d7-c8f705dd51be","system_id":"levelo_inurba_marseille","lat":43.317121,"lon":5.423936,"is_reserved":false,"is_disabled":false,"rental_uris":{"android":"levelo://app?vid=dba161a3-eca7-47af-a2d7-c8f705dd51be","ios":"levelo://app?vid=dba161a3-eca7-47af-a2d7-c8f705dd51be"},"vehicle_type_id":"4","last_reported":1704308735,"current_range_meters":13200,"station_id":"ce4bhp92rcd13ifvqhbg","pricing_plan_id":"free"},{"bike_id":"5e3452d0-bbc8-463b-8852-ec98e809d5a0","system_id":"levelo_inurba_marseille","lat":43.317121,"lon":5.423936,"is_reserved":false,"is_disabled":false,"rental_uris":{"android":"levelo://app?vid=5e3452d0-bbc8-463b-8852-ec98e809d5a0","ios":"levelo://app?vid=5e3452d0-bbc8-463b-8852-ec98e809d5a0"},"vehicle_type_id":"4","last_reported":1704308735,"current_range_meters":31600,"station_id":"ce4bhp92rcd13ifvqhbg","pricing_plan_id":"free"},{"bike_id":"d77951a7-3cab-4a7a-920c-f716d44755f3","system_id":"levelo_inurba_marseille","lat":43.317121,"lon":5.423936,"is_reserved":false,"is_disabled":false,"rental_uris":{"android":"levelo://app?vid=d77951a7-3cab-4a7a-920c-f716d44755f3","ios":"levelo://app?vid=d77951a7-3cab-4a7a-920c-f716d44755f3"},"vehicle_type_id":"4","last_reported":1704308735,"current_range_meters":20000,"station_id":"ce4bhp92rcd13ifvqhbg","pricing_plan_id":"free"},{"bike_id":"1f916b87-738b-4fd1-b28f-f51e1b86e62d","system_id":"levelo_inurba_marseille","lat":43.310785,"lon":5.424305,"is_reserved":false,"is_disabled":false,"rental_uris":{"android":"levelo://app?vid=1f916b87-738b-4fd1-b28f-f51e1b86e62d","ios":"levelo://app?vid=1f916b87-738b-4fd1-b28f-f51e1b86e62d"},"vehicle_type_id":"4","last_reported":1704308735,"current_range_meters":10800,"station_id":"ce4bhp92rcd13ifvqhag","pricing_plan_id":"free"},{"bike_id":"3ccc7627-3510-4aee-adc7-d3dfdc036c84","system_id":"levelo_inurba_marseille","lat":43.273125,"lon":5.390731,"is_reserved":false,"is_disabled":false,"rental_uris":{"android":"levelo://app?vid=3ccc7627-3510-4aee-adc7-d3dfdc036c84","ios":"levelo://app?vid=3ccc7627-3510-4aee-adc7-d3dfdc036c84"},"vehicle_type_id":"4","last_reported":1704308735,"current_range_meters":28400,"station_id":"ce4bhgp2rcd13ifvqfe0","pricing_plan_id":"free"},{"bike_id":"4fa8ba46-bead-4444-9f16-4dad77e36988","system_id":"levelo_inurba_marseille","lat":43.255756,"lon":5.382303,"is_reserved":false,"is_disabled":false,"rental_uris":{"android":"levelo://app?vid=4fa8ba46-bead-4444-9f16-4dad77e36988","ios":"levelo://app?vid=4fa8ba46-bead-4444-9f16-4dad77e36988"},"vehicle_type_id":"4","last_reported":1704308735,"current_range_meters":19600,"station_id":"ce4bhih2rcd13ifvqfs0","pricing_plan_id":"free"},{"bike_id":"10ed3795-bfe5-4b86-be82-ee832a4fc7df","system_id":"levelo_inurba_marseille","lat":43.304096,"lon":5.425385,"is_reserved":false,"is_disabled":false,"rental_uris":{"android":"levelo://app?vid=10ed3795-bfe5-4b86-be82-ee832a4fc7df","ios":"levelo://app?vid=10ed3795-bfe5-4b86-be82-ee832a4fc7df"},"vehicle_type_id":"4","last_reported":1704308735,"current_range_meters":0,"station_id":"ce4bhoh2rcd13ifvqh6g","pricing_plan_id":"free"},{"bike_id":"d6c8a0e9-7468-400f-b7cd-5ed6e9b0ecb7","system_id":"levelo_inurba_marseille","lat":43.278128,"lon":5.407195,"is_reserved":false,"is_disabled":false,"rental_uris":{"android":"levelo://app?vid=d6c8a0e9-7468-400f-b7cd-5ed6e9b0ecb7","ios":"levelo://app?vid=d6c8a0e9-7468-400f-b7cd-5ed6e9b0ecb7"},"vehicle_type_id":"4","last_reported":1704308735,"current_range_meters":8800,"station_id":"ce4bhnh2rcd13ifvqgtg","pricing_plan_id":"free"},{"bike_id":"6348ed36-f802-4357-8171-61e58d677782","system_id":"levelo_inurba_marseille","lat":43.278128,"lon":5.407195,"is_reserved":false,"is_disabled":false,"rental_uris":{"android":"levelo://app?vid=6348ed36-f802-4357-8171-61e58d677782","ios":"levelo://app?vid=6348ed36-f802-4357-8171-61e58d677782"},"vehicle_type_id":"4","last_reported":1704308735,"current_range_meters":8400,"station_id":"ce4bhnh2rcd13ifvqgtg","pricing_plan_id":"free"},{"bike_id":"5f1de015-53a8-48b6-bfee-be00f696d103","system_id":"levelo_inurba_marseille","lat":43.278128,"lon":5.407195,"is_reserved":false,"is_disabled":false,"rental_uris":{"android":"levelo://app?vid=5f1de015-53a8-48b6-bfee-be00f696d103","ios":"levelo://app?vid=5f1de015-53a8-48b6-bfee-be00f696d103"},"vehicle_type_id":"4","last_reported":1704308735,"current_range_meters":31600,"station_id":"ce4bhnh2rcd13ifvqgtg","pricing_plan_id":"free"},{"bike_id":"2a6c14ff-a84b-4588-a107-5fb0582375fd","system_id":"levelo_inurba_marseille","lat":43.278128,"lon":5.407195,"is_reserved":false,"is_disabled":false,"rental_uris":{"android":"levelo://app?vid=2a6c14ff-a84b-4588-a107-5fb0582375fd","ios":"levelo://app?vid=2a6c14ff-a84b-4588-a107-5fb0582375fd"},"vehicle_type_id":"4","last_reported":1704308735,"current_range_meters":17200,"station_id":"ce4bhnh2rcd13ifvqgtg","pricing_plan_id":"free"},{"bike_id":"37adf14d-cd86-4653-9a94-c4783c422d19","system_id":"levelo_inurba_marseille","lat":43.278128,"lon":5.407195,"is_reserved":false,"is_disabled":false,"rental_uris":{"android":"levelo://app?vid=37adf14d-cd86-4653-9a94-c4783c422d19","ios":"levelo://app?vid=37adf14d-cd86-4653-9a94-c4783c422d19"},"vehicle_type_id":"4","last_reported":1704308735,"current_range_meters":13600,"station_id":"ce4bhnh2rcd13ifvqgtg","pricing_plan_id":"free"},{"bike_id":"941565ec-3eed-4b9e-82c7-6daefa309912","system_id":"levelo_inurba_marseille","lat":43.278128,"lon":5.407195,"is_reserved":false,"is_disabled":false,"rental_uris":{"android":"levelo://app?vid=941565ec-3eed-4b9e-82c7-6daefa309912","ios":"levelo://app?vid=941565ec-3eed-4b9e-82c7-6daefa309912"},"vehicle_type_id":"4","last_reported":1704308735,"current_range_meters":19600,"station_id":"ce4bhnh2rcd13ifvqgtg","pricing_plan_id":"free"},{"bike_id":"20654629-b5ee-4e98-8864-50d0d2be908b","system_id":"levelo_inurba_marseille","lat":43.278128,"lon":5.407195,"is_reserved":false,"is_disabled":false,"rental_uris":{"android":"levelo://app?vid=20654629-b5ee-4e98-8864-50d0d2be908b","ios":"levelo://app?vid=20654629-b5ee-4e98-8864-50d0d2be908b"},"vehicle_type_id":"4","last_reported":1704308735,"current_range_meters":26800,"station_id":"ce4bhnh2rcd13ifvqgtg","pricing_plan_id":"free"},{"bike_id":"6e494b33-6e84-4cf9-a396-54ddf33d9caf","system_id":"levelo_inurba_marseille","lat":43.269467,"lon":5.386439,"is_reserved":false,"is_disabled":false,"rental_uris":{"android":"levelo://app?vid=6e494b33-6e84-4cf9-a396-54ddf33d9caf","ios":"levelo://app?vid=6e494b33-6e84-4cf9-a396-54ddf33d9caf"},"vehicle_type_id":"4","last_reported":1704308735,"current_range_meters":6800,"station_id":"ce4bhh92rcd13ifvqfh0","pricing_plan_id":"free"},{"bike_id":"f7655d05-a37a-4bf1-a7c7-0fcfd1e8693a","system_id":"levelo_inurba_marseille","lat":43.279465,"lon":5.410561,"is_reserved":false,"is_disabled":false,"rental_uris":{"android":"levelo://app?vid=f7655d05-a37a-4bf1-a7c7-0fcfd1e8693a","ios":"levelo://app?vid=f7655d05-a37a-4bf1-a7c7-0fcfd1e8693a"},"vehicle_type_id":"4","last_reported":1704308735,"current_range_meters":26800,"station_id":"ce4bhnp2rcd13ifvqh0g","pricing_plan_id":"free"},{"bike_id":"9020eb81-0cfa-496e-997b-828e12c88940","system_id":"levelo_inurba_marseille","lat":43.279465,"lon":5.410561,"is_reserved":false,"is_disabled":false,"rental_uris":{"android":"levelo://app?vid=9020eb81-0cfa-496e-997b-828e12c88940","ios":"levelo://app?vid=9020eb81-0cfa-496e-997b-828e12c88940"},"vehicle_type_id":"4","last_reported":1704308735,"current_range_meters":11600,"station_id":"ce4bhnp2rcd13ifvqh0g","pricing_plan_id":"free"},{"bike_id":"210ddfc2-7407-4b48-990c-1b5819a2aac0","system_id":"levelo_inurba_marseille","lat":43.279465,"lon":5.410561,"is_reserved":false,"is_disabled":false,"rental_uris":{"android":"levelo://app?vid=210ddfc2-7407-4b48-990c-1b5819a2aac0","ios":"levelo://app?vid=210ddfc2-7407-4b48-990c-1b5819a2aac0"},"vehicle_type_id":"4","last_reported":1704308735,"current_range_meters":23200,"station_id":"ce4bhnp2rcd13ifvqh0g","pricing_plan_id":"free"},{"bike_id":"cf9d2edc-5cf9-431a-8796-d17111e69b6a","system_id":"levelo_inurba_marseille","lat":43.279465,"lon":5.410561,"is_reserved":false,"is_disabled":false,"rental_uris":{"android":"levelo://app?vid=cf9d2edc-5cf9-431a-8796-d17111e69b6a","ios":"levelo://app?vid=cf9d2edc-5cf9-431a-8796-d17111e69b6a"},"vehicle_type_id":"4","last_reported":1704308735,"current_range_meters":0,"station_id":"ce4bhnp2rcd13ifvqh0g","pricing_plan_id":"free"},{"bike_id":"ab3ab1bc-0676-4392-aa76-6d79e76a20ec","system_id":"levelo_inurba_marseille","lat":43.26557,"lon":5.37283,"is_reserved":false,"is_disabled":false,"rental_uris":{"android":"levelo://app?vid=ab3ab1bc-0676-4392-aa76-6d79e76a20ec","ios":"levelo://app?vid=ab3ab1bc-0676-4392-aa76-6d79e76a20ec"},"vehicle_type_id":"4","last_reported":1704308735,"current_range_meters":21200,"station_id":"ce4bhg12rcd13ifvqf70","pricing_plan_id":"free"},{"bike_id":"6c513ecc-9a8e-48b2-af7f-e7dab82994d5","system_id":"levelo_inurba_marseille","lat":43.27996,"lon":5.416624,"is_reserved":false,"is_disabled":false,"rental_uris":{"android":"levelo://app?vid=6c513ecc-9a8e-48b2-af7f-e7dab82994d5","ios":"levelo://app?vid=6c513ecc-9a8e-48b2-af7f-e7dab82994d5"},"vehicle_type_id":"4","last_reported":1704308735,"current_range_meters":28800,"station_id":"ce4bho12rcd13ifvqh1g","pricing_plan_id":"free"},{"bike_id":"08f6d959-b843-48eb-89c9-792a5d79e0d1","system_id":"levelo_inurba_marseille","lat":43.27996,"lon":5.416624,"is_reserved":false,"is_disabled":false,"rental_uris":{"android":"levelo://app?vid=08f6d959-b843-48eb-89c9-792a5d79e0d1","ios":"levelo://app?vid=08f6d959-b843-48eb-89c9-792a5d79e0d1"},"vehicle_type_id":"4","last_reported":1704308735,"current_range_meters":10400,"station_id":"ce4bho12rcd13ifvqh1g","pricing_plan_id":"free"},{"bike_id":"b3cdbdcb-1b9e-431f-ba71-e522bc691e30","system_id":"levelo_inurba_marseille","lat":43.267878,"lon":5.394165,"is_reserved":false,"is_disabled":false,"rental_uris":{"android":"levelo://app?vid=b3cdbdcb-1b9e-431f-ba71-e522bc691e30","ios":"levelo://app?vid=b3cdbdcb-1b9e-431f-ba71-e522bc691e30"},"vehicle_type_id":"4","last_reported":1704308735,"current_range_meters":15600,"station_id":"","pricing_plan_id":"free"},{"bike_id":"1cfb7b3e-762f-4578-bd8d-d446387321de","system_id":"levelo_inurba_marseille","lat":43.267966,"lon":5.393976,"is_reserved":false,"is_disabled":false,"rental_uris":{"android":"levelo://app?vid=1cfb7b3e-762f-4578-bd8d-d446387321de","ios":"levelo://app?vid=1cfb7b3e-762f-4578-bd8d-d446387321de"},"vehicle_type_id":"4","last_reported":1704308735,"current_range_meters":0,"station_id":"ce4bhh12rcd13ifvqfg0","pricing_plan_id":"free"},{"bike_id":"4e7b82a4-f271-4a72-bdbd-460d1cfbd58d","system_id":"levelo_inurba_marseille","lat":43.27181,"lon":5.404997,"is_reserved":false,"is_disabled":false,"rental_uris":{"android":"levelo://app?vid=4e7b82a4-f271-4a72-bdbd-460d1cfbd58d","ios":"levelo://app?vid=4e7b82a4-f271-4a72-bdbd-460d1cfbd58d"},"vehicle_type_id":"4","last_reported":1704308735,"current_range_meters":400,"station_id":"ce4bhl12rcd13ifvqgf0","pricing_plan_id":"free"},{"bike_id":"e7c9ecba-33b1-453a-8003-a8e1ec8d62a3","system_id":"levelo_inurba_marseille","lat":43.308051,"lon":5.43527,"is_reserved":false,"is_disabled":false,"rental_uris":{"android":"levelo://app?vid=e7c9ecba-33b1-453a-8003-a8e1ec8d62a3","ios":"levelo://app?vid=e7c9ecba-33b1-453a-8003-a8e1ec8d62a3"},