{"last_updated":1740140250,"ttl":60,"version":"2.2","data":{"bikes":[{"bike_id":"12b3e4eb-4c37-461e-a50a-913ddaf5edb8","system_id":"levelo_inurba_marseille","lat":43.27618,"lon":5.36102,"is_reserved":false,"is_disabled":false,"rental_uris":{"android":"levelo://app?vid=12b3e4eb-4c37-461e-a50a-913ddaf5edb8","ios":"levelo://app?vid=12b3e4eb-4c37-461e-a50a-913ddaf5edb8"},"vehicle_type_id":"4","last_reported":1740140250,"current_range_meters":2800,"station_id":"ce4bgj92rcd13ifvqbe0","pricing_plan_id":"cebpf4jnsgd1na2vs0mg"},{"bike_id":"214cb349-339b-444b-ae89-eeb9ba44c442","system_id":"levelo_inurba_marseille","lat":43.29601,"lon":5.37779,"is_reserved":false,"is_disabled":false,"rental_uris":{"android":"levelo://app?vid=214cb349-339b-444b-ae89-eeb9ba44c442","ios":"levelo://app?vid=214cb349-339b-444b-ae89-eeb9ba44c442"},"vehicle_type_id":"4","last_reported":1740140250,"current_range_meters":3200,"station_id":"","pricing_plan_id":"cebpf4jnsgd1na2vs0mg"},{"bike_id":"2a6c5be6-b83f-4b03-8d5a-afb46f513bf3","system_id":"levelo_inurba_marseille","lat":43.22956,"lon":5.35433,"is_reserved":false,"is_disabled":false,"rental_uris":{"android":"levelo://app?vid=2a6c5be6-b83f-4b03-8d5a-afb46f513bf3","ios":"levelo://app?vid=2a6c5be6-b83f-4b03-8d5a-afb46f513bf3"},"vehicle_type_id":"4","last_reported":1740140250,"current_range_meters":3200,"station_id":"cpo3532slgdg3j2ikp40","pricing_plan_id":"cebpf4jnsgd1na2vs0mg"},{"bike_id":"1a2698f5-b21e-4a2c-813c-9a485beaa55e","system_id":"levelo_inurba_marseille","lat":43.31178,"lon":5.3935,"is_reserved":false,"is_disabled":false,"rental_uris":{"android":"levelo://app?vid=1a2698f5-b21e-4a2c-813c-9a485beaa55e","ios":"levelo://app?vid=1a2698f5-b21e-4a2c-813c-9a485beaa55e"},"vehicle_type_id":"4","last_reported":1740140250,"current_range_meters":3200,"station_id":"ce4bgqh2rcd13ifvqc4g","pricing_plan_id":"cebpf4jnsgd1na2vs0mg"},{"bike_id":"e93fb8a5-42f7-49ba-a4f4-378d0fcd8f18","system_id":"levelo_inurba_marseille","lat":43.28929,"lon":5.3962,"is_reserved":false,"is_disabled":false,"rental_uris":{"android":"levelo://app?vid=e93fb8a5-42f7-49ba-a4f4-378d0fcd8f18","ios":"levelo://app?vid=e93fb8a5-42f7-49ba-a4f4-378d0fcd8f18"},"vehicle_type_id":"4","last_reported":1740140250,"current_range_meters":3200,"station_id":"ce4bh3h2rcd13ifvqdn0","pricing_plan_id":"cebpf4jnsgd1na2vs0mg"},{"bike_id":"106897f1-06ff-4215-80a4-343af5413afa","system_id":"levelo_inurba_marseille","lat":43.29534,"lon":5.38537,"is_reserved":false,"is_disabled":false,"rental_uris":{"android":"levelo://app?vid=106897f1-06ff-4215-80a4-343af5413afa","ios":"levelo://app?vid=106897f1-06ff-4215-80a4-343af5413afa"},"vehicle_type_id":"4","last_reported":1740140250,"current_range_meters":3200,"station_id":"ce4bgih2rcd13ifvqba0","pricing_plan_id":"cebpf4jnsgd1na2vs0mg"},{"bike_id":"d67bba1a-d2f9-4059-9952-e401c96bc44c","system_id":"levelo_inurba_marseille","lat":43.25508,"lon":5.37649,"is_reserved":false,"is_disabled":false,"rental_uris":{"android":"levelo://app?vid=d67bba1a-d2f9-4059-9952-e401c96bc44c","ios":"levelo://app?vid=d67bba1a-d2f9-4059-9952-e401c96bc44c"},"vehicle_type_id":"4","last_reported":1740140250,"current_range_meters":3600,"station_id":"ce4bhh12rcd13ifvqff0","pricing_plan_id":"cebpf4jnsgd1na2vs0mg"},{"bike_id":"fa937476-825f-4449-9967-b36e68b22767","system_id":"levelo_inurba_marseille","lat":43.23189,"lon":5.39987,"is_reserved":false,"is_disabled":false,"rental_uris":{"android":"levelo://app?vid=fa937476-825f-4449-9967-b36e68b22767","ios":"levelo://app?vid=fa937476-825f-4449-9967-b36e68b22767"},"vehicle_type_id":"4","last_reported":1740140250,"current_range_meters":4400,"station_id":"ce4bhn12rcd13ifvqgqg","pricing_plan_id":"cebpf4jnsgd1na2vs0mg"},{"bike_id":"b17a8686-6cd7-46ab-a8e5-3014be3b0765","system_id":"levelo_inurba_marseille","lat":43.23059,"lon":5.35493,"is_reserved":false,"is_disabled":false,"rental_uris":{"android":"levelo://app?vid=b17a8686-6cd7-46ab-a8e5-3014be3b0765","ios":"levelo://app?vid=b17a8686-6cd7-46ab-a8e5-3014be3b0765"},"vehicle_type_id":"4","last_reported":1740140250,"current_range_meters":4400,"station_id":"cpo3342slgdg3j2ifvpg","pricing_plan_id":"cebpf4jnsgd1na2vs0mg"},{"bike_id":"cb516be8-0292-492a-ba7e-2053c8d40231","system_id":"levelo_inurba_marseille","lat":43.30897,"lon":5.39658,"is_reserved":false,"is_disabled":false,"rental_uris":{"android":"levelo://app?vid=cb516be8-0292-492a-ba7e-2053c8d40231","ios":"levelo://app?vid=cb516be8-0292-492a-ba7e-2053c8d40231"},"vehicle_type_id":"4","last_reported":1740140250,"current_range_meters":4800,"station_id":"ce4bh012rcd13ifvqcv0","pricing_plan_id":"cebpf4jnsgd1na2vs0mg"},{"bike_id":"1ec919ae-2b25-4afb-8056-850644e69f35","system_id":"levelo_inurba_marseille","lat":43.29357,"lon":5.37953,"is_reserved":false,"is_disabled":false,"rental_uris":{"android":"levelo://app?vid=1ec919ae-2b25-4afb-8056-850644e69f35","ios":"levelo://app?vid=1ec919ae-2b25-4afb-8056-850644e69f35"},"vehicle_type_id":"4","last_reported":1740140250,"current_range_meters":4800,"station_id":"","pricing_plan_id":"cebpf4jnsgd1na2vs0mg"},{"bike_id":"570ca427-4ebb-4e6e-ac7c-bf43daf98d1b","system_id":"levelo_inurba_marseille","lat":43.25936,"lon":5.40903,"is_reserved":false,"is_disabled":false,"rental_uris":{"android":"levelo://app?vid=570ca427-4ebb-4e6e-ac7c-bf43daf98d1b","ios":"levelo://app?vid=570ca427-4ebb-4e6e-ac7c-bf43daf98d1b"},"vehicle_type_id":"4","last_reported":1740140250,"current_range_meters":5600,"station_id":"ce4bhm92rcd13ifvqglg","pricing_plan_id":"cebpf4jnsgd1na2vs0mg"},{"bike_id":"07d0d0cd-5c1c-4484-abd1-47b49b18a8eb","system_id":"levelo_inurba_marseille","lat":43.285,"lon":5.38583,"is_reserved":false,"is_disabled":false,"rental_uris":{"android":"levelo://app?vid=07d0d0cd-5c1c-4484-abd1-47b49b18a8eb","ios":"levelo://app?vid=07d0d0cd-5c1c-4484-abd1-47b49b18a8eb"},"vehicle_type_id":"4","last_reported":1740140250,"current_range_meters":5600,"station_id":"ce4bh8p2rcd13ifvqeb0","pricing_plan_id":"cebpf4jnsgd1na2vs0mg"},{"bike_id":"0006b5fa-8ad1-430f-9b98-af8c1f3be4c8","system_id":"levelo_inurba_marseille","lat":43.25006,"lon":5.38933,"is_reserved":false,"is_disabled":false,"rental_uris":{"android":"levelo://app?vid=0006b5fa-8ad1-430f-9b98-af8c1f3be4c8","ios":"levelo://app?vid=0006b5fa-8ad1-430f-9b98-af8c1f3be4c8"},"vehicle_type_id":"4","last_reported":1740140250,"current_range_meters":5600,"station_id":"ce4bhgp2rcd13ifvqfd0","pricing_plan_id":"cebpf4jnsgd1na2vs0mg"},{"bike_id":"022e93f2-12d7-4213-b8ad-98afa8da1efe","system_id":"levelo_inurba_marseille","lat":43.26804,"lon":5.40258,"is_reserved":false,"is_disabled":false,"rental_uris":{"android":"levelo://app?vid=022e93f2-12d7-4213-b8ad-98afa8da1efe","ios":"levelo://app?vid=022e93f2-12d7-4213-b8ad-98afa8da1efe"},"vehicle_type_id":"4","last_reported":1740140250,"current_range_meters":5600,"station_id":"ce501612rcd8frsf0b60","pricing_plan_id":"cebpf4jnsgd1na2vs0mg"},{"bike_id":"89b0e347-0249-4137-ac62-3fbc4a49036d","system_id":"levelo_inurba_marseille","lat":43.27815,"lon":5.40716,"is_reserved":false,"is_disabled":false,"rental_uris":{"android":"levelo://app?vid=89b0e347-0249-4137-ac62-3fbc4a49036d","ios":"levelo://app?vid=89b0e347-0249-4137-ac62-3fbc4a49036d"},"vehicle_type_id":"4","last_reported":1740140250,"current_range_meters":6000,"station_id":"ce4bhnh2rcd13ifvqgtg","pricing_plan_id":"cebpf4jnsgd1na2vs0mg"},{"bike_id":"843c8993-eb89-48c0-bc46-978aec656ac8","system_id":"levelo_inurba_marseille","lat":43.27925,"lon":5.40857,"is_reserved":false,"is_disabled":false,"rental_uris":{"android":"levelo://app?vid=843c8993-eb89-48c0-bc46-978aec656ac8","ios":"levelo://app?vid=843c8993-eb89-48c0-bc46-978aec656ac8"},"vehicle_type_id":"4","last_reported":1740140250,"current_range_meters":6000,"station_id":"","pricing_plan_id":"cebpf4jnsgd1na2vs0mg"},{"bike_id":"7730bb78-bb54-4016-932b-9f090eb075ae","system_id":"levelo_inurba_marseille","lat":43.27814,"lon":5.40714,"is_reserved":false,"is_disabled":false,"rental_uris":{"android":"levelo://app?vid=7730bb78-bb54-4016-932b-9f090eb075ae","ios":"levelo://app?vid=7730bb78-bb54-4016-932b-9f090eb075ae"},"vehicle_type_id":"4","last_reported":1740140250,"current_range_meters":6000,"station_id":"ce4bhnh2rcd13ifvqgtg","pricing_plan_id":"cebpf4jnsgd1na2vs0mg"},{"bike_id":"2f0e63e7-b1df-4612-a21a-2e62e44dabf1","system_id":"levelo_inurba_marseille","lat":43.2482,"lon":5.37451,"is_reserved":false,"is_disabled":false,"rental_uris":{"android":"levelo://app?vid=2f0e63e7-b1df-4612-a21a-2e62e44dabf1","ios":"levelo://app?vid=2f0e63e7-b1df-4612-a21a-2e62e44dabf1"},"vehicle_type_id":"4","last_reported":1740140250,"current_range_meters":6000,"station_id":"ce4bhgh2rcd13ifvqfb0","pricing_plan_id":"cebpf4jnsgd1na2vs0mg"},{"bike_id":"ca726b34-b6ae-47d7-85a7-2d80b8b50572","system_id":"levelo_inurba_marseille","lat":43.23201,"lon":5.3554,"is_reserved":false,"is_disabled":false,"rental_uris":{"android":"levelo://app?vid=ca726b34-b6ae-47d7-85a7-2d80b8b50572","ios":"levelo://app?vid=ca726b34-b6ae-47d7-85a7-2d80b8b50572"},"vehicle_type_id":"4","last_reported":1740140250,"current_range_meters":6000,"station_id":"ce4bhu92rcd13ifvqi70","pricing_plan_id":"cebpf4jnsgd1na2vs0mg"},{"bike_id":"0555ed46-e79c-4f7f-991f-9acdd94e87da","system_id":"levelo_inurba_marseille","lat":43.26821,"lon":5.40271,"is_reserved":false,"is_disabled":false,"rental_uris":{"android":"levelo://app?vid=0555ed46-e79c-4f7f-991f-9acdd94e87da","ios":"levelo://app?vid=0555ed46-e79c-4f7f-991f-9acdd94e87da"},"vehicle_type_id":"4","last_reported":1740140250,"current_range_meters":6400,"station_id":"ce501612rcd8frsf0b60","pricing_plan_id":"cebpf4jnsgd1na2vs0mg"},{"bike_id":"26a320ea-f2fa-4dea-95f4-408194a41936","system_id":"levelo_inurba_marseille","lat":43.23177,"lon":5.39995,"is_reserved":false,"is_disabled":false,"rental_uris":{"android":"levelo://app?vid=26a320ea-f2fa-4dea-95f4-408194a41936","ios":"levelo://app?vid=26a320ea-f2fa-4dea-95f4-408194a41936"},"vehicle_type_id":"4","last_reported":1740140250,"current_range_meters":6400,"station_id":"ce4bhn12rcd13ifvqgqg","pricing_plan_id":"cebpf4jnsgd1na2vs0mg"},{"bike_id":"81b0432b-6c5a-4dec-ada4-af7c1877cddc","system_id":"levelo_inurba_marseille","lat":43.30543,"lon":5.38434,"is_reserved":false,"is_disabled":false,"rental_uris":{"android":"levelo://app?vid=81b0432b-6c5a-4dec-ada4-af7c1877cddc","ios":"levelo://app?vid=81b0432b-6c5a-4dec-ada4-af7c1877cddc"},"vehicle_type_id":"4","last_reported":1740140250,"current_range_meters":6400,"station_id":"ce4bgg92rcd13ifvqb30","pricing_plan_id":"cebpf4jnsgd1na2vs0mg"},{"bike_id":"f9fb781c-093a-4626-81d7-b95df7303bb1","system_id":"levelo_inurba_marseille","lat":43.24809,"lon":5.37457,"is_reserved":false,"is_disabled":false,"rental_uris":{"android":"levelo://app?vid=f9fb781c-093a-4626-81d7-b95df7303bb1","ios":"levelo://app?vid=f9fb781c-093a-4626-81d7-b95df7303bb1"},"vehicle_type_id":"4","last_reported":1740140250,"current_range_meters":6400,"station_id":"ce4bhgh2rcd13ifvqfb0","pricing_plan_id":"cebpf4jnsgd1na2vs0mg"},{"bike_id":"937d2ead-058d-4817-bb6c-7052ce4442e4","system_id":"levelo_inurba_marseille","lat":43.23073,"lon":5.35488,"is_reserved":false,"is_disabled":false,"rental_uris":{"android":"levelo://app?vid=937d2ead-058d-4817-bb6c-7052ce4442e4","ios":"levelo://app?vid=937d2ead-058d-4817-bb6c-7052ce4442e4"},"vehicle_type_id":"4","last_reported":1740140250,"current_range_meters":6400,"station_id":"cpo3342slgdg3j2ifvpg","pricing_plan_id":"cebpf4jnsgd1na2vs0mg"},{"bike_id":"5516853e-78cf-4be2-9f26-f0cbb736d267","system_id":"levelo_inurba_marseille","lat":43.29894,"lon":5.43672,"is_reserved":false,"is_disabled":false,"rental_uris":{"android":"levelo://app?vid=5516853e-78cf-4be2-9f26-f0cbb736d267","ios":"levelo://app?vid=5516853e-78cf-4be2-9f26-f0cbb736d267"},"vehicle_type_id":"4","last_reported":1740140250,"current_range_meters":6400,"station_id":"ce4bhpp2rcd13ifvqhfg","pricing_plan_id":"cebpf4jnsgd1na2vs0mg"},{"bike_id":"dbd2b2a3-cd06-4f89-9f05-ca9416db2c07","system_id":"levelo_inurba_marseille","lat":43.29024,"lon":5.38125,"is_reserved":false,"is_disabled":false,"rental_uris":{"android":"levelo://app?vid=dbd2b2a3-cd06-4f89-9f05-ca9416db2c07","ios":"levelo://app?vid=dbd2b2a3-cd06-4f89-9f05-ca9416db2c07"},"vehicle_type_id":"4","last_reported":1740140250,"current_range_meters":6400,"station_id":"ce4bh4p2rcd13ifvqe1g","pricing_plan_id":"cebpf4jnsgd1na2vs0mg"},{"bike_id":"e07d7381-9639-4623-a587-7fbd840bfc02","system_id":"levelo_inurba_marseille","lat":43.23185,"lon":5.35551,"is_reserved":false,"is_disabled":false,"rental_uris":{"android":"levelo://app?vid=e07d7381-9639-4623-a587-7fbd840bfc02","ios":"levelo://app?vid=e07d7381-9639-4623-a587-7fbd840bfc02"},"vehicle_type_id":"4","last_reported":1740140250,"current_range_meters":6800,"station_id":"","pricing_plan_id":"cebpf4jnsgd1na2vs0mg"},{"bike_id":"10f14cdd-976f-4036-affd-35be4beb171e","system_id":"levelo_inurba_marseille","lat":43.27057,"lon":5.40236,"is_reserved":false,"is_disabled":false,"rental_uris":{"android":"levelo://app?vid=10f14cdd-976f-4036-affd-35be4beb171e","ios":"levelo://app?vid=10f14cdd-976f-4036-affd-35be4beb171e"},"vehicle_type_id":"4","last_reported":1740140250,"current_range_meters":6800,"station_id":"ce4bhk92rcd13ifvqgc0","pricing_plan_id":"cebpf4jnsgd1na2vs0mg"},{"bike_id":"17b7009f-6c42-4b1b-8c74-98d1ff07cd6c","system_id":"levelo_inurba_marseille","lat":43.32644,"lon":5.41002,"is_reserved":false,"is_disabled":false,"rental_uris":{"android":"levelo://app?vid=17b7009f-6c42-4b1b-8c74-98d1ff07cd6c","ios":"levelo://app?vid=17b7009f-6c42-4b1b-8c74-98d1ff07cd6c"},"vehicle_type_id":"4","last_reported":1740140250,"current_range_meters":6800,"station_id":"ce4bhpp2rcd13ifvqhgg","pricing_plan_id":"cebpf4jnsgd1na2vs0mg"},{"bike_id":"77ff63e8-b5ae-48d0-8725-3fc2e7c2e786","system_id":"levelo_inurba_marseille","lat":43.32106,"lon":5.36782,"is_reserved":false,"is_disabled":false,"rental_uris":{"android":"levelo://app?vid=77ff63e8-b5ae-48d0-8725-3fc2e7c2e786","ios":"levelo://app?vid=77ff63e8-b5ae-48d0-8725-3fc2e7c2e786"},"vehicle_type_id":"4","last_reported":1740140250,"current_range_meters":6800,"station_id":"ce4bhrh2rcd13ifvqhug","pricing_plan_id":"cebpf4jnsgd1na2vs0mg"},{"bike_id":"86930020-1b4e-4013-a163-632d697f85f6","system_id":"levelo_inurba_marseille","lat":43.30531,"lon":5.36553,"is_reserved":false,"is_disabled":false,"rental_uris":{"android":"levelo://app?vid=86930020-1b4e-4013-a163-632d697f85f6","ios":"levelo://app?vid=86930020-1b4e-4013-a163-632d697f85f6"},"vehicle_type_id":"4","last_reported":1740140250,"current_range_meters":6800,"station_id":"ce4bgs12rcd13ifvqcag","pricing_plan_id":"cebpf4jnsgd1na2vs0mg"},{"bike_id":"d4ac9080-89f9-4d04-ab03-22b0f0a4e5be","system_id":"levelo_inurba_marseille","lat":43.23202,"lon":5.35548,"is_reserved":false,"is_disabled":false,"rental_uris":{"android":"levelo://app?vid=d4ac9080-89f9-4d04-ab03-22b0f0a4e5be","ios":"levelo://app?vid=d4ac9080-89f9-4d04-ab03-22b0f0a4e5be"},"vehicle_type_id":"4","last_reported":1740140250,"current_range_meters":6800,"station_id":"ce4bhu92rcd13ifvqi70","pricing_plan_id":"cebpf4jnsgd1na2vs0mg"},{"bike_id":"5fc93788-de5b-4d3e-8c1d-c9c567b295b7","system_id":"levelo_inurba_marseille","lat":43.2549,"lon":5.37654,"is_reserved":false,"is_disabled":false,"rental_uris":{"android":"levelo://app?vid=5fc93788-de5b-4d3e-8c1d-c9c567b295b7","ios":"levelo://app?vid=5fc93788-de5b-4d3e-8c1d-c9c567b295b7"},"vehicle_type_id":"4","last_reported":1740140250,"current_range_meters":6400,"station_id":"ce4bhh12rcd13ifvqff0","pricing_plan_id":"cebpf4jnsgd1na2vs0mg"},{"bike_id":"2cc78811-d06e-4226-9ec7-9c015897109b","system_id":"levelo_inurba_marseille","lat":43.23074,"lon":5.35476,"is_reserved":false,"is_disabled":false,"rental_uris":{"android":"levelo://app?vid=2cc78811-d06e-4226-9ec7-9c015897109b","ios":"levelo://app?vid=2cc78811-d06e-4226-9ec7-9c015897109b"},"vehicle_type_id":"4","last_reported":1740140250,"current_range_meters":7200,"station_id":"cpo3342slgdg3j2ifvpg","pricing_plan_id":"cebpf4jnsgd1na2vs0mg"},{"bike_id":"7d932747-8fa4-4a65-94af-ec8450f17c5c","system_id":"levelo_inurba_marseille","lat":43.27064,"lon":5.40256,"is_reserved":false,"is_disabled":false,"rental_uris":{"android":"levelo://app?vid=7d932747-8fa4-4a65-94af-ec8450f17c5c","ios":"levelo://app?vid=7d932747-8fa4-4a65-94af-ec8450f17c5c"},"vehicle_type_id":"4","last_reported":1740140250,"current_range_meters":7200,"station_id":"ce4bhk92rcd13ifvqgc0","pricing_plan_id":"cebpf4jnsgd1na2vs0mg"},{"bike_id":"a4d5a3dd-9ce2-42f5-8bca-cb06544b0b81","system_id":"levelo_inurba_marseille","lat":43.23087,"lon":5.35485,"is_reserved":false,"is_disabled":false,"rental_uris":{"android":"levelo://app?vid=a4d5a3dd-9ce2-42f5-8bca-cb06544b0b81","ios":"levelo://app?vid=a4d5a3dd-9ce2-42f5-8bca-cb06544b0b81"},"vehicle_type_id":"4","last_reported":1740140250,"current_range_meters":7200,"station_id":"cpo3342slgdg3j2ifvpg","pricing_plan_id":"cebpf4jnsgd1na2vs0mg"},{"bike_id":"deb5fb64-e833-4cc1-8623-964157e87372","system_id":"levelo_inurba_marseille","lat":43.23156,"lon":5.4371,"is_reserved":false,"is_disabled":false,"rental_uris":{"android":"levelo://app?vid=deb5fb64-e833-4cc1-8623-964157e87372","ios":"levelo://app?vid=deb5fb64-e833-4cc1-8623-964157e87372"},"vehicle_type_id":"4","last_reported":1740140250,"current_range_meters":7200,"station_id":"ce4bhmp2rcd13ifvqgog","pricing_plan_id":"cebpf4jnsgd1na2vs0mg"},{"bike_id":"96a1fcc0-1023-4a4d-be7c-4b21f83028aa","system_id":"levelo_inurba_marseille","lat":43.23199,"lon":5.35555,"is_reserved":false,"is_disabled":true,"rental_uris":{"android":"levelo://app?vid=96a1fcc0-1023-4a4d-be7c-4b21f83028aa","ios":"levelo://app?vid=96a1fcc0-1023-4a4d-be7c-4b21f83028aa"},"vehicle_type_id":"4","last_reported":1740140250,"current_range_meters":8000,"station_id":"ce4bhu92rcd13ifvqi70","pricing_plan_id":"cebpf4jnsgd1na2vs0mg"},{"bike_id":"6bc1cdde-507a-4c37-a1b6-563130b77e32","system_id":"levelo_inurba_marseille","lat":43.30586,"lon":5.38439,"is_reserved":false,"is_disabled":true,"rental_uris":{"android":"levelo://app?vid=6bc1cdde-507a-4c37-a1b6-563130b77e32","ios":"levelo://app?vid=6bc1cdde-507a-4c37-a1b6-563130b77e32"},"vehicle_type_id":"4","last_reported":1740140250,"current_range_meters":8000,"station_id":"ce4bgg92rcd13ifvqb30","pricing_plan_id":"cebpf4jnsgd1na2vs0mg"},{"bike_id":"fc0349de-a96b-4e9e-88b6-f49bf89d84ae","system_id":"levelo_inurba_marseille","lat":43.28001,"lon":5.40003,"is_reserved":false,"is_disabled":false,"rental_uris":{"android":"levelo://app?vid=fc0349de-a96b-4e9e-88b6-f49bf89d84ae","ios":"levelo://app?vid=fc0349de-a96b-4e9e-88b6-f49bf89d84ae"},"vehicle_type_id":"4","last_reported":1740140250,"current_range_meters":8000,"station_id":"ce4bho92rcd13ifvqh4g","pricing_plan_id":"cebpf4jnsgd1na2vs0mg"},{"bike_id":"60a652d7-0d38-41a6-a16e-10cb54d05a0f","system_id":"levelo_inurba_marseille","lat":43.29961,"lon":5.41326,"is_reserved":false,"is_disabled":false,"rental_uris":{"android":"levelo://app?vid=60a652d7-0d38-41a6-a16e-10cb54d05a0f","ios":"levelo://app?vid=60a652d7-0d38-41a6-a16e-10cb54d05a0f"},"vehicle_type_id":"4","last_reported":1740140250,"current_range_meters":8400,"station_id":"ce4bhp12rcd13ifvqh9g","pricing_plan_id":"cebpf4jnsgd1na2vs0mg"},{"bike_id":"948ca15e-dd0e-4b24-9dae-3803d237a65d","system_id":"levelo_inurba_marseille","lat":43.23951,"lon":5.36648,"is_reserved":false,"is_disabled":false,"rental_uris":{"android":"levelo://app?vid=948ca15e-dd0e-4b24-9dae-3803d237a65d","ios":"levelo://app?vid=948ca15e-dd0e-4b24-9dae-3803d237a65d"},"vehicle_type_id":"4","last_reported":1740140250,"current_range_meters":8400,"station_id":"ce4bhi12rcd13ifvqfp0","pricing_plan_id":"cebpf4jnsgd1na2vs0mg"},{"bike_id":"45528c36-0352-462f-a5df-dcf6e64ae67e","system_id":"levelo_inurba_marseille","lat":43.27375,"lon":5.36253,"is_reserved":false,"is_disabled":false,"rental_uris":{"android":"levelo://app?vid=45528c36-0352-462f-a5df-dcf6e64ae67e","ios":"levelo://app?vid=45528c36-0352-462f-a5df-dcf6e64ae67e"},"vehicle_type_id":"4","last_reported":1740140250,"current_range_meters":8400,"station_id":"ce4bhbh2rcd13ifvqeo0","pricing_plan_id":"cebpf4jnsgd1na2vs0mg"},{"bike_id":"22709dcd-2978-4c47-ae71-90a1b99466ce","system_id":"levelo_inurba_marseille","lat":43.23158,"lon":5.43703,"is_reserved":false,"is_disabled":false,"rental_uris":{"android":"levelo://app?vid=22709dcd-2978-4c47-ae71-90a1b99466ce","ios":"levelo://app?vid=22709dcd-2978-4c47-ae71-90a1b99466ce"},"vehicle_type_id":"4","last_reported":1740140250,"current_range_meters":8400,"station_id":"ce4bhmp2rcd13ifvqgog","pricing_plan_id":"cebpf4jnsgd1na2vs0mg"},{"bike_id":"87590419-9431-46cd-a562-7648976d855a","system_id":"levelo_inurba_marseille","lat":43.2791,"lon":5.41206,"is_reserved":false,"is_disabled":false,"rental_uris":{"android":"levelo://app?vid=87590419-9431-46cd-a562-7648976d855a","ios":"levelo://app?vid=87590419-9431-46cd-a562-7648976d855a"},"vehicle_type_id":"4","last_reported":1740140250,"current_range_meters":8400,"station_id":"","pricing_plan_id":"cebpf4jnsgd1na2vs0mg"},{"bike_id":"dd658036-99b4-4eb3-9397-26242ed225da","system_id":"levelo_inurba_marseille","lat":43.27824,"lon":5.40713,"is_reserved":false,"is_disabled":false,"rental_uris":{"android":"levelo://app?vid=dd658036-99b4-4eb3-9397-26242ed225da","ios":"levelo://app?vid=dd658036-99b4-4eb3-9397-26242ed225da"},"vehicle_type_id":"4","last_reported":1740140250,"current_range_meters":8400,"station_id":"ce4bhnh2rcd13ifvqgtg","pricing_plan_id":"cebpf4jnsgd1na2vs0mg"},{"bike_id":"496b3c18-aa82-4c54-b529-064a58cd0ee8","system_id":"levelo_inurba_marseille","lat":43.28459,"lon":5.358829,"is_reserved":false,"is_disabled":false,"rental_uris":{"android":"levelo://app?vid=496b3c18-aa82-4c54-b529-064a58cd0ee8","ios":"levelo://app?vid=496b3c18-aa82-4c54-b529-064a58cd0ee8"},"vehicle_type_id":"4","last_reported":1740140250,"current_range_meters":8400,"station_id":"ce4bhbh2rcd13ifvqeo0","pricing_plan_id":"cebpf4jnsgd1na2vs0mg"},{"bike_id":"db041e8d-4c01-4fa9-80d2-564af19c0ebc","system_id":"levelo_inurba_marseille","lat":43.2621,"lon":5.37442,"is_reserved":false,"is_disabled":false,"rental_uris":{"android":"levelo://app?vid=db041e8d-4c01-4fa9-80d2-564af19c0ebc","ios":"levelo://app?vid=db041e8d-4c01-4fa9-80d2-564af19c0ebc"},"vehicle_type_id":"4","last_reported":1740140250,"current_range_meters":8400,"station_id":"ce4bhgp2rcd13ifvqfc0","pricing_plan_id":"cebpf4jnsgd1na2vs0mg"},{"bike_id":"6b6e1059-5264-45b9-9cb9-d24cf5205f2a","system_id":"levelo_inurba_marseille","lat":43.23971,"lon":5.36647,"is_reserved":false,"is_disabled":true,"rental_uris":{"android":"levelo://app?vid=6b6e1059-5264-45b9-9cb9-d24cf5205f2a","ios":"levelo://app?vid=6b6e1059-5264-45b9-9cb9-d24cf5205f2a"},"vehicle_type_id":"4","last_reported":1740140250,"current_range_meters":8800,"station_id":"","pricing_plan_id":"cebpf4jnsgd1na2vs0mg"},{"bike_id":"6e8acbd4-7e1c-44a8-a485-cce2cf67fcb7","system_id":"levelo_inurba_marseille","lat":43.26556,"lon":5.37286,"is_reserved":false,"is_disabled":false,"rental_uris":{"android":"levelo://app?vid=6e8acbd4-7e1c-44a8-a485-cce2cf67fcb7","ios":"levelo://app?vid=6e8acbd4-7e1c-44a8-a485-cce2cf67fcb7"},"vehicle_type_id":"4","last_reported":1740140250,"current_range_meters":8800,"station_id":"ce4bhg12rcd13ifvqf70","pricing_plan_id":"cebpf4jnsgd1na2vs0mg"},{"bike_id":"7ed3595e-8755-4a70-8d64-c1b14dd80b02","system_id":"levelo_inurba_marseille","lat":43.28411,"lon":5.34983,"is_reserved":false,"is_disabled":false,"rental_uris":{"android":"levelo://app?vid=7ed3595e-8755-4a70-8d64-c1b14dd80b02","ios":"levelo://app?vid=7ed3595e-8755-4a70-8d64-c1b14dd80b02"},"vehicle_type_id":"4","last_reported":1740140250,"current_range_meters":8800,"station_id":"ce4bhbh2rcd13ifvqepg","pricing_plan_id":"cebpf4jnsgd1na2vs0mg"},{"bike_id":"beebcc6e-4c5e-47d8-8160-c9024ef0c558","system_id":"levelo_inurba_marseille","lat":43.27784,"lon":5.4064,"is_reserved":false,"is_disabled":false,"rental_uris":{"android":"levelo://app?vid=beebcc6e-4c5e-47d8-8160-c9024ef0c558","ios":"levelo://app?vid=beebcc6e-4c5e-47d8-8160-c9024ef0c558"},"vehicle_type_id":"4","last_reported":1740140250,"current_range_meters":8800,"station_id":"","pricing_plan_id":"cebpf4jnsgd1na2vs0mg"},{"bike_id":"49701fc1-520f-4e71-a64c-114f0e1205d5","system_id":"levelo_inurba_marseille","lat":43.29271,"lon":5.40096,"is_reserved":false,"is_disabled":false,"rental_uris":{"android":"levelo://app?vid=49701fc1-520f-4e71-a64c-114f0e1205d5","ios":"levelo://app?vid=49701fc1-520f-4e71-a64c-114f0e1205d5"},"vehicle_type_id":"4","last_reported":1740140250,"current_range_meters":8800,"station_id":"ce4bh312rcd13ifvqdk0","pricing_plan_id":"cebpf4jnsgd1na2vs0mg"},{"bike_id":"7e4267bc-bf82-40ff-bec1-d1864901c315","system_id":"levelo_inurba_marseille","lat":43.2621,"lon":5.37454,"is_reserved":false,"is_disabled":false,"rental_uris":{"android":"levelo://app?vid=7e4267bc-bf82-40ff-bec1-d1864901c315","ios":"levelo://app?vid=7e4267bc-bf82-40ff-bec1-d1864901c315"},"vehicle_type_id":"4","last_reported":1740140250,"current_range_meters":8800,"station_id":"ce4bhgp2rcd13ifvqfc0","pricing_plan_id":"cebpf4jnsgd1na2vs0mg"},{"bike_id":"954a7086-ccc9-41c5-a809-228e82a24fb2","system_id":"levelo_inurba_marseille","lat":43.28682,"lon":5.40004,"is_reserved":false,"is_disabled":true,"rental_uris":{"android":"levelo://app?vid=954a7086-ccc9-41c5-a809-228e82a24fb2","ios":"levelo://app?vid=954a7086-ccc9-41c5-a809-228e82a24fb2"},"vehicle_type_id":"4","last_reported":1740140250,"current_range_meters":8800,"station_id":"ce4bho92rcd13ifvqh3g","pricing_plan_id":"cebpf4jnsgd1na2vs0mg"},{"bike_id":"256456b4-dd00-4a7b-89d2-e6e4e8fe9ac4","system_id":"levelo_inurba_marseille","lat":43.24072,"lon":5.37739,"is_reserved":false,"is_disabled":false,"rental_uris":{"android":"levelo://app?vid=256456b4-dd00-4a7b-89d2-e6e4e8fe9ac4","ios":"levelo://app?vid=256456b4-dd00-4a7b-89d2-e6e4e8fe9ac4"},"vehicle_type_id":"4","last_reported":1740140250,"current_range_meters":8800,"station_id":"ce4bhnp2rcd13ifvqgvg","pricing_plan_id":"cebpf4jnsgd1na2vs0mg"},{"bike_id":"6590af62-1b49-4a60-8a8e-09ecd0365f42","system_id":"levelo_inurba_marseille","lat":43.26194,"lon":5.37455,"is_reserved":false,"is_disabled":false,"rental_uris":{"android":"levelo://app?vid=6590af62-1b49-4a60-8a8e-09ecd0365f42","ios":"levelo://app?vid=6590af62-1b49-4a60-8a8e-09ecd0365f42"},"vehicle_type_id":"4","last_reported":1740140250,"current_range_meters":9200,"station_id":"ce4bhgp2rcd13ifvqfc0","pricing_plan_id":"cebpf4jnsgd1na2vs0mg"},{"bike_id":"19884315-f9bd-4438-b9fb-5c3e9bc50f18","system_id":"levelo_inurba_marseille","lat":43.26224,"lon":5.37448,"is_reserved":false,"is_disabled":false,"rental_uris":{"android":"levelo://app?vid=19884315-f9bd-4438-b9fb-5c3e9bc50f18","ios":"levelo://app?vid=19884315-f9bd-4438-b9fb-5c3e9bc50f18"},"vehicle_type_id":"4","last_reported":1740140250,"current_range_meters":9200,"station_id":"ce4bhgp2rcd13ifvqfc0","pricing_plan_id":"cebpf4jnsgd1na2vs0mg"},{"bike_id":"6d11426c-51d8-4705-a5b5-5c2a0e788059","system_id":"levelo_inurba_marseille","lat":43.26203,"lon":5.37918,"is_reserved":false,"is_disabled":false,"rental_uris":{"android":"levelo://app?vid=6d11426c-51d8-4705-a5b5-5c2a0e788059","ios":"levelo://app?vid=6d11426c-51d8-4705-a5b5-5c2a0e788059"},"vehicle_type_id":"4","last_reported":1740140250,"current_range_meters":9200,"station_id":"ce4bhjp2rcd13ifvqg90","pricing_plan_id":"cebpf4jnsgd1na2vs0mg"},{"bike_id":"1d27255e-c27e-4d17-92e6-b3566c2451ed","system_id":"levelo_inurba_marseille","lat":43.27308,"lon":5.39083,"is_reserved":false,"is_disabled":false,"rental_uris":{"android":"levelo://app?vid=1d27255e-c27e-4d17-92e6-b3566c2451ed","ios":"levelo://app?vid=1d27255e-c27e-4d17-92e6-b3566c2451ed"},"vehicle_type_id":"4","last_reported":1740140250,"current_range_meters":9600,"station_id":"ce4bhgp2rcd13ifvqfe0","pricing_plan_id":"cebpf4jnsgd1na2vs0mg"},{"bike_id":"097686fc-b08a-40a8-aaaf-539cdfdb8c4a","system_id":"levelo_inurba_marseille","lat":43.27807,"lon":5.40683,"is_reserved":false,"is_disabled":false,"rental_uris":{"android":"levelo://app?vid=097686fc-b08a-40a8-aaaf-539cdfdb8c4a","ios":"levelo://app?vid=097686fc-b08a-40a8-aaaf-539cdfdb8c4a"},"vehicle_type_id":"4","last_reported":1740140250,"current_range_meters":9600,"station_id":"ce4bhnh2rcd13ifvqgtg","pricing_plan_id":"cebpf4jnsgd1na2vs0mg"},{"bike_id":"d5e7b54b-e932-4925-b97c-360094f3da64","system_id":"levelo_inurba_marseille","lat":43.27386,"lon":5.3627,"is_reserved":false,"is_disabled":false,"rental_uris":{"android":"levelo://app?vid=d5e7b54b-e932-4925-b97c-360094f3da64","ios":"levelo://app?vid=d5e7b54b-e932-4925-b97c-360094f3da64"},"vehicle_type_id":"4","last_reported":1740140250,"current_range_meters":9600,"station_id":"","pricing_plan_id":"cebpf4jnsgd1na2vs0mg"},{"bike_id":"a7e57524-7096-4476-8d9d-8e8806b1c3d0","system_id":"levelo_inurba_marseille","lat":43.23156,"lon":5.43706,"is_reserved":false,"is_disabled":true,"rental_uris":{"android":"levelo://app?vid=a7e57524-7096-4476-8d9d-8e8806b1c3d0","ios":"levelo://app?vid=a7e57524-7096-4476-8d9d-8e8806b1c3d0"},"vehicle_type_id":"4","last_reported":1740140250,"current_range_meters":9600,"station_id":"ce4bhmp2rcd13ifvqgog","pricing_plan_id":"cebpf4jnsgd1na2vs0mg"},{"bike_id":"60e5ff3d-b105-48d7-a677-bd29bb998f1b","system_id":"levelo_inurba_marseille","lat":43.25718,"lon":5.41115,"is_reserved":false,"is_disabled":false,"rental_uris":{"android":"levelo://app?vid=60e5ff3d-b105-48d7-a677-bd29bb998f1b","ios":"levelo://app?vid=60e5ff3d-b105-48d7-a677-bd29bb998f1b"},"vehicle_type_id":"4","last_reported":1740140250,"current_range_meters":9600,"station_id":"ce4bhkp2rcd13ifvqgd0","pricing_plan_id":"cebpf4jnsgd1na2vs0mg"},{"bike_id":"429be199-4e19-47f9-a884-5bfeca67218c","system_id":"levelo_inurba_marseille","lat":43.30149,"lon":5.37419,"is_reserved":false,"is_disabled":false,"rental_uris":{"android":"levelo://app?vid=429be199-4e19-47f9-a884-5bfeca67218c","ios":"levelo://app?vid=429be199-4e19-47f9-a884-5bfeca67218c"},"vehicle_type_id":"4","last_reported":1740140250,"current_range_meters":9600,"station_id":"ce4bgs92rcd13ifvqcc0","pricing_plan_id":"cebpf4jnsgd1na2vs0mg"},{"bike_id":"e080c45a-a05d-4297-8995-86678422b056","system_id":"levelo_inurba_marseille","lat":43.34457,"lon":5.38081,"is_reserved":false,"is_disabled":false,"rental_uris":{"android":"levelo://app?vid=e080c45a-a05d-4297-8995-86678422b056","ios":"levelo://app?vid=e080c45a-a05d-4297-8995-86678422b056"},"vehicle_type_id":"4","last_reported":1740140250,"current_range_meters":9600,"station_id":"","pricing_plan_id":"cebpf4jnsgd1na2vs0mg"},{"bike_id":"5065ae88-c91b-442f-a65a-aef5b4c3d779","system_id":"levelo_inurba_marseille","lat":43.26934,"lon":5.38921,"is_reserved":false,"is_disabled":false,"rental_uris":{"android":"levelo://app?vid=5065ae88-c91b-442f-a65a-aef5b4c3d779","ios":"levelo://app?vid=5065ae88-c91b-442f-a65a-aef5b4c3d779"},"vehicle_type_id":"4","last_reported":1740140250,"current_range_meters":10000,"station_id":"ce4bhhh2rcd13ifvqfl0","pricing_plan_id":"cebpf4jnsgd1na2vs0mg"},{"bike_id":"9abb0b6b-06cf-4f2d-990e-3e003061ee04","system_id":"levelo_inurba_marseille","lat":43.25871,"lon":5.39899,"is_reserved":false,"is_disabled":false,"rental_uris":{"android":"levelo://app?vid=9abb0b6b-06cf-4f2d-990e-3e003061ee04","ios":"levelo://app?vid=9abb0b6b-06cf-4f2d-990e-3e003061ee04"},"vehicle_type_id":"4","last_reported":1740140250,"current_range_meters":10000,"station_id":"ce4bhl92rcd13ifvqghg","pricing_plan_id":"cebpf4jnsgd1na2vs0mg"},{"bike_id":"849d245a-be14-47ff-9742-f234bf067745","system_id":"levelo_inurba_marseille","lat":43.29751,"lon":5.3791,"is_reserved":false,"is_disabled":false,"rental_uris":{"android":"levelo://app?vid=849d245a-be14-47ff-9742-f234bf067745","ios":"levelo://app?vid=849d245a-be14-47ff-9742-f234bf067745"},"vehicle_type_id":"4","last_reported":1740140250,"current_range_meters":10000,"station_id":"ce4bguh2rcd13ifvqckg","pricing_plan_id":"cebpf4jnsgd1na2vs0mg"},{"bike_id":"580a1da8-87ce-4f92-bf13-927c60ed9a1d","system_id":"levelo_inurba_marseille","lat":43.28282,"lon":5.35074,"is_reserved":false,"is_disabled":false,"rental_uris":{"android":"levelo://app?vid=580a1da8-87ce-4f92-bf13-927c60ed9a1d","ios":"levelo://app?vid=580a1da8-87ce-4f92-bf13-927c60ed9a1d"},"vehicle_type_id":"4","last_reported":1740140250,"current_range_meters":10800,"station_id":"ce4bhbp2rcd13ifvqerg","pricing_plan_id":"cebpf4jnsgd1na2vs0mg"},{"bike_id":"a67afb52-6ef3-4a8b-b06e-e78832839de3","system_id":"levelo_inurba_marseille","lat":43.29277,"lon":5.37626,"is_reserved":false,"is_disabled":false,"rental_uris":{"android":"levelo://app?vid=a67afb52-6ef3-4a8b-b06e-e78832839de3","ios":"levelo://app?vid=a67afb52-6ef3-4a8b-b06e-e78832839de3"},"vehicle_type_id":"4","last_reported":1740140250,"current_range_meters":10800,"station_id":"ce4bgi12rcd13ifvqb80","pricing_plan_id":"cebpf4jnsgd1na2vs0mg"},{"bike_id":"ae33d2dd-6d68-4d00-9c77-2d1a85e9e2fc","system_id":"levelo_inurba_marseille","lat":43.31697,"lon":5.37772,"is_reserved":false,"is_disabled":false,"rental_uris":{"android":"levelo://app?vid=ae33d2dd-6d68-4d00-9c77-2d1a85e9e2fc","ios":"levelo://app?vid=ae33d2dd-6d68-4d00-9c77-2d1a85e9e2fc"},"vehicle_type_id":"4","last_reported":1740140250,"current_range_meters":10800,"station_id":"ce4bgth2rcd13ifvqch0","pricing_plan_id":"cebpf4jnsgd1na2vs0mg"},{"bike_id":"98f3d8df-34da-45df-b4e5-0b4748e700e4","system_id":"levelo_inurba_marseille","lat":43.26214,"lon":5.3744,"is_reserved":false,"is_disabled":false,"rental_uris":{"android":"levelo://app?vid=98f3d8df-34da-45df-b4e5-0b4748e700e4","ios":"levelo://app?vid=98f3d8df-34da-45df-b4e5-0b4748e700e4"},"vehicle_type_id":"4","last_reported":1740140250,"current_range_meters":10800,"station_id":"ce4bhgp2rcd13ifvqfc0","pricing_plan_id":"cebpf4jnsgd1na2vs0mg"},{"bike_id":"3bdb59ba-4c56-4dfd-901d-8699a921f785","system_id":"levelo_inurba_marseille","lat":43.23066,"lon":5.35498,"is_reserved":false,"is_disabled":false,"rental_uris":{"android":"levelo://app?vid=3bdb59ba-4c56-4dfd-901d-8699a921f785","ios":"levelo://app?vid=3bdb59ba-4c56-4dfd-901d-8699a921f785"},"vehicle_type_id":"4","last_reported":1740140250,"current_range_meters":10800,"station_id":"cpo3342slgdg3j2ifvpg","pricing_plan_id":"cebpf4jnsgd1na2vs0mg"},{"bike_id":"e2605be6-729f-4263-a772-380592b3879d","system_id":"levelo_inurba_marseille","lat":43.30482,"lon":5.38107,"is_reserved":false,"is_disabled":false,"rental_uris":{"android":"levelo://app?vid=e2605be6-729f-4263-a772-380592b3879d","ios":"levelo://app?vid=e2605be6-729f-4263-a772-380592b3879d"},"vehicle_type_id":"4","last_reported":1740140250,"current_range_meters":10800,"station_id":"","pricing_plan_id":"cebpf4jnsgd1na2vs0mg"},{"bike_id":"89b6ddec-bf81-47a5-a9fe-8aed2fc629bd","system_id":"levelo_inurba_marseille","lat":43.30592,"lon":5.37211,"is_reserved":false,"is_disabled":false,"rental_uris":{"android":"levelo://app?vid=89b6ddec-bf81-47a5-a9fe-8aed2fc629bd","ios":"levelo://app?vid=89b6ddec-bf81-47a5-a9fe-8aed2fc629bd"},"vehicle_type_id":"4","last_reported":1740140250,"current_range_meters":10000,"station_id":"ce4bgqh2rcd13ifvqc4g","pricing_plan_id":"cebpf4jnsgd1na2vs0mg"},{"bike_id":"e3e515c9-c75c-45f9-b740-bd6a446a3b2c","system_id":"levelo_inurba_marseille","lat":43.273593,"lon":5.362834,"is_reserved":false,"is_disabled":false,"rental_uris":{"android":"levelo://app?vid=e3e515c9-c75c-45f9-b740-bd6a446a3b2c","ios":"levelo://app?vid=e3e515c9-c75c-45f9-b740-bd6a446a3b2c"},"vehicle_type_id":"4","last_reported":1740140250,"current_range_meters":10800,"station_id":"ce4bhbh2rcd13ifvqeo0","pricing_plan_id":"cebpf4jnsgd1na2vs0mg"},{"bike_id":"f8d7e952-08b6-4aa0-ab3d-a54f2cb2a345","system_id":"levelo_inurba_marseille","lat":43.29532,"lon":5.37501,"is_reserved":false,"is_disabled":false,"rental_uris":{"android":"levelo://app?vid=f8d7e952-08b6-4aa0-ab3d-a54f2cb2a345","ios":"levelo://app?vid=f8d7e952-08b6-4aa0-ab3d-a54f2cb2a345"},"vehicle_type_id":"4","last_reported":1740140250,"current_range_meters":10800,"station_id":"ce4bgkp2rcd13ifvqbmg","pricing_plan_id":"cebpf4jnsgd1na2vs0mg"},{"bike_id":"b46f0a5a-f98d-4994-81f6-db648f912264","system_id":"levelo_inurba_marseille","lat":43.27831,"lon":5.39198,"is_reserved":false,"is_disabled":false,"rental_uris":{"android":"levelo://app?vid=b46f0a5a-f98d-4994-81f6-db648f912264","ios":"levelo://app?vid=b46f0a5a-f98d-4994-81f6-db648f912264"},"vehicle_type_id":"4","last_reported":1740140250,"current_range_meters":11200,"station_id":"ce4bhjp2rcd13ifvqga0","pricing_plan_id":"cebpf4jnsgd1na2vs0mg"},{"bike_id":"5c24a800-a337-4061-8236-708b58a81e50","system_id":"levelo_inurba_marseille","lat":43.29895,"lon":5.43675,"is_reserved":false,"is_disabled":false,"rental_uris":{"android":"levelo://app?vid=5c24a800-a337-4061-8236-708b58a81e50","ios":"levelo://app?vid=5c24a800-a337-4061-8236-708b58a81e50"},"vehicle_type_id":"4","last_reported":1740140250,"current_range_meters":11200,"station_id":"ce4bhpp2rcd13ifvqhfg","pricing_plan_id":"cebpf4jnsgd1na2vs0mg"},{"bike_id":"3ee4ee73-4101-43ba-8adc-33df28381417","system_id":"levelo_inurba_marseille","lat":43.26212,"lon":5.37454,"is_reserved":false,"is_disabled":false,"rental_uris":{"android":"levelo://app?vid=3ee4ee73-4101-43ba-8adc-33df28381417","ios":"levelo://app?vid=3ee4ee73-4101-43ba-8adc-33df28381417"},"vehicle_type_id":"4","last_reported":1740140250,"current_range_meters":11200,"station_id":"ce4bhgp2rcd13ifvqfc0","pricing_plan_id":"cebpf4jnsgd1na2vs0mg"},{"bike_id":"f3feea2e-5bf7-41f6-a6d2-c494ec11d6a2","system_id":"levelo_inurba_marseille","lat":43.23056,"lon":5.35489,"is_reserved":false,"is_disabled":false,"rental_uris":{"android":"levelo://app?vid=f3feea2e-5bf7-41f6-a6d2-c494ec11d6a2","ios":"levelo://app?vid=f3feea2e-5bf7-41f6-a6d2-c494ec11d6a2"},"vehicle_type_id":"4","last_reported":1740140250,"current_range_meters":11200,"station_id":"cpo3342slgdg3j2ifvpg","pricing_plan_id":"cebpf4jnsgd1na2vs0mg"},{"bike_id":"d0109f8e-c695-44b8-83b5-050518c2c6c9","system_id":"levelo_inurba_marseille","lat":43.23066,"lon":5.35508,"is_reserved":false,"is_disabled":false,"rental_uris":{"android":"levelo://app?vid=d0109f8e-c695-44b8-83b5-050518c2c6c9","ios":"levelo://app?vid=d0109f8e-c695-44b8-83b5-050518c2c6c9"},"vehicle_type_id":"4","last_reported":1740140250,"current_range_meters":11600,"station_id":"cpo3342slgdg3j2ifvpg","pricing_plan_id":"cebpf4jnsgd1na2vs0mg"},{"bike_id":"8d7cc3d2-9cf2-41ff-b592-023f2ec7d75d","system_id":"levelo_inurba_marseille","lat":43.2465,"lon":5.38149,"is_reserved":false,"is_disabled":false,"rental_uris":{"android":"levelo://app?vid=8d7cc3d2-9cf2-41ff-b592-023f2ec7d75d","ios":"levelo://app?vid=8d7cc3d2-9cf2-41ff-b592-023f2ec7d75d"},"vehicle_type_id":"4","last_reported":1740140250,"current_range_meters":11600,"station_id":"ce4bhih2rcd13ifvqfr0","pricing_plan_id":"cebpf4jnsgd1na2vs0mg"},{"bike_id":"b1f84cab-4478-466e-a5e3-234c4ee88914","system_id":"levelo_inurba_marseille","lat":43.23053,"lon":5.35428,"is_reserved":false,"is_disabled":false,"rental_uris":{"android":"levelo://app?vid=b1f84cab-4478-466e-a5e3-234c4ee88914","ios":"levelo://app?vid=b1f84cab-4478-466e-a5e3-234c4ee88914"},"vehicle_type_id":"4","last_reported":1740140250,"current_range_meters":11600,"station_id":"cpo3342slgdg3j2ifvpg","pricing_plan_id":"cebpf4jnsgd1na2vs0mg"},{"bike_id":"c8a48179-6f76-43ed-9140-7f3179dbfb5f","system_id":"levelo_inurba_marseille","lat":43.27828,"lon":5.40716,"is_reserved":false,"is_disabled":false,"rental_uris":{"android":"levelo://app?vid=c8a48179-6f76-43ed-9140-7f3179dbfb5f","ios":"levelo://app?vid=c8a48179-6f76-43ed-9140-7f3179dbfb5f"},"vehicle_type_id":"4","last_reported":1740140250,"current_range_meters":11600,"station_id":"ce4bhnh2rcd13ifvqgtg","pricing_plan_id":"cebpf4jnsgd1na2vs0mg"},{"bike_id":"78fc0a9d-91d2-45c9-ae9d-51054f3cdb4c","system_id":"levelo_inurba_marseille","lat":43.22751,"lon":5.34909,"is_reserved":false,"is_disabled":false,"rental_uris":{"android":"levelo://app?vid=78fc0a9d-91d2-45c9-ae9d-51054f3cdb4c","ios":"levelo://app?vid=78fc0a9d-91d2-45c9-ae9d-51054f3cdb4c"},"vehicle_type_id":"4","last_reported":1740140250,"current_range_meters":12000,"station_id":"","pricing_plan_id":"cebpf4jnsgd1na2vs0mg"},{"bike_id":"5b05aaff-2ce3-418c-bec4-28a1dbd57374","system_id":"levelo_inurba_marseille","lat":43.28075,"lon":5.39639,"is_reserved":false,"is_disabled":false,"rental_uris":{"android":"levelo://app?vid=5b05aaff-2ce3-418c-bec4-28a1dbd57374","ios":"levelo://app?vid=5b05aaff-2ce3-418c-bec4-28a1dbd57374"},"vehicle_type_id":"4","last_reported":1740140250,"current_range_meters":12000,"station_id":"ce4bho12rcd13ifvqh2g","pricing_plan_id":"cebpf4jnsgd1na2vs0mg"},{"bike_id":"19d25307-2691-4c34-9db3-43b4bae6dca3","system_id":"levelo_inurba_marseille","lat":43.306223,"lon":5.372193,"is_reserved":false,"is_disabled":false,"rental_uris":{"android":"levelo://app?vid=19d25307-2691-4c34-9db3-43b4bae6dca3","ios":"levelo://app?vid=19d25307-2691-4c34-9db3-43b4bae6dca3"},"vehicle_type_id":"4","last_reported":1740140250,"current_range_meters":12000,"station_id":"ce4bgqh2rcd13ifvqc4g","pricing_plan_id":"cebpf4jnsgd1na2vs0mg"},{"bike_id":"1445e25f-9332-44f5-8183-e6d6a71cd6ce","system_id":"levelo_inurba_marseille","lat":43.26817,"lon":5.40274,"is_reserved":false,"is_disabled":false,"rental_uris":{"android":"levelo://app?vid=1445e25f-9332-44f5-8183-e6d6a71cd6ce","ios":"levelo://app?vid=1445e25f-9332-44f5-8183-e6d6a71cd6ce"},"vehicle_type_id":"4","last_reported":1740140250,"current_range_meters":12000,"station_id":"ce501612rcd8frsf0b60","pricing_plan_id":"cebpf4jnsgd1na2vs0mg"},{"bike_id":"b5d985d9-075e-49cb-944c-b2dd7a2c71f0","system_id":"levelo_inurba_marseille","lat":43.30551,"lon":5.36545,"is_reserved":false,"is_disabled":false,"rental_uris":{"android":"levelo://app?vid=b5d985d9-075e-49cb-944c-b2dd7a2c71f0","ios":"levelo://app?vid=b5d985d9-075e-49cb-944c-b2dd7a2c71f0"},"vehicle_type_id":"4","last_reported":1740140250,"current_range_meters":12000,"station_id":"ce4bgs12rcd13ifvqcag","pricing_plan_id":"cebpf4jnsgd1na2vs0mg"},{"bike_id":"62219be9-4c85-4830-bbde-2defb64f3197","system_id":"levelo_inurba_marseille","lat":43.29272,"lon":5.38426,"is_reserved":false,"is_disabled":false,"rental_uris":{"android":"levelo://app?vid=62219be9-4c85-4830-bbde-2defb64f3197","ios":"levelo://app?vid=62219be9-4c85-4830-bbde-2defb64f3197"},"vehicle_type_id":"4","last_reported":1740140250,"current_range_meters":12400,"station_id":"ce4bh692rcd13ifvqea0","pricing_plan_id":"cebpf4jnsgd1na2vs0mg"},{"bike_id":"66023030-f689-4300-9ecf-d7b148b70c3c","system_id":"levelo_inurba_marseille","lat":43.26596,"lon":5.37325,"is_reserved":false,"is_disabled":false,"rental_uris":{"android":"levelo://app?vid=66023030-f689-4300-9ecf-d7b148b70c3c","ios":"levelo://app?vid=66023030-f689-4300-9ecf-d7b148b70c3c"},"vehicle_type_id":"4","last_reported":1740140250,"current_range_meters":12400,"station_id":"ce4bhg12rcd13ifvqf70","pricing_plan_id":"cebpf4jnsgd1na2vs0mg"},{"bike_id":"7c8f3d05-5401-4545-847e-9fcee9ea83d5","system_id":"levelo_inurba_marseille","lat":43.26577,"lon":5.39879,"is_reserved":false,"is_disabled":false,"rental_uris":{"android":"levelo://app?vid=7c8f3d05-5401-4545-847e-9fcee9ea83d5","ios":"levelo://app?vid=7c8f3d05-5401-4545-847e-9fcee9ea83d5"},"vehicle_type_id":"4","last_reported":1740140250,"current_range_meters":18800,"station_id":"","pricing_plan_id":"cebpf4jnsgd1na2vs0mg"},{"bike_id":"7603a7c6-1a26-4405-92e4-99bedd6ad4bd","system_id":"levelo_inurba_marseille","lat":43.2303,"lon":5.35429,"is_reserved":false,"is_disabled":false,"rental_uris":{"android":"levelo://app?vid=7603a7c6-1a26-4405-92e4-99bedd6ad4bd","ios":"levelo://app?vid=7603a7c6-1a26-4405-92e4-99bedd6ad4bd"},"vehicle_type_id":"4","last_reported":1740140250,"current_range_meters":12800,"station_id":"cpo3342slgdg3j2ifvpg","pricing_plan_id":"cebpf4jnsgd1na2vs0mg"},{"bike_id":"ca2f82c6-b427-4184-975f-1eafbea7775f","system_id":"levelo_inurba_marseille","lat":43.29181,"lon":5.40372,"is_reserved":false,"is_disabled":false,"rental_uris":{"android":"levelo://app?vid=ca2f82c6-b427-4184-975f-1eafbea7775f","ios":"levelo://app?vid=ca2f82c6-b427-4184-975f-1eafbea7775f"},"vehicle_type_id":"4","last_reported":1740140250,"current_range_meters":13600,"station_id":"","pricing_plan_id":"cebpf4jnsgd1na2vs0mg"},{"bike_id":"ece000d4-661c-4b73-9213-ce0ed97eff8c","system_id":"levelo_inurba_marseille","lat":43.27017,"lon":5.40181,"is_reserved":false,"is_disabled":false,"rental_uris":{"android":"levelo://app?vid=ece000d4-661c-4b73-9213-ce0ed97eff8c","ios":"levelo://app?vid=ece000d4-661c-4b73-9213-ce0ed97eff8c"},"vehicle_type_id":"4","last_reported":1740140250,"current_range_meters":13600,"station_id":"","pricing_plan_id":"cebpf4jnsgd1na2vs0mg"},{"bike_id":"a4eb72fb-9af7-4484-87d3-a92b4443c09a","system_id":"levelo_inurba_marseille","lat":43.23182,"lon":5.39974,"is_reserved":false,"is_disabled":false,"rental_uris":{"android":"levelo://app?vid=a4eb72fb-9af7-4484-87d3-a92b4443c09a","ios":"levelo://app?vid=a4eb72fb-9af7-4484-87d3-a92b4443c09a"},"vehicle_type_id":"4","last_reported":1740140250,"current_range_meters":13600,"station_id":"ce4bhn12rcd13ifvqgqg","pricing_plan_id":"cebpf4jnsgd1na2vs0mg"},{"bike_id":"8c7e5d9a-1601-4c65-9fc4-b545aae7478f","system_id":"levelo_inurba_marseille","lat":43.2481,"lon":5.37456,"is_reserved":false,"is_disabled":false,"rental_uris":{"android":"levelo://app?vid=8c7e5d9a-1601-4c65-9fc4-b545aae7478f","ios":"levelo://app?vid=8c7e5d9a-1601-4c65-9fc4-b545aae7478f"},"vehicle_type_id":"4","last_reported":1740140250,"current_range_meters":13600,"station_id":"ce4bhgh2rcd13ifvqfb0","pricing_plan_id":"cebpf4jnsgd1na2vs0mg"},{"bike_id":"a404738f-d592-4923-bb7f-8cad6bf8fec4","system_id":"levelo_inurba_marseille","lat":43.27949,"lon":5.38495,"is_reserved":false,"is_disabled":false,"rental_uris":{"android":"levelo://app?vid=a404738f-d592-4923-bb7f-8cad6bf8fec4","ios":"levelo://app?vid=a404738f-d592-4923-bb7f-8cad6bf8fec4"},"vehicle_type_id":"4","last_reported":1740140250,"current_range_meters":14000,"station_id":"","pricing_plan_id":"cebpf4jnsgd1na2vs0mg"},{"bike_id":"54b45f3b-f685-44dd-8b79-1a758bf759d2","system_id":"levelo_inurba_marseille","lat":43.337444,"lon":5.374475,"is_reserved":false,"is_disabled":true,"rental_uris":{"android":"levelo://app?vid=54b45f3b-f685-44dd-8b79-1a758bf759d2","ios":"levelo://app?vid=54b45f3b-f685-44dd-8b79-1a758bf759d2"},"vehicle_type_id":"4","last_reported":1740140250,"current_range_meters":14400,"station_id":"","pricing_plan_id":"cebpf4jnsgd1na2vs0mg"},{"bike_id":"c0a936dd-8b78-4344-b0ca-0e19fa1b2ac4","system_id":"levelo_inurba_marseille","lat":43.27888,"lon":5.40738,"is_reserved":false,"is_disabled":false,"rental_uris":{"android":"levelo://app?vid=c0a936dd-8b78-4344-b0ca-0e19fa1b2ac4","ios":"levelo://app?vid=c0a936dd-8b78-4344-b0ca-0e19fa1b2ac4"},"vehicle_type_id":"4","last_reported":1740140250,"current_range_meters":14400,"station_id":"","pricing_plan_id":"cebpf4jnsgd1na2vs0mg"},{"bike_id":"babb279d-c689-41aa-b7dc-9f76ee8891ac","system_id":"levelo_inurba_marseille","lat":43.24811,"lon":5.37452,"is_reserved":false,"is_disabled":false,"rental_uris":{"android":"levelo://app?vid=babb279d-c689-41aa-b7dc-9f76ee8891ac","ios":"levelo://app?vid=babb279d-c689-41aa-b7dc-9f76ee8891ac"},"vehicle_type_id":"4","last_reported":1740140250,"current_range_meters":14400,"station_id":"ce4bhgh2rcd13ifvqfb0","pricing_plan_id":"cebpf4jnsgd1na2vs0mg"},{"bike_id":"8dcb224b-74af-4232-b3f3-9f4084066fcb","system_id":"levelo_inurba_marseille","lat":43.28062,"lon":5.35262,"is_reserved":false,"is_disabled":false,"rental_uris":{"android":"levelo://app?vid=8dcb224b-74af-4232-b3f3-9f4084066fcb","ios":"levelo://app?vid=8dcb224b-74af-4232-b3f3-9f4084066fcb"},"vehicle_type_id":"4","last_reported":1740140250,"current_range_meters":14400,"station_id":"ce4bhbh2rcd13ifvqeo0","pricing_plan_id":"cebpf4jnsgd1na2vs0mg"},{"bike_id":"9677d307-3090-4120-a598-26c59a01cf41","system_id":"levelo_inurba_marseille","lat":43.26234,"lon":5.40456,"is_reserved":false,"is_disabled":false,"rental_uris":{"android":"levelo://app?vid=9677d307-3090-4120-a598-26c59a01cf41","ios":"levelo://app?vid=9677d307-3090-4120-a598-26c59a01cf41"},"vehicle_type_id":"4","last_reported":1740140250,"current_range_meters":14800,"station_id":"ce4bhmh2rcd13ifvqgmg","pricing_plan_id":"cebpf4jnsgd1na2vs0mg"},{"bike_id":"d223bb7c-bbe1-4cd6-b88b-02cfaac1140a","system_id":"levelo_inurba_marseille","lat":43.229187,"lon":5.352982,"is_reserved":false,"is_disabled":false,"rental_uris":{"android":"levelo://app?vid=d223bb7c-bbe1-4cd6-b88b-02cfaac1140a","ios":"levelo://app?vid=d223bb7c-bbe1-4cd6-b88b-02cfaac1140a"},"vehicle_type_id":"4","last_reported":1740140250,"current_range_meters":14800,"station_id":"cpo3532slgdg3j2ikp40","pricing_plan_id":"cebpf4jnsgd1na2vs0mg"},{"bike_id":"78ccc1b5-e05d-4c30-bc5b-473f9d97e2cd","system_id":"levelo_inurba_marseille","lat":43.30125,"lon":5.37811,"is_reserved":false,"is_disabled":false,"rental_uris":{"android":"levelo://app?vid=78ccc1b5-e05d-4c30-bc5b-473f9d97e2cd","ios":"levelo://app?vid=78ccc1b5-e05d-4c30-bc5b-473f9d97e2cd"},"vehicle_type_id":"4","last_reported":1740140250,"current_range_meters":14800,"station_id":"","pricing_plan_id":"cebpf4jnsgd1na2vs0mg"},{"bike_id":"38acc430-3ad5-4470-9487-33dd4a4ee1dd","system_id":"levelo_inurba_marseille","lat":43.2418,"lon":5.39727,"is_reserved":false,"is_disabled":false,"rental_uris":{"android":"levelo://app?vid=38acc430-3ad5-4470-9487-33dd4a4ee1dd","ios":"levelo://app?vid=38acc430-3ad5-4470-9487-33dd4a4ee1dd"},"vehicle_type_id":"4","last_reported":1740140250,"current_range_meters":14800,"station_id":"ce4bhn12rcd13ifvqgpg","pricing_plan_id":"cebpf4jnsgd1na2vs0mg"},{"bike_id":"e501be99-a171-4e91-9e5b-ac547e4c06f2","system_id":"levelo_inurba_marseille","lat":43.23205,"lon":5.35551,"is_reserved":false,"is_disabled":false,"rental_uris":{"android":"levelo://app?vid=e501be99-a171-4e91-9e5b-ac547e4c06f2","ios":"levelo://app?vid=e501be99-a171-4e91-9e5b-ac547e4c06f2"},"vehicle_type_id":"4","last_reported":1740140250,"current_range_meters":14800,"station_id":"ce4bhu92rcd13ifvqi70","pricing_plan_id":"cebpf4jnsgd1na2vs0mg"},{"bike_id":"f3bc2530-1bf9-47fa-a153-ed7be8e256c6","system_id":"levelo_inurba_marseille","lat":43.294045,"lon":5.378326,"is_reserved":false,"is_disabled":false,"rental_uris":{"android":"levelo://app?vid=f3bc2530-1bf9-47fa-a153-ed7be8e256c6","ios":"levelo://app?vid=f3bc2530-1bf9-47fa-a153-ed7be8e256c6"},"vehicle_type_id":"4","last_reported":1740140250,"current_range_meters":12800,"station_id":"ce4bgjh2rcd13ifvqbf0","pricing_plan_id":"cebpf4jnsgd1na2vs0mg"},{"bike_id":"38d30ec7-5f39-49b6-a510-fa390809d779","system_id":"levelo_inurba_marseille","lat":43.27191,"lon":5.40985,"is_reserved":false,"is_disabled":false,"rental_uris":{"android":"levelo://app?vid=38d30ec7-5f39-49b6-a510-fa390809d779","ios":"levelo://app?vid=38d30ec7-5f39-49b6-a510-fa390809d779"},"vehicle_type_id":"4","last_reported":1740140250,"current_range_meters":15200,"station_id":"ce4bhl12rcd13ifvqgf0","pricing_plan_id":"cebpf4jnsgd1na2vs0mg"},{"bike_id":"86b4e26b-e7bd-4429-96bf-c71f42be0f2c","system_id":"levelo_inurba_marseille","lat":43.25722,"lon":5.41116,"is_reserved":false,"is_disabled":false,"rental_uris":{"android":"levelo://app?vid=86b4e26b-e7bd-4429-96bf-c71f42be0f2c","ios":"levelo://app?vid=86b4e26b-e7bd-4429-96bf-c71f42be0f2c"},"vehicle_type_id":"4","last_reported":1740140250,"current_range_meters":15200,"station_id":"ce4bhkp2rcd13ifvqgd0","pricing_plan_id":"cebpf4jnsgd1na2vs0mg"},{"bike_id":"b985ad1f-1942-453b-b5eb-7462cafd1e31","system_id":"levelo_inurba_marseille","lat":43.23178,"lon":5.35518,"is_reserved":false,"is_disabled":false,"rental_uris":{"android":"levelo://app?vid=b985ad1f-1942-453b-b5eb-7462cafd1e31","ios":"levelo://app?vid=b985ad1f-1942-453b-b5eb-7462cafd1e31"},"vehicle_type_id":"4","last_reported":1740140250,"current_range_meters":15200,"station_id":"ce4bhu92rcd13ifvqi70","pricing_plan_id":"cebpf4jnsgd1na2vs0mg"},{"bike_id":"3d05e17e-afc9-4558-9645-ca782e707b3c","system_id":"levelo_inurba_marseille","lat":43.28284,"lon":5.35076,"is_reserved":false,"is_disabled":false,"rental_uris":{"android":"levelo://app?vid=3d05e17e-afc9-4558-9645-ca782e707b3c","ios":"levelo://app?vid=3d05e17e-afc9-4558-9645-ca782e707b3c"},"vehicle_type_id":"4","last_reported":1740140250,"current_range_meters":16000,"station_id":"ce4bhbp2rcd13ifvqerg","pricing_plan_id":"cebpf4jnsgd1na2vs0mg"},{"bike_id":"c0432d37-42ae-4d89-b2b5-acacb21e5f5c","system_id":"levelo_inurba_marseille","lat":43.26566,"lon":5.3731,"is_reserved":false,"is_disabled":false,"rental_uris":{"android":"levelo://app?vid=c0432d37-42ae-4d89-b2b5-acacb21e5f5c","ios":"levelo://app?vid=c0432d37-42ae-4d89-b2b5-acacb21e5f5c"},"vehicle_type_id":"4","last_reported":1740140250,"current_range_meters":16000,"station_id":"ce4bhg12rcd13ifvqf70","pricing_plan_id":"cebpf4jnsgd1na2vs0mg"},{"bike_id":"0c970e41-363b-4b06-ba71-5a86d20b3fa2","system_id":"levelo_inurba_marseille","lat":43.27081,"lon":5.40256,"is_reserved":false,"is_disabled":false,"rental_uris":{"android":"levelo://app?vid=0c970e41-363b-4b06-ba71-5a86d20b3fa2","ios":"levelo://app?vid=0c970e41-363b-4b06-ba71-5a86d20b3fa2"},"vehicle_type_id":"4","last_reported":1740140250,"current_range_meters":16000,"station_id":"ce4bhk92rcd13ifvqgc0","pricing_plan_id":"cebpf4jnsgd1na2vs0mg"},{"bike_id":"aa76e758-defd-4ea3-a869-74cb2b0adb1c","system_id":"levelo_inurba_marseille","lat":43.30467,"lon":5.37897,"is_reserved":false,"is_disabled":false,"rental_uris":{"android":"levelo://app?vid=aa76e758-defd-4ea3-a869-74cb2b0adb1c","ios":"levelo://app?vid=aa76e758-defd-4ea3-a869-74cb2b0adb1c"},"vehicle_type_id":"4","last_reported":1740140250,"current_range_meters":16000,"station_id":"ce4bgup2rcd13ifvqcn0","pricing_plan_id":"cebpf4jnsgd1na2vs0mg"},{"bike_id":"4e440f24-26af-412d-bf4c-9212b06e4ddc","system_id":"levelo_inurba_marseille","lat":43.30635,"lon":5.40108,"is_reserved":false,"is_disabled":false,"rental_uris":{"android":"levelo://app?vid=4e440f24-26af-412d-bf4c-9212b06e4ddc","ios":"levelo://app?vid=4e440f24-26af-412d-bf4c-9212b06e4ddc"},"vehicle_type_id":"4","last_reported":1740140250,"current_range_meters":16400,"station_id":"","pricing_plan_id":"cebpf4jnsgd1na2vs0mg"},{"bike_id":"661fdff0-f0ad-4cb8-b5b0-dc2395fe1e67","system_id":"levelo_inurba_marseille","lat":43.30579,"lon":5.36756,"is_reserved":false,"is_disabled":false,"rental_uris":{"android":"levelo://app?vid=661fdff0-f0ad-4cb8-b5b0-dc2395fe1e67","ios":"levelo://app?vid=661fdff0-f0ad-4cb8-b5b0-dc2395fe1e67"},"vehicle_type_id":"4","last_reported":1740140250,"current_range_meters":16400,"station_id":"ce4bgrp2rcd13ifvqc9g","pricing_plan_id":"cebpf4jnsgd1na2vs0mg"},{"bike_id":"34fc9ca7-e7a1-4e7a-9213-441ac0a88aec","system_id":"levelo_inurba_marseille","lat":43.27796,"lon":5.40695,"is_reserved":false,"is_disabled":false,"rental_uris":{"android":"levelo://app?vid=34fc9ca7-e7a1-4e7a-9213-441ac0a88aec","ios":"levelo://app?vid=34fc9ca7-e7a1-4e7a-9213-441ac0a88aec"},"vehicle_type_id":"4","last_reported":1740140250,"current_range_meters":16400,"station_id":"ce4bhnh2rcd13ifvqgtg","pricing_plan_id":"cebpf4jnsgd1na2vs0mg"},{"bike_id":"8e73348d-2ac3-4f12-9042-0bc436195ceb","system_id":"levelo_inurba_marseille","lat":43.27183,"lon":5.40985,"is_reserved":false,"is_disabled":false,"rental_uris":{"android":"levelo://app?vid=8e73348d-2ac3-4f12-9042-0bc436195ceb","ios":"levelo://app?vid=8e73348d-2ac3-4f12-9042-0bc436195ceb"},"vehicle_type_id":"4","last_reported":1740140250,"current_range_meters":16400,"station_id":"ce4bhl12rcd13ifvqgf0","pricing_plan_id":"cebpf4jnsgd1na2vs0mg"},{"bike_id":"687f7614-ccb3-48f3-b3ec-05daac1517e2","system_id":"levelo_inurba_marseille","lat":43.2782,"lon":5.40729,"is_reserved":false,"is_disabled":false,"rental_uris":{"android":"levelo://app?vid=687f7614-ccb3-48f3-b3ec-05daac1517e2","ios":"levelo://app?vid=687f7614-ccb3-48f3-b3ec-05daac1517e2"},"vehicle_type_id":"4","last_reported":1740140250,"current_range_meters":16400,"station_id":"ce4bhnh2rcd13ifvqgtg","pricing_plan_id":"cebpf4jnsgd1na2vs0mg"},{"bike_id":"46400c70-c5b8-4a3d-bb5b-1d182c4ac75b","system_id":"levelo_inurba_marseille","lat":43.27944,"lon":5.41044,"is_reserved":false,"is_disabled":false,"rental_uris":{"android":"levelo://app?vid=46400c70-c5b8-4a3d-bb5b-1d182c4ac75b","ios":"levelo://app?vid=46400c70-c5b8-4a3d-bb5b-1d182c4ac75b"},"vehicle_type_id":"4","last_reported":1740140250,"current_range_meters":16800,"station_id":"ce4bhnp2rcd13ifvqh0g","pricing_plan_id":"cebpf4jnsgd1na2vs0mg"},{"bike_id":"dbf77936-3d95-4b2b-9e33-d60d28c207cd","system_id":"levelo_inurba_marseille","lat":43.2862,"lon":5.35105,"is_reserved":false,"is_disabled":false,"rental_uris":{"android":"levelo://app?vid=dbf77936-3d95-4b2b-9e33-d60d28c207cd","ios":"levelo://app?vid=dbf77936-3d95-4b2b-9e33-d60d28c207cd"},"vehicle_type_id":"4","last_reported":1740140250,"current_range_meters":16800,"station_id":"ce4bhch2rcd13ifvqeug","pricing_plan_id":"cebpf4jnsgd1na2vs0mg"},{"bike_id":"6253d1d0-21b6-4aa9-b9f3-1a03f37e6a27","system_id":"levelo_inurba_marseille","lat":43.28426,"lon":5.39151,"is_reserved":false,"is_disabled":false,"rental_uris":{"android":"levelo://app?vid=6253d1d0-21b6-4aa9-b9f3-1a03f37e6a27","ios":"levelo://app?vid=6253d1d0-21b6-4aa9-b9f3-1a03f37e6a27"},"vehicle_type_id":"4","last_reported":1740140250,"current_range_meters":16800,"station_id":"ce4bhoh2rcd13ifvqh5g","pricing_plan_id":"cebpf4jnsgd1na2vs0mg"},{"bike_id":"9740c594-f347-4434-9d61-30cfda4dec71","system_id":"levelo_inurba_marseille","lat":43.26498,"lon":5.39559,"is_reserved":false,"is_disabled":true,"rental_uris":{"android":"levelo://app?vid=9740c594-f347-4434-9d61-30cfda4dec71","ios":"levelo://app?vid=9740c594-f347-4434-9d61-30cfda4dec71"},"vehicle_type_id":"4","last_reported":1740140250,"current_range_meters":16800,"station_id":"ce4bhi12rcd13ifvqfq0","pricing_plan_id":"cebpf4jnsgd1na2vs0mg"},{"bike_id":"8dbf3bb4-7c34-4edb-8817-207a6584e6da","system_id":"levelo_inurba_marseille","lat":43.25872,"lon":5.39894,"is_reserved":false,"is_disabled":false,"rental_uris":{"android":"levelo://app?vid=8dbf3bb4-7c34-4edb-8817-207a6584e6da","ios":"levelo://app?vid=8dbf3bb4-7c34-4edb-8817-207a6584e6da"},"vehicle_type_id":"4","last_reported":1740140250,"current_range_meters":16800,"station_id":"ce4bhl92rcd13ifvqghg","pricing_plan_id":"cebpf4jnsgd1na2vs0mg"},{"bike_id":"35331f57-b06c-41f1-8224-4eb3668702eb","system_id":"levelo_inurba_marseille","lat":43.23078,"lon":5.35532,"is_reserved":false,"is_disabled":false,"rental_uris":{"android":"levelo://app?vid=35331f57-b06c-41f1-8224-4eb3668702eb","ios":"levelo://app?vid=35331f57-b06c-41f1-8224-4eb3668702eb"},"vehicle_type_id":"4","last_reported":1740140250,"current_range_meters":16800,"station_id":"cpo3342slgdg3j2ifvpg","pricing_plan_id":"cebpf4jnsgd1na2vs0mg"},{"bike_id":"b3c1f18a-fe65-49f8-a8ba-0efeecf23bc1","system_id":"levelo_inurba_marseille","lat":43.29432,"lon":5.38654,"is_reserved":false,"is_disabled":false,"rental_uris":{"android":"levelo://app?vid=b3c1f18a-fe65-49f8-a8ba-0efeecf23bc1","ios":"levelo://app?vid=b3c1f18a-fe65-49f8-a8ba-0efeecf23bc1"},"vehicle_type_id":"4","last_reported":1740140250,"current_range_meters":16400,"station_id":"ce4bh2h2rcd13ifvqdh0","pricing_plan_id":"cebpf4jnsgd1na2vs0mg"},{"bike_id":"8916baab-e77f-433e-9ea0-b9bbc2b73d58","system_id":"levelo_inurba_marseille","lat":43.26234,"lon":5.40456,"is_reserved":false,"is_disabled":false,"rental_uris":{"android":"levelo://app?vid=8916baab-e77f-433e-9ea0-b9bbc2b73d58","ios":"levelo://app?vid=8916baab-e77f-433e-9ea0-b9bbc2b73d58"},"vehicle_type_id":"4","last_reported":1740140250,"current_range_meters":17200,"station_id":"ce4bhmh2rcd13ifvqgmg","pricing_plan_id":"cebpf4jnsgd1na2vs0mg"},{"bike_id":"d4ff64a8-342c-4644-8b9d-896d67a5e79f","system_id":"levelo_inurba_marseille","lat":43.29536,"lon":5.38548,"is_reserved":false,"is_disabled":false,"rental_uris":{"android":"levelo://app?vid=d4ff64a8-342c-4644-8b9d-896d67a5e79f","ios":"levelo://app?vid=d4ff64a8-342c-4644-8b9d-896d67a5e79f"},"vehicle_type_id":"4","last_reported":1740140250,"current_range_meters":17200,"station_id":"ce4bgih2rcd13ifvqba0","pricing_plan_id":"cebpf4jnsgd1na2vs0mg"},{"bike_id":"5a15c393-53ad-45e8-97c7-d394f8cf1008","system_id":"levelo_inurba_marseille","lat":43.27813,"lon":5.40709,"is_reserved":false,"is_disabled":false,"rental_uris":{"android":"levelo://app?vid=5a15c393-53ad-45e8-97c7-d394f8cf1008","ios":"levelo://app?vid=5a15c393-53ad-45e8-97c7-d394f8cf1008"},"vehicle_type_id":"4","last_reported":1740140250,"current_range_meters":17200,"station_id":"ce4bhnh2rcd13ifvqgtg","pricing_plan_id":"cebpf4jnsgd1na2vs0mg"},{"bike_id":"ffe278a6-8edf-4667-84b1-ae35d1ea78d1","system_id":"levelo_inurba_marseille","lat":43.33603,"lon":5.41023,"is_reserved":false,"is_disabled":false,"rental_uris":{"android":"levelo://app?vid=ffe278a6-8edf-4667-84b1-ae35d1ea78d1","ios":"levelo://app?vid=ffe278a6-8edf-4667-84b1-ae35d1ea78d1"},"vehicle_type_id":"4","last_reported":1740140250,"current_range_meters":17200,"station_id":"ce4bhqh2rcd13ifvqhmg","pricing_plan_id":"cebpf4jnsgd1na2vs0mg"},{"bike_id":"ee42efd9-a51c-4b12-8ff1-4cbbb1d3e664","system_id":"levelo_inurba_marseille","lat":43.31355,"lon":5.3849,"is_reserved":false,"is_disabled":false,"rental_uris":{"android":"levelo://app?vid=ee42efd9-a51c-4b12-8ff1-4cbbb1d3e664","ios":"levelo://app?vid=ee42efd9-a51c-4b12-8ff1-4cbbb1d3e664"},"vehicle_type_id":"4","last_reported":1740140250,"current_range_meters":17200,"station_id":"ce4bgt92rcd13ifvqcf0","pricing_plan_id":"cebpf4jnsgd1na2vs0mg"},{"bike_id":"ea7944fe-273c-4511-ac8f-6380a8b8a8a1","system_id":"levelo_inurba_marseille","lat":43.29586,"lon":5.3751,"is_reserved":false,"is_disabled":false,"rental_uris":{"android":"levelo://app?vid=ea7944fe-273c-4511-ac8f-6380a8b8a8a1","ios":"levelo://app?vid=ea7944fe-273c-4511-ac8f-6380a8b8a8a1"},"vehicle_type_id":"4","last_reported":1740140250,"current_range_meters":17600,"station_id":"ce4bgh92rcd13ifvqb50","pricing_plan_id":"cebpf4jnsgd1na2vs0mg"},{"bike_id":"0fda5a08-e86c-49a0-86f8-dab925e4c5e7","system_id":"levelo_inurba_marseille","lat":43.27617,"lon":5.36107,"is_reserved":false,"is_disabled":false,"rental_uris":{"android":"levelo://app?vid=0fda5a08-e86c-49a0-86f8-dab925e4c5e7","ios":"levelo://app?vid=0fda5a08-e86c-49a0-86f8-dab925e4c5e7"},"vehicle_type_id":"4","last_reported":1740140250,"current_range_meters":17600,"station_id":"","pricing_plan_id":"cebpf4jnsgd1na2vs0mg"},{"bike_id":"8d97fd84-21fe-4006-82ff-49f602bf2892","system_id":"levelo_inurba_marseille","lat":43.296011,"lon":5.380953,"is_reserved":false,"is_disabled":false,"rental_uris":{"android":"levelo://app?vid=8d97fd84-21fe-4006-82ff-49f602bf2892","ios":"levelo://app?vid=8d97fd84-21fe-4006-82ff-49f602bf2892"},"vehicle_type_id":"4","last_reported":1740140250,"current_range_meters":17200,"station_id":"ce4bh492rcd13ifvqdug","pricing_plan_id":"cebpf4jnsgd1na2vs0mg"},{"bike_id":"e54f6a90-70c3-428e-adbf-b72874506c1f","system_id":"levelo_inurba_marseille","lat":43.27971,"lon":5.38736,"is_reserved":false,"is_disabled":false,"rental_uris":{"android":"levelo://app?vid=e54f6a90-70c3-428e-adbf-b72874506c1f","ios":"levelo://app?vid=e54f6a90-70c3-428e-adbf-b72874506c1f"},"vehicle_type_id":"4","last_reported":1740140250,"current_range_meters":17600,"station_id":"ce4bhg12rcd13ifvqf80","pricing_plan_id":"cebpf4jnsgd1na2vs0mg"},{"bike_id":"73afd395-eb1f-4acd-8df6-873814d1f0dd","system_id":"levelo_inurba_marseille","lat":43.27808,"lon":5.407,"is_reserved":false,"is_disabled":false,"rental_uris":{"android":"levelo://app?vid=73afd395-eb1f-4acd-8df6-873814d1f0dd","ios":"levelo://app?vid=73afd395-eb1f-4acd-8df6-873814d1f0dd"},"vehicle_type_id":"4","last_reported":1740140250,"current_range_meters":17600,"station_id":"ce4bhnh2rcd13ifvqgtg","pricing_plan_id":"cebpf4jnsgd1na2vs0mg"},{"bike_id":"2f8e8c2a-33ae-4807-a0d8-3824c1bc0ffc","system_id":"levelo_inurba_marseille","lat":43.24653,"lon":5.38891,"is_reserved":false,"is_disabled":false,"rental_uris":{"android":"levelo://app?vid=2f8e8c2a-33ae-4807-a0d8-3824c1bc0ffc","ios":"levelo://app?vid=2f8e8c2a-33ae-4807-a0d8-3824c1bc0ffc"},"vehicle_type_id":"4","last_reported":1740140250,"current_range_meters":17600,"station_id":"ce4bhg12rcd13ifvqf60","pricing_plan_id":"cebpf4jnsgd1na2vs0mg"},{"bike_id":"d11825b8-23fc-47b2-84b9-7b315e040508","system_id":"levelo_inurba_marseille","lat":43.303171,"lon":5.368941,"is_reserved":false,"is_disabled":false,"rental_uris":{"android":"levelo://app?vid=d11825b8-23fc-47b2-84b9-7b315e040508","ios":"levelo://app?vid=d11825b8-23fc-47b2-84b9-7b315e040508"},"vehicle_type_id":"4","last_reported":1740140250,"current_range_meters":18000,"station_id":"ce4bgqh2rcd13ifvqc5g","pricing_plan_id":"cebpf4jnsgd1na2vs0mg"},{"bike_id":"e776853d-0662-466e-b6c8-aece83517590","system_id":"levelo_inurba_marseille","lat":43.2407,"lon":5.37763,"is_reserved":false,"is_disabled":false,"rental_uris":{"android":"levelo://app?vid=e776853d-0662-466e-b6c8-aece83517590","ios":"levelo://app?vid=e776853d-0662-466e-b6c8-aece83517590"},"vehicle_type_id":"4","last_reported":1740140250,"current_range_meters":18000,"station_id":"","pricing_plan_id":"cebpf4jnsgd1na2vs0mg"},{"bike_id":"0b35ef10-1d1d-4e8a-949e-c3122c5e3874","system_id":"levelo_inurba_marseille","lat":43.23967,"lon":5.36625,"is_reserved":false,"is_disabled":false,"rental_uris":{"android":"levelo://app?vid=0b35ef10-1d1d-4e8a-949e-c3122c5e3874","ios":"levelo://app?vid=0b35ef10-1d1d-4e8a-949e-c3122c5e3874"},"vehicle_type_id":"4","last_reported":1740140250,"current_range_meters":18000,"station_id":"ce4bhi12rcd13ifvqfp0","pricing_plan_id":"cebpf4jnsgd1na2vs0mg"},{"bike_id":"5b7e9f88-fc3d-4785-a9b3-3a422551827c","system_id":"levelo_inurba_marseille","lat":43.270767,"lon":5.40803,"is_reserved":false,"is_disabled":false,"rental_uris":{"android":"levelo://app?vid=5b7e9f88-fc3d-4785-a9b3-3a422551827c","ios":"levelo://app?vid=5b7e9f88-fc3d-4785-a9b3-3a422551827c"},"vehicle_type_id":"4","last_reported":1740140250,"current_range_meters":18000,"station_id":"ce4bhl12rcd13ifvqgf0","pricing_plan_id":"cebpf4jnsgd1na2vs0mg"},{"bike_id":"39940612-fe23-4001-9207-6b95c3963a35","system_id":"levelo_inurba_marseille","lat":43.27191,"lon":5.40994,"is_reserved":false,"is_disabled":false,"rental_uris":{"android":"levelo://app?vid=39940612-fe23-4001-9207-6b95c3963a35","ios":"levelo://app?vid=39940612-fe23-4001-9207-6b95c3963a35"},"vehicle_type_id":"4","last_reported":1740140250,"current_range_meters":18000,"station_id":"ce4bhl12rcd13ifvqgf0","pricing_plan_id":"cebpf4jnsgd1na2vs0mg"},{"bike_id":"33696121-39e1-4240-8e76-b5f69908c503","system_id":"levelo_inurba_marseille","lat":43.27319,"lon":5.39086,"is_reserved":false,"is_disabled":false,"rental_uris":{"android":"levelo://app?vid=33696121-39e1-4240-8e76-b5f69908c503","ios":"levelo://app?vid=33696121-39e1-4240-8e76-b5f69908c503"},"vehicle_type_id":"4","last_reported":1740140250,"current_range_meters":18000,"station_id":"ce4bhgp2rcd13ifvqfe0","pricing_plan_id":"cebpf4jnsgd1na2vs0mg"},{"bike_id":"48db5a48-47a2-4c64-b9a9-108bd0bf934d","system_id":"levelo_inurba_marseille","lat":43.32369,"lon":5.38886,"is_reserved":false,"is_disabled":false,"rental_uris":{"android":"levelo://app?vid=48db5a48-47a2-4c64-b9a9-108bd0bf934d","ios":"levelo://app?vid=48db5a48-47a2-4c64-b9a9-108bd0bf934d"},"vehicle_type_id":"4","last_reported":1740140250,"current_range_meters":18800,"station_id":"ce4bhqp2rcd13ifvqhog","pricing_plan_id":"cebpf4jnsgd1na2vs0mg"},{"bike_id":"3492b738-af06-4fbc-9352-66f31fd2780d","system_id":"levelo_inurba_marseille","lat":43.30958,"lon":5.39023,"is_reserved":false,"is_disabled":false,"rental_uris":{"android":"levelo://app?vid=3492b738-af06-4fbc-9352-66f31fd2780d","ios":"levelo://app?vid=3492b738-af06-4fbc-9352-66f31fd2780d"},"vehicle_type_id":"4","last_reported":1740140250,"current_range_meters":18800,"station_id":"ce4bgup2rcd13ifvqco0","pricing_plan_id":"cebpf4jnsgd1na2vs0mg"},{"bike_id":"84a48ed6-4bba-4c3d-a5e3-cd61b579c40c","system_id":"levelo_inurba_marseille","lat":43.29715,"lon":5.36604,"is_reserved":false,"is_disabled":false,"rental_uris":{"android":"levelo://app?vid=84a48ed6-4bba-4c3d-a5e3-cd61b579c40c","ios":"levelo://app?vid=84a48ed6-4bba-4c3d-a5e3-cd61b579c40c"},"vehicle_type_id":"4","last_reported":1740140250,"current_range_meters":18800,"station_id":"ce4bgn12rcd13ifvqbt0","pricing_plan_id":"cebpf4jnsgd1na2vs0mg"},{"bike_id":"28937787-e5ad-42f1-81ce-7854b6986656","system_id":"levelo_inurba_marseille","lat":43.23185,"lon":5.39985,"is_reserved":false,"is_disabled":false,"rental_uris":{"android":"levelo://app?vid=28937787-e5ad-42f1-81ce-7854b6986656","ios":"levelo://app?vid=28937787-e5ad-42f1-81ce-7854b6986656"},"vehicle_type_id":"4","last_reported":1740140250,"current_range_meters":18800,"station_id":"ce4bhn12rcd13ifvqgqg","pricing_plan_id":"cebpf4jnsgd1na2vs0mg"},{"bike_id":"dfeaa609-4fbf-4151-bbdc-1aae05cc6dbd","system_id":"levelo_inurba_marseille","lat":43.24998,"lon":5.3894,"is_reserved":false,"is_disabled":false,"rental_uris":{"android":"levelo://app?vid=dfeaa609-4fbf-4151-bbdc-1aae05cc6dbd","ios":"levelo://app?vid=dfeaa609-4fbf-4151-bbdc-1aae05cc6dbd"},"vehicle_type_id":"4","last_reported":1740140250,"current_range_meters":18800,"station_id":"ce4bhgp2rcd13ifvqfd0","pricing_plan_id":"cebpf4jnsgd1na2vs0mg"},{"bike_id":"bcfc848d-a5f0-40fb-ad08-896ae43f8d4c","system_id":"levelo_inurba_marseille","lat":43.28437,"lon":5.39188,"is_reserved":false,"is_disabled":false,"rental_uris":{"android":"levelo://app?vid=bcfc848d-a5f0-40fb-ad08-896ae43f8d4c","ios":"levelo://app?vid=bcfc848d-a5f0-40fb-ad08-896ae43f8d4c"},"vehicle_type_id":"4","last_reported":1740140250,"current_range_meters":18000,"station_id":"ce4bhoh2rcd13ifvqh5g","pricing_plan_id":"cebpf4jnsgd1na2vs0mg"},{"bike_id":"467a0ac7-872c-4bb6-8ee3-3c6f458a51d9","system_id":"levelo_inurba_marseille","lat":43.27904,"lon":5.41209,"is_reserved":false,"is_disabled":false,"rental_uris":{"android":"levelo://app?vid=467a0ac7-872c-4bb6-8ee3-3c6f458a51d9","ios":"levelo://app?vid=467a0ac7-872c-4bb6-8ee3-3c6f458a51d9"},"vehicle_type_id":"4","last_reported":1740140250,"current_range_meters":19200,"station_id":"","pricing_plan_id":"cebpf4jnsgd1na2vs0mg"},{"bike_id":"6afdc8bf-2502-41d9-8133-018b65809a9a","system_id":"levelo_inurba_marseille","lat":43.27777,"lon":5.40652,"is_reserved":false,"is_disabled":false,"rental_uris":{"android":"levelo://app?vid=6afdc8bf-2502-41d9-8133-018b65809a9a","ios":"levelo://app?vid=6afdc8bf-2502-41d9-8133-018b65809a9a"},"vehicle_type_id":"4","last_reported":1740140250,"current_range_meters":19200,"station_id":"","pricing_plan_id":"cebpf4jnsgd1na2vs0mg"},{"bike_id":"d8641aa9-8129-4fd8-a343-932779154079","system_id":"levelo_inurba_marseille","lat":43.28085,"lon":5.35231,"is_reserved":false,"is_disabled":false,"rental_uris":{"android":"levelo://app?vid=d8641aa9-8129-4fd8-a343-932779154079","ios":"levelo://app?vid=d8641aa9-8129-4fd8-a343-932779154079"},"vehicle_type_id":"4","last_reported":1740140250,"current_range_meters":19200,"station_id":"","pricing_plan_id":"cebpf4jnsgd1na2vs0mg"},{"bike_id":"9eb76a76-4d91-4fa9-8be0-964eb6834628","system_id":"levelo_inurba_marseille","lat":43.29563,"lon":5.42244,"is_reserved":false,"is_disabled":false,"rental_uris":{"android":"levelo://app?vid=9eb76a76-4d91-4fa9-8be0-964eb6834628","ios":"levelo://app?vid=9eb76a76-4d91-4fa9-8be0-964eb6834628"},"vehicle_type_id":"4","last_reported":1740140250,"current_range_meters":19200,"station_id":"ce4bhph2rcd13ifvqhdg","pricing_plan_id":"cebpf4jnsgd1na2vs0mg"},{"bike_id":"d3873f37-1fa7-41af-877a-9eac05967cdc","system_id":"levelo_inurba_marseille","lat":43.29685,"lon":5.36596,"is_reserved":false,"is_disabled":false,"rental_uris":{"android":"levelo://app?vid=d3873f37-1fa7-41af-877a-9eac05967cdc","ios":"levelo://app?vid=d3873f37-1fa7-41af-877a-9eac05967cdc"},"vehicle_type_id":"4","last_reported":1740140250,"current_range_meters":19200,"station_id":"ce4bgn12rcd13ifvqbt0","pricing_plan_id":"cebpf4jnsgd1na2vs0mg"},{"bike_id":"dab960d9-1ede-46dd-ade3-a5360c9021cf","system_id":"levelo_inurba_marseille","lat":43.23192,"lon":5.35553,"is_reserved":false,"is_disabled":false,"rental_uris":{"android":"levelo://app?vid=dab960d9-1ede-46dd-ade3-a5360c9021cf","ios":"levelo://app?vid=dab960d9-1ede-46dd-ade3-a5360c9021cf"},"vehicle_type_id":"4","last_reported":1740140250,"current_range_meters":19200,"station_id":"ce4bhu92rcd13ifvqi70","pricing_plan_id":"cebpf4jnsgd1na2vs0mg"},{"bike_id":"d0c093fb-a05a-4c00-9d1a-06c2d1bf98cd","system_id":"levelo_inurba_marseille","lat":43.2306,"lon":5.35503,"is_reserved":false,"is_disabled":false,"rental_uris":{"android":"levelo://app?vid=d0c093fb-a05a-4c00-9d1a-06c2d1bf98cd","ios":"levelo://app?vid=d0c093fb-a05a-4c00-9d1a-06c2d1bf98cd"},"vehicle_type_id":"4","last_reported":1740140250,"current_range_meters":19200,"station_id":"cpo3342slgdg3j2ifvpg","pricing_plan_id":"cebpf4jnsgd1na2vs0mg"},{"bike_id":"84e364eb-0bd3-4a3c-8233-6ea88f117d5c","system_id":"levelo_inurba_marseille","lat":43.30161,"lon":5.38076,"is_reserved":false,"is_disabled":false,"rental_uris":{"android":"levelo://app?vid=84e364eb-0bd3-4a3c-8233-6ea88f117d5c","ios":"levelo://app?vid=84e364eb-0bd3-4a3c-8233-6ea88f117d5c"},"vehicle_type_id":"4","last_reported":1740140250,"current_range_meters":19200,"station_id":"ce4bgjp2rcd13ifvqbh0","pricing_plan_id":"cebpf4jnsgd1na2vs0mg"},{"bike_id":"af04c52e-64bc-4b40-9c5d-f4b0968fc255","system_id":"levelo_inurba_marseille","lat":43.24087,"lon":5.37745,"is_reserved":false,"is_disabled":false,"rental_uris":{"android":"levelo://app?vid=af04c52e-64bc-4b40-9c5d-f4b0968fc255","ios":"levelo://app?vid=af04c52e-64bc-4b40-9c5d-f4b0968fc255"},"vehicle_type_id":"4","last_reported":1740140250,"current_range_meters":19200,"station_id":"ce4bhnp2rcd13ifvqgvg","pricing_plan_id":"cebpf4jnsgd1na2vs0mg"},{"bike_id":"b90aab18-c490-4d1d-b988-a76ffbe43530","system_id":"levelo_inurba_marseille","lat":43.24196,"lon":5.39759,"is_reserved":false,"is_disabled":false,"rental_uris":{"android":"levelo://app?vid=b90aab18-c490-4d1d-b988-a76ffbe43530","ios":"levelo://app?vid=b90aab18-c490-4d1d-b988-a76ffbe43530"},"vehicle_type_id":"4","last_reported":1740140250,"current_range_meters":19200,"station_id":"ce4bhn12rcd13ifvqgpg","pricing_plan_id":"cebpf4jnsgd1na2vs0mg"},{"bike_id":"46bfb48e-1bd6-4675-8665-fe5c6b1cdb8e","system_id":"levelo_inurba_marseille","lat":43.25108,"lon":5.4033,"is_reserved":false,"is_disabled":false,"rental_uris":{"android":"levelo://app?vid=46bfb48e-1bd6-4675-8665-fe5c6b1cdb8e","ios":"levelo://app?vid=46bfb48e-1bd6-4675-8665-fe5c6b1cdb8e"},"vehicle_type_id":"4","last_reported":1740140250,"current_range_meters":19600,"station_id":"","pricing_plan_id":"cebpf4jnsgd1na2vs0mg"},{"bike_id":"e6f40cbd-265d-4568-97a6-8d3f5b1c12cb","system_id":"levelo_inurba_marseille","lat":43.23058,"lon":5.35478,"is_reserved":false,"is_disabled":false,"rental_uris":{"android":"levelo://app?vid=e6f40cbd-265d-4568-97a6-8d3f5b1c12cb","ios":"levelo://app?vid=e6f40cbd-265d-4568-97a6-8d3f5b1c12cb"},"vehicle_type_id":"4","last_reported":1740140250,"current_range_meters":19600,"station_id":"cpo3342slgdg3j2ifvpg","pricing_plan_id":"cebpf4jnsgd1na2vs0mg"},{"bike_id":"ba0bce3c-2f0f-4319-a7aa-4f3727bd81ea","system_id":"levelo_inurba_marseille","lat":43.321206,"lon":5.367875,"is_reserved":false,"is_disabled":false,"rental_uris":{"android":"levelo://app?vid=ba0bce3c-2f0f-4319-a7aa-4f3727bd81ea","ios":"levelo://app?vid=ba0bce3c-2f0f-4319-a7aa-4f3727bd81ea"},"vehicle_type_id":"4","last_reported":1740140250,"current_range_meters":19600,"station_id":"ce4bhrh2rcd13ifvqhug","pricing_plan_id":"cebpf4jnsgd1na2vs0mg"},{"bike_id":"dcccdff3-154f-4c83-adcd-2b11fe0f1bd7","system_id":"levelo_inurba_marseille","lat":43.30556,"lon":5.36528,"is_reserved":false,"is_disabled":false,"rental_uris":{"android":"levelo://app?vid=dcccdff3-154f-4c83-adcd-2b11fe0f1bd7","ios":"levelo://app?vid=dcccdff3-154f-4c83-adcd-2b11fe0f1bd7"},"vehicle_type_id":"4","last_reported":1740140250,"current_range_meters":19600,"station_id":"ce4bgs12rcd13ifvqcag","pricing_plan_id":"cebpf4jnsgd1na2vs0mg"},{"bike_id":"ecb792ba-e590-4d62-97cc-1e9b429064df","system_id":"levelo_inurba_marseille","lat":43.25005,"lon":5.389143,"is_reserved":false,"is_disabled":false,"rental_uris":{"android":"levelo://app?vid=ecb792ba-e590-4d62-97cc-1e9b429064df","ios":"levelo://app?vid=ecb792ba-e590-4d62-97cc-1e9b429064df"},"vehicle_type_id":"4","last_reported":1740140250,"current_range_meters":19600,"station_id":"ce4bhgp2rcd13ifvqfd0","pricing_plan_id":"cebpf4jnsgd1na2vs0mg"},{"bike_id":"e63cbd10-cd77-4ed0-a39a-9be005a5c0e8","system_id":"levelo_inurba_marseille","lat":43.33593,"lon":5.40976,"is_reserved":false,"is_disabled":false,"rental_uris":{"android":"levelo://app?vid=e63cbd10-cd77-4ed0-a39a-9be005a5c0e8","ios":"levelo://app?vid=e63cbd10-cd77-4ed0-a39a-9be005a5c0e8"},"vehicle_type_id":"4","last_reported":1740140250,"current_range_meters":19600,"station_id":"","pricing_plan_id":"cebpf4jnsgd1na2vs0mg"},{"bike_id":"d5566d2e-78e8-488f-b3e7-c9c338cd491f","system_id":"levelo_inurba_marseille","lat":43.274866,"lon":5.424626,"is_reserved":false,"is_disabled":false,"rental_uris":{"android":"levelo://app?vid=d5566d2e-78e8-488f-b3e7-c9c338cd491f","ios":"levelo://app?vid=d5566d2e-78e8-488f-b3e7-c9c338cd491f"},"vehicle_type_id":"4","last_reported":1740140250,"current_range_meters":19600,"station_id":"ce4bhn92rcd13ifvqgrg","pricing_plan_id":"cebpf4jnsgd1na2vs0mg"},{"bike_id":"1deaa002-5243-48d8-8779-82891264a102","system_id":"levelo_inurba_marseille","lat":43.24791,"lon":5.37468,"is_reserved":false,"is_disabled":false,"rental_uris":{"android":"levelo://app?vid=1deaa002-5243-48d8-8779-82891264a102","ios":"levelo://app?vid=1deaa002-5243-48d8-8779-82891264a102"},"vehicle_type_id":"4","last_reported":1740140250,"current_range_meters":19600,"station_id":"ce4bhgh2rcd13ifvqfb0","pricing_plan_id":"cebpf4jnsgd1na2vs0mg"},{"bike_id":"3c1cb79f-aaf5-462d-8b1f-bdb14c92805b","system_id":"levelo_inurba_marseille","lat":43.27804,"lon":5.40712,"is_reserved":false,"is_disabled":false,"rental_uris":{"android":"levelo://app?vid=3c1cb79f-aaf5-462d-8b1f-bdb14c92805b","ios":"levelo://app?vid=3c1cb79f-aaf5-462d-8b1f-bdb14c92805b"},"vehicle_type_id":"4","last_reported":1740140250,"current_range_meters":19600,"station_id":"ce4bhnh2rcd13ifvqgtg","pricing_plan_id":"cebpf4jnsgd1na2vs0mg"},{"bike_id":"4d8a26e5-8617-425b-92ac-4fc969f57842","system_id":"levelo_inurba_marseille","lat":43.33721,"lon":5.3918,"is_reserved":false,"is_disabled":false,"rental_uris":{"android":"levelo://app?vid=4d8a26e5-8617-425b-92ac-4fc969f57842","ios":"levelo://app?vid=4d8a26e5-8617-425b-92ac-4fc969f57842"},"vehicle_type_id":"4","last_reported":1740140250,"current_range_meters":19600,"station_id":"ce4bhr92rcd13ifvqhsg","pricing_plan_id":"cebpf4jnsgd1na2vs0mg"},{"bike_id":"3fd77a94-3c88-4191-a1d0-f971d9c34746","system_id":"levelo_inurba_marseille","lat":43.26215,"lon":5.37444,"is_reserved":false,"is_disabled":false,"rental_uris":{"android":"levelo://app?vid=3fd77a94-3c88-4191-a1d0-f971d9c34746","ios":"levelo://app?vid=3fd77a94-3c88-4191-a1d0-f971d9c34746"},"vehicle_type_id":"4","last_reported":1740140250,"current_range_meters":19600,"station_id":"ce4bhgp2rcd13ifvqfc0","pricing_plan_id":"cebpf4jnsgd1na2vs0mg"},{"bike_id":"330d64ce-5713-4328-9727-7f6f0bc2e963","system_id":"levelo_inurba_marseille","lat":43.24084,"lon":5.37753,"is_reserved":false,"is_disabled":false,"rental_uris":{"android":"levelo://app?vid=330d64ce-5713-4328-9727-7f6f0bc2e963","ios":"levelo://app?vid=330d64ce-5713-4328-9727-7f6f0bc2e963"},"vehicle_type_id":"4","last_reported":1740140250,"current_range_meters":19600,"station_id":"ce4bhnp2rcd13ifvqgvg","pricing_plan_id":"cebpf4jnsgd1na2vs0mg"},{"bike_id":"a1d4d619-ba0d-43fe-a30b-87cd7f21d2ee","system_id":"levelo_inurba_marseille","lat":43.31325,"lon":5.39702,"is_reserved":false,"is_disabled":false,"rental_uris":{"android":"levelo://app?vid=a1d4d619-ba0d-43fe-a30b-87cd7f21d2ee","ios":"levelo://app?vid=a1d4d619-ba0d-43fe-a30b-87cd7f21d2ee"},"vehicle_type_id":"4","last_reported":1740140250,"current_range_meters":19600,"station_id":"ce4bgvp2rcd13ifvqcu0","pricing_plan_id":"cebpf4jnsgd1na2vs0mg"},{"bike_id":"a7c4fa13-c21c-42ce-82ab-11370de54a3d","system_id":"levelo_inurba_marseille","lat":43.28006,"lon":5.40028,"is_reserved":false,"is_disabled":false,"rental_uris":{"android":"levelo://app?vid=a7c4fa13-c21c-42ce-82ab-11370de54a3d","ios":"levelo://app?vid=a7c4fa13-c21c-42ce-82ab-11370de54a3d"},"vehicle_type_id":"4","last_reported":1740140250,"current_range_meters":20000,"station_id":"ce4bho92rcd13ifvqh4g","pricing_plan_id":"cebpf4jnsgd1na2vs0mg"},{"bike_id":"51ab5c04-b668-4819-bdf0-612daafed0d0","system_id":"levelo_inurba_marseille","lat":43.27189,"lon":5.39153,"is_reserved":false,"is_disabled":false,"rental_uris":{"android":"levelo://app?vid=51ab5c04-b668-4819-bdf0-612daafed0d0","ios":"levelo://app?vid=51ab5c04-b668-4819-bdf0-612daafed0d0"},"vehicle_type_id":"4","last_reported":1740140250,"current_range_meters":20000,"station_id":"ce4bhhp2rcd13ifvqfm0","pricing_plan_id":"cebpf4jnsgd1na2vs0mg"},{"bike_id":"498338b8-20e1-4424-b59f-c2ed3d13a9be","system_id":"levelo_inurba_marseille","lat":43.28422,"lon":5.34985,"is_reserved":false,"is_disabled":false,"rental_uris":{"android":"levelo://app?vid=498338b8-20e1-4424-b59f-c2ed3d13a9be","ios":"levelo://app?vid=498338b8-20e1-4424-b59f-c2ed3d13a9be"},"vehicle_type_id":"4","last_reported":1740140250,"current_range_meters":20000,"station_id":"ce4bhbh2rcd13ifvqepg","pricing_plan_id":"cebpf4jnsgd1na2vs0mg"},{"bike_id":"364f3e51-fd29-4ae7-837e-e9b95d49470c","system_id":"levelo_inurba_marseille","lat":43.30205,"lon":5.38033,"is_reserved":false,"is_disabled":false,"rental_uris":{"android":"levelo://app?vid=364f3e51-fd29-4ae7-837e-e9b95d49470c","ios":"levelo://app?vid=364f3e51-fd29-4ae7-837e-e9b95d49470c"},"vehicle_type_id":"4","last_reported":1740140250,"current_range_meters":20000,"station_id":"","pricing_plan_id":"cebpf4jnsgd1na2vs0mg"},{"bike_id":"bfe57002-6a81-4896-9239-5c25fa659aaf","system_id":"levelo_inurba_marseille","lat":43.2621,"lon":5.37448,"is_reserved":false,"is_disabled":false,"rental_uris":{"android":"levelo://app?vid=bfe57002-6a81-4896-9239-5c25fa659aaf","ios":"levelo://app?vid=bfe57002-6a81-4896-9239-5c25fa659aaf"},"vehicle_type_id":"4","last_reported":1740140250,"current_range_meters":20000,"station_id":"ce4bhgp2rcd13ifvqfc0","pricing_plan_id":"cebpf4jnsgd1na2vs0mg"},{"bike_id":"8c20ab15-f04e-4e58-be71-0abf1d05d250","system_id":"levelo_inurba_marseille","lat":43.23973,"lon":5.36622,"is_reserved":false,"is_disabled":false,"rental_uris":{"android":"levelo://app?vid=8c20ab15-f04e-4e58-be71-0abf1d05d250","ios":"levelo://app?vid=8c20ab15-f04e-4e58-be71-0abf1d05d250"},"vehicle_type_id":"4","last_reported":1740140250,"current_range_meters":20000,"station_id":"ce4bhi12rcd13ifvqfp0","pricing_plan_id":"cebpf4jnsgd1na2vs0mg"},{"bike_id":"aa0dd3c1-5e32-46d7-9c69-30e88f060561","system_id":"levelo_inurba_marseille","lat":43.292572,"lon":5.408924,"is_reserved":false,"is_disabled":false,"rental_uris":{"android":"levelo://app?vid=aa0dd3c1-5e32-46d7-9c69-30e88f060561","ios":"levelo://app?vid=aa0dd3c1-5e32-46d7-9c69-30e88f060561"},"vehicle_type_id":"4","last_reported":1740140250,"current_range_meters":20000,"station_id":"ce4bh192rcd13ifvqdc0","pricing_plan_id":"cebpf4jnsgd1na2vs0mg"},{"bike_id":"75e532cd-4bef-4e27-bba1-fd10d35b08b1","system_id":"levelo_inurba_marseille","lat":43.29631,"lon":5.40596,"is_reserved":false,"is_disabled":false,"rental_uris":{"android":"levelo://app?vid=75e532cd-4bef-4e27-bba1-fd10d35b08b1","ios":"levelo://app?vid=75e532cd-4bef-4e27-bba1-fd10d35b08b1"},"vehicle_type_id":"4","last_reported":1740140250,"current_range_meters":20000,"station_id":"ce4bh0h2rcd13ifvqd60","pricing_plan_id":"cebpf4jnsgd1na2vs0mg"},{"bike_id":"38f9bc40-639e-4f64-87e9-15092cc7344e","system_id":"levelo_inurba_marseille","lat":43.34419,"lon":5.38148,"is_reserved":false,"is_disabled":false,"rental_uris":{"android":"levelo://app?vid=38f9bc40-639e-4f64-87e9-15092cc7344e","ios":"levelo://app?vid=38f9bc40-639e-4f64-87e9-15092cc7344e"},"vehicle_type_id":"4","last_reported":1740140250,"current_range_meters":20000,"station_id":"","pricing_plan_id":"cebpf4jnsgd1na2vs0mg"},{"bike_id":"774ffc86-416e-4c20-9a8b-e8850e765bb5","system_id":"levelo_inurba_marseille","lat":43.2963,"lon":5.37739,"is_reserved":false,"is_disabled":false,"rental_uris":{"android":"levelo://app?vid=774ffc86-416e-4c20-9a8b-e8850e765bb5","ios":"levelo://app?vid=774ffc86-416e-4c20-9a8b-e8850e765bb5"},"vehicle_type_id":"4","last_reported":1740140250,"current_range_meters":20000,"station_id":"ce4bgi92rcd13ifvqb90","pricing_plan_id":"cebpf4jnsgd1na2vs0mg"},{"bike_id":"ab46b189-6bae-4129-a7fd-10b3ccd5a48e","system_id":"levelo_inurba_marseille","lat":43.27204,"lon":5.3999,"is_reserved":false,"is_disabled":false,"rental_uris":{"android":"levelo://app?vid=ab46b189-6bae-4129-a7fd-10b3ccd5a48e","ios":"levelo://app?vid=ab46b189-6bae-4129-a7fd-10b3ccd5a48e"},"vehicle_type_id":"4","last_reported":1740140250,"current_range_meters":20000,"station_id":"","pricing_plan_id":"cebpf4jnsgd1na2vs0mg"},{"bike_id":"f5298310-14cd-4aed-bc3f-841e7d37dcf5","system_id":"levelo_inurba_marseille","lat":43.32656,"lon":5.40991,"is_reserved":false,"is_disabled":true,"rental_uris":{"android":"levelo://app?vid=f5298310-14cd-4aed-bc3f-841e7d37dcf5","ios":"levelo://app?vid=f5298310-14cd-4aed-bc3f-841e7d37dcf5"},"vehicle_type_id":"4","last_reported":1740140250,"current_range_meters":20000,"station_id":"ce4bhpp2rcd13ifvqhgg","pricing_plan_id":"cebpf4jnsgd1na2vs0mg"},{"bike_id":"c5785b31-89ec-44a3-bac5-308672aa531a","system_id":"levelo_inurba_marseille","lat":43.32027,"lon":5.38143,"is_reserved":false,"is_disabled":false,"rental_uris":{"android":"levelo://app?vid=c5785b31-89ec-44a3-bac5-308672aa531a","ios":"levelo://app?vid=c5785b31-89ec-44a3-bac5-308672aa531a"},"vehicle_type_id":"4","last_reported":1740140250,"current_range_meters":19600,"station_id":"ce4bhr12rcd13ifvqhpg","pricing_plan_id":"cebpf4jnsgd1na2vs0mg"},{"bike_id":"c6d092da-084a-40cc-8355-3b3f11043ca9","system_id":"levelo_inurba_marseille","lat":43.30483,"lon":5.37906,"is_reserved":false,"is_disabled":false,"rental_uris":{"android":"levelo://app?vid=c6d092da-084a-40cc-8355-3b3f11043ca9","ios":"levelo://app?vid=c6d092da-084a-40cc-8355-3b3f11043ca9"},"vehicle_type_id":"4","last_reported":1740140250,"current_range_meters":20400,"station_id":"ce4bgup2rcd13ifvqcn0","pricing_plan_id":"cebpf4jnsgd1na2vs0mg"},{"bike_id":"6897935d-90c4-4aaa-81bd-a334d1112cb3","system_id":"levelo_inurba_marseille","lat":43.24705,"lon":5.38157,"is_reserved":false,"is_disabled":false,"rental_uris":{"android":"levelo://app?vid=6897935d-90c4-4aaa-81bd-a334d1112cb3","ios":"levelo://app?vid=6897935d-90c4-4aaa-81bd-a334d1112cb3"},"vehicle_type_id":"4","last_reported":1740140250,"current_range_meters":20400,"station_id":"ce4bhih2rcd13ifvqfr0","pricing_plan_id":"cebpf4jnsgd1na2vs0mg"},{"bike_id":"ea1e25ad-519f-4910-9dc6-044e7ee29f59","system_id":"levelo_inurba_marseille","lat":43.28832,"lon":5.39308,"is_reserved":false,"is_disabled":false,"rental_uris":{"android":"levelo://app?vid=ea1e25ad-519f-4910-9dc6-044e7ee29f59","ios":"levelo://app?vid=ea1e25ad-519f-4910-9dc6-044e7ee29f59"},"vehicle_type_id":"4","last_reported":1740140250,"current_range_meters":20400,"station_id":"ce4bh2p2rcd13ifvqdi0","pricing_plan_id":"cebpf4jnsgd1na2vs0mg"},{"bike_id":"a0f71ddc-dc84-48f5-9db7-14d18d867876","system_id":"levelo_inurba_marseille","lat":43.23159,"lon":5.43709,"is_reserved":false,"is_disabled":false,"rental_uris":{"android":"levelo://app?vid=a0f71ddc-dc84-48f5-9db7-14d18d867876","ios":"levelo://app?vid=a0f71ddc-dc84-48f5-9db7-14d18d867876"},"vehicle_type_id":"4","last_reported":1740140250,"current_range_meters":20400,"station_id":"ce4bhmp2rcd13ifvqgog","pricing_plan_id":"cebpf4jnsgd1na2vs0mg"},{"bike_id":"8b52c24a-60e9-4f95-8f6d-a404db75239c","system_id":"levelo_inurba_marseille","lat":43.27379,"lon":5.36246,"is_reserved":false,"is_disabled":false,"rental_uris":{"android":"levelo://app?vid=8b52c24a-60e9-4f95-8f6d-a404db75239c","ios":"levelo://app?vid=8b52c24a-60e9-4f95-8f6d-a404db75239c"},"vehicle_type_id":"4","last_reported":1740140250,"current_range_meters":20400,"station_id":"ce4bhbh2rcd13ifvqeo0","pricing_plan_id":"cebpf4jnsgd1na2vs0mg"},{"bike_id":"ad9f0ce5-5865-4406-8f62-72f324e3c473","system_id":"levelo_inurba_marseille","lat":43.297825,"lon":5.38118,"is_reserved":false,"is_disabled":false,"rental_uris":{"android":"levelo://app?vid=ad9f0ce5-5865-4406-8f62-72f324e3c473","ios":"levelo://app?vid=ad9f0ce5-5865-4406-8f62-72f324e3c473"},"vehicle_type_id":"4","last_reported":1740140250,"current_range_meters":20000,"station_id":"ce4bgip2rcd13ifvqbb0","pricing_plan_id":"cebpf4jnsgd1na2vs0mg"},{"bike_id":"b819d193-6bd3-4e9d-ae0a-ef580c4761bf","system_id":"levelo_inurba_marseille","lat":43.30177,"lon":5.3802,"is_reserved":false,"is_disabled":false,"rental_uris":{"android":"levelo://app?vid=b819d193-6bd3-4e9d-ae0a-ef580c4761bf","ios":"levelo://app?vid=b819d193-6bd3-4e9d-ae0a-ef580c4761bf"},"vehicle_type_id":"4","last_reported":1740140250,"current_range_meters":20400,"station_id":"","pricing_plan_id":"cebpf4jnsgd1na2vs0mg"},{"bike_id":"72d27ecd-2d6d-4c04-a1c6-e315b1d841e4","system_id":"levelo_inurba_marseille","lat":43.30098,"lon":5.39088,"is_reserved":false,"is_disabled":false,"rental_uris":{"android":"levelo://app?vid=72d27ecd-2d6d-4c04-a1c6-e315b1d841e4","ios":"levelo://app?vid=72d27ecd-2d6d-4c04-a1c6-e315b1d841e4"},"vehicle_type_id":"4","last_reported":1740140250,"current_range_meters":20400,"station_id":"ce4bh192rcd13ifvqdb0","pricing_plan_id":"cebpf4jnsgd1na2vs0mg"},{"bike_id":"141c1c4a-b159-4e45-a75c-360c6e051ad9","system_id":"levelo_inurba_marseille","lat":43.29891,"lon":5.39746,"is_reserved":false,"is_disabled":false,"rental_uris":{"android":"levelo://app?vid=141c1c4a-b159-4e45-a75c-360c6e051ad9","ios":"levelo://app?vid=141c1c4a-b159-4e45-a75c-360c6e051ad9"},"vehicle_type_id":"4","last_reported":1740140250,"current_range_meters":20400,"station_id":"ce4bh0h2rcd13ifvqd50","pricing_plan_id":"cebpf4jnsgd1na2vs0mg"},{"bike_id":"522deade-2596-4a48-b761-5ad7b70093cd","system_id":"levelo_inurba_marseille","lat":43.23957,"lon":5.36627,"is_reserved":false,"is_disabled":false,"rental_uris":{"android":"levelo://app?vid=522deade-2596-4a48-b761-5ad7b70093cd","ios":"levelo://app?vid=522deade-2596-4a48-b761-5ad7b70093cd"},"vehicle_type_id":"4","last_reported":1740140250,"current_range_meters":20400,"station_id":"ce4bhi12rcd13ifvqfp0","pricing_plan_id":"cebpf4jnsgd1na2vs0mg"},{"bike_id":"3307539e-16e5-457c-9daf-1311bdad1b6a","system_id":"levelo_inurba_marseille","lat":43.299,"lon":5.43675,"is_reserved":false,"is_disabled":false,"rental_uris":{"android":"levelo://app?vid=3307539e-16e5-457c-9daf-1311bdad1b6a","ios":"levelo://app?vid=3307539e-16e5-457c-9daf-1311bdad1b6a"},"vehicle_type_id":"4","last_reported":1740140250,"current_range_meters":20400,"station_id":"ce4bhpp2rcd13ifvqhfg","pricing_plan_id":"cebpf4jnsgd1na2vs0mg"},{"bike_id":"ab84c6ab-e8ae-449a-bffe-fa5ca30bf397","system_id":"levelo_inurba_marseille","lat":43.29977,"lon":5.37181,"is_reserved":false,"is_disabled":false,"rental_uris":{"android":"levelo://app?vid=ab84c6ab-e8ae-449a-bffe-fa5ca30bf397","ios":"levelo://app?vid=ab84c6ab-e8ae-449a-bffe-fa5ca30bf397"},"vehicle_type_id":"4","last_reported":1740140250,"current_range_meters":20400,"station_id":"ce4bgr92rcd13ifvqc7g","pricing_plan_id":"cebpf4jnsgd1na2vs0mg"},{"bike_id":"16787297-f72a-4518-8a38-8dfd02e0f9d1","system_id":"levelo_inurba_marseille","lat":43.26809,"lon":5.40263,"is_reserved":false,"is_disabled":false,"rental_uris":{"android":"levelo://app?vid=16787297-f72a-4518-8a38-8dfd02e0f9d1","ios":"levelo://app?vid=16787297-f72a-4518-8a38-8dfd02e0f9d1"},"vehicle_type_id":"4","last_reported":1740140250,"current_range_meters":20800,"station_id":"ce501612rcd8frsf0b60","pricing_plan_id":"cebpf4jnsgd1na2vs0mg"},{"bike_id":"708d6f15-e4f7-44bb-b969-5bb32a2d7702","system_id":"levelo_inurba_marseille","lat":43.30556,"lon":5.36536,"is_reserved":false,"is_disabled":false,"rental_uris":{"android":"levelo://app?vid=708d6f15-e4f7-44bb-b969-5bb32a2d7702","ios":"levelo://app?vid=708d6f15-e4f7-44bb-b969-5bb32a2d7702"},"vehicle_type_id":"4","last_reported":1740140250,"current_range_meters":20800,"station_id":"ce4bgs12rcd13ifvqcag","pricing_plan_id":"cebpf4jnsgd1na2vs0mg"},{"bike_id":"a738a443-e23f-484f-b7ae-03021ce1b232","system_id":"levelo_inurba_marseille","lat":43.27054,"lon":5.40271,"is_reserved":false,"is_disabled":false,"rental_uris":{"android":"levelo://app?vid=a738a443-e23f-484f-b7ae-03021ce1b232","ios":"levelo://app?vid=a738a443-e23f-484f-b7ae-03021ce1b232"},"vehicle_type_id":"4","last_reported":1740140250,"current_range_meters":20800,"station_id":"ce4bhk92rcd13ifvqgc0","pricing_plan_id":"cebpf4jnsgd1na2vs0mg"},{"bike_id":"9bd4a5b3-6ad3-4987-9573-f76860158130","system_id":"levelo_inurba_marseille","lat":43.29543,"lon":5.38546,"is_reserved":false,"is_disabled":false,"rental_uris":{"android":"levelo://app?vid=9bd4a5b3-6ad3-4987-9573-f76860158130","ios":"levelo://app?vid=9bd4a5b3-6ad3-4987-9573-f76860158130"},"vehicle_type_id":"4","last_reported":1740140250,"current_range_meters":20800,"station_id":"ce4bgih2rcd13ifvqba0","pricing_plan_id":"cebpf4jnsgd1na2vs0mg"},{"bike_id":"709ac384-e595-4e64-89e3-d5343191236c","system_id":"levelo_inurba_marseille","lat":43.27817,"lon":5.40717,"is_reserved":false,"is_disabled":false,"rental_uris":{"android":"levelo://app?vid=709ac384-e595-4e64-89e3-d5343191236c","ios":"levelo://app?vid=709ac384-e595-4e64-89e3-d5343191236c"},"vehicle_type_id":"4","last_reported":1740140250,"current_range_meters":20800,"station_id":"ce4bhnh2rcd13ifvqgtg","pricing_plan_id":"cebpf4jnsgd1na2vs0mg"},{"bike_id":"bbf625f9-d17e-438d-91bc-e83e057d96a7","system_id":"levelo_inurba_marseille","lat":43.27822,"lon":5.40717,"is_reserved":false,"is_disabled":false,"rental_uris":{"android":"levelo://app?vid=bbf625f9-d17e-438d-91bc-e83e057d96a7","ios":"levelo://app?vid=bbf625f9-d17e-438d-91bc-e83e057d96a7"},"vehicle_type_id":"4","last_reported":1740140250,"current_range_meters":20800,"station_id":"ce4bhnh2rcd13ifvqgtg","pricing_plan_id":"cebpf4jnsgd1na2vs0mg"},{"bike_id":"b403c280-df61-4c83-9e60-8df278fb49d8","system_id":"levelo_inurba_marseille","lat":43.30294,"lon":5.37704,"is_reserved":false,"is_disabled":false,"rental_uris":{"android":"levelo://app?vid=b403c280-df61-4c83-9e60-8df278fb49d8","ios":"levelo://app?vid=b403c280-df61-4c83-9e60-8df278fb49d8"},"vehicle_type_id":"4","last_reported":1740140250,"current_range_meters":20800,"station_id":"ce4bguh2rcd13ifvqcj0","pricing_plan_id":"cebpf4jnsgd1na2vs0mg"},{"bike_id":"4351ab8f-102b-4040-9744-2d51484d7921","system_id":"levelo_inurba_marseille","lat":43.24392,"lon":5.37069,"is_reserved":false,"is_disabled":true,"rental_uris":{"android":"levelo://app?vid=4351ab8f-102b-4040-9744-2d51484d7921","ios":"levelo://app?vid=4351ab8f-102b-4040-9744-2d51484d7921"},"vehicle_type_id":"4","last_reported":1740140250,"current_range_meters":20800,"station_id":"ce4bhhh2rcd13ifvqfk0","pricing_plan_id":"cebpf4jnsgd1na2vs0mg"},{"bike_id":"bbbc32d5-bdfc-4d94-98d1-e8296c28086c","system_id":"levelo_inurba_marseille","lat":43.29797,"lon":5.38092,"is_reserved":false,"is_disabled":false,"rental_uris":{"android":"levelo://app?vid=bbbc32d5-bdfc-4d94-98d1-e8296c28086c","ios":"levelo://app?vid=bbbc32d5-bdfc-4d94-98d1-e8296c28086c"},"vehicle_type_id":"4","last_reported":1740140250,"current_range_meters":20800,"station_id":"ce4bgip2rcd13ifvqbb0","pricing_plan_id":"cebpf4jnsgd1na2vs0mg"},{"bike_id":"abb9c976-dcde-4edd-9ca4-79b3f8b65004","system_id":"levelo_inurba_marseille","lat":43.26569,"lon":5.39013,"is_reserved":false,"is_disabled":true,"rental_uris":{"android":"levelo://app?vid=abb9c976-dcde-4edd-9ca4-79b3f8b65004","ios":"levelo://app?vid=abb9c976-dcde-4edd-9ca4-79b3f8b65004"},"vehicle_type_id":"4","last_reported":1740140250,"current_range_meters":20800,"station_id":"ce4bhe12rcd13ifvqf30","pricing_plan_id":"cebpf4jnsgd1na2vs0mg"},{"bike_id":"23c63fb5-2515-414a-acd8-ade663b33d54","system_id":"levelo_inurba_marseille","lat":43.31529,"lon":5.38036,"is_reserved":false,"is_disabled":false,"rental_uris":{"android":"levelo://app?vid=23c63fb5-2515-414a-acd8-ade663b33d54","ios":"levelo://app?vid=23c63fb5-2515-414a-acd8-ade663b33d54"},"vehicle_type_id":"4","last_reported":1740140250,"current_range_meters":21600,"station_id":"ce4bhsp2rcd13ifvqi50","pricing_plan_id":"cebpf4jnsgd1na2vs0mg"},{"bike_id":"21489318-d43e-4c5d-be7b-1f50adcb5eae","system_id":"levelo_inurba_marseille","lat":43.2749,"lon":5.42455,"is_reserved":false,"is_disabled":false,"rental_uris":{"android":"levelo://app?vid=21489318-d43e-4c5d-be7b-1f50adcb5eae","ios":"levelo://app?vid=21489318-d43e-4c5d-be7b-1f50adcb5eae"},"vehicle_type_id":"4","last_reported":1740140250,"current_range_meters":21600,"station_id":"ce4bhn92rcd13ifvqgrg","pricing_plan_id":"cebpf4jnsgd1na2vs0mg"},{"bike_id":"9208364c-258f-4d53-93f1-1f0b0b77dca1","system_id":"levelo_inurba_marseille","lat":43.30615,"lon":5.37226,"is_reserved":false,"is_disabled":false,"rental_uris":{"android":"levelo://app?vid=9208364c-258f-4d53-93f1-1f0b0b77dca1","ios":"levelo://app?vid=9208364c-258f-4d53-93f1-1f0b0b77dca1"},"vehicle_type_id":"4","last_reported":1740140250,"current_range_meters":21600,"station_id":"ce4bgqh2rcd13ifvqc4g","pricing_plan_id":"cebpf4jnsgd1na2vs0mg"},{"bike_id":"503982b2-2ba7-4482-aa5e-307a7c3ca8e4","system_id":"levelo_inurba_marseille","lat":43.31696,"lon":5.40465,"is_reserved":false,"is_disabled":false,"rental_uris":{"android":"levelo://app?vid=503982b2-2ba7-4482-aa5e-307a7c3ca8e4","ios":"levelo://app?vid=503982b2-2ba7-4482-aa5e-307a7c3ca8e4"},"vehicle_type_id":"4","last_reported":1740140250,"current_range_meters":21600,"station_id":"ce4bh012rcd13ifvqd00","pricing_plan_id":"cebpf4jnsgd1na2vs0mg"},{"bike_id":"fcdbc24a-0a0d-48bd-b669-6198e0a8e28b","system_id":"levelo_inurba_marseille","lat":43.31884,"lon":5.40736,"is_reserved":false,"is_disabled":false,"rental_uris":{"android":"levelo://app?vid=fcdbc24a-0a0d-48bd-b669-6198e0a8e28b","ios":"levelo://app?vid=fcdbc24a-0a0d-48bd-b669-6198e0a8e28b"},"vehicle_type_id":"4","last_reported":1740140250,"current_range_meters":21600,"station_id":"ce4bhq12rcd13ifvqhig","pricing_plan_id":"cebpf4jnsgd1na2vs0mg"},{"bike_id":"bbb2fb08-3c75-4670-8144-0d47483d4bfc","system_id":"levelo_inurba_marseille","lat":43.29248,"lon":5.38438,"is_reserved":false,"is_disabled":false,"rental_uris":{"android":"levelo://app?vid=bbb2fb08-3c75-4670-8144-0d47483d4bfc","ios":"levelo://app?vid=bbb2fb08-3c75-4670-8144-0d47483d4bfc"},"vehicle_type_id":"4","last_reported":1740140250,"current_range_meters":21600,"station_id":"ce4bh692rcd13ifvqea0","pricing_plan_id":"cebpf4jnsgd1na2vs0mg"},{"bike_id":"073518a5-4dc0-447e-9477-a67f73b2a5a2","system_id":"levelo_inurba_marseille","lat":43.32354,"lon":5.36701,"is_reserved":false,"is_disabled":false,"rental_uris":{"android":"levelo://app?vid=073518a5-4dc0-447e-9477-a67f73b2a5a2","ios":"levelo://app?vid=073518a5-4dc0-447e-9477-a67f73b2a5a2"},"vehicle_type_id":"4","last_reported":1740140250,"current_range_meters":21600,"station_id":"ce4bhsh2rcd13ifvqi2g","pricing_plan_id":"cebpf4jnsgd1na2vs0mg"},{"bike_id":"e1dae4cb-8246-4148-a07e-eb6548cfb01c","system_id":"levelo_inurba_marseille","lat":43.29258,"lon":5.38426,"is_reserved":false,"is_disabled":false,"rental_uris":{"android":"levelo://app?vid=e1dae4cb-8246-4148-a07e-eb6548cfb01c","ios":"levelo://app?vid=e1dae4cb-8246-4148-a07e-eb6548cfb01c"},"vehicle_type_id":"4","last_reported":1740140250,"current_range_meters":21600,"station_id":"ce4bh692rcd13ifvqea0","pricing_plan_id":"cebpf4jnsgd1na2vs0mg"},{"bike_id":"c2a577a3-44a6-426d-aac1-5124994319eb","system_id":"levelo_inurba_marseille","lat":43.28019,"lon":5.39991,"is_reserved":false,"is_disabled":false,"rental_uris":{"android":"levelo://app?vid=c2a577a3-44a6-426d-aac1-5124994319eb","ios":"levelo://app?vid=c2a577a3-44a6-426d-aac1-5124994319eb"},"vehicle_type_id":"4","last_reported":1740140250,"current_range_meters":22000,"station_id":"ce4bho92rcd13ifvqh4g","pricing_plan_id":"cebpf4jnsgd1na2vs0mg"},