{"last_updated":1743181731,"ttl":60,"version":"2.2","data":{"bikes":[{"bike_id":"ed03a150-4a27-44d7-9b16-1d6f489ee6d1","system_id":"levelo_inurba_marseille","lat":43.29199,"lon":5.35788,"is_reserved":false,"is_disabled":false,"rental_uris":{"android":"levelo://app?vid=ed03a150-4a27-44d7-9b16-1d6f489ee6d1","ios":"levelo://app?vid=ed03a150-4a27-44d7-9b16-1d6f489ee6d1"},"vehicle_type_id":"4","last_reported":1743181732,"current_range_meters":2800,"station_id":"ce4bhb12rcd13ifvqel0","pricing_plan_id":"cebpf4jnsgd1na2vs0mg"},{"bike_id":"a6a6042c-677b-471a-9cd3-7ef24fc168ee","system_id":"levelo_inurba_marseille","lat":43.29536,"lon":5.38548,"is_reserved":false,"is_disabled":false,"rental_uris":{"android":"levelo://app?vid=a6a6042c-677b-471a-9cd3-7ef24fc168ee","ios":"levelo://app?vid=a6a6042c-677b-471a-9cd3-7ef24fc168ee"},"vehicle_type_id":"4","last_reported":1743181732,"current_range_meters":2800,"station_id":"ce4bgih2rcd13ifvqba0","pricing_plan_id":"cebpf4jnsgd1na2vs0mg"},{"bike_id":"e6f93dbb-f26e-4f0d-8ac4-2443e5d09605","system_id":"levelo_inurba_marseille","lat":43.302829,"lon":5.377091,"is_reserved":false,"is_disabled":false,"rental_uris":{"android":"levelo://app?vid=e6f93dbb-f26e-4f0d-8ac4-2443e5d09605","ios":"levelo://app?vid=e6f93dbb-f26e-4f0d-8ac4-2443e5d09605"},"vehicle_type_id":"4","last_reported":1743181732,"current_range_meters":2000,"station_id":"ce4bguh2rcd13ifvqcj0","pricing_plan_id":"cebpf4jnsgd1na2vs0mg"},{"bike_id":"b9c12f90-7aec-43e8-9da4-c36dcc81ca94","system_id":"levelo_inurba_marseille","lat":43.29293,"lon":5.37463,"is_reserved":false,"is_disabled":false,"rental_uris":{"android":"levelo://app?vid=b9c12f90-7aec-43e8-9da4-c36dcc81ca94","ios":"levelo://app?vid=b9c12f90-7aec-43e8-9da4-c36dcc81ca94"},"vehicle_type_id":"4","last_reported":1743181732,"current_range_meters":2800,"station_id":"ce4bgi12rcd13ifvqb70","pricing_plan_id":"cebpf4jnsgd1na2vs0mg"},{"bike_id":"0952cafd-ca62-4f10-94e7-04053d7e5704","system_id":"levelo_inurba_marseille","lat":43.30299,"lon":5.39216,"is_reserved":false,"is_disabled":false,"rental_uris":{"android":"levelo://app?vid=0952cafd-ca62-4f10-94e7-04053d7e5704","ios":"levelo://app?vid=0952cafd-ca62-4f10-94e7-04053d7e5704"},"vehicle_type_id":"4","last_reported":1743181732,"current_range_meters":3200,"station_id":"ce4bgkh2rcd13ifvqbk0","pricing_plan_id":"cebpf4jnsgd1na2vs0mg"},{"bike_id":"c2504f84-7af5-4950-96cf-9d63de000c80","system_id":"levelo_inurba_marseille","lat":43.29629,"lon":5.37709,"is_reserved":false,"is_disabled":false,"rental_uris":{"android":"levelo://app?vid=c2504f84-7af5-4950-96cf-9d63de000c80","ios":"levelo://app?vid=c2504f84-7af5-4950-96cf-9d63de000c80"},"vehicle_type_id":"4","last_reported":1743181732,"current_range_meters":2800,"station_id":"ce4bgi92rcd13ifvqb90","pricing_plan_id":"cebpf4jnsgd1na2vs0mg"},{"bike_id":"e4acbe8a-5887-44a1-a7db-e93e0a877b00","system_id":"levelo_inurba_marseille","lat":43.29901,"lon":5.3814,"is_reserved":false,"is_disabled":false,"rental_uris":{"android":"levelo://app?vid=e4acbe8a-5887-44a1-a7db-e93e0a877b00","ios":"levelo://app?vid=e4acbe8a-5887-44a1-a7db-e93e0a877b00"},"vehicle_type_id":"4","last_reported":1743181732,"current_range_meters":2800,"station_id":"ce4bgj12rcd13ifvqbc0","pricing_plan_id":"cebpf4jnsgd1na2vs0mg"},{"bike_id":"515faa86-fa39-46ff-930a-2fe51eead6f6","system_id":"levelo_inurba_marseille","lat":43.2661,"lon":5.393598,"is_reserved":false,"is_disabled":false,"rental_uris":{"android":"levelo://app?vid=515faa86-fa39-46ff-930a-2fe51eead6f6","ios":"levelo://app?vid=515faa86-fa39-46ff-930a-2fe51eead6f6"},"vehicle_type_id":"4","last_reported":1743181732,"current_range_meters":2800,"station_id":"","pricing_plan_id":"cebpf4jnsgd1na2vs0mg"},{"bike_id":"615e6f60-20ed-4594-8c79-54112c9d8ff2","system_id":"levelo_inurba_marseille","lat":43.28268,"lon":5.35063,"is_reserved":false,"is_disabled":false,"rental_uris":{"android":"levelo://app?vid=615e6f60-20ed-4594-8c79-54112c9d8ff2","ios":"levelo://app?vid=615e6f60-20ed-4594-8c79-54112c9d8ff2"},"vehicle_type_id":"4","last_reported":1743181732,"current_range_meters":2800,"station_id":"ce4bhbp2rcd13ifvqerg","pricing_plan_id":"cebpf4jnsgd1na2vs0mg"},{"bike_id":"71dd1abb-8e58-49e7-8645-f0d617f873b5","system_id":"levelo_inurba_marseille","lat":43.31117,"lon":5.37762,"is_reserved":false,"is_disabled":false,"rental_uris":{"android":"levelo://app?vid=71dd1abb-8e58-49e7-8645-f0d617f873b5","ios":"levelo://app?vid=71dd1abb-8e58-49e7-8645-f0d617f873b5"},"vehicle_type_id":"4","last_reported":1743181732,"current_range_meters":2800,"station_id":"ce4bgt92rcd13ifvqcg0","pricing_plan_id":"cebpf4jnsgd1na2vs0mg"},{"bike_id":"a39af197-fb67-4a87-b3a8-e5ad03bf2145","system_id":"levelo_inurba_marseille","lat":43.29202,"lon":5.39322,"is_reserved":false,"is_disabled":false,"rental_uris":{"android":"levelo://app?vid=a39af197-fb67-4a87-b3a8-e5ad03bf2145","ios":"levelo://app?vid=a39af197-fb67-4a87-b3a8-e5ad03bf2145"},"vehicle_type_id":"4","last_reported":1743181732,"current_range_meters":3200,"station_id":"ce4bh192rcd13ifvqdd0","pricing_plan_id":"cebpf4jnsgd1na2vs0mg"},{"bike_id":"138a313c-4ce2-486d-9310-c114bf7f7065","system_id":"levelo_inurba_marseille","lat":43.2873,"lon":5.36088,"is_reserved":false,"is_disabled":false,"rental_uris":{"android":"levelo://app?vid=138a313c-4ce2-486d-9310-c114bf7f7065","ios":"levelo://app?vid=138a313c-4ce2-486d-9310-c114bf7f7065"},"vehicle_type_id":"4","last_reported":1743181732,"current_range_meters":3200,"station_id":"cki0cbj6b192h4jlfktg","pricing_plan_id":"cebpf4jnsgd1na2vs0mg"},{"bike_id":"c0c51653-f6d5-4ce7-b3ac-57945f640242","system_id":"levelo_inurba_marseille","lat":43.2678,"lon":5.39455,"is_reserved":false,"is_disabled":false,"rental_uris":{"android":"levelo://app?vid=c0c51653-f6d5-4ce7-b3ac-57945f640242","ios":"levelo://app?vid=c0c51653-f6d5-4ce7-b3ac-57945f640242"},"vehicle_type_id":"4","last_reported":1743181732,"current_range_meters":3200,"station_id":"","pricing_plan_id":"cebpf4jnsgd1na2vs0mg"},{"bike_id":"a8d3b117-b969-4715-ba6d-1ed39a5d939d","system_id":"levelo_inurba_marseille","lat":43.28935,"lon":5.36636,"is_reserved":false,"is_disabled":false,"rental_uris":{"android":"levelo://app?vid=a8d3b117-b969-4715-ba6d-1ed39a5d939d","ios":"levelo://app?vid=a8d3b117-b969-4715-ba6d-1ed39a5d939d"},"vehicle_type_id":"4","last_reported":1743181732,"current_range_meters":3600,"station_id":"ce4bhap2rcd13ifvqek0","pricing_plan_id":"cebpf4jnsgd1na2vs0mg"},{"bike_id":"df680603-7e7a-4306-baa9-dbb5d5ec46e8","system_id":"levelo_inurba_marseille","lat":43.28608,"lon":5.35114,"is_reserved":false,"is_disabled":false,"rental_uris":{"android":"levelo://app?vid=df680603-7e7a-4306-baa9-dbb5d5ec46e8","ios":"levelo://app?vid=df680603-7e7a-4306-baa9-dbb5d5ec46e8"},"vehicle_type_id":"4","last_reported":1743181732,"current_range_meters":3600,"station_id":"ce4bhch2rcd13ifvqeug","pricing_plan_id":"cebpf4jnsgd1na2vs0mg"},{"bike_id":"037242df-df71-4bd1-ab9c-9236251a17d4","system_id":"levelo_inurba_marseille","lat":43.26033,"lon":5.37548,"is_reserved":false,"is_disabled":false,"rental_uris":{"android":"levelo://app?vid=037242df-df71-4bd1-ab9c-9236251a17d4","ios":"levelo://app?vid=037242df-df71-4bd1-ab9c-9236251a17d4"},"vehicle_type_id":"4","last_reported":1743181732,"current_range_meters":3200,"station_id":"ce4bhgh2rcd13ifvqfa0","pricing_plan_id":"cebpf4jnsgd1na2vs0mg"},{"bike_id":"83356d06-da84-4aa3-ae11-e20571143d10","system_id":"levelo_inurba_marseille","lat":43.28469,"lon":5.35882,"is_reserved":false,"is_disabled":false,"rental_uris":{"android":"levelo://app?vid=83356d06-da84-4aa3-ae11-e20571143d10","ios":"levelo://app?vid=83356d06-da84-4aa3-ae11-e20571143d10"},"vehicle_type_id":"4","last_reported":1743181732,"current_range_meters":3600,"station_id":"ce4bhah2rcd13ifvqei0","pricing_plan_id":"cebpf4jnsgd1na2vs0mg"},{"bike_id":"997e888d-7593-45de-a9a2-ac1e8703585f","system_id":"levelo_inurba_marseille","lat":43.25815,"lon":5.39429,"is_reserved":false,"is_disabled":false,"rental_uris":{"android":"levelo://app?vid=997e888d-7593-45de-a9a2-ac1e8703585f","ios":"levelo://app?vid=997e888d-7593-45de-a9a2-ac1e8703585f"},"vehicle_type_id":"4","last_reported":1743181732,"current_range_meters":4000,"station_id":"ce4bhip2rcd13ifvqft0","pricing_plan_id":"cebpf4jnsgd1na2vs0mg"},{"bike_id":"27107505-51c9-4978-b3f8-8970fd16f7c8","system_id":"levelo_inurba_marseille","lat":43.29426,"lon":5.3862,"is_reserved":false,"is_disabled":false,"rental_uris":{"android":"levelo://app?vid=27107505-51c9-4978-b3f8-8970fd16f7c8","ios":"levelo://app?vid=27107505-51c9-4978-b3f8-8970fd16f7c8"},"vehicle_type_id":"4","last_reported":1743181732,"current_range_meters":4000,"station_id":"ce4bh2h2rcd13ifvqdh0","pricing_plan_id":"cebpf4jnsgd1na2vs0mg"},{"bike_id":"d0915f90-4220-4d62-b4ea-7c7fa554c4a4","system_id":"levelo_inurba_marseille","lat":43.302409,"lon":5.369234,"is_reserved":false,"is_disabled":false,"rental_uris":{"android":"levelo://app?vid=d0915f90-4220-4d62-b4ea-7c7fa554c4a4","ios":"levelo://app?vid=d0915f90-4220-4d62-b4ea-7c7fa554c4a4"},"vehicle_type_id":"4","last_reported":1743181732,"current_range_meters":4000,"station_id":"ce4bgqh2rcd13ifvqc5g","pricing_plan_id":"cebpf4jnsgd1na2vs0mg"},{"bike_id":"4954834c-c0f2-4aae-aef1-d3882ca7d8b8","system_id":"levelo_inurba_marseille","lat":43.29005,"lon":5.35607,"is_reserved":false,"is_disabled":false,"rental_uris":{"android":"levelo://app?vid=4954834c-c0f2-4aae-aef1-d3882ca7d8b8","ios":"levelo://app?vid=4954834c-c0f2-4aae-aef1-d3882ca7d8b8"},"vehicle_type_id":"4","last_reported":1743181732,"current_range_meters":4000,"station_id":"ce4bhb92rcd13ifvqen0","pricing_plan_id":"cebpf4jnsgd1na2vs0mg"},{"bike_id":"58784cc5-15b9-45ed-97a4-00daf4c1919f","system_id":"levelo_inurba_marseille","lat":43.2969,"lon":5.37301,"is_reserved":false,"is_disabled":false,"rental_uris":{"android":"levelo://app?vid=58784cc5-15b9-45ed-97a4-00daf4c1919f","ios":"levelo://app?vid=58784cc5-15b9-45ed-97a4-00daf4c1919f"},"vehicle_type_id":"4","last_reported":1743181732,"current_range_meters":4000,"station_id":"ce4bgk12rcd13ifvqbj0","pricing_plan_id":"cebpf4jnsgd1na2vs0mg"},{"bike_id":"65e39f6a-226b-4cfc-b4fd-de989989906d","system_id":"levelo_inurba_marseille","lat":43.28464,"lon":5.3588,"is_reserved":false,"is_disabled":false,"rental_uris":{"android":"levelo://app?vid=65e39f6a-226b-4cfc-b4fd-de989989906d","ios":"levelo://app?vid=65e39f6a-226b-4cfc-b4fd-de989989906d"},"vehicle_type_id":"4","last_reported":1743181732,"current_range_meters":4000,"station_id":"ce4bhah2rcd13ifvqei0","pricing_plan_id":"cebpf4jnsgd1na2vs0mg"},{"bike_id":"2220ce99-9ba6-4d3d-b79e-e8f5b8eb8499","system_id":"levelo_inurba_marseille","lat":43.290411,"lon":5.39958,"is_reserved":false,"is_disabled":false,"rental_uris":{"android":"levelo://app?vid=2220ce99-9ba6-4d3d-b79e-e8f5b8eb8499","ios":"levelo://app?vid=2220ce99-9ba6-4d3d-b79e-e8f5b8eb8499"},"vehicle_type_id":"4","last_reported":1743181732,"current_range_meters":4400,"station_id":"ce4bh512rcd13ifvqe3g","pricing_plan_id":"cebpf4jnsgd1na2vs0mg"},{"bike_id":"6668f257-defa-4305-9852-1eadd8a613b4","system_id":"levelo_inurba_marseille","lat":43.290314,"lon":5.386524,"is_reserved":false,"is_disabled":false,"rental_uris":{"android":"levelo://app?vid=6668f257-defa-4305-9852-1eadd8a613b4","ios":"levelo://app?vid=6668f257-defa-4305-9852-1eadd8a613b4"},"vehicle_type_id":"4","last_reported":1743181732,"current_range_meters":4400,"station_id":"ce4bh4p2rcd13ifvqe0g","pricing_plan_id":"cebpf4jnsgd1na2vs0mg"},{"bike_id":"5931f9b4-6337-480e-b6f5-bc102329d689","system_id":"levelo_inurba_marseille","lat":43.29984,"lon":5.37172,"is_reserved":false,"is_disabled":false,"rental_uris":{"android":"levelo://app?vid=5931f9b4-6337-480e-b6f5-bc102329d689","ios":"levelo://app?vid=5931f9b4-6337-480e-b6f5-bc102329d689"},"vehicle_type_id":"4","last_reported":1743181732,"current_range_meters":4400,"station_id":"ce4bgr92rcd13ifvqc7g","pricing_plan_id":"cebpf4jnsgd1na2vs0mg"},{"bike_id":"fbb8e853-af8b-47f9-8b9e-94c0f3127ba8","system_id":"levelo_inurba_marseille","lat":43.298644,"lon":5.37622,"is_reserved":false,"is_disabled":true,"rental_uris":{"android":"levelo://app?vid=fbb8e853-af8b-47f9-8b9e-94c0f3127ba8","ios":"levelo://app?vid=fbb8e853-af8b-47f9-8b9e-94c0f3127ba8"},"vehicle_type_id":"4","last_reported":1743181732,"current_range_meters":4400,"station_id":"ce4bgjh2rcd13ifvqbg0","pricing_plan_id":"cebpf4jnsgd1na2vs0mg"},{"bike_id":"12501298-a84e-4403-a1f5-91e110b037ed","system_id":"levelo_inurba_marseille","lat":43.28499,"lon":5.38553,"is_reserved":false,"is_disabled":false,"rental_uris":{"android":"levelo://app?vid=12501298-a84e-4403-a1f5-91e110b037ed","ios":"levelo://app?vid=12501298-a84e-4403-a1f5-91e110b037ed"},"vehicle_type_id":"4","last_reported":1743181732,"current_range_meters":4400,"station_id":"ce4bh8p2rcd13ifvqeb0","pricing_plan_id":"cebpf4jnsgd1na2vs0mg"},{"bike_id":"3b6642fb-9a62-434c-9a78-b0bd182fc628","system_id":"levelo_inurba_marseille","lat":43.27901,"lon":5.41241,"is_reserved":false,"is_disabled":false,"rental_uris":{"android":"levelo://app?vid=3b6642fb-9a62-434c-9a78-b0bd182fc628","ios":"levelo://app?vid=3b6642fb-9a62-434c-9a78-b0bd182fc628"},"vehicle_type_id":"4","last_reported":1743181732,"current_range_meters":4400,"station_id":"","pricing_plan_id":"cebpf4jnsgd1na2vs0mg"},{"bike_id":"c18155db-65c7-4d5a-8c5b-923eb75c675d","system_id":"levelo_inurba_marseille","lat":43.32114,"lon":5.36755,"is_reserved":false,"is_disabled":false,"rental_uris":{"android":"levelo://app?vid=c18155db-65c7-4d5a-8c5b-923eb75c675d","ios":"levelo://app?vid=c18155db-65c7-4d5a-8c5b-923eb75c675d"},"vehicle_type_id":"4","last_reported":1743181732,"current_range_meters":4400,"station_id":"ce4bhrh2rcd13ifvqhug","pricing_plan_id":"cebpf4jnsgd1na2vs0mg"},{"bike_id":"88441ea7-ff6a-4dba-b61a-d1dccf96322d","system_id":"levelo_inurba_marseille","lat":43.28859,"lon":5.35855,"is_reserved":false,"is_disabled":false,"rental_uris":{"android":"levelo://app?vid=88441ea7-ff6a-4dba-b61a-d1dccf96322d","ios":"levelo://app?vid=88441ea7-ff6a-4dba-b61a-d1dccf96322d"},"vehicle_type_id":"4","last_reported":1743181732,"current_range_meters":4400,"station_id":"ce4bhb12rcd13ifvqem0","pricing_plan_id":"cebpf4jnsgd1na2vs0mg"},{"bike_id":"c1e2a33a-2a5d-4a85-a1d8-43d300319a4d","system_id":"levelo_inurba_marseille","lat":43.32037,"lon":5.41552,"is_reserved":false,"is_disabled":false,"rental_uris":{"android":"levelo://app?vid=c1e2a33a-2a5d-4a85-a1d8-43d300319a4d","ios":"levelo://app?vid=c1e2a33a-2a5d-4a85-a1d8-43d300319a4d"},"vehicle_type_id":"4","last_reported":1743181732,"current_range_meters":4400,"station_id":"ce4bhq92rcd13ifvqhkg","pricing_plan_id":"cebpf4jnsgd1na2vs0mg"},{"bike_id":"2a72a570-7d37-4e38-af65-2b8436674c10","system_id":"levelo_inurba_marseille","lat":43.29525,"lon":5.37499,"is_reserved":false,"is_disabled":false,"rental_uris":{"android":"levelo://app?vid=2a72a570-7d37-4e38-af65-2b8436674c10","ios":"levelo://app?vid=2a72a570-7d37-4e38-af65-2b8436674c10"},"vehicle_type_id":"4","last_reported":1743181732,"current_range_meters":4800,"station_id":"ce4bgkp2rcd13ifvqbmg","pricing_plan_id":"cebpf4jnsgd1na2vs0mg"},{"bike_id":"38988fed-c23c-48f8-b7ef-40a9a217d662","system_id":"levelo_inurba_marseille","lat":43.26499,"lon":5.39535,"is_reserved":false,"is_disabled":false,"rental_uris":{"android":"levelo://app?vid=38988fed-c23c-48f8-b7ef-40a9a217d662","ios":"levelo://app?vid=38988fed-c23c-48f8-b7ef-40a9a217d662"},"vehicle_type_id":"4","last_reported":1743181732,"current_range_meters":4800,"station_id":"ce4bhi12rcd13ifvqfq0","pricing_plan_id":"cebpf4jnsgd1na2vs0mg"},{"bike_id":"d43b2a86-10ae-42b3-8b7e-8bb72fd0fb1c","system_id":"levelo_inurba_marseille","lat":43.28841,"lon":5.35852,"is_reserved":false,"is_disabled":false,"rental_uris":{"android":"levelo://app?vid=d43b2a86-10ae-42b3-8b7e-8bb72fd0fb1c","ios":"levelo://app?vid=d43b2a86-10ae-42b3-8b7e-8bb72fd0fb1c"},"vehicle_type_id":"4","last_reported":1743181732,"current_range_meters":5600,"station_id":"ce4bhb12rcd13ifvqem0","pricing_plan_id":"cebpf4jnsgd1na2vs0mg"},{"bike_id":"8306ff47-284b-460f-888b-6204683b7222","system_id":"levelo_inurba_marseille","lat":43.28725,"lon":5.36096,"is_reserved":false,"is_disabled":false,"rental_uris":{"android":"levelo://app?vid=8306ff47-284b-460f-888b-6204683b7222","ios":"levelo://app?vid=8306ff47-284b-460f-888b-6204683b7222"},"vehicle_type_id":"4","last_reported":1743181732,"current_range_meters":4800,"station_id":"cki0cbj6b192h4jlfktg","pricing_plan_id":"cebpf4jnsgd1na2vs0mg"},{"bike_id":"ef41bcf8-f5ef-4ed4-9202-72bd0ff166a1","system_id":"levelo_inurba_marseille","lat":43.299982,"lon":5.383652,"is_reserved":false,"is_disabled":false,"rental_uris":{"android":"levelo://app?vid=ef41bcf8-f5ef-4ed4-9202-72bd0ff166a1","ios":"levelo://app?vid=ef41bcf8-f5ef-4ed4-9202-72bd0ff166a1"},"vehicle_type_id":"4","last_reported":1743181732,"current_range_meters":4800,"station_id":"ce4bgl12rcd13ifvqbo0","pricing_plan_id":"cebpf4jnsgd1na2vs0mg"},{"bike_id":"794580a5-7f25-45a3-934d-1c4f35e37cfc","system_id":"levelo_inurba_marseille","lat":43.31226,"lon":5.36868,"is_reserved":false,"is_disabled":false,"rental_uris":{"android":"levelo://app?vid=794580a5-7f25-45a3-934d-1c4f35e37cfc","ios":"levelo://app?vid=794580a5-7f25-45a3-934d-1c4f35e37cfc"},"vehicle_type_id":"4","last_reported":1743181732,"current_range_meters":5600,"station_id":"ce4bgl92rcd13ifvqbq0","pricing_plan_id":"cebpf4jnsgd1na2vs0mg"},{"bike_id":"b41a2241-f690-491e-8b8f-584b6d79ccd7","system_id":"levelo_inurba_marseille","lat":43.23967,"lon":5.36632,"is_reserved":false,"is_disabled":false,"rental_uris":{"android":"levelo://app?vid=b41a2241-f690-491e-8b8f-584b6d79ccd7","ios":"levelo://app?vid=b41a2241-f690-491e-8b8f-584b6d79ccd7"},"vehicle_type_id":"4","last_reported":1743181732,"current_range_meters":5600,"station_id":"ce4bhi12rcd13ifvqfp0","pricing_plan_id":"cebpf4jnsgd1na2vs0mg"},{"bike_id":"7d2c12dd-249c-42ca-9be9-23f86424c17b","system_id":"levelo_inurba_marseille","lat":43.28665,"lon":5.36335,"is_reserved":false,"is_disabled":false,"rental_uris":{"android":"levelo://app?vid=7d2c12dd-249c-42ca-9be9-23f86424c17b","ios":"levelo://app?vid=7d2c12dd-249c-42ca-9be9-23f86424c17b"},"vehicle_type_id":"4","last_reported":1743181732,"current_range_meters":5600,"station_id":"ce4bhah2rcd13ifvqej0","pricing_plan_id":"cebpf4jnsgd1na2vs0mg"},{"bike_id":"74d7a0e0-ce3f-4474-abf2-b00416e25b0b","system_id":"levelo_inurba_marseille","lat":43.29884,"lon":5.38905,"is_reserved":false,"is_disabled":false,"rental_uris":{"android":"levelo://app?vid=74d7a0e0-ce3f-4474-abf2-b00416e25b0b","ios":"levelo://app?vid=74d7a0e0-ce3f-4474-abf2-b00416e25b0b"},"vehicle_type_id":"4","last_reported":1743181732,"current_range_meters":5600,"station_id":"ce4bh392rcd13ifvqdl0","pricing_plan_id":"cebpf4jnsgd1na2vs0mg"},{"bike_id":"d8bac27b-d337-4cc4-be5c-87e890c6403c","system_id":"levelo_inurba_marseille","lat":43.28668,"lon":5.36337,"is_reserved":false,"is_disabled":false,"rental_uris":{"android":"levelo://app?vid=d8bac27b-d337-4cc4-be5c-87e890c6403c","ios":"levelo://app?vid=d8bac27b-d337-4cc4-be5c-87e890c6403c"},"vehicle_type_id":"4","last_reported":1743181732,"current_range_meters":6000,"station_id":"ce4bhah2rcd13ifvqej0","pricing_plan_id":"cebpf4jnsgd1na2vs0mg"},{"bike_id":"9108efae-73e9-412e-8196-cfca317be609","system_id":"levelo_inurba_marseille","lat":43.29312,"lon":5.37184,"is_reserved":false,"is_disabled":true,"rental_uris":{"android":"levelo://app?vid=9108efae-73e9-412e-8196-cfca317be609","ios":"levelo://app?vid=9108efae-73e9-412e-8196-cfca317be609"},"vehicle_type_id":"4","last_reported":1743181732,"current_range_meters":6000,"station_id":"ce4bgh92rcd13ifvqb40","pricing_plan_id":"cebpf4jnsgd1na2vs0mg"},{"bike_id":"e609d048-ed4c-49a8-a7c3-c3b0fefc64d9","system_id":"levelo_inurba_marseille","lat":43.28611,"lon":5.37061,"is_reserved":false,"is_disabled":false,"rental_uris":{"android":"levelo://app?vid=e609d048-ed4c-49a8-a7c3-c3b0fefc64d9","ios":"levelo://app?vid=e609d048-ed4c-49a8-a7c3-c3b0fefc64d9"},"vehicle_type_id":"4","last_reported":1743181732,"current_range_meters":6000,"station_id":"ce4bht12rcd13ifvqi60","pricing_plan_id":"cebpf4jnsgd1na2vs0mg"},{"bike_id":"ddf96534-6867-495c-88b5-eff8c8163338","system_id":"levelo_inurba_marseille","lat":43.29039,"lon":5.35592,"is_reserved":false,"is_disabled":false,"rental_uris":{"android":"levelo://app?vid=ddf96534-6867-495c-88b5-eff8c8163338","ios":"levelo://app?vid=ddf96534-6867-495c-88b5-eff8c8163338"},"vehicle_type_id":"4","last_reported":1743181732,"current_range_meters":6000,"station_id":"ce4bhb92rcd13ifvqen0","pricing_plan_id":"cebpf4jnsgd1na2vs0mg"},{"bike_id":"3d6f77a5-38af-4abc-b9f0-4b0dedd9675c","system_id":"levelo_inurba_marseille","lat":43.265,"lon":5.39537,"is_reserved":false,"is_disabled":false,"rental_uris":{"android":"levelo://app?vid=3d6f77a5-38af-4abc-b9f0-4b0dedd9675c","ios":"levelo://app?vid=3d6f77a5-38af-4abc-b9f0-4b0dedd9675c"},"vehicle_type_id":"4","last_reported":1743181732,"current_range_meters":6000,"station_id":"ce4bhi12rcd13ifvqfq0","pricing_plan_id":"cebpf4jnsgd1na2vs0mg"},{"bike_id":"61de9c5e-b546-431a-8b63-4d85a2ed4f30","system_id":"levelo_inurba_marseille","lat":43.31333,"lon":5.39695,"is_reserved":false,"is_disabled":false,"rental_uris":{"android":"levelo://app?vid=61de9c5e-b546-431a-8b63-4d85a2ed4f30","ios":"levelo://app?vid=61de9c5e-b546-431a-8b63-4d85a2ed4f30"},"vehicle_type_id":"4","last_reported":1743181732,"current_range_meters":6000,"station_id":"ce4bgvp2rcd13ifvqcu0","pricing_plan_id":"cebpf4jnsgd1na2vs0mg"},{"bike_id":"f348a209-301b-4cfd-8ccf-49e9142a0251","system_id":"levelo_inurba_marseille","lat":43.32105,"lon":5.3678,"is_reserved":false,"is_disabled":false,"rental_uris":{"android":"levelo://app?vid=f348a209-301b-4cfd-8ccf-49e9142a0251","ios":"levelo://app?vid=f348a209-301b-4cfd-8ccf-49e9142a0251"},"vehicle_type_id":"4","last_reported":1743181732,"current_range_meters":6000,"station_id":"ce4bhrh2rcd13ifvqhug","pricing_plan_id":"cebpf4jnsgd1na2vs0mg"},{"bike_id":"22ad45a5-453e-49b6-b405-c13a75a56fc1","system_id":"levelo_inurba_marseille","lat":43.29711,"lon":5.377,"is_reserved":false,"is_disabled":false,"rental_uris":{"android":"levelo://app?vid=22ad45a5-453e-49b6-b405-c13a75a56fc1","ios":"levelo://app?vid=22ad45a5-453e-49b6-b405-c13a75a56fc1"},"vehicle_type_id":"4","last_reported":1743181732,"current_range_meters":6000,"station_id":"ce4bgkh2rcd13ifvqbl0","pricing_plan_id":"cebpf4jnsgd1na2vs0mg"},{"bike_id":"8610c0a7-54e0-46b6-b97c-eb43fd27f9ca","system_id":"levelo_inurba_marseille","lat":43.29393,"lon":5.37368,"is_reserved":false,"is_disabled":false,"rental_uris":{"android":"levelo://app?vid=8610c0a7-54e0-46b6-b97c-eb43fd27f9ca","ios":"levelo://app?vid=8610c0a7-54e0-46b6-b97c-eb43fd27f9ca"},"vehicle_type_id":"4","last_reported":1743181732,"current_range_meters":6000,"station_id":"","pricing_plan_id":"cebpf4jnsgd1na2vs0mg"},{"bike_id":"fc8e8371-f4e9-4721-bc19-563801e389dc","system_id":"levelo_inurba_marseille","lat":43.337444,"lon":5.374475,"is_reserved":false,"is_disabled":false,"rental_uris":{"android":"levelo://app?vid=fc8e8371-f4e9-4721-bc19-563801e389dc","ios":"levelo://app?vid=fc8e8371-f4e9-4721-bc19-563801e389dc"},"vehicle_type_id":"4","last_reported":1743181732,"current_range_meters":6000,"station_id":"","pricing_plan_id":"cebpf4jnsgd1na2vs0mg"},{"bike_id":"204c490c-10f6-4a54-a28c-1da787adb612","system_id":"levelo_inurba_marseille","lat":43.29314,"lon":5.37429,"is_reserved":false,"is_disabled":false,"rental_uris":{"android":"levelo://app?vid=204c490c-10f6-4a54-a28c-1da787adb612","ios":"levelo://app?vid=204c490c-10f6-4a54-a28c-1da787adb612"},"vehicle_type_id":"4","last_reported":1743181732,"current_range_meters":6000,"station_id":"ce4bgi12rcd13ifvqb70","pricing_plan_id":"cebpf4jnsgd1na2vs0mg"},{"bike_id":"4e8139f8-0eff-4270-8c39-fe8e709d5e32","system_id":"levelo_inurba_marseille","lat":43.26799,"lon":5.39415,"is_reserved":false,"is_disabled":false,"rental_uris":{"android":"levelo://app?vid=4e8139f8-0eff-4270-8c39-fe8e709d5e32","ios":"levelo://app?vid=4e8139f8-0eff-4270-8c39-fe8e709d5e32"},"vehicle_type_id":"4","last_reported":1743181732,"current_range_meters":6400,"station_id":"ce4bhh12rcd13ifvqfg0","pricing_plan_id":"cebpf4jnsgd1na2vs0mg"},{"bike_id":"435af1bf-e636-4c6d-a374-a04e661ffdf8","system_id":"levelo_inurba_marseille","lat":43.302142,"lon":5.39472,"is_reserved":false,"is_disabled":false,"rental_uris":{"android":"levelo://app?vid=435af1bf-e636-4c6d-a374-a04e661ffdf8","ios":"levelo://app?vid=435af1bf-e636-4c6d-a374-a04e661ffdf8"},"vehicle_type_id":"4","last_reported":1743181732,"current_range_meters":6000,"station_id":"ce4bh092rcd13ifvqd20","pricing_plan_id":"cebpf4jnsgd1na2vs0mg"},{"bike_id":"70d616e3-8eca-4707-9218-38d2fbdccab2","system_id":"levelo_inurba_marseille","lat":43.29516,"lon":5.37498,"is_reserved":false,"is_disabled":true,"rental_uris":{"android":"levelo://app?vid=70d616e3-8eca-4707-9218-38d2fbdccab2","ios":"levelo://app?vid=70d616e3-8eca-4707-9218-38d2fbdccab2"},"vehicle_type_id":"4","last_reported":1743181732,"current_range_meters":6400,"station_id":"ce4bgkp2rcd13ifvqbmg","pricing_plan_id":"cebpf4jnsgd1na2vs0mg"},{"bike_id":"49f88e1c-8563-463d-8a31-cfaa4ca9cf87","system_id":"levelo_inurba_marseille","lat":43.30323,"lon":5.36885,"is_reserved":false,"is_disabled":false,"rental_uris":{"android":"levelo://app?vid=49f88e1c-8563-463d-8a31-cfaa4ca9cf87","ios":"levelo://app?vid=49f88e1c-8563-463d-8a31-cfaa4ca9cf87"},"vehicle_type_id":"4","last_reported":1743181732,"current_range_meters":6400,"station_id":"ce4bgqh2rcd13ifvqc5g","pricing_plan_id":"cebpf4jnsgd1na2vs0mg"},{"bike_id":"2be45b17-d9cd-47dc-9ff2-bb9d51e2d5eb","system_id":"levelo_inurba_marseille","lat":43.31691,"lon":5.40475,"is_reserved":false,"is_disabled":false,"rental_uris":{"android":"levelo://app?vid=2be45b17-d9cd-47dc-9ff2-bb9d51e2d5eb","ios":"levelo://app?vid=2be45b17-d9cd-47dc-9ff2-bb9d51e2d5eb"},"vehicle_type_id":"4","last_reported":1743181732,"current_range_meters":6000,"station_id":"ce4bh012rcd13ifvqd00","pricing_plan_id":"cebpf4jnsgd1na2vs0mg"},{"bike_id":"fb94d37c-a5f0-424c-9c95-a0f43cd760b8","system_id":"levelo_inurba_marseille","lat":43.3043,"lon":5.3975,"is_reserved":false,"is_disabled":true,"rental_uris":{"android":"levelo://app?vid=fb94d37c-a5f0-424c-9c95-a0f43cd760b8","ios":"levelo://app?vid=fb94d37c-a5f0-424c-9c95-a0f43cd760b8"},"vehicle_type_id":"4","last_reported":1743181732,"current_range_meters":6400,"station_id":"ce4bh092rcd13ifvqd20","pricing_plan_id":"cebpf4jnsgd1na2vs0mg"},{"bike_id":"e33b4c28-4b7c-44d7-9d62-5820f547fc34","system_id":"levelo_inurba_marseille","lat":43.29296,"lon":5.37462,"is_reserved":false,"is_disabled":false,"rental_uris":{"android":"levelo://app?vid=e33b4c28-4b7c-44d7-9d62-5820f547fc34","ios":"levelo://app?vid=e33b4c28-4b7c-44d7-9d62-5820f547fc34"},"vehicle_type_id":"4","last_reported":1743181732,"current_range_meters":6800,"station_id":"ce4bgi12rcd13ifvqb70","pricing_plan_id":"cebpf4jnsgd1na2vs0mg"},{"bike_id":"bb8f7fd1-6867-489b-b117-7b9b0b33de8f","system_id":"levelo_inurba_marseille","lat":43.28571,"lon":5.39493,"is_reserved":false,"is_disabled":false,"rental_uris":{"android":"levelo://app?vid=bb8f7fd1-6867-489b-b117-7b9b0b33de8f","ios":"levelo://app?vid=bb8f7fd1-6867-489b-b117-7b9b0b33de8f"},"vehicle_type_id":"4","last_reported":1743181732,"current_range_meters":6800,"station_id":"ce4bh292rcd13ifvqdg0","pricing_plan_id":"cebpf4jnsgd1na2vs0mg"},{"bike_id":"f6e1e63e-bad9-4816-9269-e6bb068a1f9b","system_id":"levelo_inurba_marseille","lat":43.28611,"lon":5.37062,"is_reserved":false,"is_disabled":false,"rental_uris":{"android":"levelo://app?vid=f6e1e63e-bad9-4816-9269-e6bb068a1f9b","ios":"levelo://app?vid=f6e1e63e-bad9-4816-9269-e6bb068a1f9b"},"vehicle_type_id":"4","last_reported":1743181732,"current_range_meters":6800,"station_id":"ce4bht12rcd13ifvqi60","pricing_plan_id":"cebpf4jnsgd1na2vs0mg"},{"bike_id":"fd3421f3-9336-4d90-b616-c4936932ff9c","system_id":"levelo_inurba_marseille","lat":43.32999,"lon":5.39222,"is_reserved":false,"is_disabled":false,"rental_uris":{"android":"levelo://app?vid=fd3421f3-9336-4d90-b616-c4936932ff9c","ios":"levelo://app?vid=fd3421f3-9336-4d90-b616-c4936932ff9c"},"vehicle_type_id":"4","last_reported":1743181732,"current_range_meters":6800,"station_id":"","pricing_plan_id":"cebpf4jnsgd1na2vs0mg"},{"bike_id":"19221227-42ec-4f4b-8f04-42a0818e22f5","system_id":"levelo_inurba_marseille","lat":43.32103,"lon":5.36774,"is_reserved":false,"is_disabled":false,"rental_uris":{"android":"levelo://app?vid=19221227-42ec-4f4b-8f04-42a0818e22f5","ios":"levelo://app?vid=19221227-42ec-4f4b-8f04-42a0818e22f5"},"vehicle_type_id":"4","last_reported":1743181732,"current_range_meters":6800,"station_id":"ce4bhrh2rcd13ifvqhug","pricing_plan_id":"cebpf4jnsgd1na2vs0mg"},{"bike_id":"a6921c0a-f67c-40f1-bc98-4310cddf14e8","system_id":"levelo_inurba_marseille","lat":43.2707,"lon":5.42263,"is_reserved":false,"is_disabled":false,"rental_uris":{"android":"levelo://app?vid=a6921c0a-f67c-40f1-bc98-4310cddf14e8","ios":"levelo://app?vid=a6921c0a-f67c-40f1-bc98-4310cddf14e8"},"vehicle_type_id":"4","last_reported":1743181732,"current_range_meters":6800,"station_id":"ce4bhk92rcd13ifvqgb0","pricing_plan_id":"cebpf4jnsgd1na2vs0mg"},{"bike_id":"d2d1cf6d-0ec1-421f-bdcd-0016a0afdbdb","system_id":"levelo_inurba_marseille","lat":43.299204,"lon":5.381492,"is_reserved":false,"is_disabled":false,"rental_uris":{"android":"levelo://app?vid=d2d1cf6d-0ec1-421f-bdcd-0016a0afdbdb","ios":"levelo://app?vid=d2d1cf6d-0ec1-421f-bdcd-0016a0afdbdb"},"vehicle_type_id":"4","last_reported":1743181732,"current_range_meters":6800,"station_id":"ce4bgj12rcd13ifvqbc0","pricing_plan_id":"cebpf4jnsgd1na2vs0mg"},{"bike_id":"a339b9d5-fa20-41fa-9add-a08661c62d00","system_id":"levelo_inurba_marseille","lat":43.29532,"lon":5.38545,"is_reserved":false,"is_disabled":false,"rental_uris":{"android":"levelo://app?vid=a339b9d5-fa20-41fa-9add-a08661c62d00","ios":"levelo://app?vid=a339b9d5-fa20-41fa-9add-a08661c62d00"},"vehicle_type_id":"4","last_reported":1743181732,"current_range_meters":7200,"station_id":"ce4bgih2rcd13ifvqba0","pricing_plan_id":"cebpf4jnsgd1na2vs0mg"},{"bike_id":"ec940620-2a09-4eae-aace-1a0a72b62180","system_id":"levelo_inurba_marseille","lat":43.30295,"lon":5.40137,"is_reserved":false,"is_disabled":false,"rental_uris":{"android":"levelo://app?vid=ec940620-2a09-4eae-aace-1a0a72b62180","ios":"levelo://app?vid=ec940620-2a09-4eae-aace-1a0a72b62180"},"vehicle_type_id":"4","last_reported":1743181732,"current_range_meters":7200,"station_id":"","pricing_plan_id":"cebpf4jnsgd1na2vs0mg"},{"bike_id":"b7a48c54-ce15-4f88-b8d4-2a7c6cdbe302","system_id":"levelo_inurba_marseille","lat":43.29009,"lon":5.35606,"is_reserved":false,"is_disabled":false,"rental_uris":{"android":"levelo://app?vid=b7a48c54-ce15-4f88-b8d4-2a7c6cdbe302","ios":"levelo://app?vid=b7a48c54-ce15-4f88-b8d4-2a7c6cdbe302"},"vehicle_type_id":"4","last_reported":1743181732,"current_range_meters":7200,"station_id":"ce4bhb92rcd13ifvqen0","pricing_plan_id":"cebpf4jnsgd1na2vs0mg"},{"bike_id":"f35c018e-45c2-4fc4-a84b-83ea1f881fa2","system_id":"levelo_inurba_marseille","lat":43.30804,"lon":5.43528,"is_reserved":false,"is_disabled":false,"rental_uris":{"android":"levelo://app?vid=f35c018e-45c2-4fc4-a84b-83ea1f881fa2","ios":"levelo://app?vid=f35c018e-45c2-4fc4-a84b-83ea1f881fa2"},"vehicle_type_id":"4","last_reported":1743181732,"current_range_meters":7200,"station_id":"ce4bhph2rcd13ifvqheg","pricing_plan_id":"cebpf4jnsgd1na2vs0mg"},{"bike_id":"7fd4a515-35f0-465c-a7c8-433c10e85ee2","system_id":"levelo_inurba_marseille","lat":43.31131,"lon":5.37775,"is_reserved":false,"is_disabled":false,"rental_uris":{"android":"levelo://app?vid=7fd4a515-35f0-465c-a7c8-433c10e85ee2","ios":"levelo://app?vid=7fd4a515-35f0-465c-a7c8-433c10e85ee2"},"vehicle_type_id":"4","last_reported":1743181732,"current_range_meters":7200,"station_id":"ce4bgt92rcd13ifvqcg0","pricing_plan_id":"cebpf4jnsgd1na2vs0mg"},{"bike_id":"f94ad6d1-82f8-45e7-a227-e4132658ad1e","system_id":"levelo_inurba_marseille","lat":43.279276,"lon":5.410338,"is_reserved":false,"is_disabled":false,"rental_uris":{"android":"levelo://app?vid=f94ad6d1-82f8-45e7-a227-e4132658ad1e","ios":"levelo://app?vid=f94ad6d1-82f8-45e7-a227-e4132658ad1e"},"vehicle_type_id":"4","last_reported":1743181732,"current_range_meters":7200,"station_id":"ce4bhnp2rcd13ifvqh0g","pricing_plan_id":"cebpf4jnsgd1na2vs0mg"},{"bike_id":"0ac88cdf-dd3a-494f-aaa5-2b24d1ce393f","system_id":"levelo_inurba_marseille","lat":43.23191,"lon":5.35557,"is_reserved":false,"is_disabled":false,"rental_uris":{"android":"levelo://app?vid=0ac88cdf-dd3a-494f-aaa5-2b24d1ce393f","ios":"levelo://app?vid=0ac88cdf-dd3a-494f-aaa5-2b24d1ce393f"},"vehicle_type_id":"4","last_reported":1743181732,"current_range_meters":7200,"station_id":"ce4bhu92rcd13ifvqi70","pricing_plan_id":"cebpf4jnsgd1na2vs0mg"},{"bike_id":"e8e121c8-1f4a-4461-9588-2e90efb2cd2a","system_id":"levelo_inurba_marseille","lat":43.24409,"lon":5.37079,"is_reserved":false,"is_disabled":true,"rental_uris":{"android":"levelo://app?vid=e8e121c8-1f4a-4461-9588-2e90efb2cd2a","ios":"levelo://app?vid=e8e121c8-1f4a-4461-9588-2e90efb2cd2a"},"vehicle_type_id":"4","last_reported":1743181732,"current_range_meters":6800,"station_id":"ce4bhhh2rcd13ifvqfk0","pricing_plan_id":"cebpf4jnsgd1na2vs0mg"},{"bike_id":"64f0ea86-1180-4755-95e1-3cbc9c8d4cf5","system_id":"levelo_inurba_marseille","lat":43.32984,"lon":5.43837,"is_reserved":false,"is_disabled":true,"rental_uris":{"android":"levelo://app?vid=64f0ea86-1180-4755-95e1-3cbc9c8d4cf5","ios":"levelo://app?vid=64f0ea86-1180-4755-95e1-3cbc9c8d4cf5"},"vehicle_type_id":"4","last_reported":1743181732,"current_range_meters":7200,"station_id":"","pricing_plan_id":"cebpf4jnsgd1na2vs0mg"},{"bike_id":"3f7c088f-6f8c-4187-a5f2-6f3c678e25d3","system_id":"levelo_inurba_marseille","lat":43.28437,"lon":5.39177,"is_reserved":false,"is_disabled":false,"rental_uris":{"android":"levelo://app?vid=3f7c088f-6f8c-4187-a5f2-6f3c678e25d3","ios":"levelo://app?vid=3f7c088f-6f8c-4187-a5f2-6f3c678e25d3"},"vehicle_type_id":"4","last_reported":1743181732,"current_range_meters":7200,"station_id":"ce4bhoh2rcd13ifvqh5g","pricing_plan_id":"cebpf4jnsgd1na2vs0mg"},{"bike_id":"961245ca-8d90-4d71-b735-61afea929100","system_id":"levelo_inurba_marseille","lat":43.241694,"lon":5.36402,"is_reserved":false,"is_disabled":false,"rental_uris":{"android":"levelo://app?vid=961245ca-8d90-4d71-b735-61afea929100","ios":"levelo://app?vid=961245ca-8d90-4d71-b735-61afea929100"},"vehicle_type_id":"4","last_reported":1743181732,"current_range_meters":8000,"station_id":"cpo36qri1sfpv3e86is0","pricing_plan_id":"cebpf4jnsgd1na2vs0mg"},{"bike_id":"2812a598-fa11-4f7f-bb54-4a1e97c909e3","system_id":"levelo_inurba_marseille","lat":43.26958,"lon":5.38629,"is_reserved":false,"is_disabled":false,"rental_uris":{"android":"levelo://app?vid=2812a598-fa11-4f7f-bb54-4a1e97c909e3","ios":"levelo://app?vid=2812a598-fa11-4f7f-bb54-4a1e97c909e3"},"vehicle_type_id":"4","last_reported":1743181732,"current_range_meters":8000,"station_id":"ce4bhh92rcd13ifvqfh0","pricing_plan_id":"cebpf4jnsgd1na2vs0mg"},{"bike_id":"30db0d3e-258e-4a52-a2d4-7845160d0a9b","system_id":"levelo_inurba_marseille","lat":43.29253,"lon":5.40908,"is_reserved":false,"is_disabled":false,"rental_uris":{"android":"levelo://app?vid=30db0d3e-258e-4a52-a2d4-7845160d0a9b","ios":"levelo://app?vid=30db0d3e-258e-4a52-a2d4-7845160d0a9b"},"vehicle_type_id":"4","last_reported":1743181732,"current_range_meters":8000,"station_id":"ce4bh192rcd13ifvqdc0","pricing_plan_id":"cebpf4jnsgd1na2vs0mg"},{"bike_id":"69d4a96e-aebb-48d7-9d81-4070f7503e98","system_id":"levelo_inurba_marseille","lat":43.30834,"lon":5.37396,"is_reserved":false,"is_disabled":false,"rental_uris":{"android":"levelo://app?vid=69d4a96e-aebb-48d7-9d81-4070f7503e98","ios":"levelo://app?vid=69d4a96e-aebb-48d7-9d81-4070f7503e98"},"vehicle_type_id":"4","last_reported":1743181732,"current_range_meters":8000,"station_id":"","pricing_plan_id":"cebpf4jnsgd1na2vs0mg"},{"bike_id":"1d7dcea0-dc16-496a-aa58-f096b93f78ce","system_id":"levelo_inurba_marseille","lat":43.3047,"lon":5.36625,"is_reserved":false,"is_disabled":false,"rental_uris":{"android":"levelo://app?vid=1d7dcea0-dc16-496a-aa58-f096b93f78ce","ios":"levelo://app?vid=1d7dcea0-dc16-496a-aa58-f096b93f78ce"},"vehicle_type_id":"4","last_reported":1743181732,"current_range_meters":8000,"station_id":"","pricing_plan_id":"cebpf4jnsgd1na2vs0mg"},{"bike_id":"da40cdcc-2243-4c81-9874-6339228c3c7e","system_id":"levelo_inurba_marseille","lat":43.28264,"lon":5.3507,"is_reserved":false,"is_disabled":false,"rental_uris":{"android":"levelo://app?vid=da40cdcc-2243-4c81-9874-6339228c3c7e","ios":"levelo://app?vid=da40cdcc-2243-4c81-9874-6339228c3c7e"},"vehicle_type_id":"4","last_reported":1743181732,"current_range_meters":7200,"station_id":"ce4bhbp2rcd13ifvqerg","pricing_plan_id":"cebpf4jnsgd1na2vs0mg"},{"bike_id":"f4f983eb-21ad-408c-a69f-93ffe99199aa","system_id":"levelo_inurba_marseille","lat":43.248103,"lon":5.374522,"is_reserved":false,"is_disabled":false,"rental_uris":{"android":"levelo://app?vid=f4f983eb-21ad-408c-a69f-93ffe99199aa","ios":"levelo://app?vid=f4f983eb-21ad-408c-a69f-93ffe99199aa"},"vehicle_type_id":"4","last_reported":1743181732,"current_range_meters":8000,"station_id":"ce4bhgh2rcd13ifvqfb0","pricing_plan_id":"cebpf4jnsgd1na2vs0mg"},{"bike_id":"7cf5b655-da04-4a03-aba0-f9d4337e1c3f","system_id":"levelo_inurba_marseille","lat":43.29258,"lon":5.40904,"is_reserved":false,"is_disabled":false,"rental_uris":{"android":"levelo://app?vid=7cf5b655-da04-4a03-aba0-f9d4337e1c3f","ios":"levelo://app?vid=7cf5b655-da04-4a03-aba0-f9d4337e1c3f"},"vehicle_type_id":"4","last_reported":1743181732,"current_range_meters":8000,"station_id":"ce4bh192rcd13ifvqdc0","pricing_plan_id":"cebpf4jnsgd1na2vs0mg"},{"bike_id":"b2fd8e70-5b37-4865-bf49-d30da2481695","system_id":"levelo_inurba_marseille","lat":43.23196,"lon":5.35558,"is_reserved":false,"is_disabled":false,"rental_uris":{"android":"levelo://app?vid=b2fd8e70-5b37-4865-bf49-d30da2481695","ios":"levelo://app?vid=b2fd8e70-5b37-4865-bf49-d30da2481695"},"vehicle_type_id":"4","last_reported":1743181732,"current_range_meters":8000,"station_id":"ce4bhu92rcd13ifvqi70","pricing_plan_id":"cebpf4jnsgd1na2vs0mg"},{"bike_id":"76638803-8aa9-4a11-b36e-d35e46ec91b1","system_id":"levelo_inurba_marseille","lat":43.31718,"lon":5.4241,"is_reserved":false,"is_disabled":false,"rental_uris":{"android":"levelo://app?vid=76638803-8aa9-4a11-b36e-d35e46ec91b1","ios":"levelo://app?vid=76638803-8aa9-4a11-b36e-d35e46ec91b1"},"vehicle_type_id":"4","last_reported":1743181732,"current_range_meters":8000,"station_id":"ce4bhp92rcd13ifvqhbg","pricing_plan_id":"cebpf4jnsgd1na2vs0mg"},{"bike_id":"37703b88-0681-4fe0-a352-8323ebd0e7ba","system_id":"levelo_inurba_marseille","lat":43.28636,"lon":5.37077,"is_reserved":false,"is_disabled":false,"rental_uris":{"android":"levelo://app?vid=37703b88-0681-4fe0-a352-8323ebd0e7ba","ios":"levelo://app?vid=37703b88-0681-4fe0-a352-8323ebd0e7ba"},"vehicle_type_id":"4","last_reported":1743181732,"current_range_meters":8000,"station_id":"ce4bht12rcd13ifvqi60","pricing_plan_id":"cebpf4jnsgd1na2vs0mg"},{"bike_id":"4eea3531-ba11-4cb6-994b-182a969224ce","system_id":"levelo_inurba_marseille","lat":43.29007,"lon":5.35611,"is_reserved":false,"is_disabled":false,"rental_uris":{"android":"levelo://app?vid=4eea3531-ba11-4cb6-994b-182a969224ce","ios":"levelo://app?vid=4eea3531-ba11-4cb6-994b-182a969224ce"},"vehicle_type_id":"4","last_reported":1743181732,"current_range_meters":8400,"station_id":"ce4bhb92rcd13ifvqen0","pricing_plan_id":"cebpf4jnsgd1na2vs0mg"},{"bike_id":"529e359e-5c8d-4568-aaa5-38862fdf04d9","system_id":"levelo_inurba_marseille","lat":43.26024,"lon":5.37571,"is_reserved":false,"is_disabled":false,"rental_uris":{"android":"levelo://app?vid=529e359e-5c8d-4568-aaa5-38862fdf04d9","ios":"levelo://app?vid=529e359e-5c8d-4568-aaa5-38862fdf04d9"},"vehicle_type_id":"4","last_reported":1743181732,"current_range_meters":8000,"station_id":"ce4bhgh2rcd13ifvqfa0","pricing_plan_id":"cebpf4jnsgd1na2vs0mg"},{"bike_id":"8d03e719-94e6-47d9-8d17-410ab7926b87","system_id":"levelo_inurba_marseille","lat":43.27373,"lon":5.36271,"is_reserved":false,"is_disabled":false,"rental_uris":{"android":"levelo://app?vid=8d03e719-94e6-47d9-8d17-410ab7926b87","ios":"levelo://app?vid=8d03e719-94e6-47d9-8d17-410ab7926b87"},"vehicle_type_id":"4","last_reported":1743181732,"current_range_meters":8000,"station_id":"ce4bhbh2rcd13ifvqeo0","pricing_plan_id":"cebpf4jnsgd1na2vs0mg"},{"bike_id":"813634ed-e21d-4b9e-88e8-aa8b87581eb3","system_id":"levelo_inurba_marseille","lat":43.32111,"lon":5.36784,"is_reserved":false,"is_disabled":false,"rental_uris":{"android":"levelo://app?vid=813634ed-e21d-4b9e-88e8-aa8b87581eb3","ios":"levelo://app?vid=813634ed-e21d-4b9e-88e8-aa8b87581eb3"},"vehicle_type_id":"4","last_reported":1743181732,"current_range_meters":8400,"station_id":"ce4bhrh2rcd13ifvqhug","pricing_plan_id":"cebpf4jnsgd1na2vs0mg"},{"bike_id":"f00e0bf1-e77c-4752-8f1b-63a2e565cf51","system_id":"levelo_inurba_marseille","lat":43.27958,"lon":5.38705,"is_reserved":false,"is_disabled":true,"rental_uris":{"android":"levelo://app?vid=f00e0bf1-e77c-4752-8f1b-63a2e565cf51","ios":"levelo://app?vid=f00e0bf1-e77c-4752-8f1b-63a2e565cf51"},"vehicle_type_id":"4","last_reported":1743181732,"current_range_meters":8400,"station_id":"ce4bhg12rcd13ifvqf80","pricing_plan_id":"cebpf4jnsgd1na2vs0mg"},{"bike_id":"8aee5b5d-0fbd-4b4b-8186-32f39e3a0713","system_id":"levelo_inurba_marseille","lat":43.28102,"lon":5.39696,"is_reserved":false,"is_disabled":false,"rental_uris":{"android":"levelo://app?vid=8aee5b5d-0fbd-4b4b-8186-32f39e3a0713","ios":"levelo://app?vid=8aee5b5d-0fbd-4b4b-8186-32f39e3a0713"},"vehicle_type_id":"4","last_reported":1743181732,"current_range_meters":8400,"station_id":"ce4bho12rcd13ifvqh2g","pricing_plan_id":"cebpf4jnsgd1na2vs0mg"},{"bike_id":"dd948f23-bc6d-4cbf-a5aa-9dc6549a6add","system_id":"levelo_inurba_marseille","lat":43.298706,"lon":5.397388,"is_reserved":false,"is_disabled":false,"rental_uris":{"android":"levelo://app?vid=dd948f23-bc6d-4cbf-a5aa-9dc6549a6add","ios":"levelo://app?vid=dd948f23-bc6d-4cbf-a5aa-9dc6549a6add"},"vehicle_type_id":"4","last_reported":1743181732,"current_range_meters":8400,"station_id":"ce4bh0h2rcd13ifvqd50","pricing_plan_id":"cebpf4jnsgd1na2vs0mg"},{"bike_id":"aac57ac9-f3e2-41b3-a0fb-bc159fe5cabe","system_id":"levelo_inurba_marseille","lat":43.304643,"lon":5.386266,"is_reserved":false,"is_disabled":false,"rental_uris":{"android":"levelo://app?vid=aac57ac9-f3e2-41b3-a0fb-bc159fe5cabe","ios":"levelo://app?vid=aac57ac9-f3e2-41b3-a0fb-bc159fe5cabe"},"vehicle_type_id":"4","last_reported":1743181732,"current_range_meters":8400,"station_id":"ce4bgv92rcd13ifvqcr0","pricing_plan_id":"cebpf4jnsgd1na2vs0mg"},{"bike_id":"54de44e6-fa0b-494c-99c1-c78cade3c2c3","system_id":"levelo_inurba_marseille","lat":43.32021,"lon":5.38184,"is_reserved":false,"is_disabled":false,"rental_uris":{"android":"levelo://app?vid=54de44e6-fa0b-494c-99c1-c78cade3c2c3","ios":"levelo://app?vid=54de44e6-fa0b-494c-99c1-c78cade3c2c3"},"vehicle_type_id":"4","last_reported":1743181732,"current_range_meters":8400,"station_id":"ce4bhr12rcd13ifvqhpg","pricing_plan_id":"cebpf4jnsgd1na2vs0mg"},{"bike_id":"edc6f9cf-e931-4ab1-b410-c1a0949952a6","system_id":"levelo_inurba_marseille","lat":43.26067,"lon":5.3939,"is_reserved":false,"is_disabled":false,"rental_uris":{"android":"levelo://app?vid=edc6f9cf-e931-4ab1-b410-c1a0949952a6","ios":"levelo://app?vid=edc6f9cf-e931-4ab1-b410-c1a0949952a6"},"vehicle_type_id":"4","last_reported":1743181732,"current_range_meters":8400,"station_id":"ce4bhh92rcd13ifvqfj0","pricing_plan_id":"cebpf4jnsgd1na2vs0mg"},{"bike_id":"10b1617c-fa8a-4bd5-aa60-4d10bc2162ca","system_id":"levelo_inurba_marseille","lat":43.24664,"lon":5.38169,"is_reserved":false,"is_disabled":false,"rental_uris":{"android":"levelo://app?vid=10b1617c-fa8a-4bd5-aa60-4d10bc2162ca","ios":"levelo://app?vid=10b1617c-fa8a-4bd5-aa60-4d10bc2162ca"},"vehicle_type_id":"4","last_reported":1743181732,"current_range_meters":8400,"station_id":"ce4bhih2rcd13ifvqfr0","pricing_plan_id":"cebpf4jnsgd1na2vs0mg"},{"bike_id":"f2376ed0-6e25-42b9-9423-68aadd0a0f13","system_id":"levelo_inurba_marseille","lat":43.30813,"lon":5.38147,"is_reserved":false,"is_disabled":false,"rental_uris":{"android":"levelo://app?vid=f2376ed0-6e25-42b9-9423-68aadd0a0f13","ios":"levelo://app?vid=f2376ed0-6e25-42b9-9423-68aadd0a0f13"},"vehicle_type_id":"4","last_reported":1743181732,"current_range_meters":8400,"station_id":"ce4bgt12rcd13ifvqce0","pricing_plan_id":"cebpf4jnsgd1na2vs0mg"},{"bike_id":"403d7e50-4523-49d1-a7ce-385a53366a0d","system_id":"levelo_inurba_marseille","lat":43.28265,"lon":5.35093,"is_reserved":false,"is_disabled":true,"rental_uris":{"android":"levelo://app?vid=403d7e50-4523-49d1-a7ce-385a53366a0d","ios":"levelo://app?vid=403d7e50-4523-49d1-a7ce-385a53366a0d"},"vehicle_type_id":"4","last_reported":1743181732,"current_range_meters":8400,"station_id":"ce4bhbp2rcd13ifvqerg","pricing_plan_id":"cebpf4jnsgd1na2vs0mg"},{"bike_id":"2b74765f-8dbf-4b88-9caa-3e316f1dc5e2","system_id":"levelo_inurba_marseille","lat":43.29014,"lon":5.35606,"is_reserved":false,"is_disabled":false,"rental_uris":{"android":"levelo://app?vid=2b74765f-8dbf-4b88-9caa-3e316f1dc5e2","ios":"levelo://app?vid=2b74765f-8dbf-4b88-9caa-3e316f1dc5e2"},"vehicle_type_id":"4","last_reported":1743181732,"current_range_meters":8400,"station_id":"ce4bhb92rcd13ifvqen0","pricing_plan_id":"cebpf4jnsgd1na2vs0mg"},{"bike_id":"27cbce99-11c1-4aa6-957c-c640af37ebc4","system_id":"levelo_inurba_marseille","lat":43.29185,"lon":5.3579,"is_reserved":false,"is_disabled":false,"rental_uris":{"android":"levelo://app?vid=27cbce99-11c1-4aa6-957c-c640af37ebc4","ios":"levelo://app?vid=27cbce99-11c1-4aa6-957c-c640af37ebc4"},"vehicle_type_id":"4","last_reported":1743181732,"current_range_meters":10000,"station_id":"ce4bhb12rcd13ifvqel0","pricing_plan_id":"cebpf4jnsgd1na2vs0mg"},{"bike_id":"767960c9-3f1f-4762-9c34-3881b953c1cd","system_id":"levelo_inurba_marseille","lat":43.31687,"lon":5.40476,"is_reserved":false,"is_disabled":false,"rental_uris":{"android":"levelo://app?vid=767960c9-3f1f-4762-9c34-3881b953c1cd","ios":"levelo://app?vid=767960c9-3f1f-4762-9c34-3881b953c1cd"},"vehicle_type_id":"4","last_reported":1743181732,"current_range_meters":8400,"station_id":"ce4bh012rcd13ifvqd00","pricing_plan_id":"cebpf4jnsgd1na2vs0mg"},{"bike_id":"17d2c56a-04b7-4565-828e-4e8647a3dd59","system_id":"levelo_inurba_marseille","lat":43.23197,"lon":5.35553,"is_reserved":false,"is_disabled":false,"rental_uris":{"android":"levelo://app?vid=17d2c56a-04b7-4565-828e-4e8647a3dd59","ios":"levelo://app?vid=17d2c56a-04b7-4565-828e-4e8647a3dd59"},"vehicle_type_id":"4","last_reported":1743181732,"current_range_meters":8800,"station_id":"ce4bhu92rcd13ifvqi70","pricing_plan_id":"cebpf4jnsgd1na2vs0mg"},{"bike_id":"cd380cdd-753d-4062-9634-b246a5e93ebc","system_id":"levelo_inurba_marseille","lat":43.29233,"lon":5.36071,"is_reserved":false,"is_disabled":false,"rental_uris":{"android":"levelo://app?vid=cd380cdd-753d-4062-9634-b246a5e93ebc","ios":"levelo://app?vid=cd380cdd-753d-4062-9634-b246a5e93ebc"},"vehicle_type_id":"4","last_reported":1743181732,"current_range_meters":8400,"station_id":"ce4bhbh2rcd13ifvqeqg","pricing_plan_id":"cebpf4jnsgd1na2vs0mg"},{"bike_id":"861ae205-c318-4688-ac53-947993e1b65f","system_id":"levelo_inurba_marseille","lat":43.241644,"lon":5.36393,"is_reserved":false,"is_disabled":false,"rental_uris":{"android":"levelo://app?vid=861ae205-c318-4688-ac53-947993e1b65f","ios":"levelo://app?vid=861ae205-c318-4688-ac53-947993e1b65f"},"vehicle_type_id":"4","last_reported":1743181732,"current_range_meters":8800,"station_id":"cpo36qri1sfpv3e86is0","pricing_plan_id":"cebpf4jnsgd1na2vs0mg"},{"bike_id":"2e919ca5-ce98-4c47-a9d7-66e6ab7584e4","system_id":"levelo_inurba_marseille","lat":43.32122,"lon":5.36792,"is_reserved":false,"is_disabled":false,"rental_uris":{"android":"levelo://app?vid=2e919ca5-ce98-4c47-a9d7-66e6ab7584e4","ios":"levelo://app?vid=2e919ca5-ce98-4c47-a9d7-66e6ab7584e4"},"vehicle_type_id":"4","last_reported":1743181732,"current_range_meters":8800,"station_id":"ce4bhrh2rcd13ifvqhug","pricing_plan_id":"cebpf4jnsgd1na2vs0mg"},{"bike_id":"08291eaa-d2fa-4469-88cd-1cd3ad02548f","system_id":"levelo_inurba_marseille","lat":43.29009,"lon":5.35613,"is_reserved":false,"is_disabled":false,"rental_uris":{"android":"levelo://app?vid=08291eaa-d2fa-4469-88cd-1cd3ad02548f","ios":"levelo://app?vid=08291eaa-d2fa-4469-88cd-1cd3ad02548f"},"vehicle_type_id":"4","last_reported":1743181732,"current_range_meters":8800,"station_id":"ce4bhb92rcd13ifvqen0","pricing_plan_id":"cebpf4jnsgd1na2vs0mg"},{"bike_id":"6a5faf51-2bec-4782-8a8f-e039ed407c9b","system_id":"levelo_inurba_marseille","lat":43.25088,"lon":5.39523,"is_reserved":false,"is_disabled":false,"rental_uris":{"android":"levelo://app?vid=6a5faf51-2bec-4782-8a8f-e039ed407c9b","ios":"levelo://app?vid=6a5faf51-2bec-4782-8a8f-e039ed407c9b"},"vehicle_type_id":"4","last_reported":1743181732,"current_range_meters":8800,"station_id":"ce4bhm12rcd13ifvqgkg","pricing_plan_id":"cebpf4jnsgd1na2vs0mg"},{"bike_id":"424417c8-67c1-4c27-bf29-2d271899c7c0","system_id":"levelo_inurba_marseille","lat":43.29293,"lon":5.38424,"is_reserved":false,"is_disabled":false,"rental_uris":{"android":"levelo://app?vid=424417c8-67c1-4c27-bf29-2d271899c7c0","ios":"levelo://app?vid=424417c8-67c1-4c27-bf29-2d271899c7c0"},"vehicle_type_id":"4","last_reported":1743181732,"current_range_meters":8800,"station_id":"ce4bh692rcd13ifvqea0","pricing_plan_id":"cebpf4jnsgd1na2vs0mg"},{"bike_id":"146aff88-673a-4772-952f-fa1deb595a44","system_id":"levelo_inurba_marseille","lat":43.29634,"lon":5.40592,"is_reserved":false,"is_disabled":false,"rental_uris":{"android":"levelo://app?vid=146aff88-673a-4772-952f-fa1deb595a44","ios":"levelo://app?vid=146aff88-673a-4772-952f-fa1deb595a44"},"vehicle_type_id":"4","last_reported":1743181732,"current_range_meters":8800,"station_id":"ce4bh0h2rcd13ifvqd60","pricing_plan_id":"cebpf4jnsgd1na2vs0mg"},{"bike_id":"1ba2879a-268e-480d-8eec-6b7433023a20","system_id":"levelo_inurba_marseille","lat":43.32274,"lon":5.38991,"is_reserved":false,"is_disabled":false,"rental_uris":{"android":"levelo://app?vid=1ba2879a-268e-480d-8eec-6b7433023a20","ios":"levelo://app?vid=1ba2879a-268e-480d-8eec-6b7433023a20"},"vehicle_type_id":"4","last_reported":1743181732,"current_range_meters":8800,"station_id":"","pricing_plan_id":"cebpf4jnsgd1na2vs0mg"},{"bike_id":"5388fcce-c9a3-47af-b1cd-592239ff705f","system_id":"levelo_inurba_marseille","lat":43.26934,"lon":5.38921,"is_reserved":false,"is_disabled":false,"rental_uris":{"android":"levelo://app?vid=5388fcce-c9a3-47af-b1cd-592239ff705f","ios":"levelo://app?vid=5388fcce-c9a3-47af-b1cd-592239ff705f"},"vehicle_type_id":"4","last_reported":1743181732,"current_range_meters":8800,"station_id":"ce4bhhh2rcd13ifvqfl0","pricing_plan_id":"cebpf4jnsgd1na2vs0mg"},{"bike_id":"86198f4d-0c59-4f8b-b307-4846f0bad7b0","system_id":"levelo_inurba_marseille","lat":43.29189,"lon":5.35803,"is_reserved":false,"is_disabled":false,"rental_uris":{"android":"levelo://app?vid=86198f4d-0c59-4f8b-b307-4846f0bad7b0","ios":"levelo://app?vid=86198f4d-0c59-4f8b-b307-4846f0bad7b0"},"vehicle_type_id":"4","last_reported":1743181732,"current_range_meters":9200,"station_id":"ce4bhb12rcd13ifvqel0","pricing_plan_id":"cebpf4jnsgd1na2vs0mg"},{"bike_id":"4a42ca1e-41e4-4233-a4bb-a180f04564d6","system_id":"levelo_inurba_marseille","lat":43.29143,"lon":5.37151,"is_reserved":false,"is_disabled":true,"rental_uris":{"android":"levelo://app?vid=4a42ca1e-41e4-4233-a4bb-a180f04564d6","ios":"levelo://app?vid=4a42ca1e-41e4-4233-a4bb-a180f04564d6"},"vehicle_type_id":"4","last_reported":1743181732,"current_range_meters":9200,"station_id":"ce4bha92rcd13ifvqeh0","pricing_plan_id":"cebpf4jnsgd1na2vs0mg"},{"bike_id":"b7217032-eead-4072-b8a0-265872668043","system_id":"levelo_inurba_marseille","lat":43.29388,"lon":5.37844,"is_reserved":false,"is_disabled":false,"rental_uris":{"android":"levelo://app?vid=b7217032-eead-4072-b8a0-265872668043","ios":"levelo://app?vid=b7217032-eead-4072-b8a0-265872668043"},"vehicle_type_id":"4","last_reported":1743181732,"current_range_meters":9200,"station_id":"ce4bgjh2rcd13ifvqbf0","pricing_plan_id":"cebpf4jnsgd1na2vs0mg"},{"bike_id":"b31a0fbd-4eff-47e2-ae6e-f21e3cf374bb","system_id":"levelo_inurba_marseille","lat":43.313457,"lon":5.367156,"is_reserved":false,"is_disabled":false,"rental_uris":{"android":"levelo://app?vid=b31a0fbd-4eff-47e2-ae6e-f21e3cf374bb","ios":"levelo://app?vid=b31a0fbd-4eff-47e2-ae6e-f21e3cf374bb"},"vehicle_type_id":"4","last_reported":1743181732,"current_range_meters":9200,"station_id":"ce4bgr92rcd13ifvqc6g","pricing_plan_id":"cebpf4jnsgd1na2vs0mg"},{"bike_id":"11ce5a4c-fb8a-4f91-a0b2-cbf92dcbbf4e","system_id":"levelo_inurba_marseille","lat":43.3133,"lon":5.39687,"is_reserved":false,"is_disabled":false,"rental_uris":{"android":"levelo://app?vid=11ce5a4c-fb8a-4f91-a0b2-cbf92dcbbf4e","ios":"levelo://app?vid=11ce5a4c-fb8a-4f91-a0b2-cbf92dcbbf4e"},"vehicle_type_id":"4","last_reported":1743181732,"current_range_meters":9200,"station_id":"ce4bgvp2rcd13ifvqcu0","pricing_plan_id":"cebpf4jnsgd1na2vs0mg"},{"bike_id":"cc68fd14-6663-4d74-af9f-88c1b1d5b47c","system_id":"levelo_inurba_marseille","lat":43.29413,"lon":5.386197,"is_reserved":false,"is_disabled":false,"rental_uris":{"android":"levelo://app?vid=cc68fd14-6663-4d74-af9f-88c1b1d5b47c","ios":"levelo://app?vid=cc68fd14-6663-4d74-af9f-88c1b1d5b47c"},"vehicle_type_id":"4","last_reported":1743181732,"current_range_meters":9200,"station_id":"ce4bh2h2rcd13ifvqdh0","pricing_plan_id":"cebpf4jnsgd1na2vs0mg"},{"bike_id":"fa847661-b485-46b4-9026-bbf7d7813924","system_id":"levelo_inurba_marseille","lat":43.28075,"lon":5.39687,"is_reserved":false,"is_disabled":false,"rental_uris":{"android":"levelo://app?vid=fa847661-b485-46b4-9026-bbf7d7813924","ios":"levelo://app?vid=fa847661-b485-46b4-9026-bbf7d7813924"},"vehicle_type_id":"4","last_reported":1743181732,"current_range_meters":9200,"station_id":"ce4bho12rcd13ifvqh2g","pricing_plan_id":"cebpf4jnsgd1na2vs0mg"},{"bike_id":"8c34c97f-9ce2-4886-9f40-ad2af9483ec9","system_id":"levelo_inurba_marseille","lat":43.28406,"lon":5.34986,"is_reserved":false,"is_disabled":false,"rental_uris":{"android":"levelo://app?vid=8c34c97f-9ce2-4886-9f40-ad2af9483ec9","ios":"levelo://app?vid=8c34c97f-9ce2-4886-9f40-ad2af9483ec9"},"vehicle_type_id":"4","last_reported":1743181732,"current_range_meters":9200,"station_id":"ce4bhbh2rcd13ifvqepg","pricing_plan_id":"cebpf4jnsgd1na2vs0mg"},{"bike_id":"70cb17f5-cdf1-47fa-b901-00068bb5e719","system_id":"levelo_inurba_marseille","lat":43.2926,"lon":5.38434,"is_reserved":false,"is_disabled":false,"rental_uris":{"android":"levelo://app?vid=70cb17f5-cdf1-47fa-b901-00068bb5e719","ios":"levelo://app?vid=70cb17f5-cdf1-47fa-b901-00068bb5e719"},"vehicle_type_id":"4","last_reported":1743181732,"current_range_meters":9200,"station_id":"ce4bh692rcd13ifvqea0","pricing_plan_id":"cebpf4jnsgd1na2vs0mg"},{"bike_id":"a43302ac-19e9-4619-bd11-3c8de29c0870","system_id":"levelo_inurba_marseille","lat":43.289368,"lon":5.366416,"is_reserved":false,"is_disabled":false,"rental_uris":{"android":"levelo://app?vid=a43302ac-19e9-4619-bd11-3c8de29c0870","ios":"levelo://app?vid=a43302ac-19e9-4619-bd11-3c8de29c0870"},"vehicle_type_id":"4","last_reported":1743181732,"current_range_meters":9200,"station_id":"cki0cbj6b192h4jlfktg","pricing_plan_id":"cebpf4jnsgd1na2vs0mg"},{"bike_id":"7dc939fb-c52f-4cd6-ab9f-1306471e5d5b","system_id":"levelo_inurba_marseille","lat":43.2843,"lon":5.34985,"is_reserved":false,"is_disabled":false,"rental_uris":{"android":"levelo://app?vid=7dc939fb-c52f-4cd6-ab9f-1306471e5d5b","ios":"levelo://app?vid=7dc939fb-c52f-4cd6-ab9f-1306471e5d5b"},"vehicle_type_id":"4","last_reported":1743181732,"current_range_meters":9200,"station_id":"ce4bhbh2rcd13ifvqepg","pricing_plan_id":"cebpf4jnsgd1na2vs0mg"},{"bike_id":"1c14bf9c-ada4-4a36-8853-740a1a2c000a","system_id":"levelo_inurba_marseille","lat":43.23188,"lon":5.35552,"is_reserved":false,"is_disabled":false,"rental_uris":{"android":"levelo://app?vid=1c14bf9c-ada4-4a36-8853-740a1a2c000a","ios":"levelo://app?vid=1c14bf9c-ada4-4a36-8853-740a1a2c000a"},"vehicle_type_id":"4","last_reported":1743181732,"current_range_meters":9200,"station_id":"ce4bhu92rcd13ifvqi70","pricing_plan_id":"cebpf4jnsgd1na2vs0mg"},{"bike_id":"0b542079-fba3-4b6f-ac2e-99b812485f21","system_id":"levelo_inurba_marseille","lat":43.28486,"lon":5.35904,"is_reserved":false,"is_disabled":false,"rental_uris":{"android":"levelo://app?vid=0b542079-fba3-4b6f-ac2e-99b812485f21","ios":"levelo://app?vid=0b542079-fba3-4b6f-ac2e-99b812485f21"},"vehicle_type_id":"4","last_reported":1743181732,"current_range_meters":9200,"station_id":"ce4bhah2rcd13ifvqei0","pricing_plan_id":"cebpf4jnsgd1na2vs0mg"},{"bike_id":"b80c291a-8650-4568-afa3-c78fe4ee7e60","system_id":"levelo_inurba_marseille","lat":43.29018,"lon":5.3564,"is_reserved":false,"is_disabled":false,"rental_uris":{"android":"levelo://app?vid=b80c291a-8650-4568-afa3-c78fe4ee7e60","ios":"levelo://app?vid=b80c291a-8650-4568-afa3-c78fe4ee7e60"},"vehicle_type_id":"4","last_reported":1743181732,"current_range_meters":9600,"station_id":"ce4bhb92rcd13ifvqen0","pricing_plan_id":"cebpf4jnsgd1na2vs0mg"},{"bike_id":"463ca4c1-f61e-4ece-8d8e-2ee3de8f2645","system_id":"levelo_inurba_marseille","lat":43.293671,"lon":5.378295,"is_reserved":false,"is_disabled":false,"rental_uris":{"android":"levelo://app?vid=463ca4c1-f61e-4ece-8d8e-2ee3de8f2645","ios":"levelo://app?vid=463ca4c1-f61e-4ece-8d8e-2ee3de8f2645"},"vehicle_type_id":"4","last_reported":1743181732,"current_range_meters":9200,"station_id":"ce4bhbh2rcd13ifvqeqg","pricing_plan_id":"cebpf4jnsgd1na2vs0mg"},{"bike_id":"4ee0c868-7955-44c8-9531-ea87c991f1fd","system_id":"levelo_inurba_marseille","lat":43.2917,"lon":5.37155,"is_reserved":false,"is_disabled":false,"rental_uris":{"android":"levelo://app?vid=4ee0c868-7955-44c8-9531-ea87c991f1fd","ios":"levelo://app?vid=4ee0c868-7955-44c8-9531-ea87c991f1fd"},"vehicle_type_id":"4","last_reported":1743181732,"current_range_meters":9200,"station_id":"ce4bha92rcd13ifvqeh0","pricing_plan_id":"cebpf4jnsgd1na2vs0mg"},{"bike_id":"95327d33-6290-421d-a203-b75283e75dbd","system_id":"levelo_inurba_marseille","lat":43.29258,"lon":5.40173,"is_reserved":false,"is_disabled":false,"rental_uris":{"android":"levelo://app?vid=95327d33-6290-421d-a203-b75283e75dbd","ios":"levelo://app?vid=95327d33-6290-421d-a203-b75283e75dbd"},"vehicle_type_id":"4","last_reported":1743181732,"current_range_meters":9600,"station_id":"ce4bh312rcd13ifvqdk0","pricing_plan_id":"cebpf4jnsgd1na2vs0mg"},{"bike_id":"d2e09374-abe8-461b-9700-808c73f07463","system_id":"levelo_inurba_marseille","lat":43.29264,"lon":5.38433,"is_reserved":false,"is_disabled":false,"rental_uris":{"android":"levelo://app?vid=d2e09374-abe8-461b-9700-808c73f07463","ios":"levelo://app?vid=d2e09374-abe8-461b-9700-808c73f07463"},"vehicle_type_id":"4","last_reported":1743181732,"current_range_meters":9600,"station_id":"ce4bh692rcd13ifvqea0","pricing_plan_id":"cebpf4jnsgd1na2vs0mg"},{"bike_id":"971c92cb-66df-438d-9a85-e63af939e6ff","system_id":"levelo_inurba_marseille","lat":43.28638,"lon":5.35111,"is_reserved":false,"is_disabled":true,"rental_uris":{"android":"levelo://app?vid=971c92cb-66df-438d-9a85-e63af939e6ff","ios":"levelo://app?vid=971c92cb-66df-438d-9a85-e63af939e6ff"},"vehicle_type_id":"4","last_reported":1743181732,"current_range_meters":9600,"station_id":"ce4bhch2rcd13ifvqeug","pricing_plan_id":"cebpf4jnsgd1na2vs0mg"},{"bike_id":"c5887b5d-7662-4633-9b7e-c1f693b96552","system_id":"levelo_inurba_marseille","lat":43.27377,"lon":5.36261,"is_reserved":false,"is_disabled":false,"rental_uris":{"android":"levelo://app?vid=c5887b5d-7662-4633-9b7e-c1f693b96552","ios":"levelo://app?vid=c5887b5d-7662-4633-9b7e-c1f693b96552"},"vehicle_type_id":"4","last_reported":1743181732,"current_range_meters":9600,"station_id":"ce4bhbh2rcd13ifvqeo0","pricing_plan_id":"cebpf4jnsgd1na2vs0mg"},{"bike_id":"42460bb1-9d5d-4356-b254-92310e71576a","system_id":"levelo_inurba_marseille","lat":43.30106,"lon":5.39077,"is_reserved":false,"is_disabled":false,"rental_uris":{"android":"levelo://app?vid=42460bb1-9d5d-4356-b254-92310e71576a","ios":"levelo://app?vid=42460bb1-9d5d-4356-b254-92310e71576a"},"vehicle_type_id":"4","last_reported":1743181732,"current_range_meters":9600,"station_id":"ce4bh192rcd13ifvqdb0","pricing_plan_id":"cebpf4jnsgd1na2vs0mg"},{"bike_id":"2b0bf0ce-9eb8-4cb1-b04e-2189d5fceb9b","system_id":"levelo_inurba_marseille","lat":43.27669,"lon":5.38885,"is_reserved":false,"is_disabled":false,"rental_uris":{"android":"levelo://app?vid=2b0bf0ce-9eb8-4cb1-b04e-2189d5fceb9b","ios":"levelo://app?vid=2b0bf0ce-9eb8-4cb1-b04e-2189d5fceb9b"},"vehicle_type_id":"4","last_reported":1743181732,"current_range_meters":9600,"station_id":"ce4bhi12rcd13ifvqfo0","pricing_plan_id":"cebpf4jnsgd1na2vs0mg"},{"bike_id":"5180b9b7-b3ad-439d-b5d7-0b3868d68c3a","system_id":"levelo_inurba_marseille","lat":43.287041,"lon":5.373914,"is_reserved":false,"is_disabled":false,"rental_uris":{"android":"levelo://app?vid=5180b9b7-b3ad-439d-b5d7-0b3868d68c3a","ios":"levelo://app?vid=5180b9b7-b3ad-439d-b5d7-0b3868d68c3a"},"vehicle_type_id":"4","last_reported":1743181732,"current_range_meters":9600,"station_id":"ce4bh3p2rcd13ifvqdq0","pricing_plan_id":"cebpf4jnsgd1na2vs0mg"},{"bike_id":"c1523304-38a3-46ef-8e18-9a561146533b","system_id":"levelo_inurba_marseille","lat":43.27627,"lon":5.36119,"is_reserved":false,"is_disabled":false,"rental_uris":{"android":"levelo://app?vid=c1523304-38a3-46ef-8e18-9a561146533b","ios":"levelo://app?vid=c1523304-38a3-46ef-8e18-9a561146533b"},"vehicle_type_id":"4","last_reported":1743181732,"current_range_meters":10000,"station_id":"ce4bgj92rcd13ifvqbe0","pricing_plan_id":"cebpf4jnsgd1na2vs0mg"},{"bike_id":"3fbcdfd8-5176-471d-aa84-e8e20bb4418e","system_id":"levelo_inurba_marseille","lat":43.3212,"lon":5.36911,"is_reserved":false,"is_disabled":false,"rental_uris":{"android":"levelo://app?vid=3fbcdfd8-5176-471d-aa84-e8e20bb4418e","ios":"levelo://app?vid=3fbcdfd8-5176-471d-aa84-e8e20bb4418e"},"vehicle_type_id":"4","last_reported":1743181732,"current_range_meters":10000,"station_id":"ce4bhrh2rcd13ifvqhug","pricing_plan_id":"cebpf4jnsgd1na2vs0mg"},{"bike_id":"e20aa0a0-ecb7-45d4-9e25-c330226723b8","system_id":"levelo_inurba_marseille","lat":43.326587,"lon":5.409889,"is_reserved":false,"is_disabled":false,"rental_uris":{"android":"levelo://app?vid=e20aa0a0-ecb7-45d4-9e25-c330226723b8","ios":"levelo://app?vid=e20aa0a0-ecb7-45d4-9e25-c330226723b8"},"vehicle_type_id":"4","last_reported":1743181732,"current_range_meters":10000,"station_id":"ce4bhpp2rcd13ifvqhgg","pricing_plan_id":"cebpf4jnsgd1na2vs0mg"},{"bike_id":"2a2406d4-639c-42de-a409-2fab7697463a","system_id":"levelo_inurba_marseille","lat":43.33726,"lon":5.39186,"is_reserved":false,"is_disabled":false,"rental_uris":{"android":"levelo://app?vid=2a2406d4-639c-42de-a409-2fab7697463a","ios":"levelo://app?vid=2a2406d4-639c-42de-a409-2fab7697463a"},"vehicle_type_id":"4","last_reported":1743181732,"current_range_meters":10000,"station_id":"ce4bhr92rcd13ifvqhsg","pricing_plan_id":"cebpf4jnsgd1na2vs0mg"},{"bike_id":"0437f1ff-c943-4e9e-8ddb-4ac145931c61","system_id":"levelo_inurba_marseille","lat":43.29787,"lon":5.37101,"is_reserved":false,"is_disabled":false,"rental_uris":{"android":"levelo://app?vid=0437f1ff-c943-4e9e-8ddb-4ac145931c61","ios":"levelo://app?vid=0437f1ff-c943-4e9e-8ddb-4ac145931c61"},"vehicle_type_id":"4","last_reported":1743181732,"current_range_meters":10000,"station_id":"ce4bgop2rcd13ifvqc1g","pricing_plan_id":"cebpf4jnsgd1na2vs0mg"},{"bike_id":"63ad6d5e-31bd-4611-bf1a-7dd34deba587","system_id":"levelo_inurba_marseille","lat":43.31334,"lon":5.39691,"is_reserved":false,"is_disabled":false,"rental_uris":{"android":"levelo://app?vid=63ad6d5e-31bd-4611-bf1a-7dd34deba587","ios":"levelo://app?vid=63ad6d5e-31bd-4611-bf1a-7dd34deba587"},"vehicle_type_id":"4","last_reported":1743181732,"current_range_meters":10000,"station_id":"ce4bgvp2rcd13ifvqcu0","pricing_plan_id":"cebpf4jnsgd1na2vs0mg"},{"bike_id":"5001e53d-54cb-4f10-8d6b-4d4be8c8cf42","system_id":"levelo_inurba_marseille","lat":43.29261,"lon":5.37626,"is_reserved":false,"is_disabled":false,"rental_uris":{"android":"levelo://app?vid=5001e53d-54cb-4f10-8d6b-4d4be8c8cf42","ios":"levelo://app?vid=5001e53d-54cb-4f10-8d6b-4d4be8c8cf42"},"vehicle_type_id":"4","last_reported":1743181732,"current_range_meters":10000,"station_id":"ce4bgi12rcd13ifvqb80","pricing_plan_id":"cebpf4jnsgd1na2vs0mg"},{"bike_id":"3baabe1e-785f-4275-b2ae-669cc3f900da","system_id":"levelo_inurba_marseille","lat":43.27844,"lon":5.40716,"is_reserved":false,"is_disabled":true,"rental_uris":{"android":"levelo://app?vid=3baabe1e-785f-4275-b2ae-669cc3f900da","ios":"levelo://app?vid=3baabe1e-785f-4275-b2ae-669cc3f900da"},"vehicle_type_id":"4","last_reported":1743181732,"current_range_meters":10800,"station_id":"ce4bhnh2rcd13ifvqgtg","pricing_plan_id":"cebpf4jnsgd1na2vs0mg"},{"bike_id":"55f704b7-903b-4c3e-8e76-f22266ee0b2d","system_id":"levelo_inurba_marseille","lat":43.26545,"lon":5.37305,"is_reserved":false,"is_disabled":false,"rental_uris":{"android":"levelo://app?vid=55f704b7-903b-4c3e-8e76-f22266ee0b2d","ios":"levelo://app?vid=55f704b7-903b-4c3e-8e76-f22266ee0b2d"},"vehicle_type_id":"4","last_reported":1743181732,"current_range_meters":10800,"station_id":"ce4bhg12rcd13ifvqf70","pricing_plan_id":"cebpf4jnsgd1na2vs0mg"},{"bike_id":"661fa6de-24e3-4832-9e18-3d3a5339528f","system_id":"levelo_inurba_marseille","lat":43.28422,"lon":5.34998,"is_reserved":false,"is_disabled":false,"rental_uris":{"android":"levelo://app?vid=661fa6de-24e3-4832-9e18-3d3a5339528f","ios":"levelo://app?vid=661fa6de-24e3-4832-9e18-3d3a5339528f"},"vehicle_type_id":"4","last_reported":1743181732,"current_range_meters":10800,"station_id":"ce4bhbh2rcd13ifvqepg","pricing_plan_id":"cebpf4jnsgd1na2vs0mg"},{"bike_id":"6082a6d8-29f3-4441-bd82-d0f95ead75d7","system_id":"levelo_inurba_marseille","lat":43.2319,"lon":5.35557,"is_reserved":false,"is_disabled":false,"rental_uris":{"android":"levelo://app?vid=6082a6d8-29f3-4441-bd82-d0f95ead75d7","ios":"levelo://app?vid=6082a6d8-29f3-4441-bd82-d0f95ead75d7"},"vehicle_type_id":"4","last_reported":1743181732,"current_range_meters":10800,"station_id":"ce4bhu92rcd13ifvqi70","pricing_plan_id":"cebpf4jnsgd1na2vs0mg"},{"bike_id":"498cb903-0e7b-4b46-898d-148c04832279","system_id":"levelo_inurba_marseille","lat":43.23973,"lon":5.36664,"is_reserved":false,"is_disabled":false,"rental_uris":{"android":"levelo://app?vid=498cb903-0e7b-4b46-898d-148c04832279","ios":"levelo://app?vid=498cb903-0e7b-4b46-898d-148c04832279"},"vehicle_type_id":"4","last_reported":1743181732,"current_range_meters":10800,"station_id":"ce4bhi12rcd13ifvqfp0","pricing_plan_id":"cebpf4jnsgd1na2vs0mg"},{"bike_id":"6cbddcc1-9609-4503-9874-4b78c26df24e","system_id":"levelo_inurba_marseille","lat":43.32104,"lon":5.36913,"is_reserved":false,"is_disabled":false,"rental_uris":{"android":"levelo://app?vid=6cbddcc1-9609-4503-9874-4b78c26df24e","ios":"levelo://app?vid=6cbddcc1-9609-4503-9874-4b78c26df24e"},"vehicle_type_id":"4","last_reported":1743181732,"current_range_meters":10800,"station_id":"ce4bhrh2rcd13ifvqhug","pricing_plan_id":"cebpf4jnsgd1na2vs0mg"},{"bike_id":"2b8204ef-de2b-475b-b3e9-771005da6d65","system_id":"levelo_inurba_marseille","lat":43.26941,"lon":5.40254,"is_reserved":false,"is_disabled":false,"rental_uris":{"android":"levelo://app?vid=2b8204ef-de2b-475b-b3e9-771005da6d65","ios":"levelo://app?vid=2b8204ef-de2b-475b-b3e9-771005da6d65"},"vehicle_type_id":"4","last_reported":1743181732,"current_range_meters":10800,"station_id":"cjm6bp8fraef2m0cb0m0","pricing_plan_id":"cebpf4jnsgd1na2vs0mg"},{"bike_id":"a9410603-b32a-4e18-b35d-6ef99c39f670","system_id":"levelo_inurba_marseille","lat":43.28933,"lon":5.36633,"is_reserved":false,"is_disabled":false,"rental_uris":{"android":"levelo://app?vid=a9410603-b32a-4e18-b35d-6ef99c39f670","ios":"levelo://app?vid=a9410603-b32a-4e18-b35d-6ef99c39f670"},"vehicle_type_id":"4","last_reported":1743181732,"current_range_meters":10800,"station_id":"ce4bhap2rcd13ifvqek0","pricing_plan_id":"cebpf4jnsgd1na2vs0mg"},{"bike_id":"68e9fc26-8998-4bf7-8da8-af47209f9b7c","system_id":"levelo_inurba_marseille","lat":43.32108,"lon":5.36786,"is_reserved":false,"is_disabled":false,"rental_uris":{"android":"levelo://app?vid=68e9fc26-8998-4bf7-8da8-af47209f9b7c","ios":"levelo://app?vid=68e9fc26-8998-4bf7-8da8-af47209f9b7c"},"vehicle_type_id":"4","last_reported":1743181732,"current_range_meters":10800,"station_id":"ce4bhrh2rcd13ifvqhug","pricing_plan_id":"cebpf4jnsgd1na2vs0mg"},{"bike_id":"eba6cb31-8838-4237-b6dc-6f8ee35f140f","system_id":"levelo_inurba_marseille","lat":43.28416,"lon":5.35013,"is_reserved":false,"is_disabled":false,"rental_uris":{"android":"levelo://app?vid=eba6cb31-8838-4237-b6dc-6f8ee35f140f","ios":"levelo://app?vid=eba6cb31-8838-4237-b6dc-6f8ee35f140f"},"vehicle_type_id":"4","last_reported":1743181732,"current_range_meters":10800,"station_id":"ce4bhbh2rcd13ifvqepg","pricing_plan_id":"cebpf4jnsgd1na2vs0mg"},{"bike_id":"65c86302-8ef0-46f4-ab6e-bac7149a2865","system_id":"levelo_inurba_marseille","lat":43.32131,"lon":5.36768,"is_reserved":false,"is_disabled":false,"rental_uris":{"android":"levelo://app?vid=65c86302-8ef0-46f4-ab6e-bac7149a2865","ios":"levelo://app?vid=65c86302-8ef0-46f4-ab6e-bac7149a2865"},"vehicle_type_id":"4","last_reported":1743181732,"current_range_meters":10800,"station_id":"ce4bhrh2rcd13ifvqhug","pricing_plan_id":"cebpf4jnsgd1na2vs0mg"},{"bike_id":"5a207e86-78b0-4086-9d57-1152ecdab29d","system_id":"levelo_inurba_marseille","lat":43.3043,"lon":5.38891,"is_reserved":false,"is_disabled":false,"rental_uris":{"android":"levelo://app?vid=5a207e86-78b0-4086-9d57-1152ecdab29d","ios":"levelo://app?vid=5a207e86-78b0-4086-9d57-1152ecdab29d"},"vehicle_type_id":"4","last_reported":1743181732,"current_range_meters":10800,"station_id":"ce4bgk12rcd13ifvqbi0","pricing_plan_id":"cebpf4jnsgd1na2vs0mg"},{"bike_id":"a173a7cd-7134-40e5-ace6-b97cd53f8bb9","system_id":"levelo_inurba_marseille","lat":43.29559,"lon":5.38543,"is_reserved":false,"is_disabled":false,"rental_uris":{"android":"levelo://app?vid=a173a7cd-7134-40e5-ace6-b97cd53f8bb9","ios":"levelo://app?vid=a173a7cd-7134-40e5-ace6-b97cd53f8bb9"},"vehicle_type_id":"4","last_reported":1743181732,"current_range_meters":10800,"station_id":"ce4bgih2rcd13ifvqba0","pricing_plan_id":"cebpf4jnsgd1na2vs0mg"},{"bike_id":"775b26ff-bbdc-4d7e-9267-0fbf18041066","system_id":"levelo_inurba_marseille","lat":43.22934,"lon":5.35383,"is_reserved":false,"is_disabled":false,"rental_uris":{"android":"levelo://app?vid=775b26ff-bbdc-4d7e-9267-0fbf18041066","ios":"levelo://app?vid=775b26ff-bbdc-4d7e-9267-0fbf18041066"},"vehicle_type_id":"4","last_reported":1743181732,"current_range_meters":10800,"station_id":"cpo3532slgdg3j2ikp40","pricing_plan_id":"cebpf4jnsgd1na2vs0mg"},{"bike_id":"bc61c42e-59a8-4cc3-a29b-ec7e803012d5","system_id":"levelo_inurba_marseille","lat":43.28093,"lon":5.39671,"is_reserved":false,"is_disabled":false,"rental_uris":{"android":"levelo://app?vid=bc61c42e-59a8-4cc3-a29b-ec7e803012d5","ios":"levelo://app?vid=bc61c42e-59a8-4cc3-a29b-ec7e803012d5"},"vehicle_type_id":"4","last_reported":1743181732,"current_range_meters":10800,"station_id":"ce4bho12rcd13ifvqh2g","pricing_plan_id":"cebpf4jnsgd1na2vs0mg"},{"bike_id":"d2be6ce3-8e79-4804-b0d3-008c875e7b9d","system_id":"levelo_inurba_marseille","lat":43.26226,"lon":5.37933,"is_reserved":false,"is_disabled":false,"rental_uris":{"android":"levelo://app?vid=d2be6ce3-8e79-4804-b0d3-008c875e7b9d","ios":"levelo://app?vid=d2be6ce3-8e79-4804-b0d3-008c875e7b9d"},"vehicle_type_id":"4","last_reported":1743181732,"current_range_meters":11200,"station_id":"ce4bhjp2rcd13ifvqg90","pricing_plan_id":"cebpf4jnsgd1na2vs0mg"},{"bike_id":"9607e7d1-bbd9-4377-bdb2-57d14eb74907","system_id":"levelo_inurba_marseille","lat":43.28032,"lon":5.36929,"is_reserved":false,"is_disabled":false,"rental_uris":{"android":"levelo://app?vid=9607e7d1-bbd9-4377-bdb2-57d14eb74907","ios":"levelo://app?vid=9607e7d1-bbd9-4377-bdb2-57d14eb74907"},"vehicle_type_id":"4","last_reported":1743181732,"current_range_meters":11200,"station_id":"ce4bha12rcd13ifvqef0","pricing_plan_id":"cebpf4jnsgd1na2vs0mg"},{"bike_id":"fb348b09-6abb-47a4-a266-91f2eeaee291","system_id":"levelo_inurba_marseille","lat":43.3211,"lon":5.36821,"is_reserved":false,"is_disabled":false,"rental_uris":{"android":"levelo://app?vid=fb348b09-6abb-47a4-a266-91f2eeaee291","ios":"levelo://app?vid=fb348b09-6abb-47a4-a266-91f2eeaee291"},"vehicle_type_id":"4","last_reported":1743181732,"current_range_meters":11200,"station_id":"ce4bhrh2rcd13ifvqhug","pricing_plan_id":"cebpf4jnsgd1na2vs0mg"},{"bike_id":"a5a72081-11cb-4d69-a429-7457a7f7ac2b","system_id":"levelo_inurba_marseille","lat":43.28469,"lon":5.35882,"is_reserved":false,"is_disabled":false,"rental_uris":{"android":"levelo://app?vid=a5a72081-11cb-4d69-a429-7457a7f7ac2b","ios":"levelo://app?vid=a5a72081-11cb-4d69-a429-7457a7f7ac2b"},"vehicle_type_id":"4","last_reported":1743181732,"current_range_meters":11200,"station_id":"ce4bhah2rcd13ifvqei0","pricing_plan_id":"cebpf4jnsgd1na2vs0mg"},{"bike_id":"8ce57e29-9e4e-4c4b-9eac-25dbada77966","system_id":"levelo_inurba_marseille","lat":43.27629,"lon":5.36114,"is_reserved":false,"is_disabled":false,"rental_uris":{"android":"levelo://app?vid=8ce57e29-9e4e-4c4b-9eac-25dbada77966","ios":"levelo://app?vid=8ce57e29-9e4e-4c4b-9eac-25dbada77966"},"vehicle_type_id":"4","last_reported":1743181732,"current_range_meters":11200,"station_id":"ce4bgj92rcd13ifvqbe0","pricing_plan_id":"cebpf4jnsgd1na2vs0mg"},{"bike_id":"3725a665-f321-49c0-82ac-8ef9aa95c7a1","system_id":"levelo_inurba_marseille","lat":43.298498,"lon":5.36282,"is_reserved":false,"is_disabled":false,"rental_uris":{"android":"levelo://app?vid=3725a665-f321-49c0-82ac-8ef9aa95c7a1","ios":"levelo://app?vid=3725a665-f321-49c0-82ac-8ef9aa95c7a1"},"vehicle_type_id":"4","last_reported":1743181732,"current_range_meters":10800,"station_id":"ce4bgpp2rcd13ifvqc3g","pricing_plan_id":"cebpf4jnsgd1na2vs0mg"},{"bike_id":"d4e5039f-1d8e-4149-8ee8-851e58927f1c","system_id":"levelo_inurba_marseille","lat":43.26937,"lon":5.3891,"is_reserved":false,"is_disabled":false,"rental_uris":{"android":"levelo://app?vid=d4e5039f-1d8e-4149-8ee8-851e58927f1c","ios":"levelo://app?vid=d4e5039f-1d8e-4149-8ee8-851e58927f1c"},"vehicle_type_id":"4","last_reported":1743181732,"current_range_meters":11200,"station_id":"ce4bhhh2rcd13ifvqfl0","pricing_plan_id":"cebpf4jnsgd1na2vs0mg"},{"bike_id":"9b8cbd18-1b6c-4663-92c8-ad74d94cd312","system_id":"levelo_inurba_marseille","lat":43.2901,"lon":5.35616,"is_reserved":false,"is_disabled":false,"rental_uris":{"android":"levelo://app?vid=9b8cbd18-1b6c-4663-92c8-ad74d94cd312","ios":"levelo://app?vid=9b8cbd18-1b6c-4663-92c8-ad74d94cd312"},"vehicle_type_id":"4","last_reported":1743181732,"current_range_meters":11200,"station_id":"ce4bhb92rcd13ifvqen0","pricing_plan_id":"cebpf4jnsgd1na2vs0mg"},{"bike_id":"9462a91b-8b4b-430a-ac7a-4612f1bebb31","system_id":"levelo_inurba_marseille","lat":43.29089,"lon":5.38207,"is_reserved":false,"is_disabled":true,"rental_uris":{"android":"levelo://app?vid=9462a91b-8b4b-430a-ac7a-4612f1bebb31","ios":"levelo://app?vid=9462a91b-8b4b-430a-ac7a-4612f1bebb31"},"vehicle_type_id":"4","last_reported":1743181732,"current_range_meters":11200,"station_id":"ce4bh512rcd13ifvqe2g","pricing_plan_id":"cebpf4jnsgd1na2vs0mg"},{"bike_id":"8b7e2333-3279-47a1-af44-5227b2c78362","system_id":"levelo_inurba_marseille","lat":43.24171,"lon":5.36397,"is_reserved":false,"is_disabled":false,"rental_uris":{"android":"levelo://app?vid=8b7e2333-3279-47a1-af44-5227b2c78362","ios":"levelo://app?vid=8b7e2333-3279-47a1-af44-5227b2c78362"},"vehicle_type_id":"4","last_reported":1743181732,"current_range_meters":11600,"station_id":"cpo36qri1sfpv3e86is0","pricing_plan_id":"cebpf4jnsgd1na2vs0mg"},{"bike_id":"b097cdf6-2d56-4689-98e8-a2fedfc637f7","system_id":"levelo_inurba_marseille","lat":43.29264,"lon":5.38434,"is_reserved":false,"is_disabled":false,"rental_uris":{"android":"levelo://app?vid=b097cdf6-2d56-4689-98e8-a2fedfc637f7","ios":"levelo://app?vid=b097cdf6-2d56-4689-98e8-a2fedfc637f7"},"vehicle_type_id":"4","last_reported":1743181732,"current_range_meters":11600,"station_id":"ce4bh692rcd13ifvqea0","pricing_plan_id":"cebpf4jnsgd1na2vs0mg"},{"bike_id":"eef75a29-8f94-45b0-b9d9-6991a77efccc","system_id":"levelo_inurba_marseille","lat":43.29264,"lon":5.37627,"is_reserved":false,"is_disabled":false,"rental_uris":{"android":"levelo://app?vid=eef75a29-8f94-45b0-b9d9-6991a77efccc","ios":"levelo://app?vid=eef75a29-8f94-45b0-b9d9-6991a77efccc"},"vehicle_type_id":"4","last_reported":1743181732,"current_range_meters":11600,"station_id":"ce4bgi12rcd13ifvqb80","pricing_plan_id":"cebpf4jnsgd1na2vs0mg"},{"bike_id":"b738de85-f799-4dcb-aed9-edc2f7ca60e5","system_id":"levelo_inurba_marseille","lat":43.26948,"lon":5.38645,"is_reserved":false,"is_disabled":false,"rental_uris":{"android":"levelo://app?vid=b738de85-f799-4dcb-aed9-edc2f7ca60e5","ios":"levelo://app?vid=b738de85-f799-4dcb-aed9-edc2f7ca60e5"},"vehicle_type_id":"4","last_reported":1743181732,"current_range_meters":11600,"station_id":"ce4bhh92rcd13ifvqfh0","pricing_plan_id":"cebpf4jnsgd1na2vs0mg"},{"bike_id":"bc4aad2a-e29a-45b7-b9a9-740428b25c49","system_id":"levelo_inurba_marseille","lat":43.23182,"lon":5.35559,"is_reserved":false,"is_disabled":false,"rental_uris":{"android":"levelo://app?vid=bc4aad2a-e29a-45b7-b9a9-740428b25c49","ios":"levelo://app?vid=bc4aad2a-e29a-45b7-b9a9-740428b25c49"},"vehicle_type_id":"4","last_reported":1743181732,"current_range_meters":11600,"station_id":"ce4bhu92rcd13ifvqi70","pricing_plan_id":"cebpf4jnsgd1na2vs0mg"},{"bike_id":"c6c8fb31-86de-4758-859b-e74b70125ab7","system_id":"levelo_inurba_marseille","lat":43.32133,"lon":5.36786,"is_reserved":false,"is_disabled":false,"rental_uris":{"android":"levelo://app?vid=c6c8fb31-86de-4758-859b-e74b70125ab7","ios":"levelo://app?vid=c6c8fb31-86de-4758-859b-e74b70125ab7"},"vehicle_type_id":"4","last_reported":1743181732,"current_range_meters":11600,"station_id":"ce4bhrh2rcd13ifvqhug","pricing_plan_id":"cebpf4jnsgd1na2vs0mg"},{"bike_id":"3cb72f86-da57-4afd-af27-0469c8e7add3","system_id":"levelo_inurba_marseille","lat":43.32011,"lon":5.38143,"is_reserved":false,"is_disabled":false,"rental_uris":{"android":"levelo://app?vid=3cb72f86-da57-4afd-af27-0469c8e7add3","ios":"levelo://app?vid=3cb72f86-da57-4afd-af27-0469c8e7add3"},"vehicle_type_id":"4","last_reported":1743181732,"current_range_meters":11600,"station_id":"ce4bhr12rcd13ifvqhpg","pricing_plan_id":"cebpf4jnsgd1na2vs0mg"},{"bike_id":"b971862d-804c-47cf-9b14-8e64aa729173","system_id":"levelo_inurba_marseille","lat":43.27995,"lon":5.41662,"is_reserved":false,"is_disabled":false,"rental_uris":{"android":"levelo://app?vid=b971862d-804c-47cf-9b14-8e64aa729173","ios":"levelo://app?vid=b971862d-804c-47cf-9b14-8e64aa729173"},"vehicle_type_id":"4","last_reported":1743181732,"current_range_meters":11600,"station_id":"ce4bho12rcd13ifvqh1g","pricing_plan_id":"cebpf4jnsgd1na2vs0mg"},{"bike_id":"2e7c8690-9a0d-4fc3-946a-44678891ae3e","system_id":"levelo_inurba_marseille","lat":43.25114,"lon":5.4031,"is_reserved":false,"is_disabled":false,"rental_uris":{"android":"levelo://app?vid=2e7c8690-9a0d-4fc3-946a-44678891ae3e","ios":"levelo://app?vid=2e7c8690-9a0d-4fc3-946a-44678891ae3e"},"vehicle_type_id":"4","last_reported":1743181732,"current_range_meters":12000,"station_id":"ce4bhlh2rcd13ifvqgig","pricing_plan_id":"cebpf4jnsgd1na2vs0mg"},{"bike_id":"78879d72-d868-43c9-a743-a6ab48dd9b11","system_id":"levelo_inurba_marseille","lat":43.28733,"lon":5.36084,"is_reserved":false,"is_disabled":false,"rental_uris":{"android":"levelo://app?vid=78879d72-d868-43c9-a743-a6ab48dd9b11","ios":"levelo://app?vid=78879d72-d868-43c9-a743-a6ab48dd9b11"},"vehicle_type_id":"4","last_reported":1743181732,"current_range_meters":12000,"station_id":"cki0cbj6b192h4jlfktg","pricing_plan_id":"cebpf4jnsgd1na2vs0mg"},{"bike_id":"27c4ba6b-f9eb-4f55-857c-1c94105462f8","system_id":"levelo_inurba_marseille","lat":43.28413,"lon":5.34984,"is_reserved":false,"is_disabled":false,"rental_uris":{"android":"levelo://app?vid=27c4ba6b-f9eb-4f55-857c-1c94105462f8","ios":"levelo://app?vid=27c4ba6b-f9eb-4f55-857c-1c94105462f8"},"vehicle_type_id":"4","last_reported":1743181732,"current_range_meters":12000,"station_id":"ce4bhbh2rcd13ifvqepg","pricing_plan_id":"cebpf4jnsgd1na2vs0mg"},{"bike_id":"8bc2cbde-34c8-4c06-962a-d2135c8869d7","system_id":"levelo_inurba_marseille","lat":43.23948,"lon":5.36678,"is_reserved":false,"is_disabled":false,"rental_uris":{"android":"levelo://app?vid=8bc2cbde-34c8-4c06-962a-d2135c8869d7","ios":"levelo://app?vid=8bc2cbde-34c8-4c06-962a-d2135c8869d7"},"vehicle_type_id":"4","last_reported":1743181732,"current_range_meters":12000,"station_id":"ce4bhi12rcd13ifvqfp0","pricing_plan_id":"cebpf4jnsgd1na2vs0mg"},{"bike_id":"9fca3360-8e7b-45c5-b38d-719a2530d1b8","system_id":"levelo_inurba_marseille","lat":43.28418,"lon":5.34988,"is_reserved":false,"is_disabled":false,"rental_uris":{"android":"levelo://app?vid=9fca3360-8e7b-45c5-b38d-719a2530d1b8","ios":"levelo://app?vid=9fca3360-8e7b-45c5-b38d-719a2530d1b8"},"vehicle_type_id":"4","last_reported":1743181732,"current_range_meters":12000,"station_id":"ce4bhbh2rcd13ifvqepg","pricing_plan_id":"cebpf4jnsgd1na2vs0mg"},{"bike_id":"ff77a0e9-bc0b-4e1f-88de-d2a2ae46b26b","system_id":"levelo_inurba_marseille","lat":43.313293,"lon":5.39689,"is_reserved":false,"is_disabled":false,"rental_uris":{"android":"levelo://app?vid=ff77a0e9-bc0b-4e1f-88de-d2a2ae46b26b","ios":"levelo://app?vid=ff77a0e9-bc0b-4e1f-88de-d2a2ae46b26b"},"vehicle_type_id":"4","last_reported":1743181732,"current_range_meters":12000,"station_id":"ce4bh312rcd13ifvqdk0","pricing_plan_id":"cebpf4jnsgd1na2vs0mg"},{"bike_id":"08b6b848-e9ce-4248-aa4f-eadb3da23104","system_id":"levelo_inurba_marseille","lat":43.27564,"lon":5.38406,"is_reserved":false,"is_disabled":false,"rental_uris":{"android":"levelo://app?vid=08b6b848-e9ce-4248-aa4f-eadb3da23104","ios":"levelo://app?vid=08b6b848-e9ce-4248-aa4f-eadb3da23104"},"vehicle_type_id":"4","last_reported":1743181732,"current_range_meters":12400,"station_id":"ce4bhh92rcd13ifvqfi0","pricing_plan_id":"cebpf4jnsgd1na2vs0mg"},{"bike_id":"4104b94f-bad0-4820-a52e-8870e80ffb0d","system_id":"levelo_inurba_marseille","lat":43.28603,"lon":5.37031,"is_reserved":false,"is_disabled":false,"rental_uris":{"android":"levelo://app?vid=4104b94f-bad0-4820-a52e-8870e80ffb0d","ios":"levelo://app?vid=4104b94f-bad0-4820-a52e-8870e80ffb0d"},"vehicle_type_id":"4","last_reported":1743181732,"current_range_meters":12400,"station_id":"ce4bht12rcd13ifvqi60","pricing_plan_id":"cebpf4jnsgd1na2vs0mg"},{"bike_id":"1cebea5c-cfeb-4552-a2b6-bf6db1cff8b1","system_id":"levelo_inurba_marseille","lat":43.29218,"lon":5.35818,"is_reserved":false,"is_disabled":false,"rental_uris":{"android":"levelo://app?vid=1cebea5c-cfeb-4552-a2b6-bf6db1cff8b1","ios":"levelo://app?vid=1cebea5c-cfeb-4552-a2b6-bf6db1cff8b1"},"vehicle_type_id":"4","last_reported":1743181732,"current_range_meters":12400,"station_id":"ce4bhb12rcd13ifvqel0","pricing_plan_id":"cebpf4jnsgd1na2vs0mg"},{"bike_id":"1dad1e4b-ba13-4a8a-9eba-fd783fa4627d","system_id":"levelo_inurba_marseille","lat":43.32354,"lon":5.36746,"is_reserved":false,"is_disabled":false,"rental_uris":{"android":"levelo://app?vid=1dad1e4b-ba13-4a8a-9eba-fd783fa4627d","ios":"levelo://app?vid=1dad1e4b-ba13-4a8a-9eba-fd783fa4627d"},"vehicle_type_id":"4","last_reported":1743181732,"current_range_meters":12400,"station_id":"ce4bhsh2rcd13ifvqi2g","pricing_plan_id":"cebpf4jnsgd1na2vs0mg"},{"bike_id":"dc21f7c4-0573-49c1-8a41-5c379c6c7b2c","system_id":"levelo_inurba_marseille","lat":43.29205,"lon":5.35828,"is_reserved":false,"is_disabled":false,"rental_uris":{"android":"levelo://app?vid=dc21f7c4-0573-49c1-8a41-5c379c6c7b2c","ios":"levelo://app?vid=dc21f7c4-0573-49c1-8a41-5c379c6c7b2c"},"vehicle_type_id":"4","last_reported":1743181732,"current_range_meters":12400,"station_id":"ce4bhb12rcd13ifvqel0","pricing_plan_id":"cebpf4jnsgd1na2vs0mg"},{"bike_id":"9f2583cf-461d-4d57-8c37-99ef1e89cade","system_id":"levelo_inurba_marseille","lat":43.232024,"lon":5.355559,"is_reserved":false,"is_disabled":false,"rental_uris":{"android":"levelo://app?vid=9f2583cf-461d-4d57-8c37-99ef1e89cade","ios":"levelo://app?vid=9f2583cf-461d-4d57-8c37-99ef1e89cade"},"vehicle_type_id":"4","last_reported":1743181732,"current_range_meters":12400,"station_id":"ce4bhu92rcd13ifvqi70","pricing_plan_id":"cebpf4jnsgd1na2vs0mg"},{"bike_id":"5d083534-1e4c-410c-8650-d05d5df87db5","system_id":"levelo_inurba_marseille","lat":43.29521,"lon":5.39036,"is_reserved":false,"is_disabled":false,"rental_uris":{"android":"levelo://app?vid=5d083534-1e4c-410c-8650-d05d5df87db5","ios":"levelo://app?vid=5d083534-1e4c-410c-8650-d05d5df87db5"},"vehicle_type_id":"4","last_reported":1743181732,"current_range_meters":12400,"station_id":"ce4bh3p2rcd13ifvqdp0","pricing_plan_id":"cebpf4jnsgd1na2vs0mg"},{"bike_id":"b1ecd358-38ec-4753-8af1-9b87454b444a","system_id":"levelo_inurba_marseille","lat":43.28618,"lon":5.35103,"is_reserved":false,"is_disabled":false,"rental_uris":{"android":"levelo://app?vid=b1ecd358-38ec-4753-8af1-9b87454b444a","ios":"levelo://app?vid=b1ecd358-38ec-4753-8af1-9b87454b444a"},"vehicle_type_id":"4","last_reported":1743181732,"current_range_meters":12800,"station_id":"ce4bhch2rcd13ifvqeug","pricing_plan_id":"cebpf4jnsgd1na2vs0mg"},{"bike_id":"519f7d80-1f08-4dda-97da-6e94c40b3d40","system_id":"levelo_inurba_marseille","lat":43.23195,"lon":5.35554,"is_reserved":false,"is_disabled":false,"rental_uris":{"android":"levelo://app?vid=519f7d80-1f08-4dda-97da-6e94c40b3d40","ios":"levelo://app?vid=519f7d80-1f08-4dda-97da-6e94c40b3d40"},"vehicle_type_id":"4","last_reported":1743181732,"current_range_meters":12800,"station_id":"ce4bhu92rcd13ifvqi70","pricing_plan_id":"cebpf4jnsgd1na2vs0mg"},{"bike_id":"983c4c9f-ee1a-4d13-8ce7-bfd36c479f46","system_id":"levelo_inurba_marseille","lat":43.241741,"lon":5.36395,"is_reserved":false,"is_disabled":false,"rental_uris":{"android":"levelo://app?vid=983c4c9f-ee1a-4d13-8ce7-bfd36c479f46","ios":"levelo://app?vid=983c4c9f-ee1a-4d13-8ce7-bfd36c479f46"},"vehicle_type_id":"4","last_reported":1743181732,"current_range_meters":12800,"station_id":"cpo36qri1sfpv3e86is0","pricing_plan_id":"cebpf4jnsgd1na2vs0mg"},{"bike_id":"cab0d83a-cc5d-4bad-b59c-2643c4e40f40","system_id":"levelo_inurba_marseille","lat":43.29009,"lon":5.35612,"is_reserved":false,"is_disabled":false,"rental_uris":{"android":"levelo://app?vid=cab0d83a-cc5d-4bad-b59c-2643c4e40f40","ios":"levelo://app?vid=cab0d83a-cc5d-4bad-b59c-2643c4e40f40"},"vehicle_type_id":"4","last_reported":1743181732,"current_range_meters":12400,"station_id":"ce4bhb92rcd13ifvqen0","pricing_plan_id":"cebpf4jnsgd1na2vs0mg"},{"bike_id":"9a7b4e6a-fd8e-4005-b1f1-d848e9b15f63","system_id":"levelo_inurba_marseille","lat":43.2923,"lon":5.35832,"is_reserved":false,"is_disabled":false,"rental_uris":{"android":"levelo://app?vid=9a7b4e6a-fd8e-4005-b1f1-d848e9b15f63","ios":"levelo://app?vid=9a7b4e6a-fd8e-4005-b1f1-d848e9b15f63"},"vehicle_type_id":"4","last_reported":1743181732,"current_range_meters":12800,"station_id":"ce4bhb12rcd13ifvqel0","pricing_plan_id":"cebpf4jnsgd1na2vs0mg"},{"bike_id":"95db91db-0544-4828-8060-a4e190b8c133","system_id":"levelo_inurba_marseille","lat":43.2942,"lon":5.3863,"is_reserved":false,"is_disabled":false,"rental_uris":{"android":"levelo://app?vid=95db91db-0544-4828-8060-a4e190b8c133","ios":"levelo://app?vid=95db91db-0544-4828-8060-a4e190b8c133"},"vehicle_type_id":"4","last_reported":1743181732,"current_range_meters":12800,"station_id":"ce4bh2h2rcd13ifvqdh0","pricing_plan_id":"cebpf4jnsgd1na2vs0mg"},{"bike_id":"0c2f8040-9ea3-43de-a91b-7f15546856a4","system_id":"levelo_inurba_marseille","lat":43.27937,"lon":5.41044,"is_reserved":false,"is_disabled":false,"rental_uris":{"android":"levelo://app?vid=0c2f8040-9ea3-43de-a91b-7f15546856a4","ios":"levelo://app?vid=0c2f8040-9ea3-43de-a91b-7f15546856a4"},"vehicle_type_id":"4","last_reported":1743181732,"current_range_meters":12800,"station_id":"ce4bhnp2rcd13ifvqh0g","pricing_plan_id":"cebpf4jnsgd1na2vs0mg"},{"bike_id":"5126e79b-8492-4c2e-8be4-648ed40fe7bd","system_id":"levelo_inurba_marseille","lat":43.29301,"lon":5.37467,"is_reserved":false,"is_disabled":false,"rental_uris":{"android":"levelo://app?vid=5126e79b-8492-4c2e-8be4-648ed40fe7bd","ios":"levelo://app?vid=5126e79b-8492-4c2e-8be4-648ed40fe7bd"},"vehicle_type_id":"4","last_reported":1743181732,"current_range_meters":12800,"station_id":"ce4bgi12rcd13ifvqb70","pricing_plan_id":"cebpf4jnsgd1na2vs0mg"},{"bike_id":"7c3edf43-2fb3-478e-bdf4-451c924d694f","system_id":"levelo_inurba_marseille","lat":43.289337,"lon":5.366429,"is_reserved":false,"is_disabled":false,"rental_uris":{"android":"levelo://app?vid=7c3edf43-2fb3-478e-bdf4-451c924d694f","ios":"levelo://app?vid=7c3edf43-2fb3-478e-bdf4-451c924d694f"},"vehicle_type_id":"4","last_reported":1743181732,"current_range_meters":13600,"station_id":"ce4bhap2rcd13ifvqek0","pricing_plan_id":"cebpf4jnsgd1na2vs0mg"},{"bike_id":"d67d8652-0f04-45a0-b34d-bbd8839b9d56","system_id":"levelo_inurba_marseille","lat":43.26304,"lon":5.38833,"is_reserved":false,"is_disabled":false,"rental_uris":{"android":"levelo://app?vid=d67d8652-0f04-45a0-b34d-bbd8839b9d56","ios":"levelo://app?vid=d67d8652-0f04-45a0-b34d-bbd8839b9d56"},"vehicle_type_id":"4","last_reported":1743181732,"current_range_meters":13600,"station_id":"","pricing_plan_id":"cebpf4jnsgd1na2vs0mg"},{"bike_id":"0f2d7a4c-79b5-41a1-8b04-37e695964ff1","system_id":"levelo_inurba_marseille","lat":43.27993,"lon":5.40014,"is_reserved":false,"is_disabled":false,"rental_uris":{"android":"levelo://app?vid=0f2d7a4c-79b5-41a1-8b04-37e695964ff1","ios":"levelo://app?vid=0f2d7a4c-79b5-41a1-8b04-37e695964ff1"},"vehicle_type_id":"4","last_reported":1743181732,"current_range_meters":13600,"station_id":"ce4bgup2rcd13ifvqcn0","pricing_plan_id":"cebpf4jnsgd1na2vs0mg"},{"bike_id":"023e2c00-ba8b-439e-8511-77501db035b4","system_id":"levelo_inurba_marseille","lat":43.27946,"lon":5.41042,"is_reserved":false,"is_disabled":false,"rental_uris":{"android":"levelo://app?vid=023e2c00-ba8b-439e-8511-77501db035b4","ios":"levelo://app?vid=023e2c00-ba8b-439e-8511-77501db035b4"},"vehicle_type_id":"4","last_reported":1743181732,"current_range_meters":13600,"station_id":"ce4bhnp2rcd13ifvqh0g","pricing_plan_id":"cebpf4jnsgd1na2vs0mg"},{"bike_id":"194e8a53-3f00-476a-a0ee-6027c286734b","system_id":"levelo_inurba_marseille","lat":43.310151,"lon":5.383794,"is_reserved":false,"is_disabled":false,"rental_uris":{"android":"levelo://app?vid=194e8a53-3f00-476a-a0ee-6027c286734b","ios":"levelo://app?vid=194e8a53-3f00-476a-a0ee-6027c286734b"},"vehicle_type_id":"4","last_reported":1743181732,"current_range_meters":13600,"station_id":"ce4bh012rcd13ifvqd00","pricing_plan_id":"cebpf4jnsgd1na2vs0mg"},{"bike_id":"2152f52b-441e-4267-8436-021940c64efd","system_id":"levelo_inurba_marseille","lat":43.29515,"lon":5.39046,"is_reserved":false,"is_disabled":false,"rental_uris":{"android":"levelo://app?vid=2152f52b-441e-4267-8436-021940c64efd","ios":"levelo://app?vid=2152f52b-441e-4267-8436-021940c64efd"},"vehicle_type_id":"4","last_reported":1743181732,"current_range_meters":12800,"station_id":"ce4bh3p2rcd13ifvqdp0","pricing_plan_id":"cebpf4jnsgd1na2vs0mg"},{"bike_id":"c0c93997-1c90-4f38-9620-e061a6ec9b21","system_id":"levelo_inurba_marseille","lat":43.29786,"lon":5.39326,"is_reserved":false,"is_disabled":false,"rental_uris":{"android":"levelo://app?vid=c0c93997-1c90-4f38-9620-e061a6ec9b21","ios":"levelo://app?vid=c0c93997-1c90-4f38-9620-e061a6ec9b21"},"vehicle_type_id":"4","last_reported":1743181732,"current_range_meters":13600,"station_id":"chh1huq6cuj3fo74tm60","pricing_plan_id":"cebpf4jnsgd1na2vs0mg"},{"bike_id":"ab5156bd-499e-4940-8af8-200f841ae768","system_id":"levelo_inurba_marseille","lat":43.30372,"lon":5.42514,"is_reserved":false,"is_disabled":false,"rental_uris":{"android":"levelo://app?vid=ab5156bd-499e-4940-8af8-200f841ae768","ios":"levelo://app?vid=ab5156bd-499e-4940-8af8-200f841ae768"},"vehicle_type_id":"4","last_reported":1743181732,"current_range_meters":13600,"station_id":"ce4bhoh2rcd13ifvqh6g","pricing_plan_id":"cebpf4jnsgd1na2vs0mg"},{"bike_id":"980b1b8d-c114-4f00-88f8-a0ddccb8fb71","system_id":"levelo_inurba_marseille","lat":43.28621,"lon":5.35106,"is_reserved":false,"is_disabled":false,"rental_uris":{"android":"levelo://app?vid=980b1b8d-c114-4f00-88f8-a0ddccb8fb71","ios":"levelo://app?vid=980b1b8d-c114-4f00-88f8-a0ddccb8fb71"},"vehicle_type_id":"4","last_reported":1743181732,"current_range_meters":13600,"station_id":"ce4bhch2rcd13ifvqeug","pricing_plan_id":"cebpf4jnsgd1na2vs0mg"},{"bike_id":"d581deb9-90d8-40c4-bb18-6821f5f4a922","system_id":"levelo_inurba_marseille","lat":43.23956,"lon":5.36623,"is_reserved":false,"is_disabled":false,"rental_uris":{"android":"levelo://app?vid=d581deb9-90d8-40c4-bb18-6821f5f4a922","ios":"levelo://app?vid=d581deb9-90d8-40c4-bb18-6821f5f4a922"},"vehicle_type_id":"4","last_reported":1743181732,"current_range_meters":13600,"station_id":"ce4bhi12rcd13ifvqfp0","pricing_plan_id":"cebpf4jnsgd1na2vs0mg"},{"bike_id":"54a21bef-c32a-4cfc-a8c9-02041dff5ecb","system_id":"levelo_inurba_marseille","lat":43.28432,"lon":5.39189,"is_reserved":false,"is_disabled":false,"rental_uris":{"android":"levelo://app?vid=54a21bef-c32a-4cfc-a8c9-02041dff5ecb","ios":"levelo://app?vid=54a21bef-c32a-4cfc-a8c9-02041dff5ecb"},"vehicle_type_id":"4","last_reported":1743181732,"current_range_meters":12800,"station_id":"ce4bhoh2rcd13ifvqh5g","pricing_plan_id":"cebpf4jnsgd1na2vs0mg"},{"bike_id":"a0fb5ba5-5f3f-4800-b455-d1344198a4d2","system_id":"levelo_inurba_marseille","lat":43.25493,"lon":5.37647,"is_reserved":false,"is_disabled":false,"rental_uris":{"android":"levelo://app?vid=a0fb5ba5-5f3f-4800-b455-d1344198a4d2","ios":"levelo://app?vid=a0fb5ba5-5f3f-4800-b455-d1344198a4d2"},"vehicle_type_id":"4","last_reported":1743181732,"current_range_meters":13600,"station_id":"ce4bhh12rcd13ifvqff0","pricing_plan_id":"cebpf4jnsgd1na2vs0mg"},{"bike_id":"ad095ff6-2192-4acf-9d3b-75082cfc78be","system_id":"levelo_inurba_marseille","lat":43.29276,"lon":5.37772,"is_reserved":false,"is_disabled":false,"rental_uris":{"android":"levelo://app?vid=ad095ff6-2192-4acf-9d3b-75082cfc78be","ios":"levelo://app?vid=ad095ff6-2192-4acf-9d3b-75082cfc78be"},"vehicle_type_id":"4","last_reported":1743181732,"current_range_meters":13600,"station_id":"","pricing_plan_id":"cebpf4jnsgd1na2vs0mg"},{"bike_id":"634f8619-0f67-41ba-8911-1c570f275abd","system_id":"levelo_inurba_marseille","lat":43.31985,"lon":5.38142,"is_reserved":false,"is_disabled":false,"rental_uris":{"android":"levelo://app?vid=634f8619-0f67-41ba-8911-1c570f275abd","ios":"levelo://app?vid=634f8619-0f67-41ba-8911-1c570f275abd"},"vehicle_type_id":"4","last_reported":1743181732,"current_range_meters":14000,"station_id":"ce4bhr12rcd13ifvqhpg","pricing_plan_id":"cebpf4jnsgd1na2vs0mg"},{"bike_id":"53bfc015-1d66-418c-99c5-ba3ec2b8adff","system_id":"levelo_inurba_marseille","lat":43.30585,"lon":5.39346,"is_reserved":false,"is_disabled":false,"rental_uris":{"android":"levelo://app?vid=53bfc015-1d66-418c-99c5-ba3ec2b8adff","ios":"levelo://app?vid=53bfc015-1d66-418c-99c5-ba3ec2b8adff"},"vehicle_type_id":"4","last_reported":1743181732,"current_range_meters":14000,"station_id":"ce4bh0p2rcd13ifvqd80","pricing_plan_id":"cebpf4jnsgd1na2vs0mg"},{"bike_id":"b9ec95d5-d6ac-4e6e-a9d9-cc3baee2ae41","system_id":"levelo_inurba_marseille","lat":43.279596,"lon":5.387523,"is_reserved":false,"is_disabled":false,"rental_uris":{"android":"levelo://app?vid=b9ec95d5-d6ac-4e6e-a9d9-cc3baee2ae41","ios":"levelo://app?vid=b9ec95d5-d6ac-4e6e-a9d9-cc3baee2ae41"},"vehicle_type_id":"4","last_reported":1743181732,"current_range_meters":13600,"station_id":"ce4bhg12rcd13ifvqf80","pricing_plan_id":"cebpf4jnsgd1na2vs0mg"},{"bike_id":"bfbee258-a0df-42aa-b80f-fedafeb892b9","system_id":"levelo_inurba_marseille","lat":43.28471,"lon":5.35872,"is_reserved":false,"is_disabled":false,"rental_uris":{"android":"levelo://app?vid=bfbee258-a0df-42aa-b80f-fedafeb892b9","ios":"levelo://app?vid=bfbee258-a0df-42aa-b80f-fedafeb892b9"},"vehicle_type_id":"4","last_reported":1743181732,"current_range_meters":14000,"station_id":"ce4bhah2rcd13ifvqei0","pricing_plan_id":"cebpf4jnsgd1na2vs0mg"},{"bike_id":"d8a54a98-a3f4-4664-a6a4-db3c269360f4","system_id":"levelo_inurba_marseille","lat":43.29528,"lon":5.39049,"is_reserved":false,"is_disabled":false,"rental_uris":{"android":"levelo://app?vid=d8a54a98-a3f4-4664-a6a4-db3c269360f4","ios":"levelo://app?vid=d8a54a98-a3f4-4664-a6a4-db3c269360f4"},"vehicle_type_id":"4","last_reported":1743181732,"current_range_meters":14400,"station_id":"ce4bh3p2rcd13ifvqdp0","pricing_plan_id":"cebpf4jnsgd1na2vs0mg"},{"bike_id":"4b2323ae-94b8-41f7-9062-4d9bd4bd549e","system_id":"levelo_inurba_marseille","lat":43.24205,"lon":5.36375,"is_reserved":false,"is_disabled":false,"rental_uris":{"android":"levelo://app?vid=4b2323ae-94b8-41f7-9062-4d9bd4bd549e","ios":"levelo://app?vid=4b2323ae-94b8-41f7-9062-4d9bd4bd549e"},"vehicle_type_id":"4","last_reported":1743181732,"current_range_meters":14400,"station_id":"cpo36qri1sfpv3e86is0","pricing_plan_id":"cebpf4jnsgd1na2vs0mg"},{"bike_id":"95487117-3b55-48e2-bf46-0ab76379ca9b","system_id":"levelo_inurba_marseille","lat":43.25001,"lon":5.38941,"is_reserved":false,"is_disabled":false,"rental_uris":{"android":"levelo://app?vid=95487117-3b55-48e2-bf46-0ab76379ca9b","ios":"levelo://app?vid=95487117-3b55-48e2-bf46-0ab76379ca9b"},"vehicle_type_id":"4","last_reported":1743181732,"current_range_meters":14400,"station_id":"ce4bhgp2rcd13ifvqfd0","pricing_plan_id":"cebpf4jnsgd1na2vs0mg"},{"bike_id":"3724ddba-7cfe-48c9-92bf-17a60c518e4a","system_id":"levelo_inurba_marseille","lat":43.29,"lon":5.35613,"is_reserved":false,"is_disabled":false,"rental_uris":{"android":"levelo://app?vid=3724ddba-7cfe-48c9-92bf-17a60c518e4a","ios":"levelo://app?vid=3724ddba-7cfe-48c9-92bf-17a60c518e4a"},"vehicle_type_id":"4","last_reported":1743181732,"current_range_meters":14400,"station_id":"ce4bhb92rcd13ifvqen0","pricing_plan_id":"cebpf4jnsgd1na2vs0mg"},{"bike_id":"5eabbd0b-a098-41e4-a83e-677a6b529877","system_id":"levelo_inurba_marseille","lat":43.29612,"lon":5.38106,"is_reserved":false,"is_disabled":false,"rental_uris":{"android":"levelo://app?vid=5eabbd0b-a098-41e4-a83e-677a6b529877","ios":"levelo://app?vid=5eabbd0b-a098-41e4-a83e-677a6b529877"},"vehicle_type_id":"4","last_reported":1743181732,"current_range_meters":14800,"station_id":"ce4bgl12rcd13ifvqbo0","pricing_plan_id":"cebpf4jnsgd1na2vs0mg"},{"bike_id":"cfad4040-2d7d-4a6a-9abd-381ed037b3aa","system_id":"levelo_inurba_marseille","lat":43.26028,"lon":5.37547,"is_reserved":false,"is_disabled":false,"rental_uris":{"android":"levelo://app?vid=cfad4040-2d7d-4a6a-9abd-381ed037b3aa","ios":"levelo://app?vid=cfad4040-2d7d-4a6a-9abd-381ed037b3aa"},"vehicle_type_id":"4","last_reported":1743181732,"current_range_meters":14800,"station_id":"ce4bhgh2rcd13ifvqfa0","pricing_plan_id":"cebpf4jnsgd1na2vs0mg"},{"bike_id":"a574d32f-c17d-42e4-8ffb-49833d2345c6","system_id":"levelo_inurba_marseille","lat":43.30435,"lon":5.38884,"is_reserved":false,"is_disabled":false,"rental_uris":{"android":"levelo://app?vid=a574d32f-c17d-42e4-8ffb-49833d2345c6","ios":"levelo://app?vid=a574d32f-c17d-42e4-8ffb-49833d2345c6"},"vehicle_type_id":"4","last_reported":1743181732,"current_range_meters":15200,"station_id":"ce4bgk12rcd13ifvqbi0","pricing_plan_id":"cebpf4jnsgd1na2vs0mg"},