{"last_updated":1750666617,"ttl":60,"version":"2.2","data":{"bikes":[{"bike_id":"3da29fb8-fc97-44c6-b9ac-31dd456b2fd4","system_id":"levelo_inurba_marseille","lat":43.33771,"lon":5.37424,"is_reserved":false,"is_disabled":true,"rental_uris":{"android":"levelo://app?vid=3da29fb8-fc97-44c6-b9ac-31dd456b2fd4","ios":"levelo://app?vid=3da29fb8-fc97-44c6-b9ac-31dd456b2fd4"},"vehicle_type_id":"4","last_reported":1750666618,"current_range_meters":0,"station_id":"","pricing_plan_id":"cebpf4jnsgd1na2vs0mg"},{"bike_id":"01861ad8-a8d7-4be6-816e-651927c87584","system_id":"levelo_inurba_marseille","lat":43.33751,"lon":5.37456,"is_reserved":false,"is_disabled":true,"rental_uris":{"android":"levelo://app?vid=01861ad8-a8d7-4be6-816e-651927c87584","ios":"levelo://app?vid=01861ad8-a8d7-4be6-816e-651927c87584"},"vehicle_type_id":"4","last_reported":1750666618,"current_range_meters":0,"station_id":"","pricing_plan_id":"cebpf4jnsgd1na2vs0mg"},{"bike_id":"8aac1d05-8d34-4cb9-9043-c80980ff219d","system_id":"levelo_inurba_marseille","lat":43.252155,"lon":5.418827,"is_reserved":false,"is_disabled":true,"rental_uris":{"android":"levelo://app?vid=8aac1d05-8d34-4cb9-9043-c80980ff219d","ios":"levelo://app?vid=8aac1d05-8d34-4cb9-9043-c80980ff219d"},"vehicle_type_id":"4","last_reported":1750666618,"current_range_meters":0,"station_id":"","pricing_plan_id":"cebpf4jnsgd1na2vs0mg"},{"bike_id":"f0a1d594-9817-42ab-a8d6-aea4947e8858","system_id":"levelo_inurba_marseille","lat":43.288091,"lon":5.434356,"is_reserved":false,"is_disabled":true,"rental_uris":{"android":"levelo://app?vid=f0a1d594-9817-42ab-a8d6-aea4947e8858","ios":"levelo://app?vid=f0a1d594-9817-42ab-a8d6-aea4947e8858"},"vehicle_type_id":"4","last_reported":1750666618,"current_range_meters":0,"station_id":"","pricing_plan_id":"cebpf4jnsgd1na2vs0mg"},{"bike_id":"62a493c7-4534-4419-ad43-0582de34a72a","system_id":"levelo_inurba_marseille","lat":43.21366,"lon":5.355183,"is_reserved":false,"is_disabled":true,"rental_uris":{"android":"levelo://app?vid=62a493c7-4534-4419-ad43-0582de34a72a","ios":"levelo://app?vid=62a493c7-4534-4419-ad43-0582de34a72a"},"vehicle_type_id":"4","last_reported":1750666618,"current_range_meters":0,"station_id":"","pricing_plan_id":"cebpf4jnsgd1na2vs0mg"},{"bike_id":"c4088a2a-8015-46c9-b67c-3b7aa8593c30","system_id":"levelo_inurba_marseille","lat":43.21694,"lon":5.34555,"is_reserved":false,"is_disabled":true,"rental_uris":{"android":"levelo://app?vid=c4088a2a-8015-46c9-b67c-3b7aa8593c30","ios":"levelo://app?vid=c4088a2a-8015-46c9-b67c-3b7aa8593c30"},"vehicle_type_id":"4","last_reported":1750666618,"current_range_meters":0,"station_id":"","pricing_plan_id":"cebpf4jnsgd1na2vs0mg"},{"bike_id":"310175d8-7490-412a-87c1-d1fb5d08306c","system_id":"levelo_inurba_marseille","lat":43.24645,"lon":5.39177,"is_reserved":false,"is_disabled":true,"rental_uris":{"android":"levelo://app?vid=310175d8-7490-412a-87c1-d1fb5d08306c","ios":"levelo://app?vid=310175d8-7490-412a-87c1-d1fb5d08306c"},"vehicle_type_id":"4","last_reported":1750666618,"current_range_meters":0,"station_id":"","pricing_plan_id":"cebpf4jnsgd1na2vs0mg"},{"bike_id":"88393bee-2e8a-437d-b0b1-4aa69b0186dc","system_id":"levelo_inurba_marseille","lat":43.24767,"lon":5.40165,"is_reserved":false,"is_disabled":true,"rental_uris":{"android":"levelo://app?vid=88393bee-2e8a-437d-b0b1-4aa69b0186dc","ios":"levelo://app?vid=88393bee-2e8a-437d-b0b1-4aa69b0186dc"},"vehicle_type_id":"4","last_reported":1750666618,"current_range_meters":0,"station_id":"","pricing_plan_id":"cebpf4jnsgd1na2vs0mg"},{"bike_id":"d6609b4f-333b-43c1-9ebe-8726f5e76e88","system_id":"levelo_inurba_marseille","lat":43.337444,"lon":5.374475,"is_reserved":false,"is_disabled":true,"rental_uris":{"android":"levelo://app?vid=d6609b4f-333b-43c1-9ebe-8726f5e76e88","ios":"levelo://app?vid=d6609b4f-333b-43c1-9ebe-8726f5e76e88"},"vehicle_type_id":"4","last_reported":1750666618,"current_range_meters":0,"station_id":"","pricing_plan_id":"cebpf4jnsgd1na2vs0mg"},{"bike_id":"0c86cdad-b64a-47bf-ba91-5b398064181c","system_id":"levelo_inurba_marseille","lat":43.384173,"lon":5.358758,"is_reserved":false,"is_disabled":true,"rental_uris":{"android":"levelo://app?vid=0c86cdad-b64a-47bf-ba91-5b398064181c","ios":"levelo://app?vid=0c86cdad-b64a-47bf-ba91-5b398064181c"},"vehicle_type_id":"4","last_reported":1750666618,"current_range_meters":0,"station_id":"","pricing_plan_id":"cebpf4jnsgd1na2vs0mg"},{"bike_id":"1656f607-32b9-4a23-86de-29a949fc634d","system_id":"levelo_inurba_marseille","lat":43.30138,"lon":5.38784,"is_reserved":false,"is_disabled":true,"rental_uris":{"android":"levelo://app?vid=1656f607-32b9-4a23-86de-29a949fc634d","ios":"levelo://app?vid=1656f607-32b9-4a23-86de-29a949fc634d"},"vehicle_type_id":"4","last_reported":1750666618,"current_range_meters":0,"station_id":"ce4bghh2rcd13ifvqb60","pricing_plan_id":"cebpf4jnsgd1na2vs0mg"},{"bike_id":"f3978038-7667-448f-a76f-61188a3679a3","system_id":"levelo_inurba_marseille","lat":43.29688,"lon":5.37702,"is_reserved":false,"is_disabled":true,"rental_uris":{"android":"levelo://app?vid=f3978038-7667-448f-a76f-61188a3679a3","ios":"levelo://app?vid=f3978038-7667-448f-a76f-61188a3679a3"},"vehicle_type_id":"4","last_reported":1750666618,"current_range_meters":0,"station_id":"ce4bgkh2rcd13ifvqbl0","pricing_plan_id":"cebpf4jnsgd1na2vs0mg"},{"bike_id":"768d4dd3-9d18-4539-8687-542f8a60ccfa","system_id":"levelo_inurba_marseille","lat":43.302833,"lon":5.36862,"is_reserved":false,"is_disabled":true,"rental_uris":{"android":"levelo://app?vid=768d4dd3-9d18-4539-8687-542f8a60ccfa","ios":"levelo://app?vid=768d4dd3-9d18-4539-8687-542f8a60ccfa"},"vehicle_type_id":"4","last_reported":1750666618,"current_range_meters":0,"station_id":"ce4bgqh2rcd13ifvqc5g","pricing_plan_id":"cebpf4jnsgd1na2vs0mg"},{"bike_id":"ebe3b29d-dd33-4b67-a924-7ba5276b675a","system_id":"levelo_inurba_marseille","lat":43.255829,"lon":5.382262,"is_reserved":false,"is_disabled":true,"rental_uris":{"android":"levelo://app?vid=ebe3b29d-dd33-4b67-a924-7ba5276b675a","ios":"levelo://app?vid=ebe3b29d-dd33-4b67-a924-7ba5276b675a"},"vehicle_type_id":"4","last_reported":1750666618,"current_range_meters":0,"station_id":"ce4bh2h2rcd13ifvqdh0","pricing_plan_id":"cebpf4jnsgd1na2vs0mg"},{"bike_id":"3bd6a840-0f67-416c-9227-d63d6e343fa5","system_id":"levelo_inurba_marseille","lat":43.29187,"lon":5.35796,"is_reserved":false,"is_disabled":true,"rental_uris":{"android":"levelo://app?vid=3bd6a840-0f67-416c-9227-d63d6e343fa5","ios":"levelo://app?vid=3bd6a840-0f67-416c-9227-d63d6e343fa5"},"vehicle_type_id":"4","last_reported":1750666618,"current_range_meters":0,"station_id":"ce4bhb12rcd13ifvqel0","pricing_plan_id":"cebpf4jnsgd1na2vs0mg"},{"bike_id":"5b62b46f-b2d4-4be3-adf2-94b64d2b8e13","system_id":"levelo_inurba_marseille","lat":43.28623,"lon":5.35091,"is_reserved":false,"is_disabled":true,"rental_uris":{"android":"levelo://app?vid=5b62b46f-b2d4-4be3-adf2-94b64d2b8e13","ios":"levelo://app?vid=5b62b46f-b2d4-4be3-adf2-94b64d2b8e13"},"vehicle_type_id":"4","last_reported":1750666618,"current_range_meters":0,"station_id":"ce4bhch2rcd13ifvqeug","pricing_plan_id":"cebpf4jnsgd1na2vs0mg"},{"bike_id":"b9bf36f6-23d5-4838-9e39-fc860561728f","system_id":"levelo_inurba_marseille","lat":43.27919,"lon":5.39583,"is_reserved":false,"is_disabled":true,"rental_uris":{"android":"levelo://app?vid=b9bf36f6-23d5-4838-9e39-fc860561728f","ios":"levelo://app?vid=b9bf36f6-23d5-4838-9e39-fc860561728f"},"vehicle_type_id":"4","last_reported":1750666618,"current_range_meters":0,"station_id":"ce4bhf92rcd13ifvqf40","pricing_plan_id":"cebpf4jnsgd1na2vs0mg"},{"bike_id":"bd8004a1-879d-45a7-b023-28df3ff7f077","system_id":"levelo_inurba_marseille","lat":43.23151,"lon":5.43708,"is_reserved":false,"is_disabled":true,"rental_uris":{"android":"levelo://app?vid=bd8004a1-879d-45a7-b023-28df3ff7f077","ios":"levelo://app?vid=bd8004a1-879d-45a7-b023-28df3ff7f077"},"vehicle_type_id":"4","last_reported":1750666618,"current_range_meters":0,"station_id":"ce4bhmp2rcd13ifvqgog","pricing_plan_id":"cebpf4jnsgd1na2vs0mg"},{"bike_id":"b46b3d43-2d5f-4187-8435-5a2e08773148","system_id":"levelo_inurba_marseille","lat":43.23159,"lon":5.43701,"is_reserved":false,"is_disabled":true,"rental_uris":{"android":"levelo://app?vid=b46b3d43-2d5f-4187-8435-5a2e08773148","ios":"levelo://app?vid=b46b3d43-2d5f-4187-8435-5a2e08773148"},"vehicle_type_id":"4","last_reported":1750666618,"current_range_meters":0,"station_id":"ce4bhmp2rcd13ifvqgog","pricing_plan_id":"cebpf4jnsgd1na2vs0mg"},{"bike_id":"c62ca8fb-236e-4d10-b42c-70ab9688da49","system_id":"levelo_inurba_marseille","lat":43.31891,"lon":5.40743,"is_reserved":false,"is_disabled":true,"rental_uris":{"android":"levelo://app?vid=c62ca8fb-236e-4d10-b42c-70ab9688da49","ios":"levelo://app?vid=c62ca8fb-236e-4d10-b42c-70ab9688da49"},"vehicle_type_id":"4","last_reported":1750666618,"current_range_meters":0,"station_id":"ce4bhq12rcd13ifvqhig","pricing_plan_id":"cebpf4jnsgd1na2vs0mg"},{"bike_id":"6964db36-4295-452c-9085-ff2622c177aa","system_id":"levelo_inurba_marseille","lat":43.32027,"lon":5.41565,"is_reserved":false,"is_disabled":true,"rental_uris":{"android":"levelo://app?vid=6964db36-4295-452c-9085-ff2622c177aa","ios":"levelo://app?vid=6964db36-4295-452c-9085-ff2622c177aa"},"vehicle_type_id":"4","last_reported":1750666618,"current_range_meters":0,"station_id":"ce4bhq92rcd13ifvqhkg","pricing_plan_id":"cebpf4jnsgd1na2vs0mg"},{"bike_id":"a6a087c1-05fe-4002-9fa4-14f185da549b","system_id":"levelo_inurba_marseille","lat":43.320994,"lon":5.36776,"is_reserved":false,"is_disabled":true,"rental_uris":{"android":"levelo://app?vid=a6a087c1-05fe-4002-9fa4-14f185da549b","ios":"levelo://app?vid=a6a087c1-05fe-4002-9fa4-14f185da549b"},"vehicle_type_id":"4","last_reported":1750666618,"current_range_meters":0,"station_id":"ce4bhrh2rcd13ifvqhug","pricing_plan_id":"cebpf4jnsgd1na2vs0mg"},{"bike_id":"fe35375f-96f2-4d14-94d0-a21e3d334489","system_id":"levelo_inurba_marseille","lat":43.24176,"lon":5.363793,"is_reserved":false,"is_disabled":true,"rental_uris":{"android":"levelo://app?vid=fe35375f-96f2-4d14-94d0-a21e3d334489","ios":"levelo://app?vid=fe35375f-96f2-4d14-94d0-a21e3d334489"},"vehicle_type_id":"4","last_reported":1750666618,"current_range_meters":0,"station_id":"cpo36qri1sfpv3e86is0","pricing_plan_id":"cebpf4jnsgd1na2vs0mg"},{"bike_id":"e525f142-bd28-49cc-9123-3ade66b05e55","system_id":"levelo_inurba_marseille","lat":43.21755,"lon":5.34589,"is_reserved":false,"is_disabled":true,"rental_uris":{"android":"levelo://app?vid=e525f142-bd28-49cc-9123-3ade66b05e55","ios":"levelo://app?vid=e525f142-bd28-49cc-9123-3ade66b05e55"},"vehicle_type_id":"4","last_reported":1750666618,"current_range_meters":0,"station_id":"st_cvj6r9ubvosntc0bgbag","pricing_plan_id":"cebpf4jnsgd1na2vs0mg"},{"bike_id":"4c4882e9-e398-4ad5-8df2-686a166eb970","system_id":"levelo_inurba_marseille","lat":43.217435,"lon":5.345935,"is_reserved":false,"is_disabled":true,"rental_uris":{"android":"levelo://app?vid=4c4882e9-e398-4ad5-8df2-686a166eb970","ios":"levelo://app?vid=4c4882e9-e398-4ad5-8df2-686a166eb970"},"vehicle_type_id":"4","last_reported":1750666618,"current_range_meters":0,"station_id":"st_cvj6r9ubvosntc0bgbag","pricing_plan_id":"cebpf4jnsgd1na2vs0mg"},{"bike_id":"b9ececc3-df67-4fdb-a749-7596e1fe05ec","system_id":"levelo_inurba_marseille","lat":43.21754,"lon":5.34583,"is_reserved":false,"is_disabled":true,"rental_uris":{"android":"levelo://app?vid=b9ececc3-df67-4fdb-a749-7596e1fe05ec","ios":"levelo://app?vid=b9ececc3-df67-4fdb-a749-7596e1fe05ec"},"vehicle_type_id":"4","last_reported":1750666618,"current_range_meters":0,"station_id":"st_cvj6r9ubvosntc0bgbag","pricing_plan_id":"cebpf4jnsgd1na2vs0mg"},{"bike_id":"d6d6a53d-b142-4f39-8449-a021d43bfd25","system_id":"levelo_inurba_marseille","lat":43.21751,"lon":5.34606,"is_reserved":false,"is_disabled":true,"rental_uris":{"android":"levelo://app?vid=d6d6a53d-b142-4f39-8449-a021d43bfd25","ios":"levelo://app?vid=d6d6a53d-b142-4f39-8449-a021d43bfd25"},"vehicle_type_id":"4","last_reported":1750666618,"current_range_meters":0,"station_id":"st_cvj6r9ubvosntc0bgbag","pricing_plan_id":"cebpf4jnsgd1na2vs0mg"},{"bike_id":"79fb8f08-70bc-44ce-a791-315f31845671","system_id":"levelo_inurba_marseille","lat":43.21743,"lon":5.34596,"is_reserved":false,"is_disabled":true,"rental_uris":{"android":"levelo://app?vid=79fb8f08-70bc-44ce-a791-315f31845671","ios":"levelo://app?vid=79fb8f08-70bc-44ce-a791-315f31845671"},"vehicle_type_id":"4","last_reported":1750666618,"current_range_meters":0,"station_id":"st_cvj6r9ubvosntc0bgbag","pricing_plan_id":"cebpf4jnsgd1na2vs0mg"},{"bike_id":"ea7002fa-b349-46b4-8c97-5eea60daf0c0","system_id":"levelo_inurba_marseille","lat":43.21741,"lon":5.34606,"is_reserved":false,"is_disabled":true,"rental_uris":{"android":"levelo://app?vid=ea7002fa-b349-46b4-8c97-5eea60daf0c0","ios":"levelo://app?vid=ea7002fa-b349-46b4-8c97-5eea60daf0c0"},"vehicle_type_id":"4","last_reported":1750666618,"current_range_meters":0,"station_id":"st_cvj6r9ubvosntc0bgbag","pricing_plan_id":"cebpf4jnsgd1na2vs0mg"},{"bike_id":"e94c78f9-561a-4653-baf5-794b43333f6b","system_id":"levelo_inurba_marseille","lat":43.21753,"lon":5.34599,"is_reserved":false,"is_disabled":true,"rental_uris":{"android":"levelo://app?vid=e94c78f9-561a-4653-baf5-794b43333f6b","ios":"levelo://app?vid=e94c78f9-561a-4653-baf5-794b43333f6b"},"vehicle_type_id":"4","last_reported":1750666618,"current_range_meters":0,"station_id":"st_cvj6r9ubvosntc0bgbag","pricing_plan_id":"cebpf4jnsgd1na2vs0mg"},{"bike_id":"cd8e5c3a-9fb6-42e6-89ef-7a7f913f81a8","system_id":"levelo_inurba_marseille","lat":43.21189,"lon":5.35073,"is_reserved":false,"is_disabled":true,"rental_uris":{"android":"levelo://app?vid=cd8e5c3a-9fb6-42e6-89ef-7a7f913f81a8","ios":"levelo://app?vid=cd8e5c3a-9fb6-42e6-89ef-7a7f913f81a8"},"vehicle_type_id":"4","last_reported":1750666618,"current_range_meters":0,"station_id":"st_cvj6sg6p6f1abm77japg","pricing_plan_id":"cebpf4jnsgd1na2vs0mg"},{"bike_id":"50fcfabe-f5ce-4cc0-b6fd-0e4ff6f8c312","system_id":"levelo_inurba_marseille","lat":43.211905,"lon":5.350705,"is_reserved":false,"is_disabled":true,"rental_uris":{"android":"levelo://app?vid=50fcfabe-f5ce-4cc0-b6fd-0e4ff6f8c312","ios":"levelo://app?vid=50fcfabe-f5ce-4cc0-b6fd-0e4ff6f8c312"},"vehicle_type_id":"4","last_reported":1750666618,"current_range_meters":400,"station_id":"st_cvj6sg6p6f1abm77japg","pricing_plan_id":"cebpf4jnsgd1na2vs0mg"},{"bike_id":"a8b80f08-3afd-421f-b266-d37bc70b2321","system_id":"levelo_inurba_marseille","lat":43.21179,"lon":5.35062,"is_reserved":false,"is_disabled":true,"rental_uris":{"android":"levelo://app?vid=a8b80f08-3afd-421f-b266-d37bc70b2321","ios":"levelo://app?vid=a8b80f08-3afd-421f-b266-d37bc70b2321"},"vehicle_type_id":"4","last_reported":1750666618,"current_range_meters":400,"station_id":"st_cvj6sg6p6f1abm77japg","pricing_plan_id":"cebpf4jnsgd1na2vs0mg"},{"bike_id":"3978686f-944f-4106-ad5a-c654cfc27f9d","system_id":"levelo_inurba_marseille","lat":43.295683,"lon":5.375177,"is_reserved":false,"is_disabled":true,"rental_uris":{"android":"levelo://app?vid=3978686f-944f-4106-ad5a-c654cfc27f9d","ios":"levelo://app?vid=3978686f-944f-4106-ad5a-c654cfc27f9d"},"vehicle_type_id":"4","last_reported":1750666618,"current_range_meters":800,"station_id":"ce4bgh92rcd13ifvqb50","pricing_plan_id":"cebpf4jnsgd1na2vs0mg"},{"bike_id":"8d199592-ef8c-4ec2-8425-65f7d82c07da","system_id":"levelo_inurba_marseille","lat":43.31362,"lon":5.36735,"is_reserved":false,"is_disabled":true,"rental_uris":{"android":"levelo://app?vid=8d199592-ef8c-4ec2-8425-65f7d82c07da","ios":"levelo://app?vid=8d199592-ef8c-4ec2-8425-65f7d82c07da"},"vehicle_type_id":"4","last_reported":1750666618,"current_range_meters":800,"station_id":"ce4bgr92rcd13ifvqc6g","pricing_plan_id":"cebpf4jnsgd1na2vs0mg"},{"bike_id":"7ec03bc1-0c96-4a57-97bb-384cbd9f193f","system_id":"levelo_inurba_marseille","lat":43.28702,"lon":5.37915,"is_reserved":false,"is_disabled":true,"rental_uris":{"android":"levelo://app?vid=7ec03bc1-0c96-4a57-97bb-384cbd9f193f","ios":"levelo://app?vid=7ec03bc1-0c96-4a57-97bb-384cbd9f193f"},"vehicle_type_id":"4","last_reported":1750666618,"current_range_meters":800,"station_id":"ce4bh9p2rcd13ifvqec0","pricing_plan_id":"cebpf4jnsgd1na2vs0mg"},{"bike_id":"941775cd-b4da-403f-a934-a66cb725b19e","system_id":"levelo_inurba_marseille","lat":43.23142,"lon":5.43715,"is_reserved":false,"is_disabled":true,"rental_uris":{"android":"levelo://app?vid=941775cd-b4da-403f-a934-a66cb725b19e","ios":"levelo://app?vid=941775cd-b4da-403f-a934-a66cb725b19e"},"vehicle_type_id":"4","last_reported":1750666618,"current_range_meters":800,"station_id":"ce4bhmp2rcd13ifvqgog","pricing_plan_id":"cebpf4jnsgd1na2vs0mg"},{"bike_id":"6c384dc2-9cf2-4a6b-9be9-3d821c0baa7e","system_id":"levelo_inurba_marseille","lat":43.33713,"lon":5.392,"is_reserved":false,"is_disabled":true,"rental_uris":{"android":"levelo://app?vid=6c384dc2-9cf2-4a6b-9be9-3d821c0baa7e","ios":"levelo://app?vid=6c384dc2-9cf2-4a6b-9be9-3d821c0baa7e"},"vehicle_type_id":"4","last_reported":1750666618,"current_range_meters":800,"station_id":"ce4bhr92rcd13ifvqhsg","pricing_plan_id":"cebpf4jnsgd1na2vs0mg"},{"bike_id":"1c5fa7a9-7ea1-423f-abfc-676555a6a81d","system_id":"levelo_inurba_marseille","lat":43.21751,"lon":5.34598,"is_reserved":false,"is_disabled":true,"rental_uris":{"android":"levelo://app?vid=1c5fa7a9-7ea1-423f-abfc-676555a6a81d","ios":"levelo://app?vid=1c5fa7a9-7ea1-423f-abfc-676555a6a81d"},"vehicle_type_id":"4","last_reported":1750666618,"current_range_meters":1200,"station_id":"","pricing_plan_id":"cebpf4jnsgd1na2vs0mg"},{"bike_id":"f890bbcc-f042-4019-9dab-035ee25baff1","system_id":"levelo_inurba_marseille","lat":43.30314,"lon":5.36888,"is_reserved":false,"is_disabled":true,"rental_uris":{"android":"levelo://app?vid=f890bbcc-f042-4019-9dab-035ee25baff1","ios":"levelo://app?vid=f890bbcc-f042-4019-9dab-035ee25baff1"},"vehicle_type_id":"4","last_reported":1750666618,"current_range_meters":1200,"station_id":"ce4bgqh2rcd13ifvqc5g","pricing_plan_id":"cebpf4jnsgd1na2vs0mg"},{"bike_id":"b802125a-0669-41d3-ae8b-1754f6658b52","system_id":"levelo_inurba_marseille","lat":43.29278,"lon":5.40127,"is_reserved":false,"is_disabled":true,"rental_uris":{"android":"levelo://app?vid=b802125a-0669-41d3-ae8b-1754f6658b52","ios":"levelo://app?vid=b802125a-0669-41d3-ae8b-1754f6658b52"},"vehicle_type_id":"4","last_reported":1750666618,"current_range_meters":1200,"station_id":"ce4bh312rcd13ifvqdk0","pricing_plan_id":"cebpf4jnsgd1na2vs0mg"},{"bike_id":"7f4fdbfb-bc6c-47b6-8160-eb17ef0db0e5","system_id":"levelo_inurba_marseille","lat":43.29001,"lon":5.35603,"is_reserved":false,"is_disabled":true,"rental_uris":{"android":"levelo://app?vid=7f4fdbfb-bc6c-47b6-8160-eb17ef0db0e5","ios":"levelo://app?vid=7f4fdbfb-bc6c-47b6-8160-eb17ef0db0e5"},"vehicle_type_id":"4","last_reported":1750666618,"current_range_meters":1200,"station_id":"ce4bhb92rcd13ifvqen0","pricing_plan_id":"cebpf4jnsgd1na2vs0mg"},{"bike_id":"1ac309b4-d87d-40c0-a9da-cc9d6d692e73","system_id":"levelo_inurba_marseille","lat":43.250861,"lon":5.395117,"is_reserved":false,"is_disabled":true,"rental_uris":{"android":"levelo://app?vid=1ac309b4-d87d-40c0-a9da-cc9d6d692e73","ios":"levelo://app?vid=1ac309b4-d87d-40c0-a9da-cc9d6d692e73"},"vehicle_type_id":"4","last_reported":1750666618,"current_range_meters":1200,"station_id":"ce4bhm12rcd13ifvqgkg","pricing_plan_id":"cebpf4jnsgd1na2vs0mg"},{"bike_id":"dad69a8c-f89d-4045-941d-8511fc3c5270","system_id":"levelo_inurba_marseille","lat":43.321082,"lon":5.367686,"is_reserved":false,"is_disabled":true,"rental_uris":{"android":"levelo://app?vid=dad69a8c-f89d-4045-941d-8511fc3c5270","ios":"levelo://app?vid=dad69a8c-f89d-4045-941d-8511fc3c5270"},"vehicle_type_id":"4","last_reported":1750666618,"current_range_meters":1200,"station_id":"ce4bhrh2rcd13ifvqhug","pricing_plan_id":"cebpf4jnsgd1na2vs0mg"},{"bike_id":"b7c98a2f-f543-4b77-b9e5-d710ebc5261d","system_id":"levelo_inurba_marseille","lat":43.29973,"lon":5.37189,"is_reserved":false,"is_disabled":true,"rental_uris":{"android":"levelo://app?vid=b7c98a2f-f543-4b77-b9e5-d710ebc5261d","ios":"levelo://app?vid=b7c98a2f-f543-4b77-b9e5-d710ebc5261d"},"vehicle_type_id":"4","last_reported":1750666618,"current_range_meters":1600,"station_id":"ce4bgr92rcd13ifvqc7g","pricing_plan_id":"cebpf4jnsgd1na2vs0mg"},{"bike_id":"dd64bc66-0572-4ca1-8759-2b040a5d338d","system_id":"levelo_inurba_marseille","lat":43.31131,"lon":5.37747,"is_reserved":false,"is_disabled":true,"rental_uris":{"android":"levelo://app?vid=dd64bc66-0572-4ca1-8759-2b040a5d338d","ios":"levelo://app?vid=dd64bc66-0572-4ca1-8759-2b040a5d338d"},"vehicle_type_id":"4","last_reported":1750666618,"current_range_meters":1600,"station_id":"ce4bgt92rcd13ifvqcg0","pricing_plan_id":"cebpf4jnsgd1na2vs0mg"},{"bike_id":"378a6f37-c408-4c2e-be8a-a6a8b349be8c","system_id":"levelo_inurba_marseille","lat":43.30952,"lon":5.39048,"is_reserved":false,"is_disabled":true,"rental_uris":{"android":"levelo://app?vid=378a6f37-c408-4c2e-be8a-a6a8b349be8c","ios":"levelo://app?vid=378a6f37-c408-4c2e-be8a-a6a8b349be8c"},"vehicle_type_id":"4","last_reported":1750666618,"current_range_meters":1600,"station_id":"ce4bgup2rcd13ifvqco0","pricing_plan_id":"cebpf4jnsgd1na2vs0mg"},{"bike_id":"453a1f28-8669-44c1-aa32-85aaad573299","system_id":"levelo_inurba_marseille","lat":43.30365,"lon":5.42489,"is_reserved":false,"is_disabled":true,"rental_uris":{"android":"levelo://app?vid=453a1f28-8669-44c1-aa32-85aaad573299","ios":"levelo://app?vid=453a1f28-8669-44c1-aa32-85aaad573299"},"vehicle_type_id":"4","last_reported":1750666618,"current_range_meters":1600,"station_id":"ce4bhoh2rcd13ifvqh6g","pricing_plan_id":"cebpf4jnsgd1na2vs0mg"},{"bike_id":"6dfb496c-fd23-412d-add8-aacdf2e1b316","system_id":"levelo_inurba_marseille","lat":43.297082,"lon":5.365849,"is_reserved":false,"is_disabled":true,"rental_uris":{"android":"levelo://app?vid=6dfb496c-fd23-412d-add8-aacdf2e1b316","ios":"levelo://app?vid=6dfb496c-fd23-412d-add8-aacdf2e1b316"},"vehicle_type_id":"4","last_reported":1750666618,"current_range_meters":2000,"station_id":"ce4bgn12rcd13ifvqbt0","pricing_plan_id":"cebpf4jnsgd1na2vs0mg"},{"bike_id":"6c94b451-991d-42fa-be47-276f32551964","system_id":"levelo_inurba_marseille","lat":43.30312,"lon":5.36891,"is_reserved":false,"is_disabled":true,"rental_uris":{"android":"levelo://app?vid=6c94b451-991d-42fa-be47-276f32551964","ios":"levelo://app?vid=6c94b451-991d-42fa-be47-276f32551964"},"vehicle_type_id":"4","last_reported":1750666618,"current_range_meters":2000,"station_id":"ce4bgqh2rcd13ifvqc5g","pricing_plan_id":"cebpf4jnsgd1na2vs0mg"},{"bike_id":"67111d4c-25ec-45c6-a015-e3b00b0d1b99","system_id":"levelo_inurba_marseille","lat":43.30139,"lon":5.37409,"is_reserved":false,"is_disabled":true,"rental_uris":{"android":"levelo://app?vid=67111d4c-25ec-45c6-a015-e3b00b0d1b99","ios":"levelo://app?vid=67111d4c-25ec-45c6-a015-e3b00b0d1b99"},"vehicle_type_id":"4","last_reported":1750666618,"current_range_meters":2000,"station_id":"ce4bgs92rcd13ifvqcc0","pricing_plan_id":"cebpf4jnsgd1na2vs0mg"},{"bike_id":"3679a65a-3f47-4079-ad9c-c408c8c00445","system_id":"levelo_inurba_marseille","lat":43.30935,"lon":5.39019,"is_reserved":false,"is_disabled":true,"rental_uris":{"android":"levelo://app?vid=3679a65a-3f47-4079-ad9c-c408c8c00445","ios":"levelo://app?vid=3679a65a-3f47-4079-ad9c-c408c8c00445"},"vehicle_type_id":"4","last_reported":1750666618,"current_range_meters":2000,"station_id":"ce4bgup2rcd13ifvqco0","pricing_plan_id":"cebpf4jnsgd1na2vs0mg"},{"bike_id":"658ef392-457a-489b-8a2f-aea13d0ef4f5","system_id":"levelo_inurba_marseille","lat":43.31072,"lon":5.38366,"is_reserved":false,"is_disabled":true,"rental_uris":{"android":"levelo://app?vid=658ef392-457a-489b-8a2f-aea13d0ef4f5","ios":"levelo://app?vid=658ef392-457a-489b-8a2f-aea13d0ef4f5"},"vehicle_type_id":"4","last_reported":1750666618,"current_range_meters":2000,"station_id":"ce4bgv92rcd13ifvqcr0","pricing_plan_id":"cebpf4jnsgd1na2vs0mg"},{"bike_id":"8a14bcf7-d769-466b-8fb3-9c0c0915210e","system_id":"levelo_inurba_marseille","lat":43.29003,"lon":5.35596,"is_reserved":false,"is_disabled":true,"rental_uris":{"android":"levelo://app?vid=8a14bcf7-d769-466b-8fb3-9c0c0915210e","ios":"levelo://app?vid=8a14bcf7-d769-466b-8fb3-9c0c0915210e"},"vehicle_type_id":"4","last_reported":1750666618,"current_range_meters":2000,"station_id":"ce4bhb92rcd13ifvqen0","pricing_plan_id":"cebpf4jnsgd1na2vs0mg"},{"bike_id":"4d8d7b66-70fe-417d-873a-fbff7ea1970c","system_id":"levelo_inurba_marseille","lat":43.270735,"lon":5.422655,"is_reserved":false,"is_disabled":true,"rental_uris":{"android":"levelo://app?vid=4d8d7b66-70fe-417d-873a-fbff7ea1970c","ios":"levelo://app?vid=4d8d7b66-70fe-417d-873a-fbff7ea1970c"},"vehicle_type_id":"4","last_reported":1750666618,"current_range_meters":2000,"station_id":"ce4bhk92rcd13ifvqgb0","pricing_plan_id":"cebpf4jnsgd1na2vs0mg"},{"bike_id":"c903e63d-2b4e-468e-bdbb-44bc2c3ee4be","system_id":"levelo_inurba_marseille","lat":43.21187,"lon":5.3508,"is_reserved":false,"is_disabled":true,"rental_uris":{"android":"levelo://app?vid=c903e63d-2b4e-468e-bdbb-44bc2c3ee4be","ios":"levelo://app?vid=c903e63d-2b4e-468e-bdbb-44bc2c3ee4be"},"vehicle_type_id":"4","last_reported":1750666618,"current_range_meters":2000,"station_id":"st_cvj6sg6p6f1abm77japg","pricing_plan_id":"cebpf4jnsgd1na2vs0mg"},{"bike_id":"2306a54a-b1f8-49bc-8d14-48ee48e22ed7","system_id":"levelo_inurba_marseille","lat":43.31342,"lon":5.36715,"is_reserved":false,"is_disabled":false,"rental_uris":{"android":"levelo://app?vid=2306a54a-b1f8-49bc-8d14-48ee48e22ed7","ios":"levelo://app?vid=2306a54a-b1f8-49bc-8d14-48ee48e22ed7"},"vehicle_type_id":"4","last_reported":1750666618,"current_range_meters":3200,"station_id":"ce4bgr92rcd13ifvqc6g","pricing_plan_id":"cebpf4jnsgd1na2vs0mg"},{"bike_id":"70b27490-8d9f-4b1a-b7f1-9de95cc2c3c8","system_id":"levelo_inurba_marseille","lat":43.335005,"lon":5.41023,"is_reserved":false,"is_disabled":false,"rental_uris":{"android":"levelo://app?vid=70b27490-8d9f-4b1a-b7f1-9de95cc2c3c8","ios":"levelo://app?vid=70b27490-8d9f-4b1a-b7f1-9de95cc2c3c8"},"vehicle_type_id":"4","last_reported":1750666618,"current_range_meters":3600,"station_id":"","pricing_plan_id":"cebpf4jnsgd1na2vs0mg"},{"bike_id":"803197b8-9490-4525-868c-0fffa7672be0","system_id":"levelo_inurba_marseille","lat":43.31361,"lon":5.38485,"is_reserved":false,"is_disabled":false,"rental_uris":{"android":"levelo://app?vid=803197b8-9490-4525-868c-0fffa7672be0","ios":"levelo://app?vid=803197b8-9490-4525-868c-0fffa7672be0"},"vehicle_type_id":"4","last_reported":1750666618,"current_range_meters":3600,"station_id":"ce4bgt92rcd13ifvqcf0","pricing_plan_id":"cebpf4jnsgd1na2vs0mg"},{"bike_id":"ce63a0dd-3682-4407-90c3-2a5e13e24592","system_id":"levelo_inurba_marseille","lat":43.25728,"lon":5.41108,"is_reserved":false,"is_disabled":false,"rental_uris":{"android":"levelo://app?vid=ce63a0dd-3682-4407-90c3-2a5e13e24592","ios":"levelo://app?vid=ce63a0dd-3682-4407-90c3-2a5e13e24592"},"vehicle_type_id":"4","last_reported":1750666618,"current_range_meters":3600,"station_id":"ce4bhkp2rcd13ifvqgd0","pricing_plan_id":"cebpf4jnsgd1na2vs0mg"},{"bike_id":"07b4367b-4d0d-413d-97f0-44bcd0b348e5","system_id":"levelo_inurba_marseille","lat":43.32483,"lon":5.36584,"is_reserved":false,"is_disabled":false,"rental_uris":{"android":"levelo://app?vid=07b4367b-4d0d-413d-97f0-44bcd0b348e5","ios":"levelo://app?vid=07b4367b-4d0d-413d-97f0-44bcd0b348e5"},"vehicle_type_id":"4","last_reported":1750666618,"current_range_meters":3600,"station_id":"ce4bhs12rcd13ifvqhvg","pricing_plan_id":"cebpf4jnsgd1na2vs0mg"},{"bike_id":"edb06f16-745f-4255-88ef-18fe901a18d8","system_id":"levelo_inurba_marseille","lat":43.324872,"lon":5.365776,"is_reserved":false,"is_disabled":false,"rental_uris":{"android":"levelo://app?vid=edb06f16-745f-4255-88ef-18fe901a18d8","ios":"levelo://app?vid=edb06f16-745f-4255-88ef-18fe901a18d8"},"vehicle_type_id":"4","last_reported":1750666618,"current_range_meters":3600,"station_id":"ce4bhs12rcd13ifvqhvg","pricing_plan_id":"cebpf4jnsgd1na2vs0mg"},{"bike_id":"a858d8cc-f001-4bf4-bc38-afbe4611e796","system_id":"levelo_inurba_marseille","lat":43.31226,"lon":5.36856,"is_reserved":false,"is_disabled":false,"rental_uris":{"android":"levelo://app?vid=a858d8cc-f001-4bf4-bc38-afbe4611e796","ios":"levelo://app?vid=a858d8cc-f001-4bf4-bc38-afbe4611e796"},"vehicle_type_id":"4","last_reported":1750666618,"current_range_meters":4000,"station_id":"ce4bgl92rcd13ifvqbq0","pricing_plan_id":"cebpf4jnsgd1na2vs0mg"},{"bike_id":"c73a1bbb-1961-480b-9c52-64e74301e89c","system_id":"levelo_inurba_marseille","lat":43.292731,"lon":5.368431,"is_reserved":false,"is_disabled":false,"rental_uris":{"android":"levelo://app?vid=c73a1bbb-1961-480b-9c52-64e74301e89c","ios":"levelo://app?vid=c73a1bbb-1961-480b-9c52-64e74301e89c"},"vehicle_type_id":"4","last_reported":1750666618,"current_range_meters":4000,"station_id":"ce4bhbp2rcd13ifvqesg","pricing_plan_id":"cebpf4jnsgd1na2vs0mg"},{"bike_id":"edb21576-e5b1-466a-97a0-6e2798f8302f","system_id":"levelo_inurba_marseille","lat":43.26779,"lon":5.39421,"is_reserved":false,"is_disabled":false,"rental_uris":{"android":"levelo://app?vid=edb21576-e5b1-466a-97a0-6e2798f8302f","ios":"levelo://app?vid=edb21576-e5b1-466a-97a0-6e2798f8302f"},"vehicle_type_id":"4","last_reported":1750666618,"current_range_meters":4000,"station_id":"ce4bhh12rcd13ifvqfg0","pricing_plan_id":"cebpf4jnsgd1na2vs0mg"},{"bike_id":"3af8e414-6142-4432-a6dc-f481c7269c68","system_id":"levelo_inurba_marseille","lat":43.23126,"lon":5.366143,"is_reserved":false,"is_disabled":false,"rental_uris":{"android":"levelo://app?vid=3af8e414-6142-4432-a6dc-f481c7269c68","ios":"levelo://app?vid=3af8e414-6142-4432-a6dc-f481c7269c68"},"vehicle_type_id":"4","last_reported":1750666618,"current_range_meters":4400,"station_id":"","pricing_plan_id":"cebpf4jnsgd1na2vs0mg"},{"bike_id":"641b7df6-38d9-4cf4-9e5d-3dc12186c340","system_id":"levelo_inurba_marseille","lat":43.29518,"lon":5.37491,"is_reserved":false,"is_disabled":false,"rental_uris":{"android":"levelo://app?vid=641b7df6-38d9-4cf4-9e5d-3dc12186c340","ios":"levelo://app?vid=641b7df6-38d9-4cf4-9e5d-3dc12186c340"},"vehicle_type_id":"4","last_reported":1750666618,"current_range_meters":4400,"station_id":"ce4bgkp2rcd13ifvqbmg","pricing_plan_id":"cebpf4jnsgd1na2vs0mg"},{"bike_id":"56da9417-f35d-44ac-a592-780e74d566bb","system_id":"levelo_inurba_marseille","lat":43.29599,"lon":5.38104,"is_reserved":false,"is_disabled":false,"rental_uris":{"android":"levelo://app?vid=56da9417-f35d-44ac-a592-780e74d566bb","ios":"levelo://app?vid=56da9417-f35d-44ac-a592-780e74d566bb"},"vehicle_type_id":"4","last_reported":1750666618,"current_range_meters":4400,"station_id":"ce4bgl12rcd13ifvqbo0","pricing_plan_id":"cebpf4jnsgd1na2vs0mg"},{"bike_id":"4b05f2af-c8e8-45db-9fee-4f99e382b16b","system_id":"levelo_inurba_marseille","lat":43.28999,"lon":5.35609,"is_reserved":false,"is_disabled":false,"rental_uris":{"android":"levelo://app?vid=4b05f2af-c8e8-45db-9fee-4f99e382b16b","ios":"levelo://app?vid=4b05f2af-c8e8-45db-9fee-4f99e382b16b"},"vehicle_type_id":"4","last_reported":1750666618,"current_range_meters":4400,"station_id":"ce4bhb92rcd13ifvqen0","pricing_plan_id":"cebpf4jnsgd1na2vs0mg"},{"bike_id":"42178a7f-3e07-45ff-a7dd-50ebcd6ec2a4","system_id":"levelo_inurba_marseille","lat":43.27072,"lon":5.42279,"is_reserved":false,"is_disabled":false,"rental_uris":{"android":"levelo://app?vid=42178a7f-3e07-45ff-a7dd-50ebcd6ec2a4","ios":"levelo://app?vid=42178a7f-3e07-45ff-a7dd-50ebcd6ec2a4"},"vehicle_type_id":"4","last_reported":1750666618,"current_range_meters":4400,"station_id":"ce4bhk92rcd13ifvqgb0","pricing_plan_id":"cebpf4jnsgd1na2vs0mg"},{"bike_id":"3f87167d-d91d-4313-8b9f-c07391733236","system_id":"levelo_inurba_marseille","lat":43.241772,"lon":5.39729,"is_reserved":false,"is_disabled":false,"rental_uris":{"android":"levelo://app?vid=3f87167d-d91d-4313-8b9f-c07391733236","ios":"levelo://app?vid=3f87167d-d91d-4313-8b9f-c07391733236"},"vehicle_type_id":"4","last_reported":1750666618,"current_range_meters":4400,"station_id":"ce4bhn12rcd13ifvqgpg","pricing_plan_id":"cebpf4jnsgd1na2vs0mg"},{"bike_id":"0ccd24b7-588b-4acd-b1f4-59a71facf9e8","system_id":"levelo_inurba_marseille","lat":43.25313,"lon":5.40433,"is_reserved":false,"is_disabled":false,"rental_uris":{"android":"levelo://app?vid=0ccd24b7-588b-4acd-b1f4-59a71facf9e8","ios":"levelo://app?vid=0ccd24b7-588b-4acd-b1f4-59a71facf9e8"},"vehicle_type_id":"4","last_reported":1750666618,"current_range_meters":4800,"station_id":"","pricing_plan_id":"cebpf4jnsgd1na2vs0mg"},{"bike_id":"df3180d8-8fc7-4fa0-a9dc-e358144f7641","system_id":"levelo_inurba_marseille","lat":43.26788,"lon":5.39411,"is_reserved":false,"is_disabled":false,"rental_uris":{"android":"levelo://app?vid=df3180d8-8fc7-4fa0-a9dc-e358144f7641","ios":"levelo://app?vid=df3180d8-8fc7-4fa0-a9dc-e358144f7641"},"vehicle_type_id":"4","last_reported":1750666618,"current_range_meters":4800,"station_id":"ce4bhh12rcd13ifvqfg0","pricing_plan_id":"cebpf4jnsgd1na2vs0mg"},{"bike_id":"9a314b29-52ee-4eb4-9207-785a1ea9b5c8","system_id":"levelo_inurba_marseille","lat":43.2439,"lon":5.3706,"is_reserved":false,"is_disabled":false,"rental_uris":{"android":"levelo://app?vid=9a314b29-52ee-4eb4-9207-785a1ea9b5c8","ios":"levelo://app?vid=9a314b29-52ee-4eb4-9207-785a1ea9b5c8"},"vehicle_type_id":"4","last_reported":1750666618,"current_range_meters":4800,"station_id":"ce4bhhh2rcd13ifvqfk0","pricing_plan_id":"cebpf4jnsgd1na2vs0mg"},{"bike_id":"a22aa312-0025-4f42-88e2-b1e95e79340f","system_id":"levelo_inurba_marseille","lat":43.31639,"lon":5.38334,"is_reserved":false,"is_disabled":false,"rental_uris":{"android":"levelo://app?vid=a22aa312-0025-4f42-88e2-b1e95e79340f","ios":"levelo://app?vid=a22aa312-0025-4f42-88e2-b1e95e79340f"},"vehicle_type_id":"4","last_reported":1750666618,"current_range_meters":5600,"station_id":"","pricing_plan_id":"cebpf4jnsgd1na2vs0mg"},{"bike_id":"54be0d38-df23-4505-b89d-c8f64c92f78d","system_id":"levelo_inurba_marseille","lat":43.26027,"lon":5.375515,"is_reserved":false,"is_disabled":false,"rental_uris":{"android":"levelo://app?vid=54be0d38-df23-4505-b89d-c8f64c92f78d","ios":"levelo://app?vid=54be0d38-df23-4505-b89d-c8f64c92f78d"},"vehicle_type_id":"4","last_reported":1750666618,"current_range_meters":5600,"station_id":"ce4bhgh2rcd13ifvqfa0","pricing_plan_id":"cebpf4jnsgd1na2vs0mg"},{"bike_id":"d86be764-f94c-46ee-9c64-cba453a20c35","system_id":"levelo_inurba_marseille","lat":43.23151,"lon":5.43715,"is_reserved":false,"is_disabled":false,"rental_uris":{"android":"levelo://app?vid=d86be764-f94c-46ee-9c64-cba453a20c35","ios":"levelo://app?vid=d86be764-f94c-46ee-9c64-cba453a20c35"},"vehicle_type_id":"4","last_reported":1750666618,"current_range_meters":5600,"station_id":"ce4bhmp2rcd13ifvqgog","pricing_plan_id":"cebpf4jnsgd1na2vs0mg"},{"bike_id":"cbbf71b5-6569-4e9b-ba90-3ac2da187ffd","system_id":"levelo_inurba_marseille","lat":43.28043,"lon":5.35079,"is_reserved":false,"is_disabled":false,"rental_uris":{"android":"levelo://app?vid=cbbf71b5-6569-4e9b-ba90-3ac2da187ffd","ios":"levelo://app?vid=cbbf71b5-6569-4e9b-ba90-3ac2da187ffd"},"vehicle_type_id":"4","last_reported":1750666618,"current_range_meters":6000,"station_id":"","pricing_plan_id":"cebpf4jnsgd1na2vs0mg"},{"bike_id":"6b23cd8b-39fe-4e94-a3f5-edab65d2e991","system_id":"levelo_inurba_marseille","lat":43.30906,"lon":5.36848,"is_reserved":false,"is_disabled":false,"rental_uris":{"android":"levelo://app?vid=6b23cd8b-39fe-4e94-a3f5-edab65d2e991","ios":"levelo://app?vid=6b23cd8b-39fe-4e94-a3f5-edab65d2e991"},"vehicle_type_id":"4","last_reported":1750666618,"current_range_meters":6000,"station_id":"ce4bgn92rcd13ifvqbvg","pricing_plan_id":"cebpf4jnsgd1na2vs0mg"},{"bike_id":"8e4f7b1c-bd4b-465d-901c-3721c6d09d21","system_id":"levelo_inurba_marseille","lat":43.2827,"lon":5.3505,"is_reserved":false,"is_disabled":false,"rental_uris":{"android":"levelo://app?vid=8e4f7b1c-bd4b-465d-901c-3721c6d09d21","ios":"levelo://app?vid=8e4f7b1c-bd4b-465d-901c-3721c6d09d21"},"vehicle_type_id":"4","last_reported":1750666618,"current_range_meters":6000,"station_id":"ce4bhbp2rcd13ifvqerg","pricing_plan_id":"cebpf4jnsgd1na2vs0mg"},{"bike_id":"178ab7a4-18c8-4b48-aa71-f306cecc9856","system_id":"levelo_inurba_marseille","lat":43.23144,"lon":5.43721,"is_reserved":false,"is_disabled":false,"rental_uris":{"android":"levelo://app?vid=178ab7a4-18c8-4b48-aa71-f306cecc9856","ios":"levelo://app?vid=178ab7a4-18c8-4b48-aa71-f306cecc9856"},"vehicle_type_id":"4","last_reported":1750666618,"current_range_meters":6000,"station_id":"ce4bhmp2rcd13ifvqgog","pricing_plan_id":"cebpf4jnsgd1na2vs0mg"},{"bike_id":"d4457186-a218-4107-9539-5f78afe6651a","system_id":"levelo_inurba_marseille","lat":43.24165,"lon":5.36392,"is_reserved":false,"is_disabled":false,"rental_uris":{"android":"levelo://app?vid=d4457186-a218-4107-9539-5f78afe6651a","ios":"levelo://app?vid=d4457186-a218-4107-9539-5f78afe6651a"},"vehicle_type_id":"4","last_reported":1750666618,"current_range_meters":6000,"station_id":"cpo36qri1sfpv3e86is0","pricing_plan_id":"cebpf4jnsgd1na2vs0mg"},{"bike_id":"0503e1d2-ec4f-4cb3-9ea6-e4f3eb558d3e","system_id":"levelo_inurba_marseille","lat":43.29934,"lon":5.36972,"is_reserved":false,"is_disabled":false,"rental_uris":{"android":"levelo://app?vid=0503e1d2-ec4f-4cb3-9ea6-e4f3eb558d3e","ios":"levelo://app?vid=0503e1d2-ec4f-4cb3-9ea6-e4f3eb558d3e"},"vehicle_type_id":"4","last_reported":1750666618,"current_range_meters":6400,"station_id":"","pricing_plan_id":"cebpf4jnsgd1na2vs0mg"},{"bike_id":"3d07ef76-af52-42e0-81f1-5f4963c9ee29","system_id":"levelo_inurba_marseille","lat":43.29476,"lon":5.43847,"is_reserved":false,"is_disabled":false,"rental_uris":{"android":"levelo://app?vid=3d07ef76-af52-42e0-81f1-5f4963c9ee29","ios":"levelo://app?vid=3d07ef76-af52-42e0-81f1-5f4963c9ee29"},"vehicle_type_id":"4","last_reported":1750666618,"current_range_meters":6400,"station_id":"","pricing_plan_id":"cebpf4jnsgd1na2vs0mg"},{"bike_id":"57ad4446-1764-4b57-b2f5-90f3e71193a1","system_id":"levelo_inurba_marseille","lat":43.31342,"lon":5.36688,"is_reserved":false,"is_disabled":false,"rental_uris":{"android":"levelo://app?vid=57ad4446-1764-4b57-b2f5-90f3e71193a1","ios":"levelo://app?vid=57ad4446-1764-4b57-b2f5-90f3e71193a1"},"vehicle_type_id":"4","last_reported":1750666618,"current_range_meters":6400,"station_id":"ce4bgr92rcd13ifvqc6g","pricing_plan_id":"cebpf4jnsgd1na2vs0mg"},{"bike_id":"4645477c-49e0-4db3-a2e1-fc472cd3480a","system_id":"levelo_inurba_marseille","lat":43.30553,"lon":5.36557,"is_reserved":false,"is_disabled":false,"rental_uris":{"android":"levelo://app?vid=4645477c-49e0-4db3-a2e1-fc472cd3480a","ios":"levelo://app?vid=4645477c-49e0-4db3-a2e1-fc472cd3480a"},"vehicle_type_id":"4","last_reported":1750666618,"current_range_meters":6400,"station_id":"ce4bgs12rcd13ifvqcag","pricing_plan_id":"cebpf4jnsgd1na2vs0mg"},{"bike_id":"12ca483f-256f-4744-96aa-781549cac90b","system_id":"levelo_inurba_marseille","lat":43.30142,"lon":5.37413,"is_reserved":false,"is_disabled":false,"rental_uris":{"android":"levelo://app?vid=12ca483f-256f-4744-96aa-781549cac90b","ios":"levelo://app?vid=12ca483f-256f-4744-96aa-781549cac90b"},"vehicle_type_id":"4","last_reported":1750666618,"current_range_meters":6400,"station_id":"ce4bgs92rcd13ifvqcc0","pricing_plan_id":"cebpf4jnsgd1na2vs0mg"},{"bike_id":"57edadec-7e49-4931-ba11-1b7818b97e5f","system_id":"levelo_inurba_marseille","lat":43.29549,"lon":5.42291,"is_reserved":false,"is_disabled":false,"rental_uris":{"android":"levelo://app?vid=57edadec-7e49-4931-ba11-1b7818b97e5f","ios":"levelo://app?vid=57edadec-7e49-4931-ba11-1b7818b97e5f"},"vehicle_type_id":"4","last_reported":1750666618,"current_range_meters":6400,"station_id":"ce4bhph2rcd13ifvqhdg","pricing_plan_id":"cebpf4jnsgd1na2vs0mg"},{"bike_id":"f1f219f8-ce94-4d65-be05-bffbfbc9de73","system_id":"levelo_inurba_marseille","lat":43.30796,"lon":5.43529,"is_reserved":false,"is_disabled":false,"rental_uris":{"android":"levelo://app?vid=f1f219f8-ce94-4d65-be05-bffbfbc9de73","ios":"levelo://app?vid=f1f219f8-ce94-4d65-be05-bffbfbc9de73"},"vehicle_type_id":"4","last_reported":1750666618,"current_range_meters":6400,"station_id":"ce4bhph2rcd13ifvqheg","pricing_plan_id":"cebpf4jnsgd1na2vs0mg"},{"bike_id":"411df23b-ffc3-4821-b3ae-d0c9aaf53c2f","system_id":"levelo_inurba_marseille","lat":43.34139,"lon":5.40911,"is_reserved":false,"is_disabled":false,"rental_uris":{"android":"levelo://app?vid=411df23b-ffc3-4821-b3ae-d0c9aaf53c2f","ios":"levelo://app?vid=411df23b-ffc3-4821-b3ae-d0c9aaf53c2f"},"vehicle_type_id":"4","last_reported":1750666618,"current_range_meters":6400,"station_id":"ce4bhqh2rcd13ifvqhlg","pricing_plan_id":"cebpf4jnsgd1na2vs0mg"},{"bike_id":"b7036bc1-c072-4f36-9c66-21ff695540f4","system_id":"levelo_inurba_marseille","lat":43.246846,"lon":5.394377,"is_reserved":false,"is_disabled":false,"rental_uris":{"android":"levelo://app?vid=b7036bc1-c072-4f36-9c66-21ff695540f4","ios":"levelo://app?vid=b7036bc1-c072-4f36-9c66-21ff695540f4"},"vehicle_type_id":"4","last_reported":1750666618,"current_range_meters":6800,"station_id":"","pricing_plan_id":"cebpf4jnsgd1na2vs0mg"},{"bike_id":"f6281929-c188-49c4-be15-48db7b46b8d7","system_id":"levelo_inurba_marseille","lat":43.3203,"lon":5.40817,"is_reserved":false,"is_disabled":false,"rental_uris":{"android":"levelo://app?vid=f6281929-c188-49c4-be15-48db7b46b8d7","ios":"levelo://app?vid=f6281929-c188-49c4-be15-48db7b46b8d7"},"vehicle_type_id":"4","last_reported":1750666618,"current_range_meters":6800,"station_id":"","pricing_plan_id":"cebpf4jnsgd1na2vs0mg"},{"bike_id":"2bebe6b0-0533-48f4-a7b2-96140cf45c6b","system_id":"levelo_inurba_marseille","lat":43.29311,"lon":5.37459,"is_reserved":false,"is_disabled":false,"rental_uris":{"android":"levelo://app?vid=2bebe6b0-0533-48f4-a7b2-96140cf45c6b","ios":"levelo://app?vid=2bebe6b0-0533-48f4-a7b2-96140cf45c6b"},"vehicle_type_id":"4","last_reported":1750666618,"current_range_meters":6800,"station_id":"ce4bgi12rcd13ifvqb70","pricing_plan_id":"cebpf4jnsgd1na2vs0mg"},{"bike_id":"e0dd236e-733d-4c08-8637-bf30f0688df9","system_id":"levelo_inurba_marseille","lat":43.31367,"lon":5.36713,"is_reserved":false,"is_disabled":false,"rental_uris":{"android":"levelo://app?vid=e0dd236e-733d-4c08-8637-bf30f0688df9","ios":"levelo://app?vid=e0dd236e-733d-4c08-8637-bf30f0688df9"},"vehicle_type_id":"4","last_reported":1750666618,"current_range_meters":6800,"station_id":"ce4bgr92rcd13ifvqc6g","pricing_plan_id":"cebpf4jnsgd1na2vs0mg"},{"bike_id":"ecc231bb-d1d4-431a-8e27-8e17cdfdda03","system_id":"levelo_inurba_marseille","lat":43.32477,"lon":5.36567,"is_reserved":false,"is_disabled":false,"rental_uris":{"android":"levelo://app?vid=ecc231bb-d1d4-431a-8e27-8e17cdfdda03","ios":"levelo://app?vid=ecc231bb-d1d4-431a-8e27-8e17cdfdda03"},"vehicle_type_id":"4","last_reported":1750666618,"current_range_meters":6800,"station_id":"ce4bhs12rcd13ifvqhvg","pricing_plan_id":"cebpf4jnsgd1na2vs0mg"},{"bike_id":"be9eb207-8095-4f0f-9803-683399d1d1ee","system_id":"levelo_inurba_marseille","lat":43.30556,"lon":5.36567,"is_reserved":false,"is_disabled":false,"rental_uris":{"android":"levelo://app?vid=be9eb207-8095-4f0f-9803-683399d1d1ee","ios":"levelo://app?vid=be9eb207-8095-4f0f-9803-683399d1d1ee"},"vehicle_type_id":"4","last_reported":1750666618,"current_range_meters":7200,"station_id":"ce4bgs12rcd13ifvqcag","pricing_plan_id":"cebpf4jnsgd1na2vs0mg"},{"bike_id":"ac86ad2b-af3a-4229-b83e-2a6907d46e91","system_id":"levelo_inurba_marseille","lat":43.30143,"lon":5.37426,"is_reserved":false,"is_disabled":false,"rental_uris":{"android":"levelo://app?vid=ac86ad2b-af3a-4229-b83e-2a6907d46e91","ios":"levelo://app?vid=ac86ad2b-af3a-4229-b83e-2a6907d46e91"},"vehicle_type_id":"4","last_reported":1750666618,"current_range_meters":7200,"station_id":"ce4bgs92rcd13ifvqcc0","pricing_plan_id":"cebpf4jnsgd1na2vs0mg"},{"bike_id":"d436dc94-232e-424b-9f1d-6aea1f78db5e","system_id":"levelo_inurba_marseille","lat":43.28268,"lon":5.35067,"is_reserved":false,"is_disabled":false,"rental_uris":{"android":"levelo://app?vid=d436dc94-232e-424b-9f1d-6aea1f78db5e","ios":"levelo://app?vid=d436dc94-232e-424b-9f1d-6aea1f78db5e"},"vehicle_type_id":"4","last_reported":1750666618,"current_range_meters":7200,"station_id":"ce4bhbp2rcd13ifvqerg","pricing_plan_id":"cebpf4jnsgd1na2vs0mg"},{"bike_id":"e672c7ab-9539-485a-b360-1e12bbab178b","system_id":"levelo_inurba_marseille","lat":43.30333,"lon":5.43501,"is_reserved":false,"is_disabled":false,"rental_uris":{"android":"levelo://app?vid=e672c7ab-9539-485a-b360-1e12bbab178b","ios":"levelo://app?vid=e672c7ab-9539-485a-b360-1e12bbab178b"},"vehicle_type_id":"4","last_reported":1750666618,"current_range_meters":8000,"station_id":"","pricing_plan_id":"cebpf4jnsgd1na2vs0mg"},{"bike_id":"2c1f50d0-6c14-4914-80f0-394d143111f5","system_id":"levelo_inurba_marseille","lat":43.311493,"lon":5.383185,"is_reserved":false,"is_disabled":false,"rental_uris":{"android":"levelo://app?vid=2c1f50d0-6c14-4914-80f0-394d143111f5","ios":"levelo://app?vid=2c1f50d0-6c14-4914-80f0-394d143111f5"},"vehicle_type_id":"4","last_reported":1750666618,"current_range_meters":8000,"station_id":"","pricing_plan_id":"cebpf4jnsgd1na2vs0mg"},{"bike_id":"fd8083cf-7b58-401b-9476-db213d6a9e4a","system_id":"levelo_inurba_marseille","lat":43.29555,"lon":5.38504,"is_reserved":false,"is_disabled":false,"rental_uris":{"android":"levelo://app?vid=fd8083cf-7b58-401b-9476-db213d6a9e4a","ios":"levelo://app?vid=fd8083cf-7b58-401b-9476-db213d6a9e4a"},"vehicle_type_id":"4","last_reported":1750666618,"current_range_meters":8000,"station_id":"","pricing_plan_id":"cebpf4jnsgd1na2vs0mg"},{"bike_id":"01e369f6-dfe3-46e3-b96f-cf977fd00c27","system_id":"levelo_inurba_marseille","lat":43.29527,"lon":5.37509,"is_reserved":false,"is_disabled":false,"rental_uris":{"android":"levelo://app?vid=01e369f6-dfe3-46e3-b96f-cf977fd00c27","ios":"levelo://app?vid=01e369f6-dfe3-46e3-b96f-cf977fd00c27"},"vehicle_type_id":"4","last_reported":1750666618,"current_range_meters":8000,"station_id":"ce4bgkp2rcd13ifvqbmg","pricing_plan_id":"cebpf4jnsgd1na2vs0mg"},{"bike_id":"d195e37a-5aca-42ac-b409-d1613d302d06","system_id":"levelo_inurba_marseille","lat":43.30941,"lon":5.39016,"is_reserved":false,"is_disabled":false,"rental_uris":{"android":"levelo://app?vid=d195e37a-5aca-42ac-b409-d1613d302d06","ios":"levelo://app?vid=d195e37a-5aca-42ac-b409-d1613d302d06"},"vehicle_type_id":"4","last_reported":1750666618,"current_range_meters":8000,"station_id":"ce4bgup2rcd13ifvqco0","pricing_plan_id":"cebpf4jnsgd1na2vs0mg"},{"bike_id":"c88e2d20-ff69-4672-87c6-3cc73f0c806f","system_id":"levelo_inurba_marseille","lat":43.291675,"lon":5.37147,"is_reserved":false,"is_disabled":false,"rental_uris":{"android":"levelo://app?vid=c88e2d20-ff69-4672-87c6-3cc73f0c806f","ios":"levelo://app?vid=c88e2d20-ff69-4672-87c6-3cc73f0c806f"},"vehicle_type_id":"4","last_reported":1750666618,"current_range_meters":8000,"station_id":"ce4bha92rcd13ifvqeh0","pricing_plan_id":"cebpf4jnsgd1na2vs0mg"},{"bike_id":"e00116b5-29ba-45d1-b032-69dbad09bbba","system_id":"levelo_inurba_marseille","lat":43.29896,"lon":5.43638,"is_reserved":false,"is_disabled":false,"rental_uris":{"android":"levelo://app?vid=e00116b5-29ba-45d1-b032-69dbad09bbba","ios":"levelo://app?vid=e00116b5-29ba-45d1-b032-69dbad09bbba"},"vehicle_type_id":"4","last_reported":1750666618,"current_range_meters":8000,"station_id":"ce4bhpp2rcd13ifvqhfg","pricing_plan_id":"cebpf4jnsgd1na2vs0mg"},{"bike_id":"8da9fec7-71e9-4c3b-b338-f34507426c8f","system_id":"levelo_inurba_marseille","lat":43.29664,"lon":5.37705,"is_reserved":false,"is_disabled":false,"rental_uris":{"android":"levelo://app?vid=8da9fec7-71e9-4c3b-b338-f34507426c8f","ios":"levelo://app?vid=8da9fec7-71e9-4c3b-b338-f34507426c8f"},"vehicle_type_id":"4","last_reported":1750666618,"current_range_meters":8400,"station_id":"ce4bgi92rcd13ifvqb90","pricing_plan_id":"cebpf4jnsgd1na2vs0mg"},{"bike_id":"d7499361-9b12-4627-b69d-bf74f4915f95","system_id":"levelo_inurba_marseille","lat":43.30911,"lon":5.36845,"is_reserved":false,"is_disabled":false,"rental_uris":{"android":"levelo://app?vid=d7499361-9b12-4627-b69d-bf74f4915f95","ios":"levelo://app?vid=d7499361-9b12-4627-b69d-bf74f4915f95"},"vehicle_type_id":"4","last_reported":1750666618,"current_range_meters":8400,"station_id":"ce4bgn92rcd13ifvqbvg","pricing_plan_id":"cebpf4jnsgd1na2vs0mg"},{"bike_id":"8a280c87-912a-43bb-8807-86795bcbc323","system_id":"levelo_inurba_marseille","lat":43.24629,"lon":5.41389,"is_reserved":false,"is_disabled":false,"rental_uris":{"android":"levelo://app?vid=8a280c87-912a-43bb-8807-86795bcbc323","ios":"levelo://app?vid=8a280c87-912a-43bb-8807-86795bcbc323"},"vehicle_type_id":"4","last_reported":1750666618,"current_range_meters":8800,"station_id":"","pricing_plan_id":"cebpf4jnsgd1na2vs0mg"},{"bike_id":"a5df70f2-6722-4cef-a092-bb40b0c27dec","system_id":"levelo_inurba_marseille","lat":43.2931,"lon":5.37491,"is_reserved":false,"is_disabled":false,"rental_uris":{"android":"levelo://app?vid=a5df70f2-6722-4cef-a092-bb40b0c27dec","ios":"levelo://app?vid=a5df70f2-6722-4cef-a092-bb40b0c27dec"},"vehicle_type_id":"4","last_reported":1750666618,"current_range_meters":8800,"station_id":"ce4bgi12rcd13ifvqb70","pricing_plan_id":"cebpf4jnsgd1na2vs0mg"},{"bike_id":"eb3f47e2-d374-4f7f-b0a7-967e79166a5f","system_id":"levelo_inurba_marseille","lat":43.26022,"lon":5.37548,"is_reserved":false,"is_disabled":false,"rental_uris":{"android":"levelo://app?vid=eb3f47e2-d374-4f7f-b0a7-967e79166a5f","ios":"levelo://app?vid=eb3f47e2-d374-4f7f-b0a7-967e79166a5f"},"vehicle_type_id":"4","last_reported":1750666618,"current_range_meters":8800,"station_id":"ce4bhgh2rcd13ifvqfa0","pricing_plan_id":"cebpf4jnsgd1na2vs0mg"},{"bike_id":"8e7f6436-38fe-43ac-8b10-9520518d1ffe","system_id":"levelo_inurba_marseille","lat":43.24169,"lon":5.39721,"is_reserved":false,"is_disabled":false,"rental_uris":{"android":"levelo://app?vid=8e7f6436-38fe-43ac-8b10-9520518d1ffe","ios":"levelo://app?vid=8e7f6436-38fe-43ac-8b10-9520518d1ffe"},"vehicle_type_id":"4","last_reported":1750666618,"current_range_meters":8800,"station_id":"ce4bhn12rcd13ifvqgpg","pricing_plan_id":"cebpf4jnsgd1na2vs0mg"},{"bike_id":"c613951d-1b55-4205-b092-e70594946da5","system_id":"levelo_inurba_marseille","lat":43.212015,"lon":5.350645,"is_reserved":false,"is_disabled":false,"rental_uris":{"android":"levelo://app?vid=c613951d-1b55-4205-b092-e70594946da5","ios":"levelo://app?vid=c613951d-1b55-4205-b092-e70594946da5"},"vehicle_type_id":"4","last_reported":1750666618,"current_range_meters":8800,"station_id":"st_cvj6sg6p6f1abm77japg","pricing_plan_id":"cebpf4jnsgd1na2vs0mg"},{"bike_id":"f66a6e34-c553-4ffc-a010-eca73da9f571","system_id":"levelo_inurba_marseille","lat":43.28033,"lon":5.39912,"is_reserved":false,"is_disabled":false,"rental_uris":{"android":"levelo://app?vid=f66a6e34-c553-4ffc-a010-eca73da9f571","ios":"levelo://app?vid=f66a6e34-c553-4ffc-a010-eca73da9f571"},"vehicle_type_id":"4","last_reported":1750666618,"current_range_meters":9200,"station_id":"","pricing_plan_id":"cebpf4jnsgd1na2vs0mg"},{"bike_id":"b08343b1-3e1c-4044-85c3-549c81f94316","system_id":"levelo_inurba_marseille","lat":43.30462,"lon":5.37901,"is_reserved":false,"is_disabled":false,"rental_uris":{"android":"levelo://app?vid=b08343b1-3e1c-4044-85c3-549c81f94316","ios":"levelo://app?vid=b08343b1-3e1c-4044-85c3-549c81f94316"},"vehicle_type_id":"4","last_reported":1750666618,"current_range_meters":9200,"station_id":"ce4bgup2rcd13ifvqcn0","pricing_plan_id":"cebpf4jnsgd1na2vs0mg"},{"bike_id":"f294a54f-d207-452a-8419-83628c2de99d","system_id":"levelo_inurba_marseille","lat":43.3046,"lon":5.37917,"is_reserved":false,"is_disabled":false,"rental_uris":{"android":"levelo://app?vid=f294a54f-d207-452a-8419-83628c2de99d","ios":"levelo://app?vid=f294a54f-d207-452a-8419-83628c2de99d"},"vehicle_type_id":"4","last_reported":1750666618,"current_range_meters":9200,"station_id":"ce4bgup2rcd13ifvqcn0","pricing_plan_id":"cebpf4jnsgd1na2vs0mg"},{"bike_id":"8c9a0739-dcbf-4eb1-b824-788e462b3510","system_id":"levelo_inurba_marseille","lat":43.30139,"lon":5.39871,"is_reserved":false,"is_disabled":false,"rental_uris":{"android":"levelo://app?vid=8c9a0739-dcbf-4eb1-b824-788e462b3510","ios":"levelo://app?vid=8c9a0739-dcbf-4eb1-b824-788e462b3510"},"vehicle_type_id":"4","last_reported":1750666618,"current_range_meters":9200,"station_id":"ce4bh0h2rcd13ifvqd40","pricing_plan_id":"cebpf4jnsgd1na2vs0mg"},{"bike_id":"d4e8ecc2-bfd2-4813-96c2-dd9e4b1c1145","system_id":"levelo_inurba_marseille","lat":43.323442,"lon":5.406229,"is_reserved":false,"is_disabled":false,"rental_uris":{"android":"levelo://app?vid=d4e8ecc2-bfd2-4813-96c2-dd9e4b1c1145","ios":"levelo://app?vid=d4e8ecc2-bfd2-4813-96c2-dd9e4b1c1145"},"vehicle_type_id":"4","last_reported":1750666618,"current_range_meters":9200,"station_id":"ce4bhq92rcd13ifvqhjg","pricing_plan_id":"cebpf4jnsgd1na2vs0mg"},{"bike_id":"8c6de0c1-9eaf-4c18-8155-d956789067ae","system_id":"levelo_inurba_marseille","lat":43.27951,"lon":5.44321,"is_reserved":false,"is_disabled":false,"rental_uris":{"android":"levelo://app?vid=8c6de0c1-9eaf-4c18-8155-d956789067ae","ios":"levelo://app?vid=8c6de0c1-9eaf-4c18-8155-d956789067ae"},"vehicle_type_id":"4","last_reported":1750666618,"current_range_meters":9600,"station_id":"","pricing_plan_id":"cebpf4jnsgd1na2vs0mg"},{"bike_id":"a9e5e555-fdaf-49c0-b286-f0f2659b17d0","system_id":"levelo_inurba_marseille","lat":43.283209,"lon":5.432319,"is_reserved":false,"is_disabled":false,"rental_uris":{"android":"levelo://app?vid=a9e5e555-fdaf-49c0-b286-f0f2659b17d0","ios":"levelo://app?vid=a9e5e555-fdaf-49c0-b286-f0f2659b17d0"},"vehicle_type_id":"4","last_reported":1750666618,"current_range_meters":9600,"station_id":"","pricing_plan_id":"cebpf4jnsgd1na2vs0mg"},{"bike_id":"d3a540f0-1311-4453-b1d0-9f938584a724","system_id":"levelo_inurba_marseille","lat":43.29522,"lon":5.3855,"is_reserved":false,"is_disabled":false,"rental_uris":{"android":"levelo://app?vid=d3a540f0-1311-4453-b1d0-9f938584a724","ios":"levelo://app?vid=d3a540f0-1311-4453-b1d0-9f938584a724"},"vehicle_type_id":"4","last_reported":1750666618,"current_range_meters":9600,"station_id":"ce4bgih2rcd13ifvqba0","pricing_plan_id":"cebpf4jnsgd1na2vs0mg"},{"bike_id":"413168f7-0e7a-4296-a509-5a925283bc1b","system_id":"levelo_inurba_marseille","lat":43.30283,"lon":5.37705,"is_reserved":false,"is_disabled":false,"rental_uris":{"android":"levelo://app?vid=413168f7-0e7a-4296-a509-5a925283bc1b","ios":"levelo://app?vid=413168f7-0e7a-4296-a509-5a925283bc1b"},"vehicle_type_id":"4","last_reported":1750666618,"current_range_meters":9600,"station_id":"ce4bguh2rcd13ifvqcj0","pricing_plan_id":"cebpf4jnsgd1na2vs0mg"},{"bike_id":"0d8f6411-57ef-4541-b0f9-8f56ac424af4","system_id":"levelo_inurba_marseille","lat":43.25912,"lon":5.40872,"is_reserved":false,"is_disabled":false,"rental_uris":{"android":"levelo://app?vid=0d8f6411-57ef-4541-b0f9-8f56ac424af4","ios":"levelo://app?vid=0d8f6411-57ef-4541-b0f9-8f56ac424af4"},"vehicle_type_id":"4","last_reported":1750666618,"current_range_meters":9600,"station_id":"ce4bhm92rcd13ifvqglg","pricing_plan_id":"cebpf4jnsgd1na2vs0mg"},{"bike_id":"66c7a817-1ec9-4993-bf9b-757522173bd1","system_id":"levelo_inurba_marseille","lat":43.23153,"lon":5.43711,"is_reserved":false,"is_disabled":false,"rental_uris":{"android":"levelo://app?vid=66c7a817-1ec9-4993-bf9b-757522173bd1","ios":"levelo://app?vid=66c7a817-1ec9-4993-bf9b-757522173bd1"},"vehicle_type_id":"4","last_reported":1750666618,"current_range_meters":9600,"station_id":"ce4bhmp2rcd13ifvqgog","pricing_plan_id":"cebpf4jnsgd1na2vs0mg"},{"bike_id":"b548f3a1-a666-4059-b576-32070105d4db","system_id":"levelo_inurba_marseille","lat":43.23154,"lon":5.43707,"is_reserved":false,"is_disabled":false,"rental_uris":{"android":"levelo://app?vid=b548f3a1-a666-4059-b576-32070105d4db","ios":"levelo://app?vid=b548f3a1-a666-4059-b576-32070105d4db"},"vehicle_type_id":"4","last_reported":1750666618,"current_range_meters":9600,"station_id":"ce4bhmp2rcd13ifvqgog","pricing_plan_id":"cebpf4jnsgd1na2vs0mg"},{"bike_id":"eb8e0445-594f-44a0-85cb-9b475413e1ad","system_id":"levelo_inurba_marseille","lat":43.29551,"lon":5.42293,"is_reserved":false,"is_disabled":false,"rental_uris":{"android":"levelo://app?vid=eb8e0445-594f-44a0-85cb-9b475413e1ad","ios":"levelo://app?vid=eb8e0445-594f-44a0-85cb-9b475413e1ad"},"vehicle_type_id":"4","last_reported":1750666618,"current_range_meters":9600,"station_id":"ce4bhph2rcd13ifvqhdg","pricing_plan_id":"cebpf4jnsgd1na2vs0mg"},{"bike_id":"a23c269e-e131-4add-ba4a-f65c4941bf88","system_id":"levelo_inurba_marseille","lat":43.32485,"lon":5.36577,"is_reserved":false,"is_disabled":false,"rental_uris":{"android":"levelo://app?vid=a23c269e-e131-4add-ba4a-f65c4941bf88","ios":"levelo://app?vid=a23c269e-e131-4add-ba4a-f65c4941bf88"},"vehicle_type_id":"4","last_reported":1750666618,"current_range_meters":9600,"station_id":"ce4bhs12rcd13ifvqhvg","pricing_plan_id":"cebpf4jnsgd1na2vs0mg"},{"bike_id":"8d197929-9fd5-4312-a5f7-b6d7fc6475a8","system_id":"levelo_inurba_marseille","lat":43.23497,"lon":5.36,"is_reserved":false,"is_disabled":false,"rental_uris":{"android":"levelo://app?vid=8d197929-9fd5-4312-a5f7-b6d7fc6475a8","ios":"levelo://app?vid=8d197929-9fd5-4312-a5f7-b6d7fc6475a8"},"vehicle_type_id":"4","last_reported":1750666618,"current_range_meters":10000,"station_id":"","pricing_plan_id":"cebpf4jnsgd1na2vs0mg"},{"bike_id":"f10e38ce-c08a-4001-873a-ec3e8846285a","system_id":"levelo_inurba_marseille","lat":43.32908,"lon":5.380568,"is_reserved":false,"is_disabled":false,"rental_uris":{"android":"levelo://app?vid=f10e38ce-c08a-4001-873a-ec3e8846285a","ios":"levelo://app?vid=f10e38ce-c08a-4001-873a-ec3e8846285a"},"vehicle_type_id":"4","last_reported":1750666618,"current_range_meters":10000,"station_id":"","pricing_plan_id":"cebpf4jnsgd1na2vs0mg"},{"bike_id":"941215a5-64c5-4af6-ba2c-2616777ed481","system_id":"levelo_inurba_marseille","lat":43.26315,"lon":5.41585,"is_reserved":false,"is_disabled":false,"rental_uris":{"android":"levelo://app?vid=941215a5-64c5-4af6-ba2c-2616777ed481","ios":"levelo://app?vid=941215a5-64c5-4af6-ba2c-2616777ed481"},"vehicle_type_id":"4","last_reported":1750666618,"current_range_meters":10000,"station_id":"","pricing_plan_id":"cebpf4jnsgd1na2vs0mg"},{"bike_id":"c35f1469-6975-4dfe-932a-86edbe01a878","system_id":"levelo_inurba_marseille","lat":43.29178,"lon":5.37515,"is_reserved":false,"is_disabled":false,"rental_uris":{"android":"levelo://app?vid=c35f1469-6975-4dfe-932a-86edbe01a878","ios":"levelo://app?vid=c35f1469-6975-4dfe-932a-86edbe01a878"},"vehicle_type_id":"4","last_reported":1750666618,"current_range_meters":10000,"station_id":"","pricing_plan_id":"cebpf4jnsgd1na2vs0mg"},{"bike_id":"83d9cba4-6f3f-4821-9e27-d81950630101","system_id":"levelo_inurba_marseille","lat":43.29903,"lon":5.37452,"is_reserved":false,"is_disabled":false,"rental_uris":{"android":"levelo://app?vid=83d9cba4-6f3f-4821-9e27-d81950630101","ios":"levelo://app?vid=83d9cba4-6f3f-4821-9e27-d81950630101"},"vehicle_type_id":"4","last_reported":1750666618,"current_range_meters":10000,"station_id":"ce4bgjh2rcd13ifvqbg0","pricing_plan_id":"cebpf4jnsgd1na2vs0mg"},{"bike_id":"3a28251d-0250-4373-b769-a417e43f09f1","system_id":"levelo_inurba_marseille","lat":43.305408,"lon":5.36552,"is_reserved":false,"is_disabled":false,"rental_uris":{"android":"levelo://app?vid=3a28251d-0250-4373-b769-a417e43f09f1","ios":"levelo://app?vid=3a28251d-0250-4373-b769-a417e43f09f1"},"vehicle_type_id":"4","last_reported":1750666618,"current_range_meters":10000,"station_id":"ce4bgs12rcd13ifvqcag","pricing_plan_id":"cebpf4jnsgd1na2vs0mg"},{"bike_id":"49d200ee-e0bc-45d3-b0c1-aacbf53b804d","system_id":"levelo_inurba_marseille","lat":43.27211,"lon":5.39183,"is_reserved":false,"is_disabled":false,"rental_uris":{"android":"levelo://app?vid=49d200ee-e0bc-45d3-b0c1-aacbf53b804d","ios":"levelo://app?vid=49d200ee-e0bc-45d3-b0c1-aacbf53b804d"},"vehicle_type_id":"4","last_reported":1750666618,"current_range_meters":10000,"station_id":"ce4bhhp2rcd13ifvqfm0","pricing_plan_id":"cebpf4jnsgd1na2vs0mg"},{"bike_id":"9f717de1-1bdd-451d-87f7-e377b1f9ef70","system_id":"levelo_inurba_marseille","lat":43.33714,"lon":5.39189,"is_reserved":false,"is_disabled":false,"rental_uris":{"android":"levelo://app?vid=9f717de1-1bdd-451d-87f7-e377b1f9ef70","ios":"levelo://app?vid=9f717de1-1bdd-451d-87f7-e377b1f9ef70"},"vehicle_type_id":"4","last_reported":1750666618,"current_range_meters":10000,"station_id":"ce4bhr92rcd13ifvqhsg","pricing_plan_id":"cebpf4jnsgd1na2vs0mg"},{"bike_id":"81c18df1-e313-4054-a0e1-f48cd5d34c79","system_id":"levelo_inurba_marseille","lat":43.30455,"lon":5.3791,"is_reserved":false,"is_disabled":false,"rental_uris":{"android":"levelo://app?vid=81c18df1-e313-4054-a0e1-f48cd5d34c79","ios":"levelo://app?vid=81c18df1-e313-4054-a0e1-f48cd5d34c79"},"vehicle_type_id":"4","last_reported":1750666618,"current_range_meters":10800,"station_id":"ce4bgup2rcd13ifvqcn0","pricing_plan_id":"cebpf4jnsgd1na2vs0mg"},{"bike_id":"25297cd6-39f9-49bc-9027-00928e2db8c7","system_id":"levelo_inurba_marseille","lat":43.28268,"lon":5.35058,"is_reserved":false,"is_disabled":false,"rental_uris":{"android":"levelo://app?vid=25297cd6-39f9-49bc-9027-00928e2db8c7","ios":"levelo://app?vid=25297cd6-39f9-49bc-9027-00928e2db8c7"},"vehicle_type_id":"4","last_reported":1750666618,"current_range_meters":10800,"station_id":"ce4bhbp2rcd13ifvqerg","pricing_plan_id":"cebpf4jnsgd1na2vs0mg"},{"bike_id":"89fa45aa-188b-48ac-be2f-94400af1a2c3","system_id":"levelo_inurba_marseille","lat":43.27308,"lon":5.39074,"is_reserved":false,"is_disabled":false,"rental_uris":{"android":"levelo://app?vid=89fa45aa-188b-48ac-be2f-94400af1a2c3","ios":"levelo://app?vid=89fa45aa-188b-48ac-be2f-94400af1a2c3"},"vehicle_type_id":"4","last_reported":1750666618,"current_range_meters":10800,"station_id":"ce4bhgp2rcd13ifvqfe0","pricing_plan_id":"cebpf4jnsgd1na2vs0mg"},{"bike_id":"5704e9c9-37c7-49b1-b7a5-7f3d6503df63","system_id":"levelo_inurba_marseille","lat":43.251,"lon":5.40301,"is_reserved":false,"is_disabled":false,"rental_uris":{"android":"levelo://app?vid=5704e9c9-37c7-49b1-b7a5-7f3d6503df63","ios":"levelo://app?vid=5704e9c9-37c7-49b1-b7a5-7f3d6503df63"},"vehicle_type_id":"4","last_reported":1750666618,"current_range_meters":10800,"station_id":"ce4bhlh2rcd13ifvqgig","pricing_plan_id":"cebpf4jnsgd1na2vs0mg"},{"bike_id":"ee9cd595-062c-4195-8f11-b1b7d64a04e5","system_id":"levelo_inurba_marseille","lat":43.25926,"lon":5.40902,"is_reserved":false,"is_disabled":false,"rental_uris":{"android":"levelo://app?vid=ee9cd595-062c-4195-8f11-b1b7d64a04e5","ios":"levelo://app?vid=ee9cd595-062c-4195-8f11-b1b7d64a04e5"},"vehicle_type_id":"4","last_reported":1750666618,"current_range_meters":10800,"station_id":"ce4bhm92rcd13ifvqglg","pricing_plan_id":"cebpf4jnsgd1na2vs0mg"},{"bike_id":"3ecfd10a-d1c5-4850-95ee-56db1e0e1365","system_id":"levelo_inurba_marseille","lat":43.24178,"lon":5.39723,"is_reserved":false,"is_disabled":false,"rental_uris":{"android":"levelo://app?vid=3ecfd10a-d1c5-4850-95ee-56db1e0e1365","ios":"levelo://app?vid=3ecfd10a-d1c5-4850-95ee-56db1e0e1365"},"vehicle_type_id":"4","last_reported":1750666618,"current_range_meters":10800,"station_id":"ce4bhn12rcd13ifvqgpg","pricing_plan_id":"cebpf4jnsgd1na2vs0mg"},{"bike_id":"b541c122-9f56-4850-b7bf-946357373cff","system_id":"levelo_inurba_marseille","lat":43.32051,"lon":5.41543,"is_reserved":false,"is_disabled":false,"rental_uris":{"android":"levelo://app?vid=b541c122-9f56-4850-b7bf-946357373cff","ios":"levelo://app?vid=b541c122-9f56-4850-b7bf-946357373cff"},"vehicle_type_id":"4","last_reported":1750666618,"current_range_meters":10800,"station_id":"ce4bhq92rcd13ifvqhkg","pricing_plan_id":"cebpf4jnsgd1na2vs0mg"},{"bike_id":"cea97dbe-7afa-4e6e-be28-a66462f37247","system_id":"levelo_inurba_marseille","lat":43.33005,"lon":5.39004,"is_reserved":false,"is_disabled":false,"rental_uris":{"android":"levelo://app?vid=cea97dbe-7afa-4e6e-be28-a66462f37247","ios":"levelo://app?vid=cea97dbe-7afa-4e6e-be28-a66462f37247"},"vehicle_type_id":"4","last_reported":1750666618,"current_range_meters":10800,"station_id":"ce4bhr92rcd13ifvqhrg","pricing_plan_id":"cebpf4jnsgd1na2vs0mg"},{"bike_id":"7f0c0d5e-2b18-46bc-82ee-7fd2a79a7859","system_id":"levelo_inurba_marseille","lat":43.32481,"lon":5.36551,"is_reserved":false,"is_disabled":false,"rental_uris":{"android":"levelo://app?vid=7f0c0d5e-2b18-46bc-82ee-7fd2a79a7859","ios":"levelo://app?vid=7f0c0d5e-2b18-46bc-82ee-7fd2a79a7859"},"vehicle_type_id":"4","last_reported":1750666618,"current_range_meters":10800,"station_id":"ce4bhs12rcd13ifvqhvg","pricing_plan_id":"cebpf4jnsgd1na2vs0mg"},{"bike_id":"d06b41fe-cba8-4975-a6bb-956ea36887e4","system_id":"levelo_inurba_marseille","lat":43.281195,"lon":5.44226,"is_reserved":false,"is_disabled":false,"rental_uris":{"android":"levelo://app?vid=d06b41fe-cba8-4975-a6bb-956ea36887e4","ios":"levelo://app?vid=d06b41fe-cba8-4975-a6bb-956ea36887e4"},"vehicle_type_id":"4","last_reported":1750666618,"current_range_meters":11200,"station_id":"","pricing_plan_id":"cebpf4jnsgd1na2vs0mg"},{"bike_id":"70764641-799a-4261-99bd-903918c1b74a","system_id":"levelo_inurba_marseille","lat":43.32893,"lon":5.38335,"is_reserved":false,"is_disabled":false,"rental_uris":{"android":"levelo://app?vid=70764641-799a-4261-99bd-903918c1b74a","ios":"levelo://app?vid=70764641-799a-4261-99bd-903918c1b74a"},"vehicle_type_id":"4","last_reported":1750666618,"current_range_meters":11200,"station_id":"","pricing_plan_id":"cebpf4jnsgd1na2vs0mg"},{"bike_id":"746fd03f-827b-4eeb-ac17-a03449cc6319","system_id":"levelo_inurba_marseille","lat":43.24423,"lon":5.42602,"is_reserved":false,"is_disabled":false,"rental_uris":{"android":"levelo://app?vid=746fd03f-827b-4eeb-ac17-a03449cc6319","ios":"levelo://app?vid=746fd03f-827b-4eeb-ac17-a03449cc6319"},"vehicle_type_id":"4","last_reported":1750666618,"current_range_meters":11200,"station_id":"","pricing_plan_id":"cebpf4jnsgd1na2vs0mg"},{"bike_id":"a81bb845-3c69-4e60-b96a-9ec7765d8b44","system_id":"levelo_inurba_marseille","lat":43.31342,"lon":5.36734,"is_reserved":false,"is_disabled":false,"rental_uris":{"android":"levelo://app?vid=a81bb845-3c69-4e60-b96a-9ec7765d8b44","ios":"levelo://app?vid=a81bb845-3c69-4e60-b96a-9ec7765d8b44"},"vehicle_type_id":"4","last_reported":1750666618,"current_range_meters":11200,"station_id":"ce4bgr92rcd13ifvqc6g","pricing_plan_id":"cebpf4jnsgd1na2vs0mg"},{"bike_id":"806a4e71-679d-4b3b-ab4e-857d2e59f3bb","system_id":"levelo_inurba_marseille","lat":43.30542,"lon":5.36696,"is_reserved":false,"is_disabled":false,"rental_uris":{"android":"levelo://app?vid=806a4e71-679d-4b3b-ab4e-857d2e59f3bb","ios":"levelo://app?vid=806a4e71-679d-4b3b-ab4e-857d2e59f3bb"},"vehicle_type_id":"4","last_reported":1750666618,"current_range_meters":11200,"station_id":"ce4bgrp2rcd13ifvqc9g","pricing_plan_id":"cebpf4jnsgd1na2vs0mg"},{"bike_id":"58cd2e65-0c50-42eb-b4b0-6c7f1f9c0dc5","system_id":"levelo_inurba_marseille","lat":43.30465,"lon":5.3791,"is_reserved":false,"is_disabled":false,"rental_uris":{"android":"levelo://app?vid=58cd2e65-0c50-42eb-b4b0-6c7f1f9c0dc5","ios":"levelo://app?vid=58cd2e65-0c50-42eb-b4b0-6c7f1f9c0dc5"},"vehicle_type_id":"4","last_reported":1750666618,"current_range_meters":11200,"station_id":"ce4bgup2rcd13ifvqcn0","pricing_plan_id":"cebpf4jnsgd1na2vs0mg"},{"bike_id":"bd703ba0-6333-4920-910d-50cdb41a1f54","system_id":"levelo_inurba_marseille","lat":43.28857,"lon":5.35831,"is_reserved":false,"is_disabled":false,"rental_uris":{"android":"levelo://app?vid=bd703ba0-6333-4920-910d-50cdb41a1f54","ios":"levelo://app?vid=bd703ba0-6333-4920-910d-50cdb41a1f54"},"vehicle_type_id":"4","last_reported":1750666618,"current_range_meters":11200,"station_id":"ce4bhb12rcd13ifvqem0","pricing_plan_id":"cebpf4jnsgd1na2vs0mg"},{"bike_id":"35bc9f5e-1ad9-467d-a54f-b70a09356aab","system_id":"levelo_inurba_marseille","lat":43.27364,"lon":5.36235,"is_reserved":false,"is_disabled":false,"rental_uris":{"android":"levelo://app?vid=35bc9f5e-1ad9-467d-a54f-b70a09356aab","ios":"levelo://app?vid=35bc9f5e-1ad9-467d-a54f-b70a09356aab"},"vehicle_type_id":"4","last_reported":1750666618,"current_range_meters":11200,"station_id":"ce4bhbh2rcd13ifvqeo0","pricing_plan_id":"cebpf4jnsgd1na2vs0mg"},{"bike_id":"eb7fe5af-c59f-4045-82ef-b004cb961117","system_id":"levelo_inurba_marseille","lat":43.27052,"lon":5.40269,"is_reserved":false,"is_disabled":false,"rental_uris":{"android":"levelo://app?vid=eb7fe5af-c59f-4045-82ef-b004cb961117","ios":"levelo://app?vid=eb7fe5af-c59f-4045-82ef-b004cb961117"},"vehicle_type_id":"4","last_reported":1750666618,"current_range_meters":11200,"station_id":"ce4bhk92rcd13ifvqgc0","pricing_plan_id":"cebpf4jnsgd1na2vs0mg"},{"bike_id":"b875567a-d777-4671-bb16-7390be622c48","system_id":"levelo_inurba_marseille","lat":43.32045,"lon":5.41576,"is_reserved":false,"is_disabled":false,"rental_uris":{"android":"levelo://app?vid=b875567a-d777-4671-bb16-7390be622c48","ios":"levelo://app?vid=b875567a-d777-4671-bb16-7390be622c48"},"vehicle_type_id":"4","last_reported":1750666618,"current_range_meters":11200,"station_id":"ce4bhq92rcd13ifvqhkg","pricing_plan_id":"cebpf4jnsgd1na2vs0mg"},{"bike_id":"98dfabf4-2175-476b-8e69-83a3be827842","system_id":"levelo_inurba_marseille","lat":43.32486,"lon":5.36572,"is_reserved":false,"is_disabled":false,"rental_uris":{"android":"levelo://app?vid=98dfabf4-2175-476b-8e69-83a3be827842","ios":"levelo://app?vid=98dfabf4-2175-476b-8e69-83a3be827842"},"vehicle_type_id":"4","last_reported":1750666618,"current_range_meters":11200,"station_id":"ce4bhs12rcd13ifvqhvg","pricing_plan_id":"cebpf4jnsgd1na2vs0mg"},{"bike_id":"e8476921-82e1-4a2f-ab4e-61d6c58cdbb5","system_id":"levelo_inurba_marseille","lat":43.2737,"lon":5.36256,"is_reserved":false,"is_disabled":false,"rental_uris":{"android":"levelo://app?vid=e8476921-82e1-4a2f-ab4e-61d6c58cdbb5","ios":"levelo://app?vid=e8476921-82e1-4a2f-ab4e-61d6c58cdbb5"},"vehicle_type_id":"4","last_reported":1750666618,"current_range_meters":11600,"station_id":"ce4bhbh2rcd13ifvqeo0","pricing_plan_id":"cebpf4jnsgd1na2vs0mg"},{"bike_id":"aaeac879-2874-49bf-af8c-bfcff4806431","system_id":"levelo_inurba_marseille","lat":43.266747,"lon":5.394807,"is_reserved":false,"is_disabled":false,"rental_uris":{"android":"levelo://app?vid=aaeac879-2874-49bf-af8c-bfcff4806431","ios":"levelo://app?vid=aaeac879-2874-49bf-af8c-bfcff4806431"},"vehicle_type_id":"4","last_reported":1750666618,"current_range_meters":11600,"station_id":"ce4bhl12rcd13ifvqgf0","pricing_plan_id":"cebpf4jnsgd1na2vs0mg"},{"bike_id":"3b951d47-daef-4f47-9b11-1cb55583c0cc","system_id":"levelo_inurba_marseille","lat":43.21204,"lon":5.35057,"is_reserved":false,"is_disabled":false,"rental_uris":{"android":"levelo://app?vid=3b951d47-daef-4f47-9b11-1cb55583c0cc","ios":"levelo://app?vid=3b951d47-daef-4f47-9b11-1cb55583c0cc"},"vehicle_type_id":"4","last_reported":1750666618,"current_range_meters":11600,"station_id":"st_cvj6sg6p6f1abm77japg","pricing_plan_id":"cebpf4jnsgd1na2vs0mg"},{"bike_id":"f82e71e5-69f8-44af-b79e-842f45456e51","system_id":"levelo_inurba_marseille","lat":43.29302,"lon":5.37439,"is_reserved":false,"is_disabled":false,"rental_uris":{"android":"levelo://app?vid=f82e71e5-69f8-44af-b79e-842f45456e51","ios":"levelo://app?vid=f82e71e5-69f8-44af-b79e-842f45456e51"},"vehicle_type_id":"4","last_reported":1750666618,"current_range_meters":12000,"station_id":"ce4bgi12rcd13ifvqb70","pricing_plan_id":"cebpf4jnsgd1na2vs0mg"},{"bike_id":"ca6c6652-7cd3-4349-92b8-2e89721880bc","system_id":"levelo_inurba_marseille","lat":43.28702,"lon":5.37386,"is_reserved":false,"is_disabled":false,"rental_uris":{"android":"levelo://app?vid=ca6c6652-7cd3-4349-92b8-2e89721880bc","ios":"levelo://app?vid=ca6c6652-7cd3-4349-92b8-2e89721880bc"},"vehicle_type_id":"4","last_reported":1750666618,"current_range_meters":12000,"station_id":"ce4bh3p2rcd13ifvqdq0","pricing_plan_id":"cebpf4jnsgd1na2vs0mg"},{"bike_id":"f5034077-3faa-4d50-869d-947af8a5f650","system_id":"levelo_inurba_marseille","lat":43.26551,"lon":5.37291,"is_reserved":false,"is_disabled":false,"rental_uris":{"android":"levelo://app?vid=f5034077-3faa-4d50-869d-947af8a5f650","ios":"levelo://app?vid=f5034077-3faa-4d50-869d-947af8a5f650"},"vehicle_type_id":"4","last_reported":1750666618,"current_range_meters":12000,"station_id":"ce4bhg12rcd13ifvqf70","pricing_plan_id":"cebpf4jnsgd1na2vs0mg"},{"bike_id":"ed8ffa1c-daae-434a-a8d2-d12d50b4abbe","system_id":"levelo_inurba_marseille","lat":43.28147,"lon":5.42648,"is_reserved":false,"is_disabled":false,"rental_uris":{"android":"levelo://app?vid=ed8ffa1c-daae-434a-a8d2-d12d50b4abbe","ios":"levelo://app?vid=ed8ffa1c-daae-434a-a8d2-d12d50b4abbe"},"vehicle_type_id":"4","last_reported":1750666618,"current_range_meters":12000,"station_id":"ce4bhnh2rcd13ifvqgug","pricing_plan_id":"cebpf4jnsgd1na2vs0mg"},{"bike_id":"9b02d498-1113-42dd-abe8-5af105b91dd7","system_id":"levelo_inurba_marseille","lat":43.32041,"lon":5.41579,"is_reserved":false,"is_disabled":false,"rental_uris":{"android":"levelo://app?vid=9b02d498-1113-42dd-abe8-5af105b91dd7","ios":"levelo://app?vid=9b02d498-1113-42dd-abe8-5af105b91dd7"},"vehicle_type_id":"4","last_reported":1750666618,"current_range_meters":12000,"station_id":"ce4bhq92rcd13ifvqhkg","pricing_plan_id":"cebpf4jnsgd1na2vs0mg"},{"bike_id":"378075d1-a922-4bca-a0ca-e2e9f0b95ccc","system_id":"levelo_inurba_marseille","lat":43.32015,"lon":5.41535,"is_reserved":false,"is_disabled":false,"rental_uris":{"android":"levelo://app?vid=378075d1-a922-4bca-a0ca-e2e9f0b95ccc","ios":"levelo://app?vid=378075d1-a922-4bca-a0ca-e2e9f0b95ccc"},"vehicle_type_id":"4","last_reported":1750666618,"current_range_meters":12000,"station_id":"ce4bhq92rcd13ifvqhkg","pricing_plan_id":"cebpf4jnsgd1na2vs0mg"},{"bike_id":"b121b815-4832-48cb-be5c-48bedc9fea93","system_id":"levelo_inurba_marseille","lat":43.25689,"lon":5.40958,"is_reserved":false,"is_disabled":false,"rental_uris":{"android":"levelo://app?vid=b121b815-4832-48cb-be5c-48bedc9fea93","ios":"levelo://app?vid=b121b815-4832-48cb-be5c-48bedc9fea93"},"vehicle_type_id":"4","last_reported":1750666618,"current_range_meters":12400,"station_id":"","pricing_plan_id":"cebpf4jnsgd1na2vs0mg"},{"bike_id":"461f811c-bb71-4590-a4af-dac3d3fae3a4","system_id":"levelo_inurba_marseille","lat":43.30461,"lon":5.37907,"is_reserved":false,"is_disabled":false,"rental_uris":{"android":"levelo://app?vid=461f811c-bb71-4590-a4af-dac3d3fae3a4","ios":"levelo://app?vid=461f811c-bb71-4590-a4af-dac3d3fae3a4"},"vehicle_type_id":"4","last_reported":1750666618,"current_range_meters":12400,"station_id":"ce4bgup2rcd13ifvqcn0","pricing_plan_id":"cebpf4jnsgd1na2vs0mg"},{"bike_id":"b118ce27-5b9c-4acc-8d2a-2b16400d3e28","system_id":"levelo_inurba_marseille","lat":43.32482,"lon":5.36555,"is_reserved":false,"is_disabled":false,"rental_uris":{"android":"levelo://app?vid=b118ce27-5b9c-4acc-8d2a-2b16400d3e28","ios":"levelo://app?vid=b118ce27-5b9c-4acc-8d2a-2b16400d3e28"},"vehicle_type_id":"4","last_reported":1750666618,"current_range_meters":12400,"station_id":"ce4bhs12rcd13ifvqhvg","pricing_plan_id":"cebpf4jnsgd1na2vs0mg"},{"bike_id":"dcb881bc-3243-46bf-9708-9904614a9a14","system_id":"levelo_inurba_marseille","lat":43.323634,"lon":5.367163,"is_reserved":false,"is_disabled":false,"rental_uris":{"android":"levelo://app?vid=dcb881bc-3243-46bf-9708-9904614a9a14","ios":"levelo://app?vid=dcb881bc-3243-46bf-9708-9904614a9a14"},"vehicle_type_id":"4","last_reported":1750666618,"current_range_meters":12400,"station_id":"ce4bhsh2rcd13ifvqi2g","pricing_plan_id":"cebpf4jnsgd1na2vs0mg"},{"bike_id":"ba79c875-89bd-4899-a2b3-c405943674b8","system_id":"levelo_inurba_marseille","lat":43.29611,"lon":5.38114,"is_reserved":false,"is_disabled":false,"rental_uris":{"android":"levelo://app?vid=ba79c875-89bd-4899-a2b3-c405943674b8","ios":"levelo://app?vid=ba79c875-89bd-4899-a2b3-c405943674b8"},"vehicle_type_id":"4","last_reported":1750666618,"current_range_meters":12800,"station_id":"ce4bgl12rcd13ifvqbo0","pricing_plan_id":"cebpf4jnsgd1na2vs0mg"},{"bike_id":"bacc9864-06f7-4e1c-b403-88c23eeb6d09","system_id":"levelo_inurba_marseille","lat":43.313593,"lon":5.367343,"is_reserved":false,"is_disabled":false,"rental_uris":{"android":"levelo://app?vid=bacc9864-06f7-4e1c-b403-88c23eeb6d09","ios":"levelo://app?vid=bacc9864-06f7-4e1c-b403-88c23eeb6d09"},"vehicle_type_id":"4","last_reported":1750666618,"current_range_meters":12800,"station_id":"ce4bgr92rcd13ifvqc6g","pricing_plan_id":"cebpf4jnsgd1na2vs0mg"},{"bike_id":"b210dfcc-1e87-428b-bace-9372fa7a5c78","system_id":"levelo_inurba_marseille","lat":43.30523,"lon":5.36537,"is_reserved":false,"is_disabled":false,"rental_uris":{"android":"levelo://app?vid=b210dfcc-1e87-428b-bace-9372fa7a5c78","ios":"levelo://app?vid=b210dfcc-1e87-428b-bace-9372fa7a5c78"},"vehicle_type_id":"4","last_reported":1750666618,"current_range_meters":12800,"station_id":"ce4bgs12rcd13ifvqcag","pricing_plan_id":"cebpf4jnsgd1na2vs0mg"},{"bike_id":"f8a794fe-6dce-4917-b984-535bf4ce31c0","system_id":"levelo_inurba_marseille","lat":43.27372,"lon":5.36261,"is_reserved":false,"is_disabled":false,"rental_uris":{"android":"levelo://app?vid=f8a794fe-6dce-4917-b984-535bf4ce31c0","ios":"levelo://app?vid=f8a794fe-6dce-4917-b984-535bf4ce31c0"},"vehicle_type_id":"4","last_reported":1750666618,"current_range_meters":12800,"station_id":"ce4bhbh2rcd13ifvqeo0","pricing_plan_id":"cebpf4jnsgd1na2vs0mg"},{"bike_id":"4290a431-b34c-4d9c-bfca-0b9660363e98","system_id":"levelo_inurba_marseille","lat":43.23151,"lon":5.43708,"is_reserved":false,"is_disabled":false,"rental_uris":{"android":"levelo://app?vid=4290a431-b34c-4d9c-bfca-0b9660363e98","ios":"levelo://app?vid=4290a431-b34c-4d9c-bfca-0b9660363e98"},"vehicle_type_id":"4","last_reported":1750666618,"current_range_meters":12800,"station_id":"ce4bhmp2rcd13ifvqgog","pricing_plan_id":"cebpf4jnsgd1na2vs0mg"},{"bike_id":"df85295c-bf78-4ca8-9c19-ea821a805f47","system_id":"levelo_inurba_marseille","lat":43.27495,"lon":5.42464,"is_reserved":false,"is_disabled":false,"rental_uris":{"android":"levelo://app?vid=df85295c-bf78-4ca8-9c19-ea821a805f47","ios":"levelo://app?vid=df85295c-bf78-4ca8-9c19-ea821a805f47"},"vehicle_type_id":"4","last_reported":1750666618,"current_range_meters":12800,"station_id":"ce4bhn92rcd13ifvqgrg","pricing_plan_id":"cebpf4jnsgd1na2vs0mg"},{"bike_id":"9a50bdaa-c937-4ddd-9f36-a7648e59186c","system_id":"levelo_inurba_marseille","lat":43.32285,"lon":5.38271,"is_reserved":false,"is_disabled":false,"rental_uris":{"android":"levelo://app?vid=9a50bdaa-c937-4ddd-9f36-a7648e59186c","ios":"levelo://app?vid=9a50bdaa-c937-4ddd-9f36-a7648e59186c"},"vehicle_type_id":"4","last_reported":1750666618,"current_range_meters":12800,"station_id":"ce4bhr12rcd13ifvqhqg","pricing_plan_id":"cebpf4jnsgd1na2vs0mg"},{"bike_id":"22a4ec73-cb52-48c4-b07d-baaf19e4a6d8","system_id":"levelo_inurba_marseille","lat":43.3199,"lon":5.36694,"is_reserved":false,"is_disabled":false,"rental_uris":{"android":"levelo://app?vid=22a4ec73-cb52-48c4-b07d-baaf19e4a6d8","ios":"levelo://app?vid=22a4ec73-cb52-48c4-b07d-baaf19e4a6d8"},"vehicle_type_id":"4","last_reported":1750666618,"current_range_meters":12800,"station_id":"ce4bhrh2rcd13ifvqhug","pricing_plan_id":"cebpf4jnsgd1na2vs0mg"},{"bike_id":"55d9bcbf-b939-43f2-918a-7570d320ab56","system_id":"levelo_inurba_marseille","lat":43.31056,"lon":5.401,"is_reserved":false,"is_disabled":false,"rental_uris":{"android":"levelo://app?vid=55d9bcbf-b939-43f2-918a-7570d320ab56","ios":"levelo://app?vid=55d9bcbf-b939-43f2-918a-7570d320ab56"},"vehicle_type_id":"4","last_reported":1750666618,"current_range_meters":13600,"station_id":"","pricing_plan_id":"cebpf4jnsgd1na2vs0mg"},{"bike_id":"9a44cf65-c386-48f6-a950-97246f0fcece","system_id":"levelo_inurba_marseille","lat":43.33231,"lon":5.42942,"is_reserved":false,"is_disabled":false,"rental_uris":{"android":"levelo://app?vid=9a44cf65-c386-48f6-a950-97246f0fcece","ios":"levelo://app?vid=9a44cf65-c386-48f6-a950-97246f0fcece"},"vehicle_type_id":"4","last_reported":1750666618,"current_range_meters":13600,"station_id":"","pricing_plan_id":"cebpf4jnsgd1na2vs0mg"},{"bike_id":"1e0c60e1-43c3-4b9b-9446-e89ae26c50bd","system_id":"levelo_inurba_marseille","lat":43.31353,"lon":5.36721,"is_reserved":false,"is_disabled":false,"rental_uris":{"android":"levelo://app?vid=1e0c60e1-43c3-4b9b-9446-e89ae26c50bd","ios":"levelo://app?vid=1e0c60e1-43c3-4b9b-9446-e89ae26c50bd"},"vehicle_type_id":"4","last_reported":1750666618,"current_range_meters":13600,"station_id":"ce4bgr92rcd13ifvqc6g","pricing_plan_id":"cebpf4jnsgd1na2vs0mg"},{"bike_id":"c1c60134-d6af-49ed-8067-69f1cbb3450d","system_id":"levelo_inurba_marseille","lat":43.273812,"lon":5.362514,"is_reserved":false,"is_disabled":false,"rental_uris":{"android":"levelo://app?vid=c1c60134-d6af-49ed-8067-69f1cbb3450d","ios":"levelo://app?vid=c1c60134-d6af-49ed-8067-69f1cbb3450d"},"vehicle_type_id":"4","last_reported":1750666618,"current_range_meters":13600,"station_id":"ce4bhbh2rcd13ifvqeo0","pricing_plan_id":"cebpf4jnsgd1na2vs0mg"},{"bike_id":"723f5d56-ac33-4c94-8bb8-ee4c6dc93f60","system_id":"levelo_inurba_marseille","lat":43.229388,"lon":5.35376,"is_reserved":false,"is_disabled":false,"rental_uris":{"android":"levelo://app?vid=723f5d56-ac33-4c94-8bb8-ee4c6dc93f60","ios":"levelo://app?vid=723f5d56-ac33-4c94-8bb8-ee4c6dc93f60"},"vehicle_type_id":"4","last_reported":1750666618,"current_range_meters":13600,"station_id":"cpo3532slgdg3j2ikp40","pricing_plan_id":"cebpf4jnsgd1na2vs0mg"},{"bike_id":"30f3d1c9-9780-4218-8618-197b68390bc4","system_id":"levelo_inurba_marseille","lat":43.2959,"lon":5.36738,"is_reserved":false,"is_disabled":false,"rental_uris":{"android":"levelo://app?vid=30f3d1c9-9780-4218-8618-197b68390bc4","ios":"levelo://app?vid=30f3d1c9-9780-4218-8618-197b68390bc4"},"vehicle_type_id":"4","last_reported":1750666618,"current_range_meters":14000,"station_id":"ce4bgph2rcd13ifvqc2g","pricing_plan_id":"cebpf4jnsgd1na2vs0mg"},{"bike_id":"4a40667b-4f7d-4f73-877e-0aeb59603767","system_id":"levelo_inurba_marseille","lat":43.30148,"lon":5.37418,"is_reserved":false,"is_disabled":false,"rental_uris":{"android":"levelo://app?vid=4a40667b-4f7d-4f73-877e-0aeb59603767","ios":"levelo://app?vid=4a40667b-4f7d-4f73-877e-0aeb59603767"},"vehicle_type_id":"4","last_reported":1750666618,"current_range_meters":14000,"station_id":"ce4bgs92rcd13ifvqcc0","pricing_plan_id":"cebpf4jnsgd1na2vs0mg"},{"bike_id":"9a92f04c-8580-45e6-8177-eef468f86f11","system_id":"levelo_inurba_marseille","lat":43.323587,"lon":5.367508,"is_reserved":false,"is_disabled":false,"rental_uris":{"android":"levelo://app?vid=9a92f04c-8580-45e6-8177-eef468f86f11","ios":"levelo://app?vid=9a92f04c-8580-45e6-8177-eef468f86f11"},"vehicle_type_id":"4","last_reported":1750666618,"current_range_meters":14000,"station_id":"ce4bhsh2rcd13ifvqi2g","pricing_plan_id":"cebpf4jnsgd1na2vs0mg"},{"bike_id":"7cb998a7-332b-4e9a-8b86-269eafa665a9","system_id":"levelo_inurba_marseille","lat":43.29566,"lon":5.37541,"is_reserved":false,"is_disabled":false,"rental_uris":{"android":"levelo://app?vid=7cb998a7-332b-4e9a-8b86-269eafa665a9","ios":"levelo://app?vid=7cb998a7-332b-4e9a-8b86-269eafa665a9"},"vehicle_type_id":"4","last_reported":1750666618,"current_range_meters":14400,"station_id":"ce4bgh92rcd13ifvqb50","pricing_plan_id":"cebpf4jnsgd1na2vs0mg"},{"bike_id":"4904b44c-6d90-4b86-8256-ededaef0bd88","system_id":"levelo_inurba_marseille","lat":43.293,"lon":5.3746,"is_reserved":false,"is_disabled":false,"rental_uris":{"android":"levelo://app?vid=4904b44c-6d90-4b86-8256-ededaef0bd88","ios":"levelo://app?vid=4904b44c-6d90-4b86-8256-ededaef0bd88"},"vehicle_type_id":"4","last_reported":1750666618,"current_range_meters":14400,"station_id":"ce4bgi12rcd13ifvqb70","pricing_plan_id":"cebpf4jnsgd1na2vs0mg"},{"bike_id":"ed1f4af9-ac78-4506-8eac-3c727eefd5f2","system_id":"levelo_inurba_marseille","lat":43.24999,"lon":5.38938,"is_reserved":false,"is_disabled":false,"rental_uris":{"android":"levelo://app?vid=ed1f4af9-ac78-4506-8eac-3c727eefd5f2","ios":"levelo://app?vid=ed1f4af9-ac78-4506-8eac-3c727eefd5f2"},"vehicle_type_id":"4","last_reported":1750666618,"current_range_meters":14400,"station_id":"ce4bhgp2rcd13ifvqfd0","pricing_plan_id":"cebpf4jnsgd1na2vs0mg"},{"bike_id":"2d8309dc-864a-42ff-b64b-a09d6454ec0a","system_id":"levelo_inurba_marseille","lat":43.25915,"lon":5.40891,"is_reserved":false,"is_disabled":false,"rental_uris":{"android":"levelo://app?vid=2d8309dc-864a-42ff-b64b-a09d6454ec0a","ios":"levelo://app?vid=2d8309dc-864a-42ff-b64b-a09d6454ec0a"},"vehicle_type_id":"4","last_reported":1750666618,"current_range_meters":14400,"station_id":"ce4bhm92rcd13ifvqglg","pricing_plan_id":"cebpf4jnsgd1na2vs0mg"},{"bike_id":"3888fa23-eb37-4931-b9c1-282d72691eb7","system_id":"levelo_inurba_marseille","lat":43.26208,"lon":5.37448,"is_reserved":false,"is_disabled":false,"rental_uris":{"android":"levelo://app?vid=3888fa23-eb37-4931-b9c1-282d72691eb7","ios":"levelo://app?vid=3888fa23-eb37-4931-b9c1-282d72691eb7"},"vehicle_type_id":"4","last_reported":1750666618,"current_range_meters":14800,"station_id":"","pricing_plan_id":"cebpf4jnsgd1na2vs0mg"},{"bike_id":"e05346c1-82fd-428b-8024-1771643030e6","system_id":"levelo_inurba_marseille","lat":43.24991,"lon":5.38925,"is_reserved":false,"is_disabled":false,"rental_uris":{"android":"levelo://app?vid=e05346c1-82fd-428b-8024-1771643030e6","ios":"levelo://app?vid=e05346c1-82fd-428b-8024-1771643030e6"},"vehicle_type_id":"4","last_reported":1750666618,"current_range_meters":14800,"station_id":"ce4bhgp2rcd13ifvqfd0","pricing_plan_id":"cebpf4jnsgd1na2vs0mg"},{"bike_id":"a69156ca-7afd-4760-8d18-8e2581fdad03","system_id":"levelo_inurba_marseille","lat":43.22933,"lon":5.35377,"is_reserved":false,"is_disabled":false,"rental_uris":{"android":"levelo://app?vid=a69156ca-7afd-4760-8d18-8e2581fdad03","ios":"levelo://app?vid=a69156ca-7afd-4760-8d18-8e2581fdad03"},"vehicle_type_id":"4","last_reported":1750666618,"current_range_meters":14800,"station_id":"cpo3532slgdg3j2ikp40","pricing_plan_id":"cebpf4jnsgd1na2vs0mg"},{"bike_id":"5013ef4a-f658-4678-8b0a-cad8347f421f","system_id":"levelo_inurba_marseille","lat":43.27615,"lon":5.36112,"is_reserved":false,"is_disabled":false,"rental_uris":{"android":"levelo://app?vid=5013ef4a-f658-4678-8b0a-cad8347f421f","ios":"levelo://app?vid=5013ef4a-f658-4678-8b0a-cad8347f421f"},"vehicle_type_id":"4","last_reported":1750666618,"current_range_meters":15200,"station_id":"ce4bgj92rcd13ifvqbe0","pricing_plan_id":"cebpf4jnsgd1na2vs0mg"},{"bike_id":"119a8b0d-440b-4b59-878b-8fe305fd89f2","system_id":"levelo_inurba_marseille","lat":43.29843,"lon":5.36262,"is_reserved":false,"is_disabled":false,"rental_uris":{"android":"levelo://app?vid=119a8b0d-440b-4b59-878b-8fe305fd89f2","ios":"levelo://app?vid=119a8b0d-440b-4b59-878b-8fe305fd89f2"},"vehicle_type_id":"4","last_reported":1750666618,"current_range_meters":15200,"station_id":"ce4bgpp2rcd13ifvqc3g","pricing_plan_id":"cebpf4jnsgd1na2vs0mg"},{"bike_id":"f5f07c33-aaa4-43b2-8e0c-ec0f83f1ba64","system_id":"levelo_inurba_marseille","lat":43.30549,"lon":5.36711,"is_reserved":false,"is_disabled":false,"rental_uris":{"android":"levelo://app?vid=f5f07c33-aaa4-43b2-8e0c-ec0f83f1ba64","ios":"levelo://app?vid=f5f07c33-aaa4-43b2-8e0c-ec0f83f1ba64"},"vehicle_type_id":"4","last_reported":1750666618,"current_range_meters":15200,"station_id":"ce4bgrp2rcd13ifvqc9g","pricing_plan_id":"cebpf4jnsgd1na2vs0mg"},{"bike_id":"8b736aa6-b767-4d2a-8794-91a11a9ace52","system_id":"levelo_inurba_marseille","lat":43.23968,"lon":5.36623,"is_reserved":false,"is_disabled":false,"rental_uris":{"android":"levelo://app?vid=8b736aa6-b767-4d2a-8794-91a11a9ace52","ios":"levelo://app?vid=8b736aa6-b767-4d2a-8794-91a11a9ace52"},"vehicle_type_id":"4","last_reported":1750666618,"current_range_meters":15200,"station_id":"ce4bhi12rcd13ifvqfp0","pricing_plan_id":"cebpf4jnsgd1na2vs0mg"},{"bike_id":"3872daed-2eb9-4f74-8f6b-07f4619409ca","system_id":"levelo_inurba_marseille","lat":43.2416,"lon":5.39692,"is_reserved":false,"is_disabled":false,"rental_uris":{"android":"levelo://app?vid=3872daed-2eb9-4f74-8f6b-07f4619409ca","ios":"levelo://app?vid=3872daed-2eb9-4f74-8f6b-07f4619409ca"},"vehicle_type_id":"4","last_reported":1750666618,"current_range_meters":15200,"station_id":"ce4bhn12rcd13ifvqgpg","pricing_plan_id":"cebpf4jnsgd1na2vs0mg"},{"bike_id":"9ad43fe6-1b49-4ea3-9f06-a5733a9a82aa","system_id":"levelo_inurba_marseille","lat":43.211993,"lon":5.35069,"is_reserved":false,"is_disabled":false,"rental_uris":{"android":"levelo://app?vid=9ad43fe6-1b49-4ea3-9f06-a5733a9a82aa","ios":"levelo://app?vid=9ad43fe6-1b49-4ea3-9f06-a5733a9a82aa"},"vehicle_type_id":"4","last_reported":1750666618,"current_range_meters":16000,"station_id":"","pricing_plan_id":"cebpf4jnsgd1na2vs0mg"},{"bike_id":"d1e50195-3b98-4355-8033-d7cc97e2d52d","system_id":"levelo_inurba_marseille","lat":43.34657,"lon":5.36658,"is_reserved":false,"is_disabled":false,"rental_uris":{"android":"levelo://app?vid=d1e50195-3b98-4355-8033-d7cc97e2d52d","ios":"levelo://app?vid=d1e50195-3b98-4355-8033-d7cc97e2d52d"},"vehicle_type_id":"4","last_reported":1750666618,"current_range_meters":16000,"station_id":"","pricing_plan_id":"cebpf4jnsgd1na2vs0mg"},{"bike_id":"5d684edb-c875-4e0f-8e63-6c10dea559d2","system_id":"levelo_inurba_marseille","lat":43.30549,"lon":5.36712,"is_reserved":false,"is_disabled":false,"rental_uris":{"android":"levelo://app?vid=5d684edb-c875-4e0f-8e63-6c10dea559d2","ios":"levelo://app?vid=5d684edb-c875-4e0f-8e63-6c10dea559d2"},"vehicle_type_id":"4","last_reported":1750666618,"current_range_meters":16000,"station_id":"ce4bgrp2rcd13ifvqc9g","pricing_plan_id":"cebpf4jnsgd1na2vs0mg"},{"bike_id":"ebd3c8c2-0af1-46d4-9685-62ade917b8e9","system_id":"levelo_inurba_marseille","lat":43.3136,"lon":5.38501,"is_reserved":false,"is_disabled":false,"rental_uris":{"android":"levelo://app?vid=ebd3c8c2-0af1-46d4-9685-62ade917b8e9","ios":"levelo://app?vid=ebd3c8c2-0af1-46d4-9685-62ade917b8e9"},"vehicle_type_id":"4","last_reported":1750666618,"current_range_meters":16000,"station_id":"ce4bgt92rcd13ifvqcf0","pricing_plan_id":"cebpf4jnsgd1na2vs0mg"},{"bike_id":"5653d848-4e36-4c60-a876-ee4eef776af0","system_id":"levelo_inurba_marseille","lat":43.31365,"lon":5.38494,"is_reserved":false,"is_disabled":false,"rental_uris":{"android":"levelo://app?vid=5653d848-4e36-4c60-a876-ee4eef776af0","ios":"levelo://app?vid=5653d848-4e36-4c60-a876-ee4eef776af0"},"vehicle_type_id":"4","last_reported":1750666618,"current_range_meters":16000,"station_id":"ce4bgt92rcd13ifvqcf0","pricing_plan_id":"cebpf4jnsgd1na2vs0mg"},{"bike_id":"3b64e40f-ddf6-4633-8b61-603fcedebd34","system_id":"levelo_inurba_marseille","lat":43.27225,"lon":5.39196,"is_reserved":false,"is_disabled":false,"rental_uris":{"android":"levelo://app?vid=3b64e40f-ddf6-4633-8b61-603fcedebd34","ios":"levelo://app?vid=3b64e40f-ddf6-4633-8b61-603fcedebd34"},"vehicle_type_id":"4","last_reported":1750666618,"current_range_meters":16000,"station_id":"ce4bhhp2rcd13ifvqfm0","pricing_plan_id":"cebpf4jnsgd1na2vs0mg"},{"bike_id":"80992ce5-2fb8-445a-8580-b168bb468295","system_id":"levelo_inurba_marseille","lat":43.26198,"lon":5.37913,"is_reserved":false,"is_disabled":false,"rental_uris":{"android":"levelo://app?vid=80992ce5-2fb8-445a-8580-b168bb468295","ios":"levelo://app?vid=80992ce5-2fb8-445a-8580-b168bb468295"},"vehicle_type_id":"4","last_reported":1750666618,"current_range_meters":16000,"station_id":"ce4bhjp2rcd13ifvqg90","pricing_plan_id":"cebpf4jnsgd1na2vs0mg"},{"bike_id":"e3c98ea9-5ede-4f57-8f11-2e25041a9538","system_id":"levelo_inurba_marseille","lat":43.29895,"lon":5.43663,"is_reserved":false,"is_disabled":false,"rental_uris":{"android":"levelo://app?vid=e3c98ea9-5ede-4f57-8f11-2e25041a9538","ios":"levelo://app?vid=e3c98ea9-5ede-4f57-8f11-2e25041a9538"},"vehicle_type_id":"4","last_reported":1750666618,"current_range_meters":16000,"station_id":"ce4bhpp2rcd13ifvqhfg","pricing_plan_id":"cebpf4jnsgd1na2vs0mg"},{"bike_id":"c47bef4c-d94a-496c-90d9-5e8713a56614","system_id":"levelo_inurba_marseille","lat":43.31331,"lon":5.39693,"is_reserved":false,"is_disabled":false,"rental_uris":{"android":"levelo://app?vid=c47bef4c-d94a-496c-90d9-5e8713a56614","ios":"levelo://app?vid=c47bef4c-d94a-496c-90d9-5e8713a56614"},"vehicle_type_id":"4","last_reported":1750666618,"current_range_meters":16400,"station_id":"ce4bgvp2rcd13ifvqcu0","pricing_plan_id":"cebpf4jnsgd1na2vs0mg"},{"bike_id":"6a42d39f-0bd8-482c-bccc-97f7d0f86db8","system_id":"levelo_inurba_marseille","lat":43.23153,"lon":5.43719,"is_reserved":false,"is_disabled":false,"rental_uris":{"android":"levelo://app?vid=6a42d39f-0bd8-482c-bccc-97f7d0f86db8","ios":"levelo://app?vid=6a42d39f-0bd8-482c-bccc-97f7d0f86db8"},"vehicle_type_id":"4","last_reported":1750666618,"current_range_meters":16400,"station_id":"ce4bhmp2rcd13ifvqgog","pricing_plan_id":"cebpf4jnsgd1na2vs0mg"},{"bike_id":"04158eac-6850-4747-9bef-79c99c5778cb","system_id":"levelo_inurba_marseille","lat":43.32481,"lon":5.36567,"is_reserved":false,"is_disabled":false,"rental_uris":{"android":"levelo://app?vid=04158eac-6850-4747-9bef-79c99c5778cb","ios":"levelo://app?vid=04158eac-6850-4747-9bef-79c99c5778cb"},"vehicle_type_id":"4","last_reported":1750666618,"current_range_meters":16400,"station_id":"ce4bhs12rcd13ifvqhvg","pricing_plan_id":"cebpf4jnsgd1na2vs0mg"},{"bike_id":"3f5feefb-afac-4fae-bf96-2312f50939a4","system_id":"levelo_inurba_marseille","lat":43.21186,"lon":5.3507,"is_reserved":false,"is_disabled":false,"rental_uris":{"android":"levelo://app?vid=3f5feefb-afac-4fae-bf96-2312f50939a4","ios":"levelo://app?vid=3f5feefb-afac-4fae-bf96-2312f50939a4"},"vehicle_type_id":"4","last_reported":1750666618,"current_range_meters":16400,"station_id":"st_cvj6sg6p6f1abm77japg","pricing_plan_id":"cebpf4jnsgd1na2vs0mg"},{"bike_id":"0783249e-9f70-464a-b769-adb77239d765","system_id":"levelo_inurba_marseille","lat":43.21188,"lon":5.35072,"is_reserved":false,"is_disabled":false,"rental_uris":{"android":"levelo://app?vid=0783249e-9f70-464a-b769-adb77239d765","ios":"levelo://app?vid=0783249e-9f70-464a-b769-adb77239d765"},"vehicle_type_id":"4","last_reported":1750666618,"current_range_meters":16400,"station_id":"st_cvj6sg6p6f1abm77japg","pricing_plan_id":"cebpf4jnsgd1na2vs0mg"},{"bike_id":"73f46663-cade-4586-85db-53a6fbd907f2","system_id":"levelo_inurba_marseille","lat":43.29305,"lon":5.37186,"is_reserved":false,"is_disabled":false,"rental_uris":{"android":"levelo://app?vid=73f46663-cade-4586-85db-53a6fbd907f2","ios":"levelo://app?vid=73f46663-cade-4586-85db-53a6fbd907f2"},"vehicle_type_id":"4","last_reported":1750666618,"current_range_meters":16800,"station_id":"ce4bgh92rcd13ifvqb40","pricing_plan_id":"cebpf4jnsgd1na2vs0mg"},{"bike_id":"024a2f69-e54a-48f0-a7fa-b12fb8077d34","system_id":"levelo_inurba_marseille","lat":43.29682,"lon":5.37271,"is_reserved":false,"is_disabled":false,"rental_uris":{"android":"levelo://app?vid=024a2f69-e54a-48f0-a7fa-b12fb8077d34","ios":"levelo://app?vid=024a2f69-e54a-48f0-a7fa-b12fb8077d34"},"vehicle_type_id":"4","last_reported":1750666618,"current_range_meters":16800,"station_id":"ce4bgk12rcd13ifvqbj0","pricing_plan_id":"cebpf4jnsgd1na2vs0mg"},{"bike_id":"b571b3ac-b052-463f-86b2-86955416752f","system_id":"levelo_inurba_marseille","lat":43.31288,"lon":5.36927,"is_reserved":false,"is_disabled":false,"rental_uris":{"android":"levelo://app?vid=b571b3ac-b052-463f-86b2-86955416752f","ios":"levelo://app?vid=b571b3ac-b052-463f-86b2-86955416752f"},"vehicle_type_id":"4","last_reported":1750666618,"current_range_meters":16800,"station_id":"ce4bgl92rcd13ifvqbq0","pricing_plan_id":"cebpf4jnsgd1na2vs0mg"},{"bike_id":"b4f5d3e1-0e1d-48d4-b52a-49f3fb777ccb","system_id":"levelo_inurba_marseille","lat":43.31327,"lon":5.36733,"is_reserved":false,"is_disabled":false,"rental_uris":{"android":"levelo://app?vid=b4f5d3e1-0e1d-48d4-b52a-49f3fb777ccb","ios":"levelo://app?vid=b4f5d3e1-0e1d-48d4-b52a-49f3fb777ccb"},"vehicle_type_id":"4","last_reported":1750666618,"current_range_meters":16800,"station_id":"ce4bgr92rcd13ifvqc6g","pricing_plan_id":"cebpf4jnsgd1na2vs0mg"},{"bike_id":"2b0b2aee-ab3a-4279-b844-5b273928a086","system_id":"levelo_inurba_marseille","lat":43.30554,"lon":5.36704,"is_reserved":false,"is_disabled":false,"rental_uris":{"android":"levelo://app?vid=2b0b2aee-ab3a-4279-b844-5b273928a086","ios":"levelo://app?vid=2b0b2aee-ab3a-4279-b844-5b273928a086"},"vehicle_type_id":"4","last_reported":1750666618,"current_range_meters":16800,"station_id":"ce4bgrp2rcd13ifvqc9g","pricing_plan_id":"cebpf4jnsgd1na2vs0mg"},{"bike_id":"709c1451-0f01-4113-a733-ed7dbe8abbe7","system_id":"levelo_inurba_marseille","lat":43.30547,"lon":5.36544,"is_reserved":false,"is_disabled":false,"rental_uris":{"android":"levelo://app?vid=709c1451-0f01-4113-a733-ed7dbe8abbe7","ios":"levelo://app?vid=709c1451-0f01-4113-a733-ed7dbe8abbe7"},"vehicle_type_id":"4","last_reported":1750666618,"current_range_meters":16800,"station_id":"ce4bgs12rcd13ifvqcag","pricing_plan_id":"cebpf4jnsgd1na2vs0mg"},{"bike_id":"592e3e0b-f310-4492-acec-a7ed686f285c","system_id":"levelo_inurba_marseille","lat":43.31374,"lon":5.3849,"is_reserved":false,"is_disabled":false,"rental_uris":{"android":"levelo://app?vid=592e3e0b-f310-4492-acec-a7ed686f285c","ios":"levelo://app?vid=592e3e0b-f310-4492-acec-a7ed686f285c"},"vehicle_type_id":"4","last_reported":1750666618,"current_range_meters":16800,"station_id":"ce4bgt92rcd13ifvqcf0","pricing_plan_id":"cebpf4jnsgd1na2vs0mg"},{"bike_id":"8259fed8-7eaf-475d-8372-218916f96ee4","system_id":"levelo_inurba_marseille","lat":43.26679,"lon":5.38262,"is_reserved":false,"is_disabled":false,"rental_uris":{"android":"levelo://app?vid=8259fed8-7eaf-475d-8372-218916f96ee4","ios":"levelo://app?vid=8259fed8-7eaf-475d-8372-218916f96ee4"},"vehicle_type_id":"4","last_reported":1750666618,"current_range_meters":16800,"station_id":"ce4bhg92rcd13ifvqf90","pricing_plan_id":"cebpf4jnsgd1na2vs0mg"},{"bike_id":"b8dd004e-4f1d-46e6-acd9-b6be87131387","system_id":"levelo_inurba_marseille","lat":43.32459,"lon":5.36528,"is_reserved":false,"is_disabled":false,"rental_uris":{"android":"levelo://app?vid=b8dd004e-4f1d-46e6-acd9-b6be87131387","ios":"levelo://app?vid=b8dd004e-4f1d-46e6-acd9-b6be87131387"},"vehicle_type_id":"4","last_reported":1750666618,"current_range_meters":16800,"station_id":"ce4bhs12rcd13ifvqhvg","pricing_plan_id":"cebpf4jnsgd1na2vs0mg"},{"bike_id":"9213f417-38fe-4ac6-ba73-fa7495d6b748","system_id":"levelo_inurba_marseille","lat":43.24166,"lon":5.363957,"is_reserved":false,"is_disabled":false,"rental_uris":{"android":"levelo://app?vid=9213f417-38fe-4ac6-ba73-fa7495d6b748","ios":"levelo://app?vid=9213f417-38fe-4ac6-ba73-fa7495d6b748"},"vehicle_type_id":"4","last_reported":1750666618,"current_range_meters":16800,"station_id":"cpo36qri1sfpv3e86is0","pricing_plan_id":"cebpf4jnsgd1na2vs0mg"},{"bike_id":"e77b75b6-d130-43a3-abb4-254740d44e61","system_id":"levelo_inurba_marseille","lat":43.24158,"lon":5.364,"is_reserved":false,"is_disabled":false,"rental_uris":{"android":"levelo://app?vid=e77b75b6-d130-43a3-abb4-254740d44e61","ios":"levelo://app?vid=e77b75b6-d130-43a3-abb4-254740d44e61"},"vehicle_type_id":"4","last_reported":1750666618,"current_range_meters":16800,"station_id":"cpo36qri1sfpv3e86is0","pricing_plan_id":"cebpf4jnsgd1na2vs0mg"},{"bike_id":"9be9f551-ccbc-4b74-87bd-155527b427b8","system_id":"levelo_inurba_marseille","lat":43.30948,"lon":5.3684,"is_reserved":false,"is_disabled":false,"rental_uris":{"android":"levelo://app?vid=9be9f551-ccbc-4b74-87bd-155527b427b8","ios":"levelo://app?vid=9be9f551-ccbc-4b74-87bd-155527b427b8"},"vehicle_type_id":"4","last_reported":1750666618,"current_range_meters":17200,"station_id":"ce4bgn92rcd13ifvqbvg","pricing_plan_id":"cebpf4jnsgd1na2vs0mg"},{"bike_id":"fbd0b782-429b-43bb-8841-44d7d21a8d6a","system_id":"levelo_inurba_marseille","lat":43.3055,"lon":5.36512,"is_reserved":false,"is_disabled":false,"rental_uris":{"android":"levelo://app?vid=fbd0b782-429b-43bb-8841-44d7d21a8d6a","ios":"levelo://app?vid=fbd0b782-429b-43bb-8841-44d7d21a8d6a"},