{"last_updated":1741832213,"ttl":60,"version":"2.2","data":{"bikes":[{"bike_id":"c9c61a71-3397-471c-a817-c0fe4aeed193","system_id":"levelo_inurba_marseille","lat":43.28552,"lon":5.395,"is_reserved":false,"is_disabled":true,"rental_uris":{"android":"levelo://app?vid=c9c61a71-3397-471c-a817-c0fe4aeed193","ios":"levelo://app?vid=c9c61a71-3397-471c-a817-c0fe4aeed193"},"vehicle_type_id":"4","last_reported":1741832213,"current_range_meters":2800,"station_id":"ce4bh292rcd13ifvqdg0","pricing_plan_id":"cebpf4jnsgd1na2vs0mg"},{"bike_id":"ef202d0e-dca9-4b8a-b2ef-a3e69d908c04","system_id":"levelo_inurba_marseille","lat":43.26229,"lon":5.40466,"is_reserved":false,"is_disabled":false,"rental_uris":{"android":"levelo://app?vid=ef202d0e-dca9-4b8a-b2ef-a3e69d908c04","ios":"levelo://app?vid=ef202d0e-dca9-4b8a-b2ef-a3e69d908c04"},"vehicle_type_id":"4","last_reported":1741832213,"current_range_meters":2800,"station_id":"","pricing_plan_id":"cebpf4jnsgd1na2vs0mg"},{"bike_id":"6d48744b-016f-4f38-860e-d42b85e12056","system_id":"levelo_inurba_marseille","lat":43.275,"lon":5.4246,"is_reserved":false,"is_disabled":false,"rental_uris":{"android":"levelo://app?vid=6d48744b-016f-4f38-860e-d42b85e12056","ios":"levelo://app?vid=6d48744b-016f-4f38-860e-d42b85e12056"},"vehicle_type_id":"4","last_reported":1741832213,"current_range_meters":2800,"station_id":"ce4bhn92rcd13ifvqgrg","pricing_plan_id":"cebpf4jnsgd1na2vs0mg"},{"bike_id":"3b41a26c-8e5a-414f-b3a5-4f3f861c1cdf","system_id":"levelo_inurba_marseille","lat":43.26266,"lon":5.40438,"is_reserved":false,"is_disabled":false,"rental_uris":{"android":"levelo://app?vid=3b41a26c-8e5a-414f-b3a5-4f3f861c1cdf","ios":"levelo://app?vid=3b41a26c-8e5a-414f-b3a5-4f3f861c1cdf"},"vehicle_type_id":"4","last_reported":1741832213,"current_range_meters":2800,"station_id":"","pricing_plan_id":"cebpf4jnsgd1na2vs0mg"},{"bike_id":"80771939-f406-42f7-81c5-33180fd8a338","system_id":"levelo_inurba_marseille","lat":43.23201,"lon":5.35548,"is_reserved":false,"is_disabled":false,"rental_uris":{"android":"levelo://app?vid=80771939-f406-42f7-81c5-33180fd8a338","ios":"levelo://app?vid=80771939-f406-42f7-81c5-33180fd8a338"},"vehicle_type_id":"4","last_reported":1741832213,"current_range_meters":2800,"station_id":"ce4bhu92rcd13ifvqi70","pricing_plan_id":"cebpf4jnsgd1na2vs0mg"},{"bike_id":"8447b2d4-400b-4f74-8048-25cf7f1ca261","system_id":"levelo_inurba_marseille","lat":43.23195,"lon":5.39978,"is_reserved":false,"is_disabled":false,"rental_uris":{"android":"levelo://app?vid=8447b2d4-400b-4f74-8048-25cf7f1ca261","ios":"levelo://app?vid=8447b2d4-400b-4f74-8048-25cf7f1ca261"},"vehicle_type_id":"4","last_reported":1741832213,"current_range_meters":3200,"station_id":"ce4bhn12rcd13ifvqgqg","pricing_plan_id":"cebpf4jnsgd1na2vs0mg"},{"bike_id":"e8ebfdbe-ea63-4592-a79a-3d110a8bd4cb","system_id":"levelo_inurba_marseille","lat":43.28156,"lon":5.42638,"is_reserved":false,"is_disabled":false,"rental_uris":{"android":"levelo://app?vid=e8ebfdbe-ea63-4592-a79a-3d110a8bd4cb","ios":"levelo://app?vid=e8ebfdbe-ea63-4592-a79a-3d110a8bd4cb"},"vehicle_type_id":"4","last_reported":1741832213,"current_range_meters":3200,"station_id":"ce4bhnh2rcd13ifvqgug","pricing_plan_id":"cebpf4jnsgd1na2vs0mg"},{"bike_id":"89f5252d-ca6b-4c4a-8924-1e95cb6ec267","system_id":"levelo_inurba_marseille","lat":43.23952,"lon":5.3664,"is_reserved":false,"is_disabled":false,"rental_uris":{"android":"levelo://app?vid=89f5252d-ca6b-4c4a-8924-1e95cb6ec267","ios":"levelo://app?vid=89f5252d-ca6b-4c4a-8924-1e95cb6ec267"},"vehicle_type_id":"4","last_reported":1741832213,"current_range_meters":3200,"station_id":"ce4bhi12rcd13ifvqfp0","pricing_plan_id":"cebpf4jnsgd1na2vs0mg"},{"bike_id":"94eb9559-8c4f-4d60-98ac-469a5ce58b64","system_id":"levelo_inurba_marseille","lat":43.24656,"lon":5.38879,"is_reserved":false,"is_disabled":false,"rental_uris":{"android":"levelo://app?vid=94eb9559-8c4f-4d60-98ac-469a5ce58b64","ios":"levelo://app?vid=94eb9559-8c4f-4d60-98ac-469a5ce58b64"},"vehicle_type_id":"4","last_reported":1741832213,"current_range_meters":3200,"station_id":"ce4bhg12rcd13ifvqf60","pricing_plan_id":"cebpf4jnsgd1na2vs0mg"},{"bike_id":"22b98247-434c-4803-9a50-f2f855a35c40","system_id":"levelo_inurba_marseille","lat":43.25097,"lon":5.39521,"is_reserved":false,"is_disabled":false,"rental_uris":{"android":"levelo://app?vid=22b98247-434c-4803-9a50-f2f855a35c40","ios":"levelo://app?vid=22b98247-434c-4803-9a50-f2f855a35c40"},"vehicle_type_id":"4","last_reported":1741832213,"current_range_meters":3600,"station_id":"ce4bhm12rcd13ifvqgkg","pricing_plan_id":"cebpf4jnsgd1na2vs0mg"},{"bike_id":"26a717af-e6c4-4ae5-8714-7c03042cc345","system_id":"levelo_inurba_marseille","lat":43.24088,"lon":5.37738,"is_reserved":false,"is_disabled":false,"rental_uris":{"android":"levelo://app?vid=26a717af-e6c4-4ae5-8714-7c03042cc345","ios":"levelo://app?vid=26a717af-e6c4-4ae5-8714-7c03042cc345"},"vehicle_type_id":"4","last_reported":1741832213,"current_range_meters":3600,"station_id":"ce4bhnp2rcd13ifvqgvg","pricing_plan_id":"cebpf4jnsgd1na2vs0mg"},{"bike_id":"58d1b5b3-d322-4418-97d0-3066ec3d9afc","system_id":"levelo_inurba_marseille","lat":43.231971,"lon":5.355398,"is_reserved":false,"is_disabled":false,"rental_uris":{"android":"levelo://app?vid=58d1b5b3-d322-4418-97d0-3066ec3d9afc","ios":"levelo://app?vid=58d1b5b3-d322-4418-97d0-3066ec3d9afc"},"vehicle_type_id":"4","last_reported":1741832213,"current_range_meters":3600,"station_id":"ce4bhu92rcd13ifvqi70","pricing_plan_id":"cebpf4jnsgd1na2vs0mg"},{"bike_id":"df709620-a118-4505-9780-01081510aa06","system_id":"levelo_inurba_marseille","lat":43.2406,"lon":5.37756,"is_reserved":false,"is_disabled":false,"rental_uris":{"android":"levelo://app?vid=df709620-a118-4505-9780-01081510aa06","ios":"levelo://app?vid=df709620-a118-4505-9780-01081510aa06"},"vehicle_type_id":"4","last_reported":1741832213,"current_range_meters":4000,"station_id":"ce4bhnp2rcd13ifvqgvg","pricing_plan_id":"cebpf4jnsgd1na2vs0mg"},{"bike_id":"bd0dd24d-2909-4c33-8151-ab5f1a6c3ddd","system_id":"levelo_inurba_marseille","lat":43.28423,"lon":5.39153,"is_reserved":false,"is_disabled":true,"rental_uris":{"android":"levelo://app?vid=bd0dd24d-2909-4c33-8151-ab5f1a6c3ddd","ios":"levelo://app?vid=bd0dd24d-2909-4c33-8151-ab5f1a6c3ddd"},"vehicle_type_id":"4","last_reported":1741832213,"current_range_meters":4000,"station_id":"ce4bhoh2rcd13ifvqh5g","pricing_plan_id":"cebpf4jnsgd1na2vs0mg"},{"bike_id":"5eef5338-ff8a-466a-999e-0f162b00ff22","system_id":"levelo_inurba_marseille","lat":43.24545,"lon":5.39524,"is_reserved":false,"is_disabled":false,"rental_uris":{"android":"levelo://app?vid=5eef5338-ff8a-466a-999e-0f162b00ff22","ios":"levelo://app?vid=5eef5338-ff8a-466a-999e-0f162b00ff22"},"vehicle_type_id":"4","last_reported":1741832213,"current_range_meters":4400,"station_id":"ce4bhlp2rcd13ifvqgjg","pricing_plan_id":"cebpf4jnsgd1na2vs0mg"},{"bike_id":"600eceee-4e0b-43df-8f60-e66cd0890f69","system_id":"levelo_inurba_marseille","lat":43.24389,"lon":5.37041,"is_reserved":false,"is_disabled":false,"rental_uris":{"android":"levelo://app?vid=600eceee-4e0b-43df-8f60-e66cd0890f69","ios":"levelo://app?vid=600eceee-4e0b-43df-8f60-e66cd0890f69"},"vehicle_type_id":"4","last_reported":1741832213,"current_range_meters":4400,"station_id":"ce4bhhh2rcd13ifvqfk0","pricing_plan_id":"cebpf4jnsgd1na2vs0mg"},{"bike_id":"241d79a7-8164-4ee5-8d3f-2565e2e0b3e8","system_id":"levelo_inurba_marseille","lat":43.3135,"lon":5.3794,"is_reserved":false,"is_disabled":false,"rental_uris":{"android":"levelo://app?vid=241d79a7-8164-4ee5-8d3f-2565e2e0b3e8","ios":"levelo://app?vid=241d79a7-8164-4ee5-8d3f-2565e2e0b3e8"},"vehicle_type_id":"4","last_reported":1741832213,"current_range_meters":4800,"station_id":"","pricing_plan_id":"cebpf4jnsgd1na2vs0mg"},{"bike_id":"1bb5dae5-2cdb-43ae-b04c-dad911982ded","system_id":"levelo_inurba_marseille","lat":43.25111,"lon":5.40314,"is_reserved":false,"is_disabled":false,"rental_uris":{"android":"levelo://app?vid=1bb5dae5-2cdb-43ae-b04c-dad911982ded","ios":"levelo://app?vid=1bb5dae5-2cdb-43ae-b04c-dad911982ded"},"vehicle_type_id":"4","last_reported":1741832213,"current_range_meters":4800,"station_id":"ce4bhlh2rcd13ifvqgig","pricing_plan_id":"cebpf4jnsgd1na2vs0mg"},{"bike_id":"b711309a-f98a-45df-bf16-1b07ecdae25e","system_id":"levelo_inurba_marseille","lat":43.30631,"lon":5.40095,"is_reserved":false,"is_disabled":false,"rental_uris":{"android":"levelo://app?vid=b711309a-f98a-45df-bf16-1b07ecdae25e","ios":"levelo://app?vid=b711309a-f98a-45df-bf16-1b07ecdae25e"},"vehicle_type_id":"4","last_reported":1741832213,"current_range_meters":4800,"station_id":"ce4bh112rcd13ifvqda0","pricing_plan_id":"cebpf4jnsgd1na2vs0mg"},{"bike_id":"f43a547a-a63f-466e-891d-16f53f2a7257","system_id":"levelo_inurba_marseille","lat":43.28045,"lon":5.36927,"is_reserved":false,"is_disabled":false,"rental_uris":{"android":"levelo://app?vid=f43a547a-a63f-466e-891d-16f53f2a7257","ios":"levelo://app?vid=f43a547a-a63f-466e-891d-16f53f2a7257"},"vehicle_type_id":"4","last_reported":1741832213,"current_range_meters":4800,"station_id":"ce4bha12rcd13ifvqef0","pricing_plan_id":"cebpf4jnsgd1na2vs0mg"},{"bike_id":"f640465e-8c9e-425a-8e36-08d8d5201bf6","system_id":"levelo_inurba_marseille","lat":43.23189,"lon":5.3554,"is_reserved":false,"is_disabled":false,"rental_uris":{"android":"levelo://app?vid=f640465e-8c9e-425a-8e36-08d8d5201bf6","ios":"levelo://app?vid=f640465e-8c9e-425a-8e36-08d8d5201bf6"},"vehicle_type_id":"4","last_reported":1741832213,"current_range_meters":4800,"station_id":"ce4bhu92rcd13ifvqi70","pricing_plan_id":"cebpf4jnsgd1na2vs0mg"},{"bike_id":"53bbc677-f662-4a74-ab20-889cce9f6bff","system_id":"levelo_inurba_marseille","lat":43.23179,"lon":5.39999,"is_reserved":false,"is_disabled":false,"rental_uris":{"android":"levelo://app?vid=53bbc677-f662-4a74-ab20-889cce9f6bff","ios":"levelo://app?vid=53bbc677-f662-4a74-ab20-889cce9f6bff"},"vehicle_type_id":"4","last_reported":1741832213,"current_range_meters":5600,"station_id":"ce4bhn12rcd13ifvqgqg","pricing_plan_id":"cebpf4jnsgd1na2vs0mg"},{"bike_id":"e649e2d0-af54-4ce5-b5f7-1fd68a3b0a85","system_id":"levelo_inurba_marseille","lat":43.28154,"lon":5.42641,"is_reserved":false,"is_disabled":false,"rental_uris":{"android":"levelo://app?vid=e649e2d0-af54-4ce5-b5f7-1fd68a3b0a85","ios":"levelo://app?vid=e649e2d0-af54-4ce5-b5f7-1fd68a3b0a85"},"vehicle_type_id":"4","last_reported":1741832213,"current_range_meters":5600,"station_id":"ce4bhnh2rcd13ifvqgug","pricing_plan_id":"cebpf4jnsgd1na2vs0mg"},{"bike_id":"eb08c81c-894a-402c-9c31-f88a336186d4","system_id":"levelo_inurba_marseille","lat":43.31227,"lon":5.36856,"is_reserved":false,"is_disabled":false,"rental_uris":{"android":"levelo://app?vid=eb08c81c-894a-402c-9c31-f88a336186d4","ios":"levelo://app?vid=eb08c81c-894a-402c-9c31-f88a336186d4"},"vehicle_type_id":"4","last_reported":1741832213,"current_range_meters":5600,"station_id":"ce4bgl92rcd13ifvqbq0","pricing_plan_id":"cebpf4jnsgd1na2vs0mg"},{"bike_id":"e79b4c35-5d5e-4e09-99ae-f045e454b792","system_id":"levelo_inurba_marseille","lat":43.24813,"lon":5.37459,"is_reserved":false,"is_disabled":false,"rental_uris":{"android":"levelo://app?vid=e79b4c35-5d5e-4e09-99ae-f045e454b792","ios":"levelo://app?vid=e79b4c35-5d5e-4e09-99ae-f045e454b792"},"vehicle_type_id":"4","last_reported":1741832213,"current_range_meters":5600,"station_id":"ce4bhgh2rcd13ifvqfb0","pricing_plan_id":"cebpf4jnsgd1na2vs0mg"},{"bike_id":"fe2df0c6-5c80-48e4-8f5a-0f265c162888","system_id":"levelo_inurba_marseille","lat":43.27941,"lon":5.41048,"is_reserved":false,"is_disabled":false,"rental_uris":{"android":"levelo://app?vid=fe2df0c6-5c80-48e4-8f5a-0f265c162888","ios":"levelo://app?vid=fe2df0c6-5c80-48e4-8f5a-0f265c162888"},"vehicle_type_id":"4","last_reported":1741832213,"current_range_meters":6000,"station_id":"ce4bhnp2rcd13ifvqh0g","pricing_plan_id":"cebpf4jnsgd1na2vs0mg"},{"bike_id":"e469069c-50d3-432e-8cd5-d88a0d60c085","system_id":"levelo_inurba_marseille","lat":43.30797,"lon":5.3816,"is_reserved":false,"is_disabled":false,"rental_uris":{"android":"levelo://app?vid=e469069c-50d3-432e-8cd5-d88a0d60c085","ios":"levelo://app?vid=e469069c-50d3-432e-8cd5-d88a0d60c085"},"vehicle_type_id":"4","last_reported":1741832213,"current_range_meters":6000,"station_id":"ce4bgt12rcd13ifvqce0","pricing_plan_id":"cebpf4jnsgd1na2vs0mg"},{"bike_id":"985ba300-542a-4309-8532-765e28bc8981","system_id":"levelo_inurba_marseille","lat":43.30823,"lon":5.36987,"is_reserved":false,"is_disabled":false,"rental_uris":{"android":"levelo://app?vid=985ba300-542a-4309-8532-765e28bc8981","ios":"levelo://app?vid=985ba300-542a-4309-8532-765e28bc8981"},"vehicle_type_id":"4","last_reported":1741832213,"current_range_meters":6000,"station_id":"","pricing_plan_id":"cebpf4jnsgd1na2vs0mg"},{"bike_id":"44ac2f0b-f0c4-43be-9a21-9dfeb1228fbc","system_id":"levelo_inurba_marseille","lat":43.28081,"lon":5.39646,"is_reserved":false,"is_disabled":false,"rental_uris":{"android":"levelo://app?vid=44ac2f0b-f0c4-43be-9a21-9dfeb1228fbc","ios":"levelo://app?vid=44ac2f0b-f0c4-43be-9a21-9dfeb1228fbc"},"vehicle_type_id":"4","last_reported":1741832213,"current_range_meters":6000,"station_id":"ce4bho12rcd13ifvqh2g","pricing_plan_id":"cebpf4jnsgd1na2vs0mg"},{"bike_id":"a58f07f0-b33f-4953-ab0c-f29dc5595b36","system_id":"levelo_inurba_marseille","lat":43.29007,"lon":5.38119,"is_reserved":false,"is_disabled":true,"rental_uris":{"android":"levelo://app?vid=a58f07f0-b33f-4953-ab0c-f29dc5595b36","ios":"levelo://app?vid=a58f07f0-b33f-4953-ab0c-f29dc5595b36"},"vehicle_type_id":"4","last_reported":1741832213,"current_range_meters":6400,"station_id":"ce4bh4p2rcd13ifvqe1g","pricing_plan_id":"cebpf4jnsgd1na2vs0mg"},{"bike_id":"415e7a31-245d-4ead-9f33-dad092a04302","system_id":"levelo_inurba_marseille","lat":43.230634,"lon":5.354896,"is_reserved":false,"is_disabled":false,"rental_uris":{"android":"levelo://app?vid=415e7a31-245d-4ead-9f33-dad092a04302","ios":"levelo://app?vid=415e7a31-245d-4ead-9f33-dad092a04302"},"vehicle_type_id":"4","last_reported":1741832213,"current_range_meters":6400,"station_id":"cpo3342slgdg3j2ifvpg","pricing_plan_id":"cebpf4jnsgd1na2vs0mg"},{"bike_id":"60addeb5-8b0b-4949-b3a6-5f197b8d4abb","system_id":"levelo_inurba_marseille","lat":43.33353,"lon":5.396391,"is_reserved":false,"is_disabled":false,"rental_uris":{"android":"levelo://app?vid=60addeb5-8b0b-4949-b3a6-5f197b8d4abb","ios":"levelo://app?vid=60addeb5-8b0b-4949-b3a6-5f197b8d4abb"},"vehicle_type_id":"4","last_reported":1741832213,"current_range_meters":6400,"station_id":"","pricing_plan_id":"cebpf4jnsgd1na2vs0mg"},{"bike_id":"60942055-d2d8-4aa9-a28b-001380041759","system_id":"levelo_inurba_marseille","lat":43.282724,"lon":5.350726,"is_reserved":false,"is_disabled":false,"rental_uris":{"android":"levelo://app?vid=60942055-d2d8-4aa9-a28b-001380041759","ios":"levelo://app?vid=60942055-d2d8-4aa9-a28b-001380041759"},"vehicle_type_id":"4","last_reported":1741832213,"current_range_meters":6400,"station_id":"ce4bhbp2rcd13ifvqerg","pricing_plan_id":"cebpf4jnsgd1na2vs0mg"},{"bike_id":"c8424a2d-efd9-4ccf-9fc2-6fdb41afc986","system_id":"levelo_inurba_marseille","lat":43.28153,"lon":5.42641,"is_reserved":false,"is_disabled":false,"rental_uris":{"android":"levelo://app?vid=c8424a2d-efd9-4ccf-9fc2-6fdb41afc986","ios":"levelo://app?vid=c8424a2d-efd9-4ccf-9fc2-6fdb41afc986"},"vehicle_type_id":"4","last_reported":1741832213,"current_range_meters":6400,"station_id":"ce4bhnh2rcd13ifvqgug","pricing_plan_id":"cebpf4jnsgd1na2vs0mg"},{"bike_id":"da440fc7-ae9a-4b21-83c8-a8e662a14c16","system_id":"levelo_inurba_marseille","lat":43.25515,"lon":5.37626,"is_reserved":false,"is_disabled":true,"rental_uris":{"android":"levelo://app?vid=da440fc7-ae9a-4b21-83c8-a8e662a14c16","ios":"levelo://app?vid=da440fc7-ae9a-4b21-83c8-a8e662a14c16"},"vehicle_type_id":"4","last_reported":1741832213,"current_range_meters":6400,"station_id":"ce4bhh12rcd13ifvqff0","pricing_plan_id":"cebpf4jnsgd1na2vs0mg"},{"bike_id":"4b07b260-5fba-4534-bdee-f9c50db59047","system_id":"levelo_inurba_marseille","lat":43.329316,"lon":5.390296,"is_reserved":false,"is_disabled":false,"rental_uris":{"android":"levelo://app?vid=4b07b260-5fba-4534-bdee-f9c50db59047","ios":"levelo://app?vid=4b07b260-5fba-4534-bdee-f9c50db59047"},"vehicle_type_id":"4","last_reported":1741832213,"current_range_meters":6400,"station_id":"","pricing_plan_id":"cebpf4jnsgd1na2vs0mg"},{"bike_id":"e12be538-6dde-4604-98c7-f66a323a5270","system_id":"levelo_inurba_marseille","lat":43.23064,"lon":5.35487,"is_reserved":false,"is_disabled":false,"rental_uris":{"android":"levelo://app?vid=e12be538-6dde-4604-98c7-f66a323a5270","ios":"levelo://app?vid=e12be538-6dde-4604-98c7-f66a323a5270"},"vehicle_type_id":"4","last_reported":1741832213,"current_range_meters":6400,"station_id":"cpo3342slgdg3j2ifvpg","pricing_plan_id":"cebpf4jnsgd1na2vs0mg"},{"bike_id":"feb4b9df-ca5a-441d-8892-405597e7da99","system_id":"levelo_inurba_marseille","lat":43.23047,"lon":5.35487,"is_reserved":false,"is_disabled":false,"rental_uris":{"android":"levelo://app?vid=feb4b9df-ca5a-441d-8892-405597e7da99","ios":"levelo://app?vid=feb4b9df-ca5a-441d-8892-405597e7da99"},"vehicle_type_id":"4","last_reported":1741832213,"current_range_meters":6400,"station_id":"cpo3342slgdg3j2ifvpg","pricing_plan_id":"cebpf4jnsgd1na2vs0mg"},{"bike_id":"ca22ef6f-f9d0-47ed-8a5b-41482f4ea577","system_id":"levelo_inurba_marseille","lat":43.29198,"lon":5.39325,"is_reserved":false,"is_disabled":false,"rental_uris":{"android":"levelo://app?vid=ca22ef6f-f9d0-47ed-8a5b-41482f4ea577","ios":"levelo://app?vid=ca22ef6f-f9d0-47ed-8a5b-41482f4ea577"},"vehicle_type_id":"4","last_reported":1741832213,"current_range_meters":6800,"station_id":"ce4bh192rcd13ifvqdd0","pricing_plan_id":"cebpf4jnsgd1na2vs0mg"},{"bike_id":"72de4c85-7223-490f-9219-5d9d46436df5","system_id":"levelo_inurba_marseille","lat":43.33163,"lon":5.39452,"is_reserved":false,"is_disabled":false,"rental_uris":{"android":"levelo://app?vid=72de4c85-7223-490f-9219-5d9d46436df5","ios":"levelo://app?vid=72de4c85-7223-490f-9219-5d9d46436df5"},"vehicle_type_id":"4","last_reported":1741832213,"current_range_meters":6800,"station_id":"","pricing_plan_id":"cebpf4jnsgd1na2vs0mg"},{"bike_id":"ef27e8a3-0ddb-45d6-8393-ba5ac76541f6","system_id":"levelo_inurba_marseille","lat":43.23189,"lon":5.3999,"is_reserved":false,"is_disabled":false,"rental_uris":{"android":"levelo://app?vid=ef27e8a3-0ddb-45d6-8393-ba5ac76541f6","ios":"levelo://app?vid=ef27e8a3-0ddb-45d6-8393-ba5ac76541f6"},"vehicle_type_id":"4","last_reported":1741832213,"current_range_meters":6800,"station_id":"ce4bhn12rcd13ifvqgqg","pricing_plan_id":"cebpf4jnsgd1na2vs0mg"},{"bike_id":"fc959b8d-1341-494f-98e8-b88bdc42e5fd","system_id":"levelo_inurba_marseille","lat":43.31992,"lon":5.38146,"is_reserved":false,"is_disabled":false,"rental_uris":{"android":"levelo://app?vid=fc959b8d-1341-494f-98e8-b88bdc42e5fd","ios":"levelo://app?vid=fc959b8d-1341-494f-98e8-b88bdc42e5fd"},"vehicle_type_id":"4","last_reported":1741832213,"current_range_meters":6800,"station_id":"ce4bhr12rcd13ifvqhpg","pricing_plan_id":"cebpf4jnsgd1na2vs0mg"},{"bike_id":"05388ace-665a-4114-a828-939b708a2589","system_id":"levelo_inurba_marseille","lat":43.231917,"lon":5.399766,"is_reserved":false,"is_disabled":false,"rental_uris":{"android":"levelo://app?vid=05388ace-665a-4114-a828-939b708a2589","ios":"levelo://app?vid=05388ace-665a-4114-a828-939b708a2589"},"vehicle_type_id":"4","last_reported":1741832213,"current_range_meters":6800,"station_id":"ce4bhn12rcd13ifvqgqg","pricing_plan_id":"cebpf4jnsgd1na2vs0mg"},{"bike_id":"4abe0b72-3e42-40da-aa7c-65e81840531b","system_id":"levelo_inurba_marseille","lat":43.24647,"lon":5.39594,"is_reserved":false,"is_disabled":false,"rental_uris":{"android":"levelo://app?vid=4abe0b72-3e42-40da-aa7c-65e81840531b","ios":"levelo://app?vid=4abe0b72-3e42-40da-aa7c-65e81840531b"},"vehicle_type_id":"4","last_reported":1741832213,"current_range_meters":6800,"station_id":"","pricing_plan_id":"cebpf4jnsgd1na2vs0mg"},{"bike_id":"6d6ee278-de07-4c7e-8835-99d4d94307ac","system_id":"levelo_inurba_marseille","lat":43.27194,"lon":5.40969,"is_reserved":false,"is_disabled":false,"rental_uris":{"android":"levelo://app?vid=6d6ee278-de07-4c7e-8835-99d4d94307ac","ios":"levelo://app?vid=6d6ee278-de07-4c7e-8835-99d4d94307ac"},"vehicle_type_id":"4","last_reported":1741832213,"current_range_meters":7200,"station_id":"ce4bhl12rcd13ifvqgf0","pricing_plan_id":"cebpf4jnsgd1na2vs0mg"},{"bike_id":"2a7a579a-d586-4021-8122-38ee6c198b27","system_id":"levelo_inurba_marseille","lat":43.25097,"lon":5.40311,"is_reserved":false,"is_disabled":false,"rental_uris":{"android":"levelo://app?vid=2a7a579a-d586-4021-8122-38ee6c198b27","ios":"levelo://app?vid=2a7a579a-d586-4021-8122-38ee6c198b27"},"vehicle_type_id":"4","last_reported":1741832213,"current_range_meters":7200,"station_id":"ce4bhlh2rcd13ifvqgig","pricing_plan_id":"cebpf4jnsgd1na2vs0mg"},{"bike_id":"4bd1d516-27fc-4a7a-a82b-0dd452c88ab3","system_id":"levelo_inurba_marseille","lat":43.2749,"lon":5.42452,"is_reserved":false,"is_disabled":false,"rental_uris":{"android":"levelo://app?vid=4bd1d516-27fc-4a7a-a82b-0dd452c88ab3","ios":"levelo://app?vid=4bd1d516-27fc-4a7a-a82b-0dd452c88ab3"},"vehicle_type_id":"4","last_reported":1741832213,"current_range_meters":7200,"station_id":"ce4bhn92rcd13ifvqgrg","pricing_plan_id":"cebpf4jnsgd1na2vs0mg"},{"bike_id":"c4df4535-7d31-495a-82fb-c042b3676ebe","system_id":"levelo_inurba_marseille","lat":43.323435,"lon":5.40616,"is_reserved":false,"is_disabled":false,"rental_uris":{"android":"levelo://app?vid=c4df4535-7d31-495a-82fb-c042b3676ebe","ios":"levelo://app?vid=c4df4535-7d31-495a-82fb-c042b3676ebe"},"vehicle_type_id":"4","last_reported":1741832213,"current_range_meters":7200,"station_id":"ce4bhq92rcd13ifvqhjg","pricing_plan_id":"cebpf4jnsgd1na2vs0mg"},{"bike_id":"f829a819-671e-4b71-9c22-56c5f8047725","system_id":"levelo_inurba_marseille","lat":43.32359,"lon":5.36754,"is_reserved":false,"is_disabled":false,"rental_uris":{"android":"levelo://app?vid=f829a819-671e-4b71-9c22-56c5f8047725","ios":"levelo://app?vid=f829a819-671e-4b71-9c22-56c5f8047725"},"vehicle_type_id":"4","last_reported":1741832213,"current_range_meters":7200,"station_id":"ce4bhsh2rcd13ifvqi2g","pricing_plan_id":"cebpf4jnsgd1na2vs0mg"},{"bike_id":"966a843b-2687-4bd7-ad0f-8d17709f0fda","system_id":"levelo_inurba_marseille","lat":43.3107,"lon":5.38343,"is_reserved":false,"is_disabled":false,"rental_uris":{"android":"levelo://app?vid=966a843b-2687-4bd7-ad0f-8d17709f0fda","ios":"levelo://app?vid=966a843b-2687-4bd7-ad0f-8d17709f0fda"},"vehicle_type_id":"4","last_reported":1741832213,"current_range_meters":8000,"station_id":"ce4bgv92rcd13ifvqcr0","pricing_plan_id":"cebpf4jnsgd1na2vs0mg"},{"bike_id":"46f2e81a-8d75-4b81-a3ee-d46e23c0fa4e","system_id":"levelo_inurba_marseille","lat":43.24552,"lon":5.39528,"is_reserved":false,"is_disabled":false,"rental_uris":{"android":"levelo://app?vid=46f2e81a-8d75-4b81-a3ee-d46e23c0fa4e","ios":"levelo://app?vid=46f2e81a-8d75-4b81-a3ee-d46e23c0fa4e"},"vehicle_type_id":"4","last_reported":1741832213,"current_range_meters":8000,"station_id":"ce4bhlp2rcd13ifvqgjg","pricing_plan_id":"cebpf4jnsgd1na2vs0mg"},{"bike_id":"d8c62c7b-a8e4-4dab-8344-208315d443d4","system_id":"levelo_inurba_marseille","lat":43.28463,"lon":5.35887,"is_reserved":false,"is_disabled":false,"rental_uris":{"android":"levelo://app?vid=d8c62c7b-a8e4-4dab-8344-208315d443d4","ios":"levelo://app?vid=d8c62c7b-a8e4-4dab-8344-208315d443d4"},"vehicle_type_id":"4","last_reported":1741832213,"current_range_meters":8000,"station_id":"ce4bhah2rcd13ifvqei0","pricing_plan_id":"cebpf4jnsgd1na2vs0mg"},{"bike_id":"633ba8c1-2c9f-4ecd-a921-5eb75731d6da","system_id":"levelo_inurba_marseille","lat":43.28699,"lon":5.37396,"is_reserved":false,"is_disabled":false,"rental_uris":{"android":"levelo://app?vid=633ba8c1-2c9f-4ecd-a921-5eb75731d6da","ios":"levelo://app?vid=633ba8c1-2c9f-4ecd-a921-5eb75731d6da"},"vehicle_type_id":"4","last_reported":1741832213,"current_range_meters":8000,"station_id":"ce4bh3p2rcd13ifvqdq0","pricing_plan_id":"cebpf4jnsgd1na2vs0mg"},{"bike_id":"21202178-9a74-4bc8-9d9e-6fb631a00822","system_id":"levelo_inurba_marseille","lat":43.29843,"lon":5.37363,"is_reserved":false,"is_disabled":false,"rental_uris":{"android":"levelo://app?vid=21202178-9a74-4bc8-9d9e-6fb631a00822","ios":"levelo://app?vid=21202178-9a74-4bc8-9d9e-6fb631a00822"},"vehicle_type_id":"4","last_reported":1741832213,"current_range_meters":8000,"station_id":"","pricing_plan_id":"cebpf4jnsgd1na2vs0mg"},{"bike_id":"385dd9cb-1d33-48e9-8250-88818c623a92","system_id":"levelo_inurba_marseille","lat":43.26057,"lon":5.39389,"is_reserved":false,"is_disabled":false,"rental_uris":{"android":"levelo://app?vid=385dd9cb-1d33-48e9-8250-88818c623a92","ios":"levelo://app?vid=385dd9cb-1d33-48e9-8250-88818c623a92"},"vehicle_type_id":"4","last_reported":1741832213,"current_range_meters":8000,"station_id":"ce4bhh92rcd13ifvqfj0","pricing_plan_id":"cebpf4jnsgd1na2vs0mg"},{"bike_id":"4266cb8d-9737-42ba-b281-8709f58733da","system_id":"levelo_inurba_marseille","lat":43.31885,"lon":5.40725,"is_reserved":false,"is_disabled":false,"rental_uris":{"android":"levelo://app?vid=4266cb8d-9737-42ba-b281-8709f58733da","ios":"levelo://app?vid=4266cb8d-9737-42ba-b281-8709f58733da"},"vehicle_type_id":"4","last_reported":1741832213,"current_range_meters":8000,"station_id":"ce4bhq12rcd13ifvqhig","pricing_plan_id":"cebpf4jnsgd1na2vs0mg"},{"bike_id":"2931d81f-abb3-45b8-9224-dc3fce2fae31","system_id":"levelo_inurba_marseille","lat":43.323667,"lon":5.367534,"is_reserved":false,"is_disabled":false,"rental_uris":{"android":"levelo://app?vid=2931d81f-abb3-45b8-9224-dc3fce2fae31","ios":"levelo://app?vid=2931d81f-abb3-45b8-9224-dc3fce2fae31"},"vehicle_type_id":"4","last_reported":1741832213,"current_range_meters":8000,"station_id":"ce4bhsh2rcd13ifvqi2g","pricing_plan_id":"cebpf4jnsgd1na2vs0mg"},{"bike_id":"8dee66dd-a753-4e90-9df0-a75f60b0d66f","system_id":"levelo_inurba_marseille","lat":43.28573,"lon":5.42483,"is_reserved":false,"is_disabled":false,"rental_uris":{"android":"levelo://app?vid=8dee66dd-a753-4e90-9df0-a75f60b0d66f","ios":"levelo://app?vid=8dee66dd-a753-4e90-9df0-a75f60b0d66f"},"vehicle_type_id":"4","last_reported":1741832213,"current_range_meters":8000,"station_id":"","pricing_plan_id":"cebpf4jnsgd1na2vs0mg"},{"bike_id":"5c0be3c0-190a-43f3-becc-02f064bfef44","system_id":"levelo_inurba_marseille","lat":43.33418,"lon":5.40063,"is_reserved":false,"is_disabled":false,"rental_uris":{"android":"levelo://app?vid=5c0be3c0-190a-43f3-becc-02f064bfef44","ios":"levelo://app?vid=5c0be3c0-190a-43f3-becc-02f064bfef44"},"vehicle_type_id":"4","last_reported":1741832213,"current_range_meters":8000,"station_id":"","pricing_plan_id":"cebpf4jnsgd1na2vs0mg"},{"bike_id":"12ec7bec-5375-4df0-88fa-8a4017dbc6a7","system_id":"levelo_inurba_marseille","lat":43.28146,"lon":5.42634,"is_reserved":false,"is_disabled":false,"rental_uris":{"android":"levelo://app?vid=12ec7bec-5375-4df0-88fa-8a4017dbc6a7","ios":"levelo://app?vid=12ec7bec-5375-4df0-88fa-8a4017dbc6a7"},"vehicle_type_id":"4","last_reported":1741832213,"current_range_meters":8000,"station_id":"ce4bhnh2rcd13ifvqgug","pricing_plan_id":"cebpf4jnsgd1na2vs0mg"},{"bike_id":"95166308-e962-49c6-9e7f-13343b7c7759","system_id":"levelo_inurba_marseille","lat":43.307867,"lon":5.37658,"is_reserved":false,"is_disabled":false,"rental_uris":{"android":"levelo://app?vid=95166308-e962-49c6-9e7f-13343b7c7759","ios":"levelo://app?vid=95166308-e962-49c6-9e7f-13343b7c7759"},"vehicle_type_id":"4","last_reported":1741832213,"current_range_meters":8000,"station_id":"ce4bgv92rcd13ifvqcq0","pricing_plan_id":"cebpf4jnsgd1na2vs0mg"},{"bike_id":"03fcef79-f017-4d15-a10d-891c5cd96db2","system_id":"levelo_inurba_marseille","lat":43.23059,"lon":5.35503,"is_reserved":false,"is_disabled":false,"rental_uris":{"android":"levelo://app?vid=03fcef79-f017-4d15-a10d-891c5cd96db2","ios":"levelo://app?vid=03fcef79-f017-4d15-a10d-891c5cd96db2"},"vehicle_type_id":"4","last_reported":1741832213,"current_range_meters":8000,"station_id":"cpo3342slgdg3j2ifvpg","pricing_plan_id":"cebpf4jnsgd1na2vs0mg"},{"bike_id":"f076f6f7-e4b4-48be-92db-c2ec27c500f6","system_id":"levelo_inurba_marseille","lat":43.2319,"lon":5.3997,"is_reserved":false,"is_disabled":false,"rental_uris":{"android":"levelo://app?vid=f076f6f7-e4b4-48be-92db-c2ec27c500f6","ios":"levelo://app?vid=f076f6f7-e4b4-48be-92db-c2ec27c500f6"},"vehicle_type_id":"4","last_reported":1741832213,"current_range_meters":8400,"station_id":"ce4bhn12rcd13ifvqgqg","pricing_plan_id":"cebpf4jnsgd1na2vs0mg"},{"bike_id":"707f97a7-32db-422b-bfa8-ef8d193a1bb4","system_id":"levelo_inurba_marseille","lat":43.22927,"lon":5.35387,"is_reserved":false,"is_disabled":false,"rental_uris":{"android":"levelo://app?vid=707f97a7-32db-422b-bfa8-ef8d193a1bb4","ios":"levelo://app?vid=707f97a7-32db-422b-bfa8-ef8d193a1bb4"},"vehicle_type_id":"4","last_reported":1741832213,"current_range_meters":8400,"station_id":"cpo3532slgdg3j2ikp40","pricing_plan_id":"cebpf4jnsgd1na2vs0mg"},{"bike_id":"c672e83a-f87f-4381-8264-e18480862593","system_id":"levelo_inurba_marseille","lat":43.32344,"lon":5.40623,"is_reserved":false,"is_disabled":false,"rental_uris":{"android":"levelo://app?vid=c672e83a-f87f-4381-8264-e18480862593","ios":"levelo://app?vid=c672e83a-f87f-4381-8264-e18480862593"},"vehicle_type_id":"4","last_reported":1741832213,"current_range_meters":8400,"station_id":"ce4bhq92rcd13ifvqhjg","pricing_plan_id":"cebpf4jnsgd1na2vs0mg"},{"bike_id":"aeca8d61-61f7-41ab-a0ef-f49a44bca5c8","system_id":"levelo_inurba_marseille","lat":43.29004,"lon":5.35605,"is_reserved":false,"is_disabled":true,"rental_uris":{"android":"levelo://app?vid=aeca8d61-61f7-41ab-a0ef-f49a44bca5c8","ios":"levelo://app?vid=aeca8d61-61f7-41ab-a0ef-f49a44bca5c8"},"vehicle_type_id":"4","last_reported":1741832213,"current_range_meters":8400,"station_id":"ce4bhb92rcd13ifvqen0","pricing_plan_id":"cebpf4jnsgd1na2vs0mg"},{"bike_id":"51dd079e-0925-4112-b09d-769424a40dbf","system_id":"levelo_inurba_marseille","lat":43.28464,"lon":5.35879,"is_reserved":false,"is_disabled":false,"rental_uris":{"android":"levelo://app?vid=51dd079e-0925-4112-b09d-769424a40dbf","ios":"levelo://app?vid=51dd079e-0925-4112-b09d-769424a40dbf"},"vehicle_type_id":"4","last_reported":1741832213,"current_range_meters":8400,"station_id":"ce4bhah2rcd13ifvqei0","pricing_plan_id":"cebpf4jnsgd1na2vs0mg"},{"bike_id":"ec5d08ce-934d-49b5-9a73-c20b44942d11","system_id":"levelo_inurba_marseille","lat":43.31443,"lon":5.37593,"is_reserved":false,"is_disabled":false,"rental_uris":{"android":"levelo://app?vid=ec5d08ce-934d-49b5-9a73-c20b44942d11","ios":"levelo://app?vid=ec5d08ce-934d-49b5-9a73-c20b44942d11"},"vehicle_type_id":"4","last_reported":1741832213,"current_range_meters":8400,"station_id":"","pricing_plan_id":"cebpf4jnsgd1na2vs0mg"},{"bike_id":"f4f6951d-a3fd-42a9-86a0-c61cdb750c82","system_id":"levelo_inurba_marseille","lat":43.25091,"lon":5.39496,"is_reserved":false,"is_disabled":false,"rental_uris":{"android":"levelo://app?vid=f4f6951d-a3fd-42a9-86a0-c61cdb750c82","ios":"levelo://app?vid=f4f6951d-a3fd-42a9-86a0-c61cdb750c82"},"vehicle_type_id":"4","last_reported":1741832213,"current_range_meters":8400,"station_id":"ce4bhm12rcd13ifvqgkg","pricing_plan_id":"cebpf4jnsgd1na2vs0mg"},{"bike_id":"d7aaef38-7eff-471c-ba72-07e0eabbfe50","system_id":"levelo_inurba_marseille","lat":43.2793,"lon":5.41032,"is_reserved":false,"is_disabled":false,"rental_uris":{"android":"levelo://app?vid=d7aaef38-7eff-471c-ba72-07e0eabbfe50","ios":"levelo://app?vid=d7aaef38-7eff-471c-ba72-07e0eabbfe50"},"vehicle_type_id":"4","last_reported":1741832213,"current_range_meters":8400,"station_id":"ce4bhnp2rcd13ifvqh0g","pricing_plan_id":"cebpf4jnsgd1na2vs0mg"},{"bike_id":"6190eac7-4d69-4aee-8885-569caf678aef","system_id":"levelo_inurba_marseille","lat":43.25725,"lon":5.41108,"is_reserved":false,"is_disabled":false,"rental_uris":{"android":"levelo://app?vid=6190eac7-4d69-4aee-8885-569caf678aef","ios":"levelo://app?vid=6190eac7-4d69-4aee-8885-569caf678aef"},"vehicle_type_id":"4","last_reported":1741832213,"current_range_meters":8400,"station_id":"ce4bhkp2rcd13ifvqgd0","pricing_plan_id":"cebpf4jnsgd1na2vs0mg"},{"bike_id":"ccc60824-c79b-431c-a6af-0ceb79e3288a","system_id":"levelo_inurba_marseille","lat":43.28447,"lon":5.3587,"is_reserved":false,"is_disabled":true,"rental_uris":{"android":"levelo://app?vid=ccc60824-c79b-431c-a6af-0ceb79e3288a","ios":"levelo://app?vid=ccc60824-c79b-431c-a6af-0ceb79e3288a"},"vehicle_type_id":"4","last_reported":1741832213,"current_range_meters":8400,"station_id":"ce4bhah2rcd13ifvqei0","pricing_plan_id":"cebpf4jnsgd1na2vs0mg"},{"bike_id":"4d4acf51-c07c-4aef-b577-238196b1ded2","system_id":"levelo_inurba_marseille","lat":43.27065,"lon":5.42271,"is_reserved":false,"is_disabled":false,"rental_uris":{"android":"levelo://app?vid=4d4acf51-c07c-4aef-b577-238196b1ded2","ios":"levelo://app?vid=4d4acf51-c07c-4aef-b577-238196b1ded2"},"vehicle_type_id":"4","last_reported":1741832213,"current_range_meters":8800,"station_id":"ce4bhk92rcd13ifvqgb0","pricing_plan_id":"cebpf4jnsgd1na2vs0mg"},{"bike_id":"fe384679-e481-46ce-8e4c-4497e028f385","system_id":"levelo_inurba_marseille","lat":43.23154,"lon":5.43727,"is_reserved":false,"is_disabled":false,"rental_uris":{"android":"levelo://app?vid=fe384679-e481-46ce-8e4c-4497e028f385","ios":"levelo://app?vid=fe384679-e481-46ce-8e4c-4497e028f385"},"vehicle_type_id":"4","last_reported":1741832213,"current_range_meters":8800,"station_id":"ce4bhmp2rcd13ifvqgog","pricing_plan_id":"cebpf4jnsgd1na2vs0mg"},{"bike_id":"96b68334-5aca-43bb-99d6-07e7361f7430","system_id":"levelo_inurba_marseille","lat":43.23139,"lon":5.43704,"is_reserved":false,"is_disabled":false,"rental_uris":{"android":"levelo://app?vid=96b68334-5aca-43bb-99d6-07e7361f7430","ios":"levelo://app?vid=96b68334-5aca-43bb-99d6-07e7361f7430"},"vehicle_type_id":"4","last_reported":1741832213,"current_range_meters":8800,"station_id":"ce4bhmp2rcd13ifvqgog","pricing_plan_id":"cebpf4jnsgd1na2vs0mg"},{"bike_id":"dcf27482-e5b6-402e-97ae-49ee73e7d34a","system_id":"levelo_inurba_marseille","lat":43.2904,"lon":5.39964,"is_reserved":false,"is_disabled":false,"rental_uris":{"android":"levelo://app?vid=dcf27482-e5b6-402e-97ae-49ee73e7d34a","ios":"levelo://app?vid=dcf27482-e5b6-402e-97ae-49ee73e7d34a"},"vehicle_type_id":"4","last_reported":1741832213,"current_range_meters":8800,"station_id":"ce4bh392rcd13ifvqdm0","pricing_plan_id":"cebpf4jnsgd1na2vs0mg"},{"bike_id":"efab6700-508c-45e7-a250-bfb1d4670a97","system_id":"levelo_inurba_marseille","lat":43.31325,"lon":5.39692,"is_reserved":false,"is_disabled":false,"rental_uris":{"android":"levelo://app?vid=efab6700-508c-45e7-a250-bfb1d4670a97","ios":"levelo://app?vid=efab6700-508c-45e7-a250-bfb1d4670a97"},"vehicle_type_id":"4","last_reported":1741832213,"current_range_meters":8800,"station_id":"ce4bgvp2rcd13ifvqcu0","pricing_plan_id":"cebpf4jnsgd1na2vs0mg"},{"bike_id":"600a8b1d-91ce-4fc9-92cd-846d63d5cb51","system_id":"levelo_inurba_marseille","lat":43.25003,"lon":5.3893,"is_reserved":false,"is_disabled":false,"rental_uris":{"android":"levelo://app?vid=600a8b1d-91ce-4fc9-92cd-846d63d5cb51","ios":"levelo://app?vid=600a8b1d-91ce-4fc9-92cd-846d63d5cb51"},"vehicle_type_id":"4","last_reported":1741832213,"current_range_meters":8800,"station_id":"ce4bhgp2rcd13ifvqfd0","pricing_plan_id":"cebpf4jnsgd1na2vs0mg"},{"bike_id":"485f1510-a973-46b6-8b2d-6d22ffc60cae","system_id":"levelo_inurba_marseille","lat":43.24178,"lon":5.36396,"is_reserved":false,"is_disabled":false,"rental_uris":{"android":"levelo://app?vid=485f1510-a973-46b6-8b2d-6d22ffc60cae","ios":"levelo://app?vid=485f1510-a973-46b6-8b2d-6d22ffc60cae"},"vehicle_type_id":"4","last_reported":1741832213,"current_range_meters":8800,"station_id":"cpo36qri1sfpv3e86is0","pricing_plan_id":"cebpf4jnsgd1na2vs0mg"},{"bike_id":"98c8b670-4b5b-4474-aa78-906a8b4c3fb0","system_id":"levelo_inurba_marseille","lat":43.28838,"lon":5.35876,"is_reserved":false,"is_disabled":false,"rental_uris":{"android":"levelo://app?vid=98c8b670-4b5b-4474-aa78-906a8b4c3fb0","ios":"levelo://app?vid=98c8b670-4b5b-4474-aa78-906a8b4c3fb0"},"vehicle_type_id":"4","last_reported":1741832213,"current_range_meters":8800,"station_id":"ce4bhb12rcd13ifvqem0","pricing_plan_id":"cebpf4jnsgd1na2vs0mg"},{"bike_id":"f43c9137-3d11-4a51-9675-5a3c95d6f6ef","system_id":"levelo_inurba_marseille","lat":43.23963,"lon":5.36636,"is_reserved":false,"is_disabled":false,"rental_uris":{"android":"levelo://app?vid=f43c9137-3d11-4a51-9675-5a3c95d6f6ef","ios":"levelo://app?vid=f43c9137-3d11-4a51-9675-5a3c95d6f6ef"},"vehicle_type_id":"4","last_reported":1741832213,"current_range_meters":8800,"station_id":"ce4bhi12rcd13ifvqfp0","pricing_plan_id":"cebpf4jnsgd1na2vs0mg"},{"bike_id":"540f8b94-18a7-495a-be2a-6d9b18696d20","system_id":"levelo_inurba_marseille","lat":43.31094,"lon":5.42438,"is_reserved":false,"is_disabled":false,"rental_uris":{"android":"levelo://app?vid=540f8b94-18a7-495a-be2a-6d9b18696d20","ios":"levelo://app?vid=540f8b94-18a7-495a-be2a-6d9b18696d20"},"vehicle_type_id":"4","last_reported":1741832213,"current_range_meters":8800,"station_id":"ce4bhp92rcd13ifvqhag","pricing_plan_id":"cebpf4jnsgd1na2vs0mg"},{"bike_id":"c16477d5-7793-4073-b158-0eaf5052f2dc","system_id":"levelo_inurba_marseille","lat":43.28352,"lon":5.43466,"is_reserved":false,"is_disabled":false,"rental_uris":{"android":"levelo://app?vid=c16477d5-7793-4073-b158-0eaf5052f2dc","ios":"levelo://app?vid=c16477d5-7793-4073-b158-0eaf5052f2dc"},"vehicle_type_id":"4","last_reported":1741832213,"current_range_meters":8800,"station_id":"","pricing_plan_id":"cebpf4jnsgd1na2vs0mg"},{"bike_id":"0a995a9a-6122-4f4b-b298-a8b06cbca7e2","system_id":"levelo_inurba_marseille","lat":43.25004,"lon":5.38919,"is_reserved":false,"is_disabled":false,"rental_uris":{"android":"levelo://app?vid=0a995a9a-6122-4f4b-b298-a8b06cbca7e2","ios":"levelo://app?vid=0a995a9a-6122-4f4b-b298-a8b06cbca7e2"},"vehicle_type_id":"4","last_reported":1741832213,"current_range_meters":9200,"station_id":"ce4bhgp2rcd13ifvqfd0","pricing_plan_id":"cebpf4jnsgd1na2vs0mg"},{"bike_id":"85e5198d-7b5c-47df-8c25-3139b7284419","system_id":"levelo_inurba_marseille","lat":43.30668,"lon":5.40059,"is_reserved":false,"is_disabled":false,"rental_uris":{"android":"levelo://app?vid=85e5198d-7b5c-47df-8c25-3139b7284419","ios":"levelo://app?vid=85e5198d-7b5c-47df-8c25-3139b7284419"},"vehicle_type_id":"4","last_reported":1741832213,"current_range_meters":9200,"station_id":"ce4bh112rcd13ifvqda0","pricing_plan_id":"cebpf4jnsgd1na2vs0mg"},{"bike_id":"f83b1590-73f8-4900-a667-6c005eb9b249","system_id":"levelo_inurba_marseille","lat":43.2957,"lon":5.39946,"is_reserved":false,"is_disabled":true,"rental_uris":{"android":"levelo://app?vid=f83b1590-73f8-4900-a667-6c005eb9b249","ios":"levelo://app?vid=f83b1590-73f8-4900-a667-6c005eb9b249"},"vehicle_type_id":"4","last_reported":1741832213,"current_range_meters":9200,"station_id":"ce4bh312rcd13ifvqdj0","pricing_plan_id":"cebpf4jnsgd1na2vs0mg"},{"bike_id":"55fe5d5a-17ad-4e56-ad62-6cc28a264c81","system_id":"levelo_inurba_marseille","lat":43.25,"lon":5.38934,"is_reserved":false,"is_disabled":false,"rental_uris":{"android":"levelo://app?vid=55fe5d5a-17ad-4e56-ad62-6cc28a264c81","ios":"levelo://app?vid=55fe5d5a-17ad-4e56-ad62-6cc28a264c81"},"vehicle_type_id":"4","last_reported":1741832213,"current_range_meters":9200,"station_id":"ce4bhgp2rcd13ifvqfd0","pricing_plan_id":"cebpf4jnsgd1na2vs0mg"},{"bike_id":"d4c11c66-c406-46fd-810b-5ee53fc49085","system_id":"levelo_inurba_marseille","lat":43.3033,"lon":5.41898,"is_reserved":false,"is_disabled":false,"rental_uris":{"android":"levelo://app?vid=d4c11c66-c406-46fd-810b-5ee53fc49085","ios":"levelo://app?vid=d4c11c66-c406-46fd-810b-5ee53fc49085"},"vehicle_type_id":"4","last_reported":1741832213,"current_range_meters":9200,"station_id":"","pricing_plan_id":"cebpf4jnsgd1na2vs0mg"},{"bike_id":"03d10ce5-6405-4b2f-93ca-cf0b42ef9a6f","system_id":"levelo_inurba_marseille","lat":43.30888,"lon":5.39629,"is_reserved":false,"is_disabled":false,"rental_uris":{"android":"levelo://app?vid=03d10ce5-6405-4b2f-93ca-cf0b42ef9a6f","ios":"levelo://app?vid=03d10ce5-6405-4b2f-93ca-cf0b42ef9a6f"},"vehicle_type_id":"4","last_reported":1741832213,"current_range_meters":9200,"station_id":"ce4bh012rcd13ifvqcv0","pricing_plan_id":"cebpf4jnsgd1na2vs0mg"},{"bike_id":"97c4a06f-d8ef-4a57-9bb4-11a0bc4f8fb5","system_id":"levelo_inurba_marseille","lat":43.28455,"lon":5.35885,"is_reserved":false,"is_disabled":false,"rental_uris":{"android":"levelo://app?vid=97c4a06f-d8ef-4a57-9bb4-11a0bc4f8fb5","ios":"levelo://app?vid=97c4a06f-d8ef-4a57-9bb4-11a0bc4f8fb5"},"vehicle_type_id":"4","last_reported":1741832213,"current_range_meters":9200,"station_id":"ce4bhah2rcd13ifvqei0","pricing_plan_id":"cebpf4jnsgd1na2vs0mg"},{"bike_id":"ffd8c5d8-18f0-49f2-bfe6-b98d3b862a68","system_id":"levelo_inurba_marseille","lat":43.30911,"lon":5.40162,"is_reserved":false,"is_disabled":false,"rental_uris":{"android":"levelo://app?vid=ffd8c5d8-18f0-49f2-bfe6-b98d3b862a68","ios":"levelo://app?vid=ffd8c5d8-18f0-49f2-bfe6-b98d3b862a68"},"vehicle_type_id":"4","last_reported":1741832213,"current_range_meters":9200,"station_id":"ce4bgvp2rcd13ifvqct0","pricing_plan_id":"cebpf4jnsgd1na2vs0mg"},{"bike_id":"81503b9c-0016-4a91-a79c-42b4d25413e2","system_id":"levelo_inurba_marseille","lat":43.298559,"lon":5.397281,"is_reserved":false,"is_disabled":false,"rental_uris":{"android":"levelo://app?vid=81503b9c-0016-4a91-a79c-42b4d25413e2","ios":"levelo://app?vid=81503b9c-0016-4a91-a79c-42b4d25413e2"},"vehicle_type_id":"4","last_reported":1741832213,"current_range_meters":9200,"station_id":"ce4bh0h2rcd13ifvqd50","pricing_plan_id":"cebpf4jnsgd1na2vs0mg"},{"bike_id":"3dc12a3e-12f9-4e69-a46d-74dccb593f75","system_id":"levelo_inurba_marseille","lat":43.28484,"lon":5.38473,"is_reserved":false,"is_disabled":false,"rental_uris":{"android":"levelo://app?vid=3dc12a3e-12f9-4e69-a46d-74dccb593f75","ios":"levelo://app?vid=3dc12a3e-12f9-4e69-a46d-74dccb593f75"},"vehicle_type_id":"4","last_reported":1741832213,"current_range_meters":9200,"station_id":"ce4bh512rcd13ifvqe3g","pricing_plan_id":"cebpf4jnsgd1na2vs0mg"},{"bike_id":"be919f00-bcb7-44c2-9ec0-74df186c2b29","system_id":"levelo_inurba_marseille","lat":43.30923,"lon":5.40152,"is_reserved":false,"is_disabled":false,"rental_uris":{"android":"levelo://app?vid=be919f00-bcb7-44c2-9ec0-74df186c2b29","ios":"levelo://app?vid=be919f00-bcb7-44c2-9ec0-74df186c2b29"},"vehicle_type_id":"4","last_reported":1741832213,"current_range_meters":9200,"station_id":"ce4bgvp2rcd13ifvqct0","pricing_plan_id":"cebpf4jnsgd1na2vs0mg"},{"bike_id":"234f837a-7327-4b92-8f17-adec428df1b9","system_id":"levelo_inurba_marseille","lat":43.25936,"lon":5.40903,"is_reserved":false,"is_disabled":false,"rental_uris":{"android":"levelo://app?vid=234f837a-7327-4b92-8f17-adec428df1b9","ios":"levelo://app?vid=234f837a-7327-4b92-8f17-adec428df1b9"},"vehicle_type_id":"4","last_reported":1741832213,"current_range_meters":9200,"station_id":"ce4bhm92rcd13ifvqglg","pricing_plan_id":"cebpf4jnsgd1na2vs0mg"},{"bike_id":"7d4aedfe-c4d1-46e1-9530-386849f612f8","system_id":"levelo_inurba_marseille","lat":43.30387,"lon":5.4248,"is_reserved":false,"is_disabled":false,"rental_uris":{"android":"levelo://app?vid=7d4aedfe-c4d1-46e1-9530-386849f612f8","ios":"levelo://app?vid=7d4aedfe-c4d1-46e1-9530-386849f612f8"},"vehicle_type_id":"4","last_reported":1741832213,"current_range_meters":9200,"station_id":"ce4bghh2rcd13ifvqb60","pricing_plan_id":"cebpf4jnsgd1na2vs0mg"},{"bike_id":"2d16443d-ed2e-4c48-af94-4deffe2479f1","system_id":"levelo_inurba_marseille","lat":43.250099,"lon":5.389154,"is_reserved":false,"is_disabled":false,"rental_uris":{"android":"levelo://app?vid=2d16443d-ed2e-4c48-af94-4deffe2479f1","ios":"levelo://app?vid=2d16443d-ed2e-4c48-af94-4deffe2479f1"},"vehicle_type_id":"4","last_reported":1741832213,"current_range_meters":9200,"station_id":"ce4bhgp2rcd13ifvqfd0","pricing_plan_id":"cebpf4jnsgd1na2vs0mg"},{"bike_id":"8dffa421-4032-4412-8a4b-41adb952d93f","system_id":"levelo_inurba_marseille","lat":43.30805,"lon":5.38158,"is_reserved":false,"is_disabled":false,"rental_uris":{"android":"levelo://app?vid=8dffa421-4032-4412-8a4b-41adb952d93f","ios":"levelo://app?vid=8dffa421-4032-4412-8a4b-41adb952d93f"},"vehicle_type_id":"4","last_reported":1741832213,"current_range_meters":9200,"station_id":"ce4bgt12rcd13ifvqce0","pricing_plan_id":"cebpf4jnsgd1na2vs0mg"},{"bike_id":"6c83aba9-eb1e-4e35-add9-1ed6c49a74fd","system_id":"levelo_inurba_marseille","lat":43.28001,"lon":5.41655,"is_reserved":false,"is_disabled":false,"rental_uris":{"android":"levelo://app?vid=6c83aba9-eb1e-4e35-add9-1ed6c49a74fd","ios":"levelo://app?vid=6c83aba9-eb1e-4e35-add9-1ed6c49a74fd"},"vehicle_type_id":"4","last_reported":1741832213,"current_range_meters":9200,"station_id":"ce4bho12rcd13ifvqh1g","pricing_plan_id":"cebpf4jnsgd1na2vs0mg"},{"bike_id":"9c9b4fe2-0c24-4e47-8858-2d4973e49f79","system_id":"levelo_inurba_marseille","lat":43.275706,"lon":5.384321,"is_reserved":false,"is_disabled":false,"rental_uris":{"android":"levelo://app?vid=9c9b4fe2-0c24-4e47-8858-2d4973e49f79","ios":"levelo://app?vid=9c9b4fe2-0c24-4e47-8858-2d4973e49f79"},"vehicle_type_id":"4","last_reported":1741832213,"current_range_meters":9600,"station_id":"ce4bhh92rcd13ifvqfi0","pricing_plan_id":"cebpf4jnsgd1na2vs0mg"},{"bike_id":"df6b060b-9f9e-4288-bcc1-ae0d53050642","system_id":"levelo_inurba_marseille","lat":43.22941,"lon":5.3537,"is_reserved":false,"is_disabled":false,"rental_uris":{"android":"levelo://app?vid=df6b060b-9f9e-4288-bcc1-ae0d53050642","ios":"levelo://app?vid=df6b060b-9f9e-4288-bcc1-ae0d53050642"},"vehicle_type_id":"4","last_reported":1741832213,"current_range_meters":9600,"station_id":"cpo3532slgdg3j2ikp40","pricing_plan_id":"cebpf4jnsgd1na2vs0mg"},{"bike_id":"9f25a6ad-433a-45b0-a0d0-4a619d769e26","system_id":"levelo_inurba_marseille","lat":43.231906,"lon":5.355543,"is_reserved":false,"is_disabled":false,"rental_uris":{"android":"levelo://app?vid=9f25a6ad-433a-45b0-a0d0-4a619d769e26","ios":"levelo://app?vid=9f25a6ad-433a-45b0-a0d0-4a619d769e26"},"vehicle_type_id":"4","last_reported":1741832213,"current_range_meters":9600,"station_id":"ce4bhu92rcd13ifvqi70","pricing_plan_id":"cebpf4jnsgd1na2vs0mg"},{"bike_id":"27978618-6a05-41e9-b500-4c9c04aec95f","system_id":"levelo_inurba_marseille","lat":43.28153,"lon":5.426397,"is_reserved":false,"is_disabled":false,"rental_uris":{"android":"levelo://app?vid=27978618-6a05-41e9-b500-4c9c04aec95f","ios":"levelo://app?vid=27978618-6a05-41e9-b500-4c9c04aec95f"},"vehicle_type_id":"4","last_reported":1741832213,"current_range_meters":9600,"station_id":"ce4bhnh2rcd13ifvqgug","pricing_plan_id":"cebpf4jnsgd1na2vs0mg"},{"bike_id":"23667599-c39f-4b94-a83e-082050eb199c","system_id":"levelo_inurba_marseille","lat":43.284168,"lon":5.375139,"is_reserved":false,"is_disabled":false,"rental_uris":{"android":"levelo://app?vid=23667599-c39f-4b94-a83e-082050eb199c","ios":"levelo://app?vid=23667599-c39f-4b94-a83e-082050eb199c"},"vehicle_type_id":"4","last_reported":1741832213,"current_range_meters":9600,"station_id":"ce4bh412rcd13ifvqds0","pricing_plan_id":"cebpf4jnsgd1na2vs0mg"},{"bike_id":"e82a7765-952e-473e-ae93-51129021ba92","system_id":"levelo_inurba_marseille","lat":43.23968,"lon":5.3663,"is_reserved":false,"is_disabled":false,"rental_uris":{"android":"levelo://app?vid=e82a7765-952e-473e-ae93-51129021ba92","ios":"levelo://app?vid=e82a7765-952e-473e-ae93-51129021ba92"},"vehicle_type_id":"4","last_reported":1741832213,"current_range_meters":9600,"station_id":"ce4bhi12rcd13ifvqfp0","pricing_plan_id":"cebpf4jnsgd1na2vs0mg"},{"bike_id":"6dbc9b4a-c5a1-4dbf-a00f-5bb7462d2694","system_id":"levelo_inurba_marseille","lat":43.28147,"lon":5.39775,"is_reserved":false,"is_disabled":false,"rental_uris":{"android":"levelo://app?vid=6dbc9b4a-c5a1-4dbf-a00f-5bb7462d2694","ios":"levelo://app?vid=6dbc9b4a-c5a1-4dbf-a00f-5bb7462d2694"},"vehicle_type_id":"4","last_reported":1741832213,"current_range_meters":9600,"station_id":"","pricing_plan_id":"cebpf4jnsgd1na2vs0mg"},{"bike_id":"f89b9f3b-9595-4d0e-acf5-ac5f650bb50c","system_id":"levelo_inurba_marseille","lat":43.30368,"lon":5.42477,"is_reserved":false,"is_disabled":false,"rental_uris":{"android":"levelo://app?vid=f89b9f3b-9595-4d0e-acf5-ac5f650bb50c","ios":"levelo://app?vid=f89b9f3b-9595-4d0e-acf5-ac5f650bb50c"},"vehicle_type_id":"4","last_reported":1741832213,"current_range_meters":9600,"station_id":"ce4bghh2rcd13ifvqb60","pricing_plan_id":"cebpf4jnsgd1na2vs0mg"},{"bike_id":"f773648d-9d69-477c-8acc-61a93b2feb18","system_id":"levelo_inurba_marseille","lat":43.28491,"lon":5.3893,"is_reserved":false,"is_disabled":false,"rental_uris":{"android":"levelo://app?vid=f773648d-9d69-477c-8acc-61a93b2feb18","ios":"levelo://app?vid=f773648d-9d69-477c-8acc-61a93b2feb18"},"vehicle_type_id":"4","last_reported":1741832213,"current_range_meters":9600,"station_id":"","pricing_plan_id":"cebpf4jnsgd1na2vs0mg"},{"bike_id":"c8f5a7aa-328f-49c1-a785-9624fa888d07","system_id":"levelo_inurba_marseille","lat":43.25019,"lon":5.38908,"is_reserved":false,"is_disabled":false,"rental_uris":{"android":"levelo://app?vid=c8f5a7aa-328f-49c1-a785-9624fa888d07","ios":"levelo://app?vid=c8f5a7aa-328f-49c1-a785-9624fa888d07"},"vehicle_type_id":"4","last_reported":1741832213,"current_range_meters":9600,"station_id":"ce4bhgp2rcd13ifvqfd0","pricing_plan_id":"cebpf4jnsgd1na2vs0mg"},{"bike_id":"173885c2-0f60-4df7-8df1-3150ed08e8db","system_id":"levelo_inurba_marseille","lat":43.3093,"lon":5.40137,"is_reserved":false,"is_disabled":false,"rental_uris":{"android":"levelo://app?vid=173885c2-0f60-4df7-8df1-3150ed08e8db","ios":"levelo://app?vid=173885c2-0f60-4df7-8df1-3150ed08e8db"},"vehicle_type_id":"4","last_reported":1741832213,"current_range_meters":9600,"station_id":"ce4bgvp2rcd13ifvqct0","pricing_plan_id":"cebpf4jnsgd1na2vs0mg"},{"bike_id":"63a97a08-5bd6-402f-a69b-1a4f72254415","system_id":"levelo_inurba_marseille","lat":43.31062,"lon":5.38345,"is_reserved":false,"is_disabled":false,"rental_uris":{"android":"levelo://app?vid=63a97a08-5bd6-402f-a69b-1a4f72254415","ios":"levelo://app?vid=63a97a08-5bd6-402f-a69b-1a4f72254415"},"vehicle_type_id":"4","last_reported":1741832213,"current_range_meters":10000,"station_id":"ce4bgv92rcd13ifvqcr0","pricing_plan_id":"cebpf4jnsgd1na2vs0mg"},{"bike_id":"6797bf15-c428-46eb-86a3-64177d518a4c","system_id":"levelo_inurba_marseille","lat":43.31318,"lon":5.39671,"is_reserved":false,"is_disabled":false,"rental_uris":{"android":"levelo://app?vid=6797bf15-c428-46eb-86a3-64177d518a4c","ios":"levelo://app?vid=6797bf15-c428-46eb-86a3-64177d518a4c"},"vehicle_type_id":"4","last_reported":1741832213,"current_range_meters":10000,"station_id":"ce4bgvp2rcd13ifvqcu0","pricing_plan_id":"cebpf4jnsgd1na2vs0mg"},{"bike_id":"df666d8d-21bb-4a31-a58c-0e4b634c7195","system_id":"levelo_inurba_marseille","lat":43.29518,"lon":5.39355,"is_reserved":false,"is_disabled":true,"rental_uris":{"android":"levelo://app?vid=df666d8d-21bb-4a31-a58c-0e4b634c7195","ios":"levelo://app?vid=df666d8d-21bb-4a31-a58c-0e4b634c7195"},"vehicle_type_id":"4","last_reported":1741832213,"current_range_meters":10000,"station_id":"ce4bh292rcd13ifvqdf0","pricing_plan_id":"cebpf4jnsgd1na2vs0mg"},{"bike_id":"6ab11c47-b743-457e-ba0c-16f42dc6710a","system_id":"levelo_inurba_marseille","lat":43.30369,"lon":5.39308,"is_reserved":false,"is_disabled":false,"rental_uris":{"android":"levelo://app?vid=6ab11c47-b743-457e-ba0c-16f42dc6710a","ios":"levelo://app?vid=6ab11c47-b743-457e-ba0c-16f42dc6710a"},"vehicle_type_id":"4","last_reported":1741832213,"current_range_meters":10000,"station_id":"","pricing_plan_id":"cebpf4jnsgd1na2vs0mg"},{"bike_id":"0234a9c0-0d92-4771-9dd1-5abbd3156dde","system_id":"levelo_inurba_marseille","lat":43.24063,"lon":5.37738,"is_reserved":false,"is_disabled":false,"rental_uris":{"android":"levelo://app?vid=0234a9c0-0d92-4771-9dd1-5abbd3156dde","ios":"levelo://app?vid=0234a9c0-0d92-4771-9dd1-5abbd3156dde"},"vehicle_type_id":"4","last_reported":1741832213,"current_range_meters":10000,"station_id":"ce4bhnp2rcd13ifvqgvg","pricing_plan_id":"cebpf4jnsgd1na2vs0mg"},{"bike_id":"4347b6f7-d9e2-4ed7-900a-976262b3a4ad","system_id":"levelo_inurba_marseille","lat":43.23201,"lon":5.39982,"is_reserved":false,"is_disabled":false,"rental_uris":{"android":"levelo://app?vid=4347b6f7-d9e2-4ed7-900a-976262b3a4ad","ios":"levelo://app?vid=4347b6f7-d9e2-4ed7-900a-976262b3a4ad"},"vehicle_type_id":"4","last_reported":1741832213,"current_range_meters":10000,"station_id":"ce4bhn12rcd13ifvqgqg","pricing_plan_id":"cebpf4jnsgd1na2vs0mg"},{"bike_id":"b7cedda7-a79b-4c49-b922-401f53e0e167","system_id":"levelo_inurba_marseille","lat":43.29044,"lon":5.39951,"is_reserved":false,"is_disabled":false,"rental_uris":{"android":"levelo://app?vid=b7cedda7-a79b-4c49-b922-401f53e0e167","ios":"levelo://app?vid=b7cedda7-a79b-4c49-b922-401f53e0e167"},"vehicle_type_id":"4","last_reported":1741832213,"current_range_meters":10000,"station_id":"ce4bh392rcd13ifvqdm0","pricing_plan_id":"cebpf4jnsgd1na2vs0mg"},{"bike_id":"9dc8ba98-3de9-4f14-81e1-9a5589e794de","system_id":"levelo_inurba_marseille","lat":43.2587,"lon":5.39911,"is_reserved":false,"is_disabled":true,"rental_uris":{"android":"levelo://app?vid=9dc8ba98-3de9-4f14-81e1-9a5589e794de","ios":"levelo://app?vid=9dc8ba98-3de9-4f14-81e1-9a5589e794de"},"vehicle_type_id":"4","last_reported":1741832213,"current_range_meters":10800,"station_id":"ce4bhl92rcd13ifvqghg","pricing_plan_id":"cebpf4jnsgd1na2vs0mg"},{"bike_id":"5bd2347b-8815-4b16-9f3e-1652de5c79df","system_id":"levelo_inurba_marseille","lat":43.30184,"lon":5.39921,"is_reserved":false,"is_disabled":false,"rental_uris":{"android":"levelo://app?vid=5bd2347b-8815-4b16-9f3e-1652de5c79df","ios":"levelo://app?vid=5bd2347b-8815-4b16-9f3e-1652de5c79df"},"vehicle_type_id":"4","last_reported":1741832213,"current_range_meters":10800,"station_id":"ce4bgvh2rcd13ifvqcs0","pricing_plan_id":"cebpf4jnsgd1na2vs0mg"},{"bike_id":"2c7213de-1d2d-4b17-ab38-ba3bb19fab23","system_id":"levelo_inurba_marseille","lat":43.28947,"lon":5.36636,"is_reserved":false,"is_disabled":false,"rental_uris":{"android":"levelo://app?vid=2c7213de-1d2d-4b17-ab38-ba3bb19fab23","ios":"levelo://app?vid=2c7213de-1d2d-4b17-ab38-ba3bb19fab23"},"vehicle_type_id":"4","last_reported":1741832213,"current_range_meters":10800,"station_id":"ce4bhap2rcd13ifvqek0","pricing_plan_id":"cebpf4jnsgd1na2vs0mg"},{"bike_id":"4c607265-c996-4d9b-81fd-daa80dd99e32","system_id":"levelo_inurba_marseille","lat":43.28837,"lon":5.38405,"is_reserved":false,"is_disabled":false,"rental_uris":{"android":"levelo://app?vid=4c607265-c996-4d9b-81fd-daa80dd99e32","ios":"levelo://app?vid=4c607265-c996-4d9b-81fd-daa80dd99e32"},"vehicle_type_id":"4","last_reported":1741832213,"current_range_meters":10800,"station_id":"","pricing_plan_id":"cebpf4jnsgd1na2vs0mg"},{"bike_id":"e7b25e36-0a83-4dda-88d0-c2926bc1cbb4","system_id":"levelo_inurba_marseille","lat":43.29851,"lon":5.36275,"is_reserved":false,"is_disabled":true,"rental_uris":{"android":"levelo://app?vid=e7b25e36-0a83-4dda-88d0-c2926bc1cbb4","ios":"levelo://app?vid=e7b25e36-0a83-4dda-88d0-c2926bc1cbb4"},"vehicle_type_id":"4","last_reported":1741832213,"current_range_meters":10800,"station_id":"ce4bgpp2rcd13ifvqc3g","pricing_plan_id":"cebpf4jnsgd1na2vs0mg"},{"bike_id":"79e732be-e7d8-4dc9-8c8f-89d56717d799","system_id":"levelo_inurba_marseille","lat":43.29022,"lon":5.37549,"is_reserved":false,"is_disabled":true,"rental_uris":{"android":"levelo://app?vid=79e732be-e7d8-4dc9-8c8f-89d56717d799","ios":"levelo://app?vid=79e732be-e7d8-4dc9-8c8f-89d56717d799"},"vehicle_type_id":"4","last_reported":1741832213,"current_range_meters":10800,"station_id":"ce4bh692rcd13ifvqe90","pricing_plan_id":"cebpf4jnsgd1na2vs0mg"},{"bike_id":"79397302-4916-493d-9bc0-e5035ae3c476","system_id":"levelo_inurba_marseille","lat":43.22928,"lon":5.35377,"is_reserved":false,"is_disabled":false,"rental_uris":{"android":"levelo://app?vid=79397302-4916-493d-9bc0-e5035ae3c476","ios":"levelo://app?vid=79397302-4916-493d-9bc0-e5035ae3c476"},"vehicle_type_id":"4","last_reported":1741832213,"current_range_meters":10800,"station_id":"cpo3532slgdg3j2ikp40","pricing_plan_id":"cebpf4jnsgd1na2vs0mg"},{"bike_id":"443a3fb1-e6f8-4551-9dcb-92b2072390e6","system_id":"levelo_inurba_marseille","lat":43.30156,"lon":5.37699,"is_reserved":false,"is_disabled":false,"rental_uris":{"android":"levelo://app?vid=443a3fb1-e6f8-4551-9dcb-92b2072390e6","ios":"levelo://app?vid=443a3fb1-e6f8-4551-9dcb-92b2072390e6"},"vehicle_type_id":"4","last_reported":1741832213,"current_range_meters":10800,"station_id":"","pricing_plan_id":"cebpf4jnsgd1na2vs0mg"},{"bike_id":"ece86757-6640-491c-a421-ba8c6be1515c","system_id":"levelo_inurba_marseille","lat":43.25124,"lon":5.40333,"is_reserved":false,"is_disabled":false,"rental_uris":{"android":"levelo://app?vid=ece86757-6640-491c-a421-ba8c6be1515c","ios":"levelo://app?vid=ece86757-6640-491c-a421-ba8c6be1515c"},"vehicle_type_id":"4","last_reported":1741832213,"current_range_meters":10800,"station_id":"ce4bhlh2rcd13ifvqgig","pricing_plan_id":"cebpf4jnsgd1na2vs0mg"},{"bike_id":"2418d0da-086d-4e67-b2f5-3f1067242595","system_id":"levelo_inurba_marseille","lat":43.26227,"lon":5.40451,"is_reserved":false,"is_disabled":false,"rental_uris":{"android":"levelo://app?vid=2418d0da-086d-4e67-b2f5-3f1067242595","ios":"levelo://app?vid=2418d0da-086d-4e67-b2f5-3f1067242595"},"vehicle_type_id":"4","last_reported":1741832213,"current_range_meters":11200,"station_id":"ce4bhmh2rcd13ifvqgmg","pricing_plan_id":"cebpf4jnsgd1na2vs0mg"},{"bike_id":"559d880c-413b-4bec-b478-ce00f72287ce","system_id":"levelo_inurba_marseille","lat":43.31706,"lon":5.37759,"is_reserved":false,"is_disabled":false,"rental_uris":{"android":"levelo://app?vid=559d880c-413b-4bec-b478-ce00f72287ce","ios":"levelo://app?vid=559d880c-413b-4bec-b478-ce00f72287ce"},"vehicle_type_id":"4","last_reported":1741832213,"current_range_meters":11200,"station_id":"ce4bgth2rcd13ifvqch0","pricing_plan_id":"cebpf4jnsgd1na2vs0mg"},{"bike_id":"45fd1bb1-794d-4df4-b163-157b6c4166f2","system_id":"levelo_inurba_marseille","lat":43.31328,"lon":5.3969,"is_reserved":false,"is_disabled":false,"rental_uris":{"android":"levelo://app?vid=45fd1bb1-794d-4df4-b163-157b6c4166f2","ios":"levelo://app?vid=45fd1bb1-794d-4df4-b163-157b6c4166f2"},"vehicle_type_id":"4","last_reported":1741832213,"current_range_meters":11200,"station_id":"ce4bgvp2rcd13ifvqcu0","pricing_plan_id":"cebpf4jnsgd1na2vs0mg"},{"bike_id":"5412c073-a21a-4f09-b8b3-6e8cd885fd55","system_id":"levelo_inurba_marseille","lat":43.31056,"lon":5.38341,"is_reserved":false,"is_disabled":true,"rental_uris":{"android":"levelo://app?vid=5412c073-a21a-4f09-b8b3-6e8cd885fd55","ios":"levelo://app?vid=5412c073-a21a-4f09-b8b3-6e8cd885fd55"},"vehicle_type_id":"4","last_reported":1741832213,"current_range_meters":11200,"station_id":"ce4bgv92rcd13ifvqcr0","pricing_plan_id":"cebpf4jnsgd1na2vs0mg"},{"bike_id":"04b6b0f6-d318-40e6-a023-347d481d621c","system_id":"levelo_inurba_marseille","lat":43.29206,"lon":5.3756,"is_reserved":false,"is_disabled":false,"rental_uris":{"android":"levelo://app?vid=04b6b0f6-d318-40e6-a023-347d481d621c","ios":"levelo://app?vid=04b6b0f6-d318-40e6-a023-347d481d621c"},"vehicle_type_id":"4","last_reported":1741832213,"current_range_meters":11600,"station_id":"","pricing_plan_id":"cebpf4jnsgd1na2vs0mg"},{"bike_id":"2a582046-21ee-41f2-8491-144751555225","system_id":"levelo_inurba_marseille","lat":43.30347,"lon":5.40439,"is_reserved":false,"is_disabled":false,"rental_uris":{"android":"levelo://app?vid=2a582046-21ee-41f2-8491-144751555225","ios":"levelo://app?vid=2a582046-21ee-41f2-8491-144751555225"},"vehicle_type_id":"4","last_reported":1741832213,"current_range_meters":11600,"station_id":"ce4bh012rcd13ifvqd10","pricing_plan_id":"cebpf4jnsgd1na2vs0mg"},{"bike_id":"6df1e7f3-12c0-481c-9941-2246e17807ca","system_id":"levelo_inurba_marseille","lat":43.28489,"lon":5.36806,"is_reserved":false,"is_disabled":true,"rental_uris":{"android":"levelo://app?vid=6df1e7f3-12c0-481c-9941-2246e17807ca","ios":"levelo://app?vid=6df1e7f3-12c0-481c-9941-2246e17807ca"},"vehicle_type_id":"4","last_reported":1741832213,"current_range_meters":11600,"station_id":"","pricing_plan_id":"cebpf4jnsgd1na2vs0mg"},{"bike_id":"14cdb32a-9821-4b92-bebf-08afd4f081b1","system_id":"levelo_inurba_marseille","lat":43.29255,"lon":5.40922,"is_reserved":false,"is_disabled":false,"rental_uris":{"android":"levelo://app?vid=14cdb32a-9821-4b92-bebf-08afd4f081b1","ios":"levelo://app?vid=14cdb32a-9821-4b92-bebf-08afd4f081b1"},"vehicle_type_id":"4","last_reported":1741832213,"current_range_meters":11600,"station_id":"ce4bh192rcd13ifvqdc0","pricing_plan_id":"cebpf4jnsgd1na2vs0mg"},{"bike_id":"eed25f50-0672-43b6-899a-5b11c18349d9","system_id":"levelo_inurba_marseille","lat":43.285625,"lon":5.394959,"is_reserved":false,"is_disabled":false,"rental_uris":{"android":"levelo://app?vid=eed25f50-0672-43b6-899a-5b11c18349d9","ios":"levelo://app?vid=eed25f50-0672-43b6-899a-5b11c18349d9"},"vehicle_type_id":"4","last_reported":1741832213,"current_range_meters":11600,"station_id":"ce4bh292rcd13ifvqdg0","pricing_plan_id":"cebpf4jnsgd1na2vs0mg"},{"bike_id":"a94f52d3-8f92-4581-aa55-a6373f361c0f","system_id":"levelo_inurba_marseille","lat":43.30879,"lon":5.39654,"is_reserved":false,"is_disabled":false,"rental_uris":{"android":"levelo://app?vid=a94f52d3-8f92-4581-aa55-a6373f361c0f","ios":"levelo://app?vid=a94f52d3-8f92-4581-aa55-a6373f361c0f"},"vehicle_type_id":"4","last_reported":1741832213,"current_range_meters":11600,"station_id":"ce4bh012rcd13ifvqcv0","pricing_plan_id":"cebpf4jnsgd1na2vs0mg"},{"bike_id":"9c298458-9168-485c-a6fd-bc9aa475b8d1","system_id":"levelo_inurba_marseille","lat":43.293188,"lon":5.40624,"is_reserved":false,"is_disabled":false,"rental_uris":{"android":"levelo://app?vid=9c298458-9168-485c-a6fd-bc9aa475b8d1","ios":"levelo://app?vid=9c298458-9168-485c-a6fd-bc9aa475b8d1"},"vehicle_type_id":"4","last_reported":1741832213,"current_range_meters":11600,"station_id":"","pricing_plan_id":"cebpf4jnsgd1na2vs0mg"},{"bike_id":"7382db7c-ea28-4d6b-a6ac-0a5dc179880b","system_id":"levelo_inurba_marseille","lat":43.33092,"lon":5.38199,"is_reserved":false,"is_disabled":false,"rental_uris":{"android":"levelo://app?vid=7382db7c-ea28-4d6b-a6ac-0a5dc179880b","ios":"levelo://app?vid=7382db7c-ea28-4d6b-a6ac-0a5dc179880b"},"vehicle_type_id":"4","last_reported":1741832213,"current_range_meters":12000,"station_id":"","pricing_plan_id":"cebpf4jnsgd1na2vs0mg"},{"bike_id":"0c542f7d-ece8-4ab5-be0e-e8dc24df7532","system_id":"levelo_inurba_marseille","lat":43.28354,"lon":5.38113,"is_reserved":false,"is_disabled":false,"rental_uris":{"android":"levelo://app?vid=0c542f7d-ece8-4ab5-be0e-e8dc24df7532","ios":"levelo://app?vid=0c542f7d-ece8-4ab5-be0e-e8dc24df7532"},"vehicle_type_id":"4","last_reported":1741832213,"current_range_meters":12000,"station_id":"ce4bh412rcd13ifvqdr0","pricing_plan_id":"cebpf4jnsgd1na2vs0mg"},{"bike_id":"60c9af3c-da06-4543-8fc5-ffa3849ed252","system_id":"levelo_inurba_marseille","lat":43.27369,"lon":5.36242,"is_reserved":false,"is_disabled":false,"rental_uris":{"android":"levelo://app?vid=60c9af3c-da06-4543-8fc5-ffa3849ed252","ios":"levelo://app?vid=60c9af3c-da06-4543-8fc5-ffa3849ed252"},"vehicle_type_id":"4","last_reported":1741832213,"current_range_meters":12000,"station_id":"ce4bhbh2rcd13ifvqeo0","pricing_plan_id":"cebpf4jnsgd1na2vs0mg"},{"bike_id":"b6106f0a-b6d5-4aab-8c89-45d1fc8e55e7","system_id":"levelo_inurba_marseille","lat":43.30136,"lon":5.39878,"is_reserved":false,"is_disabled":false,"rental_uris":{"android":"levelo://app?vid=b6106f0a-b6d5-4aab-8c89-45d1fc8e55e7","ios":"levelo://app?vid=b6106f0a-b6d5-4aab-8c89-45d1fc8e55e7"},"vehicle_type_id":"4","last_reported":1741832213,"current_range_meters":12000,"station_id":"ce4bh0h2rcd13ifvqd40","pricing_plan_id":"cebpf4jnsgd1na2vs0mg"},{"bike_id":"ac03e251-f109-43a3-82d8-343daf4cd1d5","system_id":"levelo_inurba_marseille","lat":43.27927,"lon":5.41034,"is_reserved":false,"is_disabled":false,"rental_uris":{"android":"levelo://app?vid=ac03e251-f109-43a3-82d8-343daf4cd1d5","ios":"levelo://app?vid=ac03e251-f109-43a3-82d8-343daf4cd1d5"},"vehicle_type_id":"4","last_reported":1741832213,"current_range_meters":12000,"station_id":"ce4bhnp2rcd13ifvqh0g","pricing_plan_id":"cebpf4jnsgd1na2vs0mg"},{"bike_id":"43210ee2-7bae-42bd-8e6d-b2d5802f48a9","system_id":"levelo_inurba_marseille","lat":43.29045,"lon":5.399555,"is_reserved":false,"is_disabled":false,"rental_uris":{"android":"levelo://app?vid=43210ee2-7bae-42bd-8e6d-b2d5802f48a9","ios":"levelo://app?vid=43210ee2-7bae-42bd-8e6d-b2d5802f48a9"},"vehicle_type_id":"4","last_reported":1741832213,"current_range_meters":12000,"station_id":"ce4bh392rcd13ifvqdm0","pricing_plan_id":"cebpf4jnsgd1na2vs0mg"},{"bike_id":"93bf71d7-3544-4769-a1d2-0279c0ff4611","system_id":"levelo_inurba_marseille","lat":43.27937,"lon":5.41034,"is_reserved":false,"is_disabled":false,"rental_uris":{"android":"levelo://app?vid=93bf71d7-3544-4769-a1d2-0279c0ff4611","ios":"levelo://app?vid=93bf71d7-3544-4769-a1d2-0279c0ff4611"},"vehicle_type_id":"4","last_reported":1741832213,"current_range_meters":12000,"station_id":"ce4bhnp2rcd13ifvqh0g","pricing_plan_id":"cebpf4jnsgd1na2vs0mg"},{"bike_id":"967e9adb-3f27-45fb-b4c3-d8191857f404","system_id":"levelo_inurba_marseille","lat":43.29518,"lon":5.39403,"is_reserved":false,"is_disabled":false,"rental_uris":{"android":"levelo://app?vid=967e9adb-3f27-45fb-b4c3-d8191857f404","ios":"levelo://app?vid=967e9adb-3f27-45fb-b4c3-d8191857f404"},"vehicle_type_id":"4","last_reported":1741832213,"current_range_meters":12400,"station_id":"ce4bh292rcd13ifvqdf0","pricing_plan_id":"cebpf4jnsgd1na2vs0mg"},{"bike_id":"3082748f-98e4-4f65-aad3-436c5bc661ca","system_id":"levelo_inurba_marseille","lat":43.27983,"lon":5.40013,"is_reserved":false,"is_disabled":false,"rental_uris":{"android":"levelo://app?vid=3082748f-98e4-4f65-aad3-436c5bc661ca","ios":"levelo://app?vid=3082748f-98e4-4f65-aad3-436c5bc661ca"},"vehicle_type_id":"4","last_reported":1741832213,"current_range_meters":12400,"station_id":"ce4bho92rcd13ifvqh4g","pricing_plan_id":"cebpf4jnsgd1na2vs0mg"},{"bike_id":"96a2ded3-1991-4d9a-999d-06cdb7b93665","system_id":"levelo_inurba_marseille","lat":43.28729,"lon":5.36091,"is_reserved":false,"is_disabled":false,"rental_uris":{"android":"levelo://app?vid=96a2ded3-1991-4d9a-999d-06cdb7b93665","ios":"levelo://app?vid=96a2ded3-1991-4d9a-999d-06cdb7b93665"},"vehicle_type_id":"4","last_reported":1741832213,"current_range_meters":12400,"station_id":"cki0cbj6b192h4jlfktg","pricing_plan_id":"cebpf4jnsgd1na2vs0mg"},{"bike_id":"14584d64-8c35-48cb-b241-92b5577e6edf","system_id":"levelo_inurba_marseille","lat":43.27977,"lon":5.40031,"is_reserved":false,"is_disabled":false,"rental_uris":{"android":"levelo://app?vid=14584d64-8c35-48cb-b241-92b5577e6edf","ios":"levelo://app?vid=14584d64-8c35-48cb-b241-92b5577e6edf"},"vehicle_type_id":"4","last_reported":1741832213,"current_range_meters":12400,"station_id":"ce4bho92rcd13ifvqh4g","pricing_plan_id":"cebpf4jnsgd1na2vs0mg"},{"bike_id":"f2123f56-4b86-4f37-9277-4e46a6129744","system_id":"levelo_inurba_marseille","lat":43.27942,"lon":5.41033,"is_reserved":false,"is_disabled":false,"rental_uris":{"android":"levelo://app?vid=f2123f56-4b86-4f37-9277-4e46a6129744","ios":"levelo://app?vid=f2123f56-4b86-4f37-9277-4e46a6129744"},"vehicle_type_id":"4","last_reported":1741832213,"current_range_meters":12400,"station_id":"ce4bhnp2rcd13ifvqh0g","pricing_plan_id":"cebpf4jnsgd1na2vs0mg"},{"bike_id":"090953b7-cc15-4183-bb95-59952ed68ce5","system_id":"levelo_inurba_marseille","lat":43.29426,"lon":5.39737,"is_reserved":false,"is_disabled":false,"rental_uris":{"android":"levelo://app?vid=090953b7-cc15-4183-bb95-59952ed68ce5","ios":"levelo://app?vid=090953b7-cc15-4183-bb95-59952ed68ce5"},"vehicle_type_id":"4","last_reported":1741832213,"current_range_meters":12400,"station_id":"ce4bh3h2rcd13ifvqdo0","pricing_plan_id":"cebpf4jnsgd1na2vs0mg"},{"bike_id":"0118782e-a9be-4c57-a3c6-f989e8d3b9bf","system_id":"levelo_inurba_marseille","lat":43.24202,"lon":5.39732,"is_reserved":false,"is_disabled":false,"rental_uris":{"android":"levelo://app?vid=0118782e-a9be-4c57-a3c6-f989e8d3b9bf","ios":"levelo://app?vid=0118782e-a9be-4c57-a3c6-f989e8d3b9bf"},"vehicle_type_id":"4","last_reported":1741832213,"current_range_meters":12400,"station_id":"ce4bhn12rcd13ifvqgpg","pricing_plan_id":"cebpf4jnsgd1na2vs0mg"},{"bike_id":"278cc6d0-f87b-4a85-be1c-9ab962284920","system_id":"levelo_inurba_marseille","lat":43.31118,"lon":5.3779,"is_reserved":false,"is_disabled":false,"rental_uris":{"android":"levelo://app?vid=278cc6d0-f87b-4a85-be1c-9ab962284920","ios":"levelo://app?vid=278cc6d0-f87b-4a85-be1c-9ab962284920"},"vehicle_type_id":"4","last_reported":1741832213,"current_range_meters":12400,"station_id":"ce4bgt92rcd13ifvqcg0","pricing_plan_id":"cebpf4jnsgd1na2vs0mg"},{"bike_id":"3f79fd40-20c7-41e6-bf25-f409081cafe4","system_id":"levelo_inurba_marseille","lat":43.29254,"lon":5.40901,"is_reserved":false,"is_disabled":false,"rental_uris":{"android":"levelo://app?vid=3f79fd40-20c7-41e6-bf25-f409081cafe4","ios":"levelo://app?vid=3f79fd40-20c7-41e6-bf25-f409081cafe4"},"vehicle_type_id":"4","last_reported":1741832213,"current_range_meters":12400,"station_id":"ce4bh192rcd13ifvqdc0","pricing_plan_id":"cebpf4jnsgd1na2vs0mg"},{"bike_id":"303ff363-ae27-464f-897b-a8687ab6ce28","system_id":"levelo_inurba_marseille","lat":43.30888,"lon":5.39641,"is_reserved":false,"is_disabled":false,"rental_uris":{"android":"levelo://app?vid=303ff363-ae27-464f-897b-a8687ab6ce28","ios":"levelo://app?vid=303ff363-ae27-464f-897b-a8687ab6ce28"},"vehicle_type_id":"4","last_reported":1741832213,"current_range_meters":12400,"station_id":"ce4bh012rcd13ifvqcv0","pricing_plan_id":"cebpf4jnsgd1na2vs0mg"},{"bike_id":"673d81e8-8ab9-4ce6-83bf-142379266fb2","system_id":"levelo_inurba_marseille","lat":43.31062,"lon":5.38352,"is_reserved":false,"is_disabled":false,"rental_uris":{"android":"levelo://app?vid=673d81e8-8ab9-4ce6-83bf-142379266fb2","ios":"levelo://app?vid=673d81e8-8ab9-4ce6-83bf-142379266fb2"},"vehicle_type_id":"4","last_reported":1741832213,"current_range_meters":12800,"station_id":"ce4bgv92rcd13ifvqcr0","pricing_plan_id":"cebpf4jnsgd1na2vs0mg"},{"bike_id":"160ee366-45ff-4abc-859b-170d32229d5d","system_id":"levelo_inurba_marseille","lat":43.23964,"lon":5.36635,"is_reserved":false,"is_disabled":false,"rental_uris":{"android":"levelo://app?vid=160ee366-45ff-4abc-859b-170d32229d5d","ios":"levelo://app?vid=160ee366-45ff-4abc-859b-170d32229d5d"},"vehicle_type_id":"4","last_reported":1741832213,"current_range_meters":12800,"station_id":"ce4bhi12rcd13ifvqfp0","pricing_plan_id":"cebpf4jnsgd1na2vs0mg"},{"bike_id":"fd440347-0404-4c36-8fbe-7ebffd7a9e8f","system_id":"levelo_inurba_marseille","lat":43.33343,"lon":5.3961,"is_reserved":false,"is_disabled":false,"rental_uris":{"android":"levelo://app?vid=fd440347-0404-4c36-8fbe-7ebffd7a9e8f","ios":"levelo://app?vid=fd440347-0404-4c36-8fbe-7ebffd7a9e8f"},"vehicle_type_id":"4","last_reported":1741832213,"current_range_meters":12800,"station_id":"","pricing_plan_id":"cebpf4jnsgd1na2vs0mg"},{"bike_id":"894adb72-eba3-4c31-be33-a34cdb918fbd","system_id":"levelo_inurba_marseille","lat":43.25723,"lon":5.41104,"is_reserved":false,"is_disabled":false,"rental_uris":{"android":"levelo://app?vid=894adb72-eba3-4c31-be33-a34cdb918fbd","ios":"levelo://app?vid=894adb72-eba3-4c31-be33-a34cdb918fbd"},"vehicle_type_id":"4","last_reported":1741832213,"current_range_meters":12800,"station_id":"ce4bhkp2rcd13ifvqgd0","pricing_plan_id":"cebpf4jnsgd1na2vs0mg"},{"bike_id":"d1235ce3-1007-4d2d-9e28-ea39398a63a8","system_id":"levelo_inurba_marseille","lat":43.23207,"lon":5.35536,"is_reserved":false,"is_disabled":false,"rental_uris":{"android":"levelo://app?vid=d1235ce3-1007-4d2d-9e28-ea39398a63a8","ios":"levelo://app?vid=d1235ce3-1007-4d2d-9e28-ea39398a63a8"},"vehicle_type_id":"4","last_reported":1741832213,"current_range_meters":12800,"station_id":"ce4bhu92rcd13ifvqi70","pricing_plan_id":"cebpf4jnsgd1na2vs0mg"},{"bike_id":"fc3e2299-43e3-44f6-b38f-f445795becb9","system_id":"levelo_inurba_marseille","lat":43.31085,"lon":5.42446,"is_reserved":false,"is_disabled":false,"rental_uris":{"android":"levelo://app?vid=fc3e2299-43e3-44f6-b38f-f445795becb9","ios":"levelo://app?vid=fc3e2299-43e3-44f6-b38f-f445795becb9"},"vehicle_type_id":"4","last_reported":1741832213,"current_range_meters":12800,"station_id":"ce4bhp92rcd13ifvqhag","pricing_plan_id":"cebpf4jnsgd1na2vs0mg"},{"bike_id":"a823fe98-0845-44f0-af70-a3e75e70ed04","system_id":"levelo_inurba_marseille","lat":43.25007,"lon":5.38914,"is_reserved":false,"is_disabled":false,"rental_uris":{"android":"levelo://app?vid=a823fe98-0845-44f0-af70-a3e75e70ed04","ios":"levelo://app?vid=a823fe98-0845-44f0-af70-a3e75e70ed04"},"vehicle_type_id":"4","last_reported":1741832213,"current_range_meters":13600,"station_id":"ce4bhgp2rcd13ifvqfd0","pricing_plan_id":"cebpf4jnsgd1na2vs0mg"},{"bike_id":"6a01bcd6-d597-43ea-9f33-f612ae30f0a5","system_id":"levelo_inurba_marseille","lat":43.31494,"lon":5.3727,"is_reserved":false,"is_disabled":false,"rental_uris":{"android":"levelo://app?vid=6a01bcd6-d597-43ea-9f33-f612ae30f0a5","ios":"levelo://app?vid=6a01bcd6-d597-43ea-9f33-f612ae30f0a5"},"vehicle_type_id":"4","last_reported":1741832213,"current_range_meters":13600,"station_id":"ce4bgt12rcd13ifvqcd0","pricing_plan_id":"cebpf4jnsgd1na2vs0mg"},{"bike_id":"49975c1a-a0db-47db-88f0-bdd615732279","system_id":"levelo_inurba_marseille","lat":43.31326,"lon":5.3969,"is_reserved":false,"is_disabled":false,"rental_uris":{"android":"levelo://app?vid=49975c1a-a0db-47db-88f0-bdd615732279","ios":"levelo://app?vid=49975c1a-a0db-47db-88f0-bdd615732279"},"vehicle_type_id":"4","last_reported":1741832213,"current_range_meters":13600,"station_id":"ce4bgvp2rcd13ifvqcu0","pricing_plan_id":"cebpf4jnsgd1na2vs0mg"},{"bike_id":"d2773e10-f455-4491-8b29-022de0220a00","system_id":"levelo_inurba_marseille","lat":43.27673,"lon":5.38898,"is_reserved":false,"is_disabled":false,"rental_uris":{"android":"levelo://app?vid=d2773e10-f455-4491-8b29-022de0220a00","ios":"levelo://app?vid=d2773e10-f455-4491-8b29-022de0220a00"},"vehicle_type_id":"4","last_reported":1741832213,"current_range_meters":13600,"station_id":"ce4bhi12rcd13ifvqfo0","pricing_plan_id":"cebpf4jnsgd1na2vs0mg"},{"bike_id":"47e69b59-ebb6-4704-8786-703b1e4ed927","system_id":"levelo_inurba_marseille","lat":43.241771,"lon":5.397281,"is_reserved":false,"is_disabled":false,"rental_uris":{"android":"levelo://app?vid=47e69b59-ebb6-4704-8786-703b1e4ed927","ios":"levelo://app?vid=47e69b59-ebb6-4704-8786-703b1e4ed927"},"vehicle_type_id":"4","last_reported":1741832213,"current_range_meters":13600,"station_id":"ce4bhn12rcd13ifvqgpg","pricing_plan_id":"cebpf4jnsgd1na2vs0mg"},{"bike_id":"f550acae-a478-493d-8418-eb4ab17dc323","system_id":"levelo_inurba_marseille","lat":43.25011,"lon":5.38916,"is_reserved":false,"is_disabled":false,"rental_uris":{"android":"levelo://app?vid=f550acae-a478-493d-8418-eb4ab17dc323","ios":"levelo://app?vid=f550acae-a478-493d-8418-eb4ab17dc323"},"vehicle_type_id":"4","last_reported":1741832213,"current_range_meters":13600,"station_id":"ce4bhgp2rcd13ifvqfd0","pricing_plan_id":"cebpf4jnsgd1na2vs0mg"},{"bike_id":"c0d93da8-20a9-43de-ac96-41ac95e88f41","system_id":"levelo_inurba_marseille","lat":43.2866,"lon":5.3634,"is_reserved":false,"is_disabled":false,"rental_uris":{"android":"levelo://app?vid=c0d93da8-20a9-43de-ac96-41ac95e88f41","ios":"levelo://app?vid=c0d93da8-20a9-43de-ac96-41ac95e88f41"},"vehicle_type_id":"4","last_reported":1741832213,"current_range_meters":13600,"station_id":"ce4bhah2rcd13ifvqej0","pricing_plan_id":"cebpf4jnsgd1na2vs0mg"},{"bike_id":"62d17995-9965-4167-bc6a-6c764d8919d0","system_id":"levelo_inurba_marseille","lat":43.30924,"lon":5.40155,"is_reserved":false,"is_disabled":false,"rental_uris":{"android":"levelo://app?vid=62d17995-9965-4167-bc6a-6c764d8919d0","ios":"levelo://app?vid=62d17995-9965-4167-bc6a-6c764d8919d0"},"vehicle_type_id":"4","last_reported":1741832213,"current_range_meters":13600,"station_id":"ce4bgvp2rcd13ifvqct0","pricing_plan_id":"cebpf4jnsgd1na2vs0mg"},{"bike_id":"1d1f4a3f-6c94-4e86-a876-396888239c67","system_id":"levelo_inurba_marseille","lat":43.232,"lon":5.3994,"is_reserved":false,"is_disabled":false,"rental_uris":{"android":"levelo://app?vid=1d1f4a3f-6c94-4e86-a876-396888239c67","ios":"levelo://app?vid=1d1f4a3f-6c94-4e86-a876-396888239c67"},"vehicle_type_id":"4","last_reported":1741832213,"current_range_meters":13600,"station_id":"","pricing_plan_id":"cebpf4jnsgd1na2vs0mg"},{"bike_id":"127fed04-fe1d-4143-a0f1-08353951ebd0","system_id":"levelo_inurba_marseille","lat":43.3128,"lon":5.40167,"is_reserved":false,"is_disabled":false,"rental_uris":{"android":"levelo://app?vid=127fed04-fe1d-4143-a0f1-08353951ebd0","ios":"levelo://app?vid=127fed04-fe1d-4143-a0f1-08353951ebd0"},"vehicle_type_id":"4","last_reported":1741832213,"current_range_meters":13600,"station_id":"ce4bh092rcd13ifvqd30","pricing_plan_id":"cebpf4jnsgd1na2vs0mg"},{"bike_id":"81b9cb1e-db42-4d55-9d6b-044a4092416a","system_id":"levelo_inurba_marseille","lat":43.309325,"lon":5.401463,"is_reserved":false,"is_disabled":false,"rental_uris":{"android":"levelo://app?vid=81b9cb1e-db42-4d55-9d6b-044a4092416a","ios":"levelo://app?vid=81b9cb1e-db42-4d55-9d6b-044a4092416a"},"vehicle_type_id":"4","last_reported":1741832213,"current_range_meters":14000,"station_id":"ce4bgvp2rcd13ifvqct0","pricing_plan_id":"cebpf4jnsgd1na2vs0mg"},{"bike_id":"94b30f95-19e8-4b24-809a-d279976d82ea","system_id":"levelo_inurba_marseille","lat":43.3137,"lon":5.39642,"is_reserved":false,"is_disabled":false,"rental_uris":{"android":"levelo://app?vid=94b30f95-19e8-4b24-809a-d279976d82ea","ios":"levelo://app?vid=94b30f95-19e8-4b24-809a-d279976d82ea"},"vehicle_type_id":"4","last_reported":1741832213,"current_range_meters":14000,"station_id":"","pricing_plan_id":"cebpf4jnsgd1na2vs0mg"},{"bike_id":"671d55cb-191d-47bc-89c2-8691b74c74cc","system_id":"levelo_inurba_marseille","lat":43.28469,"lon":5.35991,"is_reserved":false,"is_disabled":false,"rental_uris":{"android":"levelo://app?vid=671d55cb-191d-47bc-89c2-8691b74c74cc","ios":"levelo://app?vid=671d55cb-191d-47bc-89c2-8691b74c74cc"},"vehicle_type_id":"4","last_reported":1741832213,"current_range_meters":14000,"station_id":"","pricing_plan_id":"cebpf4jnsgd1na2vs0mg"},{"bike_id":"0807fab1-82bf-4bf0-bf30-2487c43c2d85","system_id":"levelo_inurba_marseille","lat":43.29201,"lon":5.39314,"is_reserved":false,"is_disabled":false,"rental_uris":{"android":"levelo://app?vid=0807fab1-82bf-4bf0-bf30-2487c43c2d85","ios":"levelo://app?vid=0807fab1-82bf-4bf0-bf30-2487c43c2d85"},"vehicle_type_id":"4","last_reported":1741832213,"current_range_meters":14000,"station_id":"ce4bh192rcd13ifvqdd0","pricing_plan_id":"cebpf4jnsgd1na2vs0mg"},{"bike_id":"3a0406cd-c8ef-42ef-b405-bb4a8bd64c09","system_id":"levelo_inurba_marseille","lat":43.3089,"lon":5.39622,"is_reserved":false,"is_disabled":false,"rental_uris":{"android":"levelo://app?vid=3a0406cd-c8ef-42ef-b405-bb4a8bd64c09","ios":"levelo://app?vid=3a0406cd-c8ef-42ef-b405-bb4a8bd64c09"},"vehicle_type_id":"4","last_reported":1741832213,"current_range_meters":14000,"station_id":"ce4bh012rcd13ifvqcv0","pricing_plan_id":"cebpf4jnsgd1na2vs0mg"},{"bike_id":"95583956-9373-403e-a9b7-af095ab52947","system_id":"levelo_inurba_marseille","lat":43.30939,"lon":5.40155,"is_reserved":false,"is_disabled":false,"rental_uris":{"android":"levelo://app?vid=95583956-9373-403e-a9b7-af095ab52947","ios":"levelo://app?vid=95583956-9373-403e-a9b7-af095ab52947"},"vehicle_type_id":"4","last_reported":1741832213,"current_range_meters":14400,"station_id":"ce4bgvp2rcd13ifvqct0","pricing_plan_id":"cebpf4jnsgd1na2vs0mg"},{"bike_id":"ecefee2d-0daa-4cc3-9d63-61a078601cfd","system_id":"levelo_inurba_marseille","lat":43.2869,"lon":5.37399,"is_reserved":false,"is_disabled":true,"rental_uris":{"android":"levelo://app?vid=ecefee2d-0daa-4cc3-9d63-61a078601cfd","ios":"levelo://app?vid=ecefee2d-0daa-4cc3-9d63-61a078601cfd"},"vehicle_type_id":"4","last_reported":1741832213,"current_range_meters":14400,"station_id":"ce4bh3p2rcd13ifvqdq0","pricing_plan_id":"cebpf4jnsgd1na2vs0mg"},{"bike_id":"1c03ca8c-c489-4aeb-9098-555db3778d79","system_id":"levelo_inurba_marseille","lat":43.32342,"lon":5.40656,"is_reserved":false,"is_disabled":false,"rental_uris":{"android":"levelo://app?vid=1c03ca8c-c489-4aeb-9098-555db3778d79","ios":"levelo://app?vid=1c03ca8c-c489-4aeb-9098-555db3778d79"},"vehicle_type_id":"4","last_reported":1741832213,"current_range_meters":14400,"station_id":"ce4bhq92rcd13ifvqhjg","pricing_plan_id":"cebpf4jnsgd1na2vs0mg"},{"bike_id":"4d6e400a-ab93-4a9d-878c-f8c7b50c0c46","system_id":"levelo_inurba_marseille","lat":43.28732,"lon":5.36083,"is_reserved":false,"is_disabled":false,"rental_uris":{"android":"levelo://app?vid=4d6e400a-ab93-4a9d-878c-f8c7b50c0c46","ios":"levelo://app?vid=4d6e400a-ab93-4a9d-878c-f8c7b50c0c46"},"vehicle_type_id":"4","last_reported":1741832213,"current_range_meters":14400,"station_id":"cki0cbj6b192h4jlfktg","pricing_plan_id":"cebpf4jnsgd1na2vs0mg"},{"bike_id":"9c067a7a-ca47-4ba3-982e-e3c13c2eb137","system_id":"levelo_inurba_marseille","lat":43.280753,"lon":5.396552,"is_reserved":false,"is_disabled":false,"rental_uris":{"android":"levelo://app?vid=9c067a7a-ca47-4ba3-982e-e3c13c2eb137","ios":"levelo://app?vid=9c067a7a-ca47-4ba3-982e-e3c13c2eb137"},"vehicle_type_id":"4","last_reported":1741832213,"current_range_meters":14400,"station_id":"ce4bho12rcd13ifvqh2g","pricing_plan_id":"cebpf4jnsgd1na2vs0mg"},{"bike_id":"8d93327b-4c27-4905-8185-af00d21521bf","system_id":"levelo_inurba_marseille","lat":43.28409,"lon":5.37515,"is_reserved":false,"is_disabled":false,"rental_uris":{"android":"levelo://app?vid=8d93327b-4c27-4905-8185-af00d21521bf","ios":"levelo://app?vid=8d93327b-4c27-4905-8185-af00d21521bf"},"vehicle_type_id":"4","last_reported":1741832213,"current_range_meters":14400,"station_id":"ce4bh412rcd13ifvqds0","pricing_plan_id":"cebpf4jnsgd1na2vs0mg"},{"bike_id":"16e3afe0-cf85-410c-88a0-8e337726a46a","system_id":"levelo_inurba_marseille","lat":43.26667,"lon":5.38597,"is_reserved":false,"is_disabled":false,"rental_uris":{"android":"levelo://app?vid=16e3afe0-cf85-410c-88a0-8e337726a46a","ios":"levelo://app?vid=16e3afe0-cf85-410c-88a0-8e337726a46a"},"vehicle_type_id":"4","last_reported":1741832213,"current_range_meters":14400,"station_id":"","pricing_plan_id":"cebpf4jnsgd1na2vs0mg"},{"bike_id":"b8df69cd-b52a-4f3c-a4f8-961ac24bcde1","system_id":"levelo_inurba_marseille","lat":43.24078,"lon":5.37745,"is_reserved":false,"is_disabled":false,"rental_uris":{"android":"levelo://app?vid=b8df69cd-b52a-4f3c-a4f8-961ac24bcde1","ios":"levelo://app?vid=b8df69cd-b52a-4f3c-a4f8-961ac24bcde1"},"vehicle_type_id":"4","last_reported":1741832213,"current_range_meters":14400,"station_id":"ce4bhnp2rcd13ifvqgvg","pricing_plan_id":"cebpf4jnsgd1na2vs0mg"},{"bike_id":"b2ef2790-569c-462a-85d7-d680aae1d18f","system_id":"levelo_inurba_marseille","lat":43.25086,"lon":5.39514,"is_reserved":false,"is_disabled":false,"rental_uris":{"android":"levelo://app?vid=b2ef2790-569c-462a-85d7-d680aae1d18f","ios":"levelo://app?vid=b2ef2790-569c-462a-85d7-d680aae1d18f"},"vehicle_type_id":"4","last_reported":1741832213,"current_range_meters":14400,"station_id":"ce4bhm12rcd13ifvqgkg","pricing_plan_id":"cebpf4jnsgd1na2vs0mg"},{"bike_id":"5610defd-1989-4c35-b1ab-5dd07964b516","system_id":"levelo_inurba_marseille","lat":43.31991,"lon":5.3814,"is_reserved":false,"is_disabled":false,"rental_uris":{"android":"levelo://app?vid=5610defd-1989-4c35-b1ab-5dd07964b516","ios":"levelo://app?vid=5610defd-1989-4c35-b1ab-5dd07964b516"},"vehicle_type_id":"4","last_reported":1741832213,"current_range_meters":14400,"station_id":"ce4bhr12rcd13ifvqhpg","pricing_plan_id":"cebpf4jnsgd1na2vs0mg"},{"bike_id":"1789fff5-1f9f-41e4-876c-54bb6ef81f84","system_id":"levelo_inurba_marseille","lat":43.294961,"lon":5.386523,"is_reserved":false,"is_disabled":false,"rental_uris":{"android":"levelo://app?vid=1789fff5-1f9f-41e4-876c-54bb6ef81f84","ios":"levelo://app?vid=1789fff5-1f9f-41e4-876c-54bb6ef81f84"},"vehicle_type_id":"4","last_reported":1741832213,"current_range_meters":14400,"station_id":"","pricing_plan_id":"cebpf4jnsgd1na2vs0mg"},{"bike_id":"6d3b21af-e6ed-4744-8f69-608405b1a7d1","system_id":"levelo_inurba_marseille","lat":43.30893,"lon":5.39642,"is_reserved":false,"is_disabled":false,"rental_uris":{"android":"levelo://app?vid=6d3b21af-e6ed-4744-8f69-608405b1a7d1","ios":"levelo://app?vid=6d3b21af-e6ed-4744-8f69-608405b1a7d1"},"vehicle_type_id":"4","last_reported":1741832213,"current_range_meters":14400,"station_id":"ce4bh012rcd13ifvqcv0","pricing_plan_id":"cebpf4jnsgd1na2vs0mg"},{"bike_id":"d0afc242-d584-4d4f-be55-e08ae87b44a3","system_id":"levelo_inurba_marseille","lat":43.2886,"lon":5.39293,"is_reserved":false,"is_disabled":false,"rental_uris":{"android":"levelo://app?vid=d0afc242-d584-4d4f-be55-e08ae87b44a3","ios":"levelo://app?vid=d0afc242-d584-4d4f-be55-e08ae87b44a3"},"vehicle_type_id":"4","last_reported":1741832213,"current_range_meters":14800,"station_id":"ce4bh2p2rcd13ifvqdi0","pricing_plan_id":"cebpf4jnsgd1na2vs0mg"},{"bike_id":"d0ab2a3e-a999-4385-92b9-ee36f2d9e18c","system_id":"levelo_inurba_marseille","lat":43.288584,"lon":5.358465,"is_reserved":false,"is_disabled":false,"rental_uris":{"android":"levelo://app?vid=d0ab2a3e-a999-4385-92b9-ee36f2d9e18c","ios":"levelo://app?vid=d0ab2a3e-a999-4385-92b9-ee36f2d9e18c"},"vehicle_type_id":"4","last_reported":1741832213,"current_range_meters":14800,"station_id":"ce4bhb12rcd13ifvqem0","pricing_plan_id":"cebpf4jnsgd1na2vs0mg"},{"bike_id":"588d101e-9f1e-4743-bfb3-1be6dffe89b7","system_id":"levelo_inurba_marseille","lat":43.28697,"lon":5.37389,"is_reserved":false,"is_disabled":false,"rental_uris":{"android":"levelo://app?vid=588d101e-9f1e-4743-bfb3-1be6dffe89b7","ios":"levelo://app?vid=588d101e-9f1e-4743-bfb3-1be6dffe89b7"},"vehicle_type_id":"4","last_reported":1741832213,"current_range_meters":14800,"station_id":"ce4bh3p2rcd13ifvqdq0","pricing_plan_id":"cebpf4jnsgd1na2vs0mg"},{"bike_id":"46f57872-eb49-4260-a97a-1df293c4fba1","system_id":"levelo_inurba_marseille","lat":43.30214,"lon":5.39458,"is_reserved":false,"is_disabled":false,"rental_uris":{"android":"levelo://app?vid=46f57872-eb49-4260-a97a-1df293c4fba1","ios":"levelo://app?vid=46f57872-eb49-4260-a97a-1df293c4fba1"},"vehicle_type_id":"4","last_reported":1741832213,"current_range_meters":14800,"station_id":"ce4bh0p2rcd13ifvqd70","pricing_plan_id":"cebpf4jnsgd1na2vs0mg"},{"bike_id":"9dc3cd16-9473-4470-a92c-a73db8613e21","system_id":"levelo_inurba_marseille","lat":43.31686,"lon":5.37757,"is_reserved":false,"is_disabled":false,"rental_uris":{"android":"levelo://app?vid=9dc3cd16-9473-4470-a92c-a73db8613e21","ios":"levelo://app?vid=9dc3cd16-9473-4470-a92c-a73db8613e21"},"vehicle_type_id":"4","last_reported":1741832213,"current_range_meters":14800,"station_id":"ce4bgth2rcd13ifvqch0","pricing_plan_id":"cebpf4jnsgd1na2vs0mg"},{"bike_id":"cce2bfca-6d07-4a5a-ac3f-a92a248bfaf8","system_id":"levelo_inurba_marseille","lat":43.29879,"lon":5.389145,"is_reserved":false,"is_disabled":false,"rental_uris":{"android":"levelo://app?vid=cce2bfca-6d07-4a5a-ac3f-a92a248bfaf8","ios":"levelo://app?vid=cce2bfca-6d07-4a5a-ac3f-a92a248bfaf8"},"vehicle_type_id":"4","last_reported":1741832213,"current_range_meters":14800,"station_id":"ce4bh392rcd13ifvqdl0","pricing_plan_id":"cebpf4jnsgd1na2vs0mg"},{"bike_id":"44184cb0-3e17-405e-b50a-ccb95ba1fe86","system_id":"levelo_inurba_marseille","lat":43.308912,"lon":5.37199,"is_reserved":false,"is_disabled":false,"rental_uris":{"android":"levelo://app?vid=44184cb0-3e17-405e-b50a-ccb95ba1fe86","ios":"levelo://app?vid=44184cb0-3e17-405e-b50a-ccb95ba1fe86"},"vehicle_type_id":"4","last_reported":1741832213,"current_range_meters":14800,"station_id":"ce4bguh2rcd13ifvqckg","pricing_plan_id":"cebpf4jnsgd1na2vs0mg"},{"bike_id":"70a53264-8bbe-452e-8c7e-ee5964d8270a","system_id":"levelo_inurba_marseille","lat":43.24081,"lon":5.37749,"is_reserved":false,"is_disabled":false,"rental_uris":{"android":"levelo://app?vid=70a53264-8bbe-452e-8c7e-ee5964d8270a","ios":"levelo://app?vid=70a53264-8bbe-452e-8c7e-ee5964d8270a"},"vehicle_type_id":"4","last_reported":1741832213,"current_range_meters":14800,"station_id":"ce4bhnp2rcd13ifvqgvg","pricing_plan_id":"cebpf4jnsgd1na2vs0mg"},{"bike_id":"3a254f63-8711-4d27-a9ac-39bd66820438","system_id":"levelo_inurba_marseille","lat":43.30915,"lon":5.40152,"is_reserved":false,"is_disabled":false,"rental_uris":{"android":"levelo://app?vid=3a254f63-8711-4d27-a9ac-39bd66820438","ios":"levelo://app?vid=3a254f63-8711-4d27-a9ac-39bd66820438"},"vehicle_type_id":"4","last_reported":1741832213,"current_range_meters":14800,"station_id":"ce4bgvp2rcd13ifvqct0","pricing_plan_id":"cebpf4jnsgd1na2vs0mg"},{"bike_id":"ad336315-c198-40cd-b172-140308cbad48","system_id":"levelo_inurba_marseille","lat":43.27175,"lon":5.40992,"is_reserved":false,"is_disabled":false,"rental_uris":{"android":"levelo://app?vid=ad336315-c198-40cd-b172-140308cbad48","ios":"levelo://app?vid=ad336315-c198-40cd-b172-140308cbad48"},"vehicle_type_id":"4","last_reported":1741832213,"current_range_meters":14400,"station_id":"ce4bhl12rcd13ifvqgf0","pricing_plan_id":"cebpf4jnsgd1na2vs0mg"},{"bike_id":"ceeee897-d459-42e7-a4f8-d97e0f4762de","system_id":"levelo_inurba_marseille","lat":43.28706,"lon":5.39966,"is_reserved":false,"is_disabled":false,"rental_uris":{"android":"levelo://app?vid=ceeee897-d459-42e7-a4f8-d97e0f4762de","ios":"levelo://app?vid=ceeee897-d459-42e7-a4f8-d97e0f4762de"},"vehicle_type_id":"4","last_reported":1741832213,"current_range_meters":14800,"station_id":"ce4bho92rcd13ifvqh3g","pricing_plan_id":"cebpf4jnsgd1na2vs0mg"},{"bike_id":"478c6b7e-c9f5-4336-b301-c63c8b41ef49","system_id":"levelo_inurba_marseille","lat":43.31173,"lon":5.40209,"is_reserved":false,"is_disabled":false,"rental_uris":{"android":"levelo://app?vid=478c6b7e-c9f5-4336-b301-c63c8b41ef49","ios":"levelo://app?vid=478c6b7e-c9f5-4336-b301-c63c8b41ef49"},"vehicle_type_id":"4","last_reported":1741832213,"current_range_meters":14800,"station_id":"","pricing_plan_id":"cebpf4jnsgd1na2vs0mg"},{"bike_id":"58189b20-7c9f-49f4-bc87-1c5a2e968cde","system_id":"levelo_inurba_marseille","lat":43.268251,"lon":5.411234,"is_reserved":false,"is_disabled":false,"rental_uris":{"android":"levelo://app?vid=58189b20-7c9f-49f4-bc87-1c5a2e968cde","ios":"levelo://app?vid=58189b20-7c9f-49f4-bc87-1c5a2e968cde"},"vehicle_type_id":"4","last_reported":1741832213,"current_range_meters":14800,"station_id":"","pricing_plan_id":"cebpf4jnsgd1na2vs0mg"},{"bike_id":"909e037c-5e8b-42ea-b90c-fd33ecc7d0b5","system_id":"levelo_inurba_marseille","lat":43.29349,"lon":5.40894,"is_reserved":false,"is_disabled":false,"rental_uris":{"android":"levelo://app?vid=909e037c-5e8b-42ea-b90c-fd33ecc7d0b5","ios":"levelo://app?vid=909e037c-5e8b-42ea-b90c-fd33ecc7d0b5"},"vehicle_type_id":"4","last_reported":1741832213,"current_range_meters":14800,"station_id":"","pricing_plan_id":"cebpf4jnsgd1na2vs0mg"},{"bike_id":"ad84dcdb-ca91-4fae-8613-31faa66d14ad","system_id":"levelo_inurba_marseille","lat":43.30328,"lon":5.40444,"is_reserved":false,"is_disabled":false,"rental_uris":{"android":"levelo://app?vid=ad84dcdb-ca91-4fae-8613-31faa66d14ad","ios":"levelo://app?vid=ad84dcdb-ca91-4fae-8613-31faa66d14ad"},"vehicle_type_id":"4","last_reported":1741832213,"current_range_meters":15200,"station_id":"ce4bh012rcd13ifvqd10","pricing_plan_id":"cebpf4jnsgd1na2vs0mg"},{"bike_id":"e403288d-b468-4ea8-b33d-644efb4c82c2","system_id":"levelo_inurba_marseille","lat":43.27824,"lon":5.40719,"is_reserved":false,"is_disabled":false,"rental_uris":{"android":"levelo://app?vid=e403288d-b468-4ea8-b33d-644efb4c82c2","ios":"levelo://app?vid=e403288d-b468-4ea8-b33d-644efb4c82c2"},"vehicle_type_id":"4","last_reported":1741832213,"current_range_meters":15200,"station_id":"ce4bhnh2rcd13ifvqgtg","pricing_plan_id":"cebpf4jnsgd1na2vs0mg"},{"bike_id":"1fdc081a-6925-4d03-9828-00cfe6e2a655","system_id":"levelo_inurba_marseille","lat":43.28704,"lon":5.37385,"is_reserved":false,"is_disabled":false,"rental_uris":{"android":"levelo://app?vid=1fdc081a-6925-4d03-9828-00cfe6e2a655","ios":"levelo://app?vid=1fdc081a-6925-4d03-9828-00cfe6e2a655"},"vehicle_type_id":"4","last_reported":1741832213,"current_range_meters":15200,"station_id":"ce4bh3p2rcd13ifvqdq0","pricing_plan_id":"cebpf4jnsgd1na2vs0mg"},{"bike_id":"1144b701-514d-4936-837f-5b6a1f20d793","system_id":"levelo_inurba_marseille","lat":43.307957,"lon":5.381663,"is_reserved":false,"is_disabled":false,"rental_uris":{"android":"levelo://app?vid=1144b701-514d-4936-837f-5b6a1f20d793","ios":"levelo://app?vid=1144b701-514d-4936-837f-5b6a1f20d793"},"vehicle_type_id":"4","last_reported":1741832213,"current_range_meters":15200,"station_id":"ce4bgt12rcd13ifvqce0","pricing_plan_id":"cebpf4jnsgd1na2vs0mg"},{"bike_id":"f27df232-bb49-4bc3-83b2-9956074d1efb","system_id":"levelo_inurba_marseille","lat":43.310727,"lon":5.383465,"is_reserved":false,"is_disabled":false,"rental_uris":{"android":"levelo://app?vid=f27df232-bb49-4bc3-83b2-9956074d1efb","ios":"levelo://app?vid=f27df232-bb49-4bc3-83b2-9956074d1efb"},"vehicle_type_id":"4","last_reported":1741832213,"current_range_meters":15200,"station_id":"ce4bgv92rcd13ifvqcr0","pricing_plan_id":"cebpf4jnsgd1na2vs0mg"},{"bike_id":"9ed23d75-e565-4d85-bd51-775a148a9246","system_id":"levelo_inurba_marseille","lat":43.24659,"lon":5.38134,"is_reserved":false,"is_disabled":false,"rental_uris":{"android":"levelo://app?vid=9ed23d75-e565-4d85-bd51-775a148a9246","ios":"levelo://app?vid=9ed23d75-e565-4d85-bd51-775a148a9246"},"vehicle_type_id":"4","last_reported":1741832213,"current_range_meters":15200,"station_id":"ce4bhih2rcd13ifvqfr0","pricing_plan_id":"cebpf4jnsgd1na2vs0mg"},{"bike_id":"2201ee96-a1ee-425d-8180-43956a73efa5","system_id":"levelo_inurba_marseille","lat":43.28658,"lon":5.36344,"is_reserved":false,"is_disabled":false,"rental_uris":{"android":"levelo://app?vid=2201ee96-a1ee-425d-8180-43956a73efa5","ios":"levelo://app?vid=2201ee96-a1ee-425d-8180-43956a73efa5"},"vehicle_type_id":"4","last_reported":1741832213,"current_range_meters":15200,"station_id":"ce4bhah2rcd13ifvqej0","pricing_plan_id":"cebpf4jnsgd1na2vs0mg"},{"bike_id":"927285e7-0e22-4c5b-9f53-d6fa1d997eea","system_id":"levelo_inurba_marseille","lat":43.25117,"lon":5.4036,"is_reserved":false,"is_disabled":false,"rental_uris":{"android":"levelo://app?vid=927285e7-0e22-4c5b-9f53-d6fa1d997eea","ios":"levelo://app?vid=927285e7-0e22-4c5b-9f53-d6fa1d997eea"},"vehicle_type_id":"4","last_reported":1741832213,"current_range_meters":15200,"station_id":"ce4bhlh2rcd13ifvqgig","pricing_plan_id":"cebpf4jnsgd1na2vs0mg"},{"bike_id":"d499aa7d-37fe-4efe-8d86-7fc011ad17ad","system_id":"levelo_inurba_marseille","lat":43.2306,"lon":5.3549,"is_reserved":false,"is_disabled":false,"rental_uris":{"android":"levelo://app?vid=d499aa7d-37fe-4efe-8d86-7fc011ad17ad","ios":"levelo://app?vid=d499aa7d-37fe-4efe-8d86-7fc011ad17ad"},"vehicle_type_id":"4","last_reported":1741832213,"current_range_meters":15200,"station_id":"cpo3342slgdg3j2ifvpg","pricing_plan_id":"cebpf4jnsgd1na2vs0mg"},{"bike_id":"82d7dd21-1379-4657-9d9a-8c2681e2f3c3","system_id":"levelo_inurba_marseille","lat":43.29937,"lon":5.36545,"is_reserved":false,"is_disabled":false,"rental_uris":{"android":"levelo://app?vid=82d7dd21-1379-4657-9d9a-8c2681e2f3c3","ios":"levelo://app?vid=82d7dd21-1379-4657-9d9a-8c2681e2f3c3"},"vehicle_type_id":"4","last_reported":1741832213,"current_range_meters":15200,"station_id":"ce4bgm92rcd13ifvqbr0","pricing_plan_id":"cebpf4jnsgd1na2vs0mg"},{"bike_id":"e3565dcf-4d34-49d7-919b-1234920ea466","system_id":"levelo_inurba_marseille","lat":43.33746,"lon":5.3745,"is_reserved":false,"is_disabled":false,"rental_uris":{"android":"levelo://app?vid=e3565dcf-4d34-49d7-919b-1234920ea466","ios":"levelo://app?vid=e3565dcf-4d34-49d7-919b-1234920ea466"},"vehicle_type_id":"4","last_reported":1741832213,"current_range_meters":15200,"station_id":"","pricing_plan_id":"cebpf4jnsgd1na2vs0mg"},{"bike_id":"2ceee151-07bf-4d36-80b7-294af7caa2e2","system_id":"levelo_inurba_marseille","lat":43.28363,"lon":5.38645,"is_reserved":false,"is_disabled":true,"rental_uris":{"android":"levelo://app?vid=2ceee151-07bf-4d36-80b7-294af7caa2e2","ios":"levelo://app?vid=2ceee151-07bf-4d36-80b7-294af7caa2e2"},"vehicle_type_id":"4","last_reported":1741832213,"current_range_meters":16000,"station_id":"ce4bh492rcd13ifvqdvg","pricing_plan_id":"cebpf4jnsgd1na2vs0mg"},{"bike_id":"f182cf00-e5df-43a0-878e-ed3730573c6e","system_id":"levelo_inurba_marseille","lat":43.23185,"lon":5.39967,"is_reserved":false,"is_disabled":false,"rental_uris":{"android":"levelo://app?vid=f182cf00-e5df-43a0-878e-ed3730573c6e","ios":"levelo://app?vid=f182cf00-e5df-43a0-878e-ed3730573c6e"},"vehicle_type_id":"4","last_reported":1741832213,"current_range_meters":16000,"station_id":"ce4bhn12rcd13ifvqgqg","pricing_plan_id":"cebpf4jnsgd1na2vs0mg"},{"bike_id":"00788c7d-268b-4ee1-8f7b-f88f7f856d0b","system_id":"levelo_inurba_marseille","lat":43.31116,"lon":5.37774,"is_reserved":false,"is_disabled":false,"rental_uris":{"android":"levelo://app?vid=00788c7d-268b-4ee1-8f7b-f88f7f856d0b","ios":"levelo://app?vid=00788c7d-268b-4ee1-8f7b-f88f7f856d0b"},"vehicle_type_id":"4","last_reported":1741832213,"current_range_meters":16000,"station_id":"ce4bgt92rcd13ifvqcg0","pricing_plan_id":"cebpf4jnsgd1na2vs0mg"},{"bike_id":"a66124cb-566a-4d33-93d8-1c0403fb5851","system_id":"levelo_inurba_marseille","lat":43.32751,"lon":5.39231,"is_reserved":false,"is_disabled":false,"rental_uris":{"android":"levelo://app?vid=a66124cb-566a-4d33-93d8-1c0403fb5851","ios":"levelo://app?vid=a66124cb-566a-4d33-93d8-1c0403fb5851"},"vehicle_type_id":"4","last_reported":1741832213,"current_range_meters":16000,"station_id":"","pricing_plan_id":"cebpf4jnsgd1na2vs0mg"},{"bike_id":"7e266a52-c107-42c0-9b42-44d2b54fa50b","system_id":"levelo_inurba_marseille","lat":43.25489,"lon":5.37647,"is_reserved":false,"is_disabled":true,"rental_uris":{"android":"levelo://app?vid=7e266a52-c107-42c0-9b42-44d2b54fa50b","ios":"levelo://app?vid=7e266a52-c107-42c0-9b42-44d2b54fa50b"},"vehicle_type_id":"4","last_reported":1741832213,"current_range_meters":16000,"station_id":"ce4bhh12rcd13ifvqff0","pricing_plan_id":"cebpf4jnsgd1na2vs0mg"},{"bike_id":"76938d2c-796b-45fc-aebf-a74c87d1b386","system_id":"levelo_inurba_marseille","lat":43.307746,"lon":5.376474,"is_reserved":false,"is_disabled":false,"rental_uris":{"android":"levelo://app?vid=76938d2c-796b-45fc-aebf-a74c87d1b386","ios":"levelo://app?vid=76938d2c-796b-45fc-aebf-a74c87d1b386"},"vehicle_type_id":"4","last_reported":1741832213,"current_range_meters":16000,"station_id":"ce4bgv92rcd13ifvqcq0","pricing_plan_id":"cebpf4jnsgd1na2vs0mg"},{"bike_id":"6d41e3df-d59c-4c8f-855b-2c1aab2ac389","system_id":"levelo_inurba_marseille","lat":43.29277,"lon":5.40137,"is_reserved":false,"is_disabled":false,"rental_uris":{"android":"levelo://app?vid=6d41e3df-d59c-4c8f-855b-2c1aab2ac389","ios":"levelo://app?vid=6d41e3df-d59c-4c8f-855b-2c1aab2ac389"},"vehicle_type_id":"4","last_reported":1741832213,"current_range_meters":16000,"station_id":"ce4bh312rcd13ifvqdk0","pricing_plan_id":"cebpf4jnsgd1na2vs0mg"},{"bike_id":"f3291a48-4171-4dd1-b341-037b6e6f6b32","system_id":"levelo_inurba_marseille","lat":43.283404,"lon":5.38106,"is_reserved":false,"is_disabled":true,"rental_uris":{"android":"levelo://app?vid=f3291a48-4171-4dd1-b341-037b6e6f6b32","ios":"levelo://app?vid=f3291a48-4171-4dd1-b341-037b6e6f6b32"},"vehicle_type_id":"4","last_reported":1741832213,"current_range_meters":16000,"station_id":"ce4bh412rcd13ifvqdr0","pricing_plan_id":"cebpf4jnsgd1na2vs0mg"},