{"last_updated":1759248786,"ttl":60,"version":"2.2","data":{"bikes":[{"bike_id":"7fa20401-f469-4d1d-a158-4aca26b3ff00","system_id":"levelo_inurba_marseille","lat":43.28729,"lon":5.37414,"is_reserved":false,"is_disabled":true,"rental_uris":{"android":"levelo://app?vid=7fa20401-f469-4d1d-a158-4aca26b3ff00","ios":"levelo://app?vid=7fa20401-f469-4d1d-a158-4aca26b3ff00"},"vehicle_type_id":"4","last_reported":1759248786,"current_range_meters":2800,"station_id":"ce4bh3p2rcd13ifvqdq0","pricing_plan_id":"cebpf4jnsgd1na2vs0mg"},{"bike_id":"ab03a880-e11a-4c09-8a0c-f460081b9faa","system_id":"levelo_inurba_marseille","lat":43.25116,"lon":5.40323,"is_reserved":false,"is_disabled":false,"rental_uris":{"android":"levelo://app?vid=ab03a880-e11a-4c09-8a0c-f460081b9faa","ios":"levelo://app?vid=ab03a880-e11a-4c09-8a0c-f460081b9faa"},"vehicle_type_id":"4","last_reported":1759248786,"current_range_meters":2800,"station_id":"ce4bhlh2rcd13ifvqgig","pricing_plan_id":"cebpf4jnsgd1na2vs0mg"},{"bike_id":"620fc9b6-4393-4447-959c-23b800a0490b","system_id":"levelo_inurba_marseille","lat":43.2558,"lon":5.38209,"is_reserved":false,"is_disabled":false,"rental_uris":{"android":"levelo://app?vid=620fc9b6-4393-4447-959c-23b800a0490b","ios":"levelo://app?vid=620fc9b6-4393-4447-959c-23b800a0490b"},"vehicle_type_id":"4","last_reported":1759248786,"current_range_meters":2800,"station_id":"ce4bhih2rcd13ifvqfs0","pricing_plan_id":"cebpf4jnsgd1na2vs0mg"},{"bike_id":"8a4a8404-2223-404b-b9d6-fda388efd3eb","system_id":"levelo_inurba_marseille","lat":43.225399,"lon":5.348524,"is_reserved":false,"is_disabled":false,"rental_uris":{"android":"levelo://app?vid=8a4a8404-2223-404b-b9d6-fda388efd3eb","ios":"levelo://app?vid=8a4a8404-2223-404b-b9d6-fda388efd3eb"},"vehicle_type_id":"4","last_reported":1759248786,"current_range_meters":2800,"station_id":"","pricing_plan_id":"cebpf4jnsgd1na2vs0mg"},{"bike_id":"5c120f45-e85f-409a-bc94-38bda1e88677","system_id":"levelo_inurba_marseille","lat":43.25583,"lon":5.38237,"is_reserved":false,"is_disabled":false,"rental_uris":{"android":"levelo://app?vid=5c120f45-e85f-409a-bc94-38bda1e88677","ios":"levelo://app?vid=5c120f45-e85f-409a-bc94-38bda1e88677"},"vehicle_type_id":"4","last_reported":1759248786,"current_range_meters":2000,"station_id":"ce4bhih2rcd13ifvqfs0","pricing_plan_id":"cebpf4jnsgd1na2vs0mg"},{"bike_id":"a180971b-73b2-4389-a7d9-a777c50d03b2","system_id":"levelo_inurba_marseille","lat":43.29197,"lon":5.39355,"is_reserved":false,"is_disabled":false,"rental_uris":{"android":"levelo://app?vid=a180971b-73b2-4389-a7d9-a777c50d03b2","ios":"levelo://app?vid=a180971b-73b2-4389-a7d9-a777c50d03b2"},"vehicle_type_id":"4","last_reported":1759248786,"current_range_meters":3200,"station_id":"","pricing_plan_id":"cebpf4jnsgd1na2vs0mg"},{"bike_id":"355f6f80-2ea8-484d-9e78-42f84450b4c7","system_id":"levelo_inurba_marseille","lat":43.295864,"lon":5.367408,"is_reserved":false,"is_disabled":false,"rental_uris":{"android":"levelo://app?vid=355f6f80-2ea8-484d-9e78-42f84450b4c7","ios":"levelo://app?vid=355f6f80-2ea8-484d-9e78-42f84450b4c7"},"vehicle_type_id":"4","last_reported":1759248786,"current_range_meters":3200,"station_id":"ce4bgph2rcd13ifvqc2g","pricing_plan_id":"cebpf4jnsgd1na2vs0mg"},{"bike_id":"ada4e48e-012f-41fd-bb6f-a7a43946c003","system_id":"levelo_inurba_marseille","lat":43.29246,"lon":5.38435,"is_reserved":false,"is_disabled":false,"rental_uris":{"android":"levelo://app?vid=ada4e48e-012f-41fd-bb6f-a7a43946c003","ios":"levelo://app?vid=ada4e48e-012f-41fd-bb6f-a7a43946c003"},"vehicle_type_id":"4","last_reported":1759248786,"current_range_meters":3200,"station_id":"ce4bh692rcd13ifvqea0","pricing_plan_id":"cebpf4jnsgd1na2vs0mg"},{"bike_id":"4a8e1f31-05bd-4e88-86d9-a1dd6af4b0d7","system_id":"levelo_inurba_marseille","lat":43.27051,"lon":5.40263,"is_reserved":false,"is_disabled":false,"rental_uris":{"android":"levelo://app?vid=4a8e1f31-05bd-4e88-86d9-a1dd6af4b0d7","ios":"levelo://app?vid=4a8e1f31-05bd-4e88-86d9-a1dd6af4b0d7"},"vehicle_type_id":"4","last_reported":1759248786,"current_range_meters":3200,"station_id":"ce4bhk92rcd13ifvqgc0","pricing_plan_id":"cebpf4jnsgd1na2vs0mg"},{"bike_id":"5f5f9ea3-cb67-41c6-b294-9831a0458855","system_id":"levelo_inurba_marseille","lat":43.27615,"lon":5.36109,"is_reserved":false,"is_disabled":false,"rental_uris":{"android":"levelo://app?vid=5f5f9ea3-cb67-41c6-b294-9831a0458855","ios":"levelo://app?vid=5f5f9ea3-cb67-41c6-b294-9831a0458855"},"vehicle_type_id":"4","last_reported":1759248786,"current_range_meters":3200,"station_id":"ce4bgj92rcd13ifvqbe0","pricing_plan_id":"cebpf4jnsgd1na2vs0mg"},{"bike_id":"258ab053-1083-4ca9-a32a-1e85f085fc22","system_id":"levelo_inurba_marseille","lat":43.337444,"lon":5.374475,"is_reserved":false,"is_disabled":false,"rental_uris":{"android":"levelo://app?vid=258ab053-1083-4ca9-a32a-1e85f085fc22","ios":"levelo://app?vid=258ab053-1083-4ca9-a32a-1e85f085fc22"},"vehicle_type_id":"4","last_reported":1759248786,"current_range_meters":3200,"station_id":"","pricing_plan_id":"cebpf4jnsgd1na2vs0mg"},{"bike_id":"8b353c9e-13c5-42ee-a76f-ccbd6269a3dc","system_id":"levelo_inurba_marseille","lat":43.30444,"lon":5.36689,"is_reserved":false,"is_disabled":false,"rental_uris":{"android":"levelo://app?vid=8b353c9e-13c5-42ee-a76f-ccbd6269a3dc","ios":"levelo://app?vid=8b353c9e-13c5-42ee-a76f-ccbd6269a3dc"},"vehicle_type_id":"4","last_reported":1759248786,"current_range_meters":3600,"station_id":"","pricing_plan_id":"cebpf4jnsgd1na2vs0mg"},{"bike_id":"31cccf06-64e9-4a31-b7be-4b1a9553bcfa","system_id":"levelo_inurba_marseille","lat":43.297191,"lon":5.366009,"is_reserved":false,"is_disabled":false,"rental_uris":{"android":"levelo://app?vid=31cccf06-64e9-4a31-b7be-4b1a9553bcfa","ios":"levelo://app?vid=31cccf06-64e9-4a31-b7be-4b1a9553bcfa"},"vehicle_type_id":"4","last_reported":1759248786,"current_range_meters":3600,"station_id":"ce4bgn12rcd13ifvqbt0","pricing_plan_id":"cebpf4jnsgd1na2vs0mg"},{"bike_id":"35be46ea-fb63-4651-83ad-8a8471319a8e","system_id":"levelo_inurba_marseille","lat":43.28692,"lon":5.37392,"is_reserved":false,"is_disabled":false,"rental_uris":{"android":"levelo://app?vid=35be46ea-fb63-4651-83ad-8a8471319a8e","ios":"levelo://app?vid=35be46ea-fb63-4651-83ad-8a8471319a8e"},"vehicle_type_id":"4","last_reported":1759248786,"current_range_meters":3600,"station_id":"ce4bh3p2rcd13ifvqdq0","pricing_plan_id":"cebpf4jnsgd1na2vs0mg"},{"bike_id":"7f75ac74-fb23-4b00-84af-8fa4b884e915","system_id":"levelo_inurba_marseille","lat":43.28699,"lon":5.3999,"is_reserved":false,"is_disabled":false,"rental_uris":{"android":"levelo://app?vid=7f75ac74-fb23-4b00-84af-8fa4b884e915","ios":"levelo://app?vid=7f75ac74-fb23-4b00-84af-8fa4b884e915"},"vehicle_type_id":"4","last_reported":1759248786,"current_range_meters":3600,"station_id":"ce4bho92rcd13ifvqh3g","pricing_plan_id":"cebpf4jnsgd1na2vs0mg"},{"bike_id":"a81a4923-bcf0-4e14-a1ab-8c077f94302f","system_id":"levelo_inurba_marseille","lat":43.29597,"lon":5.38106,"is_reserved":false,"is_disabled":false,"rental_uris":{"android":"levelo://app?vid=a81a4923-bcf0-4e14-a1ab-8c077f94302f","ios":"levelo://app?vid=a81a4923-bcf0-4e14-a1ab-8c077f94302f"},"vehicle_type_id":"4","last_reported":1759248786,"current_range_meters":3600,"station_id":"ce4bgl12rcd13ifvqbo0","pricing_plan_id":"cebpf4jnsgd1na2vs0mg"},{"bike_id":"a599d1b2-b269-4a47-a41b-8fef4d790dea","system_id":"levelo_inurba_marseille","lat":43.29421,"lon":5.43233,"is_reserved":false,"is_disabled":false,"rental_uris":{"android":"levelo://app?vid=a599d1b2-b269-4a47-a41b-8fef4d790dea","ios":"levelo://app?vid=a599d1b2-b269-4a47-a41b-8fef4d790dea"},"vehicle_type_id":"4","last_reported":1759248786,"current_range_meters":3600,"station_id":"","pricing_plan_id":"cebpf4jnsgd1na2vs0mg"},{"bike_id":"2c6518be-b3f0-42d2-93c9-c1de9e54885f","system_id":"levelo_inurba_marseille","lat":43.29227,"lon":5.38219,"is_reserved":false,"is_disabled":false,"rental_uris":{"android":"levelo://app?vid=2c6518be-b3f0-42d2-93c9-c1de9e54885f","ios":"levelo://app?vid=2c6518be-b3f0-42d2-93c9-c1de9e54885f"},"vehicle_type_id":"4","last_reported":1759248786,"current_range_meters":4000,"station_id":"","pricing_plan_id":"cebpf4jnsgd1na2vs0mg"},{"bike_id":"ccdf0d62-1b00-465e-af9d-9b4bac0b6303","system_id":"levelo_inurba_marseille","lat":43.29273,"lon":5.36847,"is_reserved":false,"is_disabled":false,"rental_uris":{"android":"levelo://app?vid=ccdf0d62-1b00-465e-af9d-9b4bac0b6303","ios":"levelo://app?vid=ccdf0d62-1b00-465e-af9d-9b4bac0b6303"},"vehicle_type_id":"4","last_reported":1759248786,"current_range_meters":4000,"station_id":"ce4bhbp2rcd13ifvqesg","pricing_plan_id":"cebpf4jnsgd1na2vs0mg"},{"bike_id":"b4e5d137-7e78-4d95-ae02-cb5a8b9e3272","system_id":"levelo_inurba_marseille","lat":43.28615,"lon":5.35109,"is_reserved":false,"is_disabled":false,"rental_uris":{"android":"levelo://app?vid=b4e5d137-7e78-4d95-ae02-cb5a8b9e3272","ios":"levelo://app?vid=b4e5d137-7e78-4d95-ae02-cb5a8b9e3272"},"vehicle_type_id":"4","last_reported":1759248786,"current_range_meters":4000,"station_id":"ce4bhch2rcd13ifvqeug","pricing_plan_id":"cebpf4jnsgd1na2vs0mg"},{"bike_id":"3c54b4f2-346a-47c9-a326-a48155ae1e39","system_id":"levelo_inurba_marseille","lat":43.308453,"lon":5.396648,"is_reserved":false,"is_disabled":false,"rental_uris":{"android":"levelo://app?vid=3c54b4f2-346a-47c9-a326-a48155ae1e39","ios":"levelo://app?vid=3c54b4f2-346a-47c9-a326-a48155ae1e39"},"vehicle_type_id":"4","last_reported":1759248786,"current_range_meters":4000,"station_id":"ce4bh012rcd13ifvqcv0","pricing_plan_id":"cebpf4jnsgd1na2vs0mg"},{"bike_id":"ebae34f3-ce35-4d51-8610-5092e93b81f5","system_id":"levelo_inurba_marseille","lat":43.32026,"lon":5.41579,"is_reserved":false,"is_disabled":false,"rental_uris":{"android":"levelo://app?vid=ebae34f3-ce35-4d51-8610-5092e93b81f5","ios":"levelo://app?vid=ebae34f3-ce35-4d51-8610-5092e93b81f5"},"vehicle_type_id":"4","last_reported":1759248786,"current_range_meters":4000,"station_id":"ce4bhq92rcd13ifvqhkg","pricing_plan_id":"cebpf4jnsgd1na2vs0mg"},{"bike_id":"ee133ebc-0021-4905-a97c-e19e1b6fdc32","system_id":"levelo_inurba_marseille","lat":43.29273,"lon":5.38447,"is_reserved":false,"is_disabled":false,"rental_uris":{"android":"levelo://app?vid=ee133ebc-0021-4905-a97c-e19e1b6fdc32","ios":"levelo://app?vid=ee133ebc-0021-4905-a97c-e19e1b6fdc32"},"vehicle_type_id":"4","last_reported":1759248786,"current_range_meters":4000,"station_id":"ce4bh692rcd13ifvqea0","pricing_plan_id":"cebpf4jnsgd1na2vs0mg"},{"bike_id":"1dad2113-89e2-44fc-a0b6-ddd6a09baff1","system_id":"levelo_inurba_marseille","lat":43.337444,"lon":5.374475,"is_reserved":false,"is_disabled":false,"rental_uris":{"android":"levelo://app?vid=1dad2113-89e2-44fc-a0b6-ddd6a09baff1","ios":"levelo://app?vid=1dad2113-89e2-44fc-a0b6-ddd6a09baff1"},"vehicle_type_id":"4","last_reported":1759248786,"current_range_meters":4000,"station_id":"","pricing_plan_id":"cebpf4jnsgd1na2vs0mg"},{"bike_id":"ca660db5-13a2-4b17-89f6-c4a43f402701","system_id":"levelo_inurba_marseille","lat":43.31866,"lon":5.37058,"is_reserved":false,"is_disabled":false,"rental_uris":{"android":"levelo://app?vid=ca660db5-13a2-4b17-89f6-c4a43f402701","ios":"levelo://app?vid=ca660db5-13a2-4b17-89f6-c4a43f402701"},"vehicle_type_id":"4","last_reported":1759248786,"current_range_meters":4400,"station_id":"","pricing_plan_id":"cebpf4jnsgd1na2vs0mg"},{"bike_id":"8253fb63-599d-4004-b4be-3493111d1761","system_id":"levelo_inurba_marseille","lat":43.232,"lon":5.3557,"is_reserved":false,"is_disabled":false,"rental_uris":{"android":"levelo://app?vid=8253fb63-599d-4004-b4be-3493111d1761","ios":"levelo://app?vid=8253fb63-599d-4004-b4be-3493111d1761"},"vehicle_type_id":"4","last_reported":1759248786,"current_range_meters":4400,"station_id":"ce4bhu92rcd13ifvqi70","pricing_plan_id":"cebpf4jnsgd1na2vs0mg"},{"bike_id":"112a8798-39c8-4021-a48f-77dd3f50649c","system_id":"levelo_inurba_marseille","lat":43.28928,"lon":5.38408,"is_reserved":false,"is_disabled":false,"rental_uris":{"android":"levelo://app?vid=112a8798-39c8-4021-a48f-77dd3f50649c","ios":"levelo://app?vid=112a8798-39c8-4021-a48f-77dd3f50649c"},"vehicle_type_id":"4","last_reported":1759248786,"current_range_meters":4400,"station_id":"ce4bh612rcd13ifvqe6g","pricing_plan_id":"cebpf4jnsgd1na2vs0mg"},{"bike_id":"06782846-24fc-4313-80ce-55f0a8aadccf","system_id":"levelo_inurba_marseille","lat":43.30889,"lon":5.3719,"is_reserved":false,"is_disabled":false,"rental_uris":{"android":"levelo://app?vid=06782846-24fc-4313-80ce-55f0a8aadccf","ios":"levelo://app?vid=06782846-24fc-4313-80ce-55f0a8aadccf"},"vehicle_type_id":"4","last_reported":1759248786,"current_range_meters":4800,"station_id":"ce4bguh2rcd13ifvqckg","pricing_plan_id":"cebpf4jnsgd1na2vs0mg"},{"bike_id":"3b36e7ec-11e3-4006-a448-22e949a7a19d","system_id":"levelo_inurba_marseille","lat":43.229737,"lon":5.354151,"is_reserved":false,"is_disabled":false,"rental_uris":{"android":"levelo://app?vid=3b36e7ec-11e3-4006-a448-22e949a7a19d","ios":"levelo://app?vid=3b36e7ec-11e3-4006-a448-22e949a7a19d"},"vehicle_type_id":"4","last_reported":1759248786,"current_range_meters":4800,"station_id":"cpo3532slgdg3j2ikp40","pricing_plan_id":"cebpf4jnsgd1na2vs0mg"},{"bike_id":"8f56e7d6-92ce-4302-acc0-79c9c898d968","system_id":"levelo_inurba_marseille","lat":43.29276,"lon":5.36848,"is_reserved":false,"is_disabled":false,"rental_uris":{"android":"levelo://app?vid=8f56e7d6-92ce-4302-acc0-79c9c898d968","ios":"levelo://app?vid=8f56e7d6-92ce-4302-acc0-79c9c898d968"},"vehicle_type_id":"4","last_reported":1759248786,"current_range_meters":4800,"station_id":"ce4bhbp2rcd13ifvqesg","pricing_plan_id":"cebpf4jnsgd1na2vs0mg"},{"bike_id":"35e8f722-b82a-4247-beb8-7e2827829ce6","system_id":"levelo_inurba_marseille","lat":43.32405,"lon":5.3911,"is_reserved":false,"is_disabled":false,"rental_uris":{"android":"levelo://app?vid=35e8f722-b82a-4247-beb8-7e2827829ce6","ios":"levelo://app?vid=35e8f722-b82a-4247-beb8-7e2827829ce6"},"vehicle_type_id":"4","last_reported":1759248786,"current_range_meters":4800,"station_id":"","pricing_plan_id":"cebpf4jnsgd1na2vs0mg"},{"bike_id":"507be45a-9f82-40b8-be5e-e0f2d44cad0a","system_id":"levelo_inurba_marseille","lat":43.29,"lon":5.35615,"is_reserved":false,"is_disabled":false,"rental_uris":{"android":"levelo://app?vid=507be45a-9f82-40b8-be5e-e0f2d44cad0a","ios":"levelo://app?vid=507be45a-9f82-40b8-be5e-e0f2d44cad0a"},"vehicle_type_id":"4","last_reported":1759248786,"current_range_meters":4800,"station_id":"ce4bhb92rcd13ifvqen0","pricing_plan_id":"cebpf4jnsgd1na2vs0mg"},{"bike_id":"72d0bbff-c643-48a9-9818-bc42e3533eb0","system_id":"levelo_inurba_marseille","lat":43.29218,"lon":5.36086,"is_reserved":false,"is_disabled":false,"rental_uris":{"android":"levelo://app?vid=72d0bbff-c643-48a9-9818-bc42e3533eb0","ios":"levelo://app?vid=72d0bbff-c643-48a9-9818-bc42e3533eb0"},"vehicle_type_id":"4","last_reported":1759248786,"current_range_meters":4800,"station_id":"ce4bhbh2rcd13ifvqeqg","pricing_plan_id":"cebpf4jnsgd1na2vs0mg"},{"bike_id":"67ce8bdb-26de-48ae-9afc-fc5d9cabe83d","system_id":"levelo_inurba_marseille","lat":43.287168,"lon":5.399806,"is_reserved":false,"is_disabled":false,"rental_uris":{"android":"levelo://app?vid=67ce8bdb-26de-48ae-9afc-fc5d9cabe83d","ios":"levelo://app?vid=67ce8bdb-26de-48ae-9afc-fc5d9cabe83d"},"vehicle_type_id":"4","last_reported":1759248786,"current_range_meters":4800,"station_id":"ce4bho92rcd13ifvqh3g","pricing_plan_id":"cebpf4jnsgd1na2vs0mg"},{"bike_id":"ab8fcbb8-ec12-46c6-8016-bde26b1959c8","system_id":"levelo_inurba_marseille","lat":43.286997,"lon":5.399976,"is_reserved":false,"is_disabled":false,"rental_uris":{"android":"levelo://app?vid=ab8fcbb8-ec12-46c6-8016-bde26b1959c8","ios":"levelo://app?vid=ab8fcbb8-ec12-46c6-8016-bde26b1959c8"},"vehicle_type_id":"4","last_reported":1759248786,"current_range_meters":4800,"station_id":"ce4bho92rcd13ifvqh3g","pricing_plan_id":"cebpf4jnsgd1na2vs0mg"},{"bike_id":"e5378695-fba9-432a-9cfb-3b5b05e40fec","system_id":"levelo_inurba_marseille","lat":43.337986,"lon":5.374304,"is_reserved":false,"is_disabled":false,"rental_uris":{"android":"levelo://app?vid=e5378695-fba9-432a-9cfb-3b5b05e40fec","ios":"levelo://app?vid=e5378695-fba9-432a-9cfb-3b5b05e40fec"},"vehicle_type_id":"4","last_reported":1759248786,"current_range_meters":4800,"station_id":"","pricing_plan_id":"cebpf4jnsgd1na2vs0mg"},{"bike_id":"8eba698c-1343-4776-a7ef-1194c9c853da","system_id":"levelo_inurba_marseille","lat":43.2659,"lon":5.39417,"is_reserved":false,"is_disabled":false,"rental_uris":{"android":"levelo://app?vid=8eba698c-1343-4776-a7ef-1194c9c853da","ios":"levelo://app?vid=8eba698c-1343-4776-a7ef-1194c9c853da"},"vehicle_type_id":"4","last_reported":1759248786,"current_range_meters":5600,"station_id":"","pricing_plan_id":"cebpf4jnsgd1na2vs0mg"},{"bike_id":"18032ec6-ae41-4f89-a426-a25ee1c661b3","system_id":"levelo_inurba_marseille","lat":43.28272,"lon":5.35062,"is_reserved":false,"is_disabled":false,"rental_uris":{"android":"levelo://app?vid=18032ec6-ae41-4f89-a426-a25ee1c661b3","ios":"levelo://app?vid=18032ec6-ae41-4f89-a426-a25ee1c661b3"},"vehicle_type_id":"4","last_reported":1759248786,"current_range_meters":5600,"station_id":"ce4bhbp2rcd13ifvqerg","pricing_plan_id":"cebpf4jnsgd1na2vs0mg"},{"bike_id":"aae0fff4-79c4-4eff-a901-ce6dfad9d0e7","system_id":"levelo_inurba_marseille","lat":43.28073,"lon":5.38671,"is_reserved":false,"is_disabled":true,"rental_uris":{"android":"levelo://app?vid=aae0fff4-79c4-4eff-a901-ce6dfad9d0e7","ios":"levelo://app?vid=aae0fff4-79c4-4eff-a901-ce6dfad9d0e7"},"vehicle_type_id":"4","last_reported":1759248786,"current_range_meters":5600,"station_id":"","pricing_plan_id":"cebpf4jnsgd1na2vs0mg"},{"bike_id":"e0a3f118-7b21-4f13-91ed-245b811427d5","system_id":"levelo_inurba_marseille","lat":43.30924,"lon":5.40149,"is_reserved":false,"is_disabled":false,"rental_uris":{"android":"levelo://app?vid=e0a3f118-7b21-4f13-91ed-245b811427d5","ios":"levelo://app?vid=e0a3f118-7b21-4f13-91ed-245b811427d5"},"vehicle_type_id":"4","last_reported":1759248786,"current_range_meters":5600,"station_id":"ce4bgvp2rcd13ifvqct0","pricing_plan_id":"cebpf4jnsgd1na2vs0mg"},{"bike_id":"38df481d-fb1b-48f1-bae1-f1f467b43281","system_id":"levelo_inurba_marseille","lat":43.27069,"lon":5.42283,"is_reserved":false,"is_disabled":false,"rental_uris":{"android":"levelo://app?vid=38df481d-fb1b-48f1-bae1-f1f467b43281","ios":"levelo://app?vid=38df481d-fb1b-48f1-bae1-f1f467b43281"},"vehicle_type_id":"4","last_reported":1759248786,"current_range_meters":6000,"station_id":"ce4bhk92rcd13ifvqgb0","pricing_plan_id":"cebpf4jnsgd1na2vs0mg"},{"bike_id":"72d148ac-cb28-4855-8a99-9c74c09f0645","system_id":"levelo_inurba_marseille","lat":43.278104,"lon":5.407163,"is_reserved":false,"is_disabled":false,"rental_uris":{"android":"levelo://app?vid=72d148ac-cb28-4855-8a99-9c74c09f0645","ios":"levelo://app?vid=72d148ac-cb28-4855-8a99-9c74c09f0645"},"vehicle_type_id":"4","last_reported":1759248786,"current_range_meters":5600,"station_id":"ce4bhnh2rcd13ifvqgtg","pricing_plan_id":"cebpf4jnsgd1na2vs0mg"},{"bike_id":"bce74859-33f8-4cc1-ab00-a895db78c86d","system_id":"levelo_inurba_marseille","lat":43.305375,"lon":5.384289,"is_reserved":false,"is_disabled":false,"rental_uris":{"android":"levelo://app?vid=bce74859-33f8-4cc1-ab00-a895db78c86d","ios":"levelo://app?vid=bce74859-33f8-4cc1-ab00-a895db78c86d"},"vehicle_type_id":"4","last_reported":1759248786,"current_range_meters":5600,"station_id":"ce4bgg92rcd13ifvqb30","pricing_plan_id":"cebpf4jnsgd1na2vs0mg"},{"bike_id":"e1bd18be-2de1-4d00-8355-4fc80f9579eb","system_id":"levelo_inurba_marseille","lat":43.29268,"lon":5.38445,"is_reserved":false,"is_disabled":false,"rental_uris":{"android":"levelo://app?vid=e1bd18be-2de1-4d00-8355-4fc80f9579eb","ios":"levelo://app?vid=e1bd18be-2de1-4d00-8355-4fc80f9579eb"},"vehicle_type_id":"4","last_reported":1759248786,"current_range_meters":6000,"station_id":"ce4bh692rcd13ifvqea0","pricing_plan_id":"cebpf4jnsgd1na2vs0mg"},{"bike_id":"fe7fc2f6-6839-4dbe-9729-c38d799fab4b","system_id":"levelo_inurba_marseille","lat":43.28075,"lon":5.39676,"is_reserved":false,"is_disabled":false,"rental_uris":{"android":"levelo://app?vid=fe7fc2f6-6839-4dbe-9729-c38d799fab4b","ios":"levelo://app?vid=fe7fc2f6-6839-4dbe-9729-c38d799fab4b"},"vehicle_type_id":"4","last_reported":1759248786,"current_range_meters":6000,"station_id":"ce4bho12rcd13ifvqh2g","pricing_plan_id":"cebpf4jnsgd1na2vs0mg"},{"bike_id":"dccba672-1411-4bdc-bf33-16683ee8e3aa","system_id":"levelo_inurba_marseille","lat":43.25121,"lon":5.40322,"is_reserved":false,"is_disabled":false,"rental_uris":{"android":"levelo://app?vid=dccba672-1411-4bdc-bf33-16683ee8e3aa","ios":"levelo://app?vid=dccba672-1411-4bdc-bf33-16683ee8e3aa"},"vehicle_type_id":"4","last_reported":1759248786,"current_range_meters":5600,"station_id":"ce4bhlh2rcd13ifvqgig","pricing_plan_id":"cebpf4jnsgd1na2vs0mg"},{"bike_id":"85e421fc-d641-427b-b1fa-7a9519911e93","system_id":"levelo_inurba_marseille","lat":43.27209,"lon":5.39182,"is_reserved":false,"is_disabled":false,"rental_uris":{"android":"levelo://app?vid=85e421fc-d641-427b-b1fa-7a9519911e93","ios":"levelo://app?vid=85e421fc-d641-427b-b1fa-7a9519911e93"},"vehicle_type_id":"4","last_reported":1759248786,"current_range_meters":6400,"station_id":"ce4bhhp2rcd13ifvqfm0","pricing_plan_id":"cebpf4jnsgd1na2vs0mg"},{"bike_id":"29fb0313-96d0-4699-a2b9-d9bfae768dba","system_id":"levelo_inurba_marseille","lat":43.28158,"lon":5.42684,"is_reserved":false,"is_disabled":true,"rental_uris":{"android":"levelo://app?vid=29fb0313-96d0-4699-a2b9-d9bfae768dba","ios":"levelo://app?vid=29fb0313-96d0-4699-a2b9-d9bfae768dba"},"vehicle_type_id":"4","last_reported":1759248786,"current_range_meters":6400,"station_id":"ce4bhnh2rcd13ifvqgug","pricing_plan_id":"cebpf4jnsgd1na2vs0mg"},{"bike_id":"acbd8b5e-870f-4db1-ba03-50dd58748e6a","system_id":"levelo_inurba_marseille","lat":43.26491,"lon":5.39579,"is_reserved":false,"is_disabled":false,"rental_uris":{"android":"levelo://app?vid=acbd8b5e-870f-4db1-ba03-50dd58748e6a","ios":"levelo://app?vid=acbd8b5e-870f-4db1-ba03-50dd58748e6a"},"vehicle_type_id":"4","last_reported":1759248786,"current_range_meters":6400,"station_id":"ce4bhi12rcd13ifvqfq0","pricing_plan_id":"cebpf4jnsgd1na2vs0mg"},{"bike_id":"362c7488-4dc0-4e3d-9a2d-976252a70951","system_id":"levelo_inurba_marseille","lat":43.29031,"lon":5.39968,"is_reserved":false,"is_disabled":false,"rental_uris":{"android":"levelo://app?vid=362c7488-4dc0-4e3d-9a2d-976252a70951","ios":"levelo://app?vid=362c7488-4dc0-4e3d-9a2d-976252a70951"},"vehicle_type_id":"4","last_reported":1759248786,"current_range_meters":6400,"station_id":"ce4bh392rcd13ifvqdm0","pricing_plan_id":"cebpf4jnsgd1na2vs0mg"},{"bike_id":"82bf3578-65b7-4acb-9821-bd805a45f74a","system_id":"levelo_inurba_marseille","lat":43.28414,"lon":5.34983,"is_reserved":false,"is_disabled":false,"rental_uris":{"android":"levelo://app?vid=82bf3578-65b7-4acb-9821-bd805a45f74a","ios":"levelo://app?vid=82bf3578-65b7-4acb-9821-bd805a45f74a"},"vehicle_type_id":"4","last_reported":1759248786,"current_range_meters":6400,"station_id":"ce4bhbh2rcd13ifvqepg","pricing_plan_id":"cebpf4jnsgd1na2vs0mg"},{"bike_id":"53d98a8a-f69c-411f-93ba-5152ef9b8dcc","system_id":"levelo_inurba_marseille","lat":43.29036,"lon":5.38654,"is_reserved":false,"is_disabled":false,"rental_uris":{"android":"levelo://app?vid=53d98a8a-f69c-411f-93ba-5152ef9b8dcc","ios":"levelo://app?vid=53d98a8a-f69c-411f-93ba-5152ef9b8dcc"},"vehicle_type_id":"4","last_reported":1759248786,"current_range_meters":6400,"station_id":"ce4bh4p2rcd13ifvqe0g","pricing_plan_id":"cebpf4jnsgd1na2vs0mg"},{"bike_id":"aa123961-c527-4db0-9350-7d548f67905a","system_id":"levelo_inurba_marseille","lat":43.26325,"lon":5.39751,"is_reserved":false,"is_disabled":false,"rental_uris":{"android":"levelo://app?vid=aa123961-c527-4db0-9350-7d548f67905a","ios":"levelo://app?vid=aa123961-c527-4db0-9350-7d548f67905a"},"vehicle_type_id":"4","last_reported":1759248786,"current_range_meters":6800,"station_id":"","pricing_plan_id":"cebpf4jnsgd1na2vs0mg"},{"bike_id":"5a5f0890-1d3b-4da9-8863-5a0f4e6253ef","system_id":"levelo_inurba_marseille","lat":43.33017,"lon":5.39039,"is_reserved":false,"is_disabled":false,"rental_uris":{"android":"levelo://app?vid=5a5f0890-1d3b-4da9-8863-5a0f4e6253ef","ios":"levelo://app?vid=5a5f0890-1d3b-4da9-8863-5a0f4e6253ef"},"vehicle_type_id":"4","last_reported":1759248786,"current_range_meters":6800,"station_id":"ce4bhr92rcd13ifvqhrg","pricing_plan_id":"cebpf4jnsgd1na2vs0mg"},{"bike_id":"ea59b303-6900-42ad-9e79-5b0f95bedd6c","system_id":"levelo_inurba_marseille","lat":43.30443,"lon":5.36875,"is_reserved":false,"is_disabled":false,"rental_uris":{"android":"levelo://app?vid=ea59b303-6900-42ad-9e79-5b0f95bedd6c","ios":"levelo://app?vid=ea59b303-6900-42ad-9e79-5b0f95bedd6c"},"vehicle_type_id":"4","last_reported":1759248786,"current_range_meters":6800,"station_id":"","pricing_plan_id":"cebpf4jnsgd1na2vs0mg"},{"bike_id":"ce5e157e-4ef2-4c41-9b3b-54d3eecbfa45","system_id":"levelo_inurba_marseille","lat":43.2251,"lon":5.34839,"is_reserved":false,"is_disabled":false,"rental_uris":{"android":"levelo://app?vid=ce5e157e-4ef2-4c41-9b3b-54d3eecbfa45","ios":"levelo://app?vid=ce5e157e-4ef2-4c41-9b3b-54d3eecbfa45"},"vehicle_type_id":"4","last_reported":1759248786,"current_range_meters":6800,"station_id":"","pricing_plan_id":"cebpf4jnsgd1na2vs0mg"},{"bike_id":"30369c8f-6895-4e24-b2df-5d317aa542ed","system_id":"levelo_inurba_marseille","lat":43.24804,"lon":5.37461,"is_reserved":false,"is_disabled":true,"rental_uris":{"android":"levelo://app?vid=30369c8f-6895-4e24-b2df-5d317aa542ed","ios":"levelo://app?vid=30369c8f-6895-4e24-b2df-5d317aa542ed"},"vehicle_type_id":"4","last_reported":1759248786,"current_range_meters":7200,"station_id":"ce4bhgh2rcd13ifvqfb0","pricing_plan_id":"cebpf4jnsgd1na2vs0mg"},{"bike_id":"b0c27250-8d99-43a3-9637-c9fd5a625345","system_id":"levelo_inurba_marseille","lat":43.30297,"lon":5.39219,"is_reserved":false,"is_disabled":false,"rental_uris":{"android":"levelo://app?vid=b0c27250-8d99-43a3-9637-c9fd5a625345","ios":"levelo://app?vid=b0c27250-8d99-43a3-9637-c9fd5a625345"},"vehicle_type_id":"4","last_reported":1759248786,"current_range_meters":7200,"station_id":"ce4bgkh2rcd13ifvqbk0","pricing_plan_id":"cebpf4jnsgd1na2vs0mg"},{"bike_id":"ee96a502-9b76-492e-840a-498b02aefe72","system_id":"levelo_inurba_marseille","lat":43.32358,"lon":5.39224,"is_reserved":false,"is_disabled":false,"rental_uris":{"android":"levelo://app?vid=ee96a502-9b76-492e-840a-498b02aefe72","ios":"levelo://app?vid=ee96a502-9b76-492e-840a-498b02aefe72"},"vehicle_type_id":"4","last_reported":1759248786,"current_range_meters":7200,"station_id":"","pricing_plan_id":"cebpf4jnsgd1na2vs0mg"},{"bike_id":"707f001a-4bea-40ac-accb-09c54c04adf7","system_id":"levelo_inurba_marseille","lat":43.28426,"lon":5.37522,"is_reserved":false,"is_disabled":false,"rental_uris":{"android":"levelo://app?vid=707f001a-4bea-40ac-accb-09c54c04adf7","ios":"levelo://app?vid=707f001a-4bea-40ac-accb-09c54c04adf7"},"vehicle_type_id":"4","last_reported":1759248786,"current_range_meters":7200,"station_id":"ce4bh412rcd13ifvqds0","pricing_plan_id":"cebpf4jnsgd1na2vs0mg"},{"bike_id":"c37fb479-f793-4874-a13a-1676bd8ae535","system_id":"levelo_inurba_marseille","lat":43.29264,"lon":5.38447,"is_reserved":false,"is_disabled":false,"rental_uris":{"android":"levelo://app?vid=c37fb479-f793-4874-a13a-1676bd8ae535","ios":"levelo://app?vid=c37fb479-f793-4874-a13a-1676bd8ae535"},"vehicle_type_id":"4","last_reported":1759248786,"current_range_meters":7200,"station_id":"ce4bh692rcd13ifvqea0","pricing_plan_id":"cebpf4jnsgd1na2vs0mg"},{"bike_id":"2e8e4b55-0ca7-4b03-b7cf-6bb39aff6c93","system_id":"levelo_inurba_marseille","lat":43.21718,"lon":5.34604,"is_reserved":false,"is_disabled":false,"rental_uris":{"android":"levelo://app?vid=2e8e4b55-0ca7-4b03-b7cf-6bb39aff6c93","ios":"levelo://app?vid=2e8e4b55-0ca7-4b03-b7cf-6bb39aff6c93"},"vehicle_type_id":"4","last_reported":1759248786,"current_range_meters":8000,"station_id":"st_cvj6r9ubvosntc0bgbag","pricing_plan_id":"cebpf4jnsgd1na2vs0mg"},{"bike_id":"dd5e8987-9f51-4f50-bdd1-4945b8c8a574","system_id":"levelo_inurba_marseille","lat":43.25576,"lon":5.38252,"is_reserved":false,"is_disabled":true,"rental_uris":{"android":"levelo://app?vid=dd5e8987-9f51-4f50-bdd1-4945b8c8a574","ios":"levelo://app?vid=dd5e8987-9f51-4f50-bdd1-4945b8c8a574"},"vehicle_type_id":"4","last_reported":1759248786,"current_range_meters":8000,"station_id":"ce4bhih2rcd13ifvqfs0","pricing_plan_id":"cebpf4jnsgd1na2vs0mg"},{"bike_id":"c9f7c894-4df2-4643-ac68-955fcc67beeb","system_id":"levelo_inurba_marseille","lat":43.27994,"lon":5.41679,"is_reserved":false,"is_disabled":true,"rental_uris":{"android":"levelo://app?vid=c9f7c894-4df2-4643-ac68-955fcc67beeb","ios":"levelo://app?vid=c9f7c894-4df2-4643-ac68-955fcc67beeb"},"vehicle_type_id":"4","last_reported":1759248786,"current_range_meters":8000,"station_id":"ce4bho12rcd13ifvqh1g","pricing_plan_id":"cebpf4jnsgd1na2vs0mg"},{"bike_id":"6734c476-4598-422c-9549-b4dfcd11231a","system_id":"levelo_inurba_marseille","lat":43.29415,"lon":5.43251,"is_reserved":false,"is_disabled":false,"rental_uris":{"android":"levelo://app?vid=6734c476-4598-422c-9549-b4dfcd11231a","ios":"levelo://app?vid=6734c476-4598-422c-9549-b4dfcd11231a"},"vehicle_type_id":"4","last_reported":1759248786,"current_range_meters":8000,"station_id":"","pricing_plan_id":"cebpf4jnsgd1na2vs0mg"},{"bike_id":"f58f1558-ed70-45e0-8d79-3564206c37a9","system_id":"levelo_inurba_marseille","lat":43.248134,"lon":5.374617,"is_reserved":false,"is_disabled":false,"rental_uris":{"android":"levelo://app?vid=f58f1558-ed70-45e0-8d79-3564206c37a9","ios":"levelo://app?vid=f58f1558-ed70-45e0-8d79-3564206c37a9"},"vehicle_type_id":"4","last_reported":1759248786,"current_range_meters":8000,"station_id":"ce4bhgh2rcd13ifvqfb0","pricing_plan_id":"cebpf4jnsgd1na2vs0mg"},{"bike_id":"3488c383-d55f-4741-9d15-b11ca0c6bbb8","system_id":"levelo_inurba_marseille","lat":43.31154,"lon":5.38624,"is_reserved":false,"is_disabled":false,"rental_uris":{"android":"levelo://app?vid=3488c383-d55f-4741-9d15-b11ca0c6bbb8","ios":"levelo://app?vid=3488c383-d55f-4741-9d15-b11ca0c6bbb8"},"vehicle_type_id":"4","last_reported":1759248786,"current_range_meters":8000,"station_id":"","pricing_plan_id":"cebpf4jnsgd1na2vs0mg"},{"bike_id":"506cb450-a1e1-4d44-9246-740b8e0d101d","system_id":"levelo_inurba_marseille","lat":43.281,"lon":5.3784,"is_reserved":false,"is_disabled":false,"rental_uris":{"android":"levelo://app?vid=506cb450-a1e1-4d44-9246-740b8e0d101d","ios":"levelo://app?vid=506cb450-a1e1-4d44-9246-740b8e0d101d"},"vehicle_type_id":"4","last_reported":1759248786,"current_range_meters":8000,"station_id":"ce4bha12rcd13ifvqee0","pricing_plan_id":"cebpf4jnsgd1na2vs0mg"},{"bike_id":"9c4235da-d3d0-4056-aa6b-c6aa6e8e7367","system_id":"levelo_inurba_marseille","lat":43.30644,"lon":5.3751,"is_reserved":false,"is_disabled":false,"rental_uris":{"android":"levelo://app?vid=9c4235da-d3d0-4056-aa6b-c6aa6e8e7367","ios":"levelo://app?vid=9c4235da-d3d0-4056-aa6b-c6aa6e8e7367"},"vehicle_type_id":"4","last_reported":1759248786,"current_range_meters":8000,"station_id":"","pricing_plan_id":"cebpf4jnsgd1na2vs0mg"},{"bike_id":"72505f12-6d02-4900-bf49-aacddb3914a6","system_id":"levelo_inurba_marseille","lat":43.29575,"lon":5.3675,"is_reserved":false,"is_disabled":false,"rental_uris":{"android":"levelo://app?vid=72505f12-6d02-4900-bf49-aacddb3914a6","ios":"levelo://app?vid=72505f12-6d02-4900-bf49-aacddb3914a6"},"vehicle_type_id":"4","last_reported":1759248786,"current_range_meters":8000,"station_id":"ce4bgph2rcd13ifvqc2g","pricing_plan_id":"cebpf4jnsgd1na2vs0mg"},{"bike_id":"6d62b3c7-2ffd-4c0e-a34d-65c78cfd1596","system_id":"levelo_inurba_marseille","lat":43.29704,"lon":5.36713,"is_reserved":false,"is_disabled":false,"rental_uris":{"android":"levelo://app?vid=6d62b3c7-2ffd-4c0e-a34d-65c78cfd1596","ios":"levelo://app?vid=6d62b3c7-2ffd-4c0e-a34d-65c78cfd1596"},"vehicle_type_id":"4","last_reported":1759248786,"current_range_meters":8000,"station_id":"ce4bgn12rcd13ifvqbt0","pricing_plan_id":"cebpf4jnsgd1na2vs0mg"},{"bike_id":"a07a513e-e5a9-4481-8592-d991379bc662","system_id":"levelo_inurba_marseille","lat":43.33735,"lon":5.37481,"is_reserved":false,"is_disabled":false,"rental_uris":{"android":"levelo://app?vid=a07a513e-e5a9-4481-8592-d991379bc662","ios":"levelo://app?vid=a07a513e-e5a9-4481-8592-d991379bc662"},"vehicle_type_id":"4","last_reported":1759248786,"current_range_meters":8000,"station_id":"","pricing_plan_id":"cebpf4jnsgd1na2vs0mg"},{"bike_id":"889ee56b-0b98-41cf-bc27-89921a6bfbf5","system_id":"levelo_inurba_marseille","lat":43.25328,"lon":5.42179,"is_reserved":false,"is_disabled":false,"rental_uris":{"android":"levelo://app?vid=889ee56b-0b98-41cf-bc27-89921a6bfbf5","ios":"levelo://app?vid=889ee56b-0b98-41cf-bc27-89921a6bfbf5"},"vehicle_type_id":"4","last_reported":1759248786,"current_range_meters":8400,"station_id":"st_d2m65c5bi1j21697t3ng","pricing_plan_id":"cebpf4jnsgd1na2vs0mg"},{"bike_id":"1824d1a5-6abf-47b2-ac81-0e442779e954","system_id":"levelo_inurba_marseille","lat":43.2802,"lon":5.36949,"is_reserved":false,"is_disabled":true,"rental_uris":{"android":"levelo://app?vid=1824d1a5-6abf-47b2-ac81-0e442779e954","ios":"levelo://app?vid=1824d1a5-6abf-47b2-ac81-0e442779e954"},"vehicle_type_id":"4","last_reported":1759248786,"current_range_meters":8400,"station_id":"ce4bha12rcd13ifvqef0","pricing_plan_id":"cebpf4jnsgd1na2vs0mg"},{"bike_id":"c627b34a-8e81-4438-af3b-4fd0aab1c160","system_id":"levelo_inurba_marseille","lat":43.29663,"lon":5.36009,"is_reserved":false,"is_disabled":false,"rental_uris":{"android":"levelo://app?vid=c627b34a-8e81-4438-af3b-4fd0aab1c160","ios":"levelo://app?vid=c627b34a-8e81-4438-af3b-4fd0aab1c160"},"vehicle_type_id":"4","last_reported":1759248786,"current_range_meters":8400,"station_id":"","pricing_plan_id":"cebpf4jnsgd1na2vs0mg"},{"bike_id":"31421945-d69e-4975-b1a3-fe503ac2b8ec","system_id":"levelo_inurba_marseille","lat":43.28725,"lon":5.36085,"is_reserved":false,"is_disabled":false,"rental_uris":{"android":"levelo://app?vid=31421945-d69e-4975-b1a3-fe503ac2b8ec","ios":"levelo://app?vid=31421945-d69e-4975-b1a3-fe503ac2b8ec"},"vehicle_type_id":"4","last_reported":1759248786,"current_range_meters":8400,"station_id":"cki0cbj6b192h4jlfktg","pricing_plan_id":"cebpf4jnsgd1na2vs0mg"},{"bike_id":"d931694a-dad0-4d69-a077-1206faad70de","system_id":"levelo_inurba_marseille","lat":43.30259,"lon":5.4008,"is_reserved":false,"is_disabled":false,"rental_uris":{"android":"levelo://app?vid=d931694a-dad0-4d69-a077-1206faad70de","ios":"levelo://app?vid=d931694a-dad0-4d69-a077-1206faad70de"},"vehicle_type_id":"4","last_reported":1759248786,"current_range_meters":8400,"station_id":"ce4bgvh2rcd13ifvqcs0","pricing_plan_id":"cebpf4jnsgd1na2vs0mg"},{"bike_id":"7eaf7301-63e6-460d-89bb-3a02b6d1502e","system_id":"levelo_inurba_marseille","lat":43.30096,"lon":5.3909,"is_reserved":false,"is_disabled":false,"rental_uris":{"android":"levelo://app?vid=7eaf7301-63e6-460d-89bb-3a02b6d1502e","ios":"levelo://app?vid=7eaf7301-63e6-460d-89bb-3a02b6d1502e"},"vehicle_type_id":"4","last_reported":1759248786,"current_range_meters":8800,"station_id":"ce4bh192rcd13ifvqdb0","pricing_plan_id":"cebpf4jnsgd1na2vs0mg"},{"bike_id":"17236480-bbb3-4418-8f36-214e448ee37e","system_id":"levelo_inurba_marseille","lat":43.30726,"lon":5.42456,"is_reserved":false,"is_disabled":false,"rental_uris":{"android":"levelo://app?vid=17236480-bbb3-4418-8f36-214e448ee37e","ios":"levelo://app?vid=17236480-bbb3-4418-8f36-214e448ee37e"},"vehicle_type_id":"4","last_reported":1759248786,"current_range_meters":8800,"station_id":"st_cvj6ca6bvosntc0bfgr0","pricing_plan_id":"cebpf4jnsgd1na2vs0mg"},{"bike_id":"b3aac7b4-0ed6-4ddc-9d19-ef755d070cd4","system_id":"levelo_inurba_marseille","lat":43.308026,"lon":5.435257,"is_reserved":false,"is_disabled":false,"rental_uris":{"android":"levelo://app?vid=b3aac7b4-0ed6-4ddc-9d19-ef755d070cd4","ios":"levelo://app?vid=b3aac7b4-0ed6-4ddc-9d19-ef755d070cd4"},"vehicle_type_id":"4","last_reported":1759248786,"current_range_meters":8800,"station_id":"ce4bhph2rcd13ifvqheg","pricing_plan_id":"cebpf4jnsgd1na2vs0mg"},{"bike_id":"0662e5ec-17b3-4da7-8ffc-903097426f9d","system_id":"levelo_inurba_marseille","lat":43.31715,"lon":5.43709,"is_reserved":false,"is_disabled":false,"rental_uris":{"android":"levelo://app?vid=0662e5ec-17b3-4da7-8ffc-903097426f9d","ios":"levelo://app?vid=0662e5ec-17b3-4da7-8ffc-903097426f9d"},"vehicle_type_id":"4","last_reported":1759248786,"current_range_meters":9200,"station_id":"ce4bhp92rcd13ifvqhcg","pricing_plan_id":"cebpf4jnsgd1na2vs0mg"},{"bike_id":"95290dd0-4ddf-4455-97b8-462c733c1d1b","system_id":"levelo_inurba_marseille","lat":43.24397,"lon":5.37064,"is_reserved":false,"is_disabled":false,"rental_uris":{"android":"levelo://app?vid=95290dd0-4ddf-4455-97b8-462c733c1d1b","ios":"levelo://app?vid=95290dd0-4ddf-4455-97b8-462c733c1d1b"},"vehicle_type_id":"4","last_reported":1759248786,"current_range_meters":9200,"station_id":"ce4bhhh2rcd13ifvqfk0","pricing_plan_id":"cebpf4jnsgd1na2vs0mg"},{"bike_id":"fa7b8d5d-cda7-4720-9ca3-21b0406e462a","system_id":"levelo_inurba_marseille","lat":43.295248,"lon":5.37505,"is_reserved":false,"is_disabled":false,"rental_uris":{"android":"levelo://app?vid=fa7b8d5d-cda7-4720-9ca3-21b0406e462a","ios":"levelo://app?vid=fa7b8d5d-cda7-4720-9ca3-21b0406e462a"},"vehicle_type_id":"4","last_reported":1759248786,"current_range_meters":9200,"station_id":"","pricing_plan_id":"cebpf4jnsgd1na2vs0mg"},{"bike_id":"498de633-1978-409b-aa35-b617d56ba506","system_id":"levelo_inurba_marseille","lat":43.289401,"lon":5.366452,"is_reserved":false,"is_disabled":false,"rental_uris":{"android":"levelo://app?vid=498de633-1978-409b-aa35-b617d56ba506","ios":"levelo://app?vid=498de633-1978-409b-aa35-b617d56ba506"},"vehicle_type_id":"4","last_reported":1759248786,"current_range_meters":9200,"station_id":"ce4bhap2rcd13ifvqek0","pricing_plan_id":"cebpf4jnsgd1na2vs0mg"},{"bike_id":"6bf7d261-356d-49f0-a5c0-79461d4bbff4","system_id":"levelo_inurba_marseille","lat":43.28697,"lon":5.37385,"is_reserved":false,"is_disabled":false,"rental_uris":{"android":"levelo://app?vid=6bf7d261-356d-49f0-a5c0-79461d4bbff4","ios":"levelo://app?vid=6bf7d261-356d-49f0-a5c0-79461d4bbff4"},"vehicle_type_id":"4","last_reported":1759248786,"current_range_meters":9200,"station_id":"ce4bh3p2rcd13ifvqdq0","pricing_plan_id":"cebpf4jnsgd1na2vs0mg"},{"bike_id":"a32a9dd8-d43d-45ca-b423-0697cf510c2b","system_id":"levelo_inurba_marseille","lat":43.28347,"lon":5.38111,"is_reserved":false,"is_disabled":false,"rental_uris":{"android":"levelo://app?vid=a32a9dd8-d43d-45ca-b423-0697cf510c2b","ios":"levelo://app?vid=a32a9dd8-d43d-45ca-b423-0697cf510c2b"},"vehicle_type_id":"4","last_reported":1759248786,"current_range_meters":9200,"station_id":"ce4bh412rcd13ifvqdr0","pricing_plan_id":"cebpf4jnsgd1na2vs0mg"},{"bike_id":"709a02d8-cbb2-400f-8286-4393f5a304cb","system_id":"levelo_inurba_marseille","lat":43.31366,"lon":5.384882,"is_reserved":false,"is_disabled":false,"rental_uris":{"android":"levelo://app?vid=709a02d8-cbb2-400f-8286-4393f5a304cb","ios":"levelo://app?vid=709a02d8-cbb2-400f-8286-4393f5a304cb"},"vehicle_type_id":"4","last_reported":1759248786,"current_range_meters":9200,"station_id":"ce4bgt92rcd13ifvqcf0","pricing_plan_id":"cebpf4jnsgd1na2vs0mg"},{"bike_id":"53a019c1-aa32-4ea1-a60e-83c2d00043d9","system_id":"levelo_inurba_marseille","lat":43.292268,"lon":5.360579,"is_reserved":false,"is_disabled":false,"rental_uris":{"android":"levelo://app?vid=53a019c1-aa32-4ea1-a60e-83c2d00043d9","ios":"levelo://app?vid=53a019c1-aa32-4ea1-a60e-83c2d00043d9"},"vehicle_type_id":"4","last_reported":1759248786,"current_range_meters":9600,"station_id":"","pricing_plan_id":"cebpf4jnsgd1na2vs0mg"},{"bike_id":"cc4a4276-24b5-4ef5-bde3-69ff67997976","system_id":"levelo_inurba_marseille","lat":43.29523,"lon":5.39049,"is_reserved":false,"is_disabled":false,"rental_uris":{"android":"levelo://app?vid=cc4a4276-24b5-4ef5-bde3-69ff67997976","ios":"levelo://app?vid=cc4a4276-24b5-4ef5-bde3-69ff67997976"},"vehicle_type_id":"4","last_reported":1759248786,"current_range_meters":9600,"station_id":"ce4bh3p2rcd13ifvqdp0","pricing_plan_id":"cebpf4jnsgd1na2vs0mg"},{"bike_id":"551e404c-9594-488f-9279-9b3567002ce7","system_id":"levelo_inurba_marseille","lat":43.29241,"lon":5.40901,"is_reserved":false,"is_disabled":false,"rental_uris":{"android":"levelo://app?vid=551e404c-9594-488f-9279-9b3567002ce7","ios":"levelo://app?vid=551e404c-9594-488f-9279-9b3567002ce7"},"vehicle_type_id":"4","last_reported":1759248786,"current_range_meters":9600,"station_id":"ce4bh192rcd13ifvqdc0","pricing_plan_id":"cebpf4jnsgd1na2vs0mg"},{"bike_id":"aebf0e68-ba27-412a-9ce2-11cc42127dee","system_id":"levelo_inurba_marseille","lat":43.337444,"lon":5.374475,"is_reserved":false,"is_disabled":false,"rental_uris":{"android":"levelo://app?vid=aebf0e68-ba27-412a-9ce2-11cc42127dee","ios":"levelo://app?vid=aebf0e68-ba27-412a-9ce2-11cc42127dee"},"vehicle_type_id":"4","last_reported":1759248786,"current_range_meters":9600,"station_id":"","pricing_plan_id":"cebpf4jnsgd1na2vs0mg"},{"bike_id":"400a13d3-2dcc-4b4f-91a1-3b839b24ea7d","system_id":"levelo_inurba_marseille","lat":43.2859,"lon":5.39224,"is_reserved":false,"is_disabled":false,"rental_uris":{"android":"levelo://app?vid=400a13d3-2dcc-4b4f-91a1-3b839b24ea7d","ios":"levelo://app?vid=400a13d3-2dcc-4b4f-91a1-3b839b24ea7d"},"vehicle_type_id":"4","last_reported":1759248786,"current_range_meters":10000,"station_id":"","pricing_plan_id":"cebpf4jnsgd1na2vs0mg"},{"bike_id":"5f8245c1-d6d3-4e20-af8e-6d792fdc04ce","system_id":"levelo_inurba_marseille","lat":43.29858,"lon":5.4563,"is_reserved":false,"is_disabled":false,"rental_uris":{"android":"levelo://app?vid=5f8245c1-d6d3-4e20-af8e-6d792fdc04ce","ios":"levelo://app?vid=5f8245c1-d6d3-4e20-af8e-6d792fdc04ce"},"vehicle_type_id":"4","last_reported":1759248786,"current_range_meters":10000,"station_id":"","pricing_plan_id":"cebpf4jnsgd1na2vs0mg"},{"bike_id":"8cbcf5e7-b804-4925-bbed-5f57e8580ccf","system_id":"levelo_inurba_marseille","lat":43.31519,"lon":5.36803,"is_reserved":false,"is_disabled":false,"rental_uris":{"android":"levelo://app?vid=8cbcf5e7-b804-4925-bbed-5f57e8580ccf","ios":"levelo://app?vid=8cbcf5e7-b804-4925-bbed-5f57e8580ccf"},"vehicle_type_id":"4","last_reported":1759248786,"current_range_meters":10000,"station_id":"","pricing_plan_id":"cebpf4jnsgd1na2vs0mg"},{"bike_id":"56d6a008-a903-4bd5-8ee3-1cec5d05c634","system_id":"levelo_inurba_marseille","lat":43.31749,"lon":5.39024,"is_reserved":false,"is_disabled":false,"rental_uris":{"android":"levelo://app?vid=56d6a008-a903-4bd5-8ee3-1cec5d05c634","ios":"levelo://app?vid=56d6a008-a903-4bd5-8ee3-1cec5d05c634"},"vehicle_type_id":"4","last_reported":1759248786,"current_range_meters":10000,"station_id":"ce4bhqp2rcd13ifvqhng","pricing_plan_id":"cebpf4jnsgd1na2vs0mg"},{"bike_id":"cfc0c48f-32a2-4fd8-b050-dfb053ce125d","system_id":"levelo_inurba_marseille","lat":43.2512,"lon":5.4032,"is_reserved":false,"is_disabled":false,"rental_uris":{"android":"levelo://app?vid=cfc0c48f-32a2-4fd8-b050-dfb053ce125d","ios":"levelo://app?vid=cfc0c48f-32a2-4fd8-b050-dfb053ce125d"},"vehicle_type_id":"4","last_reported":1759248786,"current_range_meters":10000,"station_id":"ce4bhlh2rcd13ifvqgig","pricing_plan_id":"cebpf4jnsgd1na2vs0mg"},{"bike_id":"6e7f5c25-83f9-4a4d-99bb-79111eb02c59","system_id":"levelo_inurba_marseille","lat":43.299367,"lon":5.365565,"is_reserved":false,"is_disabled":false,"rental_uris":{"android":"levelo://app?vid=6e7f5c25-83f9-4a4d-99bb-79111eb02c59","ios":"levelo://app?vid=6e7f5c25-83f9-4a4d-99bb-79111eb02c59"},"vehicle_type_id":"4","last_reported":1759248786,"current_range_meters":10000,"station_id":"ce4bgm92rcd13ifvqbr0","pricing_plan_id":"cebpf4jnsgd1na2vs0mg"},{"bike_id":"8bcf2c3a-021e-4ac2-9bc2-43660f523b6c","system_id":"levelo_inurba_marseille","lat":43.279938,"lon":5.416751,"is_reserved":false,"is_disabled":false,"rental_uris":{"android":"levelo://app?vid=8bcf2c3a-021e-4ac2-9bc2-43660f523b6c","ios":"levelo://app?vid=8bcf2c3a-021e-4ac2-9bc2-43660f523b6c"},"vehicle_type_id":"4","last_reported":1759248786,"current_range_meters":10000,"station_id":"ce4bho12rcd13ifvqh1g","pricing_plan_id":"cebpf4jnsgd1na2vs0mg"},{"bike_id":"099a47b0-3051-4585-a911-34b0f6e89daf","system_id":"levelo_inurba_marseille","lat":43.28974,"lon":5.37837,"is_reserved":false,"is_disabled":false,"rental_uris":{"android":"levelo://app?vid=099a47b0-3051-4585-a911-34b0f6e89daf","ios":"levelo://app?vid=099a47b0-3051-4585-a911-34b0f6e89daf"},"vehicle_type_id":"4","last_reported":1759248786,"current_range_meters":10800,"station_id":"ce4bh9p2rcd13ifvqed0","pricing_plan_id":"cebpf4jnsgd1na2vs0mg"},{"bike_id":"793de274-dac7-487a-98ca-591ed31bba5c","system_id":"levelo_inurba_marseille","lat":43.292816,"lon":5.384705,"is_reserved":false,"is_disabled":false,"rental_uris":{"android":"levelo://app?vid=793de274-dac7-487a-98ca-591ed31bba5c","ios":"levelo://app?vid=793de274-dac7-487a-98ca-591ed31bba5c"},"vehicle_type_id":"4","last_reported":1759248786,"current_range_meters":10800,"station_id":"ce4bh692rcd13ifvqea0","pricing_plan_id":"cebpf4jnsgd1na2vs0mg"},{"bike_id":"49980455-0f7d-4f91-b8f7-d588ac3737fe","system_id":"levelo_inurba_marseille","lat":43.30427,"lon":5.41296,"is_reserved":false,"is_disabled":false,"rental_uris":{"android":"levelo://app?vid=49980455-0f7d-4f91-b8f7-d588ac3737fe","ios":"levelo://app?vid=49980455-0f7d-4f91-b8f7-d588ac3737fe"},"vehicle_type_id":"4","last_reported":1759248786,"current_range_meters":10800,"station_id":"ce4bhop2rcd13ifvqh8g","pricing_plan_id":"cebpf4jnsgd1na2vs0mg"},{"bike_id":"15980fa3-36cd-4870-9013-6b5a3836a411","system_id":"levelo_inurba_marseille","lat":43.28843,"lon":5.39312,"is_reserved":false,"is_disabled":false,"rental_uris":{"android":"levelo://app?vid=15980fa3-36cd-4870-9013-6b5a3836a411","ios":"levelo://app?vid=15980fa3-36cd-4870-9013-6b5a3836a411"},"vehicle_type_id":"4","last_reported":1759248786,"current_range_meters":10000,"station_id":"ce4bh2p2rcd13ifvqdi0","pricing_plan_id":"cebpf4jnsgd1na2vs0mg"},{"bike_id":"51a09a2c-4ac4-4e73-a04a-e02b17332b7f","system_id":"levelo_inurba_marseille","lat":43.25497,"lon":5.3765,"is_reserved":false,"is_disabled":false,"rental_uris":{"android":"levelo://app?vid=51a09a2c-4ac4-4e73-a04a-e02b17332b7f","ios":"levelo://app?vid=51a09a2c-4ac4-4e73-a04a-e02b17332b7f"},"vehicle_type_id":"4","last_reported":1759248786,"current_range_meters":10800,"station_id":"ce4bhh12rcd13ifvqff0","pricing_plan_id":"cebpf4jnsgd1na2vs0mg"},{"bike_id":"99ce2063-5dfb-4ed3-a4a6-8fc3a54c4890","system_id":"levelo_inurba_marseille","lat":43.337444,"lon":5.374475,"is_reserved":false,"is_disabled":false,"rental_uris":{"android":"levelo://app?vid=99ce2063-5dfb-4ed3-a4a6-8fc3a54c4890","ios":"levelo://app?vid=99ce2063-5dfb-4ed3-a4a6-8fc3a54c4890"},"vehicle_type_id":"4","last_reported":1759248786,"current_range_meters":10800,"station_id":"","pricing_plan_id":"cebpf4jnsgd1na2vs0mg"},{"bike_id":"a87c4102-98c7-4d5f-b5a5-c15af241989e","system_id":"levelo_inurba_marseille","lat":43.29227,"lon":5.36072,"is_reserved":false,"is_disabled":false,"rental_uris":{"android":"levelo://app?vid=a87c4102-98c7-4d5f-b5a5-c15af241989e","ios":"levelo://app?vid=a87c4102-98c7-4d5f-b5a5-c15af241989e"},"vehicle_type_id":"4","last_reported":1759248786,"current_range_meters":11200,"station_id":"ce4bhbh2rcd13ifvqeqg","pricing_plan_id":"cebpf4jnsgd1na2vs0mg"},{"bike_id":"2a97276b-429b-43a8-989a-a76bb1aa5b04","system_id":"levelo_inurba_marseille","lat":43.29002,"lon":5.35613,"is_reserved":false,"is_disabled":false,"rental_uris":{"android":"levelo://app?vid=2a97276b-429b-43a8-989a-a76bb1aa5b04","ios":"levelo://app?vid=2a97276b-429b-43a8-989a-a76bb1aa5b04"},"vehicle_type_id":"4","last_reported":1759248786,"current_range_meters":11200,"station_id":"ce4bhb92rcd13ifvqen0","pricing_plan_id":"cebpf4jnsgd1na2vs0mg"},{"bike_id":"1135e237-9aa9-45aa-a46c-c30bce92e591","system_id":"levelo_inurba_marseille","lat":43.27568,"lon":5.3842,"is_reserved":false,"is_disabled":false,"rental_uris":{"android":"levelo://app?vid=1135e237-9aa9-45aa-a46c-c30bce92e591","ios":"levelo://app?vid=1135e237-9aa9-45aa-a46c-c30bce92e591"},"vehicle_type_id":"4","last_reported":1759248786,"current_range_meters":11200,"station_id":"ce4bhh92rcd13ifvqfi0","pricing_plan_id":"cebpf4jnsgd1na2vs0mg"},{"bike_id":"74d62a67-a470-4bfe-8011-7ef3da281e5c","system_id":"levelo_inurba_marseille","lat":43.31682,"lon":5.40437,"is_reserved":false,"is_disabled":false,"rental_uris":{"android":"levelo://app?vid=74d62a67-a470-4bfe-8011-7ef3da281e5c","ios":"levelo://app?vid=74d62a67-a470-4bfe-8011-7ef3da281e5c"},"vehicle_type_id":"4","last_reported":1759248786,"current_range_meters":11200,"station_id":"ce4bh012rcd13ifvqd00","pricing_plan_id":"cebpf4jnsgd1na2vs0mg"},{"bike_id":"56ca0258-bee9-4eb2-b3c5-63b5cd0b9e67","system_id":"levelo_inurba_marseille","lat":43.33737,"lon":5.37445,"is_reserved":false,"is_disabled":false,"rental_uris":{"android":"levelo://app?vid=56ca0258-bee9-4eb2-b3c5-63b5cd0b9e67","ios":"levelo://app?vid=56ca0258-bee9-4eb2-b3c5-63b5cd0b9e67"},"vehicle_type_id":"4","last_reported":1759248786,"current_range_meters":11200,"station_id":"","pricing_plan_id":"cebpf4jnsgd1na2vs0mg"},{"bike_id":"92662833-c6ac-4b02-b7df-1638b54b1972","system_id":"levelo_inurba_marseille","lat":43.33742,"lon":5.37449,"is_reserved":false,"is_disabled":false,"rental_uris":{"android":"levelo://app?vid=92662833-c6ac-4b02-b7df-1638b54b1972","ios":"levelo://app?vid=92662833-c6ac-4b02-b7df-1638b54b1972"},"vehicle_type_id":"4","last_reported":1759248786,"current_range_meters":11200,"station_id":"","pricing_plan_id":"cebpf4jnsgd1na2vs0mg"},{"bike_id":"f8d78e5f-60e1-4623-939f-49e76ff16505","system_id":"levelo_inurba_marseille","lat":43.33742,"lon":5.37448,"is_reserved":false,"is_disabled":false,"rental_uris":{"android":"levelo://app?vid=f8d78e5f-60e1-4623-939f-49e76ff16505","ios":"levelo://app?vid=f8d78e5f-60e1-4623-939f-49e76ff16505"},"vehicle_type_id":"4","last_reported":1759248786,"current_range_meters":11200,"station_id":"","pricing_plan_id":"cebpf4jnsgd1na2vs0mg"},{"bike_id":"84ebcd11-1124-45a8-b548-64f08413c385","system_id":"levelo_inurba_marseille","lat":43.28276,"lon":5.35067,"is_reserved":false,"is_disabled":false,"rental_uris":{"android":"levelo://app?vid=84ebcd11-1124-45a8-b548-64f08413c385","ios":"levelo://app?vid=84ebcd11-1124-45a8-b548-64f08413c385"},"vehicle_type_id":"4","last_reported":1759248786,"current_range_meters":11600,"station_id":"ce4bhbp2rcd13ifvqerg","pricing_plan_id":"cebpf4jnsgd1na2vs0mg"},{"bike_id":"2106a2bf-5c30-44f7-a55b-f5826140ca08","system_id":"levelo_inurba_marseille","lat":43.28153,"lon":5.42648,"is_reserved":false,"is_disabled":false,"rental_uris":{"android":"levelo://app?vid=2106a2bf-5c30-44f7-a55b-f5826140ca08","ios":"levelo://app?vid=2106a2bf-5c30-44f7-a55b-f5826140ca08"},"vehicle_type_id":"4","last_reported":1759248786,"current_range_meters":11600,"station_id":"ce4bhnh2rcd13ifvqgug","pricing_plan_id":"cebpf4jnsgd1na2vs0mg"},{"bike_id":"66152275-7f1e-4e9f-a8bb-fe5abe69a420","system_id":"levelo_inurba_marseille","lat":43.28379,"lon":5.34984,"is_reserved":false,"is_disabled":false,"rental_uris":{"android":"levelo://app?vid=66152275-7f1e-4e9f-a8bb-fe5abe69a420","ios":"levelo://app?vid=66152275-7f1e-4e9f-a8bb-fe5abe69a420"},"vehicle_type_id":"4","last_reported":1759248786,"current_range_meters":11600,"station_id":"ce4bhbh2rcd13ifvqepg","pricing_plan_id":"cebpf4jnsgd1na2vs0mg"},{"bike_id":"92d05395-7dc9-41cb-954a-64d9ebdbcfbe","system_id":"levelo_inurba_marseille","lat":43.29881,"lon":5.37457,"is_reserved":false,"is_disabled":false,"rental_uris":{"android":"levelo://app?vid=92d05395-7dc9-41cb-954a-64d9ebdbcfbe","ios":"levelo://app?vid=92d05395-7dc9-41cb-954a-64d9ebdbcfbe"},"vehicle_type_id":"4","last_reported":1759248786,"current_range_meters":11600,"station_id":"","pricing_plan_id":"cebpf4jnsgd1na2vs0mg"},{"bike_id":"6e1580fd-33c1-4292-af62-7bfba48e999b","system_id":"levelo_inurba_marseille","lat":43.29271,"lon":5.38447,"is_reserved":false,"is_disabled":false,"rental_uris":{"android":"levelo://app?vid=6e1580fd-33c1-4292-af62-7bfba48e999b","ios":"levelo://app?vid=6e1580fd-33c1-4292-af62-7bfba48e999b"},"vehicle_type_id":"4","last_reported":1759248786,"current_range_meters":11600,"station_id":"ce4bh692rcd13ifvqea0","pricing_plan_id":"cebpf4jnsgd1na2vs0mg"},{"bike_id":"fc403f4f-2827-43d8-b0cd-0a915d34f462","system_id":"levelo_inurba_marseille","lat":43.2318,"lon":5.3998,"is_reserved":false,"is_disabled":false,"rental_uris":{"android":"levelo://app?vid=fc403f4f-2827-43d8-b0cd-0a915d34f462","ios":"levelo://app?vid=fc403f4f-2827-43d8-b0cd-0a915d34f462"},"vehicle_type_id":"4","last_reported":1759248786,"current_range_meters":11600,"station_id":"ce4bhn12rcd13ifvqgqg","pricing_plan_id":"cebpf4jnsgd1na2vs0mg"},{"bike_id":"f6aabe6c-c49c-497b-85ea-0151a3e83a55","system_id":"levelo_inurba_marseille","lat":43.25083,"lon":5.3953,"is_reserved":false,"is_disabled":false,"rental_uris":{"android":"levelo://app?vid=f6aabe6c-c49c-497b-85ea-0151a3e83a55","ios":"levelo://app?vid=f6aabe6c-c49c-497b-85ea-0151a3e83a55"},"vehicle_type_id":"4","last_reported":1759248786,"current_range_meters":11600,"station_id":"ce4bhm12rcd13ifvqgkg","pricing_plan_id":"cebpf4jnsgd1na2vs0mg"},{"bike_id":"b75044ed-b042-49d3-9133-402b3a14b34f","system_id":"levelo_inurba_marseille","lat":43.25336,"lon":5.42177,"is_reserved":false,"is_disabled":false,"rental_uris":{"android":"levelo://app?vid=b75044ed-b042-49d3-9133-402b3a14b34f","ios":"levelo://app?vid=b75044ed-b042-49d3-9133-402b3a14b34f"},"vehicle_type_id":"4","last_reported":1759248786,"current_range_meters":11600,"station_id":"st_d2m65c5bi1j21697t3ng","pricing_plan_id":"cebpf4jnsgd1na2vs0mg"},{"bike_id":"511c6f45-d0fa-4b6e-9e84-80cc194a9370","system_id":"levelo_inurba_marseille","lat":43.3108,"lon":5.42435,"is_reserved":false,"is_disabled":false,"rental_uris":{"android":"levelo://app?vid=511c6f45-d0fa-4b6e-9e84-80cc194a9370","ios":"levelo://app?vid=511c6f45-d0fa-4b6e-9e84-80cc194a9370"},"vehicle_type_id":"4","last_reported":1759248786,"current_range_meters":11600,"station_id":"ce4bhp92rcd13ifvqhag","pricing_plan_id":"cebpf4jnsgd1na2vs0mg"},{"bike_id":"0aba4fe3-5dca-4d79-8b9d-2fc77d6e7d70","system_id":"levelo_inurba_marseille","lat":43.28418,"lon":5.349815,"is_reserved":false,"is_disabled":false,"rental_uris":{"android":"levelo://app?vid=0aba4fe3-5dca-4d79-8b9d-2fc77d6e7d70","ios":"levelo://app?vid=0aba4fe3-5dca-4d79-8b9d-2fc77d6e7d70"},"vehicle_type_id":"4","last_reported":1759248786,"current_range_meters":12000,"station_id":"","pricing_plan_id":"cebpf4jnsgd1na2vs0mg"},{"bike_id":"f56fc89b-3991-4048-8193-27cf7b6ee891","system_id":"levelo_inurba_marseille","lat":43.24169,"lon":5.36398,"is_reserved":false,"is_disabled":false,"rental_uris":{"android":"levelo://app?vid=f56fc89b-3991-4048-8193-27cf7b6ee891","ios":"levelo://app?vid=f56fc89b-3991-4048-8193-27cf7b6ee891"},"vehicle_type_id":"4","last_reported":1759248786,"current_range_meters":12000,"station_id":"cpo36qri1sfpv3e86is0","pricing_plan_id":"cebpf4jnsgd1na2vs0mg"},{"bike_id":"db0260fe-0c2d-4ce3-9390-8245275afe1f","system_id":"levelo_inurba_marseille","lat":43.29201,"lon":5.35801,"is_reserved":false,"is_disabled":false,"rental_uris":{"android":"levelo://app?vid=db0260fe-0c2d-4ce3-9390-8245275afe1f","ios":"levelo://app?vid=db0260fe-0c2d-4ce3-9390-8245275afe1f"},"vehicle_type_id":"4","last_reported":1759248786,"current_range_meters":12000,"station_id":"ce4bhb12rcd13ifvqel0","pricing_plan_id":"cebpf4jnsgd1na2vs0mg"},{"bike_id":"63c31cb7-7cc4-45ed-87a6-90523cfe5582","system_id":"levelo_inurba_marseille","lat":43.3014,"lon":5.38777,"is_reserved":false,"is_disabled":false,"rental_uris":{"android":"levelo://app?vid=63c31cb7-7cc4-45ed-87a6-90523cfe5582","ios":"levelo://app?vid=63c31cb7-7cc4-45ed-87a6-90523cfe5582"},"vehicle_type_id":"4","last_reported":1759248786,"current_range_meters":12000,"station_id":"ce4bghh2rcd13ifvqb60","pricing_plan_id":"cebpf4jnsgd1na2vs0mg"},{"bike_id":"ffa23515-b222-43ad-a42f-4b01640842d0","system_id":"levelo_inurba_marseille","lat":43.25329,"lon":5.42177,"is_reserved":false,"is_disabled":false,"rental_uris":{"android":"levelo://app?vid=ffa23515-b222-43ad-a42f-4b01640842d0","ios":"levelo://app?vid=ffa23515-b222-43ad-a42f-4b01640842d0"},"vehicle_type_id":"4","last_reported":1759248786,"current_range_meters":12000,"station_id":"st_d2m65c5bi1j21697t3ng","pricing_plan_id":"cebpf4jnsgd1na2vs0mg"},{"bike_id":"35750caf-9b66-4a89-9f74-7b424527d069","system_id":"levelo_inurba_marseille","lat":43.29834,"lon":5.36288,"is_reserved":false,"is_disabled":false,"rental_uris":{"android":"levelo://app?vid=35750caf-9b66-4a89-9f74-7b424527d069","ios":"levelo://app?vid=35750caf-9b66-4a89-9f74-7b424527d069"},"vehicle_type_id":"4","last_reported":1759248786,"current_range_meters":12400,"station_id":"ce4bgpp2rcd13ifvqc3g","pricing_plan_id":"cebpf4jnsgd1na2vs0mg"},{"bike_id":"8c889c5e-dbff-42f9-9e9a-56a3d0500fe9","system_id":"levelo_inurba_marseille","lat":43.30295,"lon":5.37001,"is_reserved":false,"is_disabled":false,"rental_uris":{"android":"levelo://app?vid=8c889c5e-dbff-42f9-9e9a-56a3d0500fe9","ios":"levelo://app?vid=8c889c5e-dbff-42f9-9e9a-56a3d0500fe9"},"vehicle_type_id":"4","last_reported":1759248786,"current_range_meters":12400,"station_id":"","pricing_plan_id":"cebpf4jnsgd1na2vs0mg"},{"bike_id":"c1476236-c8f0-4812-94e5-3f00d488ab7e","system_id":"levelo_inurba_marseille","lat":43.280011,"lon":5.416649,"is_reserved":false,"is_disabled":false,"rental_uris":{"android":"levelo://app?vid=c1476236-c8f0-4812-94e5-3f00d488ab7e","ios":"levelo://app?vid=c1476236-c8f0-4812-94e5-3f00d488ab7e"},"vehicle_type_id":"4","last_reported":1759248786,"current_range_meters":12400,"station_id":"","pricing_plan_id":"cebpf4jnsgd1na2vs0mg"},{"bike_id":"1adf72d4-f2e2-443a-bd81-e3e77d2b1f3e","system_id":"levelo_inurba_marseille","lat":43.26692,"lon":5.40087,"is_reserved":false,"is_disabled":false,"rental_uris":{"android":"levelo://app?vid=1adf72d4-f2e2-443a-bd81-e3e77d2b1f3e","ios":"levelo://app?vid=1adf72d4-f2e2-443a-bd81-e3e77d2b1f3e"},"vehicle_type_id":"4","last_reported":1759248786,"current_range_meters":12400,"station_id":"","pricing_plan_id":"cebpf4jnsgd1na2vs0mg"},{"bike_id":"d965195f-6b80-4d80-9134-10e98f98fa11","system_id":"levelo_inurba_marseille","lat":43.29028,"lon":5.38659,"is_reserved":false,"is_disabled":false,"rental_uris":{"android":"levelo://app?vid=d965195f-6b80-4d80-9134-10e98f98fa11","ios":"levelo://app?vid=d965195f-6b80-4d80-9134-10e98f98fa11"},"vehicle_type_id":"4","last_reported":1759248786,"current_range_meters":12400,"station_id":"ce4bh4p2rcd13ifvqe0g","pricing_plan_id":"cebpf4jnsgd1na2vs0mg"},{"bike_id":"d2f46c9e-a53c-42a7-ad54-fd7c896f4565","system_id":"levelo_inurba_marseille","lat":43.33797,"lon":5.37428,"is_reserved":false,"is_disabled":false,"rental_uris":{"android":"levelo://app?vid=d2f46c9e-a53c-42a7-ad54-fd7c896f4565","ios":"levelo://app?vid=d2f46c9e-a53c-42a7-ad54-fd7c896f4565"},"vehicle_type_id":"4","last_reported":1759248786,"current_range_meters":12400,"station_id":"","pricing_plan_id":"cebpf4jnsgd1na2vs0mg"},{"bike_id":"94afd071-129e-44bc-b2fe-3f717622dd67","system_id":"levelo_inurba_marseille","lat":43.26805,"lon":5.40263,"is_reserved":false,"is_disabled":false,"rental_uris":{"android":"levelo://app?vid=94afd071-129e-44bc-b2fe-3f717622dd67","ios":"levelo://app?vid=94afd071-129e-44bc-b2fe-3f717622dd67"},"vehicle_type_id":"4","last_reported":1759248786,"current_range_meters":12400,"station_id":"ce501612rcd8frsf0b60","pricing_plan_id":"cebpf4jnsgd1na2vs0mg"},{"bike_id":"8510cfb9-ccd6-4829-8d98-ea0c1b206f01","system_id":"levelo_inurba_marseille","lat":43.28012,"lon":5.41673,"is_reserved":false,"is_disabled":false,"rental_uris":{"android":"levelo://app?vid=8510cfb9-ccd6-4829-8d98-ea0c1b206f01","ios":"levelo://app?vid=8510cfb9-ccd6-4829-8d98-ea0c1b206f01"},"vehicle_type_id":"4","last_reported":1759248786,"current_range_meters":12800,"station_id":"ce4bho12rcd13ifvqh1g","pricing_plan_id":"cebpf4jnsgd1na2vs0mg"},{"bike_id":"b8a5f797-3dab-4439-aff4-7408f4880372","system_id":"levelo_inurba_marseille","lat":43.31887,"lon":5.40738,"is_reserved":false,"is_disabled":false,"rental_uris":{"android":"levelo://app?vid=b8a5f797-3dab-4439-aff4-7408f4880372","ios":"levelo://app?vid=b8a5f797-3dab-4439-aff4-7408f4880372"},"vehicle_type_id":"4","last_reported":1759248786,"current_range_meters":12800,"station_id":"ce4bhq12rcd13ifvqhig","pricing_plan_id":"cebpf4jnsgd1na2vs0mg"},{"bike_id":"fc432294-e19c-47a0-833a-6ebac6768ae5","system_id":"levelo_inurba_marseille","lat":43.24068,"lon":5.37756,"is_reserved":false,"is_disabled":false,"rental_uris":{"android":"levelo://app?vid=fc432294-e19c-47a0-833a-6ebac6768ae5","ios":"levelo://app?vid=fc432294-e19c-47a0-833a-6ebac6768ae5"},"vehicle_type_id":"4","last_reported":1759248786,"current_range_meters":12800,"station_id":"","pricing_plan_id":"cebpf4jnsgd1na2vs0mg"},{"bike_id":"e5df0502-766d-4942-b723-3afeb69594d8","system_id":"levelo_inurba_marseille","lat":43.34145,"lon":5.40912,"is_reserved":false,"is_disabled":false,"rental_uris":{"android":"levelo://app?vid=e5df0502-766d-4942-b723-3afeb69594d8","ios":"levelo://app?vid=e5df0502-766d-4942-b723-3afeb69594d8"},"vehicle_type_id":"4","last_reported":1759248786,"current_range_meters":12800,"station_id":"ce4bhqh2rcd13ifvqhlg","pricing_plan_id":"cebpf4jnsgd1na2vs0mg"},{"bike_id":"c40e87bf-c07b-4fed-9faa-6b0b0ee91421","system_id":"levelo_inurba_marseille","lat":43.2861,"lon":5.37063,"is_reserved":false,"is_disabled":false,"rental_uris":{"android":"levelo://app?vid=c40e87bf-c07b-4fed-9faa-6b0b0ee91421","ios":"levelo://app?vid=c40e87bf-c07b-4fed-9faa-6b0b0ee91421"},"vehicle_type_id":"4","last_reported":1759248786,"current_range_meters":12800,"station_id":"ce4bht12rcd13ifvqi60","pricing_plan_id":"cebpf4jnsgd1na2vs0mg"},{"bike_id":"4efdaed1-5545-43e6-b260-5a1660eef3c6","system_id":"levelo_inurba_marseille","lat":43.241656,"lon":5.363868,"is_reserved":false,"is_disabled":false,"rental_uris":{"android":"levelo://app?vid=4efdaed1-5545-43e6-b260-5a1660eef3c6","ios":"levelo://app?vid=4efdaed1-5545-43e6-b260-5a1660eef3c6"},"vehicle_type_id":"4","last_reported":1759248786,"current_range_meters":12800,"station_id":"cpo36qri1sfpv3e86is0","pricing_plan_id":"cebpf4jnsgd1na2vs0mg"},{"bike_id":"2ab535df-4c2c-40d8-af4f-189047a67c11","system_id":"levelo_inurba_marseille","lat":43.24635,"lon":5.43155,"is_reserved":false,"is_disabled":false,"rental_uris":{"android":"levelo://app?vid=2ab535df-4c2c-40d8-af4f-189047a67c11","ios":"levelo://app?vid=2ab535df-4c2c-40d8-af4f-189047a67c11"},"vehicle_type_id":"4","last_reported":1759248786,"current_range_meters":12800,"station_id":"st_d2m6c4gdas8pm72e190g","pricing_plan_id":"cebpf4jnsgd1na2vs0mg"},{"bike_id":"19bb257f-89cb-4aba-9b46-c153159e1501","system_id":"levelo_inurba_marseille","lat":43.28606,"lon":5.35115,"is_reserved":false,"is_disabled":false,"rental_uris":{"android":"levelo://app?vid=19bb257f-89cb-4aba-9b46-c153159e1501","ios":"levelo://app?vid=19bb257f-89cb-4aba-9b46-c153159e1501"},"vehicle_type_id":"4","last_reported":1759248786,"current_range_meters":12800,"station_id":"ce4bhch2rcd13ifvqeug","pricing_plan_id":"cebpf4jnsgd1na2vs0mg"},{"bike_id":"8e65f0e2-ca79-4ccd-894b-b7d61af61c4c","system_id":"levelo_inurba_marseille","lat":43.27808,"lon":5.40707,"is_reserved":false,"is_disabled":false,"rental_uris":{"android":"levelo://app?vid=8e65f0e2-ca79-4ccd-894b-b7d61af61c4c","ios":"levelo://app?vid=8e65f0e2-ca79-4ccd-894b-b7d61af61c4c"},"vehicle_type_id":"4","last_reported":1759248786,"current_range_meters":12800,"station_id":"ce4bhnh2rcd13ifvqgtg","pricing_plan_id":"cebpf4jnsgd1na2vs0mg"},{"bike_id":"f886e625-e737-4186-bd3f-b1d51a0faacf","system_id":"levelo_inurba_marseille","lat":43.25331,"lon":5.42168,"is_reserved":false,"is_disabled":false,"rental_uris":{"android":"levelo://app?vid=f886e625-e737-4186-bd3f-b1d51a0faacf","ios":"levelo://app?vid=f886e625-e737-4186-bd3f-b1d51a0faacf"},"vehicle_type_id":"4","last_reported":1759248786,"current_range_meters":13600,"station_id":"st_d2m65c5bi1j21697t3ng","pricing_plan_id":"cebpf4jnsgd1na2vs0mg"},{"bike_id":"ddd72f00-072f-4060-9de4-26b79990af97","system_id":"levelo_inurba_marseille","lat":43.299649,"lon":5.384912,"is_reserved":false,"is_disabled":false,"rental_uris":{"android":"levelo://app?vid=ddd72f00-072f-4060-9de4-26b79990af97","ios":"levelo://app?vid=ddd72f00-072f-4060-9de4-26b79990af97"},"vehicle_type_id":"4","last_reported":1759248786,"current_range_meters":13600,"station_id":"ce4bgj92rcd13ifvqbd0","pricing_plan_id":"cebpf4jnsgd1na2vs0mg"},{"bike_id":"adfbe18b-7ca7-424a-9090-23d85cce22c6","system_id":"levelo_inurba_marseille","lat":43.30041,"lon":5.4094,"is_reserved":false,"is_disabled":false,"rental_uris":{"android":"levelo://app?vid=adfbe18b-7ca7-424a-9090-23d85cce22c6","ios":"levelo://app?vid=adfbe18b-7ca7-424a-9090-23d85cce22c6"},"vehicle_type_id":"4","last_reported":1759248786,"current_range_meters":13600,"station_id":"","pricing_plan_id":"cebpf4jnsgd1na2vs0mg"},{"bike_id":"30cbf9c0-d8c9-49e3-afe2-ea0d70b63a10","system_id":"levelo_inurba_marseille","lat":43.28382,"lon":5.38685,"is_reserved":false,"is_disabled":true,"rental_uris":{"android":"levelo://app?vid=30cbf9c0-d8c9-49e3-afe2-ea0d70b63a10","ios":"levelo://app?vid=30cbf9c0-d8c9-49e3-afe2-ea0d70b63a10"},"vehicle_type_id":"4","last_reported":1759248786,"current_range_meters":13600,"station_id":"ce4bh492rcd13ifvqdvg","pricing_plan_id":"cebpf4jnsgd1na2vs0mg"},{"bike_id":"2890563a-afda-468d-beae-4536e60a5805","system_id":"levelo_inurba_marseille","lat":43.27912,"lon":5.39583,"is_reserved":false,"is_disabled":false,"rental_uris":{"android":"levelo://app?vid=2890563a-afda-468d-beae-4536e60a5805","ios":"levelo://app?vid=2890563a-afda-468d-beae-4536e60a5805"},"vehicle_type_id":"4","last_reported":1759248786,"current_range_meters":14000,"station_id":"ce4bhf92rcd13ifvqf40","pricing_plan_id":"cebpf4jnsgd1na2vs0mg"},{"bike_id":"44631c7d-87d1-44be-96c2-2a43e54fa7d0","system_id":"levelo_inurba_marseille","lat":43.26196,"lon":5.37451,"is_reserved":false,"is_disabled":false,"rental_uris":{"android":"levelo://app?vid=44631c7d-87d1-44be-96c2-2a43e54fa7d0","ios":"levelo://app?vid=44631c7d-87d1-44be-96c2-2a43e54fa7d0"},"vehicle_type_id":"4","last_reported":1759248786,"current_range_meters":14000,"station_id":"ce4bhgp2rcd13ifvqfc0","pricing_plan_id":"cebpf4jnsgd1na2vs0mg"},{"bike_id":"daf60542-a8c1-4f91-a126-04583f88c7e2","system_id":"levelo_inurba_marseille","lat":43.30138,"lon":5.38751,"is_reserved":false,"is_disabled":false,"rental_uris":{"android":"levelo://app?vid=daf60542-a8c1-4f91-a126-04583f88c7e2","ios":"levelo://app?vid=daf60542-a8c1-4f91-a126-04583f88c7e2"},"vehicle_type_id":"4","last_reported":1759248786,"current_range_meters":14000,"station_id":"ce4bghh2rcd13ifvqb60","pricing_plan_id":"cebpf4jnsgd1na2vs0mg"},{"bike_id":"16124194-8924-4b65-9a55-67a6d58d9cf2","system_id":"levelo_inurba_marseille","lat":43.31725,"lon":5.42411,"is_reserved":false,"is_disabled":false,"rental_uris":{"android":"levelo://app?vid=16124194-8924-4b65-9a55-67a6d58d9cf2","ios":"levelo://app?vid=16124194-8924-4b65-9a55-67a6d58d9cf2"},"vehicle_type_id":"4","last_reported":1759248786,"current_range_meters":14400,"station_id":"ce4bhp92rcd13ifvqhbg","pricing_plan_id":"cebpf4jnsgd1na2vs0mg"},{"bike_id":"dec9446c-a40f-4d64-8476-2f4372230baf","system_id":"levelo_inurba_marseille","lat":43.30279,"lon":5.38146,"is_reserved":false,"is_disabled":false,"rental_uris":{"android":"levelo://app?vid=dec9446c-a40f-4d64-8476-2f4372230baf","ios":"levelo://app?vid=dec9446c-a40f-4d64-8476-2f4372230baf"},"vehicle_type_id":"4","last_reported":1759248786,"current_range_meters":14400,"station_id":"","pricing_plan_id":"cebpf4jnsgd1na2vs0mg"},{"bike_id":"e1221ea6-d3a8-49db-a76e-6b0e73d476ae","system_id":"levelo_inurba_marseille","lat":43.24168,"lon":5.36401,"is_reserved":false,"is_disabled":false,"rental_uris":{"android":"levelo://app?vid=e1221ea6-d3a8-49db-a76e-6b0e73d476ae","ios":"levelo://app?vid=e1221ea6-d3a8-49db-a76e-6b0e73d476ae"},"vehicle_type_id":"4","last_reported":1759248786,"current_range_meters":14400,"station_id":"cpo36qri1sfpv3e86is0","pricing_plan_id":"cebpf4jnsgd1na2vs0mg"},{"bike_id":"f752559e-e357-41d0-b0e1-06afd32411be","system_id":"levelo_inurba_marseille","lat":43.27481,"lon":5.408,"is_reserved":false,"is_disabled":false,"rental_uris":{"android":"levelo://app?vid=f752559e-e357-41d0-b0e1-06afd32411be","ios":"levelo://app?vid=f752559e-e357-41d0-b0e1-06afd32411be"},"vehicle_type_id":"4","last_reported":1759248786,"current_range_meters":14800,"station_id":"","pricing_plan_id":"cebpf4jnsgd1na2vs0mg"},{"bike_id":"cb379ce2-4254-45ac-ad8c-7f8b84538049","system_id":"levelo_inurba_marseille","lat":43.28152,"lon":5.42643,"is_reserved":false,"is_disabled":false,"rental_uris":{"android":"levelo://app?vid=cb379ce2-4254-45ac-ad8c-7f8b84538049","ios":"levelo://app?vid=cb379ce2-4254-45ac-ad8c-7f8b84538049"},"vehicle_type_id":"4","last_reported":1759248786,"current_range_meters":14400,"station_id":"ce4bhnh2rcd13ifvqgug","pricing_plan_id":"cebpf4jnsgd1na2vs0mg"},{"bike_id":"e3ac7898-b12c-4714-b02e-64ee28d5db42","system_id":"levelo_inurba_marseille","lat":43.287055,"lon":5.373835,"is_reserved":false,"is_disabled":false,"rental_uris":{"android":"levelo://app?vid=e3ac7898-b12c-4714-b02e-64ee28d5db42","ios":"levelo://app?vid=e3ac7898-b12c-4714-b02e-64ee28d5db42"},"vehicle_type_id":"4","last_reported":1759248786,"current_range_meters":14800,"station_id":"ce4bh3p2rcd13ifvqdq0","pricing_plan_id":"cebpf4jnsgd1na2vs0mg"},{"bike_id":"627f0009-c086-4f8a-8406-c08f3975bb85","system_id":"levelo_inurba_marseille","lat":43.337914,"lon":5.374267,"is_reserved":false,"is_disabled":false,"rental_uris":{"android":"levelo://app?vid=627f0009-c086-4f8a-8406-c08f3975bb85","ios":"levelo://app?vid=627f0009-c086-4f8a-8406-c08f3975bb85"},"vehicle_type_id":"4","last_reported":1759248786,"current_range_meters":14800,"station_id":"","pricing_plan_id":"cebpf4jnsgd1na2vs0mg"},{"bike_id":"a850760d-f890-4818-860e-321d70e97b11","system_id":"levelo_inurba_marseille","lat":43.32352,"lon":5.36761,"is_reserved":false,"is_disabled":false,"rental_uris":{"android":"levelo://app?vid=a850760d-f890-4818-860e-321d70e97b11","ios":"levelo://app?vid=a850760d-f890-4818-860e-321d70e97b11"},"vehicle_type_id":"4","last_reported":1759248786,"current_range_meters":15200,"station_id":"ce4bhsh2rcd13ifvqi2g","pricing_plan_id":"cebpf4jnsgd1na2vs0mg"},{"bike_id":"9259d079-29af-4c38-99e0-f25e4d514b98","system_id":"levelo_inurba_marseille","lat":43.28412,"lon":5.34982,"is_reserved":false,"is_disabled":false,"rental_uris":{"android":"levelo://app?vid=9259d079-29af-4c38-99e0-f25e4d514b98","ios":"levelo://app?vid=9259d079-29af-4c38-99e0-f25e4d514b98"},"vehicle_type_id":"4","last_reported":1759248786,"current_range_meters":15200,"station_id":"ce4bhbh2rcd13ifvqepg","pricing_plan_id":"cebpf4jnsgd1na2vs0mg"},{"bike_id":"c5ace63f-0a81-4941-a62b-8221cd9ad454","system_id":"levelo_inurba_marseille","lat":43.26094,"lon":5.39338,"is_reserved":false,"is_disabled":false,"rental_uris":{"android":"levelo://app?vid=c5ace63f-0a81-4941-a62b-8221cd9ad454","ios":"levelo://app?vid=c5ace63f-0a81-4941-a62b-8221cd9ad454"},"vehicle_type_id":"4","last_reported":1759248786,"current_range_meters":15200,"station_id":"","pricing_plan_id":"cebpf4jnsgd1na2vs0mg"},{"bike_id":"805731f5-6911-4fc8-9eed-f07fded70f5b","system_id":"levelo_inurba_marseille","lat":43.31744,"lon":5.42394,"is_reserved":false,"is_disabled":false,"rental_uris":{"android":"levelo://app?vid=805731f5-6911-4fc8-9eed-f07fded70f5b","ios":"levelo://app?vid=805731f5-6911-4fc8-9eed-f07fded70f5b"},"vehicle_type_id":"4","last_reported":1759248786,"current_range_meters":15200,"station_id":"ce4bhp92rcd13ifvqhbg","pricing_plan_id":"cebpf4jnsgd1na2vs0mg"},{"bike_id":"0e39ba31-93d4-4574-a5b9-c64786bcebce","system_id":"levelo_inurba_marseille","lat":43.27794,"lon":5.37714,"is_reserved":false,"is_disabled":false,"rental_uris":{"android":"levelo://app?vid=0e39ba31-93d4-4574-a5b9-c64786bcebce","ios":"levelo://app?vid=0e39ba31-93d4-4574-a5b9-c64786bcebce"},"vehicle_type_id":"4","last_reported":1759248786,"current_range_meters":15200,"station_id":"","pricing_plan_id":"cebpf4jnsgd1na2vs0mg"},{"bike_id":"98ef1719-583d-4bd4-939d-722c251ddf6f","system_id":"levelo_inurba_marseille","lat":43.29274,"lon":5.36846,"is_reserved":false,"is_disabled":false,"rental_uris":{"android":"levelo://app?vid=98ef1719-583d-4bd4-939d-722c251ddf6f","ios":"levelo://app?vid=98ef1719-583d-4bd4-939d-722c251ddf6f"},"vehicle_type_id":"4","last_reported":1759248786,"current_range_meters":15200,"station_id":"ce4bhbp2rcd13ifvqesg","pricing_plan_id":"cebpf4jnsgd1na2vs0mg"},{"bike_id":"d0001ec6-b899-45aa-b4ab-8ca613b45573","system_id":"levelo_inurba_marseille","lat":43.29848,"lon":5.36285,"is_reserved":false,"is_disabled":false,"rental_uris":{"android":"levelo://app?vid=d0001ec6-b899-45aa-b4ab-8ca613b45573","ios":"levelo://app?vid=d0001ec6-b899-45aa-b4ab-8ca613b45573"},"vehicle_type_id":"4","last_reported":1759248786,"current_range_meters":14800,"station_id":"ce4bgpp2rcd13ifvqc3g","pricing_plan_id":"cebpf4jnsgd1na2vs0mg"},{"bike_id":"3941c868-ba2c-4f2d-a0fc-a2c352a499e1","system_id":"levelo_inurba_marseille","lat":43.31004,"lon":5.38311,"is_reserved":false,"is_disabled":false,"rental_uris":{"android":"levelo://app?vid=3941c868-ba2c-4f2d-a0fc-a2c352a499e1","ios":"levelo://app?vid=3941c868-ba2c-4f2d-a0fc-a2c352a499e1"},"vehicle_type_id":"4","last_reported":1759248786,"current_range_meters":16000,"station_id":"","pricing_plan_id":"cebpf4jnsgd1na2vs0mg"},{"bike_id":"fa3e6782-c198-4993-bfc8-ba4949faaf19","system_id":"levelo_inurba_marseille","lat":43.21171,"lon":5.35085,"is_reserved":false,"is_disabled":true,"rental_uris":{"android":"levelo://app?vid=fa3e6782-c198-4993-bfc8-ba4949faaf19","ios":"levelo://app?vid=fa3e6782-c198-4993-bfc8-ba4949faaf19"},"vehicle_type_id":"4","last_reported":1759248786,"current_range_meters":16000,"station_id":"","pricing_plan_id":"cebpf4jnsgd1na2vs0mg"},{"bike_id":"ce4cf508-f681-4d6e-8fb3-5ac922005f53","system_id":"levelo_inurba_marseille","lat":43.30085,"lon":5.39074,"is_reserved":false,"is_disabled":false,"rental_uris":{"android":"levelo://app?vid=ce4cf508-f681-4d6e-8fb3-5ac922005f53","ios":"levelo://app?vid=ce4cf508-f681-4d6e-8fb3-5ac922005f53"},"vehicle_type_id":"4","last_reported":1759248786,"current_range_meters":16000,"station_id":"ce4bh192rcd13ifvqdb0","pricing_plan_id":"cebpf4jnsgd1na2vs0mg"},{"bike_id":"a5f9aca6-26a7-42dd-b472-88a93ef7ee2e","system_id":"levelo_inurba_marseille","lat":43.2971,"lon":5.37702,"is_reserved":false,"is_disabled":false,"rental_uris":{"android":"levelo://app?vid=a5f9aca6-26a7-42dd-b472-88a93ef7ee2e","ios":"levelo://app?vid=a5f9aca6-26a7-42dd-b472-88a93ef7ee2e"},"vehicle_type_id":"4","last_reported":1759248786,"current_range_meters":16000,"station_id":"ce4bgkh2rcd13ifvqbl0","pricing_plan_id":"cebpf4jnsgd1na2vs0mg"},{"bike_id":"be7eaae5-363c-41a6-9c9b-d51459862618","system_id":"levelo_inurba_marseille","lat":43.28604,"lon":5.37071,"is_reserved":false,"is_disabled":false,"rental_uris":{"android":"levelo://app?vid=be7eaae5-363c-41a6-9c9b-d51459862618","ios":"levelo://app?vid=be7eaae5-363c-41a6-9c9b-d51459862618"},"vehicle_type_id":"4","last_reported":1759248786,"current_range_meters":16000,"station_id":"ce4bht12rcd13ifvqi60","pricing_plan_id":"cebpf4jnsgd1na2vs0mg"},{"bike_id":"ee94eda5-f40b-4168-a57a-bf8989940e9c","system_id":"levelo_inurba_marseille","lat":43.32536,"lon":5.3668,"is_reserved":false,"is_disabled":false,"rental_uris":{"android":"levelo://app?vid=ee94eda5-f40b-4168-a57a-bf8989940e9c","ios":"levelo://app?vid=ee94eda5-f40b-4168-a57a-bf8989940e9c"},"vehicle_type_id":"4","last_reported":1759248786,"current_range_meters":16000,"station_id":"","pricing_plan_id":"cebpf4jnsgd1na2vs0mg"},{"bike_id":"617dca4b-4508-4d52-9e62-d583d919ac44","system_id":"levelo_inurba_marseille","lat":43.29745,"lon":5.37104,"is_reserved":false,"is_disabled":false,"rental_uris":{"android":"levelo://app?vid=617dca4b-4508-4d52-9e62-d583d919ac44","ios":"levelo://app?vid=617dca4b-4508-4d52-9e62-d583d919ac44"},"vehicle_type_id":"4","last_reported":1759248786,"current_range_meters":16000,"station_id":"ce4bgop2rcd13ifvqc1g","pricing_plan_id":"cebpf4jnsgd1na2vs0mg"},{"bike_id":"66a0e74e-7f56-4e4d-a1d9-b433b748f53b","system_id":"levelo_inurba_marseille","lat":43.28268,"lon":5.35084,"is_reserved":false,"is_disabled":false,"rental_uris":{"android":"levelo://app?vid=66a0e74e-7f56-4e4d-a1d9-b433b748f53b","ios":"levelo://app?vid=66a0e74e-7f56-4e4d-a1d9-b433b748f53b"},"vehicle_type_id":"4","last_reported":1759248786,"current_range_meters":16000,"station_id":"ce4bhbp2rcd13ifvqerg","pricing_plan_id":"cebpf4jnsgd1na2vs0mg"},{"bike_id":"d88e0d03-a71d-4d69-bfe0-f7906e10eef6","system_id":"levelo_inurba_marseille","lat":43.22927,"lon":5.35366,"is_reserved":false,"is_disabled":false,"rental_uris":{"android":"levelo://app?vid=d88e0d03-a71d-4d69-bfe0-f7906e10eef6","ios":"levelo://app?vid=d88e0d03-a71d-4d69-bfe0-f7906e10eef6"},"vehicle_type_id":"4","last_reported":1759248786,"current_range_meters":16000,"station_id":"cpo3532slgdg3j2ikp40","pricing_plan_id":"cebpf4jnsgd1na2vs0mg"},{"bike_id":"50a6d9be-879d-4d99-9855-abb98fbce5b8","system_id":"levelo_inurba_marseille","lat":43.337851,"lon":5.374298,"is_reserved":false,"is_disabled":false,"rental_uris":{"android":"levelo://app?vid=50a6d9be-879d-4d99-9855-abb98fbce5b8","ios":"levelo://app?vid=50a6d9be-879d-4d99-9855-abb98fbce5b8"},"vehicle_type_id":"4","last_reported":1759248786,"current_range_meters":16000,"station_id":"","pricing_plan_id":"cebpf4jnsgd1na2vs0mg"},{"bike_id":"cf1e8cda-c157-4205-b42b-33baacc23f60","system_id":"levelo_inurba_marseille","lat":43.290567,"lon":5.386176,"is_reserved":false,"is_disabled":false,"rental_uris":{"android":"levelo://app?vid=cf1e8cda-c157-4205-b42b-33baacc23f60","ios":"levelo://app?vid=cf1e8cda-c157-4205-b42b-33baacc23f60"},"vehicle_type_id":"4","last_reported":1759248786,"current_range_meters":16400,"station_id":"ce4bh4p2rcd13ifvqe0g","pricing_plan_id":"cebpf4jnsgd1na2vs0mg"},{"bike_id":"f389964a-c6b6-4af1-95ba-d2e996bf344e","system_id":"levelo_inurba_marseille","lat":43.28427,"lon":5.34975,"is_reserved":false,"is_disabled":false,"rental_uris":{"android":"levelo://app?vid=f389964a-c6b6-4af1-95ba-d2e996bf344e","ios":"levelo://app?vid=f389964a-c6b6-4af1-95ba-d2e996bf344e"},"vehicle_type_id":"4","last_reported":1759248786,"current_range_meters":16400,"station_id":"ce4bhbh2rcd13ifvqepg","pricing_plan_id":"cebpf4jnsgd1na2vs0mg"},{"bike_id":"09082ffb-cdd1-452d-a2f8-8995b5c6b672","system_id":"levelo_inurba_marseille","lat":43.24069,"lon":5.37766,"is_reserved":false,"is_disabled":false,"rental_uris":{"android":"levelo://app?vid=09082ffb-cdd1-452d-a2f8-8995b5c6b672","ios":"levelo://app?vid=09082ffb-cdd1-452d-a2f8-8995b5c6b672"},"vehicle_type_id":"4","last_reported":1759248786,"current_range_meters":16400,"station_id":"ce4bhnp2rcd13ifvqgvg","pricing_plan_id":"cebpf4jnsgd1na2vs0mg"},{"bike_id":"64b25e14-4e01-4810-94ac-2ca7b90cf2f7","system_id":"levelo_inurba_marseille","lat":43.28403,"lon":5.35014,"is_reserved":false,"is_disabled":false,"rental_uris":{"android":"levelo://app?vid=64b25e14-4e01-4810-94ac-2ca7b90cf2f7","ios":"levelo://app?vid=64b25e14-4e01-4810-94ac-2ca7b90cf2f7"},"vehicle_type_id":"4","last_reported":1759248786,"current_range_meters":16400,"station_id":"ce4bhbh2rcd13ifvqepg","pricing_plan_id":"cebpf4jnsgd1na2vs0mg"},{"bike_id":"0e22ced9-197b-4339-bd33-e5a8f131c1c2","system_id":"levelo_inurba_marseille","lat":43.23196,"lon":5.35574,"is_reserved":false,"is_disabled":false,"rental_uris":{"android":"levelo://app?vid=0e22ced9-197b-4339-bd33-e5a8f131c1c2","ios":"levelo://app?vid=0e22ced9-197b-4339-bd33-e5a8f131c1c2"},"vehicle_type_id":"4","last_reported":1759248786,"current_range_meters":16400,"station_id":"ce4bhu92rcd13ifvqi70","pricing_plan_id":"cebpf4jnsgd1na2vs0mg"},{"bike_id":"5c2f0d31-796f-4d43-a540-fa8a60cac702","system_id":"levelo_inurba_marseille","lat":43.29264,"lon":5.38448,"is_reserved":false,"is_disabled":false,"rental_uris":{"android":"levelo://app?vid=5c2f0d31-796f-4d43-a540-fa8a60cac702","ios":"levelo://app?vid=5c2f0d31-796f-4d43-a540-fa8a60cac702"},"vehicle_type_id":"4","last_reported":1759248786,"current_range_meters":16400,"station_id":"ce4bh692rcd13ifvqea0","pricing_plan_id":"cebpf4jnsgd1na2vs0mg"},{"bike_id":"6e35eb3a-244d-446e-ba2c-c58465f51251","system_id":"levelo_inurba_marseille","lat":43.32105,"lon":5.3675,"is_reserved":false,"is_disabled":false,"rental_uris":{"android":"levelo://app?vid=6e35eb3a-244d-446e-ba2c-c58465f51251","ios":"levelo://app?vid=6e35eb3a-244d-446e-ba2c-c58465f51251"},"vehicle_type_id":"4","last_reported":1759248786,"current_range_meters":16800,"station_id":"ce4bhrh2rcd13ifvqhug","pricing_plan_id":"cebpf4jnsgd1na2vs0mg"},{"bike_id":"a58a4c94-7754-46be-b35a-a0b84fc468a5","system_id":"levelo_inurba_marseille","lat":43.29991,"lon":5.3734,"is_reserved":false,"is_disabled":false,"rental_uris":{"android":"levelo://app?vid=a58a4c94-7754-46be-b35a-a0b84fc468a5","ios":"levelo://app?vid=a58a4c94-7754-46be-b35a-a0b84fc468a5"},"vehicle_type_id":"4","last_reported":1759248786,"current_range_meters":16800,"station_id":"","pricing_plan_id":"cebpf4jnsgd1na2vs0mg"},{"bike_id":"9e898d98-dda5-4fbd-871c-e3c1b03c63ac","system_id":"levelo_inurba_marseille","lat":43.29248,"lon":5.40914,"is_reserved":false,"is_disabled":false,"rental_uris":{"android":"levelo://app?vid=9e898d98-dda5-4fbd-871c-e3c1b03c63ac","ios":"levelo://app?vid=9e898d98-dda5-4fbd-871c-e3c1b03c63ac"},"vehicle_type_id":"4","last_reported":1759248786,"current_range_meters":16800,"station_id":"ce4bh192rcd13ifvqdc0","pricing_plan_id":"cebpf4jnsgd1na2vs0mg"},{"bike_id":"284a0a39-8634-4794-8ee9-f93dbb66a72f","system_id":"levelo_inurba_marseille","lat":43.28273,"lon":5.35079,"is_reserved":false,"is_disabled":false,"rental_uris":{"android":"levelo://app?vid=284a0a39-8634-4794-8ee9-f93dbb66a72f","ios":"levelo://app?vid=284a0a39-8634-4794-8ee9-f93dbb66a72f"},"vehicle_type_id":"4","last_reported":1759248786,"current_range_meters":16800,"station_id":"ce4bhbp2rcd13ifvqerg","pricing_plan_id":"cebpf4jnsgd1na2vs0mg"},{"bike_id":"db3a202b-6514-4a53-892d-e953fc1e9d26","system_id":"levelo_inurba_marseille","lat":43.225369,"lon":5.348573,"is_reserved":false,"is_disabled":false,"rental_uris":{"android":"levelo://app?vid=db3a202b-6514-4a53-892d-e953fc1e9d26","ios":"levelo://app?vid=db3a202b-6514-4a53-892d-e953fc1e9d26"},"vehicle_type_id":"4","last_reported":1759248786,"current_range_meters":16800,"station_id":"","pricing_plan_id":"cebpf4jnsgd1na2vs0mg"},{"bike_id":"123e055a-692b-459b-9c4f-970a83ad75be","system_id":"levelo_inurba_marseille","lat":43.32357,"lon":5.36755,"is_reserved":false,"is_disabled":true,"rental_uris":{"android":"levelo://app?vid=123e055a-692b-459b-9c4f-970a83ad75be","ios":"levelo://app?vid=123e055a-692b-459b-9c4f-970a83ad75be"},"vehicle_type_id":"4","last_reported":1759248786,"current_range_meters":16800,"station_id":"ce4bhsh2rcd13ifvqi2g","pricing_plan_id":"cebpf4jnsgd1na2vs0mg"},{"bike_id":"15cf3f02-c6e2-4b4b-ae0f-0aea60cb60f7","system_id":"levelo_inurba_marseille","lat":43.301205,"lon":5.387846,"is_reserved":false,"is_disabled":false,"rental_uris":{"android":"levelo://app?vid=15cf3f02-c6e2-4b4b-ae0f-0aea60cb60f7","ios":"levelo://app?vid=15cf3f02-c6e2-4b4b-ae0f-0aea60cb60f7"},"vehicle_type_id":"4","last_reported":1759248786,"current_range_meters":16800,"station_id":"ce4bghh2rcd13ifvqb60","pricing_plan_id":"cebpf4jnsgd1na2vs0mg"},{"bike_id":"f23c4efb-f8cd-4bf9-9945-344bd583b8c0","system_id":"levelo_inurba_marseille","lat":43.2815,"lon":5.42639,"is_reserved":false,"is_disabled":false,"rental_uris":{"android":"levelo://app?vid=f23c4efb-f8cd-4bf9-9945-344bd583b8c0","ios":"levelo://app?vid=f23c4efb-f8cd-4bf9-9945-344bd583b8c0"},"vehicle_type_id":"4","last_reported":1759248786,"current_range_meters":16800,"station_id":"ce4bhnh2rcd13ifvqgug","pricing_plan_id":"cebpf4jnsgd1na2vs0mg"},{"bike_id":"3f8a7425-65dd-467a-bda8-36ede2e6a269","system_id":"levelo_inurba_marseille","lat":43.26937,"lon":5.4104,"is_reserved":false,"is_disabled":false,"rental_uris":{"android":"levelo://app?vid=3f8a7425-65dd-467a-bda8-36ede2e6a269","ios":"levelo://app?vid=3f8a7425-65dd-467a-bda8-36ede2e6a269"},"vehicle_type_id":"4","last_reported":1759248786,"current_range_meters":17200,"station_id":"","pricing_plan_id":"cebpf4jnsgd1na2vs0mg"},{"bike_id":"902561a4-d118-4de2-a70c-f6181c7156c7","system_id":"levelo_inurba_marseille","lat":43.2825,"lon":5.35074,"is_reserved":false,"is_disabled":false,"rental_uris":{"android":"levelo://app?vid=902561a4-d118-4de2-a70c-f6181c7156c7","ios":"levelo://app?vid=902561a4-d118-4de2-a70c-f6181c7156c7"},"vehicle_type_id":"4","last_reported":1759248786,"current_range_meters":17200,"station_id":"ce4bhbp2rcd13ifvqerg","pricing_plan_id":"cebpf4jnsgd1na2vs0mg"},{"bike_id":"73e22ed6-f150-4bd5-a7c9-af939e7a8ce9","system_id":"levelo_inurba_marseille","lat":43.290507,"lon":5.419421,"is_reserved":false,"is_disabled":false,"rental_uris":{"android":"levelo://app?vid=73e22ed6-f150-4bd5-a7c9-af939e7a8ce9","ios":"levelo://app?vid=73e22ed6-f150-4bd5-a7c9-af939e7a8ce9"},"vehicle_type_id":"4","last_reported":1759248786,"current_range_meters":17200,"station_id":"","pricing_plan_id":"cebpf4jnsgd1na2vs0mg"},{"bike_id":"5ec5d87a-21a9-4547-b1c1-e1db99437c59","system_id":"levelo_inurba_marseille","lat":43.308738,"lon":5.396569,"is_reserved":false,"is_disabled":false,"rental_uris":{"android":"levelo://app?vid=5ec5d87a-21a9-4547-b1c1-e1db99437c59","ios":"levelo://app?vid=5ec5d87a-21a9-4547-b1c1-e1db99437c59"},"vehicle_type_id":"4","last_reported":1759248786,"current_range_meters":17200,"station_id":"ce4bh012rcd13ifvqcv0","pricing_plan_id":"cebpf4jnsgd1na2vs0mg"},{"bike_id":"e8a6d609-d965-4c72-b22f-83ffb60a3d29","system_id":"levelo_inurba_marseille","lat":43.28409,"lon":5.35001,"is_reserved":false,"is_disabled":false,"rental_uris":{"android":"levelo://app?vid=e8a6d609-d965-4c72-b22f-83ffb60a3d29","ios":"levelo://app?vid=e8a6d609-d965-4c72-b22f-83ffb60a3d29"},"vehicle_type_id":"4","last_reported":1759248786,"current_range_meters":17200,"station_id":"ce4bhbh2rcd13ifvqepg","pricing_plan_id":"cebpf4jnsgd1na2vs0mg"},{"bike_id":"2410b542-4dbb-4ba2-8de7-3b722fc9a69f","system_id":"levelo_inurba_marseille","lat":43.28454,"lon":5.35895,"is_reserved":false,"is_disabled":true,"rental_uris":{"android":"levelo://app?vid=2410b542-4dbb-4ba2-8de7-3b722fc9a69f","ios":"levelo://app?vid=2410b542-4dbb-4ba2-8de7-3b722fc9a69f"},"vehicle_type_id":"4","last_reported":1759248786,"current_range_meters":17200,"station_id":"ce4bhah2rcd13ifvqei0","pricing_plan_id":"cebpf4jnsgd1na2vs0mg"},{"bike_id":"a391ca59-5324-4d98-be71-1057c44f2f7f","system_id":"levelo_inurba_marseille","lat":43.30199,"lon":5.37339,"is_reserved":false,"is_disabled":false,"rental_uris":{"android":"levelo://app?vid=a391ca59-5324-4d98-be71-1057c44f2f7f","ios":"levelo://app?vid=a391ca59-5324-4d98-be71-1057c44f2f7f"},"vehicle_type_id":"4","last_reported":1759248786,"current_range_meters":17200,"station_id":"","pricing_plan_id":"cebpf4jnsgd1na2vs0mg"},{"bike_id":"b972f52e-bdd9-4bb2-a7ce-ae56c2f38925","system_id":"levelo_inurba_marseille","lat":43.28611,"lon":5.35107,"is_reserved":false,"is_disabled":false,"rental_uris":{"android":"levelo://app?vid=b972f52e-bdd9-4bb2-a7ce-ae56c2f38925","ios":"levelo://app?vid=b972f52e-bdd9-4bb2-a7ce-ae56c2f38925"},"vehicle_type_id":"4","last_reported":1759248786,"current_range_meters":17200,"station_id":"ce4bhch2rcd13ifvqeug","pricing_plan_id":"cebpf4jnsgd1na2vs0mg"},{"bike_id":"d2b4df01-39a0-458c-b9ed-a01df7fb78b2","system_id":"levelo_inurba_marseille","lat":43.2918,"lon":5.39306,"is_reserved":false,"is_disabled":true,"rental_uris":{"android":"levelo://app?vid=d2b4df01-39a0-458c-b9ed-a01df7fb78b2","ios":"levelo://app?vid=d2b4df01-39a0-458c-b9ed-a01df7fb78b2"},"vehicle_type_id":"4","last_reported":1759248786,"current_range_meters":17200,"station_id":"ce4bh192rcd13ifvqdd0","pricing_plan_id":"cebpf4jnsgd1na2vs0mg"},{"bike_id":"8758711a-1ac5-4451-83b4-71cf262c01c9","system_id":"levelo_inurba_marseille","lat":43.28265,"lon":5.3509,"is_reserved":false,"is_disabled":false,"rental_uris":{"android":"levelo://app?vid=8758711a-1ac5-4451-83b4-71cf262c01c9","ios":"levelo://app?vid=8758711a-1ac5-4451-83b4-71cf262c01c9"},"vehicle_type_id":"4","last_reported":1759248786,"current_range_meters":17200,"station_id":"ce4bhbp2rcd13ifvqerg","pricing_plan_id":"cebpf4jnsgd1na2vs0mg"},{"bike_id":"700e2971-7ce2-46cc-996b-6959d72691c7","system_id":"levelo_inurba_marseille","lat":43.22565,"lon":5.41632,"is_reserved":false,"is_disabled":false,"rental_uris":{"android":"levelo://app?vid=700e2971-7ce2-46cc-996b-6959d72691c7","ios":"levelo://app?vid=700e2971-7ce2-46cc-996b-6959d72691c7"},"vehicle_type_id":"4","last_reported":1759248786,"current_range_meters":17200,"station_id":"st_d2o4gvlbi1j2169b742g","pricing_plan_id":"cebpf4jnsgd1na2vs0mg"},{"bike_id":"7e67d1c3-dd49-498e-aafa-82030f273fcd","system_id":"levelo_inurba_marseille","lat":43.3093,"lon":5.40151,"is_reserved":false,"is_disabled":false,"rental_uris":{"android":"levelo://app?vid=7e67d1c3-dd49-498e-aafa-82030f273fcd","ios":"levelo://app?vid=7e67d1c3-dd49-498e-aafa-82030f273fcd"},"vehicle_type_id":"4","last_reported":1759248786,"current_range_meters":17200,"station_id":"ce4bgvp2rcd13ifvqct0","pricing_plan_id":"cebpf4jnsgd1na2vs0mg"},{"bike_id":"bb80e5da-8df2-462f-8828-7587302fcb86","system_id":"levelo_inurba_marseille","lat":43.29784,"lon":5.37666,"is_reserved":false,"is_disabled":false,"rental_uris":{"android":"levelo://app?vid=bb80e5da-8df2-462f-8828-7587302fcb86","ios":"levelo://app?vid=bb80e5da-8df2-462f-8828-7587302fcb86"},"vehicle_type_id":"4","last_reported":1759248786,"current_range_meters":17200,"station_id":"","pricing_plan_id":"cebpf4jnsgd1na2vs0mg"},{"bike_id":"450844ba-2fc2-47be-9959-8fee61f07fb6","system_id":"levelo_inurba_marseille","lat":43.317354,"lon":5.390403,"is_reserved":false,"is_disabled":false,"rental_uris":{"android":"levelo://app?vid=450844ba-2fc2-47be-9959-8fee61f07fb6","ios":"levelo://app?vid=450844ba-2fc2-47be-9959-8fee61f07fb6"},"vehicle_type_id":"4","last_reported":1759248786,"current_range_meters":17600,"station_id":"ce4bhqp2rcd13ifvqhng","pricing_plan_id":"cebpf4jnsgd1na2vs0mg"},{"bike_id":"b7cd29c1-7e6a-4750-89cf-107360408473","system_id":"levelo_inurba_marseille","lat":43.22542,"lon":5.34824,"is_reserved":false,"is_disabled":false,"rental_uris":{"android":"levelo://app?vid=b7cd29c1-7e6a-4750-89cf-107360408473","ios":"levelo://app?vid=b7cd29c1-7e6a-4750-89cf-107360408473"},"vehicle_type_id":"4","last_reported":1759248786,"current_range_meters":17600,"station_id":"","pricing_plan_id":"cebpf4jnsgd1na2vs0mg"},{"bike_id":"4bfdeb80-9884-49e1-b245-6dd804daa778","system_id":"levelo_inurba_marseille","lat":43.22927,"lon":5.35379,"is_reserved":false,"is_disabled":true,"rental_uris":{"android":"levelo://app?vid=4bfdeb80-9884-49e1-b245-6dd804daa778","ios":"levelo://app?vid=4bfdeb80-9884-49e1-b245-6dd804daa778"},"vehicle_type_id":"4","last_reported":1759248786,"current_range_meters":17600,"station_id":"cpo3532slgdg3j2ikp40","pricing_plan_id":"cebpf4jnsgd1na2vs0mg"},{"bike_id":"8d0f617a-e8e5-4e99-809b-199d08529372","system_id":"levelo_inurba_marseille","lat":43.28408,"lon":5.418947,"is_reserved":false,"is_disabled":false,"rental_uris":{"android":"levelo://app?vid=8d0f617a-e8e5-4e99-809b-199d08529372","ios":"levelo://app?vid=8d0f617a-e8e5-4e99-809b-199d08529372"},"vehicle_type_id":"4","last_reported":1759248786,"current_range_meters":17600,"station_id":"ce4bhnh2rcd13ifvqgug","pricing_plan_id":"cebpf4jnsgd1na2vs0mg"},{"bike_id":"9ce06eb8-1311-4218-9c4d-afce9573f7c5","system_id":"levelo_inurba_marseille","lat":43.24805,"lon":5.37454,"is_reserved":false,"is_disabled":false,"rental_uris":{"android":"levelo://app?vid=9ce06eb8-1311-4218-9c4d-afce9573f7c5","ios":"levelo://app?vid=9ce06eb8-1311-4218-9c4d-afce9573f7c5"},"vehicle_type_id":"4","last_reported":1759248786,"current_range_meters":17600,"station_id":"ce4bhgh2rcd13ifvqfb0","pricing_plan_id":"cebpf4jnsgd1na2vs0mg"},{"bike_id":"ed72cb11-07b3-4d9e-a5e8-81f72acc58fc","system_id":"levelo_inurba_marseille","lat":43.25331,"lon":5.42176,"is_reserved":false,"is_disabled":false,"rental_uris":{"android":"levelo://app?vid=ed72cb11-07b3-4d9e-a5e8-81f72acc58fc","ios":"levelo://app?vid=ed72cb11-07b3-4d9e-a5e8-81f72acc58fc"},"vehicle_type_id":"4","last_reported":1759248786,"current_range_meters":17600,"station_id":"st_d2m65c5bi1j21697t3ng","pricing_plan_id":"cebpf4jnsgd1na2vs0mg"},{"bike_id":"0021c4de-c648-4ca6-aca1-5531188434d1","system_id":"levelo_inurba_marseille","lat":43.30928,"lon":5.40154,"is_reserved":false,"is_disabled":false,"rental_uris":{"android":"levelo://app?vid=0021c4de-c648-4ca6-aca1-5531188434d1","ios":"levelo://app?vid=0021c4de-c648-4ca6-aca1-5531188434d1"},"vehicle_type_id":"4","last_reported":1759248786,"current_range_meters":17200,"station_id":"ce4bgvp2rcd13ifvqct0","pricing_plan_id":"cebpf4jnsgd1na2vs0mg"},{"bike_id":"a7d7834a-6060-4214-a66f-8338e20b7942","system_id":"levelo_inurba_marseille","lat":43.29091,"lon":5.3713,"is_reserved":false,"is_disabled":false,"rental_uris":{"android":"levelo://app?vid=a7d7834a-6060-4214-a66f-8338e20b7942","ios":"levelo://app?vid=a7d7834a-6060-4214-a66f-8338e20b7942"},"vehicle_type_id":"4","last_reported":1759248786,"current_range_meters":17600,"station_id":"","pricing_plan_id":"cebpf4jnsgd1na2vs0mg"},{"bike_id":"472a8706-1c77-43d2-bb0a-db5904dabb60","system_id":"levelo_inurba_marseille","lat":43.309184,"lon":5.401542,"is_reserved":false,"is_disabled":false,"rental_uris":{"android":"levelo://app?vid=472a8706-1c77-43d2-bb0a-db5904dabb60","ios":"levelo://app?vid=472a8706-1c77-43d2-bb0a-db5904dabb60"},"vehicle_type_id":"4","last_reported":1759248786,"current_range_meters":17600,"station_id":"ce4bgvp2rcd13ifvqct0","pricing_plan_id":"cebpf4jnsgd1na2vs0mg"},{"bike_id":"2b3126dd-cafa-40b2-a45b-940f1b7a7a65","system_id":"levelo_inurba_marseille","lat":43.26685,"lon":5.38282,"is_reserved":false,"is_disabled":false,"rental_uris":{"android":"levelo://app?vid=2b3126dd-cafa-40b2-a45b-940f1b7a7a65","ios":"levelo://app?vid=2b3126dd-cafa-40b2-a45b-940f1b7a7a65"},"vehicle_type_id":"4","last_reported":1759248786,"current_range_meters":17600,"station_id":"ce4bhg92rcd13ifvqf90","pricing_plan_id":"cebpf4jnsgd1na2vs0mg"},{"bike_id":"f26c7108-8d64-48f9-8bcc-c655cce5c827","system_id":"levelo_inurba_marseille","lat":43.28845,"lon":5.39311,"is_reserved":false,"is_disabled":true,"rental_uris":{"android":"levelo://app?vid=f26c7108-8d64-48f9-8bcc-c655cce5c827","ios":"levelo://app?vid=f26c7108-8d64-48f9-8bcc-c655cce5c827"},"vehicle_type_id":"4","last_reported":1759248786,"current_range_meters":17600,"station_id":"ce4bh2p2rcd13ifvqdi0","pricing_plan_id":"cebpf4jnsgd1na2vs0mg"},{"bike_id":"682eae6f-07f3-4e6c-a96a-5741af5df669","system_id":"levelo_inurba_marseille","lat":43.29111,"lon":5.382992,"is_reserved":false,"is_disabled":false,"rental_uris":{"android":"levelo://app?vid=682eae6f-07f3-4e6c-a96a-5741af5df669","ios":"levelo://app?vid=682eae6f-07f3-4e6c-a96a-5741af5df669"},"vehicle_type_id":"4","last_reported":1759248786,"current_range_meters":18000,"station_id":"","pricing_plan_id":"cebpf4jnsgd1na2vs0mg"},{"bike_id":"25797f34-19ff-4530-9df9-060f32364e70","system_id":"levelo_inurba_marseille","lat":43.2985,"lon":5.362829,"is_reserved":false,"is_disabled":false,"rental_uris":{"android":"levelo://app?vid=25797f34-19ff-4530-9df9-060f32364e70","ios":"levelo://app?vid=25797f34-19ff-4530-9df9-060f32364e70"},"vehicle_type_id":"4","last_reported":1759248786,"current_range_meters":17600,"station_id":"ce4bgpp2rcd13ifvqc3g","pricing_plan_id":"cebpf4jnsgd1na2vs0mg"},{"bike_id":"b692f58d-b591-4dab-b9fd-b42915a4b791","system_id":"levelo_inurba_marseille","lat":43.31712,"lon":5.43711,"is_reserved":false,"is_disabled":false,"rental_uris":{"android":"levelo://app?vid=b692f58d-b591-4dab-b9fd-b42915a4b791","ios":"levelo://app?vid=b692f58d-b591-4dab-b9fd-b42915a4b791"},"vehicle_type_id":"4","last_reported":1759248786,"current_range_meters":17600,"station_id":"ce4bhp92rcd13ifvqhcg","pricing_plan_id":"cebpf4jnsgd1na2vs0mg"},{"bike_id":"d81e7086-a597-422a-8b7f-f9a7c928d9cf","system_id":"levelo_inurba_marseille","lat":43.2977,"lon":5.38916,"is_reserved":false,"is_disabled":false,"rental_uris":{"android":"levelo://app?vid=d81e7086-a597-422a-8b7f-f9a7c928d9cf","ios":"levelo://app?vid=d81e7086-a597-422a-8b7f-f9a7c928d9cf"},"vehicle_type_id":"4","last_reported":1759248786,"current_range_meters":18000,"station_id":"","pricing_plan_id":"cebpf4jnsgd1na2vs0mg"},{"bike_id":"e366a887-386f-4ce6-9b5e-0eee43e0c370","system_id":"levelo_inurba_marseille","lat":43.295556,"lon":5.422783,"is_reserved":false,"is_disabled":false,"rental_uris":{"android":"levelo://app?vid=e366a887-386f-4ce6-9b5e-0eee43e0c370","ios":"levelo://app?vid=e366a887-386f-4ce6-9b5e-0eee43e0c370"},"vehicle_type_id":"4","last_reported":1759248786,"current_range_meters":18000,"station_id":"ce4bhph2rcd13ifvqhdg","pricing_plan_id":"cebpf4jnsgd1na2vs0mg"},{"bike_id":"1b870171-70a1-4c8f-8cd1-809b9adb35ac","system_id":"levelo_inurba_marseille","lat":43.290302,"lon":5.386465,"is_reserved":false,"is_disabled":false,"rental_uris":{"android":"levelo://app?vid=1b870171-70a1-4c8f-8cd1-809b9adb35ac","ios":"levelo://app?vid=1b870171-70a1-4c8f-8cd1-809b9adb35ac"},"vehicle_type_id":"4","last_reported":1759248786,"current_range_meters":17600,"station_id":"ce4bh4p2rcd13ifvqe0g","pricing_plan_id":"cebpf4jnsgd1na2vs0mg"},{"bike_id":"8105eeef-5a4b-46b9-a2ef-666a8dda2a26","system_id":"levelo_inurba_marseille","lat":43.33008,"lon":5.3813,"is_reserved":false,"is_disabled":false,"rental_uris":{"android":"levelo://app?vid=8105eeef-5a4b-46b9-a2ef-666a8dda2a26","ios":"levelo://app?vid=8105eeef-5a4b-46b9-a2ef-666a8dda2a26"},"vehicle_type_id":"4","last_reported":1759248786,"current_range_meters":18000,"station_id":"","pricing_plan_id":"cebpf4jnsgd1na2vs0mg"},{"bike_id":"33b62360-7466-4ae1-a84d-1b4d62182547","system_id":"levelo_inurba_marseille","lat":43.290219,"lon":5.381363,"is_reserved":false,"is_disabled":false,"rental_uris":{"android":"levelo://app?vid=33b62360-7466-4ae1-a84d-1b4d62182547","ios":"levelo://app?vid=33b62360-7466-4ae1-a84d-1b4d62182547"},"vehicle_type_id":"4","last_reported":1759248786,"current_range_meters":18000,"station_id":"ce4bh4p2rcd13ifvqe1g","pricing_plan_id":"cebpf4jnsgd1na2vs0mg"},{"bike_id":"07202c59-b66b-4db4-90d3-e05766877c93","system_id":"levelo_inurba_marseille","lat":43.22543,"lon":5.34847,"is_reserved":false,"is_disabled":false,"rental_uris":{"android":"levelo://app?vid=07202c59-b66b-4db4-90d3-e05766877c93","ios":"levelo://app?vid=07202c59-b66b-4db4-90d3-e05766877c93"},"vehicle_type_id":"4","last_reported":1759248786,"current_range_meters":18800,"station_id":"","pricing_plan_id":"cebpf4jnsgd1na2vs0mg"},{"bike_id":"0a980e9f-bc6f-4ec2-a773-69600206ae92","system_id":"levelo_inurba_marseille","lat":43.25598,"lon":5.39003,"is_reserved":false,"is_disabled":false,"rental_uris":{"android":"levelo://app?vid=0a980e9f-bc6f-4ec2-a773-69600206ae92","ios":"levelo://app?vid=0a980e9f-bc6f-4ec2-a773-69600206ae92"},"vehicle_type_id":"4","last_reported":1759248786,"current_range_meters":18800,"station_id":"","pricing_plan_id":"cebpf4jnsgd1na2vs0mg"},{"bike_id":"3c107ea1-795b-4a4e-90eb-afb91da9abd8","system_id":"levelo_inurba_marseille","lat":43.22936,"lon":5.35394,"is_reserved":false,"is_disabled":false,"rental_uris":{"android":"levelo://app?vid=3c107ea1-795b-4a4e-90eb-afb91da9abd8","ios":"levelo://app?vid=3c107ea1-795b-4a4e-90eb-afb91da9abd8"},"vehicle_type_id":"4","last_reported":1759248786,"current_range_meters":18800,"station_id":"cpo3532slgdg3j2ikp40","pricing_plan_id":"cebpf4jnsgd1na2vs0mg"},