{"last_updated":1690729530,"ttl":30,"version":"2.2","data":{"bikes":[{"bike_id":"25206dee-1d3d-432e-ba27-1c90f5764e55","system_id":"levelo_inurba_marseille","lat":43.31212,"lon":5.36845,"is_reserved":false,"is_disabled":false,"rental_uris":{"android":"levelo://app?vid=25206dee-1d3d-432e-ba27-1c90f5764e55","ios":"levelo://app?vid=25206dee-1d3d-432e-ba27-1c90f5764e55"},"vehicle_type_id":"4","last_reported":1690729531,"current_range_meters":29600,"station_id":"ce4bgl92rcd13ifvqbq0","pricing_plan_id":"free"},{"bike_id":"5950250c-3483-415f-9aa7-650584037e91","system_id":"levelo_inurba_marseille","lat":43.31221,"lon":5.36862,"is_reserved":false,"is_disabled":false,"rental_uris":{"android":"levelo://app?vid=5950250c-3483-415f-9aa7-650584037e91","ios":"levelo://app?vid=5950250c-3483-415f-9aa7-650584037e91"},"vehicle_type_id":"4","last_reported":1690729531,"current_range_meters":24400,"station_id":"ce4bgl92rcd13ifvqbq0","pricing_plan_id":"free"},{"bike_id":"e526d4e2-849c-44ae-a0d7-5572a62df909","system_id":"levelo_inurba_marseille","lat":43.31216,"lon":5.36859,"is_reserved":false,"is_disabled":false,"rental_uris":{"android":"levelo://app?vid=e526d4e2-849c-44ae-a0d7-5572a62df909","ios":"levelo://app?vid=e526d4e2-849c-44ae-a0d7-5572a62df909"},"vehicle_type_id":"4","last_reported":1690729531,"current_range_meters":22800,"station_id":"ce4bgl92rcd13ifvqbq0","pricing_plan_id":"free"},{"bike_id":"7611d2e5-a7d1-4007-9f84-a17a453a07ba","system_id":"levelo_inurba_marseille","lat":43.3124,"lon":5.36903,"is_reserved":false,"is_disabled":false,"rental_uris":{"android":"levelo://app?vid=7611d2e5-a7d1-4007-9f84-a17a453a07ba","ios":"levelo://app?vid=7611d2e5-a7d1-4007-9f84-a17a453a07ba"},"vehicle_type_id":"4","last_reported":1690729531,"current_range_meters":10000,"station_id":"ce4bgl92rcd13ifvqbq0","pricing_plan_id":"free"},{"bike_id":"18ccd5ec-3f62-42d3-99ef-edb630eb6c3e","system_id":"levelo_inurba_marseille","lat":43.305368,"lon":5.367343,"is_reserved":false,"is_disabled":false,"rental_uris":{"android":"levelo://app?vid=18ccd5ec-3f62-42d3-99ef-edb630eb6c3e","ios":"levelo://app?vid=18ccd5ec-3f62-42d3-99ef-edb630eb6c3e"},"vehicle_type_id":"4","last_reported":1690729531,"current_range_meters":6000,"station_id":"ce4bgrp2rcd13ifvqc9g","pricing_plan_id":"free"},{"bike_id":"5f61adda-fd85-46f4-8a62-7f56f7a6a5ff","system_id":"levelo_inurba_marseille","lat":43.305368,"lon":5.367343,"is_reserved":false,"is_disabled":false,"rental_uris":{"android":"levelo://app?vid=5f61adda-fd85-46f4-8a62-7f56f7a6a5ff","ios":"levelo://app?vid=5f61adda-fd85-46f4-8a62-7f56f7a6a5ff"},"vehicle_type_id":"4","last_reported":1690729531,"current_range_meters":16800,"station_id":"ce4bgrp2rcd13ifvqc9g","pricing_plan_id":"free"},{"bike_id":"37201168-481f-4b35-858b-1264eee94a6b","system_id":"levelo_inurba_marseille","lat":43.30594,"lon":5.37176,"is_reserved":false,"is_disabled":false,"rental_uris":{"android":"levelo://app?vid=37201168-481f-4b35-858b-1264eee94a6b","ios":"levelo://app?vid=37201168-481f-4b35-858b-1264eee94a6b"},"vehicle_type_id":"4","last_reported":1690729531,"current_range_meters":18000,"station_id":"","pricing_plan_id":"free"},{"bike_id":"f20ea888-8740-440b-bfeb-8eb2a7c1f652","system_id":"levelo_inurba_marseille","lat":43.306,"lon":5.3723,"is_reserved":false,"is_disabled":false,"rental_uris":{"android":"levelo://app?vid=f20ea888-8740-440b-bfeb-8eb2a7c1f652","ios":"levelo://app?vid=f20ea888-8740-440b-bfeb-8eb2a7c1f652"},"vehicle_type_id":"4","last_reported":1690729531,"current_range_meters":24800,"station_id":"ce4bgqh2rcd13ifvqc4g","pricing_plan_id":"free"},{"bike_id":"faf2c4c4-a88f-4e4f-9fd7-3bc59f517c6e","system_id":"levelo_inurba_marseille","lat":43.3094,"lon":5.37957,"is_reserved":false,"is_disabled":false,"rental_uris":{"android":"levelo://app?vid=faf2c4c4-a88f-4e4f-9fd7-3bc59f517c6e","ios":"levelo://app?vid=faf2c4c4-a88f-4e4f-9fd7-3bc59f517c6e"},"vehicle_type_id":"4","last_reported":1690729531,"current_range_meters":28400,"station_id":"","pricing_plan_id":"free"},{"bike_id":"19e47202-f139-410a-a298-e4b06ac17928","system_id":"levelo_inurba_marseille","lat":43.304606,"lon":5.379026,"is_reserved":false,"is_disabled":false,"rental_uris":{"android":"levelo://app?vid=19e47202-f139-410a-a298-e4b06ac17928","ios":"levelo://app?vid=19e47202-f139-410a-a298-e4b06ac17928"},"vehicle_type_id":"4","last_reported":1690729531,"current_range_meters":5600,"station_id":"ce4bgup2rcd13ifvqcn0","pricing_plan_id":"free"},{"bike_id":"7099b7ac-0885-4284-ae58-b3bfb4181e1a","system_id":"levelo_inurba_marseille","lat":43.30286,"lon":5.37703,"is_reserved":false,"is_disabled":false,"rental_uris":{"android":"levelo://app?vid=7099b7ac-0885-4284-ae58-b3bfb4181e1a","ios":"levelo://app?vid=7099b7ac-0885-4284-ae58-b3bfb4181e1a"},"vehicle_type_id":"4","last_reported":1690729531,"current_range_meters":29600,"station_id":"","pricing_plan_id":"free"},{"bike_id":"189f1507-7a4c-4c6b-af61-dd4b2b8130f6","system_id":"levelo_inurba_marseille","lat":43.304606,"lon":5.379026,"is_reserved":false,"is_disabled":false,"rental_uris":{"android":"levelo://app?vid=189f1507-7a4c-4c6b-af61-dd4b2b8130f6","ios":"levelo://app?vid=189f1507-7a4c-4c6b-af61-dd4b2b8130f6"},"vehicle_type_id":"4","last_reported":1690729531,"current_range_meters":4000,"station_id":"ce4bgup2rcd13ifvqcn0","pricing_plan_id":"free"},{"bike_id":"c5dc20aa-4d60-4a34-8675-c4df5e2fa01e","system_id":"levelo_inurba_marseille","lat":43.313571,"lon":5.384829,"is_reserved":false,"is_disabled":false,"rental_uris":{"android":"levelo://app?vid=c5dc20aa-4d60-4a34-8675-c4df5e2fa01e","ios":"levelo://app?vid=c5dc20aa-4d60-4a34-8675-c4df5e2fa01e"},"vehicle_type_id":"4","last_reported":1690729531,"current_range_meters":31200,"station_id":"ce4bgt92rcd13ifvqcf0","pricing_plan_id":"free"},{"bike_id":"b6ba1b11-e5e3-4171-9670-dd7ec6061f7a","system_id":"levelo_inurba_marseille","lat":43.313571,"lon":5.384829,"is_reserved":false,"is_disabled":false,"rental_uris":{"android":"levelo://app?vid=b6ba1b11-e5e3-4171-9670-dd7ec6061f7a","ios":"levelo://app?vid=b6ba1b11-e5e3-4171-9670-dd7ec6061f7a"},"vehicle_type_id":"4","last_reported":1690729531,"current_range_meters":31200,"station_id":"ce4bgt92rcd13ifvqcf0","pricing_plan_id":"free"},{"bike_id":"16d78125-b046-420d-b799-40eb8623609a","system_id":"levelo_inurba_marseille","lat":43.313571,"lon":5.384829,"is_reserved":false,"is_disabled":false,"rental_uris":{"android":"levelo://app?vid=16d78125-b046-420d-b799-40eb8623609a","ios":"levelo://app?vid=16d78125-b046-420d-b799-40eb8623609a"},"vehicle_type_id":"4","last_reported":1690729531,"current_range_meters":30400,"station_id":"ce4bgt92rcd13ifvqcf0","pricing_plan_id":"free"},{"bike_id":"74148ca1-fc65-4ef2-a36f-7579b6ece4d8","system_id":"levelo_inurba_marseille","lat":43.299222,"lon":5.365554,"is_reserved":false,"is_disabled":false,"rental_uris":{"android":"levelo://app?vid=74148ca1-fc65-4ef2-a36f-7579b6ece4d8","ios":"levelo://app?vid=74148ca1-fc65-4ef2-a36f-7579b6ece4d8"},"vehicle_type_id":"4","last_reported":1690729531,"current_range_meters":27200,"station_id":"ce4bgm92rcd13ifvqbr0","pricing_plan_id":"free"},{"bike_id":"30537d43-af02-4a10-b928-7b9b8cf633d2","system_id":"levelo_inurba_marseille","lat":43.305364,"lon":5.384119,"is_reserved":false,"is_disabled":false,"rental_uris":{"android":"levelo://app?vid=30537d43-af02-4a10-b928-7b9b8cf633d2","ios":"levelo://app?vid=30537d43-af02-4a10-b928-7b9b8cf633d2"},"vehicle_type_id":"4","last_reported":1690729531,"current_range_meters":30400,"station_id":"ce4bgg92rcd13ifvqb30","pricing_plan_id":"free"},{"bike_id":"a5316f6d-ecf7-435c-b174-445bdd08b297","system_id":"levelo_inurba_marseille","lat":43.299243,"lon":5.37481,"is_reserved":false,"is_disabled":false,"rental_uris":{"android":"levelo://app?vid=a5316f6d-ecf7-435c-b174-445bdd08b297","ios":"levelo://app?vid=a5316f6d-ecf7-435c-b174-445bdd08b297"},"vehicle_type_id":"4","last_reported":1690729531,"current_range_meters":9200,"station_id":"ce4bgjh2rcd13ifvqbg0","pricing_plan_id":"free"},{"bike_id":"5eac2b30-2844-4435-9649-4e30373c2efc","system_id":"levelo_inurba_marseille","lat":43.311722,"lon":5.387247,"is_reserved":false,"is_disabled":false,"rental_uris":{"android":"levelo://app?vid=5eac2b30-2844-4435-9649-4e30373c2efc","ios":"levelo://app?vid=5eac2b30-2844-4435-9649-4e30373c2efc"},"vehicle_type_id":"4","last_reported":1690729531,"current_range_meters":31200,"station_id":"ce4bgv12rcd13ifvqcp0","pricing_plan_id":"free"},{"bike_id":"ef222269-8e8b-48a2-b913-ef494228a27d","system_id":"levelo_inurba_marseille","lat":43.311722,"lon":5.387247,"is_reserved":false,"is_disabled":false,"rental_uris":{"android":"levelo://app?vid=ef222269-8e8b-48a2-b913-ef494228a27d","ios":"levelo://app?vid=ef222269-8e8b-48a2-b913-ef494228a27d"},"vehicle_type_id":"4","last_reported":1690729531,"current_range_meters":30800,"station_id":"ce4bgv12rcd13ifvqcp0","pricing_plan_id":"free"},{"bike_id":"0a4496fd-bc77-478e-bdd8-06a2a8ab5508","system_id":"levelo_inurba_marseille","lat":43.297794,"lon":5.370888,"is_reserved":false,"is_disabled":false,"rental_uris":{"android":"levelo://app?vid=0a4496fd-bc77-478e-bdd8-06a2a8ab5508","ios":"levelo://app?vid=0a4496fd-bc77-478e-bdd8-06a2a8ab5508"},"vehicle_type_id":"4","last_reported":1690729531,"current_range_meters":4800,"station_id":"ce4bgop2rcd13ifvqc1g","pricing_plan_id":"free"},{"bike_id":"01768fa1-df85-472a-bce4-e98c4f1a7eed","system_id":"levelo_inurba_marseille","lat":43.32288,"lon":5.38266,"is_reserved":false,"is_disabled":false,"rental_uris":{"android":"levelo://app?vid=01768fa1-df85-472a-bce4-e98c4f1a7eed","ios":"levelo://app?vid=01768fa1-df85-472a-bce4-e98c4f1a7eed"},"vehicle_type_id":"4","last_reported":1690729531,"current_range_meters":31200,"station_id":"ce4bhr12rcd13ifvqhqg","pricing_plan_id":"free"},{"bike_id":"aff0017d-8d19-4b8c-8490-dfc322af04d7","system_id":"levelo_inurba_marseille","lat":43.32288,"lon":5.38267,"is_reserved":false,"is_disabled":false,"rental_uris":{"android":"levelo://app?vid=aff0017d-8d19-4b8c-8490-dfc322af04d7","ios":"levelo://app?vid=aff0017d-8d19-4b8c-8490-dfc322af04d7"},"vehicle_type_id":"4","last_reported":1690729531,"current_range_meters":31200,"station_id":"ce4bhr12rcd13ifvqhqg","pricing_plan_id":"free"},{"bike_id":"87ae9f90-94a6-4da3-816d-05c9f494a960","system_id":"levelo_inurba_marseille","lat":43.32288,"lon":5.3827,"is_reserved":false,"is_disabled":false,"rental_uris":{"android":"levelo://app?vid=87ae9f90-94a6-4da3-816d-05c9f494a960","ios":"levelo://app?vid=87ae9f90-94a6-4da3-816d-05c9f494a960"},"vehicle_type_id":"4","last_reported":1690729531,"current_range_meters":30000,"station_id":"ce4bhr12rcd13ifvqhqg","pricing_plan_id":"free"},{"bike_id":"a87c3d89-8ecc-4c20-a387-7842b25267e1","system_id":"levelo_inurba_marseille","lat":43.32289,"lon":5.38269,"is_reserved":false,"is_disabled":false,"rental_uris":{"android":"levelo://app?vid=a87c3d89-8ecc-4c20-a387-7842b25267e1","ios":"levelo://app?vid=a87c3d89-8ecc-4c20-a387-7842b25267e1"},"vehicle_type_id":"4","last_reported":1690729531,"current_range_meters":28400,"station_id":"ce4bhr12rcd13ifvqhqg","pricing_plan_id":"free"},{"bike_id":"fead3f1e-e9e6-4830-9da4-e98cba309113","system_id":"levelo_inurba_marseille","lat":43.322872,"lon":5.382756,"is_reserved":false,"is_disabled":false,"rental_uris":{"android":"levelo://app?vid=fead3f1e-e9e6-4830-9da4-e98cba309113","ios":"levelo://app?vid=fead3f1e-e9e6-4830-9da4-e98cba309113"},"vehicle_type_id":"4","last_reported":1690729531,"current_range_meters":11200,"station_id":"ce4bhr12rcd13ifvqhqg","pricing_plan_id":"free"},{"bike_id":"a196dbb0-0ca2-44b0-8b03-b7d3a734d20c","system_id":"levelo_inurba_marseille","lat":43.322872,"lon":5.382756,"is_reserved":false,"is_disabled":false,"rental_uris":{"android":"levelo://app?vid=a196dbb0-0ca2-44b0-8b03-b7d3a734d20c","ios":"levelo://app?vid=a196dbb0-0ca2-44b0-8b03-b7d3a734d20c"},"vehicle_type_id":"4","last_reported":1690729531,"current_range_meters":24000,"station_id":"ce4bhr12rcd13ifvqhqg","pricing_plan_id":"free"},{"bike_id":"82f1e03d-e4c3-4aac-b6f0-c9fc3950fe62","system_id":"levelo_inurba_marseille","lat":43.322919,"lon":5.382674,"is_reserved":false,"is_disabled":false,"rental_uris":{"android":"levelo://app?vid=82f1e03d-e4c3-4aac-b6f0-c9fc3950fe62","ios":"levelo://app?vid=82f1e03d-e4c3-4aac-b6f0-c9fc3950fe62"},"vehicle_type_id":"4","last_reported":1690729531,"current_range_meters":20400,"station_id":"","pricing_plan_id":"free"},{"bike_id":"79bf6da4-5f08-488b-96b1-6e23f74ec5ec","system_id":"levelo_inurba_marseille","lat":43.32291,"lon":5.38276,"is_reserved":false,"is_disabled":false,"rental_uris":{"android":"levelo://app?vid=79bf6da4-5f08-488b-96b1-6e23f74ec5ec","ios":"levelo://app?vid=79bf6da4-5f08-488b-96b1-6e23f74ec5ec"},"vehicle_type_id":"4","last_reported":1690729531,"current_range_meters":31200,"station_id":"ce4bhr12rcd13ifvqhqg","pricing_plan_id":"free"},{"bike_id":"74b1a9c8-90a4-46a4-9bea-9341cdeee686","system_id":"levelo_inurba_marseille","lat":43.32291,"lon":5.38277,"is_reserved":false,"is_disabled":false,"rental_uris":{"android":"levelo://app?vid=74b1a9c8-90a4-46a4-9bea-9341cdeee686","ios":"levelo://app?vid=74b1a9c8-90a4-46a4-9bea-9341cdeee686"},"vehicle_type_id":"4","last_reported":1690729531,"current_range_meters":29600,"station_id":"ce4bhr12rcd13ifvqhqg","pricing_plan_id":"free"},{"bike_id":"3f56ab11-c8db-4856-8929-e236d19fea1e","system_id":"levelo_inurba_marseille","lat":43.32834,"lon":5.36678,"is_reserved":false,"is_disabled":false,"rental_uris":{"android":"levelo://app?vid=3f56ab11-c8db-4856-8929-e236d19fea1e","ios":"levelo://app?vid=3f56ab11-c8db-4856-8929-e236d19fea1e"},"vehicle_type_id":"4","last_reported":1690729531,"current_range_meters":31200,"station_id":"ce4bhs92rcd13ifvqi0g","pricing_plan_id":"free"},{"bike_id":"dd789220-e7b5-42c1-b9dc-dc4243148021","system_id":"levelo_inurba_marseille","lat":43.297163,"lon":5.365866,"is_reserved":false,"is_disabled":false,"rental_uris":{"android":"levelo://app?vid=dd789220-e7b5-42c1-b9dc-dc4243148021","ios":"levelo://app?vid=dd789220-e7b5-42c1-b9dc-dc4243148021"},"vehicle_type_id":"4","last_reported":1690729531,"current_range_meters":31600,"station_id":"ce4bgn12rcd13ifvqbt0","pricing_plan_id":"free"},{"bike_id":"29d1b470-72e5-4d9e-8db9-9a8308459acb","system_id":"levelo_inurba_marseille","lat":43.29623,"lon":5.37175,"is_reserved":false,"is_disabled":false,"rental_uris":{"android":"levelo://app?vid=29d1b470-72e5-4d9e-8db9-9a8308459acb","ios":"levelo://app?vid=29d1b470-72e5-4d9e-8db9-9a8308459acb"},"vehicle_type_id":"4","last_reported":1690729531,"current_range_meters":800,"station_id":"","pricing_plan_id":"free"},{"bike_id":"9352f232-b084-459f-ae75-d088020cb904","system_id":"levelo_inurba_marseille","lat":43.29619,"lon":5.37173,"is_reserved":false,"is_disabled":false,"rental_uris":{"android":"levelo://app?vid=9352f232-b084-459f-ae75-d088020cb904","ios":"levelo://app?vid=9352f232-b084-459f-ae75-d088020cb904"},"vehicle_type_id":"4","last_reported":1690729531,"current_range_meters":22800,"station_id":"","pricing_plan_id":"free"},{"bike_id":"10ddc42f-6d2c-42f4-83ed-bff510690fb5","system_id":"levelo_inurba_marseille","lat":43.296131,"lon":5.370773,"is_reserved":false,"is_disabled":false,"rental_uris":{"android":"levelo://app?vid=10ddc42f-6d2c-42f4-83ed-bff510690fb5","ios":"levelo://app?vid=10ddc42f-6d2c-42f4-83ed-bff510690fb5"},"vehicle_type_id":"4","last_reported":1690729531,"current_range_meters":23200,"station_id":"ce4bgnh2rcd13ifvqc0g","pricing_plan_id":"free"},{"bike_id":"36706550-c3a6-424e-886c-56b4e9aeb6a0","system_id":"levelo_inurba_marseille","lat":43.299028,"lon":5.381509,"is_reserved":false,"is_disabled":false,"rental_uris":{"android":"levelo://app?vid=36706550-c3a6-424e-886c-56b4e9aeb6a0","ios":"levelo://app?vid=36706550-c3a6-424e-886c-56b4e9aeb6a0"},"vehicle_type_id":"4","last_reported":1690729531,"current_range_meters":18400,"station_id":"ce4bgj12rcd13ifvqbc0","pricing_plan_id":"free"},{"bike_id":"ed762095-c3fa-4dbb-bd00-66d9b6a947bd","system_id":"levelo_inurba_marseille","lat":43.299028,"lon":5.381509,"is_reserved":false,"is_disabled":false,"rental_uris":{"android":"levelo://app?vid=ed762095-c3fa-4dbb-bd00-66d9b6a947bd","ios":"levelo://app?vid=ed762095-c3fa-4dbb-bd00-66d9b6a947bd"},"vehicle_type_id":"4","last_reported":1690729531,"current_range_meters":14000,"station_id":"ce4bgj12rcd13ifvqbc0","pricing_plan_id":"free"},{"bike_id":"3e13333f-0a55-474e-b9b3-8c628c3e5386","system_id":"levelo_inurba_marseille","lat":43.299028,"lon":5.381509,"is_reserved":false,"is_disabled":false,"rental_uris":{"android":"levelo://app?vid=3e13333f-0a55-474e-b9b3-8c628c3e5386","ios":"levelo://app?vid=3e13333f-0a55-474e-b9b3-8c628c3e5386"},"vehicle_type_id":"4","last_reported":1690729531,"current_range_meters":4800,"station_id":"ce4bgj12rcd13ifvqbc0","pricing_plan_id":"free"},{"bike_id":"196ce80e-4e19-4c59-8cc3-bc0075e6c764","system_id":"levelo_inurba_marseille","lat":43.299028,"lon":5.381509,"is_reserved":false,"is_disabled":false,"rental_uris":{"android":"levelo://app?vid=196ce80e-4e19-4c59-8cc3-bc0075e6c764","ios":"levelo://app?vid=196ce80e-4e19-4c59-8cc3-bc0075e6c764"},"vehicle_type_id":"4","last_reported":1690729531,"current_range_meters":26400,"station_id":"ce4bgj12rcd13ifvqbc0","pricing_plan_id":"free"},{"bike_id":"940d6f19-d4de-41ad-b9ac-efa2121b9876","system_id":"levelo_inurba_marseille","lat":43.309589,"lon":5.390258,"is_reserved":false,"is_disabled":false,"rental_uris":{"android":"levelo://app?vid=940d6f19-d4de-41ad-b9ac-efa2121b9876","ios":"levelo://app?vid=940d6f19-d4de-41ad-b9ac-efa2121b9876"},"vehicle_type_id":"4","last_reported":1690729531,"current_range_meters":23200,"station_id":"ce4bgup2rcd13ifvqco0","pricing_plan_id":"free"},{"bike_id":"f0b1921d-8fc5-42f6-8214-26455e772ce5","system_id":"levelo_inurba_marseille","lat":43.309589,"lon":5.390258,"is_reserved":false,"is_disabled":false,"rental_uris":{"android":"levelo://app?vid=f0b1921d-8fc5-42f6-8214-26455e772ce5","ios":"levelo://app?vid=f0b1921d-8fc5-42f6-8214-26455e772ce5"},"vehicle_type_id":"4","last_reported":1690729531,"current_range_meters":27600,"station_id":"ce4bgup2rcd13ifvqco0","pricing_plan_id":"free"},{"bike_id":"1791db1c-633f-4019-b3e1-c9d1c463c296","system_id":"levelo_inurba_marseille","lat":43.2979,"lon":5.38091,"is_reserved":false,"is_disabled":false,"rental_uris":{"android":"levelo://app?vid=1791db1c-633f-4019-b3e1-c9d1c463c296","ios":"levelo://app?vid=1791db1c-633f-4019-b3e1-c9d1c463c296"},"vehicle_type_id":"4","last_reported":1690729531,"current_range_meters":13200,"station_id":"ce4bgip2rcd13ifvqbb0","pricing_plan_id":"free"},{"bike_id":"7ce59475-1dcc-4154-9480-0e72ed5ae13e","system_id":"levelo_inurba_marseille","lat":43.29787,"lon":5.38094,"is_reserved":false,"is_disabled":false,"rental_uris":{"android":"levelo://app?vid=7ce59475-1dcc-4154-9480-0e72ed5ae13e","ios":"levelo://app?vid=7ce59475-1dcc-4154-9480-0e72ed5ae13e"},"vehicle_type_id":"4","last_reported":1690729531,"current_range_meters":24800,"station_id":"ce4bgip2rcd13ifvqbb0","pricing_plan_id":"free"},{"bike_id":"e51c7c81-9953-442f-9cf6-3c8a6411fbbb","system_id":"levelo_inurba_marseille","lat":43.304274,"lon":5.388873,"is_reserved":false,"is_disabled":false,"rental_uris":{"android":"levelo://app?vid=e51c7c81-9953-442f-9cf6-3c8a6411fbbb","ios":"levelo://app?vid=e51c7c81-9953-442f-9cf6-3c8a6411fbbb"},"vehicle_type_id":"4","last_reported":1690729531,"current_range_meters":4000,"station_id":"ce4bgk12rcd13ifvqbi0","pricing_plan_id":"free"},{"bike_id":"4265cac9-8095-4d23-bd82-55c3d8325e56","system_id":"levelo_inurba_marseille","lat":43.298037,"lon":5.381066,"is_reserved":false,"is_disabled":false,"rental_uris":{"android":"levelo://app?vid=4265cac9-8095-4d23-bd82-55c3d8325e56","ios":"levelo://app?vid=4265cac9-8095-4d23-bd82-55c3d8325e56"},"vehicle_type_id":"4","last_reported":1690729531,"current_range_meters":28800,"station_id":"ce4bgip2rcd13ifvqbb0","pricing_plan_id":"free"},{"bike_id":"b03a59bb-4ac2-4a14-8893-df8eca07e9d0","system_id":"levelo_inurba_marseille","lat":43.29779,"lon":5.38105,"is_reserved":false,"is_disabled":false,"rental_uris":{"android":"levelo://app?vid=b03a59bb-4ac2-4a14-8893-df8eca07e9d0","ios":"levelo://app?vid=b03a59bb-4ac2-4a14-8893-df8eca07e9d0"},"vehicle_type_id":"4","last_reported":1690729531,"current_range_meters":22800,"station_id":"ce4bgip2rcd13ifvqbb0","pricing_plan_id":"free"},{"bike_id":"221eb5c9-1be0-4674-90b9-44163672837b","system_id":"levelo_inurba_marseille","lat":43.299707,"lon":5.384859,"is_reserved":false,"is_disabled":false,"rental_uris":{"android":"levelo://app?vid=221eb5c9-1be0-4674-90b9-44163672837b","ios":"levelo://app?vid=221eb5c9-1be0-4674-90b9-44163672837b"},"vehicle_type_id":"4","last_reported":1690729531,"current_range_meters":29200,"station_id":"ce4bgj92rcd13ifvqbd0","pricing_plan_id":"free"},{"bike_id":"21448e0e-5d08-4cd4-97ea-d5db5eeaae60","system_id":"levelo_inurba_marseille","lat":43.295279,"lon":5.375048,"is_reserved":false,"is_disabled":false,"rental_uris":{"android":"levelo://app?vid=21448e0e-5d08-4cd4-97ea-d5db5eeaae60","ios":"levelo://app?vid=21448e0e-5d08-4cd4-97ea-d5db5eeaae60"},"vehicle_type_id":"4","last_reported":1690729531,"current_range_meters":17200,"station_id":"ce4bgkp2rcd13ifvqbmg","pricing_plan_id":"free"},{"bike_id":"fb19f109-53fb-4415-ad21-4ebcfd2f62a0","system_id":"levelo_inurba_marseille","lat":43.29602,"lon":5.381084,"is_reserved":false,"is_disabled":false,"rental_uris":{"android":"levelo://app?vid=fb19f109-53fb-4415-ad21-4ebcfd2f62a0","ios":"levelo://app?vid=fb19f109-53fb-4415-ad21-4ebcfd2f62a0"},"vehicle_type_id":"4","last_reported":1690729531,"current_range_meters":24800,"station_id":"ce4bgl12rcd13ifvqbo0","pricing_plan_id":"free"},{"bike_id":"8d6c9b77-d7b3-497a-9c44-e58ce50659da","system_id":"levelo_inurba_marseille","lat":43.293009,"lon":5.374584,"is_reserved":false,"is_disabled":false,"rental_uris":{"android":"levelo://app?vid=8d6c9b77-d7b3-497a-9c44-e58ce50659da","ios":"levelo://app?vid=8d6c9b77-d7b3-497a-9c44-e58ce50659da"},"vehicle_type_id":"4","last_reported":1690729531,"current_range_meters":18400,"station_id":"ce4bgi12rcd13ifvqb70","pricing_plan_id":"free"},{"bike_id":"d4ef8b6d-aee2-456d-b689-42b46f8cf82c","system_id":"levelo_inurba_marseille","lat":43.305994,"lon":5.393687,"is_reserved":false,"is_disabled":false,"rental_uris":{"android":"levelo://app?vid=d4ef8b6d-aee2-456d-b689-42b46f8cf82c","ios":"levelo://app?vid=d4ef8b6d-aee2-456d-b689-42b46f8cf82c"},"vehicle_type_id":"4","last_reported":1690729531,"current_range_meters":30000,"station_id":"ce4bh0p2rcd13ifvqd80","pricing_plan_id":"free"},{"bike_id":"8c4c23f8-2db5-4f72-8984-09b364dacf53","system_id":"levelo_inurba_marseille","lat":43.305994,"lon":5.393687,"is_reserved":false,"is_disabled":false,"rental_uris":{"android":"levelo://app?vid=8c4c23f8-2db5-4f72-8984-09b364dacf53","ios":"levelo://app?vid=8c4c23f8-2db5-4f72-8984-09b364dacf53"},"vehicle_type_id":"4","last_reported":1690729531,"current_range_meters":10000,"station_id":"ce4bh0p2rcd13ifvqd80","pricing_plan_id":"free"},{"bike_id":"5469d3af-2355-4f90-8b15-61091194a381","system_id":"levelo_inurba_marseille","lat":43.291675,"lon":5.371583,"is_reserved":false,"is_disabled":false,"rental_uris":{"android":"levelo://app?vid=5469d3af-2355-4f90-8b15-61091194a381","ios":"levelo://app?vid=5469d3af-2355-4f90-8b15-61091194a381"},"vehicle_type_id":"4","last_reported":1690729531,"current_range_meters":8800,"station_id":"ce4bha92rcd13ifvqeh0","pricing_plan_id":"free"},{"bike_id":"71e0536f-cfda-4713-8ef1-d696482cced1","system_id":"levelo_inurba_marseille","lat":43.29192,"lon":5.3583,"is_reserved":false,"is_disabled":false,"rental_uris":{"android":"levelo://app?vid=71e0536f-cfda-4713-8ef1-d696482cced1","ios":"levelo://app?vid=71e0536f-cfda-4713-8ef1-d696482cced1"},"vehicle_type_id":"4","last_reported":1690729531,"current_range_meters":7200,"station_id":"ce4bhb12rcd13ifvqel0","pricing_plan_id":"free"},{"bike_id":"dbd9b921-2af6-4afe-a6be-9e2e5e2e7084","system_id":"levelo_inurba_marseille","lat":43.29529,"lon":5.385581,"is_reserved":false,"is_disabled":false,"rental_uris":{"android":"levelo://app?vid=dbd9b921-2af6-4afe-a6be-9e2e5e2e7084","ios":"levelo://app?vid=dbd9b921-2af6-4afe-a6be-9e2e5e2e7084"},"vehicle_type_id":"4","last_reported":1690729531,"current_range_meters":400,"station_id":"ce4bgih2rcd13ifvqba0","pricing_plan_id":"free"},{"bike_id":"531935f3-fc27-42cb-9469-b9ea2997b9b5","system_id":"levelo_inurba_marseille","lat":43.2953,"lon":5.38553,"is_reserved":false,"is_disabled":false,"rental_uris":{"android":"levelo://app?vid=531935f3-fc27-42cb-9469-b9ea2997b9b5","ios":"levelo://app?vid=531935f3-fc27-42cb-9469-b9ea2997b9b5"},"vehicle_type_id":"4","last_reported":1690729531,"current_range_meters":22400,"station_id":"","pricing_plan_id":"free"},{"bike_id":"43f829ed-6764-4b71-b772-c43a53756045","system_id":"levelo_inurba_marseille","lat":43.290779,"lon":5.371482,"is_reserved":false,"is_disabled":false,"rental_uris":{"android":"levelo://app?vid=43f829ed-6764-4b71-b772-c43a53756045","ios":"levelo://app?vid=43f829ed-6764-4b71-b772-c43a53756045"},"vehicle_type_id":"4","last_reported":1690729531,"current_range_meters":6800,"station_id":"ce4bh5p2rcd13ifvqe4g","pricing_plan_id":"free"},{"bike_id":"d3b71c59-9e55-42ec-9fe6-904c3b482e8f","system_id":"levelo_inurba_marseille","lat":43.290779,"lon":5.371482,"is_reserved":false,"is_disabled":false,"rental_uris":{"android":"levelo://app?vid=d3b71c59-9e55-42ec-9fe6-904c3b482e8f","ios":"levelo://app?vid=d3b71c59-9e55-42ec-9fe6-904c3b482e8f"},"vehicle_type_id":"4","last_reported":1690729531,"current_range_meters":15600,"station_id":"ce4bh5p2rcd13ifvqe4g","pricing_plan_id":"free"},{"bike_id":"d7b553cc-6756-412f-9367-4133bef56567","system_id":"levelo_inurba_marseille","lat":43.290624,"lon":5.359245,"is_reserved":false,"is_disabled":false,"rental_uris":{"android":"levelo://app?vid=d7b553cc-6756-412f-9367-4133bef56567","ios":"levelo://app?vid=d7b553cc-6756-412f-9367-4133bef56567"},"vehicle_type_id":"4","last_reported":1690729531,"current_range_meters":26800,"station_id":"ce4bha92rcd13ifvqeg0","pricing_plan_id":"free"},{"bike_id":"e8c2c8f1-af4f-45a8-8458-39dc9063a91d","system_id":"levelo_inurba_marseille","lat":43.294153,"lon":5.386305,"is_reserved":false,"is_disabled":false,"rental_uris":{"android":"levelo://app?vid=e8c2c8f1-af4f-45a8-8458-39dc9063a91d","ios":"levelo://app?vid=e8c2c8f1-af4f-45a8-8458-39dc9063a91d"},"vehicle_type_id":"4","last_reported":1690729531,"current_range_meters":14800,"station_id":"ce4bh2h2rcd13ifvqdh0","pricing_plan_id":"free"},{"bike_id":"1b9e12b3-35eb-4071-bdee-22ad5f1ab544","system_id":"levelo_inurba_marseille","lat":43.289302,"lon":5.366454,"is_reserved":false,"is_disabled":false,"rental_uris":{"android":"levelo://app?vid=1b9e12b3-35eb-4071-bdee-22ad5f1ab544","ios":"levelo://app?vid=1b9e12b3-35eb-4071-bdee-22ad5f1ab544"},"vehicle_type_id":"4","last_reported":1690729531,"current_range_meters":0,"station_id":"ce4bhap2rcd13ifvqek0","pricing_plan_id":"free"},{"bike_id":"fcfdf938-98fd-4cd6-9f05-a4a99f60dc72","system_id":"levelo_inurba_marseille","lat":43.287184,"lon":5.37937,"is_reserved":false,"is_disabled":false,"rental_uris":{"android":"levelo://app?vid=fcfdf938-98fd-4cd6-9f05-a4a99f60dc72","ios":"levelo://app?vid=fcfdf938-98fd-4cd6-9f05-a4a99f60dc72"},"vehicle_type_id":"4","last_reported":1690729531,"current_range_meters":1600,"station_id":"ce4bh9p2rcd13ifvqec0","pricing_plan_id":"free"},{"bike_id":"009e1f8e-69b2-407c-832d-53668f2625ed","system_id":"levelo_inurba_marseille","lat":43.330442,"lon":5.389148,"is_reserved":false,"is_disabled":false,"rental_uris":{"android":"levelo://app?vid=009e1f8e-69b2-407c-832d-53668f2625ed","ios":"levelo://app?vid=009e1f8e-69b2-407c-832d-53668f2625ed"},"vehicle_type_id":"4","last_reported":1690729531,"current_range_meters":29200,"station_id":"ce4bhr92rcd13ifvqhrg","pricing_plan_id":"free"},{"bike_id":"4031e07c-3812-4dd4-9840-651d80dc70e1","system_id":"levelo_inurba_marseille","lat":43.33045,"lon":5.38916,"is_reserved":false,"is_disabled":false,"rental_uris":{"android":"levelo://app?vid=4031e07c-3812-4dd4-9840-651d80dc70e1","ios":"levelo://app?vid=4031e07c-3812-4dd4-9840-651d80dc70e1"},"vehicle_type_id":"4","last_reported":1690729531,"current_range_meters":30800,"station_id":"ce4bhr92rcd13ifvqhrg","pricing_plan_id":"free"},{"bike_id":"15826b93-93a4-4083-bb32-5201a2212194","system_id":"levelo_inurba_marseille","lat":43.33048,"lon":5.38915,"is_reserved":false,"is_disabled":false,"rental_uris":{"android":"levelo://app?vid=15826b93-93a4-4083-bb32-5201a2212194","ios":"levelo://app?vid=15826b93-93a4-4083-bb32-5201a2212194"},"vehicle_type_id":"4","last_reported":1690729531,"current_range_meters":30400,"station_id":"ce4bhr92rcd13ifvqhrg","pricing_plan_id":"free"},{"bike_id":"134ef223-0af9-48f2-bbd1-4d84dd8cb35c","system_id":"levelo_inurba_marseille","lat":43.290104,"lon":5.356111,"is_reserved":false,"is_disabled":false,"rental_uris":{"android":"levelo://app?vid=134ef223-0af9-48f2-bbd1-4d84dd8cb35c","ios":"levelo://app?vid=134ef223-0af9-48f2-bbd1-4d84dd8cb35c"},"vehicle_type_id":"4","last_reported":1690729531,"current_range_meters":31200,"station_id":"ce4bhb92rcd13ifvqen0","pricing_plan_id":"free"},{"bike_id":"0ae5033e-56d2-48fa-a970-ec2746f9be79","system_id":"levelo_inurba_marseille","lat":43.29002,"lon":5.35608,"is_reserved":false,"is_disabled":false,"rental_uris":{"android":"levelo://app?vid=0ae5033e-56d2-48fa-a970-ec2746f9be79","ios":"levelo://app?vid=0ae5033e-56d2-48fa-a970-ec2746f9be79"},"vehicle_type_id":"4","last_reported":1690729531,"current_range_meters":11200,"station_id":"ce4bhb92rcd13ifvqen0","pricing_plan_id":"free"},{"bike_id":"05bf2cc0-c80b-4d3b-9303-5cea93148e89","system_id":"levelo_inurba_marseille","lat":43.290995,"lon":5.381361,"is_reserved":false,"is_disabled":false,"rental_uris":{"android":"levelo://app?vid=05bf2cc0-c80b-4d3b-9303-5cea93148e89","ios":"levelo://app?vid=05bf2cc0-c80b-4d3b-9303-5cea93148e89"},"vehicle_type_id":"4","last_reported":1690729531,"current_range_meters":30000,"station_id":"ce4bh512rcd13ifvqe2g","pricing_plan_id":"free"},{"bike_id":"c2571005-1378-42f5-9992-84b341755c2e","system_id":"levelo_inurba_marseille","lat":43.29784,"lon":5.39331,"is_reserved":false,"is_disabled":false,"rental_uris":{"android":"levelo://app?vid=c2571005-1378-42f5-9992-84b341755c2e","ios":"levelo://app?vid=c2571005-1378-42f5-9992-84b341755c2e"},"vehicle_type_id":"4","last_reported":1690729531,"current_range_meters":14000,"station_id":"chh1huq6cuj3fo74tm60","pricing_plan_id":"free"},{"bike_id":"91b9418b-c226-4172-8692-36037da860be","system_id":"levelo_inurba_marseille","lat":43.286961,"lon":5.373785,"is_reserved":false,"is_disabled":false,"rental_uris":{"android":"levelo://app?vid=91b9418b-c226-4172-8692-36037da860be","ios":"levelo://app?vid=91b9418b-c226-4172-8692-36037da860be"},"vehicle_type_id":"4","last_reported":1690729531,"current_range_meters":6000,"station_id":"ce4bh3p2rcd13ifvqdq0","pricing_plan_id":"free"},{"bike_id":"75199276-b705-4ad7-b6a9-49aeaa84628a","system_id":"levelo_inurba_marseille","lat":43.286593,"lon":5.363346,"is_reserved":false,"is_disabled":false,"rental_uris":{"android":"levelo://app?vid=75199276-b705-4ad7-b6a9-49aeaa84628a","ios":"levelo://app?vid=75199276-b705-4ad7-b6a9-49aeaa84628a"},"vehicle_type_id":"4","last_reported":1690729531,"current_range_meters":31200,"station_id":"ce4bhah2rcd13ifvqej0","pricing_plan_id":"free"},{"bike_id":"9707c2b5-49ea-42b6-8faf-7b11f49c3b3f","system_id":"levelo_inurba_marseille","lat":43.316517,"lon":5.404375,"is_reserved":false,"is_disabled":false,"rental_uris":{"android":"levelo://app?vid=9707c2b5-49ea-42b6-8faf-7b11f49c3b3f","ios":"levelo://app?vid=9707c2b5-49ea-42b6-8faf-7b11f49c3b3f"},"vehicle_type_id":"4","last_reported":1690729531,"current_range_meters":4800,"station_id":"ce4bh012rcd13ifvqd00","pricing_plan_id":"free"},{"bike_id":"90a7b027-06c4-4292-8961-a905bfd7f9cd","system_id":"levelo_inurba_marseille","lat":43.316517,"lon":5.404375,"is_reserved":false,"is_disabled":false,"rental_uris":{"android":"levelo://app?vid=90a7b027-06c4-4292-8961-a905bfd7f9cd","ios":"levelo://app?vid=90a7b027-06c4-4292-8961-a905bfd7f9cd"},"vehicle_type_id":"4","last_reported":1690729531,"current_range_meters":3200,"station_id":"ce4bh012rcd13ifvqd00","pricing_plan_id":"free"},{"bike_id":"cba2fe08-5950-45df-a2c3-b8ff216eb4ef","system_id":"levelo_inurba_marseille","lat":43.316517,"lon":5.404375,"is_reserved":false,"is_disabled":false,"rental_uris":{"android":"levelo://app?vid=cba2fe08-5950-45df-a2c3-b8ff216eb4ef","ios":"levelo://app?vid=cba2fe08-5950-45df-a2c3-b8ff216eb4ef"},"vehicle_type_id":"4","last_reported":1690729531,"current_range_meters":23200,"station_id":"ce4bh012rcd13ifvqd00","pricing_plan_id":"free"},{"bike_id":"acd42e29-e808-4a5b-a956-c97ea964b9b5","system_id":"levelo_inurba_marseille","lat":43.31651,"lon":5.40437,"is_reserved":false,"is_disabled":false,"rental_uris":{"android":"levelo://app?vid=acd42e29-e808-4a5b-a956-c97ea964b9b5","ios":"levelo://app?vid=acd42e29-e808-4a5b-a956-c97ea964b9b5"},"vehicle_type_id":"4","last_reported":1690729531,"current_range_meters":24800,"station_id":"ce4bh012rcd13ifvqd00","pricing_plan_id":"free"},{"bike_id":"023251d4-1386-48e2-80a6-0cfc06549ba5","system_id":"levelo_inurba_marseille","lat":43.316517,"lon":5.404375,"is_reserved":false,"is_disabled":false,"rental_uris":{"android":"levelo://app?vid=023251d4-1386-48e2-80a6-0cfc06549ba5","ios":"levelo://app?vid=023251d4-1386-48e2-80a6-0cfc06549ba5"},"vehicle_type_id":"4","last_reported":1690729531,"current_range_meters":18800,"station_id":"ce4bh012rcd13ifvqd00","pricing_plan_id":"free"},{"bike_id":"99c50597-4800-4e25-bd3e-243b23cee58b","system_id":"levelo_inurba_marseille","lat":43.29195,"lon":5.39307,"is_reserved":false,"is_disabled":false,"rental_uris":{"android":"levelo://app?vid=99c50597-4800-4e25-bd3e-243b23cee58b","ios":"levelo://app?vid=99c50597-4800-4e25-bd3e-243b23cee58b"},"vehicle_type_id":"4","last_reported":1690729531,"current_range_meters":0,"station_id":"ce4bh192rcd13ifvqdd0","pricing_plan_id":"free"},{"bike_id":"2874ac78-adc8-4e97-a83c-dcf9501c8615","system_id":"levelo_inurba_marseille","lat":43.284538,"lon":5.358657,"is_reserved":false,"is_disabled":false,"rental_uris":{"android":"levelo://app?vid=2874ac78-adc8-4e97-a83c-dcf9501c8615","ios":"levelo://app?vid=2874ac78-adc8-4e97-a83c-dcf9501c8615"},"vehicle_type_id":"4","last_reported":1690729531,"current_range_meters":19200,"station_id":"ce4bhah2rcd13ifvqei0","pricing_plan_id":"free"},{"bike_id":"a1754214-2cf0-490c-9066-2ccb7dbb7a1d","system_id":"levelo_inurba_marseille","lat":43.284538,"lon":5.358657,"is_reserved":false,"is_disabled":false,"rental_uris":{"android":"levelo://app?vid=a1754214-2cf0-490c-9066-2ccb7dbb7a1d","ios":"levelo://app?vid=a1754214-2cf0-490c-9066-2ccb7dbb7a1d"},"vehicle_type_id":"4","last_reported":1690729531,"current_range_meters":28800,"station_id":"ce4bhah2rcd13ifvqei0","pricing_plan_id":"free"},{"bike_id":"c32ed5a1-4c1a-4218-a891-7586eb24436d","system_id":"levelo_inurba_marseille","lat":43.284538,"lon":5.358657,"is_reserved":false,"is_disabled":false,"rental_uris":{"android":"levelo://app?vid=c32ed5a1-4c1a-4218-a891-7586eb24436d","ios":"levelo://app?vid=c32ed5a1-4c1a-4218-a891-7586eb24436d"},"vehicle_type_id":"4","last_reported":1690729531,"current_range_meters":16400,"station_id":"ce4bhah2rcd13ifvqei0","pricing_plan_id":"free"},{"bike_id":"a3fdb558-526c-4cda-9d8a-176f1b8a43c4","system_id":"levelo_inurba_marseille","lat":43.28618,"lon":5.35109,"is_reserved":false,"is_disabled":false,"rental_uris":{"android":"levelo://app?vid=a3fdb558-526c-4cda-9d8a-176f1b8a43c4","ios":"levelo://app?vid=a3fdb558-526c-4cda-9d8a-176f1b8a43c4"},"vehicle_type_id":"4","last_reported":1690729531,"current_range_meters":23600,"station_id":"ce4bhch2rcd13ifvqeug","pricing_plan_id":"free"},{"bike_id":"bdd97db1-668e-4692-8a22-4860d3ba0420","system_id":"levelo_inurba_marseille","lat":43.28618,"lon":5.35107,"is_reserved":false,"is_disabled":false,"rental_uris":{"android":"levelo://app?vid=bdd97db1-668e-4692-8a22-4860d3ba0420","ios":"levelo://app?vid=bdd97db1-668e-4692-8a22-4860d3ba0420"},"vehicle_type_id":"4","last_reported":1690729531,"current_range_meters":31200,"station_id":"ce4bhch2rcd13ifvqeug","pricing_plan_id":"free"},{"bike_id":"db8ad659-91dd-4333-bf3b-aa080dd7b7e4","system_id":"levelo_inurba_marseille","lat":43.28619,"lon":5.35102,"is_reserved":false,"is_disabled":false,"rental_uris":{"android":"levelo://app?vid=db8ad659-91dd-4333-bf3b-aa080dd7b7e4","ios":"levelo://app?vid=db8ad659-91dd-4333-bf3b-aa080dd7b7e4"},"vehicle_type_id":"4","last_reported":1690729531,"current_range_meters":17200,"station_id":"ce4bhch2rcd13ifvqeug","pricing_plan_id":"free"},{"bike_id":"ab338ad7-0783-4a65-b5bb-67843b53b5df","system_id":"levelo_inurba_marseille","lat":43.28619,"lon":5.351,"is_reserved":false,"is_disabled":false,"rental_uris":{"android":"levelo://app?vid=ab338ad7-0783-4a65-b5bb-67843b53b5df","ios":"levelo://app?vid=ab338ad7-0783-4a65-b5bb-67843b53b5df"},"vehicle_type_id":"4","last_reported":1690729531,"current_range_meters":31200,"station_id":"ce4bhch2rcd13ifvqeug","pricing_plan_id":"free"},{"bike_id":"3e2a5d47-cbef-4665-88b5-f5b578f067b2","system_id":"levelo_inurba_marseille","lat":43.286161,"lon":5.351091,"is_reserved":false,"is_disabled":false,"rental_uris":{"android":"levelo://app?vid=3e2a5d47-cbef-4665-88b5-f5b578f067b2","ios":"levelo://app?vid=3e2a5d47-cbef-4665-88b5-f5b578f067b2"},"vehicle_type_id":"4","last_reported":1690729531,"current_range_meters":31200,"station_id":"ce4bhch2rcd13ifvqeug","pricing_plan_id":"free"},{"bike_id":"594bb192-9e43-416f-a44c-b6e1052cfdd7","system_id":"levelo_inurba_marseille","lat":43.28618,"lon":5.35103,"is_reserved":false,"is_disabled":false,"rental_uris":{"android":"levelo://app?vid=594bb192-9e43-416f-a44c-b6e1052cfdd7","ios":"levelo://app?vid=594bb192-9e43-416f-a44c-b6e1052cfdd7"},"vehicle_type_id":"4","last_reported":1690729531,"current_range_meters":24400,"station_id":"ce4bhch2rcd13ifvqeug","pricing_plan_id":"free"},{"bike_id":"c0a40e6d-e3d9-4572-8b42-cf5f8a58bf53","system_id":"levelo_inurba_marseille","lat":43.28618,"lon":5.35102,"is_reserved":false,"is_disabled":false,"rental_uris":{"android":"levelo://app?vid=c0a40e6d-e3d9-4572-8b42-cf5f8a58bf53","ios":"levelo://app?vid=c0a40e6d-e3d9-4572-8b42-cf5f8a58bf53"},"vehicle_type_id":"4","last_reported":1690729531,"current_range_meters":31200,"station_id":"ce4bhch2rcd13ifvqeug","pricing_plan_id":"free"},{"bike_id":"590ffa09-07f1-44b1-a93c-ea69e13c3b04","system_id":"levelo_inurba_marseille","lat":43.286153,"lon":5.351093,"is_reserved":false,"is_disabled":false,"rental_uris":{"android":"levelo://app?vid=590ffa09-07f1-44b1-a93c-ea69e13c3b04","ios":"levelo://app?vid=590ffa09-07f1-44b1-a93c-ea69e13c3b04"},"vehicle_type_id":"4","last_reported":1690729531,"current_range_meters":29600,"station_id":"ce4bhch2rcd13ifvqeug","pricing_plan_id":"free"},{"bike_id":"1e2583a6-c052-48fa-a25c-e7c2283c5bd0","system_id":"levelo_inurba_marseille","lat":43.28619,"lon":5.35096,"is_reserved":false,"is_disabled":false,"rental_uris":{"android":"levelo://app?vid=1e2583a6-c052-48fa-a25c-e7c2283c5bd0","ios":"levelo://app?vid=1e2583a6-c052-48fa-a25c-e7c2283c5bd0"},"vehicle_type_id":"4","last_reported":1690729531,"current_range_meters":22800,"station_id":"ce4bhch2rcd13ifvqeug","pricing_plan_id":"free"},{"bike_id":"4559ea41-1e35-4075-aeb8-5c1b41bca5ec","system_id":"levelo_inurba_marseille","lat":43.28618,"lon":5.35099,"is_reserved":false,"is_disabled":false,"rental_uris":{"android":"levelo://app?vid=4559ea41-1e35-4075-aeb8-5c1b41bca5ec","ios":"levelo://app?vid=4559ea41-1e35-4075-aeb8-5c1b41bca5ec"},"vehicle_type_id":"4","last_reported":1690729531,"current_range_meters":31200,"station_id":"ce4bhch2rcd13ifvqeug","pricing_plan_id":"free"},{"bike_id":"38f3a201-9f09-49b8-a970-b72b07aa396c","system_id":"levelo_inurba_marseille","lat":43.28614,"lon":5.35111,"is_reserved":false,"is_disabled":false,"rental_uris":{"android":"levelo://app?vid=38f3a201-9f09-49b8-a970-b72b07aa396c","ios":"levelo://app?vid=38f3a201-9f09-49b8-a970-b72b07aa396c"},"vehicle_type_id":"4","last_reported":1690729531,"current_range_meters":22800,"station_id":"ce4bhch2rcd13ifvqeug","pricing_plan_id":"free"},{"bike_id":"f7361d53-1805-4285-aaac-1154b9ec5118","system_id":"levelo_inurba_marseille","lat":43.28616,"lon":5.35104,"is_reserved":false,"is_disabled":false,"rental_uris":{"android":"levelo://app?vid=f7361d53-1805-4285-aaac-1154b9ec5118","ios":"levelo://app?vid=f7361d53-1805-4285-aaac-1154b9ec5118"},"vehicle_type_id":"4","last_reported":1690729531,"current_range_meters":31200,"station_id":"ce4bhch2rcd13ifvqeug","pricing_plan_id":"free"},{"bike_id":"2a724d8a-38b3-4515-b637-4bcf154add0c","system_id":"levelo_inurba_marseille","lat":43.28614,"lon":5.35108,"is_reserved":false,"is_disabled":false,"rental_uris":{"android":"levelo://app?vid=2a724d8a-38b3-4515-b637-4bcf154add0c","ios":"levelo://app?vid=2a724d8a-38b3-4515-b637-4bcf154add0c"},"vehicle_type_id":"4","last_reported":1690729531,"current_range_meters":22800,"station_id":"ce4bhch2rcd13ifvqeug","pricing_plan_id":"free"},{"bike_id":"c2ed71e7-5490-4ee8-8758-25175f871815","system_id":"levelo_inurba_marseille","lat":43.286147,"lon":5.351043,"is_reserved":false,"is_disabled":false,"rental_uris":{"android":"levelo://app?vid=c2ed71e7-5490-4ee8-8758-25175f871815","ios":"levelo://app?vid=c2ed71e7-5490-4ee8-8758-25175f871815"},"vehicle_type_id":"4","last_reported":1690729531,"current_range_meters":21200,"station_id":"ce4bhch2rcd13ifvqeug","pricing_plan_id":"free"},{"bike_id":"53399b8c-8721-4538-821f-56bd298905d1","system_id":"levelo_inurba_marseille","lat":43.286147,"lon":5.351043,"is_reserved":false,"is_disabled":false,"rental_uris":{"android":"levelo://app?vid=53399b8c-8721-4538-821f-56bd298905d1","ios":"levelo://app?vid=53399b8c-8721-4538-821f-56bd298905d1"},"vehicle_type_id":"4","last_reported":1690729531,"current_range_meters":19200,"station_id":"ce4bhch2rcd13ifvqeug","pricing_plan_id":"free"},{"bike_id":"c820b05c-d5ba-4be6-a05d-60b34907a2f2","system_id":"levelo_inurba_marseille","lat":43.285856,"lon":5.350771,"is_reserved":false,"is_disabled":false,"rental_uris":{"android":"levelo://app?vid=c820b05c-d5ba-4be6-a05d-60b34907a2f2","ios":"levelo://app?vid=c820b05c-d5ba-4be6-a05d-60b34907a2f2"},"vehicle_type_id":"4","last_reported":1690729531,"current_range_meters":31200,"station_id":"ce4bhch2rcd13ifvqeug","pricing_plan_id":"free"},{"bike_id":"23982302-eb03-42b7-b77a-14d9a2b0bfe0","system_id":"levelo_inurba_marseille","lat":43.285856,"lon":5.350771,"is_reserved":false,"is_disabled":false,"rental_uris":{"android":"levelo://app?vid=23982302-eb03-42b7-b77a-14d9a2b0bfe0","ios":"levelo://app?vid=23982302-eb03-42b7-b77a-14d9a2b0bfe0"},"vehicle_type_id":"4","last_reported":1690729531,"current_range_meters":25200,"station_id":"ce4bhch2rcd13ifvqeug","pricing_plan_id":"free"},{"bike_id":"c83b85cf-6704-4e03-98ae-98d66b3a1c81","system_id":"levelo_inurba_marseille","lat":43.28616,"lon":5.35099,"is_reserved":false,"is_disabled":false,"rental_uris":{"android":"levelo://app?vid=c83b85cf-6704-4e03-98ae-98d66b3a1c81","ios":"levelo://app?vid=c83b85cf-6704-4e03-98ae-98d66b3a1c81"},"vehicle_type_id":"4","last_reported":1690729531,"current_range_meters":31200,"station_id":"ce4bhch2rcd13ifvqeug","pricing_plan_id":"free"},{"bike_id":"a4f629d8-ad8e-44e0-ae55-b2add074916a","system_id":"levelo_inurba_marseille","lat":43.286127,"lon":5.351084,"is_reserved":false,"is_disabled":false,"rental_uris":{"android":"levelo://app?vid=a4f629d8-ad8e-44e0-ae55-b2add074916a","ios":"levelo://app?vid=a4f629d8-ad8e-44e0-ae55-b2add074916a"},"vehicle_type_id":"4","last_reported":1690729531,"current_range_meters":21200,"station_id":"ce4bhch2rcd13ifvqeug","pricing_plan_id":"free"},{"bike_id":"7ce939e2-b2b1-413e-af8e-6ecee33d0a43","system_id":"levelo_inurba_marseille","lat":43.28614,"lon":5.35104,"is_reserved":false,"is_disabled":false,"rental_uris":{"android":"levelo://app?vid=7ce939e2-b2b1-413e-af8e-6ecee33d0a43","ios":"levelo://app?vid=7ce939e2-b2b1-413e-af8e-6ecee33d0a43"},"vehicle_type_id":"4","last_reported":1690729531,"current_range_meters":31200,"station_id":"ce4bhch2rcd13ifvqeug","pricing_plan_id":"free"},{"bike_id":"5b112069-dd75-4a1c-a0d8-84fb8f414b25","system_id":"levelo_inurba_marseille","lat":43.28617,"lon":5.35091,"is_reserved":false,"is_disabled":false,"rental_uris":{"android":"levelo://app?vid=5b112069-dd75-4a1c-a0d8-84fb8f414b25","ios":"levelo://app?vid=5b112069-dd75-4a1c-a0d8-84fb8f414b25"},"vehicle_type_id":"4","last_reported":1690729531,"current_range_meters":25200,"station_id":"ce4bhch2rcd13ifvqeug","pricing_plan_id":"free"},{"bike_id":"8b3de30a-816e-4297-9cba-9f2c5c99e809","system_id":"levelo_inurba_marseille","lat":43.286131,"lon":5.351025,"is_reserved":false,"is_disabled":false,"rental_uris":{"android":"levelo://app?vid=8b3de30a-816e-4297-9cba-9f2c5c99e809","ios":"levelo://app?vid=8b3de30a-816e-4297-9cba-9f2c5c99e809"},"vehicle_type_id":"4","last_reported":1690729531,"current_range_meters":30000,"station_id":"ce4bhch2rcd13ifvqeug","pricing_plan_id":"free"},{"bike_id":"f837b13e-c74d-4cce-a8fc-9e15c1070f07","system_id":"levelo_inurba_marseille","lat":43.286104,"lon":5.351077,"is_reserved":false,"is_disabled":false,"rental_uris":{"android":"levelo://app?vid=f837b13e-c74d-4cce-a8fc-9e15c1070f07","ios":"levelo://app?vid=f837b13e-c74d-4cce-a8fc-9e15c1070f07"},"vehicle_type_id":"4","last_reported":1690729531,"current_range_meters":22400,"station_id":"ce4bhch2rcd13ifvqeug","pricing_plan_id":"free"},{"bike_id":"d18ea0f6-674c-448b-9467-51a93d0aa045","system_id":"levelo_inurba_marseille","lat":43.28612,"lon":5.35102,"is_reserved":false,"is_disabled":false,"rental_uris":{"android":"levelo://app?vid=d18ea0f6-674c-448b-9467-51a93d0aa045","ios":"levelo://app?vid=d18ea0f6-674c-448b-9467-51a93d0aa045"},"vehicle_type_id":"4","last_reported":1690729531,"current_range_meters":19200,"station_id":"ce4bhch2rcd13ifvqeug","pricing_plan_id":"free"},{"bike_id":"c25c7198-4c87-40f5-b95d-bdadde192348","system_id":"levelo_inurba_marseille","lat":43.285856,"lon":5.350771,"is_reserved":false,"is_disabled":false,"rental_uris":{"android":"levelo://app?vid=c25c7198-4c87-40f5-b95d-bdadde192348","ios":"levelo://app?vid=c25c7198-4c87-40f5-b95d-bdadde192348"},"vehicle_type_id":"4","last_reported":1690729531,"current_range_meters":31200,"station_id":"ce4bhch2rcd13ifvqeug","pricing_plan_id":"free"},{"bike_id":"677e934d-ed18-492c-8920-06a358ac1da1","system_id":"levelo_inurba_marseille","lat":43.31891,"lon":5.40724,"is_reserved":false,"is_disabled":false,"rental_uris":{"android":"levelo://app?vid=677e934d-ed18-492c-8920-06a358ac1da1","ios":"levelo://app?vid=677e934d-ed18-492c-8920-06a358ac1da1"},"vehicle_type_id":"4","last_reported":1690729531,"current_range_meters":16800,"station_id":"ce4bhq12rcd13ifvqhig","pricing_plan_id":"free"},{"bike_id":"89483ede-3542-4ff6-b4b7-4d2d38117d81","system_id":"levelo_inurba_marseille","lat":43.31889,"lon":5.40727,"is_reserved":false,"is_disabled":false,"rental_uris":{"android":"levelo://app?vid=89483ede-3542-4ff6-b4b7-4d2d38117d81","ios":"levelo://app?vid=89483ede-3542-4ff6-b4b7-4d2d38117d81"},"vehicle_type_id":"4","last_reported":1690729531,"current_range_meters":16000,"station_id":"ce4bhq12rcd13ifvqhig","pricing_plan_id":"free"},{"bike_id":"1f1c940e-4aa1-40b4-9a4a-31d3b9770aad","system_id":"levelo_inurba_marseille","lat":43.3189,"lon":5.40728,"is_reserved":false,"is_disabled":false,"rental_uris":{"android":"levelo://app?vid=1f1c940e-4aa1-40b4-9a4a-31d3b9770aad","ios":"levelo://app?vid=1f1c940e-4aa1-40b4-9a4a-31d3b9770aad"},"vehicle_type_id":"4","last_reported":1690729531,"current_range_meters":15200,"station_id":"ce4bhq12rcd13ifvqhig","pricing_plan_id":"free"},{"bike_id":"b86cc898-193c-4909-953c-57c61ca39dd6","system_id":"levelo_inurba_marseille","lat":43.31891,"lon":5.40732,"is_reserved":false,"is_disabled":false,"rental_uris":{"android":"levelo://app?vid=b86cc898-193c-4909-953c-57c61ca39dd6","ios":"levelo://app?vid=b86cc898-193c-4909-953c-57c61ca39dd6"},"vehicle_type_id":"4","last_reported":1690729531,"current_range_meters":22800,"station_id":"ce4bhq12rcd13ifvqhig","pricing_plan_id":"free"},{"bike_id":"1c48fc14-d16f-474c-9687-3d62f3e3c8fe","system_id":"levelo_inurba_marseille","lat":43.323464,"lon":5.406297,"is_reserved":false,"is_disabled":false,"rental_uris":{"android":"levelo://app?vid=1c48fc14-d16f-474c-9687-3d62f3e3c8fe","ios":"levelo://app?vid=1c48fc14-d16f-474c-9687-3d62f3e3c8fe"},"vehicle_type_id":"4","last_reported":1690729531,"current_range_meters":18800,"station_id":"ce4bhq92rcd13ifvqhjg","pricing_plan_id":"free"},{"bike_id":"fdf1ac33-0b8d-4bb5-992d-e37ef80c4db1","system_id":"levelo_inurba_marseille","lat":43.33728,"lon":5.39184,"is_reserved":false,"is_disabled":false,"rental_uris":{"android":"levelo://app?vid=fdf1ac33-0b8d-4bb5-992d-e37ef80c4db1","ios":"levelo://app?vid=fdf1ac33-0b8d-4bb5-992d-e37ef80c4db1"},"vehicle_type_id":"4","last_reported":1690729531,"current_range_meters":26400,"station_id":"ce4bhr92rcd13ifvqhsg","pricing_plan_id":"free"},{"bike_id":"4a59383e-c24a-49eb-b341-b501111dd738","system_id":"levelo_inurba_marseille","lat":43.323464,"lon":5.406297,"is_reserved":false,"is_disabled":false,"rental_uris":{"android":"levelo://app?vid=4a59383e-c24a-49eb-b341-b501111dd738","ios":"levelo://app?vid=4a59383e-c24a-49eb-b341-b501111dd738"},"vehicle_type_id":"4","last_reported":1690729531,"current_range_meters":12800,"station_id":"ce4bhq92rcd13ifvqhjg","pricing_plan_id":"free"},{"bike_id":"e78794ab-1147-4e07-9747-4f03804e7014","system_id":"levelo_inurba_marseille","lat":43.33728,"lon":5.39187,"is_reserved":false,"is_disabled":false,"rental_uris":{"android":"levelo://app?vid=e78794ab-1147-4e07-9747-4f03804e7014","ios":"levelo://app?vid=e78794ab-1147-4e07-9747-4f03804e7014"},"vehicle_type_id":"4","last_reported":1690729531,"current_range_meters":24800,"station_id":"ce4bhr92rcd13ifvqhsg","pricing_plan_id":"free"},{"bike_id":"26bfcad4-2dc6-43bb-9f00-91622fd750a3","system_id":"levelo_inurba_marseille","lat":43.323464,"lon":5.406297,"is_reserved":false,"is_disabled":false,"rental_uris":{"android":"levelo://app?vid=26bfcad4-2dc6-43bb-9f00-91622fd750a3","ios":"levelo://app?vid=26bfcad4-2dc6-43bb-9f00-91622fd750a3"},"vehicle_type_id":"4","last_reported":1690729531,"current_range_meters":31200,"station_id":"ce4bhq92rcd13ifvqhjg","pricing_plan_id":"free"},{"bike_id":"1cd10330-8c82-4645-9e31-791aa547d0aa","system_id":"levelo_inurba_marseille","lat":43.33717,"lon":5.391857,"is_reserved":false,"is_disabled":false,"rental_uris":{"android":"levelo://app?vid=1cd10330-8c82-4645-9e31-791aa547d0aa","ios":"levelo://app?vid=1cd10330-8c82-4645-9e31-791aa547d0aa"},"vehicle_type_id":"4","last_reported":1690729531,"current_range_meters":26400,"station_id":"ce4bhr92rcd13ifvqhsg","pricing_plan_id":"free"},{"bike_id":"f62b8d47-dcd1-419a-878b-6701653d3012","system_id":"levelo_inurba_marseille","lat":43.28476,"lon":5.38412,"is_reserved":false,"is_disabled":false,"rental_uris":{"android":"levelo://app?vid=f62b8d47-dcd1-419a-878b-6701653d3012","ios":"levelo://app?vid=f62b8d47-dcd1-419a-878b-6701653d3012"},"vehicle_type_id":"4","last_reported":1690729531,"current_range_meters":27600,"station_id":"","pricing_plan_id":"free"},{"bike_id":"e6b29967-1b85-4df6-b84e-086f2818a190","system_id":"levelo_inurba_marseille","lat":43.284787,"lon":5.384116,"is_reserved":false,"is_disabled":false,"rental_uris":{"android":"levelo://app?vid=e6b29967-1b85-4df6-b84e-086f2818a190","ios":"levelo://app?vid=e6b29967-1b85-4df6-b84e-086f2818a190"},"vehicle_type_id":"4","last_reported":1690729531,"current_range_meters":24800,"station_id":"ce4bh512rcd13ifvqe3g","pricing_plan_id":"free"},{"bike_id":"eccf696b-170d-4bd8-aaf8-53eca800b694","system_id":"levelo_inurba_marseille","lat":43.29801,"lon":5.40408,"is_reserved":false,"is_disabled":false,"rental_uris":{"android":"levelo://app?vid=eccf696b-170d-4bd8-aaf8-53eca800b694","ios":"levelo://app?vid=eccf696b-170d-4bd8-aaf8-53eca800b694"},"vehicle_type_id":"4","last_reported":1690729531,"current_range_meters":9600,"station_id":"","pricing_plan_id":"free"},{"bike_id":"fd942756-3a0a-47d1-8c59-c7fe46148bf5","system_id":"levelo_inurba_marseille","lat":43.288497,"lon":5.393089,"is_reserved":false,"is_disabled":false,"rental_uris":{"android":"levelo://app?vid=fd942756-3a0a-47d1-8c59-c7fe46148bf5","ios":"levelo://app?vid=fd942756-3a0a-47d1-8c59-c7fe46148bf5"},"vehicle_type_id":"4","last_reported":1690729531,"current_range_meters":6800,"station_id":"ce4bh2p2rcd13ifvqdi0","pricing_plan_id":"free"},{"bike_id":"12f4f3c6-6183-4a66-b87d-0212667557d9","system_id":"levelo_inurba_marseille","lat":43.28423,"lon":5.34996,"is_reserved":false,"is_disabled":false,"rental_uris":{"android":"levelo://app?vid=12f4f3c6-6183-4a66-b87d-0212667557d9","ios":"levelo://app?vid=12f4f3c6-6183-4a66-b87d-0212667557d9"},"vehicle_type_id":"4","last_reported":1690729531,"current_range_meters":24000,"station_id":"ce4bhbh2rcd13ifvqepg","pricing_plan_id":"free"},{"bike_id":"bb7b44ff-4b6d-49de-9e33-da7046e8c7d4","system_id":"levelo_inurba_marseille","lat":43.28422,"lon":5.34999,"is_reserved":false,"is_disabled":false,"rental_uris":{"android":"levelo://app?vid=bb7b44ff-4b6d-49de-9e33-da7046e8c7d4","ios":"levelo://app?vid=bb7b44ff-4b6d-49de-9e33-da7046e8c7d4"},"vehicle_type_id":"4","last_reported":1690729531,"current_range_meters":31200,"station_id":"ce4bhbh2rcd13ifvqepg","pricing_plan_id":"free"},{"bike_id":"ed4a9833-fce4-4218-a276-4e0c32f3f3e9","system_id":"levelo_inurba_marseille","lat":43.288501,"lon":5.393087,"is_reserved":false,"is_disabled":false,"rental_uris":{"android":"levelo://app?vid=ed4a9833-fce4-4218-a276-4e0c32f3f3e9","ios":"levelo://app?vid=ed4a9833-fce4-4218-a276-4e0c32f3f3e9"},"vehicle_type_id":"4","last_reported":1690729531,"current_range_meters":800,"station_id":"ce4bh2p2rcd13ifvqdi0","pricing_plan_id":"free"},{"bike_id":"e88ca40e-e466-4651-bb8e-809cdfcd7d60","system_id":"levelo_inurba_marseille","lat":43.28421,"lon":5.34999,"is_reserved":false,"is_disabled":false,"rental_uris":{"android":"levelo://app?vid=e88ca40e-e466-4651-bb8e-809cdfcd7d60","ios":"levelo://app?vid=e88ca40e-e466-4651-bb8e-809cdfcd7d60"},"vehicle_type_id":"4","last_reported":1690729531,"current_range_meters":31200,"station_id":"ce4bhbh2rcd13ifvqepg","pricing_plan_id":"free"},{"bike_id":"be2c53e4-b193-41bb-a8fc-0a19985541f8","system_id":"levelo_inurba_marseille","lat":43.28423,"lon":5.3499,"is_reserved":false,"is_disabled":false,"rental_uris":{"android":"levelo://app?vid=be2c53e4-b193-41bb-a8fc-0a19985541f8","ios":"levelo://app?vid=be2c53e4-b193-41bb-a8fc-0a19985541f8"},"vehicle_type_id":"4","last_reported":1690729531,"current_range_meters":21600,"station_id":"ce4bhbh2rcd13ifvqepg","pricing_plan_id":"free"},{"bike_id":"d4341498-4e23-44c9-9189-fc35f1a9e3c6","system_id":"levelo_inurba_marseille","lat":43.28422,"lon":5.3499,"is_reserved":false,"is_disabled":false,"rental_uris":{"android":"levelo://app?vid=d4341498-4e23-44c9-9189-fc35f1a9e3c6","ios":"levelo://app?vid=d4341498-4e23-44c9-9189-fc35f1a9e3c6"},"vehicle_type_id":"4","last_reported":1690729531,"current_range_meters":25200,"station_id":"ce4bhbh2rcd13ifvqepg","pricing_plan_id":"free"},{"bike_id":"2c0f3cdd-d8d6-4919-844a-2be066961245","system_id":"levelo_inurba_marseille","lat":43.28417,"lon":5.35003,"is_reserved":false,"is_disabled":false,"rental_uris":{"android":"levelo://app?vid=2c0f3cdd-d8d6-4919-844a-2be066961245","ios":"levelo://app?vid=2c0f3cdd-d8d6-4919-844a-2be066961245"},"vehicle_type_id":"4","last_reported":1690729531,"current_range_meters":23200,"station_id":"ce4bhbh2rcd13ifvqepg","pricing_plan_id":"free"},{"bike_id":"a01ab47f-64b9-4eec-a805-5aae5fb2cb48","system_id":"levelo_inurba_marseille","lat":43.28425,"lon":5.34977,"is_reserved":false,"is_disabled":false,"rental_uris":{"android":"levelo://app?vid=a01ab47f-64b9-4eec-a805-5aae5fb2cb48","ios":"levelo://app?vid=a01ab47f-64b9-4eec-a805-5aae5fb2cb48"},"vehicle_type_id":"4","last_reported":1690729531,"current_range_meters":15600,"station_id":"ce4bhbh2rcd13ifvqepg","pricing_plan_id":"free"},{"bike_id":"84b48735-950f-435c-8ed5-228fa98ae30c","system_id":"levelo_inurba_marseille","lat":43.28416,"lon":5.35002,"is_reserved":false,"is_disabled":false,"rental_uris":{"android":"levelo://app?vid=84b48735-950f-435c-8ed5-228fa98ae30c","ios":"levelo://app?vid=84b48735-950f-435c-8ed5-228fa98ae30c"},"vehicle_type_id":"4","last_reported":1690729531,"current_range_meters":29600,"station_id":"ce4bhbh2rcd13ifvqepg","pricing_plan_id":"free"},{"bike_id":"3a65f6cc-6a53-4dd5-86de-387b693528d2","system_id":"levelo_inurba_marseille","lat":43.28417,"lon":5.3499,"is_reserved":false,"is_disabled":false,"rental_uris":{"android":"levelo://app?vid=3a65f6cc-6a53-4dd5-86de-387b693528d2","ios":"levelo://app?vid=3a65f6cc-6a53-4dd5-86de-387b693528d2"},"vehicle_type_id":"4","last_reported":1690729531,"current_range_meters":4800,"station_id":"ce4bhbh2rcd13ifvqepg","pricing_plan_id":"free"},{"bike_id":"2d73a4c8-3f42-447e-a7f4-9507e942b8dc","system_id":"levelo_inurba_marseille","lat":43.28416,"lon":5.34986,"is_reserved":false,"is_disabled":false,"rental_uris":{"android":"levelo://app?vid=2d73a4c8-3f42-447e-a7f4-9507e942b8dc","ios":"levelo://app?vid=2d73a4c8-3f42-447e-a7f4-9507e942b8dc"},"vehicle_type_id":"4","last_reported":1690729531,"current_range_meters":14000,"station_id":"ce4bhbh2rcd13ifvqepg","pricing_plan_id":"free"},{"bike_id":"868829cd-fb59-41b2-878c-e62909b34248","system_id":"levelo_inurba_marseille","lat":43.28415,"lon":5.34985,"is_reserved":false,"is_disabled":false,"rental_uris":{"android":"levelo://app?vid=868829cd-fb59-41b2-878c-e62909b34248","ios":"levelo://app?vid=868829cd-fb59-41b2-878c-e62909b34248"},"vehicle_type_id":"4","last_reported":1690729531,"current_range_meters":31600,"station_id":"ce4bhbh2rcd13ifvqepg","pricing_plan_id":"free"},{"bike_id":"30d0ff74-2859-498f-b874-56d4054e256d","system_id":"levelo_inurba_marseille","lat":43.28414,"lon":5.34987,"is_reserved":false,"is_disabled":false,"rental_uris":{"android":"levelo://app?vid=30d0ff74-2859-498f-b874-56d4054e256d","ios":"levelo://app?vid=30d0ff74-2859-498f-b874-56d4054e256d"},"vehicle_type_id":"4","last_reported":1690729531,"current_range_meters":21200,"station_id":"ce4bhbh2rcd13ifvqepg","pricing_plan_id":"free"},{"bike_id":"84273c73-45a6-4ae2-9009-0467f57b9bcf","system_id":"levelo_inurba_marseille","lat":43.284219,"lon":5.3497,"is_reserved":false,"is_disabled":false,"rental_uris":{"android":"levelo://app?vid=84273c73-45a6-4ae2-9009-0467f57b9bcf","ios":"levelo://app?vid=84273c73-45a6-4ae2-9009-0467f57b9bcf"},"vehicle_type_id":"4","last_reported":1690729531,"current_range_meters":27600,"station_id":"ce4bhbh2rcd13ifvqepg","pricing_plan_id":"free"},{"bike_id":"8acde10e-d57f-4eed-8747-41b377376438","system_id":"levelo_inurba_marseille","lat":43.284142,"lon":5.349783,"is_reserved":false,"is_disabled":false,"rental_uris":{"android":"levelo://app?vid=8acde10e-d57f-4eed-8747-41b377376438","ios":"levelo://app?vid=8acde10e-d57f-4eed-8747-41b377376438"},"vehicle_type_id":"4","last_reported":1690729531,"current_range_meters":10400,"station_id":"ce4bhbh2rcd13ifvqepg","pricing_plan_id":"free"},{"bike_id":"f766232b-38ba-4942-8fec-310cf235314a","system_id":"levelo_inurba_marseille","lat":43.28408,"lon":5.3499,"is_reserved":false,"is_disabled":false,"rental_uris":{"android":"levelo://app?vid=f766232b-38ba-4942-8fec-310cf235314a","ios":"levelo://app?vid=f766232b-38ba-4942-8fec-310cf235314a"},"vehicle_type_id":"4","last_reported":1690729531,"current_range_meters":19600,"station_id":"ce4bhbh2rcd13ifvqepg","pricing_plan_id":"free"},{"bike_id":"2246e638-4885-422e-8776-ad27fb10d9ff","system_id":"levelo_inurba_marseille","lat":43.28409,"lon":5.34985,"is_reserved":false,"is_disabled":false,"rental_uris":{"android":"levelo://app?vid=2246e638-4885-422e-8776-ad27fb10d9ff","ios":"levelo://app?vid=2246e638-4885-422e-8776-ad27fb10d9ff"},"vehicle_type_id":"4","last_reported":1690729531,"current_range_meters":18400,"station_id":"ce4bhbh2rcd13ifvqepg","pricing_plan_id":"free"},{"bike_id":"389e87b5-d8d4-425d-bf6e-b1f805d5eee4","system_id":"levelo_inurba_marseille","lat":43.28406,"lon":5.34994,"is_reserved":false,"is_disabled":false,"rental_uris":{"android":"levelo://app?vid=389e87b5-d8d4-425d-bf6e-b1f805d5eee4","ios":"levelo://app?vid=389e87b5-d8d4-425d-bf6e-b1f805d5eee4"},"vehicle_type_id":"4","last_reported":1690729531,"current_range_meters":23200,"station_id":"ce4bhbh2rcd13ifvqepg","pricing_plan_id":"free"},{"bike_id":"675b84e1-f965-4a50-90eb-6ca623a5e473","system_id":"levelo_inurba_marseille","lat":43.28408,"lon":5.34985,"is_reserved":false,"is_disabled":false,"rental_uris":{"android":"levelo://app?vid=675b84e1-f965-4a50-90eb-6ca623a5e473","ios":"levelo://app?vid=675b84e1-f965-4a50-90eb-6ca623a5e473"},"vehicle_type_id":"4","last_reported":1690729531,"current_range_meters":28800,"station_id":"ce4bhbh2rcd13ifvqepg","pricing_plan_id":"free"},{"bike_id":"7644bdb0-494f-4c71-9bd7-af1d173c62e9","system_id":"levelo_inurba_marseille","lat":43.2841,"lon":5.34974,"is_reserved":false,"is_disabled":false,"rental_uris":{"android":"levelo://app?vid=7644bdb0-494f-4c71-9bd7-af1d173c62e9","ios":"levelo://app?vid=7644bdb0-494f-4c71-9bd7-af1d173c62e9"},"vehicle_type_id":"4","last_reported":1690729531,"current_range_meters":19600,"station_id":"ce4bhbh2rcd13ifvqepg","pricing_plan_id":"free"},{"bike_id":"3d151980-9f4b-4083-a6aa-853fe2608000","system_id":"levelo_inurba_marseille","lat":43.28278,"lon":5.35072,"is_reserved":false,"is_disabled":false,"rental_uris":{"android":"levelo://app?vid=3d151980-9f4b-4083-a6aa-853fe2608000","ios":"levelo://app?vid=3d151980-9f4b-4083-a6aa-853fe2608000"},"vehicle_type_id":"4","last_reported":1690729531,"current_range_meters":6400,"station_id":"ce4bhbp2rcd13ifvqerg","pricing_plan_id":"free"},{"bike_id":"50107819-d941-4c01-9923-d57ae27a5618","system_id":"levelo_inurba_marseille","lat":43.282754,"lon":5.350519,"is_reserved":false,"is_disabled":false,"rental_uris":{"android":"levelo://app?vid=50107819-d941-4c01-9923-d57ae27a5618","ios":"levelo://app?vid=50107819-d941-4c01-9923-d57ae27a5618"},"vehicle_type_id":"4","last_reported":1690729531,"current_range_meters":7200,"station_id":"ce4bhbp2rcd13ifvqerg","pricing_plan_id":"free"},{"bike_id":"0d3186a9-27c0-4880-a9cd-23c954cd69d6","system_id":"levelo_inurba_marseille","lat":43.28277,"lon":5.35062,"is_reserved":false,"is_disabled":false,"rental_uris":{"android":"levelo://app?vid=0d3186a9-27c0-4880-a9cd-23c954cd69d6","ios":"levelo://app?vid=0d3186a9-27c0-4880-a9cd-23c954cd69d6"},"vehicle_type_id":"4","last_reported":1690729531,"current_range_meters":3600,"station_id":"ce4bhbp2rcd13ifvqerg","pricing_plan_id":"free"},{"bike_id":"fd3adb3c-d7fd-4640-8953-49490cf6aca3","system_id":"levelo_inurba_marseille","lat":43.28274,"lon":5.35069,"is_reserved":false,"is_disabled":false,"rental_uris":{"android":"levelo://app?vid=fd3adb3c-d7fd-4640-8953-49490cf6aca3","ios":"levelo://app?vid=fd3adb3c-d7fd-4640-8953-49490cf6aca3"},"vehicle_type_id":"4","last_reported":1690729531,"current_range_meters":26000,"station_id":"ce4bhbp2rcd13ifvqerg","pricing_plan_id":"free"},{"bike_id":"a19b7b0a-940c-4ec0-bff4-6d6ebb23506d","system_id":"levelo_inurba_marseille","lat":43.28273,"lon":5.35066,"is_reserved":false,"is_disabled":false,"rental_uris":{"android":"levelo://app?vid=a19b7b0a-940c-4ec0-bff4-6d6ebb23506d","ios":"levelo://app?vid=a19b7b0a-940c-4ec0-bff4-6d6ebb23506d"},"vehicle_type_id":"4","last_reported":1690729531,"current_range_meters":19200,"station_id":"ce4bhbp2rcd13ifvqerg","pricing_plan_id":"free"},{"bike_id":"463da96e-cc59-496a-8d75-ca64cd0680e3","system_id":"levelo_inurba_marseille","lat":43.28271,"lon":5.35071,"is_reserved":false,"is_disabled":false,"rental_uris":{"android":"levelo://app?vid=463da96e-cc59-496a-8d75-ca64cd0680e3","ios":"levelo://app?vid=463da96e-cc59-496a-8d75-ca64cd0680e3"},"vehicle_type_id":"4","last_reported":1690729531,"current_range_meters":29600,"station_id":"ce4bhbp2rcd13ifvqerg","pricing_plan_id":"free"},{"bike_id":"a851add6-7a6f-4f4f-8fdb-686a152b6810","system_id":"levelo_inurba_marseille","lat":43.28271,"lon":5.35071,"is_reserved":false,"is_disabled":false,"rental_uris":{"android":"levelo://app?vid=a851add6-7a6f-4f4f-8fdb-686a152b6810","ios":"levelo://app?vid=a851add6-7a6f-4f4f-8fdb-686a152b6810"},"vehicle_type_id":"4","last_reported":1690729531,"current_range_meters":18000,"station_id":"ce4bhbp2rcd13ifvqerg","pricing_plan_id":"free"},{"bike_id":"eb059d82-dcc2-45bb-9032-267bc79d211c","system_id":"levelo_inurba_marseille","lat":43.28268,"lon":5.35077,"is_reserved":false,"is_disabled":false,"rental_uris":{"android":"levelo://app?vid=eb059d82-dcc2-45bb-9032-267bc79d211c","ios":"levelo://app?vid=eb059d82-dcc2-45bb-9032-267bc79d211c"},"vehicle_type_id":"4","last_reported":1690729531,"current_range_meters":22800,"station_id":"ce4bhbp2rcd13ifvqerg","pricing_plan_id":"free"},{"bike_id":"8e481439-d578-4f27-98d0-6ee8a220a49f","system_id":"levelo_inurba_marseille","lat":43.28273,"lon":5.35059,"is_reserved":false,"is_disabled":false,"rental_uris":{"android":"levelo://app?vid=8e481439-d578-4f27-98d0-6ee8a220a49f","ios":"levelo://app?vid=8e481439-d578-4f27-98d0-6ee8a220a49f"},"vehicle_type_id":"4","last_reported":1690729531,"current_range_meters":21200,"station_id":"ce4bhbp2rcd13ifvqerg","pricing_plan_id":"free"},{"bike_id":"6988dd28-8ab5-4926-aa70-c4a614c3daa2","system_id":"levelo_inurba_marseille","lat":43.282744,"lon":5.350533,"is_reserved":false,"is_disabled":false,"rental_uris":{"android":"levelo://app?vid=6988dd28-8ab5-4926-aa70-c4a614c3daa2","ios":"levelo://app?vid=6988dd28-8ab5-4926-aa70-c4a614c3daa2"},"vehicle_type_id":"4","last_reported":1690729531,"current_range_meters":28000,"station_id":"ce4bhbp2rcd13ifvqerg","pricing_plan_id":"free"},{"bike_id":"6ad28ab8-9e98-4f55-9cb7-d29c7812e305","system_id":"levelo_inurba_marseille","lat":43.282744,"lon":5.350533,"is_reserved":false,"is_disabled":false,"rental_uris":{"android":"levelo://app?vid=6ad28ab8-9e98-4f55-9cb7-d29c7812e305","ios":"levelo://app?vid=6ad28ab8-9e98-4f55-9cb7-d29c7812e305"},"vehicle_type_id":"4","last_reported":1690729531,"current_range_meters":11600,"station_id":"ce4bhbp2rcd13ifvqerg","pricing_plan_id":"free"},{"bike_id":"310116e4-c066-4845-b90e-d028b7280339","system_id":"levelo_inurba_marseille","lat":43.282744,"lon":5.350533,"is_reserved":false,"is_disabled":false,"rental_uris":{"android":"levelo://app?vid=310116e4-c066-4845-b90e-d028b7280339","ios":"levelo://app?vid=310116e4-c066-4845-b90e-d028b7280339"},"vehicle_type_id":"4","last_reported":1690729531,"current_range_meters":31600,"station_id":"ce4bhbp2rcd13ifvqerg","pricing_plan_id":"free"},{"bike_id":"e514858a-182e-450f-b46d-356aa26e841c","system_id":"levelo_inurba_marseille","lat":43.28268,"lon":5.35072,"is_reserved":false,"is_disabled":false,"rental_uris":{"android":"levelo://app?vid=e514858a-182e-450f-b46d-356aa26e841c","ios":"levelo://app?vid=e514858a-182e-450f-b46d-356aa26e841c"},"vehicle_type_id":"4","last_reported":1690729531,"current_range_meters":0,"station_id":"ce4bhbp2rcd13ifvqerg","pricing_plan_id":"free"},{"bike_id":"36349f22-e528-46c8-b87f-2a0bf47da1dd","system_id":"levelo_inurba_marseille","lat":43.282744,"lon":5.350533,"is_reserved":false,"is_disabled":false,"rental_uris":{"android":"levelo://app?vid=36349f22-e528-46c8-b87f-2a0bf47da1dd","ios":"levelo://app?vid=36349f22-e528-46c8-b87f-2a0bf47da1dd"},"vehicle_type_id":"4","last_reported":1690729531,"current_range_meters":22800,"station_id":"ce4bhbp2rcd13ifvqerg","pricing_plan_id":"free"},{"bike_id":"d615c074-7094-488b-ad35-e1a45b19f2e5","system_id":"levelo_inurba_marseille","lat":43.282744,"lon":5.350533,"is_reserved":false,"is_disabled":false,"rental_uris":{"android":"levelo://app?vid=d615c074-7094-488b-ad35-e1a45b19f2e5","ios":"levelo://app?vid=d615c074-7094-488b-ad35-e1a45b19f2e5"},"vehicle_type_id":"4","last_reported":1690729531,"current_range_meters":14000,"station_id":"ce4bhbp2rcd13ifvqerg","pricing_plan_id":"free"},{"bike_id":"59a1eaa6-7560-4134-8d00-8d345090bf52","system_id":"levelo_inurba_marseille","lat":43.282744,"lon":5.350533,"is_reserved":false,"is_disabled":false,"rental_uris":{"android":"levelo://app?vid=59a1eaa6-7560-4134-8d00-8d345090bf52","ios":"levelo://app?vid=59a1eaa6-7560-4134-8d00-8d345090bf52"},"vehicle_type_id":"4","last_reported":1690729531,"current_range_meters":25600,"station_id":"ce4bhbp2rcd13ifvqerg","pricing_plan_id":"free"},{"bike_id":"90e6fb42-e24b-49bf-8f75-fc685f6cf739","system_id":"levelo_inurba_marseille","lat":43.28267,"lon":5.35066,"is_reserved":false,"is_disabled":false,"rental_uris":{"android":"levelo://app?vid=90e6fb42-e24b-49bf-8f75-fc685f6cf739","ios":"levelo://app?vid=90e6fb42-e24b-49bf-8f75-fc685f6cf739"},"vehicle_type_id":"4","last_reported":1690729531,"current_range_meters":14000,"station_id":"ce4bhbp2rcd13ifvqerg","pricing_plan_id":"free"},{"bike_id":"025385e0-a975-4064-a1d9-1fe2c8e54510","system_id":"levelo_inurba_marseille","lat":43.28268,"lon":5.35062,"is_reserved":false,"is_disabled":false,"rental_uris":{"android":"levelo://app?vid=025385e0-a975-4064-a1d9-1fe2c8e54510","ios":"levelo://app?vid=025385e0-a975-4064-a1d9-1fe2c8e54510"},"vehicle_type_id":"4","last_reported":1690729531,"current_range_meters":24000,"station_id":"ce4bhbp2rcd13ifvqerg","pricing_plan_id":"free"},{"bike_id":"5343e5ff-a4fa-43b5-8ccc-2f9a309e0dfa","system_id":"levelo_inurba_marseille","lat":43.282688,"lon":5.350585,"is_reserved":false,"is_disabled":false,"rental_uris":{"android":"levelo://app?vid=5343e5ff-a4fa-43b5-8ccc-2f9a309e0dfa","ios":"levelo://app?vid=5343e5ff-a4fa-43b5-8ccc-2f9a309e0dfa"},"vehicle_type_id":"4","last_reported":1690729531,"current_range_meters":4800,"station_id":"ce4bhbp2rcd13ifvqerg","pricing_plan_id":"free"},{"bike_id":"772dbf9b-f125-40ea-a264-a2c69ec60ada","system_id":"levelo_inurba_marseille","lat":43.28266,"lon":5.35066,"is_reserved":false,"is_disabled":false,"rental_uris":{"android":"levelo://app?vid=772dbf9b-f125-40ea-a264-a2c69ec60ada","ios":"levelo://app?vid=772dbf9b-f125-40ea-a264-a2c69ec60ada"},"vehicle_type_id":"4","last_reported":1690729531,"current_range_meters":16400,"station_id":"ce4bhbp2rcd13ifvqerg","pricing_plan_id":"free"},{"bike_id":"b96231c3-4174-4a60-9b87-b73f51f95c2e","system_id":"levelo_inurba_marseille","lat":43.282744,"lon":5.350533,"is_reserved":false,"is_disabled":false,"rental_uris":{"android":"levelo://app?vid=b96231c3-4174-4a60-9b87-b73f51f95c2e","ios":"levelo://app?vid=b96231c3-4174-4a60-9b87-b73f51f95c2e"},"vehicle_type_id":"4","last_reported":1690729531,"current_range_meters":31600,"station_id":"ce4bhbp2rcd13ifvqerg","pricing_plan_id":"free"},{"bike_id":"cbef66ea-9f22-4558-b70a-1752edd1fcb6","system_id":"levelo_inurba_marseille","lat":43.28265,"lon":5.35068,"is_reserved":false,"is_disabled":false,"rental_uris":{"android":"levelo://app?vid=cbef66ea-9f22-4558-b70a-1752edd1fcb6","ios":"levelo://app?vid=cbef66ea-9f22-4558-b70a-1752edd1fcb6"},"vehicle_type_id":"4","last_reported":1690729531,"current_range_meters":16000,"station_id":"ce4bhbp2rcd13ifvqerg","pricing_plan_id":"free"},{"bike_id":"7bcb7f2a-6dd3-4196-a5ec-06dd90fbf60e","system_id":"levelo_inurba_marseille","lat":43.28267,"lon":5.35061,"is_reserved":false,"is_disabled":false,"rental_uris":{"android":"levelo://app?vid=7bcb7f2a-6dd3-4196-a5ec-06dd90fbf60e","ios":"levelo://app?vid=7bcb7f2a-6dd3-4196-a5ec-06dd90fbf60e"},"vehicle_type_id":"4","last_reported":1690729531,"current_range_meters":15600,"station_id":"ce4bhbp2rcd13ifvqerg","pricing_plan_id":"free"},{"bike_id":"d3529f77-8fab-4eb0-8839-98c314689aa8","system_id":"levelo_inurba_marseille","lat":43.282744,"lon":5.350533,"is_reserved":false,"is_disabled":false,"rental_uris":{"android":"levelo://app?vid=d3529f77-8fab-4eb0-8839-98c314689aa8","ios":"levelo://app?vid=d3529f77-8fab-4eb0-8839-98c314689aa8"},"vehicle_type_id":"4","last_reported":1690729531,"current_range_meters":22000,"station_id":"ce4bhbp2rcd13ifvqerg","pricing_plan_id":"free"},{"bike_id":"c248e62a-c9dd-4864-bdd5-06da691bad34","system_id":"levelo_inurba_marseille","lat":43.28264,"lon":5.35069,"is_reserved":false,"is_disabled":false,"rental_uris":{"android":"levelo://app?vid=c248e62a-c9dd-4864-bdd5-06da691bad34","ios":"levelo://app?vid=c248e62a-c9dd-4864-bdd5-06da691bad34"},"vehicle_type_id":"4","last_reported":1690729531,"current_range_meters":18800,"station_id":"ce4bhbp2rcd13ifvqerg","pricing_plan_id":"free"},{"bike_id":"64dec623-dd56-462f-8083-6a2865978c98","system_id":"levelo_inurba_marseille","lat":43.28266,"lon":5.35059,"is_reserved":false,"is_disabled":false,"rental_uris":{"android":"levelo://app?vid=64dec623-dd56-462f-8083-6a2865978c98","ios":"levelo://app?vid=64dec623-dd56-462f-8083-6a2865978c98"},"vehicle_type_id":"4","last_reported":1690729531,"current_range_meters":19200,"station_id":"ce4bhbp2rcd13ifvqerg","pricing_plan_id":"free"},{"bike_id":"15939baa-485a-4a3d-87e5-e1953a140996","system_id":"levelo_inurba_marseille","lat":43.28263,"lon":5.35063,"is_reserved":false,"is_disabled":false,"rental_uris":{"android":"levelo://app?vid=15939baa-485a-4a3d-87e5-e1953a140996","ios":"levelo://app?vid=15939baa-485a-4a3d-87e5-e1953a140996"},"vehicle_type_id":"4","last_reported":1690729531,"current_range_meters":11200,"station_id":"ce4bhbp2rcd13ifvqerg","pricing_plan_id":"free"},{"bike_id":"02a2be77-a52d-4b2f-8b2e-4d44bf349036","system_id":"levelo_inurba_marseille","lat":43.282744,"lon":5.350533,"is_reserved":false,"is_disabled":false,"rental_uris":{"android":"levelo://app?vid=02a2be77-a52d-4b2f-8b2e-4d44bf349036","ios":"levelo://app?vid=02a2be77-a52d-4b2f-8b2e-4d44bf349036"},"vehicle_type_id":"4","last_reported":1690729531,"current_range_meters":1200,"station_id":"ce4bhbp2rcd13ifvqerg","pricing_plan_id":"free"},{"bike_id":"de36ad5b-06f7-4d9c-9bb3-d03c51775a6e","system_id":"levelo_inurba_marseille","lat":43.28259,"lon":5.35073,"is_reserved":false,"is_disabled":false,"rental_uris":{"android":"levelo://app?vid=de36ad5b-06f7-4d9c-9bb3-d03c51775a6e","ios":"levelo://app?vid=de36ad5b-06f7-4d9c-9bb3-d03c51775a6e"},"vehicle_type_id":"4","last_reported":1690729531,"current_range_meters":20400,"station_id":"ce4bhbp2rcd13ifvqerg","pricing_plan_id":"free"},{"bike_id":"07c95196-ed05-4340-a2c2-69761366c71f","system_id":"levelo_inurba_marseille","lat":43.282744,"lon":5.350533,"is_reserved":false,"is_disabled":false,"rental_uris":{"android":"levelo://app?vid=07c95196-ed05-4340-a2c2-69761366c71f","ios":"levelo://app?vid=07c95196-ed05-4340-a2c2-69761366c71f"},"vehicle_type_id":"4","last_reported":1690729531,"current_range_meters":22000,"station_id":"ce4bhbp2rcd13ifvqerg","pricing_plan_id":"free"},{"bike_id":"0bc3f25d-d845-4499-957e-12fea6838a64","system_id":"levelo_inurba_marseille","lat":43.282744,"lon":5.350533,"is_reserved":false,"is_disabled":false,"rental_uris":{"android":"levelo://app?vid=0bc3f25d-d845-4499-957e-12fea6838a64","ios":"levelo://app?vid=0bc3f25d-d845-4499-957e-12fea6838a64"},"vehicle_type_id":"4","last_reported":1690729531,"current_range_meters":25200,"station_id":"ce4bhbp2rcd13ifvqerg","pricing_plan_id":"free"},{"bike_id":"fae2202c-c429-424f-842e-c39725a236c0","system_id":"levelo_inurba_marseille","lat":43.2826,"lon":5.35068,"is_reserved":false,"is_disabled":false,"rental_uris":{"android":"levelo://app?vid=fae2202c-c429-424f-842e-c39725a236c0","ios":"levelo://app?vid=fae2202c-c429-424f-842e-c39725a236c0"},"vehicle_type_id":"4","last_reported":1690729531,"current_range_meters":19600,"station_id":"ce4bhbp2rcd13ifvqerg","pricing_plan_id":"free"},{"bike_id":"a8c24d88-705a-4bf2-a8b4-3b0d309f6402","system_id":"levelo_inurba_marseille","lat":43.32497,"lon":5.40818,"is_reserved":false,"is_disabled":false,"rental_uris":{"android":"levelo://app?vid=a8c24d88-705a-4bf2-a8b4-3b0d309f6402","ios":"levelo://app?vid=a8c24d88-705a-4bf2-a8b4-3b0d309f6402"},"vehicle_type_id":"4","last_reported":1690729531,"current_range_meters":8000,"station_id":"","pricing_plan_id":"free"},{"bike_id":"bddbd157-a237-49b4-a0ec-632c38d17fac","system_id":"levelo_inurba_marseille","lat":43.28039,"lon":5.369297,"is_reserved":false,"is_disabled":false,"rental_uris":{"android":"levelo://app?vid=bddbd157-a237-49b4-a0ec-632c38d17fac","ios":"levelo://app?vid=bddbd157-a237-49b4-a0ec-632c38d17fac"},"vehicle_type_id":"4","last_reported":1690729531,"current_range_meters":13600,"station_id":"ce4bha12rcd13ifvqef0","pricing_plan_id":"free"},{"bike_id":"fac7b47c-2448-43b8-84da-ec92aa69549f","system_id":"levelo_inurba_marseille","lat":43.282744,"lon":5.350533,"is_reserved":false,"is_disabled":false,"rental_uris":{"android":"levelo://app?vid=fac7b47c-2448-43b8-84da-ec92aa69549f","ios":"levelo://app?vid=fac7b47c-2448-43b8-84da-ec92aa69549f"},"vehicle_type_id":"4","last_reported":1690729531,"current_range_meters":31600,"station_id":"ce4bhbp2rcd13ifvqerg","pricing_plan_id":"free"},{"bike_id":"482da453-b0da-47a0-a0c4-087442c877a8","system_id":"levelo_inurba_marseille","lat":43.296263,"lon":5.40601,"is_reserved":false,"is_disabled":false,"rental_uris":{"android":"levelo://app?vid=482da453-b0da-47a0-a0c4-087442c877a8","ios":"levelo://app?vid=482da453-b0da-47a0-a0c4-087442c877a8"},"vehicle_type_id":"4","last_reported":1690729531,"current_range_meters":6800,"station_id":"ce4bh0h2rcd13ifvqd60","pricing_plan_id":"free"},{"bike_id":"9b27a2ca-82b5-4ccc-b011-03abb261a2a7","system_id":"levelo_inurba_marseille","lat":43.284462,"lon":5.392121,"is_reserved":false,"is_disabled":false,"rental_uris":{"android":"levelo://app?vid=9b27a2ca-82b5-4ccc-b011-03abb261a2a7","ios":"levelo://app?vid=9b27a2ca-82b5-4ccc-b011-03abb261a2a7"},"vehicle_type_id":"4","last_reported":1690729531,"current_range_meters":15600,"station_id":"ce4bhoh2rcd13ifvqh5g","pricing_plan_id":"free"},{"bike_id":"5fc62844-38f1-43ca-9b6d-b74675103304","system_id":"levelo_inurba_marseille","lat":43.32529,"lon":5.41,"is_reserved":false,"is_disabled":false,"rental_uris":{"android":"levelo://app?vid=5fc62844-38f1-43ca-9b6d-b74675103304","ios":"levelo://app?vid=5fc62844-38f1-43ca-9b6d-b74675103304"},"vehicle_type_id":"4","last_reported":1690729531,"current_range_meters":4800,"station_id":"","pricing_plan_id":"free"},{"bike_id":"855aac79-5955-4200-9973-092e3984f157","system_id":"levelo_inurba_marseille","lat":43.3266,"lon":5.40993,"is_reserved":false,"is_disabled":false,"rental_uris":{"android":"levelo://app?vid=855aac79-5955-4200-9973-092e3984f157","ios":"levelo://app?vid=855aac79-5955-4200-9973-092e3984f157"},"vehicle_type_id":"4","last_reported":1690729531,"current_range_meters":12800,"station_id":"ce4bhpp2rcd13ifvqhgg","pricing_plan_id":"free"},{"bike_id":"4ee69007-33b1-435a-8958-ca88268097c1","system_id":"levelo_inurba_marseille","lat":43.304188,"lon":5.412904,"is_reserved":false,"is_disabled":false,"rental_uris":{"android":"levelo://app?vid=4ee69007-33b1-435a-8958-ca88268097c1","ios":"levelo://app?vid=4ee69007-33b1-435a-8958-ca88268097c1"},"vehicle_type_id":"4","last_reported":1690729531,"current_range_meters":6400,"station_id":"ce4bhop2rcd13ifvqh8g","pricing_plan_id":"free"},{"bike_id":"8d82395a-84d4-4621-a7c5-fdf9ca5b345c","system_id":"levelo_inurba_marseille","lat":43.304188,"lon":5.412904,"is_reserved":false,"is_disabled":false,"rental_uris":{"android":"levelo://app?vid=8d82395a-84d4-4621-a7c5-fdf9ca5b345c","ios":"levelo://app?vid=8d82395a-84d4-4621-a7c5-fdf9ca5b345c"},"vehicle_type_id":"4","last_reported":1690729531,"current_range_meters":28400,"station_id":"ce4bhop2rcd13ifvqh8g","pricing_plan_id":"free"},{"bike_id":"c891facb-d1c6-41cc-ae92-6999f18259a7","system_id":"levelo_inurba_marseille","lat":43.304188,"lon":5.412904,"is_reserved":false,"is_disabled":false,"rental_uris":{"android":"levelo://app?vid=c891facb-d1c6-41cc-ae92-6999f18259a7","ios":"levelo://app?vid=c891facb-d1c6-41cc-ae92-6999f18259a7"},"vehicle_type_id":"4","last_reported":1690729531,"current_range_meters":5200,"station_id":"ce4bhop2rcd13ifvqh8g","pricing_plan_id":"free"},{"bike_id":"20da83d1-2254-4617-81d1-964ed61ccff4","system_id":"levelo_inurba_marseille","lat":43.30416,"lon":5.41279,"is_reserved":false,"is_disabled":false,"rental_uris":{"android":"levelo://app?vid=20da83d1-2254-4617-81d1-964ed61ccff4","ios":"levelo://app?vid=20da83d1-2254-4617-81d1-964ed61ccff4"},"vehicle_type_id":"4","last_reported":1690729531,"current_range_meters":22800,"station_id":"ce4bhop2rcd13ifvqh8g","pricing_plan_id":"free"},{"bike_id":"51b64500-38d2-44f7-9c34-e23bab07d631","system_id":"levelo_inurba_marseille","lat":43.30414,"lon":5.41287,"is_reserved":false,"is_disabled":false,"rental_uris":{"android":"levelo://app?vid=51b64500-38d2-44f7-9c34-e23bab07d631","ios":"levelo://app?vid=51b64500-38d2-44f7-9c34-e23bab07d631"},"vehicle_type_id":"4","last_reported":1690729531,"current_range_meters":25600,"station_id":"ce4bhop2rcd13ifvqh8g","pricing_plan_id":"free"},{"bike_id":"47885ff5-1874-47e2-ba76-06624d14c29b","system_id":"levelo_inurba_marseille","lat":43.287154,"lon":5.399979,"is_reserved":false,"is_disabled":false,"rental_uris":{"android":"levelo://app?vid=47885ff5-1874-47e2-ba76-06624d14c29b","ios":"levelo://app?vid=47885ff5-1874-47e2-ba76-06624d14c29b"},"vehicle_type_id":"4","last_reported":1690729531,"current_range_meters":22400,"station_id":"ce4bho92rcd13ifvqh3g","pricing_plan_id":"free"},{"bike_id":"26fac37c-4c6b-4aac-9962-0f318854e308","system_id":"levelo_inurba_marseille","lat":43.279087,"lon":5.380114,"is_reserved":false,"is_disabled":false,"rental_uris":{"android":"levelo://app?vid=26fac37c-4c6b-4aac-9962-0f318854e308","ios":"levelo://app?vid=26fac37c-4c6b-4aac-9962-0f318854e308"},"vehicle_type_id":"4","last_reported":1690729531,"current_range_meters":6800,"station_id":"ce4bhf92rcd13ifvqf50","pricing_plan_id":"free"},{"bike_id":"da74851f-183f-4ed8-bc32-44e1d656b516","system_id":"levelo_inurba_marseille","lat":43.32095,"lon":5.41512,"is_reserved":false,"is_disabled":false,"rental_uris":{"android":"levelo://app?vid=da74851f-183f-4ed8-bc32-44e1d656b516","ios":"levelo://app?vid=da74851f-183f-4ed8-bc32-44e1d656b516"},"vehicle_type_id":"4","last_reported":1690729531,"current_range_meters":18400,"station_id":"","pricing_plan_id":"free"},{"bike_id":"e9fbe7f4-c376-4a74-9a01-c2dfa71d30c2","system_id":"levelo_inurba_marseille","lat":43.3209,"lon":5.41514,"is_reserved":false,"is_disabled":false,"rental_uris":{"android":"levelo://app?vid=e9fbe7f4-c376-4a74-9a01-c2dfa71d30c2","ios":"levelo://app?vid=e9fbe7f4-c376-4a74-9a01-c2dfa71d30c2"},"vehicle_type_id":"4","last_reported":1690729531,"current_range_meters":14800,"station_id":"","pricing_plan_id":"free"},{"bike_id":"94f9bd9a-8376-4f9a-9803-375b36e777e7","system_id":"levelo_inurba_marseille","lat":43.299579,"lon":5.413255,"is_reserved":false,"is_disabled":false,"rental_uris":{"android":"levelo://app?vid=94f9bd9a-8376-4f9a-9803-375b36e777e7","ios":"levelo://app?vid=94f9bd9a-8376-4f9a-9803-375b36e777e7"},"vehicle_type_id":"4","last_reported":1690729531,"current_range_meters":31200,"station_id":"ce4bhp12rcd13ifvqh9g","pricing_plan_id":"free"},{"bike_id":"cdcd753a-4a9a-455e-a5ca-a773fea8741e","system_id":"levelo_inurba_marseille","lat":43.299577,"lon":5.413277,"is_reserved":false,"is_disabled":false,"rental_uris":{"android":"levelo://app?vid=cdcd753a-4a9a-455e-a5ca-a773fea8741e","ios":"levelo://app?vid=cdcd753a-4a9a-455e-a5ca-a773fea8741e"},"vehicle_type_id":"4","last_reported":1690729531,"current_range_meters":31200,"station_id":"ce4bhp12rcd13ifvqh9g","pricing_plan_id":"free"},{"bike_id":"39bfc890-c530-4457-ac62-976f6049a2e0","system_id":"levelo_inurba_marseille","lat":43.299579,"lon":5.413255,"is_reserved":false,"is_disabled":false,"rental_uris":{"android":"levelo://app?vid=39bfc890-c530-4457-ac62-976f6049a2e0","ios":"levelo://app?vid=39bfc890-c530-4457-ac62-976f6049a2e0"},"vehicle_type_id":"4","last_reported":1690729531,"current_range_meters":27600,"station_id":"ce4bhp12rcd13ifvqh9g","pricing_plan_id":"free"},{"bike_id":"ef07d5db-5415-4ce5-9e0e-6b02228067fb","system_id":"levelo_inurba_marseille","lat":43.32046,"lon":5.41541,"is_reserved":false,"is_disabled":false,"rental_uris":{"android":"levelo://app?vid=ef07d5db-5415-4ce5-9e0e-6b02228067fb","ios":"levelo://app?vid=ef07d5db-5415-4ce5-9e0e-6b02228067fb"},"vehicle_type_id":"4","last_reported":1690729531,"current_range_meters":24400,"station_id":"ce4bhq92rcd13ifvqhkg","pricing_plan_id":"free"},{"bike_id":"1dc7192a-5bcc-40ea-a465-4e78ae0fec42","system_id":"levelo_inurba_marseille","lat":43.299577,"lon":5.413277,"is_reserved":false,"is_disabled":false,"rental_uris":{"android":"levelo://app?vid=1dc7192a-5bcc-40ea-a465-4e78ae0fec42","ios":"levelo://app?vid=1dc7192a-5bcc-40ea-a465-4e78ae0fec42"},"vehicle_type_id":"4","last_reported":1690729531,"current_range_meters":18800,"station_id":"ce4bhp12rcd13ifvqh9g","pricing_plan_id":"free"},{"bike_id":"d9108618-c1ac-49b2-8729-a4ae470157bf","system_id":"levelo_inurba_marseille","lat":43.299579,"lon":5.413255,"is_reserved":false,"is_disabled":false,"rental_uris":{"android":"levelo://app?vid=d9108618-c1ac-49b2-8729-a4ae470157bf","ios":"levelo://app?vid=d9108618-c1ac-49b2-8729-a4ae470157bf"},"vehicle_type_id":"4","last_reported":1690729531,"current_range_meters":30800,"station_id":"ce4bhp12rcd13ifvqh9g","pricing_plan_id":"free"},{"bike_id":"5c3747dc-84c8-4dbd-a8e4-3d5d5d848bfb","system_id":"levelo_inurba_marseille","lat":43.299577,"lon":5.413277,"is_reserved":false,"is_disabled":false,"rental_uris":{"android":"levelo://app?vid=5c3747dc-84c8-4dbd-a8e4-3d5d5d848bfb","ios":"levelo://app?vid=5c3747dc-84c8-4dbd-a8e4-3d5d5d848bfb"},"vehicle_type_id":"4","last_reported":1690729531,"current_range_meters":30000,"station_id":"ce4bhp12rcd13ifvqh9g","pricing_plan_id":"free"},{"bike_id":"78b8f430-25c9-4ccd-bf32-8f84f02d90fd","system_id":"levelo_inurba_marseille","lat":43.320045,"lon":5.415046,"is_reserved":false,"is_disabled":false,"rental_uris":{"android":"levelo://app?vid=78b8f430-25c9-4ccd-bf32-8f84f02d90fd","ios":"levelo://app?vid=78b8f430-25c9-4ccd-bf32-8f84f02d90fd"},"vehicle_type_id":"4","last_reported":1690729531,"current_range_meters":20400,"station_id":"ce4bhq92rcd13ifvqhkg","pricing_plan_id":"free"},{"bike_id":"c2cdad1e-b48a-41da-9369-ee3f704bdf40","system_id":"levelo_inurba_marseille","lat":43.32041,"lon":5.41556,"is_reserved":false,"is_disabled":false,"rental_uris":{"android":"levelo://app?vid=c2cdad1e-b48a-41da-9369-ee3f704bdf40","ios":"levelo://app?vid=c2cdad1e-b48a-41da-9369-ee3f704bdf40"},"vehicle_type_id":"4","last_reported":1690729531,"current_range_meters":30400,"station_id":"ce4bhq92rcd13ifvqhkg","pricing_plan_id":"free"},{"bike_id":"c327718a-8fe6-4791-a349-aba0f8f94e82","system_id":"levelo_inurba_marseille","lat":43.279742,"lon":5.38744,"is_reserved":false,"is_disabled":false,"rental_uris":{"android":"levelo://app?vid=c327718a-8fe6-4791-a349-aba0f8f94e82","ios":"levelo://app?vid=c327718a-8fe6-4791-a349-aba0f8f94e82"},"vehicle_type_id":"4","last_reported":1690729531,"current_range_meters":24400,"station_id":"ce4bhg12rcd13ifvqf80","pricing_plan_id":"free"},{"bike_id":"662ebd7c-6ab1-454e-9b65-e97d289235d0","system_id":"levelo_inurba_marseille","lat":43.27622,"lon":5.36109,"is_reserved":false,"is_disabled":false,"rental_uris":{"android":"levelo://app?vid=662ebd7c-6ab1-454e-9b65-e97d289235d0","ios":"levelo://app?vid=662ebd7c-6ab1-454e-9b65-e97d289235d0"},"vehicle_type_id":"4","last_reported":1690729531,"current_range_meters":24000,"station_id":"ce4bgj92rcd13ifvqbe0","pricing_plan_id":"free"},{"bike_id":"db49a8b4-601f-49a5-9346-d73ed659e039","system_id":"levelo_inurba_marseille","lat":43.27618,"lon":5.361009,"is_reserved":false,"is_disabled":false,"rental_uris":{"android":"levelo://app?vid=db49a8b4-601f-49a5-9346-d73ed659e039","ios":"levelo://app?vid=db49a8b4-601f-49a5-9346-d73ed659e039"},"vehicle_type_id":"4","last_reported":1690729531,"current_range_meters":24800,"station_id":"ce4bgj92rcd13ifvqbe0","pricing_plan_id":"free"},{"bike_id":"925e30de-bc07-4d24-91b1-3310ef39ec75","system_id":"levelo_inurba_marseille","lat":43.28069,"lon":5.39645,"is_reserved":false,"is_disabled":false,"rental_uris":{"android":"levelo://app?vid=925e30de-bc07-4d24-91b1-3310ef39ec75","ios":"levelo://app?vid=925e30de-bc07-4d24-91b1-3310ef39ec75"},"vehicle_type_id":"4","last_reported":1690729531,"current_range_meters":0,"station_id":"ce4bho12rcd13ifvqh2g","pricing_plan_id":"free"},{"bike_id":"45b3d434-678f-40be-8856-51dd89ff391c","system_id":"levelo_inurba_marseille","lat":43.273613,"lon":5.362705,"is_reserved":false,"is_disabled":false,"rental_uris":{"android":"levelo://app?vid=45b3d434-678f-40be-8856-51dd89ff391c","ios":"levelo://app?vid=45b3d434-678f-40be-8856-51dd89ff391c"},"vehicle_type_id":"4","last_reported":1690729531,"current_range_meters":0,"station_id":"ce4bhbh2rcd13ifvqeo0","pricing_plan_id":"free"},{"bike_id":"509bf34d-8e17-4a2b-8748-b3484ada138e","system_id":"levelo_inurba_marseille","lat":43.273613,"lon":5.362705,"is_reserved":false,"is_disabled":false,"rental_uris":{"android":"levelo://app?vid=509bf34d-8e17-4a2b-8748-b3484ada138e","ios":"levelo://app?vid=509bf34d-8e17-4a2b-8748-b3484ada138e"},"vehicle_type_id":"4","last_reported":1690729531,"current_range_meters":10000,"station_id":"ce4bhbh2rcd13ifvqeo0","pricing_plan_id":"free"},{"bike_id":"841cf9f5-58f9-4b55-a5ba-d74437c178fe","system_id":"levelo_inurba_marseille","lat":43.273613,"lon":5.362705,"is_reserved":false,"is_disabled":false,"rental_uris":{"android":"levelo://app?vid=841cf9f5-58f9-4b55-a5ba-d74437c178fe","ios":"levelo://app?vid=841cf9f5-58f9-4b55-a5ba-d74437c178fe"},"vehicle_type_id":"4","last_reported":1690729531,"current_range_meters":31200,"station_id":"ce4bhbh2rcd13ifvqeo0","pricing_plan_id":"free"},{"bike_id":"44652a6a-07ab-4305-9cf0-018dae117926","system_id":"levelo_inurba_marseille","lat":43.273613,"lon":5.362705,"is_reserved":false,"is_disabled":false,"rental_uris":{"android":"levelo://app?vid=44652a6a-07ab-4305-9cf0-018dae117926","ios":"levelo://app?vid=44652a6a-07ab-4305-9cf0-018dae117926"},"vehicle_type_id":"4","last_reported":1690729531,"current_range_meters":28800,"station_id":"ce4bhbh2rcd13ifvqeo0","pricing_plan_id":"free"},{"bike_id":"39c004ca-8888-49a2-b9d1-5a5d2c789cf9","system_id":"levelo_inurba_marseille","lat":43.33612,"lon":5.410321,"is_reserved":false,"is_disabled":false,"rental_uris":{"android":"levelo://app?vid=39c004ca-8888-49a2-b9d1-5a5d2c789cf9","ios":"levelo://app?vid=39c004ca-8888-49a2-b9d1-5a5d2c789cf9"},"vehicle_type_id":"4","last_reported":1690729531,"current_range_meters":31200,"station_id":"ce4bhqh2rcd13ifvqhmg","pricing_plan_id":"free"},{"bike_id":"a4e6ea18-c73f-4786-b45c-bc6010a3244f","system_id":"levelo_inurba_marseille","lat":43.273613,"lon":5.362705,"is_reserved":false,"is_disabled":false,"rental_uris":{"android":"levelo://app?vid=a4e6ea18-c73f-4786-b45c-bc6010a3244f","ios":"levelo://app?vid=a4e6ea18-c73f-4786-b45c-bc6010a3244f"},"vehicle_type_id":"4","last_reported":1690729531,"current_range_meters":21200,"station_id":"ce4bhbh2rcd13ifvqeo0","pricing_plan_id":"free"},{"bike_id":"2a8e0cbd-9b8f-46cd-90aa-62c961bf22d0","system_id":"levelo_inurba_marseille","lat":43.273609,"lon":5.362708,"is_reserved":false,"is_disabled":false,"rental_uris":{"android":"levelo://app?vid=2a8e0cbd-9b8f-46cd-90aa-62c961bf22d0","ios":"levelo://app?vid=2a8e0cbd-9b8f-46cd-90aa-62c961bf22d0"},"vehicle_type_id":"4","last_reported":1690729531,"current_range_meters":31600,"station_id":"ce4bhbh2rcd13ifvqeo0","pricing_plan_id":"free"},{"bike_id":"d869380d-7df1-432e-aeb7-f8b2d5d1ec70","system_id":"levelo_inurba_marseille","lat":43.273609,"lon":5.362708,"is_reserved":false,"is_disabled":false,"rental_uris":{"android":"levelo://app?vid=d869380d-7df1-432e-aeb7-f8b2d5d1ec70","ios":"levelo://app?vid=d869380d-7df1-432e-aeb7-f8b2d5d1ec70"},"vehicle_type_id":"4","last_reported":1690729531,"current_range_meters":16000,"station_id":"ce4bhbh2rcd13ifvqeo0","pricing_plan_id":"free"},{"bike_id":"ebb3c189-60e8-40af-99eb-b57e6281dc09","system_id":"levelo_inurba_marseille","lat":43.273613,"lon":5.362705,"is_reserved":false,"is_disabled":false,"rental_uris":{"android":"levelo://app?vid=ebb3c189-60e8-40af-99eb-b57e6281dc09","ios":"levelo://app?vid=ebb3c189-60e8-40af-99eb-b57e6281dc09"},"vehicle_type_id":"4","last_reported":1690729531,"current_range_meters":400,"station_id":"ce4bhbh2rcd13ifvqeo0","pricing_plan_id":"free"},{"bike_id":"d7404c8e-d095-47f6-9987-9ca4ecfdda30","system_id":"levelo_inurba_marseille","lat":43.273609,"lon":5.362708,"is_reserved":false,"is_disabled":false,"rental_uris":{"android":"levelo://app?vid=d7404c8e-d095-47f6-9987-9ca4ecfdda30","ios":"levelo://app?vid=d7404c8e-d095-47f6-9987-9ca4ecfdda30"},"vehicle_type_id":"4","last_reported":1690729531,"current_range_meters":10800,"station_id":"ce4bhbh2rcd13ifvqeo0","pricing_plan_id":"free"},{"bike_id":"94ec50da-9630-45e8-961f-94e66b32daa9","system_id":"levelo_inurba_marseille","lat":43.273613,"lon":5.362705,"is_reserved":false,"is_disabled":false,"rental_uris":{"android":"levelo://app?vid=94ec50da-9630-45e8-961f-94e66b32daa9","ios":"levelo://app?vid=94ec50da-9630-45e8-961f-94e66b32daa9"},"vehicle_type_id":"4","last_reported":1690729531,"current_range_meters":30800,"station_id":"ce4bhbh2rcd13ifvqeo0","pricing_plan_id":"free"},{"bike_id":"615fddd4-7b0c-4daf-a8c5-00d9774904cf","system_id":"levelo_inurba_marseille","lat":43.273613,"lon":5.362705,"is_reserved":false,"is_disabled":false,"rental_uris":{"android":"levelo://app?vid=615fddd4-7b0c-4daf-a8c5-00d9774904cf","ios":"levelo://app?vid=615fddd4-7b0c-4daf-a8c5-00d9774904cf"},"vehicle_type_id":"4","last_reported":1690729531,"current_range_meters":31200,"station_id":"ce4bhbh2rcd13ifvqeo0","pricing_plan_id":"free"},{"bike_id":"fa563b9c-5c7f-4382-be02-d97555126ace","system_id":"levelo_inurba_marseille","lat":43.273609,"lon":5.362708,"is_reserved":false,"is_disabled":false,"rental_uris":{"android":"levelo://app?vid=fa563b9c-5c7f-4382-be02-d97555126ace","ios":"levelo://app?vid=fa563b9c-5c7f-4382-be02-d97555126ace"},"vehicle_type_id":"4","last_reported":1690729531,"current_range_meters":27200,"station_id":"ce4bhbh2rcd13ifvqeo0","pricing_plan_id":"free"},{"bike_id":"e991e305-3ae3-48c6-9d4a-7a2c0663b105","system_id":"levelo_inurba_marseille","lat":43.273613,"lon":5.362705,"is_reserved":false,"is_disabled":false,"rental_uris":{"android":"levelo://app?vid=e991e305-3ae3-48c6-9d4a-7a2c0663b105","ios":"levelo://app?vid=e991e305-3ae3-48c6-9d4a-7a2c0663b105"},"vehicle_type_id":"4","last_reported":1690729531,"current_range_meters":31200,"station_id":"ce4bhbh2rcd13ifvqeo0","pricing_plan_id":"free"},{"bike_id":"e82d354b-06bc-45c7-aa26-e409dc959b3b","system_id":"levelo_inurba_marseille","lat":43.273613,"lon":5.362705,"is_reserved":false,"is_disabled":false,"rental_uris":{"android":"levelo://app?vid=e82d354b-06bc-45c7-aa26-e409dc959b3b","ios":"levelo://app?vid=e82d354b-06bc-45c7-aa26-e409dc959b3b"},"vehicle_type_id":"4","last_reported":1690729531,"current_range_meters":20800,"station_id":"ce4bhbh2rcd13ifvqeo0","pricing_plan_id":"free"},{"bike_id":"f9b1c952-1c33-41b8-84e3-5cafdf42384f","system_id":"levelo_inurba_marseille","lat":43.273609,"lon":5.362708,"is_reserved":false,"is_disabled":false,"rental_uris":{"android":"levelo://app?vid=f9b1c952-1c33-41b8-84e3-5cafdf42384f","ios":"levelo://app?vid=f9b1c952-1c33-41b8-84e3-5cafdf42384f"},"vehicle_type_id":"4","last_reported":1690729531,"current_range_meters":12800,"station_id":"ce4bhbh2rcd13ifvqeo0","pricing_plan_id":"free"},{"bike_id":"3c4d7849-b534-4baa-abbf-3bd562419052","system_id":"levelo_inurba_marseille","lat":43.273609,"lon":5.362708,"is_reserved":false,"is_disabled":false,"rental_uris":{"android":"levelo://app?vid=3c4d7849-b534-4baa-abbf-3bd562419052","ios":"levelo://app?vid=3c4d7849-b534-4baa-abbf-3bd562419052"},"vehicle_type_id":"4","last_reported":1690729531,"current_range_meters":4800,"station_id":"ce4bhbh2rcd13ifvqeo0","pricing_plan_id":"free"},{"bike_id":"38ce7955-621f-46db-8407-019e5cc673cb","system_id":"levelo_inurba_marseille","lat":43.273609,"lon":5.362708,"is_reserved":false,"is_disabled":false,"rental_uris":{"android":"levelo://app?vid=38ce7955-621f-46db-8407-019e5cc673cb","ios":"levelo://app?vid=38ce7955-621f-46db-8407-019e5cc673cb"},"vehicle_type_id":"4","last_reported":1690729531,"current_range_meters":15600,"station_id":"ce4bhbh2rcd13ifvqeo0","pricing_plan_id":"free"},{"bike_id":"66444206-262f-4b9f-be07-2807584be1e1","system_id":"levelo_inurba_marseille","lat":43.273609,"lon":5.362708,"is_reserved":false,"is_disabled":false,"rental_uris":{"android":"levelo://app?vid=66444206-262f-4b9f-be07-2807584be1e1","ios":"levelo://app?vid=66444206-262f-4b9f-be07-2807584be1e1"},"vehicle_type_id":"4","last_reported":1690729531,"current_range_meters":16800,"station_id":"ce4bhbh2rcd13ifvqeo0","pricing_plan_id":"free"},{"bike_id":"b3774058-4987-401d-ab44-32b5a1e614d5","system_id":"levelo_inurba_marseille","lat":43.336134,"lon":5.410341,"is_reserved":false,"is_disabled":false,"rental_uris":{"android":"levelo://app?vid=b3774058-4987-401d-ab44-32b5a1e614d5","ios":"levelo://app?vid=b3774058-4987-401d-ab44-32b5a1e614d5"},"vehicle_type_id":"4","last_reported":1690729531,"current_range_meters":31200,"station_id":"ce4bhqh2rcd13ifvqhmg","pricing_plan_id":"free"},{"bike_id":"d2804127-2383-4b4c-9043-4eab3cad7dd0","system_id":"levelo_inurba_marseille","lat":43.273609,"lon":5.362708,"is_reserved":false,"is_disabled":false,"rental_uris":{"android":"levelo://app?vid=d2804127-2383-4b4c-9043-4eab3cad7dd0","ios":"levelo://app?vid=d2804127-2383-4b4c-9043-4eab3cad7dd0"},"vehicle_type_id":"4","last_reported":1690729531,"current_range_meters":24400,"station_id":"ce4bhbh2rcd13ifvqeo0","pricing_plan_id":"free"},{"bike_id":"a9a34a93-20ef-4e63-98a4-d313bf4d2aed","system_id":"levelo_inurba_marseille","lat":43.273609,"lon":5.362708,"is_reserved":false,"is_disabled":false,"rental_uris":{"android":"levelo://app?vid=a9a34a93-20ef-4e63-98a4-d313bf4d2aed","ios":"levelo://app?vid=a9a34a93-20ef-4e63-98a4-d313bf4d2aed"},"vehicle_type_id":"4","last_reported":1690729531,"current_range_meters":31600,"station_id":"ce4bhbh2rcd13ifvqeo0","pricing_plan_id":"free"},{"bike_id":"a6cbdaee-889c-436d-9783-aa18581cd788","system_id":"levelo_inurba_marseille","lat":43.273609,"lon":5.362708,"is_reserved":false,"is_disabled":false,"rental_uris":{"android":"levelo://app?vid=a6cbdaee-889c-436d-9783-aa18581cd788","ios":"levelo://app?vid=a6cbdaee-889c-436d-9783-aa18581cd788"},"vehicle_type_id":"4","last_reported":1690729531,"current_range_meters":20400,"station_id":"ce4bhbh2rcd13ifvqeo0","pricing_plan_id":"free"},{"bike_id":"0409e441-120d-46cc-ae2a-bb3c5132d96b","system_id":"levelo_inurba_marseille","lat":43.273609,"lon":5.362708,"is_reserved":false,"is_disabled":false,"rental_uris":{"android":"levelo://app?vid=0409e441-120d-46cc-ae2a-bb3c5132d96b","ios":"levelo://app?vid=0409e441-120d-46cc-ae2a-bb3c5132d96b"},"vehicle_type_id":"4","last_reported":1690729531,"current_range_meters":4400,"station_id":"ce4bhbh2rcd13ifvqeo0","pricing_plan_id":"free"},{"bike_id":"9e5b1dbe-cba5-4ada-a7ab-dbd4896b0b6b","system_id":"levelo_inurba_marseille","lat":43.273609,"lon":5.362708,"is_reserved":false,"is_disabled":false,"rental_uris":{"android":"levelo://app?vid=9e5b1dbe-cba5-4ada-a7ab-dbd4896b0b6b","ios":"levelo://app?vid=9e5b1dbe-cba5-4ada-a7ab-dbd4896b0b6b"},"vehicle_type_id":"4","last_reported":1690729531,"current_range_meters":24400,"station_id":"ce4bhbh2rcd13ifvqeo0","pricing_plan_id":"free"},{"bike_id":"e2627d1c-c0c9-4155-b05d-e68a9eab6145","system_id":"levelo_inurba_marseille","lat":43.273609,"lon":5.362708,"is_reserved":false,"is_disabled":false,"rental_uris":{"android":"levelo://app?vid=e2627d1c-c0c9-4155-b05d-e68a9eab6145","ios":"levelo://app?vid=e2627d1c-c0c9-4155-b05d-e68a9eab6145"},"vehicle_type_id":"4","last_reported":1690729531,"current_range_meters":31200,"station_id":"ce4bhbh2rcd13ifvqeo0","pricing_plan_id":"free"},{"bike_id":"221deb5e-c71d-4b0e-a82b-31d36aeb3faf","system_id":"levelo_inurba_marseille","lat":43.275625,"lon":5.384392,"is_reserved":false,"is_disabled":false,"rental_uris":{"android":"levelo://app?vid=221deb5e-c71d-4b0e-a82b-31d36aeb3faf","ios":"levelo://app?vid=221deb5e-c71d-4b0e-a82b-31d36aeb3faf"},