{"last_updated":1734973650,"ttl":60,"version":"2.2","data":{"bikes":[{"bike_id":"5e34ba9e-857e-4232-91d1-c0f537d64a83","system_id":"levelo_inurba_marseille","lat":43.30552,"lon":5.36544,"is_reserved":false,"is_disabled":false,"rental_uris":{"android":"levelo://app?vid=5e34ba9e-857e-4232-91d1-c0f537d64a83","ios":"levelo://app?vid=5e34ba9e-857e-4232-91d1-c0f537d64a83"},"vehicle_type_id":"4","last_reported":1734973650,"current_range_meters":13600,"station_id":"ce4bgs12rcd13ifvqcag","pricing_plan_id":"cebpf4jnsgd1na2vs0mg"},{"bike_id":"82a5a85a-9bbd-4119-8049-c460674a779d","system_id":"levelo_inurba_marseille","lat":43.29936,"lon":5.36535,"is_reserved":false,"is_disabled":false,"rental_uris":{"android":"levelo://app?vid=82a5a85a-9bbd-4119-8049-c460674a779d","ios":"levelo://app?vid=82a5a85a-9bbd-4119-8049-c460674a779d"},"vehicle_type_id":"4","last_reported":1734973650,"current_range_meters":38000,"station_id":"ce4bgm92rcd13ifvqbr0","pricing_plan_id":"cebpf4jnsgd1na2vs0mg"},{"bike_id":"01a190a2-e249-458b-9d78-181d5cbea41d","system_id":"levelo_inurba_marseille","lat":43.2407,"lon":5.37768,"is_reserved":false,"is_disabled":false,"rental_uris":{"android":"levelo://app?vid=01a190a2-e249-458b-9d78-181d5cbea41d","ios":"levelo://app?vid=01a190a2-e249-458b-9d78-181d5cbea41d"},"vehicle_type_id":"4","last_reported":1734973650,"current_range_meters":26000,"station_id":"ce4bhnp2rcd13ifvqgvg","pricing_plan_id":"cebpf4jnsgd1na2vs0mg"},{"bike_id":"6116d3a7-012b-48a3-9669-e5d61a410ebf","system_id":"levelo_inurba_marseille","lat":43.29792,"lon":5.38088,"is_reserved":false,"is_disabled":false,"rental_uris":{"android":"levelo://app?vid=6116d3a7-012b-48a3-9669-e5d61a410ebf","ios":"levelo://app?vid=6116d3a7-012b-48a3-9669-e5d61a410ebf"},"vehicle_type_id":"4","last_reported":1734973650,"current_range_meters":20800,"station_id":"ce4bgip2rcd13ifvqbb0","pricing_plan_id":"cebpf4jnsgd1na2vs0mg"},{"bike_id":"6c0e2fb5-015c-4176-b0bb-902f57d44214","system_id":"levelo_inurba_marseille","lat":43.28938,"lon":5.39638,"is_reserved":false,"is_disabled":true,"rental_uris":{"android":"levelo://app?vid=6c0e2fb5-015c-4176-b0bb-902f57d44214","ios":"levelo://app?vid=6c0e2fb5-015c-4176-b0bb-902f57d44214"},"vehicle_type_id":"4","last_reported":1734973650,"current_range_meters":24000,"station_id":"ce4bh3h2rcd13ifvqdn0","pricing_plan_id":"cebpf4jnsgd1na2vs0mg"},{"bike_id":"2a6357b0-9b42-4cd6-b4fc-7fa01001c56c","system_id":"levelo_inurba_marseille","lat":43.26062,"lon":5.39387,"is_reserved":false,"is_disabled":false,"rental_uris":{"android":"levelo://app?vid=2a6357b0-9b42-4cd6-b4fc-7fa01001c56c","ios":"levelo://app?vid=2a6357b0-9b42-4cd6-b4fc-7fa01001c56c"},"vehicle_type_id":"4","last_reported":1734973650,"current_range_meters":24800,"station_id":"ce4bhh92rcd13ifvqfj0","pricing_plan_id":"cebpf4jnsgd1na2vs0mg"},{"bike_id":"5ecfb7d1-6abc-4dd2-87a4-6b70a520c2ca","system_id":"levelo_inurba_marseille","lat":43.2721,"lon":5.39187,"is_reserved":false,"is_disabled":false,"rental_uris":{"android":"levelo://app?vid=5ecfb7d1-6abc-4dd2-87a4-6b70a520c2ca","ios":"levelo://app?vid=5ecfb7d1-6abc-4dd2-87a4-6b70a520c2ca"},"vehicle_type_id":"4","last_reported":1734973650,"current_range_meters":39200,"station_id":"ce4bhhp2rcd13ifvqfm0","pricing_plan_id":"cebpf4jnsgd1na2vs0mg"},{"bike_id":"27fdf108-ec04-4c72-aaa0-d9991fa0af56","system_id":"levelo_inurba_marseille","lat":43.29873,"lon":5.38926,"is_reserved":false,"is_disabled":false,"rental_uris":{"android":"levelo://app?vid=27fdf108-ec04-4c72-aaa0-d9991fa0af56","ios":"levelo://app?vid=27fdf108-ec04-4c72-aaa0-d9991fa0af56"},"vehicle_type_id":"4","last_reported":1734973650,"current_range_meters":17600,"station_id":"ce4bh392rcd13ifvqdl0","pricing_plan_id":"cebpf4jnsgd1na2vs0mg"},{"bike_id":"f7e5e57a-9e67-4a34-8c87-f182c2d1ab80","system_id":"levelo_inurba_marseille","lat":43.27078,"lon":5.42283,"is_reserved":false,"is_disabled":false,"rental_uris":{"android":"levelo://app?vid=f7e5e57a-9e67-4a34-8c87-f182c2d1ab80","ios":"levelo://app?vid=f7e5e57a-9e67-4a34-8c87-f182c2d1ab80"},"vehicle_type_id":"4","last_reported":1734973650,"current_range_meters":31200,"station_id":"ce4bhk92rcd13ifvqgb0","pricing_plan_id":"cebpf4jnsgd1na2vs0mg"},{"bike_id":"be94c982-2962-45b1-835f-12d6abd8385e","system_id":"levelo_inurba_marseille","lat":43.27972,"lon":5.38733,"is_reserved":false,"is_disabled":false,"rental_uris":{"android":"levelo://app?vid=be94c982-2962-45b1-835f-12d6abd8385e","ios":"levelo://app?vid=be94c982-2962-45b1-835f-12d6abd8385e"},"vehicle_type_id":"4","last_reported":1734973650,"current_range_meters":36800,"station_id":"ce4bhg12rcd13ifvqf80","pricing_plan_id":"cebpf4jnsgd1na2vs0mg"},{"bike_id":"96f67906-c94f-4a78-ae6e-fdff28a17019","system_id":"levelo_inurba_marseille","lat":43.33753,"lon":5.37429,"is_reserved":false,"is_disabled":false,"rental_uris":{"android":"levelo://app?vid=96f67906-c94f-4a78-ae6e-fdff28a17019","ios":"levelo://app?vid=96f67906-c94f-4a78-ae6e-fdff28a17019"},"vehicle_type_id":"4","last_reported":1734973650,"current_range_meters":20400,"station_id":"","pricing_plan_id":"cebpf4jnsgd1na2vs0mg"},{"bike_id":"e69a6f5d-d87f-41cd-993b-a405aa94e7a6","system_id":"levelo_inurba_marseille","lat":43.29241,"lon":5.36067,"is_reserved":false,"is_disabled":false,"rental_uris":{"android":"levelo://app?vid=e69a6f5d-d87f-41cd-993b-a405aa94e7a6","ios":"levelo://app?vid=e69a6f5d-d87f-41cd-993b-a405aa94e7a6"},"vehicle_type_id":"4","last_reported":1734973650,"current_range_meters":12000,"station_id":"ce4bhbh2rcd13ifvqeqg","pricing_plan_id":"cebpf4jnsgd1na2vs0mg"},{"bike_id":"454a2917-bbfc-4010-a3c2-3e352c41d99d","system_id":"levelo_inurba_marseille","lat":43.29261,"lon":5.40909,"is_reserved":false,"is_disabled":false,"rental_uris":{"android":"levelo://app?vid=454a2917-bbfc-4010-a3c2-3e352c41d99d","ios":"levelo://app?vid=454a2917-bbfc-4010-a3c2-3e352c41d99d"},"vehicle_type_id":"4","last_reported":1734973650,"current_range_meters":38800,"station_id":"ce4bh192rcd13ifvqdc0","pricing_plan_id":"cebpf4jnsgd1na2vs0mg"},{"bike_id":"8ba84ccc-8626-48fe-9205-f75891433829","system_id":"levelo_inurba_marseille","lat":43.25513,"lon":5.37644,"is_reserved":false,"is_disabled":false,"rental_uris":{"android":"levelo://app?vid=8ba84ccc-8626-48fe-9205-f75891433829","ios":"levelo://app?vid=8ba84ccc-8626-48fe-9205-f75891433829"},"vehicle_type_id":"4","last_reported":1734973650,"current_range_meters":38800,"station_id":"ce4bhh12rcd13ifvqff0","pricing_plan_id":"cebpf4jnsgd1na2vs0mg"},{"bike_id":"13fd8ed7-3284-4d21-9372-d871d71d55dc","system_id":"levelo_inurba_marseille","lat":43.29614,"lon":5.37726,"is_reserved":false,"is_disabled":false,"rental_uris":{"android":"levelo://app?vid=13fd8ed7-3284-4d21-9372-d871d71d55dc","ios":"levelo://app?vid=13fd8ed7-3284-4d21-9372-d871d71d55dc"},"vehicle_type_id":"4","last_reported":1734973650,"current_range_meters":17600,"station_id":"ce4bgi92rcd13ifvqb90","pricing_plan_id":"cebpf4jnsgd1na2vs0mg"},{"bike_id":"916f2698-b07b-4cd1-8c67-096a16a7879f","system_id":"levelo_inurba_marseille","lat":43.27214,"lon":5.3919,"is_reserved":false,"is_disabled":false,"rental_uris":{"android":"levelo://app?vid=916f2698-b07b-4cd1-8c67-096a16a7879f","ios":"levelo://app?vid=916f2698-b07b-4cd1-8c67-096a16a7879f"},"vehicle_type_id":"4","last_reported":1734973650,"current_range_meters":24800,"station_id":"ce4bhhp2rcd13ifvqfm0","pricing_plan_id":"cebpf4jnsgd1na2vs0mg"},{"bike_id":"f8df509d-f14d-4fc9-b446-50546b501b6c","system_id":"levelo_inurba_marseille","lat":43.27076,"lon":5.42281,"is_reserved":false,"is_disabled":false,"rental_uris":{"android":"levelo://app?vid=f8df509d-f14d-4fc9-b446-50546b501b6c","ios":"levelo://app?vid=f8df509d-f14d-4fc9-b446-50546b501b6c"},"vehicle_type_id":"4","last_reported":1734973650,"current_range_meters":11600,"station_id":"ce4bhk92rcd13ifvqgb0","pricing_plan_id":"cebpf4jnsgd1na2vs0mg"},{"bike_id":"c66abb8e-8df5-4273-a071-f5581230d15b","system_id":"levelo_inurba_marseille","lat":43.30142,"lon":5.37426,"is_reserved":false,"is_disabled":false,"rental_uris":{"android":"levelo://app?vid=c66abb8e-8df5-4273-a071-f5581230d15b","ios":"levelo://app?vid=c66abb8e-8df5-4273-a071-f5581230d15b"},"vehicle_type_id":"4","last_reported":1734973650,"current_range_meters":38000,"station_id":"ce4bgs92rcd13ifvqcc0","pricing_plan_id":"cebpf4jnsgd1na2vs0mg"},{"bike_id":"3f381b13-6ab3-4e5e-9b83-f0e5352bfc4a","system_id":"levelo_inurba_marseille","lat":43.27812,"lon":5.40718,"is_reserved":false,"is_disabled":false,"rental_uris":{"android":"levelo://app?vid=3f381b13-6ab3-4e5e-9b83-f0e5352bfc4a","ios":"levelo://app?vid=3f381b13-6ab3-4e5e-9b83-f0e5352bfc4a"},"vehicle_type_id":"4","last_reported":1734973650,"current_range_meters":33600,"station_id":"ce4bhnh2rcd13ifvqgtg","pricing_plan_id":"cebpf4jnsgd1na2vs0mg"},{"bike_id":"483c1a88-3d76-4ce2-b8a0-18ab3d6306de","system_id":"levelo_inurba_marseille","lat":43.2994,"lon":5.3654,"is_reserved":false,"is_disabled":false,"rental_uris":{"android":"levelo://app?vid=483c1a88-3d76-4ce2-b8a0-18ab3d6306de","ios":"levelo://app?vid=483c1a88-3d76-4ce2-b8a0-18ab3d6306de"},"vehicle_type_id":"4","last_reported":1734973650,"current_range_meters":10000,"station_id":"ce4bgm92rcd13ifvqbr0","pricing_plan_id":"cebpf4jnsgd1na2vs0mg"},{"bike_id":"677767c6-7ea3-4173-ae5e-27b0074a22e9","system_id":"levelo_inurba_marseille","lat":43.28765,"lon":5.36088,"is_reserved":false,"is_disabled":false,"rental_uris":{"android":"levelo://app?vid=677767c6-7ea3-4173-ae5e-27b0074a22e9","ios":"levelo://app?vid=677767c6-7ea3-4173-ae5e-27b0074a22e9"},"vehicle_type_id":"4","last_reported":1734973650,"current_range_meters":38800,"station_id":"cki0cbj6b192h4jlfktg","pricing_plan_id":"cebpf4jnsgd1na2vs0mg"},{"bike_id":"b5305089-62ba-43a5-a181-d0cf47187869","system_id":"levelo_inurba_marseille","lat":43.26502,"lon":5.39534,"is_reserved":false,"is_disabled":false,"rental_uris":{"android":"levelo://app?vid=b5305089-62ba-43a5-a181-d0cf47187869","ios":"levelo://app?vid=b5305089-62ba-43a5-a181-d0cf47187869"},"vehicle_type_id":"4","last_reported":1734973650,"current_range_meters":24800,"station_id":"ce4bhi12rcd13ifvqfq0","pricing_plan_id":"cebpf4jnsgd1na2vs0mg"},{"bike_id":"671b6366-55bc-4b51-a3a4-65fbc5c39302","system_id":"levelo_inurba_marseille","lat":43.32041,"lon":5.41563,"is_reserved":false,"is_disabled":false,"rental_uris":{"android":"levelo://app?vid=671b6366-55bc-4b51-a3a4-65fbc5c39302","ios":"levelo://app?vid=671b6366-55bc-4b51-a3a4-65fbc5c39302"},"vehicle_type_id":"4","last_reported":1734973650,"current_range_meters":36400,"station_id":"ce4bhq92rcd13ifvqhkg","pricing_plan_id":"cebpf4jnsgd1na2vs0mg"},{"bike_id":"74df334a-556c-44e9-93ed-b9387761fd7e","system_id":"levelo_inurba_marseille","lat":43.28459,"lon":5.3589,"is_reserved":false,"is_disabled":false,"rental_uris":{"android":"levelo://app?vid=74df334a-556c-44e9-93ed-b9387761fd7e","ios":"levelo://app?vid=74df334a-556c-44e9-93ed-b9387761fd7e"},"vehicle_type_id":"4","last_reported":1734973650,"current_range_meters":13600,"station_id":"ce4bhah2rcd13ifvqei0","pricing_plan_id":"cebpf4jnsgd1na2vs0mg"},{"bike_id":"dd53f835-c284-46ed-a39d-765895718500","system_id":"levelo_inurba_marseille","lat":43.30885,"lon":5.39658,"is_reserved":false,"is_disabled":true,"rental_uris":{"android":"levelo://app?vid=dd53f835-c284-46ed-a39d-765895718500","ios":"levelo://app?vid=dd53f835-c284-46ed-a39d-765895718500"},"vehicle_type_id":"4","last_reported":1734973650,"current_range_meters":1200,"station_id":"ce4bh012rcd13ifvqcv0","pricing_plan_id":"cebpf4jnsgd1na2vs0mg"},{"bike_id":"d1dc16e5-85c2-43d5-b8fa-3eebc423a7ee","system_id":"levelo_inurba_marseille","lat":43.26791,"lon":5.3942,"is_reserved":false,"is_disabled":false,"rental_uris":{"android":"levelo://app?vid=d1dc16e5-85c2-43d5-b8fa-3eebc423a7ee","ios":"levelo://app?vid=d1dc16e5-85c2-43d5-b8fa-3eebc423a7ee"},"vehicle_type_id":"4","last_reported":1734973650,"current_range_meters":20000,"station_id":"ce4bhh12rcd13ifvqfg0","pricing_plan_id":"cebpf4jnsgd1na2vs0mg"},{"bike_id":"3130a1e9-02dc-483e-bca9-c7faabf763a1","system_id":"levelo_inurba_marseille","lat":43.25495,"lon":5.3765,"is_reserved":false,"is_disabled":false,"rental_uris":{"android":"levelo://app?vid=3130a1e9-02dc-483e-bca9-c7faabf763a1","ios":"levelo://app?vid=3130a1e9-02dc-483e-bca9-c7faabf763a1"},"vehicle_type_id":"4","last_reported":1734973650,"current_range_meters":38800,"station_id":"ce4bhh12rcd13ifvqff0","pricing_plan_id":"cebpf4jnsgd1na2vs0mg"},{"bike_id":"ea8c40cc-174b-443f-b73d-f844c946648a","system_id":"levelo_inurba_marseille","lat":43.24682,"lon":5.3886,"is_reserved":false,"is_disabled":false,"rental_uris":{"android":"levelo://app?vid=ea8c40cc-174b-443f-b73d-f844c946648a","ios":"levelo://app?vid=ea8c40cc-174b-443f-b73d-f844c946648a"},"vehicle_type_id":"4","last_reported":1734973650,"current_range_meters":31200,"station_id":"","pricing_plan_id":"cebpf4jnsgd1na2vs0mg"},{"bike_id":"b76cea7e-5025-4e14-a8c7-eebf31292c4c","system_id":"levelo_inurba_marseille","lat":43.26078,"lon":5.39397,"is_reserved":false,"is_disabled":true,"rental_uris":{"android":"levelo://app?vid=b76cea7e-5025-4e14-a8c7-eebf31292c4c","ios":"levelo://app?vid=b76cea7e-5025-4e14-a8c7-eebf31292c4c"},"vehicle_type_id":"4","last_reported":1734973650,"current_range_meters":28000,"station_id":"ce4bhh92rcd13ifvqfj0","pricing_plan_id":"cebpf4jnsgd1na2vs0mg"},{"bike_id":"250b8b6f-c391-46bf-b1ea-a8bddc0b7bac","system_id":"levelo_inurba_marseille","lat":43.29632,"lon":5.40594,"is_reserved":false,"is_disabled":false,"rental_uris":{"android":"levelo://app?vid=250b8b6f-c391-46bf-b1ea-a8bddc0b7bac","ios":"levelo://app?vid=250b8b6f-c391-46bf-b1ea-a8bddc0b7bac"},"vehicle_type_id":"4","last_reported":1734973650,"current_range_meters":10800,"station_id":"ce4bh0h2rcd13ifvqd60","pricing_plan_id":"cebpf4jnsgd1na2vs0mg"},{"bike_id":"b385a3ef-d6ae-472e-981a-32c07a4ffc9c","system_id":"levelo_inurba_marseille","lat":43.27053,"lon":5.40264,"is_reserved":false,"is_disabled":false,"rental_uris":{"android":"levelo://app?vid=b385a3ef-d6ae-472e-981a-32c07a4ffc9c","ios":"levelo://app?vid=b385a3ef-d6ae-472e-981a-32c07a4ffc9c"},"vehicle_type_id":"4","last_reported":1734973650,"current_range_meters":36800,"station_id":"ce4bhk92rcd13ifvqgc0","pricing_plan_id":"cebpf4jnsgd1na2vs0mg"},{"bike_id":"fb1eaf8b-bec7-43ef-9756-b887dc8ac40f","system_id":"levelo_inurba_marseille","lat":43.28407,"lon":5.3751,"is_reserved":false,"is_disabled":false,"rental_uris":{"android":"levelo://app?vid=fb1eaf8b-bec7-43ef-9756-b887dc8ac40f","ios":"levelo://app?vid=fb1eaf8b-bec7-43ef-9756-b887dc8ac40f"},"vehicle_type_id":"4","last_reported":1734973650,"current_range_meters":35600,"station_id":"ce4bh412rcd13ifvqds0","pricing_plan_id":"cebpf4jnsgd1na2vs0mg"},{"bike_id":"f64237d5-46cf-42d8-870d-cc1e4d25f3e7","system_id":"levelo_inurba_marseille","lat":43.26688,"lon":5.38278,"is_reserved":false,"is_disabled":false,"rental_uris":{"android":"levelo://app?vid=f64237d5-46cf-42d8-870d-cc1e4d25f3e7","ios":"levelo://app?vid=f64237d5-46cf-42d8-870d-cc1e4d25f3e7"},"vehicle_type_id":"4","last_reported":1734973650,"current_range_meters":33200,"station_id":"ce4bhg92rcd13ifvqf90","pricing_plan_id":"cebpf4jnsgd1na2vs0mg"},{"bike_id":"5d29fc56-dbb2-4006-96bc-27e181f8d4f5","system_id":"levelo_inurba_marseille","lat":43.29849,"lon":5.36281,"is_reserved":false,"is_disabled":false,"rental_uris":{"android":"levelo://app?vid=5d29fc56-dbb2-4006-96bc-27e181f8d4f5","ios":"levelo://app?vid=5d29fc56-dbb2-4006-96bc-27e181f8d4f5"},"vehicle_type_id":"4","last_reported":1734973650,"current_range_meters":38400,"station_id":"ce4bgpp2rcd13ifvqc3g","pricing_plan_id":"cebpf4jnsgd1na2vs0mg"},{"bike_id":"d0342c53-b256-44fd-b23e-5162e9c57f0c","system_id":"levelo_inurba_marseille","lat":43.29731,"lon":5.37704,"is_reserved":false,"is_disabled":false,"rental_uris":{"android":"levelo://app?vid=d0342c53-b256-44fd-b23e-5162e9c57f0c","ios":"levelo://app?vid=d0342c53-b256-44fd-b23e-5162e9c57f0c"},"vehicle_type_id":"4","last_reported":1734973650,"current_range_meters":29600,"station_id":"ce4bgkh2rcd13ifvqbl0","pricing_plan_id":"cebpf4jnsgd1na2vs0mg"},{"bike_id":"c23d9e31-ca67-4d79-99f6-0387bf9b7e4d","system_id":"levelo_inurba_marseille","lat":43.30908,"lon":5.36855,"is_reserved":false,"is_disabled":false,"rental_uris":{"android":"levelo://app?vid=c23d9e31-ca67-4d79-99f6-0387bf9b7e4d","ios":"levelo://app?vid=c23d9e31-ca67-4d79-99f6-0387bf9b7e4d"},"vehicle_type_id":"4","last_reported":1734973650,"current_range_meters":30800,"station_id":"ce4bgn92rcd13ifvqbvg","pricing_plan_id":"cebpf4jnsgd1na2vs0mg"},{"bike_id":"340bdf85-b70a-4fec-860b-4323592295f8","system_id":"levelo_inurba_marseille","lat":43.29571,"lon":5.37503,"is_reserved":false,"is_disabled":false,"rental_uris":{"android":"levelo://app?vid=340bdf85-b70a-4fec-860b-4323592295f8","ios":"levelo://app?vid=340bdf85-b70a-4fec-860b-4323592295f8"},"vehicle_type_id":"4","last_reported":1734973650,"current_range_meters":22400,"station_id":"ce4bgh92rcd13ifvqb50","pricing_plan_id":"cebpf4jnsgd1na2vs0mg"},{"bike_id":"e1a1fefb-6ade-46e6-98d6-844f07ab9872","system_id":"levelo_inurba_marseille","lat":43.29272,"lon":5.36841,"is_reserved":false,"is_disabled":false,"rental_uris":{"android":"levelo://app?vid=e1a1fefb-6ade-46e6-98d6-844f07ab9872","ios":"levelo://app?vid=e1a1fefb-6ade-46e6-98d6-844f07ab9872"},"vehicle_type_id":"4","last_reported":1734973650,"current_range_meters":19200,"station_id":"ce4bhbp2rcd13ifvqesg","pricing_plan_id":"cebpf4jnsgd1na2vs0mg"},{"bike_id":"384703fa-0bca-4cdd-8569-5eaec8e257c7","system_id":"levelo_inurba_marseille","lat":43.29605,"lon":5.37731,"is_reserved":false,"is_disabled":false,"rental_uris":{"android":"levelo://app?vid=384703fa-0bca-4cdd-8569-5eaec8e257c7","ios":"levelo://app?vid=384703fa-0bca-4cdd-8569-5eaec8e257c7"},"vehicle_type_id":"4","last_reported":1734973650,"current_range_meters":32000,"station_id":"ce4bgi92rcd13ifvqb90","pricing_plan_id":"cebpf4jnsgd1na2vs0mg"},{"bike_id":"a9ff51bf-86fb-4147-924f-72786fa8d2ae","system_id":"levelo_inurba_marseille","lat":43.27807,"lon":5.40698,"is_reserved":false,"is_disabled":false,"rental_uris":{"android":"levelo://app?vid=a9ff51bf-86fb-4147-924f-72786fa8d2ae","ios":"levelo://app?vid=a9ff51bf-86fb-4147-924f-72786fa8d2ae"},"vehicle_type_id":"4","last_reported":1734973650,"current_range_meters":5600,"station_id":"ce4bhnh2rcd13ifvqgtg","pricing_plan_id":"cebpf4jnsgd1na2vs0mg"},{"bike_id":"83ecc338-ed30-49dc-879a-ece0d584e4f6","system_id":"levelo_inurba_marseille","lat":43.30883,"lon":5.37188,"is_reserved":false,"is_disabled":false,"rental_uris":{"android":"levelo://app?vid=83ecc338-ed30-49dc-879a-ece0d584e4f6","ios":"levelo://app?vid=83ecc338-ed30-49dc-879a-ece0d584e4f6"},"vehicle_type_id":"4","last_reported":1734973650,"current_range_meters":38400,"station_id":"ce4bguh2rcd13ifvqckg","pricing_plan_id":"cebpf4jnsgd1na2vs0mg"},{"bike_id":"41d0d9f5-bb31-41f6-8358-898df39bf21c","system_id":"levelo_inurba_marseille","lat":43.25869,"lon":5.39904,"is_reserved":false,"is_disabled":false,"rental_uris":{"android":"levelo://app?vid=41d0d9f5-bb31-41f6-8358-898df39bf21c","ios":"levelo://app?vid=41d0d9f5-bb31-41f6-8358-898df39bf21c"},"vehicle_type_id":"4","last_reported":1734973650,"current_range_meters":38800,"station_id":"ce4bhl92rcd13ifvqghg","pricing_plan_id":"cebpf4jnsgd1na2vs0mg"},{"bike_id":"7e211114-fd49-4399-8a81-09d040af8d46","system_id":"levelo_inurba_marseille","lat":43.24815,"lon":5.37446,"is_reserved":false,"is_disabled":false,"rental_uris":{"android":"levelo://app?vid=7e211114-fd49-4399-8a81-09d040af8d46","ios":"levelo://app?vid=7e211114-fd49-4399-8a81-09d040af8d46"},"vehicle_type_id":"4","last_reported":1734973650,"current_range_meters":39200,"station_id":"ce4bhgh2rcd13ifvqfb0","pricing_plan_id":"cebpf4jnsgd1na2vs0mg"},{"bike_id":"8fd4ed25-e7b3-49be-b1e0-521234d05b10","system_id":"levelo_inurba_marseille","lat":43.324847,"lon":5.3657,"is_reserved":false,"is_disabled":false,"rental_uris":{"android":"levelo://app?vid=8fd4ed25-e7b3-49be-b1e0-521234d05b10","ios":"levelo://app?vid=8fd4ed25-e7b3-49be-b1e0-521234d05b10"},"vehicle_type_id":"4","last_reported":1734973650,"current_range_meters":28400,"station_id":"ce4bhs12rcd13ifvqhvg","pricing_plan_id":"cebpf4jnsgd1na2vs0mg"},{"bike_id":"eaa93ee8-361b-4bd6-bc3c-a3486958f70d","system_id":"levelo_inurba_marseille","lat":43.29412,"lon":5.374435,"is_reserved":false,"is_disabled":false,"rental_uris":{"android":"levelo://app?vid=eaa93ee8-361b-4bd6-bc3c-a3486958f70d","ios":"levelo://app?vid=eaa93ee8-361b-4bd6-bc3c-a3486958f70d"},"vehicle_type_id":"4","last_reported":1734973650,"current_range_meters":37600,"station_id":"","pricing_plan_id":"cebpf4jnsgd1na2vs0mg"},{"bike_id":"e724f4e5-0922-4e36-91f4-8a4c9d514ff5","system_id":"levelo_inurba_marseille","lat":43.29843,"lon":5.36262,"is_reserved":false,"is_disabled":false,"rental_uris":{"android":"levelo://app?vid=e724f4e5-0922-4e36-91f4-8a4c9d514ff5","ios":"levelo://app?vid=e724f4e5-0922-4e36-91f4-8a4c9d514ff5"},"vehicle_type_id":"4","last_reported":1734973650,"current_range_meters":38000,"station_id":"ce4bgpp2rcd13ifvqc3g","pricing_plan_id":"cebpf4jnsgd1na2vs0mg"},{"bike_id":"e758d540-a49b-4c63-beac-9556d1c03d6f","system_id":"levelo_inurba_marseille","lat":43.31715,"lon":5.42396,"is_reserved":false,"is_disabled":false,"rental_uris":{"android":"levelo://app?vid=e758d540-a49b-4c63-beac-9556d1c03d6f","ios":"levelo://app?vid=e758d540-a49b-4c63-beac-9556d1c03d6f"},"vehicle_type_id":"4","last_reported":1734973650,"current_range_meters":36000,"station_id":"ce4bhp92rcd13ifvqhbg","pricing_plan_id":"cebpf4jnsgd1na2vs0mg"},{"bike_id":"643cb38e-1a6a-4bd6-aa54-dec322ad7a49","system_id":"levelo_inurba_marseille","lat":43.2815,"lon":5.42648,"is_reserved":false,"is_disabled":false,"rental_uris":{"android":"levelo://app?vid=643cb38e-1a6a-4bd6-aa54-dec322ad7a49","ios":"levelo://app?vid=643cb38e-1a6a-4bd6-aa54-dec322ad7a49"},"vehicle_type_id":"4","last_reported":1734973650,"current_range_meters":38800,"station_id":"ce4bhnh2rcd13ifvqgug","pricing_plan_id":"cebpf4jnsgd1na2vs0mg"},{"bike_id":"d98f0b8a-1ef4-43b4-85a1-12b00b5f4de1","system_id":"levelo_inurba_marseille","lat":43.2843,"lon":5.34995,"is_reserved":false,"is_disabled":false,"rental_uris":{"android":"levelo://app?vid=d98f0b8a-1ef4-43b4-85a1-12b00b5f4de1","ios":"levelo://app?vid=d98f0b8a-1ef4-43b4-85a1-12b00b5f4de1"},"vehicle_type_id":"4","last_reported":1734973650,"current_range_meters":30400,"station_id":"ce4bhbh2rcd13ifvqepg","pricing_plan_id":"cebpf4jnsgd1na2vs0mg"},{"bike_id":"dd3dbacf-347a-4a33-90ce-76bd61257750","system_id":"levelo_inurba_marseille","lat":43.32069,"lon":5.415516,"is_reserved":false,"is_disabled":true,"rental_uris":{"android":"levelo://app?vid=dd3dbacf-347a-4a33-90ce-76bd61257750","ios":"levelo://app?vid=dd3dbacf-347a-4a33-90ce-76bd61257750"},"vehicle_type_id":"4","last_reported":1734973650,"current_range_meters":38800,"station_id":"ce4bhq92rcd13ifvqhkg","pricing_plan_id":"cebpf4jnsgd1na2vs0mg"},{"bike_id":"fa7b6f51-07ff-4e1f-ba75-2880fb9ee1b2","system_id":"levelo_inurba_marseille","lat":43.24177,"lon":5.36399,"is_reserved":false,"is_disabled":false,"rental_uris":{"android":"levelo://app?vid=fa7b6f51-07ff-4e1f-ba75-2880fb9ee1b2","ios":"levelo://app?vid=fa7b6f51-07ff-4e1f-ba75-2880fb9ee1b2"},"vehicle_type_id":"4","last_reported":1734973650,"current_range_meters":8800,"station_id":"cpo36qri1sfpv3e86is0","pricing_plan_id":"cebpf4jnsgd1na2vs0mg"},{"bike_id":"71bbaaf0-30fa-412b-9088-f880a672af88","system_id":"levelo_inurba_marseille","lat":43.26025,"lon":5.37555,"is_reserved":false,"is_disabled":false,"rental_uris":{"android":"levelo://app?vid=71bbaaf0-30fa-412b-9088-f880a672af88","ios":"levelo://app?vid=71bbaaf0-30fa-412b-9088-f880a672af88"},"vehicle_type_id":"4","last_reported":1734973650,"current_range_meters":31200,"station_id":"ce4bhgh2rcd13ifvqfa0","pricing_plan_id":"cebpf4jnsgd1na2vs0mg"},{"bike_id":"b2f86a97-af08-41b2-8296-7e91d5858232","system_id":"levelo_inurba_marseille","lat":43.29,"lon":5.35603,"is_reserved":false,"is_disabled":false,"rental_uris":{"android":"levelo://app?vid=b2f86a97-af08-41b2-8296-7e91d5858232","ios":"levelo://app?vid=b2f86a97-af08-41b2-8296-7e91d5858232"},"vehicle_type_id":"4","last_reported":1734973650,"current_range_meters":38400,"station_id":"ce4bhb92rcd13ifvqen0","pricing_plan_id":"cebpf4jnsgd1na2vs0mg"},{"bike_id":"4a6725fc-a836-4f87-b7ea-100e1ba8d7c4","system_id":"levelo_inurba_marseille","lat":43.28406,"lon":5.37514,"is_reserved":false,"is_disabled":false,"rental_uris":{"android":"levelo://app?vid=4a6725fc-a836-4f87-b7ea-100e1ba8d7c4","ios":"levelo://app?vid=4a6725fc-a836-4f87-b7ea-100e1ba8d7c4"},"vehicle_type_id":"4","last_reported":1734973650,"current_range_meters":24800,"station_id":"ce4bh412rcd13ifvqds0","pricing_plan_id":"cebpf4jnsgd1na2vs0mg"},{"bike_id":"980185bd-062a-4071-8686-3ad854900388","system_id":"levelo_inurba_marseille","lat":43.23191,"lon":5.39982,"is_reserved":false,"is_disabled":false,"rental_uris":{"android":"levelo://app?vid=980185bd-062a-4071-8686-3ad854900388","ios":"levelo://app?vid=980185bd-062a-4071-8686-3ad854900388"},"vehicle_type_id":"4","last_reported":1734973650,"current_range_meters":38800,"station_id":"ce4bhn12rcd13ifvqgqg","pricing_plan_id":"cebpf4jnsgd1na2vs0mg"},{"bike_id":"6cf69636-e4ae-4214-85e4-c21522c74906","system_id":"levelo_inurba_marseille","lat":43.28274,"lon":5.35069,"is_reserved":false,"is_disabled":false,"rental_uris":{"android":"levelo://app?vid=6cf69636-e4ae-4214-85e4-c21522c74906","ios":"levelo://app?vid=6cf69636-e4ae-4214-85e4-c21522c74906"},"vehicle_type_id":"4","last_reported":1734973650,"current_range_meters":38000,"station_id":"ce4bhbp2rcd13ifvqerg","pricing_plan_id":"cebpf4jnsgd1na2vs0mg"},{"bike_id":"acdc711f-0743-46ed-bcd0-b221ef49b1e8","system_id":"levelo_inurba_marseille","lat":43.26036,"lon":5.37541,"is_reserved":false,"is_disabled":false,"rental_uris":{"android":"levelo://app?vid=acdc711f-0743-46ed-bcd0-b221ef49b1e8","ios":"levelo://app?vid=acdc711f-0743-46ed-bcd0-b221ef49b1e8"},"vehicle_type_id":"4","last_reported":1734973650,"current_range_meters":39200,"station_id":"ce4bhgh2rcd13ifvqfa0","pricing_plan_id":"cebpf4jnsgd1na2vs0mg"},{"bike_id":"7cf473d8-21ed-437d-8fd8-af7d1a257998","system_id":"levelo_inurba_marseille","lat":43.30133,"lon":5.39878,"is_reserved":false,"is_disabled":false,"rental_uris":{"android":"levelo://app?vid=7cf473d8-21ed-437d-8fd8-af7d1a257998","ios":"levelo://app?vid=7cf473d8-21ed-437d-8fd8-af7d1a257998"},"vehicle_type_id":"4","last_reported":1734973650,"current_range_meters":38400,"station_id":"ce4bh0h2rcd13ifvqd40","pricing_plan_id":"cebpf4jnsgd1na2vs0mg"},{"bike_id":"2a0db8a1-2c00-4335-909d-2a8197dc4bd7","system_id":"levelo_inurba_marseille","lat":43.29913,"lon":5.38138,"is_reserved":false,"is_disabled":false,"rental_uris":{"android":"levelo://app?vid=2a0db8a1-2c00-4335-909d-2a8197dc4bd7","ios":"levelo://app?vid=2a0db8a1-2c00-4335-909d-2a8197dc4bd7"},"vehicle_type_id":"4","last_reported":1734973650,"current_range_meters":36400,"station_id":"ce4bgj12rcd13ifvqbc0","pricing_plan_id":"cebpf4jnsgd1na2vs0mg"},{"bike_id":"a87760bb-860a-41ff-af6f-797f55d9f68d","system_id":"levelo_inurba_marseille","lat":43.2979,"lon":5.39352,"is_reserved":false,"is_disabled":false,"rental_uris":{"android":"levelo://app?vid=a87760bb-860a-41ff-af6f-797f55d9f68d","ios":"levelo://app?vid=a87760bb-860a-41ff-af6f-797f55d9f68d"},"vehicle_type_id":"4","last_reported":1734973650,"current_range_meters":36800,"station_id":"chh1huq6cuj3fo74tm60","pricing_plan_id":"cebpf4jnsgd1na2vs0mg"},{"bike_id":"da2cf751-5fbe-4046-877c-63cc74d17142","system_id":"levelo_inurba_marseille","lat":43.27205,"lon":5.39188,"is_reserved":false,"is_disabled":false,"rental_uris":{"android":"levelo://app?vid=da2cf751-5fbe-4046-877c-63cc74d17142","ios":"levelo://app?vid=da2cf751-5fbe-4046-877c-63cc74d17142"},"vehicle_type_id":"4","last_reported":1734973650,"current_range_meters":38800,"station_id":"ce4bhhp2rcd13ifvqfm0","pricing_plan_id":"cebpf4jnsgd1na2vs0mg"},{"bike_id":"370a5638-7ba2-4fb7-a94d-eb38ce88ddf9","system_id":"levelo_inurba_marseille","lat":43.31348,"lon":5.3672,"is_reserved":false,"is_disabled":false,"rental_uris":{"android":"levelo://app?vid=370a5638-7ba2-4fb7-a94d-eb38ce88ddf9","ios":"levelo://app?vid=370a5638-7ba2-4fb7-a94d-eb38ce88ddf9"},"vehicle_type_id":"4","last_reported":1734973650,"current_range_meters":38800,"station_id":"ce4bgr92rcd13ifvqc6g","pricing_plan_id":"cebpf4jnsgd1na2vs0mg"},{"bike_id":"1bff88cc-7e80-4f66-93cd-eccfe100465b","system_id":"levelo_inurba_marseille","lat":43.30539,"lon":5.36505,"is_reserved":false,"is_disabled":false,"rental_uris":{"android":"levelo://app?vid=1bff88cc-7e80-4f66-93cd-eccfe100465b","ios":"levelo://app?vid=1bff88cc-7e80-4f66-93cd-eccfe100465b"},"vehicle_type_id":"4","last_reported":1734973650,"current_range_meters":36000,"station_id":"","pricing_plan_id":"cebpf4jnsgd1na2vs0mg"},{"bike_id":"fa27ee24-baf1-4edf-912c-c35c66d5d9f9","system_id":"levelo_inurba_marseille","lat":43.30532,"lon":5.36538,"is_reserved":false,"is_disabled":false,"rental_uris":{"android":"levelo://app?vid=fa27ee24-baf1-4edf-912c-c35c66d5d9f9","ios":"levelo://app?vid=fa27ee24-baf1-4edf-912c-c35c66d5d9f9"},"vehicle_type_id":"4","last_reported":1734973650,"current_range_meters":38800,"station_id":"ce4bgs12rcd13ifvqcag","pricing_plan_id":"cebpf4jnsgd1na2vs0mg"},{"bike_id":"eb493c73-faad-4c01-b4aa-27ac99a1af59","system_id":"levelo_inurba_marseille","lat":43.29628,"lon":5.37164,"is_reserved":false,"is_disabled":false,"rental_uris":{"android":"levelo://app?vid=eb493c73-faad-4c01-b4aa-27ac99a1af59","ios":"levelo://app?vid=eb493c73-faad-4c01-b4aa-27ac99a1af59"},"vehicle_type_id":"4","last_reported":1734973650,"current_range_meters":38800,"station_id":"ce4bgnh2rcd13ifvqc0g","pricing_plan_id":"cebpf4jnsgd1na2vs0mg"},{"bike_id":"cdfd034a-3e02-40a2-9d10-a134561ec453","system_id":"levelo_inurba_marseille","lat":43.29619,"lon":5.37171,"is_reserved":false,"is_disabled":false,"rental_uris":{"android":"levelo://app?vid=cdfd034a-3e02-40a2-9d10-a134561ec453","ios":"levelo://app?vid=cdfd034a-3e02-40a2-9d10-a134561ec453"},"vehicle_type_id":"4","last_reported":1734973650,"current_range_meters":24400,"station_id":"ce4bgnh2rcd13ifvqc0g","pricing_plan_id":"cebpf4jnsgd1na2vs0mg"},{"bike_id":"2700e5a3-4e1f-4014-b5c8-20229087db9b","system_id":"levelo_inurba_marseille","lat":43.30546,"lon":5.36532,"is_reserved":false,"is_disabled":false,"rental_uris":{"android":"levelo://app?vid=2700e5a3-4e1f-4014-b5c8-20229087db9b","ios":"levelo://app?vid=2700e5a3-4e1f-4014-b5c8-20229087db9b"},"vehicle_type_id":"4","last_reported":1734973650,"current_range_meters":25600,"station_id":"ce4bgs12rcd13ifvqcag","pricing_plan_id":"cebpf4jnsgd1na2vs0mg"},{"bike_id":"875b2f8e-fb5f-468a-8ac6-218f77a44f01","system_id":"levelo_inurba_marseille","lat":43.31889,"lon":5.40726,"is_reserved":false,"is_disabled":false,"rental_uris":{"android":"levelo://app?vid=875b2f8e-fb5f-468a-8ac6-218f77a44f01","ios":"levelo://app?vid=875b2f8e-fb5f-468a-8ac6-218f77a44f01"},"vehicle_type_id":"4","last_reported":1734973650,"current_range_meters":38000,"station_id":"ce4bhq12rcd13ifvqhig","pricing_plan_id":"cebpf4jnsgd1na2vs0mg"},{"bike_id":"2633e9ba-ac8f-41eb-8615-a08e37b3083a","system_id":"levelo_inurba_marseille","lat":43.27182,"lon":5.40997,"is_reserved":false,"is_disabled":false,"rental_uris":{"android":"levelo://app?vid=2633e9ba-ac8f-41eb-8615-a08e37b3083a","ios":"levelo://app?vid=2633e9ba-ac8f-41eb-8615-a08e37b3083a"},"vehicle_type_id":"4","last_reported":1734973650,"current_range_meters":32000,"station_id":"ce4bhl12rcd13ifvqgf0","pricing_plan_id":"cebpf4jnsgd1na2vs0mg"},{"bike_id":"ee86d6b4-90e5-465e-aa90-989039e6eede","system_id":"levelo_inurba_marseille","lat":43.29051,"lon":5.39946,"is_reserved":false,"is_disabled":false,"rental_uris":{"android":"levelo://app?vid=ee86d6b4-90e5-465e-aa90-989039e6eede","ios":"levelo://app?vid=ee86d6b4-90e5-465e-aa90-989039e6eede"},"vehicle_type_id":"4","last_reported":1734973650,"current_range_meters":32800,"station_id":"ce4bh392rcd13ifvqdm0","pricing_plan_id":"cebpf4jnsgd1na2vs0mg"},{"bike_id":"af1cd6cf-2562-434f-aa74-4bd775d99ddb","system_id":"levelo_inurba_marseille","lat":43.31068,"lon":5.38339,"is_reserved":false,"is_disabled":true,"rental_uris":{"android":"levelo://app?vid=af1cd6cf-2562-434f-aa74-4bd775d99ddb","ios":"levelo://app?vid=af1cd6cf-2562-434f-aa74-4bd775d99ddb"},"vehicle_type_id":"4","last_reported":1734973650,"current_range_meters":36400,"station_id":"ce4bgv92rcd13ifvqcr0","pricing_plan_id":"cebpf4jnsgd1na2vs0mg"},{"bike_id":"e73e6057-e6e9-407b-a17e-f4e119a96aba","system_id":"levelo_inurba_marseille","lat":43.32108,"lon":5.3677,"is_reserved":false,"is_disabled":false,"rental_uris":{"android":"levelo://app?vid=e73e6057-e6e9-407b-a17e-f4e119a96aba","ios":"levelo://app?vid=e73e6057-e6e9-407b-a17e-f4e119a96aba"},"vehicle_type_id":"4","last_reported":1734973650,"current_range_meters":38800,"station_id":"ce4bhrh2rcd13ifvqhug","pricing_plan_id":"cebpf4jnsgd1na2vs0mg"},{"bike_id":"8c23ca40-0769-4ca8-b1f0-68e8fb86c54b","system_id":"levelo_inurba_marseille","lat":43.24997,"lon":5.38927,"is_reserved":false,"is_disabled":false,"rental_uris":{"android":"levelo://app?vid=8c23ca40-0769-4ca8-b1f0-68e8fb86c54b","ios":"levelo://app?vid=8c23ca40-0769-4ca8-b1f0-68e8fb86c54b"},"vehicle_type_id":"4","last_reported":1734973650,"current_range_meters":38400,"station_id":"ce4bhgp2rcd13ifvqfd0","pricing_plan_id":"cebpf4jnsgd1na2vs0mg"},{"bike_id":"ff19ce84-10b6-4ffc-b9fc-1625914b166c","system_id":"levelo_inurba_marseille","lat":43.29706,"lon":5.36619,"is_reserved":false,"is_disabled":false,"rental_uris":{"android":"levelo://app?vid=ff19ce84-10b6-4ffc-b9fc-1625914b166c","ios":"levelo://app?vid=ff19ce84-10b6-4ffc-b9fc-1625914b166c"},"vehicle_type_id":"4","last_reported":1734973650,"current_range_meters":28400,"station_id":"ce4bgn12rcd13ifvqbt0","pricing_plan_id":"cebpf4jnsgd1na2vs0mg"},{"bike_id":"30dc2708-06a7-4c52-b828-80ac77ed829d","system_id":"levelo_inurba_marseille","lat":43.28853,"lon":5.35852,"is_reserved":false,"is_disabled":false,"rental_uris":{"android":"levelo://app?vid=30dc2708-06a7-4c52-b828-80ac77ed829d","ios":"levelo://app?vid=30dc2708-06a7-4c52-b828-80ac77ed829d"},"vehicle_type_id":"4","last_reported":1734973650,"current_range_meters":27200,"station_id":"ce4bhb12rcd13ifvqem0","pricing_plan_id":"cebpf4jnsgd1na2vs0mg"},{"bike_id":"2ecd7a5c-6b03-4906-a193-c1bc16b7668c","system_id":"levelo_inurba_marseille","lat":43.302399,"lon":5.400635,"is_reserved":false,"is_disabled":true,"rental_uris":{"android":"levelo://app?vid=2ecd7a5c-6b03-4906-a193-c1bc16b7668c","ios":"levelo://app?vid=2ecd7a5c-6b03-4906-a193-c1bc16b7668c"},"vehicle_type_id":"4","last_reported":1734973650,"current_range_meters":32400,"station_id":"ce4bgvh2rcd13ifvqcs0","pricing_plan_id":"cebpf4jnsgd1na2vs0mg"},{"bike_id":"4bcb37c0-9249-499d-890c-0bbf93d29f8b","system_id":"levelo_inurba_marseille","lat":43.2319,"lon":5.35562,"is_reserved":false,"is_disabled":true,"rental_uris":{"android":"levelo://app?vid=4bcb37c0-9249-499d-890c-0bbf93d29f8b","ios":"levelo://app?vid=4bcb37c0-9249-499d-890c-0bbf93d29f8b"},"vehicle_type_id":"4","last_reported":1734973650,"current_range_meters":21600,"station_id":"ce4bhu92rcd13ifvqi70","pricing_plan_id":"cebpf4jnsgd1na2vs0mg"},{"bike_id":"120f46df-9366-4e6b-aaee-01218be79248","system_id":"levelo_inurba_marseille","lat":43.24994,"lon":5.3893,"is_reserved":false,"is_disabled":false,"rental_uris":{"android":"levelo://app?vid=120f46df-9366-4e6b-aaee-01218be79248","ios":"levelo://app?vid=120f46df-9366-4e6b-aaee-01218be79248"},"vehicle_type_id":"4","last_reported":1734973650,"current_range_meters":38800,"station_id":"ce4bhgp2rcd13ifvqfd0","pricing_plan_id":"cebpf4jnsgd1na2vs0mg"},{"bike_id":"7c29b004-f06b-4fd4-9237-38913c6b1ebf","system_id":"levelo_inurba_marseille","lat":43.30158,"lon":5.38087,"is_reserved":false,"is_disabled":false,"rental_uris":{"android":"levelo://app?vid=7c29b004-f06b-4fd4-9237-38913c6b1ebf","ios":"levelo://app?vid=7c29b004-f06b-4fd4-9237-38913c6b1ebf"},"vehicle_type_id":"4","last_reported":1734973650,"current_range_meters":36800,"station_id":"ce4bgjp2rcd13ifvqbh0","pricing_plan_id":"cebpf4jnsgd1na2vs0mg"},{"bike_id":"4d70a3bf-a8e9-4395-92a9-3e1f7045a4b1","system_id":"levelo_inurba_marseille","lat":43.32027,"lon":5.41566,"is_reserved":false,"is_disabled":false,"rental_uris":{"android":"levelo://app?vid=4d70a3bf-a8e9-4395-92a9-3e1f7045a4b1","ios":"levelo://app?vid=4d70a3bf-a8e9-4395-92a9-3e1f7045a4b1"},"vehicle_type_id":"4","last_reported":1734973650,"current_range_meters":38000,"station_id":"ce4bhq92rcd13ifvqhkg","pricing_plan_id":"cebpf4jnsgd1na2vs0mg"},{"bike_id":"3ee4c59a-5002-4e9c-973f-c4e9ba0086ba","system_id":"levelo_inurba_marseille","lat":43.29417,"lon":5.38626,"is_reserved":false,"is_disabled":false,"rental_uris":{"android":"levelo://app?vid=3ee4c59a-5002-4e9c-973f-c4e9ba0086ba","ios":"levelo://app?vid=3ee4c59a-5002-4e9c-973f-c4e9ba0086ba"},"vehicle_type_id":"4","last_reported":1734973650,"current_range_meters":32400,"station_id":"ce4bh2h2rcd13ifvqdh0","pricing_plan_id":"cebpf4jnsgd1na2vs0mg"},{"bike_id":"cfee8779-ee71-49db-be27-306c21a45427","system_id":"levelo_inurba_marseille","lat":43.2866,"lon":5.36355,"is_reserved":false,"is_disabled":false,"rental_uris":{"android":"levelo://app?vid=cfee8779-ee71-49db-be27-306c21a45427","ios":"levelo://app?vid=cfee8779-ee71-49db-be27-306c21a45427"},"vehicle_type_id":"4","last_reported":1734973650,"current_range_meters":14400,"station_id":"ce4bhah2rcd13ifvqej0","pricing_plan_id":"cebpf4jnsgd1na2vs0mg"},{"bike_id":"74537145-131b-4d91-915e-dbda64486b49","system_id":"levelo_inurba_marseille","lat":43.29897,"lon":5.38889,"is_reserved":false,"is_disabled":false,"rental_uris":{"android":"levelo://app?vid=74537145-131b-4d91-915e-dbda64486b49","ios":"levelo://app?vid=74537145-131b-4d91-915e-dbda64486b49"},"vehicle_type_id":"4","last_reported":1734973650,"current_range_meters":17600,"station_id":"ce4bh392rcd13ifvqdl0","pricing_plan_id":"cebpf4jnsgd1na2vs0mg"},{"bike_id":"a4f2a1ba-4c33-4d0d-8c83-eb221d73f773","system_id":"levelo_inurba_marseille","lat":43.29607,"lon":5.37714,"is_reserved":false,"is_disabled":false,"rental_uris":{"android":"levelo://app?vid=a4f2a1ba-4c33-4d0d-8c83-eb221d73f773","ios":"levelo://app?vid=a4f2a1ba-4c33-4d0d-8c83-eb221d73f773"},"vehicle_type_id":"4","last_reported":1734973650,"current_range_meters":38000,"station_id":"ce4bgi92rcd13ifvqb90","pricing_plan_id":"cebpf4jnsgd1na2vs0mg"},{"bike_id":"343bc065-3555-49ac-90b9-9f9335d87211","system_id":"levelo_inurba_marseille","lat":43.25816,"lon":5.39434,"is_reserved":false,"is_disabled":false,"rental_uris":{"android":"levelo://app?vid=343bc065-3555-49ac-90b9-9f9335d87211","ios":"levelo://app?vid=343bc065-3555-49ac-90b9-9f9335d87211"},"vehicle_type_id":"4","last_reported":1734973650,"current_range_meters":33200,"station_id":"ce4bhip2rcd13ifvqft0","pricing_plan_id":"cebpf4jnsgd1na2vs0mg"},{"bike_id":"4bf93b38-0309-4337-8e5a-2510bd1ce767","system_id":"levelo_inurba_marseille","lat":43.30134,"lon":5.39872,"is_reserved":false,"is_disabled":false,"rental_uris":{"android":"levelo://app?vid=4bf93b38-0309-4337-8e5a-2510bd1ce767","ios":"levelo://app?vid=4bf93b38-0309-4337-8e5a-2510bd1ce767"},"vehicle_type_id":"4","last_reported":1734973650,"current_range_meters":36000,"station_id":"ce4bh0h2rcd13ifvqd40","pricing_plan_id":"cebpf4jnsgd1na2vs0mg"},{"bike_id":"ddbfce67-cbf8-4481-9917-3eaa981e7b2e","system_id":"levelo_inurba_marseille","lat":43.22932,"lon":5.35374,"is_reserved":false,"is_disabled":false,"rental_uris":{"android":"levelo://app?vid=ddbfce67-cbf8-4481-9917-3eaa981e7b2e","ios":"levelo://app?vid=ddbfce67-cbf8-4481-9917-3eaa981e7b2e"},"vehicle_type_id":"4","last_reported":1734973650,"current_range_meters":27600,"station_id":"cpo3532slgdg3j2ikp40","pricing_plan_id":"cebpf4jnsgd1na2vs0mg"},{"bike_id":"05779c56-0808-49a4-971b-d1c6ac6bb96d","system_id":"levelo_inurba_marseille","lat":43.23188,"lon":5.39977,"is_reserved":false,"is_disabled":false,"rental_uris":{"android":"levelo://app?vid=05779c56-0808-49a4-971b-d1c6ac6bb96d","ios":"levelo://app?vid=05779c56-0808-49a4-971b-d1c6ac6bb96d"},"vehicle_type_id":"4","last_reported":1734973650,"current_range_meters":36800,"station_id":"ce4bhn12rcd13ifvqgqg","pricing_plan_id":"cebpf4jnsgd1na2vs0mg"},{"bike_id":"d40f1e6c-dd7d-4a6b-9613-7314f471a7fe","system_id":"levelo_inurba_marseille","lat":43.30151,"lon":5.38097,"is_reserved":false,"is_disabled":false,"rental_uris":{"android":"levelo://app?vid=d40f1e6c-dd7d-4a6b-9613-7314f471a7fe","ios":"levelo://app?vid=d40f1e6c-dd7d-4a6b-9613-7314f471a7fe"},"vehicle_type_id":"4","last_reported":1734973650,"current_range_meters":33200,"station_id":"ce4bgjp2rcd13ifvqbh0","pricing_plan_id":"cebpf4jnsgd1na2vs0mg"},{"bike_id":"dad6db58-f5bc-4da2-b0b4-3d5d1002166b","system_id":"levelo_inurba_marseille","lat":43.32117,"lon":5.36778,"is_reserved":false,"is_disabled":false,"rental_uris":{"android":"levelo://app?vid=dad6db58-f5bc-4da2-b0b4-3d5d1002166b","ios":"levelo://app?vid=dad6db58-f5bc-4da2-b0b4-3d5d1002166b"},"vehicle_type_id":"4","last_reported":1734973650,"current_range_meters":36400,"station_id":"ce4bhrh2rcd13ifvqhug","pricing_plan_id":"cebpf4jnsgd1na2vs0mg"},{"bike_id":"d215e6a3-2dbb-4240-82c4-dbdd5ce5595f","system_id":"levelo_inurba_marseille","lat":43.29899,"lon":5.38144,"is_reserved":false,"is_disabled":false,"rental_uris":{"android":"levelo://app?vid=d215e6a3-2dbb-4240-82c4-dbdd5ce5595f","ios":"levelo://app?vid=d215e6a3-2dbb-4240-82c4-dbdd5ce5595f"},"vehicle_type_id":"4","last_reported":1734973650,"current_range_meters":38000,"station_id":"ce4bgj12rcd13ifvqbc0","pricing_plan_id":"cebpf4jnsgd1na2vs0mg"},{"bike_id":"60770c9f-5288-402e-a2f3-9eefe1cc354e","system_id":"levelo_inurba_marseille","lat":43.29568,"lon":5.3751,"is_reserved":false,"is_disabled":false,"rental_uris":{"android":"levelo://app?vid=60770c9f-5288-402e-a2f3-9eefe1cc354e","ios":"levelo://app?vid=60770c9f-5288-402e-a2f3-9eefe1cc354e"},"vehicle_type_id":"4","last_reported":1734973650,"current_range_meters":19600,"station_id":"ce4bgh92rcd13ifvqb50","pricing_plan_id":"cebpf4jnsgd1na2vs0mg"},{"bike_id":"80026bd6-ffb9-4c36-a5bf-a94e93e8775a","system_id":"levelo_inurba_marseille","lat":43.29259,"lon":5.36853,"is_reserved":false,"is_disabled":false,"rental_uris":{"android":"levelo://app?vid=80026bd6-ffb9-4c36-a5bf-a94e93e8775a","ios":"levelo://app?vid=80026bd6-ffb9-4c36-a5bf-a94e93e8775a"},"vehicle_type_id":"4","last_reported":1734973650,"current_range_meters":27600,"station_id":"ce4bhbp2rcd13ifvqesg","pricing_plan_id":"cebpf4jnsgd1na2vs0mg"},{"bike_id":"972e1b07-6d5a-4ee2-b220-0b87fe2fc597","system_id":"levelo_inurba_marseille","lat":43.30535,"lon":5.36556,"is_reserved":false,"is_disabled":false,"rental_uris":{"android":"levelo://app?vid=972e1b07-6d5a-4ee2-b220-0b87fe2fc597","ios":"levelo://app?vid=972e1b07-6d5a-4ee2-b220-0b87fe2fc597"},"vehicle_type_id":"4","last_reported":1734973650,"current_range_meters":31200,"station_id":"ce4bgs12rcd13ifvqcag","pricing_plan_id":"cebpf4jnsgd1na2vs0mg"},{"bike_id":"06cc971a-0f0c-44ef-87db-5746419b1c98","system_id":"levelo_inurba_marseille","lat":43.30353,"lon":5.41877,"is_reserved":false,"is_disabled":false,"rental_uris":{"android":"levelo://app?vid=06cc971a-0f0c-44ef-87db-5746419b1c98","ios":"levelo://app?vid=06cc971a-0f0c-44ef-87db-5746419b1c98"},"vehicle_type_id":"4","last_reported":1734973650,"current_range_meters":39200,"station_id":"ce4bhop2rcd13ifvqh7g","pricing_plan_id":"cebpf4jnsgd1na2vs0mg"},{"bike_id":"68cf7a36-c47a-43cc-a7fc-8dd0efd052ae","system_id":"levelo_inurba_marseille","lat":43.29798,"lon":5.38093,"is_reserved":false,"is_disabled":false,"rental_uris":{"android":"levelo://app?vid=68cf7a36-c47a-43cc-a7fc-8dd0efd052ae","ios":"levelo://app?vid=68cf7a36-c47a-43cc-a7fc-8dd0efd052ae"},"vehicle_type_id":"4","last_reported":1734973650,"current_range_meters":20400,"station_id":"ce4bgip2rcd13ifvqbb0","pricing_plan_id":"cebpf4jnsgd1na2vs0mg"},{"bike_id":"cf12c232-c3a3-4785-8fed-9cea9aa4f082","system_id":"levelo_inurba_marseille","lat":43.276923,"lon":5.389094,"is_reserved":false,"is_disabled":false,"rental_uris":{"android":"levelo://app?vid=cf12c232-c3a3-4785-8fed-9cea9aa4f082","ios":"levelo://app?vid=cf12c232-c3a3-4785-8fed-9cea9aa4f082"},"vehicle_type_id":"4","last_reported":1734973650,"current_range_meters":16400,"station_id":"ce4bhi12rcd13ifvqfo0","pricing_plan_id":"cebpf4jnsgd1na2vs0mg"},{"bike_id":"7d51f556-7ada-4233-9b93-03f8f492aa76","system_id":"levelo_inurba_marseille","lat":43.24539,"lon":5.39525,"is_reserved":false,"is_disabled":true,"rental_uris":{"android":"levelo://app?vid=7d51f556-7ada-4233-9b93-03f8f492aa76","ios":"levelo://app?vid=7d51f556-7ada-4233-9b93-03f8f492aa76"},"vehicle_type_id":"4","last_reported":1734973650,"current_range_meters":12000,"station_id":"ce4bhlp2rcd13ifvqgjg","pricing_plan_id":"cebpf4jnsgd1na2vs0mg"},{"bike_id":"8b3a78bd-cf3f-4762-94a0-beffb610263d","system_id":"levelo_inurba_marseille","lat":43.31063,"lon":5.38351,"is_reserved":false,"is_disabled":false,"rental_uris":{"android":"levelo://app?vid=8b3a78bd-cf3f-4762-94a0-beffb610263d","ios":"levelo://app?vid=8b3a78bd-cf3f-4762-94a0-beffb610263d"},"vehicle_type_id":"4","last_reported":1734973650,"current_range_meters":10000,"station_id":"ce4bgv92rcd13ifvqcr0","pricing_plan_id":"cebpf4jnsgd1na2vs0mg"},{"bike_id":"50ed8d09-e307-4804-8048-b331687ea0e6","system_id":"levelo_inurba_marseille","lat":43.24668,"lon":5.38167,"is_reserved":false,"is_disabled":false,"rental_uris":{"android":"levelo://app?vid=50ed8d09-e307-4804-8048-b331687ea0e6","ios":"levelo://app?vid=50ed8d09-e307-4804-8048-b331687ea0e6"},"vehicle_type_id":"4","last_reported":1734973650,"current_range_meters":37600,"station_id":"ce4bhih2rcd13ifvqfr0","pricing_plan_id":"cebpf4jnsgd1na2vs0mg"},{"bike_id":"2fc5bb46-54f4-4773-b48f-90ed6ba2cec9","system_id":"levelo_inurba_marseille","lat":43.30144,"lon":5.3988,"is_reserved":false,"is_disabled":false,"rental_uris":{"android":"levelo://app?vid=2fc5bb46-54f4-4773-b48f-90ed6ba2cec9","ios":"levelo://app?vid=2fc5bb46-54f4-4773-b48f-90ed6ba2cec9"},"vehicle_type_id":"4","last_reported":1734973650,"current_range_meters":38800,"station_id":"ce4bh0h2rcd13ifvqd40","pricing_plan_id":"cebpf4jnsgd1na2vs0mg"},{"bike_id":"213bc904-ac7f-4cc9-bb02-fc34c779e745","system_id":"levelo_inurba_marseille","lat":43.27958,"lon":5.41052,"is_reserved":false,"is_disabled":false,"rental_uris":{"android":"levelo://app?vid=213bc904-ac7f-4cc9-bb02-fc34c779e745","ios":"levelo://app?vid=213bc904-ac7f-4cc9-bb02-fc34c779e745"},"vehicle_type_id":"4","last_reported":1734973650,"current_range_meters":34000,"station_id":"ce4bhnp2rcd13ifvqh0g","pricing_plan_id":"cebpf4jnsgd1na2vs0mg"},{"bike_id":"652f906c-5e25-4f51-a03b-6af6fb0d93fa","system_id":"levelo_inurba_marseille","lat":43.29596,"lon":5.36734,"is_reserved":false,"is_disabled":false,"rental_uris":{"android":"levelo://app?vid=652f906c-5e25-4f51-a03b-6af6fb0d93fa","ios":"levelo://app?vid=652f906c-5e25-4f51-a03b-6af6fb0d93fa"},"vehicle_type_id":"4","last_reported":1734973650,"current_range_meters":12400,"station_id":"ce4bgph2rcd13ifvqc2g","pricing_plan_id":"cebpf4jnsgd1na2vs0mg"},{"bike_id":"4c4857d7-70f5-4e5f-9880-b0ffae53456c","system_id":"levelo_inurba_marseille","lat":43.31244,"lon":5.36883,"is_reserved":false,"is_disabled":false,"rental_uris":{"android":"levelo://app?vid=4c4857d7-70f5-4e5f-9880-b0ffae53456c","ios":"levelo://app?vid=4c4857d7-70f5-4e5f-9880-b0ffae53456c"},"vehicle_type_id":"4","last_reported":1734973650,"current_range_meters":29600,"station_id":"ce4bgl92rcd13ifvqbq0","pricing_plan_id":"cebpf4jnsgd1na2vs0mg"},{"bike_id":"13c39096-92de-47dd-a9ee-5b5cda0c5bbc","system_id":"levelo_inurba_marseille","lat":43.24646,"lon":5.38903,"is_reserved":false,"is_disabled":false,"rental_uris":{"android":"levelo://app?vid=13c39096-92de-47dd-a9ee-5b5cda0c5bbc","ios":"levelo://app?vid=13c39096-92de-47dd-a9ee-5b5cda0c5bbc"},"vehicle_type_id":"4","last_reported":1734973650,"current_range_meters":34800,"station_id":"ce4bhg12rcd13ifvqf60","pricing_plan_id":"cebpf4jnsgd1na2vs0mg"},{"bike_id":"c787057b-d2c3-47cb-afbf-5583f193229c","system_id":"levelo_inurba_marseille","lat":43.2466,"lon":5.38902,"is_reserved":false,"is_disabled":false,"rental_uris":{"android":"levelo://app?vid=c787057b-d2c3-47cb-afbf-5583f193229c","ios":"levelo://app?vid=c787057b-d2c3-47cb-afbf-5583f193229c"},"vehicle_type_id":"4","last_reported":1734973650,"current_range_meters":38800,"station_id":"ce4bhg12rcd13ifvqf60","pricing_plan_id":"cebpf4jnsgd1na2vs0mg"},{"bike_id":"d1408c54-5d72-4a56-aaa4-4833cdef7353","system_id":"levelo_inurba_marseille","lat":43.29187,"lon":5.3579,"is_reserved":false,"is_disabled":false,"rental_uris":{"android":"levelo://app?vid=d1408c54-5d72-4a56-aaa4-4833cdef7353","ios":"levelo://app?vid=d1408c54-5d72-4a56-aaa4-4833cdef7353"},"vehicle_type_id":"4","last_reported":1734973650,"current_range_meters":36400,"station_id":"ce4bhb12rcd13ifvqel0","pricing_plan_id":"cebpf4jnsgd1na2vs0mg"},{"bike_id":"5329f495-98d5-4ee4-b53e-b98bd156a829","system_id":"levelo_inurba_marseille","lat":43.30134,"lon":5.39866,"is_reserved":false,"is_disabled":false,"rental_uris":{"android":"levelo://app?vid=5329f495-98d5-4ee4-b53e-b98bd156a829","ios":"levelo://app?vid=5329f495-98d5-4ee4-b53e-b98bd156a829"},"vehicle_type_id":"4","last_reported":1734973650,"current_range_meters":38400,"station_id":"ce4bh0h2rcd13ifvqd40","pricing_plan_id":"cebpf4jnsgd1na2vs0mg"},{"bike_id":"9c7eeb5b-f97e-4fc2-ab19-aaf7531bd9e2","system_id":"levelo_inurba_marseille","lat":43.3016,"lon":5.38084,"is_reserved":false,"is_disabled":false,"rental_uris":{"android":"levelo://app?vid=9c7eeb5b-f97e-4fc2-ab19-aaf7531bd9e2","ios":"levelo://app?vid=9c7eeb5b-f97e-4fc2-ab19-aaf7531bd9e2"},"vehicle_type_id":"4","last_reported":1734973650,"current_range_meters":29600,"station_id":"ce4bgjp2rcd13ifvqbh0","pricing_plan_id":"cebpf4jnsgd1na2vs0mg"},{"bike_id":"b7d3cdb3-4a74-4f21-b9ae-f381e76027e7","system_id":"levelo_inurba_marseille","lat":43.30128,"lon":5.38784,"is_reserved":false,"is_disabled":false,"rental_uris":{"android":"levelo://app?vid=b7d3cdb3-4a74-4f21-b9ae-f381e76027e7","ios":"levelo://app?vid=b7d3cdb3-4a74-4f21-b9ae-f381e76027e7"},"vehicle_type_id":"4","last_reported":1734973650,"current_range_meters":38800,"station_id":"ce4bghh2rcd13ifvqb60","pricing_plan_id":"cebpf4jnsgd1na2vs0mg"},{"bike_id":"4a1cd71c-9afb-4867-b720-a6766b060101","system_id":"levelo_inurba_marseille","lat":43.30149,"lon":5.38095,"is_reserved":false,"is_disabled":false,"rental_uris":{"android":"levelo://app?vid=4a1cd71c-9afb-4867-b720-a6766b060101","ios":"levelo://app?vid=4a1cd71c-9afb-4867-b720-a6766b060101"},"vehicle_type_id":"4","last_reported":1734973650,"current_range_meters":36400,"station_id":"ce4bgjp2rcd13ifvqbh0","pricing_plan_id":"cebpf4jnsgd1na2vs0mg"},{"bike_id":"8066f755-db4c-4d64-90dc-1bd394e94fa2","system_id":"levelo_inurba_marseille","lat":43.33022,"lon":5.39043,"is_reserved":false,"is_disabled":false,"rental_uris":{"android":"levelo://app?vid=8066f755-db4c-4d64-90dc-1bd394e94fa2","ios":"levelo://app?vid=8066f755-db4c-4d64-90dc-1bd394e94fa2"},"vehicle_type_id":"4","last_reported":1734973650,"current_range_meters":24800,"station_id":"ce4bhr92rcd13ifvqhrg","pricing_plan_id":"cebpf4jnsgd1na2vs0mg"},{"bike_id":"4e6d0ca2-6374-490a-b48e-6cba90785a4f","system_id":"levelo_inurba_marseille","lat":43.24649,"lon":5.38908,"is_reserved":false,"is_disabled":false,"rental_uris":{"android":"levelo://app?vid=4e6d0ca2-6374-490a-b48e-6cba90785a4f","ios":"levelo://app?vid=4e6d0ca2-6374-490a-b48e-6cba90785a4f"},"vehicle_type_id":"4","last_reported":1734973650,"current_range_meters":26000,"station_id":"ce4bhg12rcd13ifvqf60","pricing_plan_id":"cebpf4jnsgd1na2vs0mg"},{"bike_id":"7530b7fa-2470-4a96-8350-8ef88aa02d45","system_id":"levelo_inurba_marseille","lat":43.28618,"lon":5.35108,"is_reserved":false,"is_disabled":false,"rental_uris":{"android":"levelo://app?vid=7530b7fa-2470-4a96-8350-8ef88aa02d45","ios":"levelo://app?vid=7530b7fa-2470-4a96-8350-8ef88aa02d45"},"vehicle_type_id":"4","last_reported":1734973650,"current_range_meters":33600,"station_id":"ce4bhch2rcd13ifvqeug","pricing_plan_id":"cebpf4jnsgd1na2vs0mg"},{"bike_id":"f956d62c-1dc2-41dd-b80f-de98aa147ea9","system_id":"levelo_inurba_marseille","lat":43.27813,"lon":5.40716,"is_reserved":false,"is_disabled":false,"rental_uris":{"android":"levelo://app?vid=f956d62c-1dc2-41dd-b80f-de98aa147ea9","ios":"levelo://app?vid=f956d62c-1dc2-41dd-b80f-de98aa147ea9"},"vehicle_type_id":"4","last_reported":1734973650,"current_range_meters":7200,"station_id":"ce4bhnh2rcd13ifvqgtg","pricing_plan_id":"cebpf4jnsgd1na2vs0mg"},{"bike_id":"f88f24ca-fe58-4e52-b7e0-53c92a3dcbd4","system_id":"levelo_inurba_marseille","lat":43.26785,"lon":5.39423,"is_reserved":false,"is_disabled":false,"rental_uris":{"android":"levelo://app?vid=f88f24ca-fe58-4e52-b7e0-53c92a3dcbd4","ios":"levelo://app?vid=f88f24ca-fe58-4e52-b7e0-53c92a3dcbd4"},"vehicle_type_id":"4","last_reported":1734973650,"current_range_meters":35200,"station_id":"ce4bhh12rcd13ifvqfg0","pricing_plan_id":"cebpf4jnsgd1na2vs0mg"},{"bike_id":"e6f255e7-c3a0-4128-a0b1-f18581ab0420","system_id":"levelo_inurba_marseille","lat":43.29907,"lon":5.38137,"is_reserved":false,"is_disabled":false,"rental_uris":{"android":"levelo://app?vid=e6f255e7-c3a0-4128-a0b1-f18581ab0420","ios":"levelo://app?vid=e6f255e7-c3a0-4128-a0b1-f18581ab0420"},"vehicle_type_id":"4","last_reported":1734973650,"current_range_meters":39200,"station_id":"ce4bgj12rcd13ifvqbc0","pricing_plan_id":"cebpf4jnsgd1na2vs0mg"},{"bike_id":"ba65d07a-204d-4be9-96e0-b91b2ca6d251","system_id":"levelo_inurba_marseille","lat":43.26944,"lon":5.40261,"is_reserved":false,"is_disabled":false,"rental_uris":{"android":"levelo://app?vid=ba65d07a-204d-4be9-96e0-b91b2ca6d251","ios":"levelo://app?vid=ba65d07a-204d-4be9-96e0-b91b2ca6d251"},"vehicle_type_id":"4","last_reported":1734973650,"current_range_meters":16800,"station_id":"cjm6bp8fraef2m0cb0m0","pricing_plan_id":"cebpf4jnsgd1na2vs0mg"},{"bike_id":"fa46f150-8345-4c47-89dc-dd714e8f2794","system_id":"levelo_inurba_marseille","lat":43.29704,"lon":5.3661,"is_reserved":false,"is_disabled":false,"rental_uris":{"android":"levelo://app?vid=fa46f150-8345-4c47-89dc-dd714e8f2794","ios":"levelo://app?vid=fa46f150-8345-4c47-89dc-dd714e8f2794"},"vehicle_type_id":"4","last_reported":1734973650,"current_range_meters":37600,"station_id":"ce4bgn12rcd13ifvqbt0","pricing_plan_id":"cebpf4jnsgd1na2vs0mg"},{"bike_id":"43472636-57cd-411f-b3bd-d2bda7647d04","system_id":"levelo_inurba_marseille","lat":43.26941,"lon":5.40252,"is_reserved":false,"is_disabled":false,"rental_uris":{"android":"levelo://app?vid=43472636-57cd-411f-b3bd-d2bda7647d04","ios":"levelo://app?vid=43472636-57cd-411f-b3bd-d2bda7647d04"},"vehicle_type_id":"4","last_reported":1734973650,"current_range_meters":16400,"station_id":"cjm6bp8fraef2m0cb0m0","pricing_plan_id":"cebpf4jnsgd1na2vs0mg"},{"bike_id":"56c5b33c-c228-41ca-80c4-e4e2a1f7cb88","system_id":"levelo_inurba_marseille","lat":43.30458,"lon":5.38894,"is_reserved":false,"is_disabled":false,"rental_uris":{"android":"levelo://app?vid=56c5b33c-c228-41ca-80c4-e4e2a1f7cb88","ios":"levelo://app?vid=56c5b33c-c228-41ca-80c4-e4e2a1f7cb88"},"vehicle_type_id":"4","last_reported":1734973650,"current_range_meters":35600,"station_id":"ce4bgk12rcd13ifvqbi0","pricing_plan_id":"cebpf4jnsgd1na2vs0mg"},{"bike_id":"3174c70f-58ab-444d-925c-f2800db09601","system_id":"levelo_inurba_marseille","lat":43.29527,"lon":5.37494,"is_reserved":false,"is_disabled":false,"rental_uris":{"android":"levelo://app?vid=3174c70f-58ab-444d-925c-f2800db09601","ios":"levelo://app?vid=3174c70f-58ab-444d-925c-f2800db09601"},"vehicle_type_id":"4","last_reported":1734973650,"current_range_meters":32400,"station_id":"ce4bgkp2rcd13ifvqbmg","pricing_plan_id":"cebpf4jnsgd1na2vs0mg"},{"bike_id":"83018152-5630-44de-83fd-2c686833736b","system_id":"levelo_inurba_marseille","lat":43.28617,"lon":5.3511,"is_reserved":false,"is_disabled":false,"rental_uris":{"android":"levelo://app?vid=83018152-5630-44de-83fd-2c686833736b","ios":"levelo://app?vid=83018152-5630-44de-83fd-2c686833736b"},"vehicle_type_id":"4","last_reported":1734973650,"current_range_meters":6800,"station_id":"ce4bhch2rcd13ifvqeug","pricing_plan_id":"cebpf4jnsgd1na2vs0mg"},{"bike_id":"58975c95-cbcc-4de2-ac6a-2c5c03741a00","system_id":"levelo_inurba_marseille","lat":43.2705,"lon":5.42259,"is_reserved":false,"is_disabled":false,"rental_uris":{"android":"levelo://app?vid=58975c95-cbcc-4de2-ac6a-2c5c03741a00","ios":"levelo://app?vid=58975c95-cbcc-4de2-ac6a-2c5c03741a00"},"vehicle_type_id":"4","last_reported":1734973650,"current_range_meters":38800,"station_id":"ce4bhk92rcd13ifvqgb0","pricing_plan_id":"cebpf4jnsgd1na2vs0mg"},{"bike_id":"dbf0bbb1-ae12-4a56-8df6-19b3f611ae3d","system_id":"levelo_inurba_marseille","lat":43.30254,"lon":5.40047,"is_reserved":false,"is_disabled":true,"rental_uris":{"android":"levelo://app?vid=dbf0bbb1-ae12-4a56-8df6-19b3f611ae3d","ios":"levelo://app?vid=dbf0bbb1-ae12-4a56-8df6-19b3f611ae3d"},"vehicle_type_id":"4","last_reported":1734973650,"current_range_meters":0,"station_id":"ce4bgvh2rcd13ifvqcs0","pricing_plan_id":"cebpf4jnsgd1na2vs0mg"},{"bike_id":"e5b7f70e-d8e3-44d9-8582-413c5967227d","system_id":"levelo_inurba_marseille","lat":43.26488,"lon":5.3955,"is_reserved":false,"is_disabled":false,"rental_uris":{"android":"levelo://app?vid=e5b7f70e-d8e3-44d9-8582-413c5967227d","ios":"levelo://app?vid=e5b7f70e-d8e3-44d9-8582-413c5967227d"},"vehicle_type_id":"4","last_reported":1734973650,"current_range_meters":27200,"station_id":"ce4bhi12rcd13ifvqfq0","pricing_plan_id":"cebpf4jnsgd1na2vs0mg"},{"bike_id":"591e56d3-570f-4000-8104-235340497ab2","system_id":"levelo_inurba_marseille","lat":43.280304,"lon":5.369504,"is_reserved":false,"is_disabled":false,"rental_uris":{"android":"levelo://app?vid=591e56d3-570f-4000-8104-235340497ab2","ios":"levelo://app?vid=591e56d3-570f-4000-8104-235340497ab2"},"vehicle_type_id":"4","last_reported":1734973650,"current_range_meters":38400,"station_id":"ce4bha12rcd13ifvqef0","pricing_plan_id":"cebpf4jnsgd1na2vs0mg"},{"bike_id":"7fcfcdae-fb95-4851-a4c0-8edec316eb33","system_id":"levelo_inurba_marseille","lat":43.26693,"lon":5.38268,"is_reserved":false,"is_disabled":false,"rental_uris":{"android":"levelo://app?vid=7fcfcdae-fb95-4851-a4c0-8edec316eb33","ios":"levelo://app?vid=7fcfcdae-fb95-4851-a4c0-8edec316eb33"},"vehicle_type_id":"4","last_reported":1734973650,"current_range_meters":36800,"station_id":"ce4bhg92rcd13ifvqf90","pricing_plan_id":"cebpf4jnsgd1na2vs0mg"},{"bike_id":"f85da1fc-5547-42bf-9797-24e626653e67","system_id":"levelo_inurba_marseille","lat":43.2679,"lon":5.39423,"is_reserved":false,"is_disabled":false,"rental_uris":{"android":"levelo://app?vid=f85da1fc-5547-42bf-9797-24e626653e67","ios":"levelo://app?vid=f85da1fc-5547-42bf-9797-24e626653e67"},"vehicle_type_id":"4","last_reported":1734973650,"current_range_meters":38000,"station_id":"ce4bhh12rcd13ifvqfg0","pricing_plan_id":"cebpf4jnsgd1na2vs0mg"},{"bike_id":"95ab7931-319a-4b65-9970-519f4cff49d2","system_id":"levelo_inurba_marseille","lat":43.29293,"lon":5.3744,"is_reserved":false,"is_disabled":false,"rental_uris":{"android":"levelo://app?vid=95ab7931-319a-4b65-9970-519f4cff49d2","ios":"levelo://app?vid=95ab7931-319a-4b65-9970-519f4cff49d2"},"vehicle_type_id":"4","last_reported":1734973650,"current_range_meters":38800,"station_id":"ce4bgi12rcd13ifvqb70","pricing_plan_id":"cebpf4jnsgd1na2vs0mg"},{"bike_id":"88c29d17-d4c2-43f6-b497-e13d33053207","system_id":"levelo_inurba_marseille","lat":43.29568,"lon":5.39979,"is_reserved":false,"is_disabled":false,"rental_uris":{"android":"levelo://app?vid=88c29d17-d4c2-43f6-b497-e13d33053207","ios":"levelo://app?vid=88c29d17-d4c2-43f6-b497-e13d33053207"},"vehicle_type_id":"4","last_reported":1734973650,"current_range_meters":20400,"station_id":"ce4bh312rcd13ifvqdj0","pricing_plan_id":"cebpf4jnsgd1na2vs0mg"},{"bike_id":"42f3c388-f07f-4232-8e3f-7353422bc011","system_id":"levelo_inurba_marseille","lat":43.32065,"lon":5.41598,"is_reserved":false,"is_disabled":false,"rental_uris":{"android":"levelo://app?vid=42f3c388-f07f-4232-8e3f-7353422bc011","ios":"levelo://app?vid=42f3c388-f07f-4232-8e3f-7353422bc011"},"vehicle_type_id":"4","last_reported":1734973650,"current_range_meters":35600,"station_id":"ce4bhq92rcd13ifvqhkg","pricing_plan_id":"cebpf4jnsgd1na2vs0mg"},{"bike_id":"1bfb59b3-5d70-4c84-8077-a6771e996a2b","system_id":"levelo_inurba_marseille","lat":43.29942,"lon":5.36553,"is_reserved":false,"is_disabled":false,"rental_uris":{"android":"levelo://app?vid=1bfb59b3-5d70-4c84-8077-a6771e996a2b","ios":"levelo://app?vid=1bfb59b3-5d70-4c84-8077-a6771e996a2b"},"vehicle_type_id":"4","last_reported":1734973650,"current_range_meters":38400,"station_id":"ce4bgm92rcd13ifvqbr0","pricing_plan_id":"cebpf4jnsgd1na2vs0mg"},{"bike_id":"373eb665-430d-4124-b86f-17fdd0ad9196","system_id":"levelo_inurba_marseille","lat":43.29805,"lon":5.38099,"is_reserved":false,"is_disabled":false,"rental_uris":{"android":"levelo://app?vid=373eb665-430d-4124-b86f-17fdd0ad9196","ios":"levelo://app?vid=373eb665-430d-4124-b86f-17fdd0ad9196"},"vehicle_type_id":"4","last_reported":1734973650,"current_range_meters":32800,"station_id":"ce4bgip2rcd13ifvqbb0","pricing_plan_id":"cebpf4jnsgd1na2vs0mg"},{"bike_id":"b8b805f3-1918-4166-9b05-e39eb8ada775","system_id":"levelo_inurba_marseille","lat":43.27211,"lon":5.39187,"is_reserved":false,"is_disabled":false,"rental_uris":{"android":"levelo://app?vid=b8b805f3-1918-4166-9b05-e39eb8ada775","ios":"levelo://app?vid=b8b805f3-1918-4166-9b05-e39eb8ada775"},"vehicle_type_id":"4","last_reported":1734973650,"current_range_meters":24400,"station_id":"ce4bhhp2rcd13ifvqfm0","pricing_plan_id":"cebpf4jnsgd1na2vs0mg"},{"bike_id":"68db534e-0067-497a-971b-c0ac21bdd722","system_id":"levelo_inurba_marseille","lat":43.261937,"lon":5.379256,"is_reserved":false,"is_disabled":false,"rental_uris":{"android":"levelo://app?vid=68db534e-0067-497a-971b-c0ac21bdd722","ios":"levelo://app?vid=68db534e-0067-497a-971b-c0ac21bdd722"},"vehicle_type_id":"4","last_reported":1734973650,"current_range_meters":36400,"station_id":"ce4bhjp2rcd13ifvqg90","pricing_plan_id":"cebpf4jnsgd1na2vs0mg"},{"bike_id":"1e73c81f-7d8d-42c9-8216-05e0c8d2e4e9","system_id":"levelo_inurba_marseille","lat":43.29619,"lon":5.37722,"is_reserved":false,"is_disabled":false,"rental_uris":{"android":"levelo://app?vid=1e73c81f-7d8d-42c9-8216-05e0c8d2e4e9","ios":"levelo://app?vid=1e73c81f-7d8d-42c9-8216-05e0c8d2e4e9"},"vehicle_type_id":"4","last_reported":1734973650,"current_range_meters":38800,"station_id":"ce4bgi92rcd13ifvqb90","pricing_plan_id":"cebpf4jnsgd1na2vs0mg"},{"bike_id":"180c51e8-707b-4d3a-bce6-60033fd0e9cc","system_id":"levelo_inurba_marseille","lat":43.29897,"lon":5.38139,"is_reserved":false,"is_disabled":false,"rental_uris":{"android":"levelo://app?vid=180c51e8-707b-4d3a-bce6-60033fd0e9cc","ios":"levelo://app?vid=180c51e8-707b-4d3a-bce6-60033fd0e9cc"},"vehicle_type_id":"4","last_reported":1734973650,"current_range_meters":39200,"station_id":"ce4bgj12rcd13ifvqbc0","pricing_plan_id":"cebpf4jnsgd1na2vs0mg"},{"bike_id":"af30a030-7bba-44d5-989f-f377db8c7017","system_id":"levelo_inurba_marseille","lat":43.2957,"lon":5.375,"is_reserved":false,"is_disabled":false,"rental_uris":{"android":"levelo://app?vid=af30a030-7bba-44d5-989f-f377db8c7017","ios":"levelo://app?vid=af30a030-7bba-44d5-989f-f377db8c7017"},"vehicle_type_id":"4","last_reported":1734973650,"current_range_meters":35200,"station_id":"ce4bgh92rcd13ifvqb50","pricing_plan_id":"cebpf4jnsgd1na2vs0mg"},{"bike_id":"18bc712f-05f8-4bfe-a81a-9b0f3911a5b1","system_id":"levelo_inurba_marseille","lat":43.2756,"lon":5.38421,"is_reserved":false,"is_disabled":false,"rental_uris":{"android":"levelo://app?vid=18bc712f-05f8-4bfe-a81a-9b0f3911a5b1","ios":"levelo://app?vid=18bc712f-05f8-4bfe-a81a-9b0f3911a5b1"},"vehicle_type_id":"4","last_reported":1734973650,"current_range_meters":38800,"station_id":"ce4bhh92rcd13ifvqfi0","pricing_plan_id":"cebpf4jnsgd1na2vs0mg"},{"bike_id":"9651d270-5a0b-4b75-9375-14a6d48c46ac","system_id":"levelo_inurba_marseille","lat":43.30151,"lon":5.38073,"is_reserved":false,"is_disabled":false,"rental_uris":{"android":"levelo://app?vid=9651d270-5a0b-4b75-9375-14a6d48c46ac","ios":"levelo://app?vid=9651d270-5a0b-4b75-9375-14a6d48c46ac"},"vehicle_type_id":"4","last_reported":1734973650,"current_range_meters":38800,"station_id":"ce4bgjp2rcd13ifvqbh0","pricing_plan_id":"cebpf4jnsgd1na2vs0mg"},{"bike_id":"2d995820-d040-480b-a897-bf9d5f03891e","system_id":"levelo_inurba_marseille","lat":43.29388,"lon":5.37857,"is_reserved":false,"is_disabled":true,"rental_uris":{"android":"levelo://app?vid=2d995820-d040-480b-a897-bf9d5f03891e","ios":"levelo://app?vid=2d995820-d040-480b-a897-bf9d5f03891e"},"vehicle_type_id":"4","last_reported":1734973650,"current_range_meters":30000,"station_id":"ce4bgjh2rcd13ifvqbf0","pricing_plan_id":"cebpf4jnsgd1na2vs0mg"},{"bike_id":"f47cc58d-9be1-465e-a2bb-aa65af959fc4","system_id":"levelo_inurba_marseille","lat":43.28625,"lon":5.35146,"is_reserved":false,"is_disabled":true,"rental_uris":{"android":"levelo://app?vid=f47cc58d-9be1-465e-a2bb-aa65af959fc4","ios":"levelo://app?vid=f47cc58d-9be1-465e-a2bb-aa65af959fc4"},"vehicle_type_id":"4","last_reported":1734973650,"current_range_meters":0,"station_id":"ce4bhch2rcd13ifvqeug","pricing_plan_id":"cebpf4jnsgd1na2vs0mg"},{"bike_id":"83bf9c78-f394-4941-bb08-edfb79bc7309","system_id":"levelo_inurba_marseille","lat":43.29723,"lon":5.37698,"is_reserved":false,"is_disabled":false,"rental_uris":{"android":"levelo://app?vid=83bf9c78-f394-4941-bb08-edfb79bc7309","ios":"levelo://app?vid=83bf9c78-f394-4941-bb08-edfb79bc7309"},"vehicle_type_id":"4","last_reported":1734973650,"current_range_meters":12400,"station_id":"ce4bgkh2rcd13ifvqbl0","pricing_plan_id":"cebpf4jnsgd1na2vs0mg"},{"bike_id":"8aa29a25-71b0-47b4-8794-3774a275bf08","system_id":"levelo_inurba_marseille","lat":43.27181,"lon":5.4099,"is_reserved":false,"is_disabled":false,"rental_uris":{"android":"levelo://app?vid=8aa29a25-71b0-47b4-8794-3774a275bf08","ios":"levelo://app?vid=8aa29a25-71b0-47b4-8794-3774a275bf08"},"vehicle_type_id":"4","last_reported":1734973650,"current_range_meters":19200,"station_id":"ce4bhl12rcd13ifvqgf0","pricing_plan_id":"cebpf4jnsgd1na2vs0mg"},{"bike_id":"50771762-6294-492b-bae5-db8bd88e73ed","system_id":"levelo_inurba_marseille","lat":43.27432,"lon":5.39421,"is_reserved":false,"is_disabled":false,"rental_uris":{"android":"levelo://app?vid=50771762-6294-492b-bae5-db8bd88e73ed","ios":"levelo://app?vid=50771762-6294-492b-bae5-db8bd88e73ed"},"vehicle_type_id":"4","last_reported":1734973650,"current_range_meters":39200,"station_id":"ce4bhdp2rcd13ifvqf20","pricing_plan_id":"cebpf4jnsgd1na2vs0mg"},{"bike_id":"b9248108-92a5-4b77-ba17-3289b105396b","system_id":"levelo_inurba_marseille","lat":43.3169,"lon":5.40467,"is_reserved":false,"is_disabled":true,"rental_uris":{"android":"levelo://app?vid=b9248108-92a5-4b77-ba17-3289b105396b","ios":"levelo://app?vid=b9248108-92a5-4b77-ba17-3289b105396b"},"vehicle_type_id":"4","last_reported":1734973650,"current_range_meters":7200,"station_id":"ce4bh012rcd13ifvqd00","pricing_plan_id":"cebpf4jnsgd1na2vs0mg"},{"bike_id":"0b1dbe83-06bc-4dd0-a526-062173db1059","system_id":"levelo_inurba_marseille","lat":43.29254,"lon":5.40908,"is_reserved":false,"is_disabled":false,"rental_uris":{"android":"levelo://app?vid=0b1dbe83-06bc-4dd0-a526-062173db1059","ios":"levelo://app?vid=0b1dbe83-06bc-4dd0-a526-062173db1059"},"vehicle_type_id":"4","last_reported":1734973650,"current_range_meters":25600,"station_id":"ce4bh192rcd13ifvqdc0","pricing_plan_id":"cebpf4jnsgd1na2vs0mg"},{"bike_id":"6fc06629-22a5-4a9c-9ff7-c08cb127b87d","system_id":"levelo_inurba_marseille","lat":43.30247,"lon":5.40052,"is_reserved":false,"is_disabled":false,"rental_uris":{"android":"levelo://app?vid=6fc06629-22a5-4a9c-9ff7-c08cb127b87d","ios":"levelo://app?vid=6fc06629-22a5-4a9c-9ff7-c08cb127b87d"},"vehicle_type_id":"4","last_reported":1734973650,"current_range_meters":3600,"station_id":"ce4bgvh2rcd13ifvqcs0","pricing_plan_id":"cebpf4jnsgd1na2vs0mg"},{"bike_id":"82719b16-0394-44a1-963a-3161d6b762b8","system_id":"levelo_inurba_marseille","lat":43.29635,"lon":5.3715,"is_reserved":false,"is_disabled":false,"rental_uris":{"android":"levelo://app?vid=82719b16-0394-44a1-963a-3161d6b762b8","ios":"levelo://app?vid=82719b16-0394-44a1-963a-3161d6b762b8"},"vehicle_type_id":"4","last_reported":1734973650,"current_range_meters":32800,"station_id":"ce4bgnh2rcd13ifvqc0g","pricing_plan_id":"cebpf4jnsgd1na2vs0mg"},{"bike_id":"a4b5bec5-ba8f-4a0b-876d-7648f743eb17","system_id":"levelo_inurba_marseille","lat":43.29067,"lon":5.37179,"is_reserved":false,"is_disabled":false,"rental_uris":{"android":"levelo://app?vid=a4b5bec5-ba8f-4a0b-876d-7648f743eb17","ios":"levelo://app?vid=a4b5bec5-ba8f-4a0b-876d-7648f743eb17"},"vehicle_type_id":"4","last_reported":1734973650,"current_range_meters":36800,"station_id":"ce4bh5p2rcd13ifvqe4g","pricing_plan_id":"cebpf4jnsgd1na2vs0mg"},{"bike_id":"660233e0-f9a1-4cce-953c-a98bfedb97ce","system_id":"levelo_inurba_marseille","lat":43.30554,"lon":5.36535,"is_reserved":false,"is_disabled":false,"rental_uris":{"android":"levelo://app?vid=660233e0-f9a1-4cce-953c-a98bfedb97ce","ios":"levelo://app?vid=660233e0-f9a1-4cce-953c-a98bfedb97ce"},"vehicle_type_id":"4","last_reported":1734973650,"current_range_meters":30800,"station_id":"ce4bgs12rcd13ifvqcag","pricing_plan_id":"cebpf4jnsgd1na2vs0mg"},{"bike_id":"ecbdaea9-ccce-4176-9802-017b9ea68a89","system_id":"levelo_inurba_marseille","lat":43.32043,"lon":5.41569,"is_reserved":false,"is_disabled":false,"rental_uris":{"android":"levelo://app?vid=ecbdaea9-ccce-4176-9802-017b9ea68a89","ios":"levelo://app?vid=ecbdaea9-ccce-4176-9802-017b9ea68a89"},"vehicle_type_id":"4","last_reported":1734973650,"current_range_meters":27600,"station_id":"ce4bhq92rcd13ifvqhkg","pricing_plan_id":"cebpf4jnsgd1na2vs0mg"},{"bike_id":"7de60d4b-f107-4fc3-92e2-95aaabdc2b00","system_id":"levelo_inurba_marseille","lat":43.27561,"lon":5.38426,"is_reserved":false,"is_disabled":false,"rental_uris":{"android":"levelo://app?vid=7de60d4b-f107-4fc3-92e2-95aaabdc2b00","ios":"levelo://app?vid=7de60d4b-f107-4fc3-92e2-95aaabdc2b00"},"vehicle_type_id":"4","last_reported":1734973650,"current_range_meters":24000,"station_id":"ce4bhh92rcd13ifvqfi0","pricing_plan_id":"cebpf4jnsgd1na2vs0mg"},{"bike_id":"19e5709b-6406-4679-9e14-fab7a24fe73f","system_id":"levelo_inurba_marseille","lat":43.29258,"lon":5.3844,"is_reserved":false,"is_disabled":false,"rental_uris":{"android":"levelo://app?vid=19e5709b-6406-4679-9e14-fab7a24fe73f","ios":"levelo://app?vid=19e5709b-6406-4679-9e14-fab7a24fe73f"},"vehicle_type_id":"4","last_reported":1734973650,"current_range_meters":24000,"station_id":"ce4bh692rcd13ifvqea0","pricing_plan_id":"cebpf4jnsgd1na2vs0mg"},{"bike_id":"5f961953-3f2c-47e0-a98a-788084433e84","system_id":"levelo_inurba_marseille","lat":43.23189,"lon":5.39987,"is_reserved":false,"is_disabled":false,"rental_uris":{"android":"levelo://app?vid=5f961953-3f2c-47e0-a98a-788084433e84","ios":"levelo://app?vid=5f961953-3f2c-47e0-a98a-788084433e84"},"vehicle_type_id":"4","last_reported":1734973650,"current_range_meters":36400,"station_id":"ce4bhn12rcd13ifvqgqg","pricing_plan_id":"cebpf4jnsgd1na2vs0mg"},{"bike_id":"0d9e8a85-f042-4a32-8e00-03eea6698e75","system_id":"levelo_inurba_marseille","lat":43.31062,"lon":5.38342,"is_reserved":false,"is_disabled":false,"rental_uris":{"android":"levelo://app?vid=0d9e8a85-f042-4a32-8e00-03eea6698e75","ios":"levelo://app?vid=0d9e8a85-f042-4a32-8e00-03eea6698e75"},"vehicle_type_id":"4","last_reported":1734973650,"current_range_meters":36400,"station_id":"ce4bgv92rcd13ifvqcr0","pricing_plan_id":"cebpf4jnsgd1na2vs0mg"},{"bike_id":"537ef1bf-3a78-45af-b334-3a2c52a599a8","system_id":"levelo_inurba_marseille","lat":43.34146,"lon":5.40902,"is_reserved":false,"is_disabled":false,"rental_uris":{"android":"levelo://app?vid=537ef1bf-3a78-45af-b334-3a2c52a599a8","ios":"levelo://app?vid=537ef1bf-3a78-45af-b334-3a2c52a599a8"},"vehicle_type_id":"4","last_reported":1734973650,"current_range_meters":36000,"station_id":"ce4bhqh2rcd13ifvqhlg","pricing_plan_id":"cebpf4jnsgd1na2vs0mg"},{"bike_id":"c59345d4-1e21-4d77-99bd-e0121b8e1fb8","system_id":"levelo_inurba_marseille","lat":43.24818,"lon":5.37444,"is_reserved":false,"is_disabled":false,"rental_uris":{"android":"levelo://app?vid=c59345d4-1e21-4d77-99bd-e0121b8e1fb8","ios":"levelo://app?vid=c59345d4-1e21-4d77-99bd-e0121b8e1fb8"},"vehicle_type_id":"4","last_reported":1734973650,"current_range_meters":38400,"station_id":"ce4bhgh2rcd13ifvqfb0","pricing_plan_id":"cebpf4jnsgd1na2vs0mg"},{"bike_id":"a170b636-b0bc-4d53-95d7-9e44ebc84f8e","system_id":"levelo_inurba_marseille","lat":43.30143,"lon":5.39872,"is_reserved":false,"is_disabled":false,"rental_uris":{"android":"levelo://app?vid=a170b636-b0bc-4d53-95d7-9e44ebc84f8e","ios":"levelo://app?vid=a170b636-b0bc-4d53-95d7-9e44ebc84f8e"},"vehicle_type_id":"4","last_reported":1734973650,"current_range_meters":27600,"station_id":"ce4bh0h2rcd13ifvqd40","pricing_plan_id":"cebpf4jnsgd1na2vs0mg"},{"bike_id":"362d2839-57c3-42f6-b58b-7d866da00fb5","system_id":"levelo_inurba_marseille","lat":43.32111,"lon":5.36772,"is_reserved":false,"is_disabled":false,"rental_uris":{"android":"levelo://app?vid=362d2839-57c3-42f6-b58b-7d866da00fb5","ios":"levelo://app?vid=362d2839-57c3-42f6-b58b-7d866da00fb5"},"vehicle_type_id":"4","last_reported":1734973650,"current_range_meters":24400,"station_id":"ce4bhrh2rcd13ifvqhug","pricing_plan_id":"cebpf4jnsgd1na2vs0mg"},{"bike_id":"b07e0204-2c57-49d1-a1f7-320de8610e25","system_id":"levelo_inurba_marseille","lat":43.29402,"lon":5.37344,"is_reserved":false,"is_disabled":true,"rental_uris":{"android":"levelo://app?vid=b07e0204-2c57-49d1-a1f7-320de8610e25","ios":"levelo://app?vid=b07e0204-2c57-49d1-a1f7-320de8610e25"},"vehicle_type_id":"4","last_reported":1734973650,"current_range_meters":23200,"station_id":"","pricing_plan_id":"cebpf4jnsgd1na2vs0mg"},{"bike_id":"f97162d8-ac35-4106-9dab-07f272349842","system_id":"levelo_inurba_marseille","lat":43.25831,"lon":5.39436,"is_reserved":false,"is_disabled":false,"rental_uris":{"android":"levelo://app?vid=f97162d8-ac35-4106-9dab-07f272349842","ios":"levelo://app?vid=f97162d8-ac35-4106-9dab-07f272349842"},"vehicle_type_id":"4","last_reported":1734973650,"current_range_meters":9200,"station_id":"ce4bhip2rcd13ifvqft0","pricing_plan_id":"cebpf4jnsgd1na2vs0mg"},{"bike_id":"a22c6c33-be0d-40b1-b535-b083076c3b73","system_id":"levelo_inurba_marseille","lat":43.29728,"lon":5.37696,"is_reserved":false,"is_disabled":false,"rental_uris":{"android":"levelo://app?vid=a22c6c33-be0d-40b1-b535-b083076c3b73","ios":"levelo://app?vid=a22c6c33-be0d-40b1-b535-b083076c3b73"},"vehicle_type_id":"4","last_reported":1734973650,"current_range_meters":27200,"station_id":"ce4bgkh2rcd13ifvqbl0","pricing_plan_id":"cebpf4jnsgd1na2vs0mg"},{"bike_id":"7befd885-7fc8-4dc1-b970-da31c9e46ce6","system_id":"levelo_inurba_marseille","lat":43.260417,"lon":5.37543,"is_reserved":false,"is_disabled":false,"rental_uris":{"android":"levelo://app?vid=7befd885-7fc8-4dc1-b970-da31c9e46ce6","ios":"levelo://app?vid=7befd885-7fc8-4dc1-b970-da31c9e46ce6"},"vehicle_type_id":"4","last_reported":1734973650,"current_range_meters":31200,"station_id":"ce4bhgh2rcd13ifvqfa0","pricing_plan_id":"cebpf4jnsgd1na2vs0mg"},{"bike_id":"44e07267-2694-4b40-8211-687816e48549","system_id":"levelo_inurba_marseille","lat":43.26794,"lon":5.39416,"is_reserved":false,"is_disabled":false,"rental_uris":{"android":"levelo://app?vid=44e07267-2694-4b40-8211-687816e48549","ios":"levelo://app?vid=44e07267-2694-4b40-8211-687816e48549"},"vehicle_type_id":"4","last_reported":1734973650,"current_range_meters":24800,"station_id":"ce4bhh12rcd13ifvqfg0","pricing_plan_id":"cebpf4jnsgd1na2vs0mg"},{"bike_id":"f3fe0314-8e40-4845-abe1-4c14c28f0999","system_id":"levelo_inurba_marseille","lat":43.29248,"lon":5.40903,"is_reserved":false,"is_disabled":false,"rental_uris":{"android":"levelo://app?vid=f3fe0314-8e40-4845-abe1-4c14c28f0999","ios":"levelo://app?vid=f3fe0314-8e40-4845-abe1-4c14c28f0999"},"vehicle_type_id":"4","last_reported":1734973650,"current_range_meters":38800,"station_id":"ce4bh192rcd13ifvqdc0","pricing_plan_id":"cebpf4jnsgd1na2vs0mg"},{"bike_id":"bd04cbb4-2402-4a18-87e1-831b8038bca8","system_id":"levelo_inurba_marseille","lat":43.30138,"lon":5.37406,"is_reserved":false,"is_disabled":false,"rental_uris":{"android":"levelo://app?vid=bd04cbb4-2402-4a18-87e1-831b8038bca8","ios":"levelo://app?vid=bd04cbb4-2402-4a18-87e1-831b8038bca8"},"vehicle_type_id":"4","last_reported":1734973650,"current_range_meters":33200,"station_id":"ce4bgs92rcd13ifvqcc0","pricing_plan_id":"cebpf4jnsgd1na2vs0mg"},{"bike_id":"a52b6a95-03b2-4a39-91a2-596fa5130c55","system_id":"levelo_inurba_marseille","lat":43.26923,"lon":5.38922,"is_reserved":false,"is_disabled":false,"rental_uris":{"android":"levelo://app?vid=a52b6a95-03b2-4a39-91a2-596fa5130c55","ios":"levelo://app?vid=a52b6a95-03b2-4a39-91a2-596fa5130c55"},"vehicle_type_id":"4","last_reported":1734973650,"current_range_meters":25200,"station_id":"ce4bhhh2rcd13ifvqfl0","pricing_plan_id":"cebpf4jnsgd1na2vs0mg"},{"bike_id":"d8e19718-03bc-417c-998d-d1b1d907c453","system_id":"levelo_inurba_marseille","lat":43.26707,"lon":5.38264,"is_reserved":false,"is_disabled":false,"rental_uris":{"android":"levelo://app?vid=d8e19718-03bc-417c-998d-d1b1d907c453","ios":"levelo://app?vid=d8e19718-03bc-417c-998d-d1b1d907c453"},"vehicle_type_id":"4","last_reported":1734973650,"current_range_meters":17600,"station_id":"ce4bhg92rcd13ifvqf90","pricing_plan_id":"cebpf4jnsgd1na2vs0mg"},{"bike_id":"5eab5fd0-471d-45fb-8155-031855e25edc","system_id":"levelo_inurba_marseille","lat":43.29589,"lon":5.36742,"is_reserved":false,"is_disabled":false,"rental_uris":{"android":"levelo://app?vid=5eab5fd0-471d-45fb-8155-031855e25edc","ios":"levelo://app?vid=5eab5fd0-471d-45fb-8155-031855e25edc"},"vehicle_type_id":"4","last_reported":1734973650,"current_range_meters":9600,"station_id":"ce4bgph2rcd13ifvqc2g","pricing_plan_id":"cebpf4jnsgd1na2vs0mg"},{"bike_id":"0f9f1654-63fd-4b65-a8fb-a5beee04226f","system_id":"levelo_inurba_marseille","lat":43.29625,"lon":5.371549,"is_reserved":false,"is_disabled":false,"rental_uris":{"android":"levelo://app?vid=0f9f1654-63fd-4b65-a8fb-a5beee04226f","ios":"levelo://app?vid=0f9f1654-63fd-4b65-a8fb-a5beee04226f"},"vehicle_type_id":"4","last_reported":1734973650,"current_range_meters":39200,"station_id":"ce4bgnh2rcd13ifvqc0g","pricing_plan_id":"cebpf4jnsgd1na2vs0mg"},{"bike_id":"6c3c8f42-4bcb-408e-9858-378a4f0cdd8e","system_id":"levelo_inurba_marseille","lat":43.29232,"lon":5.40902,"is_reserved":false,"is_disabled":false,"rental_uris":{"android":"levelo://app?vid=6c3c8f42-4bcb-408e-9858-378a4f0cdd8e","ios":"levelo://app?vid=6c3c8f42-4bcb-408e-9858-378a4f0cdd8e"},"vehicle_type_id":"4","last_reported":1734973650,"current_range_meters":18800,"station_id":"ce4bh192rcd13ifvqdc0","pricing_plan_id":"cebpf4jnsgd1na2vs0mg"},{"bike_id":"9e318394-f763-49f8-913e-df55ebc1e1e4","system_id":"levelo_inurba_marseille","lat":43.28421,"lon":5.34996,"is_reserved":false,"is_disabled":false,"rental_uris":{"android":"levelo://app?vid=9e318394-f763-49f8-913e-df55ebc1e1e4","ios":"levelo://app?vid=9e318394-f763-49f8-913e-df55ebc1e1e4"},"vehicle_type_id":"4","last_reported":1734973650,"current_range_meters":15200,"station_id":"ce4bhbh2rcd13ifvqepg","pricing_plan_id":"cebpf4jnsgd1na2vs0mg"},{"bike_id":"134f27d3-43ec-49d1-8f23-8a0ad1f5ee6c","system_id":"levelo_inurba_marseille","lat":43.32495,"lon":5.36577,"is_reserved":false,"is_disabled":false,"rental_uris":{"android":"levelo://app?vid=134f27d3-43ec-49d1-8f23-8a0ad1f5ee6c","ios":"levelo://app?vid=134f27d3-43ec-49d1-8f23-8a0ad1f5ee6c"},"vehicle_type_id":"4","last_reported":1734973650,"current_range_meters":28800,"station_id":"ce4bhs12rcd13ifvqhvg","pricing_plan_id":"cebpf4jnsgd1na2vs0mg"},{"bike_id":"fadf82d5-673a-446c-9582-d82213e9281b","system_id":"levelo_inurba_marseille","lat":43.2917,"lon":5.37152,"is_reserved":false,"is_disabled":false,"rental_uris":{"android":"levelo://app?vid=fadf82d5-673a-446c-9582-d82213e9281b","ios":"levelo://app?vid=fadf82d5-673a-446c-9582-d82213e9281b"},"vehicle_type_id":"4","last_reported":1734973650,"current_range_meters":38800,"station_id":"ce4bha92rcd13ifvqeh0","pricing_plan_id":"cebpf4jnsgd1na2vs0mg"},{"bike_id":"af066aef-491f-4dfd-a92b-3d7fd222e99d","system_id":"levelo_inurba_marseille","lat":43.28116,"lon":5.37839,"is_reserved":false,"is_disabled":false,"rental_uris":{"android":"levelo://app?vid=af066aef-491f-4dfd-a92b-3d7fd222e99d","ios":"levelo://app?vid=af066aef-491f-4dfd-a92b-3d7fd222e99d"},"vehicle_type_id":"4","last_reported":1734973650,"current_range_meters":16000,"station_id":"ce4bha12rcd13ifvqee0","pricing_plan_id":"cebpf4jnsgd1na2vs0mg"},{"bike_id":"196a1708-bbd1-42ea-b824-bea7254f68ba","system_id":"levelo_inurba_marseille","lat":43.31328,"lon":5.39698,"is_reserved":false,"is_disabled":false,"rental_uris":{"android":"levelo://app?vid=196a1708-bbd1-42ea-b824-bea7254f68ba","ios":"levelo://app?vid=196a1708-bbd1-42ea-b824-bea7254f68ba"},"vehicle_type_id":"4","last_reported":1734973650,"current_range_meters":31200,"station_id":"ce4bgvp2rcd13ifvqcu0","pricing_plan_id":"cebpf4jnsgd1na2vs0mg"},{"bike_id":"4094ac40-fe97-4483-91f4-bc4b6a97b4f3","system_id":"levelo_inurba_marseille","lat":43.25824,"lon":5.39424,"is_reserved":false,"is_disabled":true,"rental_uris":{"android":"levelo://app?vid=4094ac40-fe97-4483-91f4-bc4b6a97b4f3","ios":"levelo://app?vid=4094ac40-fe97-4483-91f4-bc4b6a97b4f3"},"vehicle_type_id":"4","last_reported":1734973650,"current_range_meters":0,"station_id":"ce4bhip2rcd13ifvqft0","pricing_plan_id":"cebpf4jnsgd1na2vs0mg"},{"bike_id":"04ce46f2-9c25-4e1b-a03f-a64adf4accf5","system_id":"levelo_inurba_marseille","lat":43.24997,"lon":5.38938,"is_reserved":false,"is_disabled":false,"rental_uris":{"android":"levelo://app?vid=04ce46f2-9c25-4e1b-a03f-a64adf4accf5","ios":"levelo://app?vid=04ce46f2-9c25-4e1b-a03f-a64adf4accf5"},"vehicle_type_id":"4","last_reported":1734973650,"current_range_meters":32800,"station_id":"ce4bhgp2rcd13ifvqfd0","pricing_plan_id":"cebpf4jnsgd1na2vs0mg"},{"bike_id":"41fb6768-42a1-4d3c-85e7-f814727d885a","system_id":"levelo_inurba_marseille","lat":43.30427,"lon":5.39745,"is_reserved":false,"is_disabled":false,"rental_uris":{"android":"levelo://app?vid=41fb6768-42a1-4d3c-85e7-f814727d885a","ios":"levelo://app?vid=41fb6768-42a1-4d3c-85e7-f814727d885a"},"vehicle_type_id":"4","last_reported":1734973650,"current_range_meters":39200,"station_id":"ce4bh092rcd13ifvqd20","pricing_plan_id":"cebpf4jnsgd1na2vs0mg"},{"bike_id":"e05bf4ea-d74d-49ed-a7dc-94fa3a3cc350","system_id":"levelo_inurba_marseille","lat":43.3236,"lon":5.36748,"is_reserved":false,"is_disabled":false,"rental_uris":{"android":"levelo://app?vid=e05bf4ea-d74d-49ed-a7dc-94fa3a3cc350","ios":"levelo://app?vid=e05bf4ea-d74d-49ed-a7dc-94fa3a3cc350"},"vehicle_type_id":"4","last_reported":1734973650,"current_range_meters":12400,"station_id":"ce4bhsh2rcd13ifvqi2g","pricing_plan_id":"cebpf4jnsgd1na2vs0mg"},{"bike_id":"352a9584-53b4-445d-82e1-ba1a7afea687","system_id":"levelo_inurba_marseille","lat":43.30428,"lon":5.39753,"is_reserved":false,"is_disabled":false,"rental_uris":{"android":"levelo://app?vid=352a9584-53b4-445d-82e1-ba1a7afea687","ios":"levelo://app?vid=352a9584-53b4-445d-82e1-ba1a7afea687"},"vehicle_type_id":"4","last_reported":1734973650,"current_range_meters":38800,"station_id":"ce4bh092rcd13ifvqd20","pricing_plan_id":"cebpf4jnsgd1na2vs0mg"},{"bike_id":"d591ed7e-f6b1-4c2a-99af-0fb96c801503","system_id":"levelo_inurba_marseille","lat":43.28477,"lon":5.384286,"is_reserved":false,"is_disabled":true,"rental_uris":{"android":"levelo://app?vid=d591ed7e-f6b1-4c2a-99af-0fb96c801503","ios":"levelo://app?vid=d591ed7e-f6b1-4c2a-99af-0fb96c801503"},"vehicle_type_id":"4","last_reported":1734973650,"current_range_meters":24000,"station_id":"ce4bh512rcd13ifvqe3g","pricing_plan_id":"cebpf4jnsgd1na2vs0mg"},{"bike_id":"32ebf098-e002-4aa6-88f7-5b365ee05e11","system_id":"levelo_inurba_marseille","lat":43.24082,"lon":5.3774,"is_reserved":false,"is_disabled":true,"rental_uris":{"android":"levelo://app?vid=32ebf098-e002-4aa6-88f7-5b365ee05e11","ios":"levelo://app?vid=32ebf098-e002-4aa6-88f7-5b365ee05e11"},"vehicle_type_id":"4","last_reported":1734973650,"current_range_meters":0,"station_id":"ce4bhnp2rcd13ifvqgvg","pricing_plan_id":"cebpf4jnsgd1na2vs0mg"},{"bike_id":"4ee93c92-9880-47ce-bc8f-1615912a69b9","system_id":"levelo_inurba_marseille","lat":43.3234,"lon":5.40618,"is_reserved":false,"is_disabled":false,"rental_uris":{"android":"levelo://app?vid=4ee93c92-9880-47ce-bc8f-1615912a69b9","ios":"levelo://app?vid=4ee93c92-9880-47ce-bc8f-1615912a69b9"},"vehicle_type_id":"4","last_reported":1734973650,"current_range_meters":11200,"station_id":"ce4bhq92rcd13ifvqhjg","pricing_plan_id":"cebpf4jnsgd1na2vs0mg"},{"bike_id":"842888b9-0281-4137-8179-95fdfc851120","system_id":"levelo_inurba_marseille","lat":43.269499,"lon":5.402448,"is_reserved":false,"is_disabled":false,"rental_uris":{"android":"levelo://app?vid=842888b9-0281-4137-8179-95fdfc851120","ios":"levelo://app?vid=842888b9-0281-4137-8179-95fdfc851120"},"vehicle_type_id":"4","last_reported":1734973650,"current_range_meters":6400,"station_id":"cjm6bp8fraef2m0cb0m0","pricing_plan_id":"cebpf4jnsgd1na2vs0mg"},{"bike_id":"5af0d384-9a68-4517-82f0-e39af1ff8381","system_id":"levelo_inurba_marseille","lat":43.29789,"lon":5.39336,"is_reserved":false,"is_disabled":false,"rental_uris":{"android":"levelo://app?vid=5af0d384-9a68-4517-82f0-e39af1ff8381","ios":"levelo://app?vid=5af0d384-9a68-4517-82f0-e39af1ff8381"},"vehicle_type_id":"4","last_reported":1734973650,"current_range_meters":22800,"station_id":"chh1huq6cuj3fo74tm60","pricing_plan_id":"cebpf4jnsgd1na2vs0mg"},{"bike_id":"c14085cf-b9bc-41c2-af8e-37f103feae56","system_id":"levelo_inurba_marseille","lat":43.30318,"lon":5.36902,"is_reserved":false,"is_disabled":false,"rental_uris":{"android":"levelo://app?vid=c14085cf-b9bc-41c2-af8e-37f103feae56","ios":"levelo://app?vid=c14085cf-b9bc-41c2-af8e-37f103feae56"},"vehicle_type_id":"4","last_reported":1734973650,"current_range_meters":34800,"station_id":"ce4bgqh2rcd13ifvqc5g","pricing_plan_id":"cebpf4jnsgd1na2vs0mg"},{"bike_id":"85b80f61-13a5-4a12-a381-352d1429d14e","system_id":"levelo_inurba_marseille","lat":43.30153,"lon":5.38091,"is_reserved":false,"is_disabled":false,"rental_uris":{"android":"levelo://app?vid=85b80f61-13a5-4a12-a381-352d1429d14e","ios":"levelo://app?vid=85b80f61-13a5-4a12-a381-352d1429d14e"},"vehicle_type_id":"4","last_reported":1734973650,"current_range_meters":34000,"station_id":"ce4bgjp2rcd13ifvqbh0","pricing_plan_id":"cebpf4jnsgd1na2vs0mg"},{"bike_id":"ba623d7f-de4d-43e6-9a39-be19938e75fb","system_id":"levelo_inurba_marseille","lat":43.29369,"lon":5.37856,"is_reserved":false,"is_disabled":true,"rental_uris":{"android":"levelo://app?vid=ba623d7f-de4d-43e6-9a39-be19938e75fb","ios":"levelo://app?vid=ba623d7f-de4d-43e6-9a39-be19938e75fb"},"vehicle_type_id":"4","last_reported":1734973650,"current_range_meters":32000,"station_id":"","pricing_plan_id":"cebpf4jnsgd1na2vs0mg"},{"bike_id":"af7a8365-0aa8-48c2-85e3-e0dcc429b742","system_id":"levelo_inurba_marseille","lat":43.24547,"lon":5.39521,"is_reserved":false,"is_disabled":false,"rental_uris":{"android":"levelo://app?vid=af7a8365-0aa8-48c2-85e3-e0dcc429b742","ios":"levelo://app?vid=af7a8365-0aa8-48c2-85e3-e0dcc429b742"},"vehicle_type_id":"4","last_reported":1734973650,"current_range_meters":36800,"station_id":"ce4bhlp2rcd13ifvqgjg","pricing_plan_id":"cebpf4jnsgd1na2vs0mg"},{"bike_id":"50f17fe2-477a-4189-8008-39c21f61550e","system_id":"levelo_inurba_marseille","lat":43.30144,"lon":5.38796,"is_reserved":false,"is_disabled":false,"rental_uris":{"android":"levelo://app?vid=50f17fe2-477a-4189-8008-39c21f61550e","ios":"levelo://app?vid=50f17fe2-477a-4189-8008-39c21f61550e"},"vehicle_type_id":"4","last_reported":1734973650,"current_range_meters":18800,"station_id":"ce4bghh2rcd13ifvqb60","pricing_plan_id":"cebpf4jnsgd1na2vs0mg"},{"bike_id":"404ad474-5ef7-4707-b8e9-98c1304c8ecc","system_id":"levelo_inurba_marseille","lat":43.306404,"lon":5.401101,"is_reserved":false,"is_disabled":false,"rental_uris":{"android":"levelo://app?vid=404ad474-5ef7-4707-b8e9-98c1304c8ecc","ios":"levelo://app?vid=404ad474-5ef7-4707-b8e9-98c1304c8ecc"},"vehicle_type_id":"4","last_reported":1734973650,"current_range_meters":38800,"station_id":"ce4bh112rcd13ifvqda0","pricing_plan_id":"cebpf4jnsgd1na2vs0mg"},{"bike_id":"418d7244-b69e-441d-9bd5-5ce706fb8948","system_id":"levelo_inurba_marseille","lat":43.305465,"lon":5.367005,"is_reserved":false,"is_disabled":false,"rental_uris":{"android":"levelo://app?vid=418d7244-b69e-441d-9bd5-5ce706fb8948","ios":"levelo://app?vid=418d7244-b69e-441d-9bd5-5ce706fb8948"},"vehicle_type_id":"4","last_reported":1734973650,"current_range_meters":38800,"station_id":"ce4bgrp2rcd13ifvqc9g","pricing_plan_id":"cebpf4jnsgd1na2vs0mg"},{"bike_id":"feaff7ea-9012-4e28-a181-e7ef187f9c66","system_id":"levelo_inurba_marseille","lat":43.28474,"lon":5.38432,"is_reserved":false,"is_disabled":true,"rental_uris":{"android":"levelo://app?vid=feaff7ea-9012-4e28-a181-e7ef187f9c66","ios":"levelo://app?vid=feaff7ea-9012-4e28-a181-e7ef187f9c66"},"vehicle_type_id":"4","last_reported":1734973650,"current_range_meters":38800,"station_id":"ce4bh512rcd13ifvqe3g","pricing_plan_id":"cebpf4jnsgd1na2vs0mg"},{"bike_id":"f8448348-5574-4b47-abf3-6a6fdc140e6b","system_id":"levelo_inurba_marseille","lat":43.26044,"lon":5.37558,"is_reserved":false,"is_disabled":false,"rental_uris":{"android":"levelo://app?vid=f8448348-5574-4b47-abf3-6a6fdc140e6b","ios":"levelo://app?vid=f8448348-5574-4b47-abf3-6a6fdc140e6b"},"vehicle_type_id":"4","last_reported":1734973650,"current_range_meters":39200,"station_id":"ce4bhgh2rcd13ifvqfa0","pricing_plan_id":"cebpf4jnsgd1na2vs0mg"},{"bike_id":"864c8c07-623f-46e0-a84e-8c24a90096f0","system_id":"levelo_inurba_marseille","lat":43.30539,"lon":5.365499,"is_reserved":false,"is_disabled":false,"rental_uris":{"android":"levelo://app?vid=864c8c07-623f-46e0-a84e-8c24a90096f0","ios":"levelo://app?vid=864c8c07-623f-46e0-a84e-8c24a90096f0"},"vehicle_type_id":"4","last_reported":1734973650,"current_range_meters":28400,"station_id":"ce4bgs12rcd13ifvqcag","pricing_plan_id":"cebpf4jnsgd1na2vs0mg"},{"bike_id":"ae4ebacb-f293-4bd6-af3d-3892a5f6ec0d","system_id":"levelo_inurba_marseille","lat":43.27834,"lon":5.392,"is_reserved":false,"is_disabled":false,"rental_uris":{"android":"levelo://app?vid=ae4ebacb-f293-4bd6-af3d-3892a5f6ec0d","ios":"levelo://app?vid=ae4ebacb-f293-4bd6-af3d-3892a5f6ec0d"},"vehicle_type_id":"4","last_reported":1734973650,"current_range_meters":39200,"station_id":"ce4bhjp2rcd13ifvqga0","pricing_plan_id":"cebpf4jnsgd1na2vs0mg"},{"bike_id":"eedf9196-7757-434b-8160-d07780cfeb66","system_id":"levelo_inurba_marseille","lat":43.27953,"lon":5.38716,"is_reserved":false,"is_disabled":false,"rental_uris":{"android":"levelo://app?vid=eedf9196-7757-434b-8160-d07780cfeb66","ios":"levelo://app?vid=eedf9196-7757-434b-8160-d07780cfeb66"},"vehicle_type_id":"4","last_reported":1734973650,"current_range_meters":38400,"station_id":"ce4bhg12rcd13ifvqf80","pricing_plan_id":"cebpf4jnsgd1na2vs0mg"},{"bike_id":"8236f085-4f9d-460f-b9ae-d2948db016ca","system_id":"levelo_inurba_marseille","lat":43.2797,"lon":5.38738,"is_reserved":false,"is_disabled":false,"rental_uris":{"android":"levelo://app?vid=8236f085-4f9d-460f-b9ae-d2948db016ca","ios":"levelo://app?vid=8236f085-4f9d-460f-b9ae-d2948db016ca"},"vehicle_type_id":"4","last_reported":1734973650,"current_range_meters":39200,"station_id":"ce4bhg12rcd13ifvqf80","pricing_plan_id":"cebpf4jnsgd1na2vs0mg"},{"bike_id":"bd5c44c7-47b4-49bb-b83d-2354ade11583","system_id":"levelo_inurba_marseille","lat":43.25122,"lon":5.40317,"is_reserved":false,"is_disabled":false,"rental_uris":{"android":"levelo://app?vid=bd5c44c7-47b4-49bb-b83d-2354ade11583","ios":"levelo://app?vid=bd5c44c7-47b4-49bb-b83d-2354ade11583"},"vehicle_type_id":"4","last_reported":1734973650,"current_range_meters":22400,"station_id":"ce4bhlh2rcd13ifvqgig","pricing_plan_id":"cebpf4jnsgd1na2vs0mg"},{"bike_id":"3399abc2-d911-4fce-bece-6f8024b14fdc","system_id":"levelo_inurba_marseille","lat":43.27829,"lon":5.39203,"is_reserved":false,"is_disabled":false,"rental_uris":{"android":"levelo://app?vid=3399abc2-d911-4fce-bece-6f8024b14fdc","ios":"levelo://app?vid=3399abc2-d911-4fce-bece-6f8024b14fdc"},"vehicle_type_id":"4","last_reported":1734973650,"current_range_meters":3600,"station_id":"ce4bhjp2rcd13ifvqga0","pricing_plan_id":"cebpf4jnsgd1na2vs0mg"},{"bike_id":"c866eb33-ab7e-4129-aefa-ae11af502fca","system_id":"levelo_inurba_marseille","lat":43.32555,"lon":5.41429,"is_reserved":false,"is_disabled":false,"rental_uris":{"android":"levelo://app?vid=c866eb33-ab7e-4129-aefa-ae11af502fca","ios":"levelo://app?vid=c866eb33-ab7e-4129-aefa-ae11af502fca"},"vehicle_type_id":"4","last_reported":1734973650,"current_range_meters":38800,"station_id":"ce4bhq12rcd13ifvqhhg","pricing_plan_id":"cebpf4jnsgd1na2vs0mg"},{"bike_id":"e7339f5b-b85c-4b45-a45e-74db837a7d60","system_id":"levelo_inurba_marseille","lat":43.29512,"lon":5.3749,"is_reserved":false,"is_disabled":false,"rental_uris":{"android":"levelo://app?vid=e7339f5b-b85c-4b45-a45e-74db837a7d60","ios":"levelo://app?vid=e7339f5b-b85c-4b45-a45e-74db837a7d60"},"vehicle_type_id":"4","last_reported":1734973650,"current_range_meters":38800,"station_id":"ce4bgkp2rcd13ifvqbmg","pricing_plan_id":"cebpf4jnsgd1na2vs0mg"},{"bike_id":"5ccf2ec0-267c-42e2-95b9-0f62ea4d8baa","system_id":"levelo_inurba_marseille","lat":43.31763,"lon":5.39008,"is_reserved":false,"is_disabled":false,"rental_uris":{"android":"levelo://app?vid=5ccf2ec0-267c-42e2-95b9-0f62ea4d8baa","ios":"levelo://app?vid=5ccf2ec0-267c-42e2-95b9-0f62ea4d8baa"},"vehicle_type_id":"4","last_reported":1734973650,"current_range_meters":38800,"station_id":"ce4bhqp2rcd13ifvqhng","pricing_plan_id":"cebpf4jnsgd1na2vs0mg"},{"bike_id":"dac94ecf-3203-4c89-acc0-21c14e979588","system_id":"levelo_inurba_marseille","lat":43.26687,"lon":5.38273,"is_reserved":false,"is_disabled":false,"rental_uris":{"android":"levelo://app?vid=dac94ecf-3203-4c89-acc0-21c14e979588","ios":"levelo://app?vid=dac94ecf-3203-4c89-acc0-21c14e979588"},"vehicle_type_id":"4","last_reported":1734973650,"current_range_meters":21600,"station_id":"ce4bhg92rcd13ifvqf90","pricing_plan_id":"cebpf4jnsgd1na2vs0mg"},{"bike_id":"7a90d79c-efb7-473f-8f60-a6e952fac037","system_id":"levelo_inurba_marseille","lat":43.30542,"lon":5.36537,"is_reserved":false,"is_disabled":false,"rental_uris":{"android":"levelo://app?vid=7a90d79c-efb7-473f-8f60-a6e952fac037","ios":"levelo://app?vid=7a90d79c-efb7-473f-8f60-a6e952fac037"},"vehicle_type_id":"4","last_reported":1734973650,"current_range_meters":28800,"station_id":"ce4bgs12rcd13ifvqcag","pricing_plan_id":"cebpf4jnsgd1na2vs0mg"},{"bike_id":"0bafca04-fcc3-4e67-bf97-2b96334defbb","system_id":"levelo_inurba_marseille","lat":43.26784,"lon":5.39413,"is_reserved":false,"is_disabled":false,"rental_uris":{"android":"levelo://app?vid=0bafca04-fcc3-4e67-bf97-2b96334defbb","ios":"levelo://app?vid=0bafca04-fcc3-4e67-bf97-2b96334defbb"},"vehicle_type_id":"4","last_reported":1734973650,"current_range_meters":29600,"station_id":"ce4bhh12rcd13ifvqfg0","pricing_plan_id":"cebpf4jnsgd1na2vs0mg"},{"bike_id":"41b3b17a-a3c9-4e41-9947-0409f1be0905","system_id":"levelo_inurba_marseille","lat":43.33766,"lon":5.39175,"is_reserved":false,"is_disabled":false,"rental_uris":{"android":"levelo://app?vid=41b3b17a-a3c9-4e41-9947-0409f1be0905","ios":"levelo://app?vid=41b3b17a-a3c9-4e41-9947-0409f1be0905"},"vehicle_type_id":"4","last_reported":1734973650,"current_range_meters":38800,"station_id":"","pricing_plan_id":"cebpf4jnsgd1na2vs0mg"},{"bike_id":"72bce916-68b4-4572-b535-60a3789d49d8","system_id":"levelo_inurba_marseille","lat":43.32027,"lon":5.41566,"is_reserved":false,"is_disabled":false,"rental_uris":{"android":"levelo://app?vid=72bce916-68b4-4572-b535-60a3789d49d8","ios":"levelo://app?vid=72bce916-68b4-4572-b535-60a3789d49d8"},"vehicle_type_id":"4","last_reported":1734973650,"current_range_meters":38800,"station_id":"ce4bhq92rcd13ifvqhkg","pricing_plan_id":"cebpf4jnsgd1na2vs0mg"},{"bike_id":"33476639-f6db-45f3-8602-a71db51435c1","system_id":"levelo_inurba_marseille","lat":43.31175,"lon":5.38713,"is_reserved":false,"is_disabled":false,"rental_uris":{"android":"levelo://app?vid=33476639-f6db-45f3-8602-a71db51435c1","ios":"levelo://app?vid=33476639-f6db-45f3-8602-a71db51435c1"},"vehicle_type_id":"4","last_reported":1734973650,"current_range_meters":20000,"station_id":"ce4bgv12rcd13ifvqcp0","pricing_plan_id":"cebpf4jnsgd1na2vs0mg"},{"bike_id":"fcaa428f-5b81-4cef-aa5d-f496099afa0b","system_id":"levelo_inurba_marseille","lat":43.305384,"lon":5.365347,"is_reserved":false,"is_disabled":false,"rental_uris":{"android":"levelo://app?vid=fcaa428f-5b81-4cef-aa5d-f496099afa0b","ios":"levelo://app?vid=fcaa428f-5b81-4cef-aa5d-f496099afa0b"},"vehicle_type_id":"4","last_reported":1734973650,"current_range_meters":38800,"station_id":"ce4bgs12rcd13ifvqcag","pricing_plan_id":"cebpf4jnsgd1na2vs0mg"},{"bike_id":"6514c2c9-e502-43a9-a28e-caff4cfb39de","system_id":"levelo_inurba_marseille","lat":43.29529,"lon":5.38543,"is_reserved":false,"is_disabled":false,"rental_uris":{"android":"levelo://app?vid=6514c2c9-e502-43a9-a28e-caff4cfb39de","ios":"levelo://app?vid=6514c2c9-e502-43a9-a28e-caff4cfb39de"},"vehicle_type_id":"4","last_reported":1734973650,"current_range_meters":36800,"station_id":"ce4bgih2rcd13ifvqba0","pricing_plan_id":"cebpf4jnsgd1na2vs0mg"},{"bike_id":"f32ec1dc-57c4-484c-a849-5534c3c3731c","system_id":"levelo_inurba_marseille","lat":43.30783,"lon":5.37651,"is_reserved":false,"is_disabled":false,"rental_uris":{"android":"levelo://app?vid=f32ec1dc-57c4-484c-a849-5534c3c3731c","ios":"levelo://app?vid=f32ec1dc-57c4-484c-a849-5534c3c3731c"},"vehicle_type_id":"4","last_reported":1734973650,"current_range_meters":38400,"station_id":"ce4bgv92rcd13ifvqcq0","pricing_plan_id":"cebpf4jnsgd1na2vs0mg"},{"bike_id":"c0da982f-6e30-498e-937e-967e68eeb8ed","system_id":"levelo_inurba_marseille","lat":43.26481,"lon":5.3955,"is_reserved":false,"is_disabled":false,"rental_uris":{"android":"levelo://app?vid=c0da982f-6e30-498e-937e-967e68eeb8ed","ios":"levelo://app?vid=c0da982f-6e30-498e-937e-967e68eeb8ed"},"vehicle_type_id":"4","last_reported":1734973650,"current_range_meters":19200,"station_id":"ce4bhi12rcd13ifvqfq0","pricing_plan_id":"cebpf4jnsgd1na2vs0mg"},{"bike_id":"aeb21815-fda5-4673-a326-4fbe39a203b0","system_id":"levelo_inurba_marseille","lat":43.32487,"lon":5.36571,"is_reserved":false,"is_disabled":false,"rental_uris":{"android":"levelo://app?vid=aeb21815-fda5-4673-a326-4fbe39a203b0","ios":"levelo://app?vid=aeb21815-fda5-4673-a326-4fbe39a203b0"},"vehicle_type_id":"4","last_reported":1734973650,"current_range_meters":28400,"station_id":"ce4bhs12rcd13ifvqhvg","pricing_plan_id":"cebpf4jnsgd1na2vs0mg"},{"bike_id":"50a18693-3e54-4e5b-84f8-e27609e6c376","system_id":"levelo_inurba_marseille","lat":43.29589,"lon":5.36747,"is_reserved":false,"is_disabled":false,"rental_uris":{"android":"levelo://app?vid=50a18693-3e54-4e5b-84f8-e27609e6c376","ios":"levelo://app?vid=50a18693-3e54-4e5b-84f8-e27609e6c376"},"vehicle_type_id":"4","last_reported":1734973650,"current_range_meters":38800,"station_id":"ce4bgph2rcd13ifvqc2g","pricing_plan_id":"cebpf4jnsgd1na2vs0mg"},{"bike_id":"0965b3e1-cb86-45ee-9757-456fd5675203","system_id":"levelo_inurba_marseille","lat":43.29704,"lon":5.37707,"is_reserved":false,"is_disabled":false,"rental_uris":{"android":"levelo://app?vid=0965b3e1-cb86-45ee-9757-456fd5675203","ios":"levelo://app?vid=0965b3e1-cb86-45ee-9757-456fd5675203"},"vehicle_type_id":"4","last_reported":1734973650,"current_range_meters":35600,"station_id":"ce4bgkh2rcd13ifvqbl0","pricing_plan_id":"cebpf4jnsgd1na2vs0mg"},