{"last_updated":1720465562,"ttl":30,"version":"2.2","data":{"bikes":[{"bike_id":"31b6fa1e-6b27-44ce-833c-a4e14db3d104","system_id":"levelo_inurba_marseille","lat":43.312239,"lon":5.368562,"is_reserved":false,"is_disabled":false,"rental_uris":{"android":"levelo://app?vid=31b6fa1e-6b27-44ce-833c-a4e14db3d104","ios":"levelo://app?vid=31b6fa1e-6b27-44ce-833c-a4e14db3d104"},"vehicle_type_id":"4","last_reported":1720465562,"current_range_meters":25200,"station_id":"ce4bgl92rcd13ifvqbq0","pricing_plan_id":"cebpf4jnsgd1na2vs0mg"},{"bike_id":"fad96912-475a-4fcb-ae32-ec9a77102da7","system_id":"levelo_inurba_marseille","lat":43.314811,"lon":5.373103,"is_reserved":false,"is_disabled":false,"rental_uris":{"android":"levelo://app?vid=fad96912-475a-4fcb-ae32-ec9a77102da7","ios":"levelo://app?vid=fad96912-475a-4fcb-ae32-ec9a77102da7"},"vehicle_type_id":"4","last_reported":1720465562,"current_range_meters":6400,"station_id":"ce4bgt12rcd13ifvqcd0","pricing_plan_id":"cebpf4jnsgd1na2vs0mg"},{"bike_id":"3e43487f-f33d-48f5-95c2-6aafce8f8601","system_id":"levelo_inurba_marseille","lat":43.314811,"lon":5.373103,"is_reserved":false,"is_disabled":false,"rental_uris":{"android":"levelo://app?vid=3e43487f-f33d-48f5-95c2-6aafce8f8601","ios":"levelo://app?vid=3e43487f-f33d-48f5-95c2-6aafce8f8601"},"vehicle_type_id":"4","last_reported":1720465562,"current_range_meters":8000,"station_id":"ce4bgt12rcd13ifvqcd0","pricing_plan_id":"cebpf4jnsgd1na2vs0mg"},{"bike_id":"708ca96d-3788-4f7d-a65b-536e1e1b9c7c","system_id":"levelo_inurba_marseille","lat":43.309039,"lon":5.371797,"is_reserved":false,"is_disabled":false,"rental_uris":{"android":"levelo://app?vid=708ca96d-3788-4f7d-a65b-536e1e1b9c7c","ios":"levelo://app?vid=708ca96d-3788-4f7d-a65b-536e1e1b9c7c"},"vehicle_type_id":"4","last_reported":1720465562,"current_range_meters":0,"station_id":"ce4bguh2rcd13ifvqckg","pricing_plan_id":"cebpf4jnsgd1na2vs0mg"},{"bike_id":"dfa74258-940a-4104-b5d3-9c763dc614e4","system_id":"levelo_inurba_marseille","lat":43.309034,"lon":5.371783,"is_reserved":false,"is_disabled":false,"rental_uris":{"android":"levelo://app?vid=dfa74258-940a-4104-b5d3-9c763dc614e4","ios":"levelo://app?vid=dfa74258-940a-4104-b5d3-9c763dc614e4"},"vehicle_type_id":"4","last_reported":1720465562,"current_range_meters":7200,"station_id":"ce4bguh2rcd13ifvqckg","pricing_plan_id":"cebpf4jnsgd1na2vs0mg"},{"bike_id":"bbf0a617-a1ba-4369-8e35-cb47cf26cc55","system_id":"levelo_inurba_marseille","lat":43.314552,"lon":5.373823,"is_reserved":false,"is_disabled":false,"rental_uris":{"android":"levelo://app?vid=bbf0a617-a1ba-4369-8e35-cb47cf26cc55","ios":"levelo://app?vid=bbf0a617-a1ba-4369-8e35-cb47cf26cc55"},"vehicle_type_id":"4","last_reported":1720465562,"current_range_meters":11200,"station_id":"","pricing_plan_id":"cebpf4jnsgd1na2vs0mg"},{"bike_id":"1e7c2c1a-5b08-439d-951e-0875b81c9266","system_id":"levelo_inurba_marseille","lat":43.305368,"lon":5.367343,"is_reserved":false,"is_disabled":false,"rental_uris":{"android":"levelo://app?vid=1e7c2c1a-5b08-439d-951e-0875b81c9266","ios":"levelo://app?vid=1e7c2c1a-5b08-439d-951e-0875b81c9266"},"vehicle_type_id":"4","last_reported":1720465562,"current_range_meters":0,"station_id":"ce4bgrp2rcd13ifvqc9g","pricing_plan_id":"cebpf4jnsgd1na2vs0mg"},{"bike_id":"8c7c93ca-eee3-4ce0-be2f-4b740987cd66","system_id":"levelo_inurba_marseille","lat":43.30534,"lon":5.36661,"is_reserved":false,"is_disabled":false,"rental_uris":{"android":"levelo://app?vid=8c7c93ca-eee3-4ce0-be2f-4b740987cd66","ios":"levelo://app?vid=8c7c93ca-eee3-4ce0-be2f-4b740987cd66"},"vehicle_type_id":"4","last_reported":1720465562,"current_range_meters":24000,"station_id":"","pricing_plan_id":"cebpf4jnsgd1na2vs0mg"},{"bike_id":"309892c2-cad4-4b13-86e5-77be103f9ab9","system_id":"levelo_inurba_marseille","lat":43.305714,"lon":5.365633,"is_reserved":false,"is_disabled":false,"rental_uris":{"android":"levelo://app?vid=309892c2-cad4-4b13-86e5-77be103f9ab9","ios":"levelo://app?vid=309892c2-cad4-4b13-86e5-77be103f9ab9"},"vehicle_type_id":"4","last_reported":1720465562,"current_range_meters":8800,"station_id":"ce4bgs12rcd13ifvqcag","pricing_plan_id":"cebpf4jnsgd1na2vs0mg"},{"bike_id":"cb98a23c-f4aa-4002-b0c6-bcc05010382b","system_id":"levelo_inurba_marseille","lat":43.305989,"lon":5.37225,"is_reserved":false,"is_disabled":false,"rental_uris":{"android":"levelo://app?vid=cb98a23c-f4aa-4002-b0c6-bcc05010382b","ios":"levelo://app?vid=cb98a23c-f4aa-4002-b0c6-bcc05010382b"},"vehicle_type_id":"4","last_reported":1720465562,"current_range_meters":3200,"station_id":"ce4bgqh2rcd13ifvqc4g","pricing_plan_id":"cebpf4jnsgd1na2vs0mg"},{"bike_id":"7235a854-2577-4df6-a805-3566b7206b61","system_id":"levelo_inurba_marseille","lat":43.305989,"lon":5.37225,"is_reserved":false,"is_disabled":false,"rental_uris":{"android":"levelo://app?vid=7235a854-2577-4df6-a805-3566b7206b61","ios":"levelo://app?vid=7235a854-2577-4df6-a805-3566b7206b61"},"vehicle_type_id":"4","last_reported":1720465562,"current_range_meters":19200,"station_id":"ce4bgqh2rcd13ifvqc4g","pricing_plan_id":"cebpf4jnsgd1na2vs0mg"},{"bike_id":"cdfffadd-6ada-4d05-b9a5-eab09a85616a","system_id":"levelo_inurba_marseille","lat":43.305989,"lon":5.37225,"is_reserved":false,"is_disabled":false,"rental_uris":{"android":"levelo://app?vid=cdfffadd-6ada-4d05-b9a5-eab09a85616a","ios":"levelo://app?vid=cdfffadd-6ada-4d05-b9a5-eab09a85616a"},"vehicle_type_id":"4","last_reported":1720465562,"current_range_meters":11200,"station_id":"ce4bgqh2rcd13ifvqc4g","pricing_plan_id":"cebpf4jnsgd1na2vs0mg"},{"bike_id":"17129862-7a94-4217-bee6-d11d31fa7470","system_id":"levelo_inurba_marseille","lat":43.30492,"lon":5.367,"is_reserved":false,"is_disabled":false,"rental_uris":{"android":"levelo://app?vid=17129862-7a94-4217-bee6-d11d31fa7470","ios":"levelo://app?vid=17129862-7a94-4217-bee6-d11d31fa7470"},"vehicle_type_id":"4","last_reported":1720465562,"current_range_meters":25600,"station_id":"","pricing_plan_id":"cebpf4jnsgd1na2vs0mg"},{"bike_id":"10e278a4-36c4-488c-8121-c3e07e5d607f","system_id":"levelo_inurba_marseille","lat":43.30483,"lon":5.36717,"is_reserved":false,"is_disabled":false,"rental_uris":{"android":"levelo://app?vid=10e278a4-36c4-488c-8121-c3e07e5d607f","ios":"levelo://app?vid=10e278a4-36c4-488c-8121-c3e07e5d607f"},"vehicle_type_id":"4","last_reported":1720465562,"current_range_meters":14800,"station_id":"","pricing_plan_id":"cebpf4jnsgd1na2vs0mg"},{"bike_id":"0e0d9c1a-93ef-4406-b250-f1656499e0c3","system_id":"levelo_inurba_marseille","lat":43.30476,"lon":5.3671,"is_reserved":false,"is_disabled":false,"rental_uris":{"android":"levelo://app?vid=0e0d9c1a-93ef-4406-b250-f1656499e0c3","ios":"levelo://app?vid=0e0d9c1a-93ef-4406-b250-f1656499e0c3"},"vehicle_type_id":"4","last_reported":1720465562,"current_range_meters":8400,"station_id":"","pricing_plan_id":"cebpf4jnsgd1na2vs0mg"},{"bike_id":"189bad21-60ac-472e-abbc-f53947339b78","system_id":"levelo_inurba_marseille","lat":43.31699,"lon":5.3766,"is_reserved":false,"is_disabled":false,"rental_uris":{"android":"levelo://app?vid=189bad21-60ac-472e-abbc-f53947339b78","ios":"levelo://app?vid=189bad21-60ac-472e-abbc-f53947339b78"},"vehicle_type_id":"4","last_reported":1720465562,"current_range_meters":0,"station_id":"","pricing_plan_id":"cebpf4jnsgd1na2vs0mg"},{"bike_id":"88460852-200f-43c6-835b-c26255b4a21c","system_id":"levelo_inurba_marseille","lat":43.307945,"lon":5.376487,"is_reserved":false,"is_disabled":false,"rental_uris":{"android":"levelo://app?vid=88460852-200f-43c6-835b-c26255b4a21c","ios":"levelo://app?vid=88460852-200f-43c6-835b-c26255b4a21c"},"vehicle_type_id":"4","last_reported":1720465562,"current_range_meters":6800,"station_id":"ce4bgv92rcd13ifvqcq0","pricing_plan_id":"cebpf4jnsgd1na2vs0mg"},{"bike_id":"321852f0-9136-4f5b-b9be-2f63294a5cac","system_id":"levelo_inurba_marseille","lat":43.317075,"lon":5.377367,"is_reserved":false,"is_disabled":false,"rental_uris":{"android":"levelo://app?vid=321852f0-9136-4f5b-b9be-2f63294a5cac","ios":"levelo://app?vid=321852f0-9136-4f5b-b9be-2f63294a5cac"},"vehicle_type_id":"4","last_reported":1720465562,"current_range_meters":0,"station_id":"ce4bgth2rcd13ifvqch0","pricing_plan_id":"cebpf4jnsgd1na2vs0mg"},{"bike_id":"545b131b-502e-4ed5-8299-01bc05aee078","system_id":"levelo_inurba_marseille","lat":43.317075,"lon":5.377367,"is_reserved":false,"is_disabled":false,"rental_uris":{"android":"levelo://app?vid=545b131b-502e-4ed5-8299-01bc05aee078","ios":"levelo://app?vid=545b131b-502e-4ed5-8299-01bc05aee078"},"vehicle_type_id":"4","last_reported":1720465562,"current_range_meters":6400,"station_id":"ce4bgth2rcd13ifvqch0","pricing_plan_id":"cebpf4jnsgd1na2vs0mg"},{"bike_id":"0981062d-b7fc-4e92-881f-4dc4122bb274","system_id":"levelo_inurba_marseille","lat":43.317075,"lon":5.377367,"is_reserved":false,"is_disabled":false,"rental_uris":{"android":"levelo://app?vid=0981062d-b7fc-4e92-881f-4dc4122bb274","ios":"levelo://app?vid=0981062d-b7fc-4e92-881f-4dc4122bb274"},"vehicle_type_id":"4","last_reported":1720465562,"current_range_meters":31200,"station_id":"ce4bgth2rcd13ifvqch0","pricing_plan_id":"cebpf4jnsgd1na2vs0mg"},{"bike_id":"59ad96de-d0d7-4974-92be-288283951cbf","system_id":"levelo_inurba_marseille","lat":43.303046,"lon":5.368981,"is_reserved":false,"is_disabled":false,"rental_uris":{"android":"levelo://app?vid=59ad96de-d0d7-4974-92be-288283951cbf","ios":"levelo://app?vid=59ad96de-d0d7-4974-92be-288283951cbf"},"vehicle_type_id":"4","last_reported":1720465562,"current_range_meters":12400,"station_id":"ce4bgqh2rcd13ifvqc5g","pricing_plan_id":"cebpf4jnsgd1na2vs0mg"},{"bike_id":"5788382f-9f78-47d1-86bc-09b614f9e720","system_id":"levelo_inurba_marseille","lat":43.315289,"lon":5.380349,"is_reserved":false,"is_disabled":false,"rental_uris":{"android":"levelo://app?vid=5788382f-9f78-47d1-86bc-09b614f9e720","ios":"levelo://app?vid=5788382f-9f78-47d1-86bc-09b614f9e720"},"vehicle_type_id":"4","last_reported":1720465562,"current_range_meters":1200,"station_id":"ce4bhsp2rcd13ifvqi50","pricing_plan_id":"cebpf4jnsgd1na2vs0mg"},{"bike_id":"b002fede-79ce-4139-bb55-6a87446cf623","system_id":"levelo_inurba_marseille","lat":43.30207,"lon":5.36774,"is_reserved":false,"is_disabled":false,"rental_uris":{"android":"levelo://app?vid=b002fede-79ce-4139-bb55-6a87446cf623","ios":"levelo://app?vid=b002fede-79ce-4139-bb55-6a87446cf623"},"vehicle_type_id":"4","last_reported":1720465562,"current_range_meters":24800,"station_id":"","pricing_plan_id":"cebpf4jnsgd1na2vs0mg"},{"bike_id":"10547e81-fc8d-4808-b367-a784008cf1cb","system_id":"levelo_inurba_marseille","lat":43.301008,"lon":5.368712,"is_reserved":false,"is_disabled":false,"rental_uris":{"android":"levelo://app?vid=10547e81-fc8d-4808-b367-a784008cf1cb","ios":"levelo://app?vid=10547e81-fc8d-4808-b367-a784008cf1cb"},"vehicle_type_id":"4","last_reported":1720465562,"current_range_meters":11200,"station_id":"","pricing_plan_id":"cebpf4jnsgd1na2vs0mg"},{"bike_id":"44b49bf2-5136-4793-abc3-f089078dc197","system_id":"levelo_inurba_marseille","lat":43.304606,"lon":5.379026,"is_reserved":false,"is_disabled":false,"rental_uris":{"android":"levelo://app?vid=44b49bf2-5136-4793-abc3-f089078dc197","ios":"levelo://app?vid=44b49bf2-5136-4793-abc3-f089078dc197"},"vehicle_type_id":"4","last_reported":1720465562,"current_range_meters":4800,"station_id":"ce4bgup2rcd13ifvqcn0","pricing_plan_id":"cebpf4jnsgd1na2vs0mg"},{"bike_id":"fe2c1f6d-6552-41b3-aad7-e76b08a9694f","system_id":"levelo_inurba_marseille","lat":43.324771,"lon":5.36557,"is_reserved":false,"is_disabled":false,"rental_uris":{"android":"levelo://app?vid=fe2c1f6d-6552-41b3-aad7-e76b08a9694f","ios":"levelo://app?vid=fe2c1f6d-6552-41b3-aad7-e76b08a9694f"},"vehicle_type_id":"4","last_reported":1720465562,"current_range_meters":13200,"station_id":"ce4bhs12rcd13ifvqhvg","pricing_plan_id":"cebpf4jnsgd1na2vs0mg"},{"bike_id":"e9f581c0-f781-4499-8fc4-a5bc32e8edb1","system_id":"levelo_inurba_marseille","lat":43.324811,"lon":5.365688,"is_reserved":false,"is_disabled":false,"rental_uris":{"android":"levelo://app?vid=e9f581c0-f781-4499-8fc4-a5bc32e8edb1","ios":"levelo://app?vid=e9f581c0-f781-4499-8fc4-a5bc32e8edb1"},"vehicle_type_id":"4","last_reported":1720465562,"current_range_meters":22000,"station_id":"ce4bhs12rcd13ifvqhvg","pricing_plan_id":"cebpf4jnsgd1na2vs0mg"},{"bike_id":"4501fb02-015c-4902-b78b-53bc4746f442","system_id":"levelo_inurba_marseille","lat":43.32485,"lon":5.36571,"is_reserved":false,"is_disabled":false,"rental_uris":{"android":"levelo://app?vid=4501fb02-015c-4902-b78b-53bc4746f442","ios":"levelo://app?vid=4501fb02-015c-4902-b78b-53bc4746f442"},"vehicle_type_id":"4","last_reported":1720465562,"current_range_meters":18400,"station_id":"ce4bhs12rcd13ifvqhvg","pricing_plan_id":"cebpf4jnsgd1na2vs0mg"},{"bike_id":"3237f52b-a4e3-48fd-b51b-50a85dc47cc3","system_id":"levelo_inurba_marseille","lat":43.324771,"lon":5.36557,"is_reserved":false,"is_disabled":false,"rental_uris":{"android":"levelo://app?vid=3237f52b-a4e3-48fd-b51b-50a85dc47cc3","ios":"levelo://app?vid=3237f52b-a4e3-48fd-b51b-50a85dc47cc3"},"vehicle_type_id":"4","last_reported":1720465562,"current_range_meters":27600,"station_id":"ce4bhs12rcd13ifvqhvg","pricing_plan_id":"cebpf4jnsgd1na2vs0mg"},{"bike_id":"53f41f08-9ebe-4743-9c64-53f3d0ac2a2f","system_id":"levelo_inurba_marseille","lat":43.32487,"lon":5.36572,"is_reserved":false,"is_disabled":false,"rental_uris":{"android":"levelo://app?vid=53f41f08-9ebe-4743-9c64-53f3d0ac2a2f","ios":"levelo://app?vid=53f41f08-9ebe-4743-9c64-53f3d0ac2a2f"},"vehicle_type_id":"4","last_reported":1720465562,"current_range_meters":27600,"station_id":"ce4bhs12rcd13ifvqhvg","pricing_plan_id":"cebpf4jnsgd1na2vs0mg"},{"bike_id":"422ee5b8-f5d5-4e29-84c3-28895fd2253d","system_id":"levelo_inurba_marseille","lat":43.324771,"lon":5.36557,"is_reserved":false,"is_disabled":false,"rental_uris":{"android":"levelo://app?vid=422ee5b8-f5d5-4e29-84c3-28895fd2253d","ios":"levelo://app?vid=422ee5b8-f5d5-4e29-84c3-28895fd2253d"},"vehicle_type_id":"4","last_reported":1720465562,"current_range_meters":10400,"station_id":"ce4bhs12rcd13ifvqhvg","pricing_plan_id":"cebpf4jnsgd1na2vs0mg"},{"bike_id":"bfbac28e-ca61-49be-a138-f21128ab9ef8","system_id":"levelo_inurba_marseille","lat":43.324771,"lon":5.36557,"is_reserved":false,"is_disabled":false,"rental_uris":{"android":"levelo://app?vid=bfbac28e-ca61-49be-a138-f21128ab9ef8","ios":"levelo://app?vid=bfbac28e-ca61-49be-a138-f21128ab9ef8"},"vehicle_type_id":"4","last_reported":1720465562,"current_range_meters":31600,"station_id":"ce4bhs12rcd13ifvqhvg","pricing_plan_id":"cebpf4jnsgd1na2vs0mg"},{"bike_id":"7e456fb8-0883-4d91-a5c6-4a9266aab04a","system_id":"levelo_inurba_marseille","lat":43.324771,"lon":5.36557,"is_reserved":false,"is_disabled":false,"rental_uris":{"android":"levelo://app?vid=7e456fb8-0883-4d91-a5c6-4a9266aab04a","ios":"levelo://app?vid=7e456fb8-0883-4d91-a5c6-4a9266aab04a"},"vehicle_type_id":"4","last_reported":1720465562,"current_range_meters":3600,"station_id":"ce4bhs12rcd13ifvqhvg","pricing_plan_id":"cebpf4jnsgd1na2vs0mg"},{"bike_id":"02240c89-7cd2-4508-a4dc-4e4f5fdefb0d","system_id":"levelo_inurba_marseille","lat":43.310804,"lon":5.38359,"is_reserved":false,"is_disabled":false,"rental_uris":{"android":"levelo://app?vid=02240c89-7cd2-4508-a4dc-4e4f5fdefb0d","ios":"levelo://app?vid=02240c89-7cd2-4508-a4dc-4e4f5fdefb0d"},"vehicle_type_id":"4","last_reported":1720465562,"current_range_meters":4000,"station_id":"ce4bgv92rcd13ifvqcr0","pricing_plan_id":"cebpf4jnsgd1na2vs0mg"},{"bike_id":"e4c38eb2-5035-4e61-bd10-ea9f5632dae6","system_id":"levelo_inurba_marseille","lat":43.31379,"lon":5.38372,"is_reserved":false,"is_disabled":false,"rental_uris":{"android":"levelo://app?vid=e4c38eb2-5035-4e61-bd10-ea9f5632dae6","ios":"levelo://app?vid=e4c38eb2-5035-4e61-bd10-ea9f5632dae6"},"vehicle_type_id":"4","last_reported":1720465562,"current_range_meters":16000,"station_id":"","pricing_plan_id":"cebpf4jnsgd1na2vs0mg"},{"bike_id":"429bfd9a-4f29-4562-ae5c-ca8cef1db055","system_id":"levelo_inurba_marseille","lat":43.310804,"lon":5.38359,"is_reserved":false,"is_disabled":false,"rental_uris":{"android":"levelo://app?vid=429bfd9a-4f29-4562-ae5c-ca8cef1db055","ios":"levelo://app?vid=429bfd9a-4f29-4562-ae5c-ca8cef1db055"},"vehicle_type_id":"4","last_reported":1720465562,"current_range_meters":7600,"station_id":"ce4bgv92rcd13ifvqcr0","pricing_plan_id":"cebpf4jnsgd1na2vs0mg"},{"bike_id":"d7438ef4-2d07-422d-b9ba-6ec6970f2829","system_id":"levelo_inurba_marseille","lat":43.310804,"lon":5.38359,"is_reserved":false,"is_disabled":false,"rental_uris":{"android":"levelo://app?vid=d7438ef4-2d07-422d-b9ba-6ec6970f2829","ios":"levelo://app?vid=d7438ef4-2d07-422d-b9ba-6ec6970f2829"},"vehicle_type_id":"4","last_reported":1720465562,"current_range_meters":27600,"station_id":"ce4bgv92rcd13ifvqcr0","pricing_plan_id":"cebpf4jnsgd1na2vs0mg"},{"bike_id":"028681c0-3bf0-4d2a-9968-ac774b5214e4","system_id":"levelo_inurba_marseille","lat":43.30143,"lon":5.37413,"is_reserved":false,"is_disabled":false,"rental_uris":{"android":"levelo://app?vid=028681c0-3bf0-4d2a-9968-ac774b5214e4","ios":"levelo://app?vid=028681c0-3bf0-4d2a-9968-ac774b5214e4"},"vehicle_type_id":"4","last_reported":1720465562,"current_range_meters":17200,"station_id":"ce4bgs92rcd13ifvqcc0","pricing_plan_id":"cebpf4jnsgd1na2vs0mg"},{"bike_id":"d931222f-66d6-4c0a-8cd1-80b22dff606c","system_id":"levelo_inurba_marseille","lat":43.31999,"lon":5.3816,"is_reserved":false,"is_disabled":false,"rental_uris":{"android":"levelo://app?vid=d931222f-66d6-4c0a-8cd1-80b22dff606c","ios":"levelo://app?vid=d931222f-66d6-4c0a-8cd1-80b22dff606c"},"vehicle_type_id":"4","last_reported":1720465562,"current_range_meters":0,"station_id":"ce4bhr12rcd13ifvqhpg","pricing_plan_id":"cebpf4jnsgd1na2vs0mg"},{"bike_id":"191f1d10-806c-43d9-9b98-e8f1042a4aa3","system_id":"levelo_inurba_marseille","lat":43.319935,"lon":5.381699,"is_reserved":false,"is_disabled":false,"rental_uris":{"android":"levelo://app?vid=191f1d10-806c-43d9-9b98-e8f1042a4aa3","ios":"levelo://app?vid=191f1d10-806c-43d9-9b98-e8f1042a4aa3"},"vehicle_type_id":"4","last_reported":1720465562,"current_range_meters":0,"station_id":"ce4bhr12rcd13ifvqhpg","pricing_plan_id":"cebpf4jnsgd1na2vs0mg"},{"bike_id":"055b9250-9cd7-4ef0-b8a2-103c440c323a","system_id":"levelo_inurba_marseille","lat":43.313571,"lon":5.384829,"is_reserved":false,"is_disabled":false,"rental_uris":{"android":"levelo://app?vid=055b9250-9cd7-4ef0-b8a2-103c440c323a","ios":"levelo://app?vid=055b9250-9cd7-4ef0-b8a2-103c440c323a"},"vehicle_type_id":"4","last_reported":1720465562,"current_range_meters":24000,"station_id":"ce4bgt92rcd13ifvqcf0","pricing_plan_id":"cebpf4jnsgd1na2vs0mg"},{"bike_id":"e6a3eeab-a736-42a2-94a3-a478cdac2cb4","system_id":"levelo_inurba_marseille","lat":43.30292,"lon":5.37927,"is_reserved":false,"is_disabled":false,"rental_uris":{"android":"levelo://app?vid=e6a3eeab-a736-42a2-94a3-a478cdac2cb4","ios":"levelo://app?vid=e6a3eeab-a736-42a2-94a3-a478cdac2cb4"},"vehicle_type_id":"4","last_reported":1720465562,"current_range_meters":25600,"station_id":"","pricing_plan_id":"cebpf4jnsgd1na2vs0mg"},{"bike_id":"f5fc41d8-3893-4f52-91e0-010beb6f89f8","system_id":"levelo_inurba_marseille","lat":43.299222,"lon":5.365554,"is_reserved":false,"is_disabled":false,"rental_uris":{"android":"levelo://app?vid=f5fc41d8-3893-4f52-91e0-010beb6f89f8","ios":"levelo://app?vid=f5fc41d8-3893-4f52-91e0-010beb6f89f8"},"vehicle_type_id":"4","last_reported":1720465562,"current_range_meters":11600,"station_id":"ce4bgm92rcd13ifvqbr0","pricing_plan_id":"cebpf4jnsgd1na2vs0mg"},{"bike_id":"97f1863a-9389-48ad-a64a-bbb23cdd79d4","system_id":"levelo_inurba_marseille","lat":43.299222,"lon":5.365554,"is_reserved":false,"is_disabled":false,"rental_uris":{"android":"levelo://app?vid=97f1863a-9389-48ad-a64a-bbb23cdd79d4","ios":"levelo://app?vid=97f1863a-9389-48ad-a64a-bbb23cdd79d4"},"vehicle_type_id":"4","last_reported":1720465562,"current_range_meters":25200,"station_id":"ce4bgm92rcd13ifvqbr0","pricing_plan_id":"cebpf4jnsgd1na2vs0mg"},{"bike_id":"8dd40548-723e-4ceb-b0cd-b4d6e79ae5e2","system_id":"levelo_inurba_marseille","lat":43.298433,"lon":5.362774,"is_reserved":false,"is_disabled":false,"rental_uris":{"android":"levelo://app?vid=8dd40548-723e-4ceb-b0cd-b4d6e79ae5e2","ios":"levelo://app?vid=8dd40548-723e-4ceb-b0cd-b4d6e79ae5e2"},"vehicle_type_id":"4","last_reported":1720465562,"current_range_meters":18000,"station_id":"ce4bgpp2rcd13ifvqc3g","pricing_plan_id":"cebpf4jnsgd1na2vs0mg"},{"bike_id":"a1dfc4f6-2d55-4c0d-8eec-6bbeb5f7f47d","system_id":"levelo_inurba_marseille","lat":43.298433,"lon":5.362774,"is_reserved":false,"is_disabled":false,"rental_uris":{"android":"levelo://app?vid=a1dfc4f6-2d55-4c0d-8eec-6bbeb5f7f47d","ios":"levelo://app?vid=a1dfc4f6-2d55-4c0d-8eec-6bbeb5f7f47d"},"vehicle_type_id":"4","last_reported":1720465562,"current_range_meters":10800,"station_id":"ce4bgpp2rcd13ifvqc3g","pricing_plan_id":"cebpf4jnsgd1na2vs0mg"},{"bike_id":"d91e34ec-253c-472e-aeaf-7cf767164032","system_id":"levelo_inurba_marseille","lat":43.298433,"lon":5.362774,"is_reserved":false,"is_disabled":false,"rental_uris":{"android":"levelo://app?vid=d91e34ec-253c-472e-aeaf-7cf767164032","ios":"levelo://app?vid=d91e34ec-253c-472e-aeaf-7cf767164032"},"vehicle_type_id":"4","last_reported":1720465562,"current_range_meters":23200,"station_id":"ce4bgpp2rcd13ifvqc3g","pricing_plan_id":"cebpf4jnsgd1na2vs0mg"},{"bike_id":"5e117da4-0ee9-4611-82f0-81fad7eac37f","system_id":"levelo_inurba_marseille","lat":43.298433,"lon":5.362774,"is_reserved":false,"is_disabled":false,"rental_uris":{"android":"levelo://app?vid=5e117da4-0ee9-4611-82f0-81fad7eac37f","ios":"levelo://app?vid=5e117da4-0ee9-4611-82f0-81fad7eac37f"},"vehicle_type_id":"4","last_reported":1720465562,"current_range_meters":10000,"station_id":"ce4bgpp2rcd13ifvqc3g","pricing_plan_id":"cebpf4jnsgd1na2vs0mg"},{"bike_id":"6a0d4f64-47d5-46b4-878e-499e9f2cf509","system_id":"levelo_inurba_marseille","lat":43.305364,"lon":5.384119,"is_reserved":false,"is_disabled":false,"rental_uris":{"android":"levelo://app?vid=6a0d4f64-47d5-46b4-878e-499e9f2cf509","ios":"levelo://app?vid=6a0d4f64-47d5-46b4-878e-499e9f2cf509"},"vehicle_type_id":"4","last_reported":1720465562,"current_range_meters":8800,"station_id":"ce4bgg92rcd13ifvqb30","pricing_plan_id":"cebpf4jnsgd1na2vs0mg"},{"bike_id":"bfc27301-c878-4157-9a89-7f81b884206d","system_id":"levelo_inurba_marseille","lat":43.299243,"lon":5.374807,"is_reserved":false,"is_disabled":false,"rental_uris":{"android":"levelo://app?vid=bfc27301-c878-4157-9a89-7f81b884206d","ios":"levelo://app?vid=bfc27301-c878-4157-9a89-7f81b884206d"},"vehicle_type_id":"4","last_reported":1720465562,"current_range_meters":13600,"station_id":"ce4bgjh2rcd13ifvqbg0","pricing_plan_id":"cebpf4jnsgd1na2vs0mg"},{"bike_id":"368aa78d-9149-4279-b8a5-beeda856773e","system_id":"levelo_inurba_marseille","lat":43.297774,"lon":5.370875,"is_reserved":false,"is_disabled":false,"rental_uris":{"android":"levelo://app?vid=368aa78d-9149-4279-b8a5-beeda856773e","ios":"levelo://app?vid=368aa78d-9149-4279-b8a5-beeda856773e"},"vehicle_type_id":"4","last_reported":1720465562,"current_range_meters":30000,"station_id":"ce4bgop2rcd13ifvqc1g","pricing_plan_id":"cebpf4jnsgd1na2vs0mg"},{"bike_id":"80bf64db-f16f-44a6-9d28-f6a87eee1175","system_id":"levelo_inurba_marseille","lat":43.297774,"lon":5.370875,"is_reserved":false,"is_disabled":false,"rental_uris":{"android":"levelo://app?vid=80bf64db-f16f-44a6-9d28-f6a87eee1175","ios":"levelo://app?vid=80bf64db-f16f-44a6-9d28-f6a87eee1175"},"vehicle_type_id":"4","last_reported":1720465562,"current_range_meters":31200,"station_id":"ce4bgop2rcd13ifvqc1g","pricing_plan_id":"cebpf4jnsgd1na2vs0mg"},{"bike_id":"98cc0c1b-1e55-4080-a589-2c5566f61b67","system_id":"levelo_inurba_marseille","lat":43.297774,"lon":5.370875,"is_reserved":false,"is_disabled":false,"rental_uris":{"android":"levelo://app?vid=98cc0c1b-1e55-4080-a589-2c5566f61b67","ios":"levelo://app?vid=98cc0c1b-1e55-4080-a589-2c5566f61b67"},"vehicle_type_id":"4","last_reported":1720465562,"current_range_meters":8800,"station_id":"ce4bgop2rcd13ifvqc1g","pricing_plan_id":"cebpf4jnsgd1na2vs0mg"},{"bike_id":"69085457-2960-4053-901c-61af52c41e66","system_id":"levelo_inurba_marseille","lat":43.322872,"lon":5.382756,"is_reserved":false,"is_disabled":false,"rental_uris":{"android":"levelo://app?vid=69085457-2960-4053-901c-61af52c41e66","ios":"levelo://app?vid=69085457-2960-4053-901c-61af52c41e66"},"vehicle_type_id":"4","last_reported":1720465562,"current_range_meters":30000,"station_id":"ce4bhr12rcd13ifvqhqg","pricing_plan_id":"cebpf4jnsgd1na2vs0mg"},{"bike_id":"978c87f2-78e4-4e89-8dbb-23d0ba867ded","system_id":"levelo_inurba_marseille","lat":43.322872,"lon":5.382756,"is_reserved":false,"is_disabled":false,"rental_uris":{"android":"levelo://app?vid=978c87f2-78e4-4e89-8dbb-23d0ba867ded","ios":"levelo://app?vid=978c87f2-78e4-4e89-8dbb-23d0ba867ded"},"vehicle_type_id":"4","last_reported":1720465562,"current_range_meters":28000,"station_id":"ce4bhr12rcd13ifvqhqg","pricing_plan_id":"cebpf4jnsgd1na2vs0mg"},{"bike_id":"577cf315-b45d-43d0-801e-6b82857d529d","system_id":"levelo_inurba_marseille","lat":43.322872,"lon":5.382756,"is_reserved":false,"is_disabled":false,"rental_uris":{"android":"levelo://app?vid=577cf315-b45d-43d0-801e-6b82857d529d","ios":"levelo://app?vid=577cf315-b45d-43d0-801e-6b82857d529d"},"vehicle_type_id":"4","last_reported":1720465562,"current_range_meters":18400,"station_id":"ce4bhr12rcd13ifvqhqg","pricing_plan_id":"cebpf4jnsgd1na2vs0mg"},{"bike_id":"526ec0c8-d630-4b49-88de-248ec5eaf035","system_id":"levelo_inurba_marseille","lat":43.297163,"lon":5.365866,"is_reserved":false,"is_disabled":false,"rental_uris":{"android":"levelo://app?vid=526ec0c8-d630-4b49-88de-248ec5eaf035","ios":"levelo://app?vid=526ec0c8-d630-4b49-88de-248ec5eaf035"},"vehicle_type_id":"4","last_reported":1720465562,"current_range_meters":10800,"station_id":"ce4bgn12rcd13ifvqbt0","pricing_plan_id":"cebpf4jnsgd1na2vs0mg"},{"bike_id":"897bf193-702e-45dd-86fb-cfda8529a371","system_id":"levelo_inurba_marseille","lat":43.32659,"lon":5.3787,"is_reserved":false,"is_disabled":false,"rental_uris":{"android":"levelo://app?vid=897bf193-702e-45dd-86fb-cfda8529a371","ios":"levelo://app?vid=897bf193-702e-45dd-86fb-cfda8529a371"},"vehicle_type_id":"4","last_reported":1720465562,"current_range_meters":0,"station_id":"","pricing_plan_id":"cebpf4jnsgd1na2vs0mg"},{"bike_id":"dec7aa33-9218-4583-aa22-24b5e1ae8b28","system_id":"levelo_inurba_marseille","lat":43.299028,"lon":5.381509,"is_reserved":false,"is_disabled":false,"rental_uris":{"android":"levelo://app?vid=dec7aa33-9218-4583-aa22-24b5e1ae8b28","ios":"levelo://app?vid=dec7aa33-9218-4583-aa22-24b5e1ae8b28"},"vehicle_type_id":"4","last_reported":1720465562,"current_range_meters":0,"station_id":"ce4bgj12rcd13ifvqbc0","pricing_plan_id":"cebpf4jnsgd1na2vs0mg"},{"bike_id":"f2ed376b-c5b0-4eb5-abf1-577b90adad5e","system_id":"levelo_inurba_marseille","lat":43.299028,"lon":5.381509,"is_reserved":false,"is_disabled":false,"rental_uris":{"android":"levelo://app?vid=f2ed376b-c5b0-4eb5-abf1-577b90adad5e","ios":"levelo://app?vid=f2ed376b-c5b0-4eb5-abf1-577b90adad5e"},"vehicle_type_id":"4","last_reported":1720465562,"current_range_meters":15600,"station_id":"ce4bgj12rcd13ifvqbc0","pricing_plan_id":"cebpf4jnsgd1na2vs0mg"},{"bike_id":"199108bb-3857-4c4c-8780-dea13cf778e2","system_id":"levelo_inurba_marseille","lat":43.317557,"lon":5.390173,"is_reserved":false,"is_disabled":false,"rental_uris":{"android":"levelo://app?vid=199108bb-3857-4c4c-8780-dea13cf778e2","ios":"levelo://app?vid=199108bb-3857-4c4c-8780-dea13cf778e2"},"vehicle_type_id":"4","last_reported":1720465562,"current_range_meters":17200,"station_id":"ce4bhqp2rcd13ifvqhng","pricing_plan_id":"cebpf4jnsgd1na2vs0mg"},{"bike_id":"9638ddf0-3757-4f5e-b29c-5da18eb0125e","system_id":"levelo_inurba_marseille","lat":43.317557,"lon":5.390173,"is_reserved":false,"is_disabled":false,"rental_uris":{"android":"levelo://app?vid=9638ddf0-3757-4f5e-b29c-5da18eb0125e","ios":"levelo://app?vid=9638ddf0-3757-4f5e-b29c-5da18eb0125e"},"vehicle_type_id":"4","last_reported":1720465562,"current_range_meters":400,"station_id":"ce4bhqp2rcd13ifvqhng","pricing_plan_id":"cebpf4jnsgd1na2vs0mg"},{"bike_id":"5a619f82-0970-4491-b968-07e00337379a","system_id":"levelo_inurba_marseille","lat":43.297893,"lon":5.380883,"is_reserved":false,"is_disabled":false,"rental_uris":{"android":"levelo://app?vid=5a619f82-0970-4491-b968-07e00337379a","ios":"levelo://app?vid=5a619f82-0970-4491-b968-07e00337379a"},"vehicle_type_id":"4","last_reported":1720465562,"current_range_meters":0,"station_id":"ce4bgip2rcd13ifvqbb0","pricing_plan_id":"cebpf4jnsgd1na2vs0mg"},{"bike_id":"1cf4b92f-b3ea-4599-9ac1-10b8fbf5193f","system_id":"levelo_inurba_marseille","lat":43.304274,"lon":5.388873,"is_reserved":false,"is_disabled":false,"rental_uris":{"android":"levelo://app?vid=1cf4b92f-b3ea-4599-9ac1-10b8fbf5193f","ios":"levelo://app?vid=1cf4b92f-b3ea-4599-9ac1-10b8fbf5193f"},"vehicle_type_id":"4","last_reported":1720465562,"current_range_meters":12400,"station_id":"ce4bgk12rcd13ifvqbi0","pricing_plan_id":"cebpf4jnsgd1na2vs0mg"},{"bike_id":"a318963a-eba8-44e0-a21a-27ff3d9c9295","system_id":"levelo_inurba_marseille","lat":43.304278,"lon":5.388868,"is_reserved":false,"is_disabled":false,"rental_uris":{"android":"levelo://app?vid=a318963a-eba8-44e0-a21a-27ff3d9c9295","ios":"levelo://app?vid=a318963a-eba8-44e0-a21a-27ff3d9c9295"},"vehicle_type_id":"4","last_reported":1720465562,"current_range_meters":30400,"station_id":"ce4bgk12rcd13ifvqbi0","pricing_plan_id":"cebpf4jnsgd1na2vs0mg"},{"bike_id":"b25584f2-9a14-42fa-a311-f78b7aba81ef","system_id":"levelo_inurba_marseille","lat":43.296277,"lon":5.377108,"is_reserved":false,"is_disabled":false,"rental_uris":{"android":"levelo://app?vid=b25584f2-9a14-42fa-a311-f78b7aba81ef","ios":"levelo://app?vid=b25584f2-9a14-42fa-a311-f78b7aba81ef"},"vehicle_type_id":"4","last_reported":1720465562,"current_range_meters":2400,"station_id":"ce4bgi92rcd13ifvqb90","pricing_plan_id":"cebpf4jnsgd1na2vs0mg"},{"bike_id":"f2866fac-b70e-423e-a504-eae95f808105","system_id":"levelo_inurba_marseille","lat":43.298037,"lon":5.381066,"is_reserved":false,"is_disabled":false,"rental_uris":{"android":"levelo://app?vid=f2866fac-b70e-423e-a504-eae95f808105","ios":"levelo://app?vid=f2866fac-b70e-423e-a504-eae95f808105"},"vehicle_type_id":"4","last_reported":1720465562,"current_range_meters":5200,"station_id":"ce4bgip2rcd13ifvqbb0","pricing_plan_id":"cebpf4jnsgd1na2vs0mg"},{"bike_id":"816c5330-9fab-4ff3-ae68-508eed347213","system_id":"levelo_inurba_marseille","lat":43.304278,"lon":5.388868,"is_reserved":false,"is_disabled":false,"rental_uris":{"android":"levelo://app?vid=816c5330-9fab-4ff3-ae68-508eed347213","ios":"levelo://app?vid=816c5330-9fab-4ff3-ae68-508eed347213"},"vehicle_type_id":"4","last_reported":1720465562,"current_range_meters":13600,"station_id":"ce4bgk12rcd13ifvqbi0","pricing_plan_id":"cebpf4jnsgd1na2vs0mg"},{"bike_id":"9c9f5b6f-e3d9-4f16-bcac-ad6a913e81eb","system_id":"levelo_inurba_marseille","lat":43.298037,"lon":5.381066,"is_reserved":false,"is_disabled":false,"rental_uris":{"android":"levelo://app?vid=9c9f5b6f-e3d9-4f16-bcac-ad6a913e81eb","ios":"levelo://app?vid=9c9f5b6f-e3d9-4f16-bcac-ad6a913e81eb"},"vehicle_type_id":"4","last_reported":1720465562,"current_range_meters":29200,"station_id":"ce4bgip2rcd13ifvqbb0","pricing_plan_id":"cebpf4jnsgd1na2vs0mg"},{"bike_id":"a600f090-be7d-4d75-9a49-83e3e860370e","system_id":"levelo_inurba_marseille","lat":43.304278,"lon":5.388868,"is_reserved":false,"is_disabled":false,"rental_uris":{"android":"levelo://app?vid=a600f090-be7d-4d75-9a49-83e3e860370e","ios":"levelo://app?vid=a600f090-be7d-4d75-9a49-83e3e860370e"},"vehicle_type_id":"4","last_reported":1720465562,"current_range_meters":18800,"station_id":"ce4bgk12rcd13ifvqbi0","pricing_plan_id":"cebpf4jnsgd1na2vs0mg"},{"bike_id":"877ca5a8-34f5-446c-9bd4-342e4fa5c843","system_id":"levelo_inurba_marseille","lat":43.299707,"lon":5.384859,"is_reserved":false,"is_disabled":false,"rental_uris":{"android":"levelo://app?vid=877ca5a8-34f5-446c-9bd4-342e4fa5c843","ios":"levelo://app?vid=877ca5a8-34f5-446c-9bd4-342e4fa5c843"},"vehicle_type_id":"4","last_reported":1720465562,"current_range_meters":28800,"station_id":"ce4bgj92rcd13ifvqbd0","pricing_plan_id":"cebpf4jnsgd1na2vs0mg"},{"bike_id":"6bbae72e-621a-400e-9dd7-846c45132887","system_id":"levelo_inurba_marseille","lat":43.299707,"lon":5.384859,"is_reserved":false,"is_disabled":false,"rental_uris":{"android":"levelo://app?vid=6bbae72e-621a-400e-9dd7-846c45132887","ios":"levelo://app?vid=6bbae72e-621a-400e-9dd7-846c45132887"},"vehicle_type_id":"4","last_reported":1720465562,"current_range_meters":20400,"station_id":"ce4bgj92rcd13ifvqbd0","pricing_plan_id":"cebpf4jnsgd1na2vs0mg"},{"bike_id":"02932b25-882b-443a-b616-6409e85cdfc9","system_id":"levelo_inurba_marseille","lat":43.299717,"lon":5.384845,"is_reserved":false,"is_disabled":false,"rental_uris":{"android":"levelo://app?vid=02932b25-882b-443a-b616-6409e85cdfc9","ios":"levelo://app?vid=02932b25-882b-443a-b616-6409e85cdfc9"},"vehicle_type_id":"4","last_reported":1720465562,"current_range_meters":28400,"station_id":"ce4bgj92rcd13ifvqbd0","pricing_plan_id":"cebpf4jnsgd1na2vs0mg"},{"bike_id":"6b92f503-cb1c-47b2-a334-01986208d03e","system_id":"levelo_inurba_marseille","lat":43.299717,"lon":5.384845,"is_reserved":false,"is_disabled":false,"rental_uris":{"android":"levelo://app?vid=6b92f503-cb1c-47b2-a334-01986208d03e","ios":"levelo://app?vid=6b92f503-cb1c-47b2-a334-01986208d03e"},"vehicle_type_id":"4","last_reported":1720465562,"current_range_meters":28800,"station_id":"ce4bgj92rcd13ifvqbd0","pricing_plan_id":"cebpf4jnsgd1na2vs0mg"},{"bike_id":"c1bf733e-7f1e-44d3-9534-c68f9ea0e2b3","system_id":"levelo_inurba_marseille","lat":43.299707,"lon":5.384859,"is_reserved":false,"is_disabled":false,"rental_uris":{"android":"levelo://app?vid=c1bf733e-7f1e-44d3-9534-c68f9ea0e2b3","ios":"levelo://app?vid=c1bf733e-7f1e-44d3-9534-c68f9ea0e2b3"},"vehicle_type_id":"4","last_reported":1720465562,"current_range_meters":31200,"station_id":"ce4bgj92rcd13ifvqbd0","pricing_plan_id":"cebpf4jnsgd1na2vs0mg"},{"bike_id":"eb9fdeeb-294e-4db2-be30-394a6d895f70","system_id":"levelo_inurba_marseille","lat":43.299724,"lon":5.384848,"is_reserved":false,"is_disabled":false,"rental_uris":{"android":"levelo://app?vid=eb9fdeeb-294e-4db2-be30-394a6d895f70","ios":"levelo://app?vid=eb9fdeeb-294e-4db2-be30-394a6d895f70"},"vehicle_type_id":"4","last_reported":1720465562,"current_range_meters":0,"station_id":"ce4bgj92rcd13ifvqbd0","pricing_plan_id":"cebpf4jnsgd1na2vs0mg"},{"bike_id":"47d7520c-90d7-47fa-90f3-45629fe665c6","system_id":"levelo_inurba_marseille","lat":43.295279,"lon":5.375048,"is_reserved":false,"is_disabled":false,"rental_uris":{"android":"levelo://app?vid=47d7520c-90d7-47fa-90f3-45629fe665c6","ios":"levelo://app?vid=47d7520c-90d7-47fa-90f3-45629fe665c6"},"vehicle_type_id":"4","last_reported":1720465562,"current_range_meters":31200,"station_id":"ce4bgkp2rcd13ifvqbmg","pricing_plan_id":"cebpf4jnsgd1na2vs0mg"},{"bike_id":"ae03325f-0e4f-46ee-9999-b3d9dbce1c0b","system_id":"levelo_inurba_marseille","lat":43.32367,"lon":5.388836,"is_reserved":false,"is_disabled":false,"rental_uris":{"android":"levelo://app?vid=ae03325f-0e4f-46ee-9999-b3d9dbce1c0b","ios":"levelo://app?vid=ae03325f-0e4f-46ee-9999-b3d9dbce1c0b"},"vehicle_type_id":"4","last_reported":1720465562,"current_range_meters":20800,"station_id":"ce4bhqp2rcd13ifvqhog","pricing_plan_id":"cebpf4jnsgd1na2vs0mg"},{"bike_id":"9823db95-adf3-48e7-bf77-7214ed057023","system_id":"levelo_inurba_marseille","lat":43.29602,"lon":5.381084,"is_reserved":false,"is_disabled":false,"rental_uris":{"android":"levelo://app?vid=9823db95-adf3-48e7-bf77-7214ed057023","ios":"levelo://app?vid=9823db95-adf3-48e7-bf77-7214ed057023"},"vehicle_type_id":"4","last_reported":1720465562,"current_range_meters":400,"station_id":"ce4bgl12rcd13ifvqbo0","pricing_plan_id":"cebpf4jnsgd1na2vs0mg"},{"bike_id":"44be9c98-b0f0-411d-99ba-755985e936ae","system_id":"levelo_inurba_marseille","lat":43.29305,"lon":5.37177,"is_reserved":false,"is_disabled":false,"rental_uris":{"android":"levelo://app?vid=44be9c98-b0f0-411d-99ba-755985e936ae","ios":"levelo://app?vid=44be9c98-b0f0-411d-99ba-755985e936ae"},"vehicle_type_id":"4","last_reported":1720465562,"current_range_meters":0,"station_id":"ce4bgh92rcd13ifvqb40","pricing_plan_id":"cebpf4jnsgd1na2vs0mg"},{"bike_id":"a2352731-7c2d-4f62-a162-f444edeb5fc1","system_id":"levelo_inurba_marseille","lat":43.29302,"lon":5.37177,"is_reserved":false,"is_disabled":false,"rental_uris":{"android":"levelo://app?vid=a2352731-7c2d-4f62-a162-f444edeb5fc1","ios":"levelo://app?vid=a2352731-7c2d-4f62-a162-f444edeb5fc1"},"vehicle_type_id":"4","last_reported":1720465562,"current_range_meters":0,"station_id":"ce4bgh92rcd13ifvqb40","pricing_plan_id":"cebpf4jnsgd1na2vs0mg"},{"bike_id":"2de91101-7772-4e29-bced-6e15eab32268","system_id":"levelo_inurba_marseille","lat":43.29253,"lon":5.367,"is_reserved":false,"is_disabled":false,"rental_uris":{"android":"levelo://app?vid=2de91101-7772-4e29-bced-6e15eab32268","ios":"levelo://app?vid=2de91101-7772-4e29-bced-6e15eab32268"},"vehicle_type_id":"4","last_reported":1720465562,"current_range_meters":16400,"station_id":"","pricing_plan_id":"cebpf4jnsgd1na2vs0mg"},{"bike_id":"bac940e2-3d8d-49d3-8f7a-5b1e8f1d3efb","system_id":"levelo_inurba_marseille","lat":43.29252,"lon":5.36715,"is_reserved":false,"is_disabled":false,"rental_uris":{"android":"levelo://app?vid=bac940e2-3d8d-49d3-8f7a-5b1e8f1d3efb","ios":"levelo://app?vid=bac940e2-3d8d-49d3-8f7a-5b1e8f1d3efb"},"vehicle_type_id":"4","last_reported":1720465562,"current_range_meters":10800,"station_id":"","pricing_plan_id":"cebpf4jnsgd1na2vs0mg"},{"bike_id":"8fda6daf-1188-4e88-9409-da9f732354e7","system_id":"levelo_inurba_marseille","lat":43.29248,"lon":5.36613,"is_reserved":false,"is_disabled":false,"rental_uris":{"android":"levelo://app?vid=8fda6daf-1188-4e88-9409-da9f732354e7","ios":"levelo://app?vid=8fda6daf-1188-4e88-9409-da9f732354e7"},"vehicle_type_id":"4","last_reported":1720465562,"current_range_meters":2800,"station_id":"","pricing_plan_id":"cebpf4jnsgd1na2vs0mg"},{"bike_id":"cf8a0679-a24d-4990-8544-11f6bd43ae5f","system_id":"levelo_inurba_marseille","lat":43.29435,"lon":5.378883,"is_reserved":false,"is_disabled":false,"rental_uris":{"android":"levelo://app?vid=cf8a0679-a24d-4990-8544-11f6bd43ae5f","ios":"levelo://app?vid=cf8a0679-a24d-4990-8544-11f6bd43ae5f"},"vehicle_type_id":"4","last_reported":1720465562,"current_range_meters":0,"station_id":"","pricing_plan_id":"cebpf4jnsgd1na2vs0mg"},{"bike_id":"86fa4518-0e5e-4371-94ba-7837c1be5198","system_id":"levelo_inurba_marseille","lat":43.29303,"lon":5.37456,"is_reserved":false,"is_disabled":false,"rental_uris":{"android":"levelo://app?vid=86fa4518-0e5e-4371-94ba-7837c1be5198","ios":"levelo://app?vid=86fa4518-0e5e-4371-94ba-7837c1be5198"},"vehicle_type_id":"4","last_reported":1720465562,"current_range_meters":0,"station_id":"ce4bgi12rcd13ifvqb70","pricing_plan_id":"cebpf4jnsgd1na2vs0mg"},{"bike_id":"6984b0cd-4c5c-4f29-8800-e2a975d9f3c4","system_id":"levelo_inurba_marseille","lat":43.293009,"lon":5.374584,"is_reserved":false,"is_disabled":false,"rental_uris":{"android":"levelo://app?vid=6984b0cd-4c5c-4f29-8800-e2a975d9f3c4","ios":"levelo://app?vid=6984b0cd-4c5c-4f29-8800-e2a975d9f3c4"},"vehicle_type_id":"4","last_reported":1720465562,"current_range_meters":0,"station_id":"ce4bgi12rcd13ifvqb70","pricing_plan_id":"cebpf4jnsgd1na2vs0mg"},{"bike_id":"07b49bc6-63ef-48d6-a54b-76023144ab81","system_id":"levelo_inurba_marseille","lat":43.293009,"lon":5.374584,"is_reserved":false,"is_disabled":false,"rental_uris":{"android":"levelo://app?vid=07b49bc6-63ef-48d6-a54b-76023144ab81","ios":"levelo://app?vid=07b49bc6-63ef-48d6-a54b-76023144ab81"},"vehicle_type_id":"4","last_reported":1720465562,"current_range_meters":0,"station_id":"ce4bgi12rcd13ifvqb70","pricing_plan_id":"cebpf4jnsgd1na2vs0mg"},{"bike_id":"c3d41dd3-5df5-4043-965c-8a05847ec595","system_id":"levelo_inurba_marseille","lat":43.29296,"lon":5.37461,"is_reserved":false,"is_disabled":false,"rental_uris":{"android":"levelo://app?vid=c3d41dd3-5df5-4043-965c-8a05847ec595","ios":"levelo://app?vid=c3d41dd3-5df5-4043-965c-8a05847ec595"},"vehicle_type_id":"4","last_reported":1720465562,"current_range_meters":0,"station_id":"ce4bgi12rcd13ifvqb70","pricing_plan_id":"cebpf4jnsgd1na2vs0mg"},{"bike_id":"e02ab33b-65dd-4107-a1c8-bd9dfd993b1e","system_id":"levelo_inurba_marseille","lat":43.305994,"lon":5.393687,"is_reserved":false,"is_disabled":false,"rental_uris":{"android":"levelo://app?vid=e02ab33b-65dd-4107-a1c8-bd9dfd993b1e","ios":"levelo://app?vid=e02ab33b-65dd-4107-a1c8-bd9dfd993b1e"},"vehicle_type_id":"4","last_reported":1720465562,"current_range_meters":24800,"station_id":"ce4bh0p2rcd13ifvqd80","pricing_plan_id":"cebpf4jnsgd1na2vs0mg"},{"bike_id":"904696a8-2616-4ca8-b6f4-2d1908124b41","system_id":"levelo_inurba_marseille","lat":43.293009,"lon":5.374584,"is_reserved":false,"is_disabled":false,"rental_uris":{"android":"levelo://app?vid=904696a8-2616-4ca8-b6f4-2d1908124b41","ios":"levelo://app?vid=904696a8-2616-4ca8-b6f4-2d1908124b41"},"vehicle_type_id":"4","last_reported":1720465562,"current_range_meters":1200,"station_id":"ce4bgi12rcd13ifvqb70","pricing_plan_id":"cebpf4jnsgd1na2vs0mg"},{"bike_id":"80937c8c-3006-44d5-b592-0c6df48411ef","system_id":"levelo_inurba_marseille","lat":43.293009,"lon":5.374584,"is_reserved":false,"is_disabled":false,"rental_uris":{"android":"levelo://app?vid=80937c8c-3006-44d5-b592-0c6df48411ef","ios":"levelo://app?vid=80937c8c-3006-44d5-b592-0c6df48411ef"},"vehicle_type_id":"4","last_reported":1720465562,"current_range_meters":0,"station_id":"ce4bgi12rcd13ifvqb70","pricing_plan_id":"cebpf4jnsgd1na2vs0mg"},{"bike_id":"c35d174d-51d2-4e5c-a9d8-9b516e0a3145","system_id":"levelo_inurba_marseille","lat":43.305994,"lon":5.393687,"is_reserved":false,"is_disabled":false,"rental_uris":{"android":"levelo://app?vid=c35d174d-51d2-4e5c-a9d8-9b516e0a3145","ios":"levelo://app?vid=c35d174d-51d2-4e5c-a9d8-9b516e0a3145"},"vehicle_type_id":"4","last_reported":1720465562,"current_range_meters":17200,"station_id":"ce4bh0p2rcd13ifvqd80","pricing_plan_id":"cebpf4jnsgd1na2vs0mg"},{"bike_id":"7b1bd454-fcf4-4022-ad6b-a9bb1d25e993","system_id":"levelo_inurba_marseille","lat":43.30584,"lon":5.39361,"is_reserved":false,"is_disabled":false,"rental_uris":{"android":"levelo://app?vid=7b1bd454-fcf4-4022-ad6b-a9bb1d25e993","ios":"levelo://app?vid=7b1bd454-fcf4-4022-ad6b-a9bb1d25e993"},"vehicle_type_id":"4","last_reported":1720465562,"current_range_meters":0,"station_id":"ce4bh0p2rcd13ifvqd80","pricing_plan_id":"cebpf4jnsgd1na2vs0mg"},{"bike_id":"219edb01-8c6f-4b41-8590-05b770cd1a19","system_id":"levelo_inurba_marseille","lat":43.2936,"lon":5.37835,"is_reserved":false,"is_disabled":false,"rental_uris":{"android":"levelo://app?vid=219edb01-8c6f-4b41-8590-05b770cd1a19","ios":"levelo://app?vid=219edb01-8c6f-4b41-8590-05b770cd1a19"},"vehicle_type_id":"4","last_reported":1720465562,"current_range_meters":19600,"station_id":"ce4bgjh2rcd13ifvqbf0","pricing_plan_id":"cebpf4jnsgd1na2vs0mg"},{"bike_id":"ad7e097d-fbd9-49d7-a5a0-5edae15800f5","system_id":"levelo_inurba_marseille","lat":43.2936,"lon":5.37835,"is_reserved":false,"is_disabled":false,"rental_uris":{"android":"levelo://app?vid=ad7e097d-fbd9-49d7-a5a0-5edae15800f5","ios":"levelo://app?vid=ad7e097d-fbd9-49d7-a5a0-5edae15800f5"},"vehicle_type_id":"4","last_reported":1720465562,"current_range_meters":400,"station_id":"ce4bgjh2rcd13ifvqbf0","pricing_plan_id":"cebpf4jnsgd1na2vs0mg"},{"bike_id":"792b8b0c-45e9-448b-879f-22b7cfb177b1","system_id":"levelo_inurba_marseille","lat":43.292311,"lon":5.360731,"is_reserved":false,"is_disabled":false,"rental_uris":{"android":"levelo://app?vid=792b8b0c-45e9-448b-879f-22b7cfb177b1","ios":"levelo://app?vid=792b8b0c-45e9-448b-879f-22b7cfb177b1"},"vehicle_type_id":"4","last_reported":1720465562,"current_range_meters":7600,"station_id":"ce4bhbh2rcd13ifvqeqg","pricing_plan_id":"cebpf4jnsgd1na2vs0mg"},{"bike_id":"5079f1b8-7824-4852-b477-aee9101e5a83","system_id":"levelo_inurba_marseille","lat":43.30085,"lon":5.390856,"is_reserved":false,"is_disabled":false,"rental_uris":{"android":"levelo://app?vid=5079f1b8-7824-4852-b477-aee9101e5a83","ios":"levelo://app?vid=5079f1b8-7824-4852-b477-aee9101e5a83"},"vehicle_type_id":"4","last_reported":1720465562,"current_range_meters":0,"station_id":"ce4bh192rcd13ifvqdb0","pricing_plan_id":"cebpf4jnsgd1na2vs0mg"},{"bike_id":"a627efa3-64f9-4dd3-a222-7d2d32be8091","system_id":"levelo_inurba_marseille","lat":43.30085,"lon":5.390856,"is_reserved":false,"is_disabled":false,"rental_uris":{"android":"levelo://app?vid=a627efa3-64f9-4dd3-a222-7d2d32be8091","ios":"levelo://app?vid=a627efa3-64f9-4dd3-a222-7d2d32be8091"},"vehicle_type_id":"4","last_reported":1720465562,"current_range_meters":2800,"station_id":"ce4bh192rcd13ifvqdb0","pricing_plan_id":"cebpf4jnsgd1na2vs0mg"},{"bike_id":"8179d118-05ee-4e21-a53d-f4e6622ecdf7","system_id":"levelo_inurba_marseille","lat":43.292311,"lon":5.360731,"is_reserved":false,"is_disabled":false,"rental_uris":{"android":"levelo://app?vid=8179d118-05ee-4e21-a53d-f4e6622ecdf7","ios":"levelo://app?vid=8179d118-05ee-4e21-a53d-f4e6622ecdf7"},"vehicle_type_id":"4","last_reported":1720465562,"current_range_meters":0,"station_id":"ce4bhbh2rcd13ifvqeqg","pricing_plan_id":"cebpf4jnsgd1na2vs0mg"},{"bike_id":"a9684b05-da30-4314-b1ee-582ecb487ef0","system_id":"levelo_inurba_marseille","lat":43.29219,"lon":5.36046,"is_reserved":false,"is_disabled":false,"rental_uris":{"android":"levelo://app?vid=a9684b05-da30-4314-b1ee-582ecb487ef0","ios":"levelo://app?vid=a9684b05-da30-4314-b1ee-582ecb487ef0"},"vehicle_type_id":"4","last_reported":1720465562,"current_range_meters":0,"station_id":"ce4bhbh2rcd13ifvqeqg","pricing_plan_id":"cebpf4jnsgd1na2vs0mg"},{"bike_id":"5f360e7e-90b2-49aa-8668-af737d400156","system_id":"levelo_inurba_marseille","lat":43.298764,"lon":5.388973,"is_reserved":false,"is_disabled":false,"rental_uris":{"android":"levelo://app?vid=5f360e7e-90b2-49aa-8668-af737d400156","ios":"levelo://app?vid=5f360e7e-90b2-49aa-8668-af737d400156"},"vehicle_type_id":"4","last_reported":1720465562,"current_range_meters":400,"station_id":"ce4bh392rcd13ifvqdl0","pricing_plan_id":"cebpf4jnsgd1na2vs0mg"},{"bike_id":"38f66fd3-f10a-408f-8e6e-eb7a691c1168","system_id":"levelo_inurba_marseille","lat":43.298764,"lon":5.388973,"is_reserved":false,"is_disabled":false,"rental_uris":{"android":"levelo://app?vid=38f66fd3-f10a-408f-8e6e-eb7a691c1168","ios":"levelo://app?vid=38f66fd3-f10a-408f-8e6e-eb7a691c1168"},"vehicle_type_id":"4","last_reported":1720465562,"current_range_meters":11200,"station_id":"ce4bh392rcd13ifvqdl0","pricing_plan_id":"cebpf4jnsgd1na2vs0mg"},{"bike_id":"0a0ad989-64a9-48fb-97fd-9747d6185069","system_id":"levelo_inurba_marseille","lat":43.298764,"lon":5.388973,"is_reserved":false,"is_disabled":false,"rental_uris":{"android":"levelo://app?vid=0a0ad989-64a9-48fb-97fd-9747d6185069","ios":"levelo://app?vid=0a0ad989-64a9-48fb-97fd-9747d6185069"},"vehicle_type_id":"4","last_reported":1720465562,"current_range_meters":24400,"station_id":"ce4bh392rcd13ifvqdl0","pricing_plan_id":"cebpf4jnsgd1na2vs0mg"},{"bike_id":"88261d7f-d3d3-4154-8219-41ee0ab168dc","system_id":"levelo_inurba_marseille","lat":43.298764,"lon":5.388973,"is_reserved":false,"is_disabled":false,"rental_uris":{"android":"levelo://app?vid=88261d7f-d3d3-4154-8219-41ee0ab168dc","ios":"levelo://app?vid=88261d7f-d3d3-4154-8219-41ee0ab168dc"},"vehicle_type_id":"4","last_reported":1720465562,"current_range_meters":20000,"station_id":"ce4bh392rcd13ifvqdl0","pricing_plan_id":"cebpf4jnsgd1na2vs0mg"},{"bike_id":"2b4a0c60-535b-4435-83c1-11dcbe7a9531","system_id":"levelo_inurba_marseille","lat":43.298764,"lon":5.388973,"is_reserved":false,"is_disabled":false,"rental_uris":{"android":"levelo://app?vid=2b4a0c60-535b-4435-83c1-11dcbe7a9531","ios":"levelo://app?vid=2b4a0c60-535b-4435-83c1-11dcbe7a9531"},"vehicle_type_id":"4","last_reported":1720465562,"current_range_meters":31200,"station_id":"ce4bh392rcd13ifvqdl0","pricing_plan_id":"cebpf4jnsgd1na2vs0mg"},{"bike_id":"cb9665a7-4801-46c7-ae09-7b61f24473e2","system_id":"levelo_inurba_marseille","lat":43.298764,"lon":5.388973,"is_reserved":false,"is_disabled":false,"rental_uris":{"android":"levelo://app?vid=cb9665a7-4801-46c7-ae09-7b61f24473e2","ios":"levelo://app?vid=cb9665a7-4801-46c7-ae09-7b61f24473e2"},"vehicle_type_id":"4","last_reported":1720465562,"current_range_meters":30000,"station_id":"ce4bh392rcd13ifvqdl0","pricing_plan_id":"cebpf4jnsgd1na2vs0mg"},{"bike_id":"c3c9e2a2-6e76-455a-8734-e7ec21c48ba4","system_id":"levelo_inurba_marseille","lat":43.298764,"lon":5.388973,"is_reserved":false,"is_disabled":false,"rental_uris":{"android":"levelo://app?vid=c3c9e2a2-6e76-455a-8734-e7ec21c48ba4","ios":"levelo://app?vid=c3c9e2a2-6e76-455a-8734-e7ec21c48ba4"},"vehicle_type_id":"4","last_reported":1720465562,"current_range_meters":800,"station_id":"ce4bh392rcd13ifvqdl0","pricing_plan_id":"cebpf4jnsgd1na2vs0mg"},{"bike_id":"42c99718-713b-4dac-8404-da57ab357cf6","system_id":"levelo_inurba_marseille","lat":43.309038,"lon":5.396546,"is_reserved":false,"is_disabled":false,"rental_uris":{"android":"levelo://app?vid=42c99718-713b-4dac-8404-da57ab357cf6","ios":"levelo://app?vid=42c99718-713b-4dac-8404-da57ab357cf6"},"vehicle_type_id":"4","last_reported":1720465562,"current_range_meters":31200,"station_id":"ce4bh012rcd13ifvqcv0","pricing_plan_id":"cebpf4jnsgd1na2vs0mg"},{"bike_id":"80a2670a-7983-43b7-a1f7-15fc350a179b","system_id":"levelo_inurba_marseille","lat":43.309038,"lon":5.396546,"is_reserved":false,"is_disabled":false,"rental_uris":{"android":"levelo://app?vid=80a2670a-7983-43b7-a1f7-15fc350a179b","ios":"levelo://app?vid=80a2670a-7983-43b7-a1f7-15fc350a179b"},"vehicle_type_id":"4","last_reported":1720465562,"current_range_meters":31200,"station_id":"ce4bh012rcd13ifvqcv0","pricing_plan_id":"cebpf4jnsgd1na2vs0mg"},{"bike_id":"a898f3c0-1c32-4a7c-a988-fb55e135cf60","system_id":"levelo_inurba_marseille","lat":43.313291,"lon":5.396838,"is_reserved":false,"is_disabled":false,"rental_uris":{"android":"levelo://app?vid=a898f3c0-1c32-4a7c-a988-fb55e135cf60","ios":"levelo://app?vid=a898f3c0-1c32-4a7c-a988-fb55e135cf60"},"vehicle_type_id":"4","last_reported":1720465562,"current_range_meters":13600,"station_id":"ce4bgvp2rcd13ifvqcu0","pricing_plan_id":"cebpf4jnsgd1na2vs0mg"},{"bike_id":"289fa69a-ce07-4ee7-bbd2-8b168ee578f9","system_id":"levelo_inurba_marseille","lat":43.29248,"lon":5.378047,"is_reserved":false,"is_disabled":false,"rental_uris":{"android":"levelo://app?vid=289fa69a-ce07-4ee7-bbd2-8b168ee578f9","ios":"levelo://app?vid=289fa69a-ce07-4ee7-bbd2-8b168ee578f9"},"vehicle_type_id":"4","last_reported":1720465562,"current_range_meters":29600,"station_id":"","pricing_plan_id":"cebpf4jnsgd1na2vs0mg"},{"bike_id":"1c5bda11-b4f1-4062-b90c-2c88c6ed597f","system_id":"levelo_inurba_marseille","lat":43.309038,"lon":5.396546,"is_reserved":false,"is_disabled":false,"rental_uris":{"android":"levelo://app?vid=1c5bda11-b4f1-4062-b90c-2c88c6ed597f","ios":"levelo://app?vid=1c5bda11-b4f1-4062-b90c-2c88c6ed597f"},"vehicle_type_id":"4","last_reported":1720465562,"current_range_meters":30800,"station_id":"ce4bh012rcd13ifvqcv0","pricing_plan_id":"cebpf4jnsgd1na2vs0mg"},{"bike_id":"a528df29-e466-488b-a09b-c1509d714d64","system_id":"levelo_inurba_marseille","lat":43.313291,"lon":5.396838,"is_reserved":false,"is_disabled":false,"rental_uris":{"android":"levelo://app?vid=a528df29-e466-488b-a09b-c1509d714d64","ios":"levelo://app?vid=a528df29-e466-488b-a09b-c1509d714d64"},"vehicle_type_id":"4","last_reported":1720465562,"current_range_meters":31200,"station_id":"ce4bgvp2rcd13ifvqcu0","pricing_plan_id":"cebpf4jnsgd1na2vs0mg"},{"bike_id":"792fceb9-5c4c-486b-9b7e-e8d8d4d97947","system_id":"levelo_inurba_marseille","lat":43.31336,"lon":5.39693,"is_reserved":false,"is_disabled":false,"rental_uris":{"android":"levelo://app?vid=792fceb9-5c4c-486b-9b7e-e8d8d4d97947","ios":"levelo://app?vid=792fceb9-5c4c-486b-9b7e-e8d8d4d97947"},"vehicle_type_id":"4","last_reported":1720465562,"current_range_meters":8400,"station_id":"ce4bgvp2rcd13ifvqcu0","pricing_plan_id":"cebpf4jnsgd1na2vs0mg"},{"bike_id":"ce0fd119-33b8-4757-9a38-fa3782d6656c","system_id":"levelo_inurba_marseille","lat":43.31332,"lon":5.39694,"is_reserved":false,"is_disabled":false,"rental_uris":{"android":"levelo://app?vid=ce0fd119-33b8-4757-9a38-fa3782d6656c","ios":"levelo://app?vid=ce0fd119-33b8-4757-9a38-fa3782d6656c"},"vehicle_type_id":"4","last_reported":1720465562,"current_range_meters":31200,"station_id":"ce4bgvp2rcd13ifvqcu0","pricing_plan_id":"cebpf4jnsgd1na2vs0mg"},{"bike_id":"222ed8fc-2578-4a0e-be66-1af4ea0d384f","system_id":"levelo_inurba_marseille","lat":43.309047,"lon":5.396551,"is_reserved":false,"is_disabled":false,"rental_uris":{"android":"levelo://app?vid=222ed8fc-2578-4a0e-be66-1af4ea0d384f","ios":"levelo://app?vid=222ed8fc-2578-4a0e-be66-1af4ea0d384f"},"vehicle_type_id":"4","last_reported":1720465562,"current_range_meters":24800,"station_id":"ce4bh012rcd13ifvqcv0","pricing_plan_id":"cebpf4jnsgd1na2vs0mg"},{"bike_id":"b6d73b79-3fd1-4889-905a-b6ca64c6cf0d","system_id":"levelo_inurba_marseille","lat":43.309038,"lon":5.396546,"is_reserved":false,"is_disabled":false,"rental_uris":{"android":"levelo://app?vid=b6d73b79-3fd1-4889-905a-b6ca64c6cf0d","ios":"levelo://app?vid=b6d73b79-3fd1-4889-905a-b6ca64c6cf0d"},"vehicle_type_id":"4","last_reported":1720465562,"current_range_meters":1600,"station_id":"ce4bh012rcd13ifvqcv0","pricing_plan_id":"cebpf4jnsgd1na2vs0mg"},{"bike_id":"afdace73-5fe9-4f02-8b86-966504df2e07","system_id":"levelo_inurba_marseille","lat":43.30148,"lon":5.392825,"is_reserved":false,"is_disabled":false,"rental_uris":{"android":"levelo://app?vid=afdace73-5fe9-4f02-8b86-966504df2e07","ios":"levelo://app?vid=afdace73-5fe9-4f02-8b86-966504df2e07"},"vehicle_type_id":"4","last_reported":1720465562,"current_range_meters":20800,"station_id":"","pricing_plan_id":"cebpf4jnsgd1na2vs0mg"},{"bike_id":"60b2834b-e4ac-4f7c-b444-1e31ef1fc2ef","system_id":"levelo_inurba_marseille","lat":43.29529,"lon":5.385581,"is_reserved":false,"is_disabled":false,"rental_uris":{"android":"levelo://app?vid=60b2834b-e4ac-4f7c-b444-1e31ef1fc2ef","ios":"levelo://app?vid=60b2834b-e4ac-4f7c-b444-1e31ef1fc2ef"},"vehicle_type_id":"4","last_reported":1720465562,"current_range_meters":24000,"station_id":"ce4bgih2rcd13ifvqba0","pricing_plan_id":"cebpf4jnsgd1na2vs0mg"},{"bike_id":"298dc332-cd1a-46b3-93d3-b70305288693","system_id":"levelo_inurba_marseille","lat":43.29529,"lon":5.385581,"is_reserved":false,"is_disabled":false,"rental_uris":{"android":"levelo://app?vid=298dc332-cd1a-46b3-93d3-b70305288693","ios":"levelo://app?vid=298dc332-cd1a-46b3-93d3-b70305288693"},"vehicle_type_id":"4","last_reported":1720465562,"current_range_meters":800,"station_id":"ce4bgih2rcd13ifvqba0","pricing_plan_id":"cebpf4jnsgd1na2vs0mg"},{"bike_id":"57e882f5-a16c-4b7c-a4c3-bf265bc72ced","system_id":"levelo_inurba_marseille","lat":43.29529,"lon":5.385581,"is_reserved":false,"is_disabled":false,"rental_uris":{"android":"levelo://app?vid=57e882f5-a16c-4b7c-a4c3-bf265bc72ced","ios":"levelo://app?vid=57e882f5-a16c-4b7c-a4c3-bf265bc72ced"},"vehicle_type_id":"4","last_reported":1720465562,"current_range_meters":0,"station_id":"ce4bgih2rcd13ifvqba0","pricing_plan_id":"cebpf4jnsgd1na2vs0mg"},{"bike_id":"d4a37ac6-cb61-47a7-85d8-b3fa7124bf03","system_id":"levelo_inurba_marseille","lat":43.29529,"lon":5.385581,"is_reserved":false,"is_disabled":false,"rental_uris":{"android":"levelo://app?vid=d4a37ac6-cb61-47a7-85d8-b3fa7124bf03","ios":"levelo://app?vid=d4a37ac6-cb61-47a7-85d8-b3fa7124bf03"},"vehicle_type_id":"4","last_reported":1720465562,"current_range_meters":30400,"station_id":"ce4bgih2rcd13ifvqba0","pricing_plan_id":"cebpf4jnsgd1na2vs0mg"},{"bike_id":"d8f9a94d-59b9-4e75-ad4b-0c3cd3d0923b","system_id":"levelo_inurba_marseille","lat":43.29529,"lon":5.385581,"is_reserved":false,"is_disabled":false,"rental_uris":{"android":"levelo://app?vid=d8f9a94d-59b9-4e75-ad4b-0c3cd3d0923b","ios":"levelo://app?vid=d8f9a94d-59b9-4e75-ad4b-0c3cd3d0923b"},"vehicle_type_id":"4","last_reported":1720465562,"current_range_meters":31200,"station_id":"ce4bgih2rcd13ifvqba0","pricing_plan_id":"cebpf4jnsgd1na2vs0mg"},{"bike_id":"333f5e0f-74cf-42e7-9411-74560c402116","system_id":"levelo_inurba_marseille","lat":43.29529,"lon":5.385581,"is_reserved":false,"is_disabled":false,"rental_uris":{"android":"levelo://app?vid=333f5e0f-74cf-42e7-9411-74560c402116","ios":"levelo://app?vid=333f5e0f-74cf-42e7-9411-74560c402116"},"vehicle_type_id":"4","last_reported":1720465562,"current_range_meters":0,"station_id":"ce4bgih2rcd13ifvqba0","pricing_plan_id":"cebpf4jnsgd1na2vs0mg"},{"bike_id":"baa650c2-6ce7-4a7c-8394-4b20d1ae659a","system_id":"levelo_inurba_marseille","lat":43.29529,"lon":5.385581,"is_reserved":false,"is_disabled":false,"rental_uris":{"android":"levelo://app?vid=baa650c2-6ce7-4a7c-8394-4b20d1ae659a","ios":"levelo://app?vid=baa650c2-6ce7-4a7c-8394-4b20d1ae659a"},"vehicle_type_id":"4","last_reported":1720465562,"current_range_meters":16800,"station_id":"ce4bgih2rcd13ifvqba0","pricing_plan_id":"cebpf4jnsgd1na2vs0mg"},{"bike_id":"d1ee4e10-1822-4e25-a1aa-b2ae01239b6b","system_id":"levelo_inurba_marseille","lat":43.290766,"lon":5.371605,"is_reserved":false,"is_disabled":false,"rental_uris":{"android":"levelo://app?vid=d1ee4e10-1822-4e25-a1aa-b2ae01239b6b","ios":"levelo://app?vid=d1ee4e10-1822-4e25-a1aa-b2ae01239b6b"},"vehicle_type_id":"4","last_reported":1720465562,"current_range_meters":31200,"station_id":"ce4bh5p2rcd13ifvqe4g","pricing_plan_id":"cebpf4jnsgd1na2vs0mg"},{"bike_id":"35cf24a7-9585-45bb-ab33-359fab17e4b9","system_id":"levelo_inurba_marseille","lat":43.290779,"lon":5.371482,"is_reserved":false,"is_disabled":false,"rental_uris":{"android":"levelo://app?vid=35cf24a7-9585-45bb-ab33-359fab17e4b9","ios":"levelo://app?vid=35cf24a7-9585-45bb-ab33-359fab17e4b9"},"vehicle_type_id":"4","last_reported":1720465562,"current_range_meters":31600,"station_id":"ce4bh5p2rcd13ifvqe4g","pricing_plan_id":"cebpf4jnsgd1na2vs0mg"},{"bike_id":"ebd7837f-fc7a-40ca-8ea5-49638be97d3f","system_id":"levelo_inurba_marseille","lat":43.290665,"lon":5.371549,"is_reserved":false,"is_disabled":false,"rental_uris":{"android":"levelo://app?vid=ebd7837f-fc7a-40ca-8ea5-49638be97d3f","ios":"levelo://app?vid=ebd7837f-fc7a-40ca-8ea5-49638be97d3f"},"vehicle_type_id":"4","last_reported":1720465562,"current_range_meters":31200,"station_id":"ce4bh5p2rcd13ifvqe4g","pricing_plan_id":"cebpf4jnsgd1na2vs0mg"},{"bike_id":"3fd7e76a-914f-445f-9f65-0f65f603fa24","system_id":"levelo_inurba_marseille","lat":43.29062,"lon":5.37165,"is_reserved":false,"is_disabled":false,"rental_uris":{"android":"levelo://app?vid=3fd7e76a-914f-445f-9f65-0f65f603fa24","ios":"levelo://app?vid=3fd7e76a-914f-445f-9f65-0f65f603fa24"},"vehicle_type_id":"4","last_reported":1720465562,"current_range_meters":30800,"station_id":"ce4bh5p2rcd13ifvqe4g","pricing_plan_id":"cebpf4jnsgd1na2vs0mg"},{"bike_id":"baed81ed-1ba0-47c9-afaa-75a4a474dd59","system_id":"levelo_inurba_marseille","lat":43.29061,"lon":5.37164,"is_reserved":false,"is_disabled":false,"rental_uris":{"android":"levelo://app?vid=baed81ed-1ba0-47c9-afaa-75a4a474dd59","ios":"levelo://app?vid=baed81ed-1ba0-47c9-afaa-75a4a474dd59"},"vehicle_type_id":"4","last_reported":1720465562,"current_range_meters":2000,"station_id":"ce4bh5p2rcd13ifvqe4g","pricing_plan_id":"cebpf4jnsgd1na2vs0mg"},{"bike_id":"fb875fc6-7ceb-4a25-bca8-2c5ccd579fd7","system_id":"levelo_inurba_marseille","lat":43.302008,"lon":5.394694,"is_reserved":false,"is_disabled":false,"rental_uris":{"android":"levelo://app?vid=fb875fc6-7ceb-4a25-bca8-2c5ccd579fd7","ios":"levelo://app?vid=fb875fc6-7ceb-4a25-bca8-2c5ccd579fd7"},"vehicle_type_id":"4","last_reported":1720465562,"current_range_meters":18000,"station_id":"ce4bh0p2rcd13ifvqd70","pricing_plan_id":"cebpf4jnsgd1na2vs0mg"},{"bike_id":"166638d2-a5a7-4ce1-9a71-3306b280c46f","system_id":"levelo_inurba_marseille","lat":43.290624,"lon":5.359245,"is_reserved":false,"is_disabled":false,"rental_uris":{"android":"levelo://app?vid=166638d2-a5a7-4ce1-9a71-3306b280c46f","ios":"levelo://app?vid=166638d2-a5a7-4ce1-9a71-3306b280c46f"},"vehicle_type_id":"4","last_reported":1720465562,"current_range_meters":20000,"station_id":"ce4bha92rcd13ifvqeg0","pricing_plan_id":"cebpf4jnsgd1na2vs0mg"},{"bike_id":"54c36672-0654-4fab-9a4a-26ccd43aab39","system_id":"levelo_inurba_marseille","lat":43.290631,"lon":5.359244,"is_reserved":false,"is_disabled":false,"rental_uris":{"android":"levelo://app?vid=54c36672-0654-4fab-9a4a-26ccd43aab39","ios":"levelo://app?vid=54c36672-0654-4fab-9a4a-26ccd43aab39"},"vehicle_type_id":"4","last_reported":1720465562,"current_range_meters":2000,"station_id":"ce4bha92rcd13ifvqeg0","pricing_plan_id":"cebpf4jnsgd1na2vs0mg"},{"bike_id":"c6faa10b-5067-4871-b215-519bdaa85358","system_id":"levelo_inurba_marseille","lat":43.290624,"lon":5.359245,"is_reserved":false,"is_disabled":false,"rental_uris":{"android":"levelo://app?vid=c6faa10b-5067-4871-b215-519bdaa85358","ios":"levelo://app?vid=c6faa10b-5067-4871-b215-519bdaa85358"},"vehicle_type_id":"4","last_reported":1720465562,"current_range_meters":27200,"station_id":"ce4bha92rcd13ifvqeg0","pricing_plan_id":"cebpf4jnsgd1na2vs0mg"},{"bike_id":"b2d691c3-2987-4132-97be-862a3305f0b7","system_id":"levelo_inurba_marseille","lat":43.290624,"lon":5.359245,"is_reserved":false,"is_disabled":false,"rental_uris":{"android":"levelo://app?vid=b2d691c3-2987-4132-97be-862a3305f0b7","ios":"levelo://app?vid=b2d691c3-2987-4132-97be-862a3305f0b7"},"vehicle_type_id":"4","last_reported":1720465562,"current_range_meters":1200,"station_id":"ce4bha92rcd13ifvqeg0","pricing_plan_id":"cebpf4jnsgd1na2vs0mg"},{"bike_id":"8923d3b5-8513-49ed-811e-92487f655242","system_id":"levelo_inurba_marseille","lat":43.29424,"lon":5.38612,"is_reserved":false,"is_disabled":false,"rental_uris":{"android":"levelo://app?vid=8923d3b5-8513-49ed-811e-92487f655242","ios":"levelo://app?vid=8923d3b5-8513-49ed-811e-92487f655242"},"vehicle_type_id":"4","last_reported":1720465562,"current_range_meters":0,"station_id":"ce4bh2h2rcd13ifvqdh0","pricing_plan_id":"cebpf4jnsgd1na2vs0mg"},{"bike_id":"d7b28568-77a2-451e-8455-824fa37b8c59","system_id":"levelo_inurba_marseille","lat":43.290327,"lon":5.375711,"is_reserved":false,"is_disabled":false,"rental_uris":{"android":"levelo://app?vid=d7b28568-77a2-451e-8455-824fa37b8c59","ios":"levelo://app?vid=d7b28568-77a2-451e-8455-824fa37b8c59"},"vehicle_type_id":"4","last_reported":1720465562,"current_range_meters":3600,"station_id":"ce4bh692rcd13ifvqe90","pricing_plan_id":"cebpf4jnsgd1na2vs0mg"},{"bike_id":"02d29453-672f-45c6-a09f-4aaaee3037fa","system_id":"levelo_inurba_marseille","lat":43.289184,"lon":5.366408,"is_reserved":false,"is_disabled":false,"rental_uris":{"android":"levelo://app?vid=02d29453-672f-45c6-a09f-4aaaee3037fa","ios":"levelo://app?vid=02d29453-672f-45c6-a09f-4aaaee3037fa"},"vehicle_type_id":"4","last_reported":1720465562,"current_range_meters":24000,"station_id":"ce4bhap2rcd13ifvqek0","pricing_plan_id":"cebpf4jnsgd1na2vs0mg"},{"bike_id":"6dda2fb8-3317-45db-90a0-52c3fe5aa075","system_id":"levelo_inurba_marseille","lat":43.289184,"lon":5.366408,"is_reserved":false,"is_disabled":false,"rental_uris":{"android":"levelo://app?vid=6dda2fb8-3317-45db-90a0-52c3fe5aa075","ios":"levelo://app?vid=6dda2fb8-3317-45db-90a0-52c3fe5aa075"},"vehicle_type_id":"4","last_reported":1720465562,"current_range_meters":22000,"station_id":"ce4bhap2rcd13ifvqek0","pricing_plan_id":"cebpf4jnsgd1na2vs0mg"},{"bike_id":"1ddfb46e-017f-4e4a-85ad-b159b7c5a348","system_id":"levelo_inurba_marseille","lat":43.289184,"lon":5.366408,"is_reserved":false,"is_disabled":false,"rental_uris":{"android":"levelo://app?vid=1ddfb46e-017f-4e4a-85ad-b159b7c5a348","ios":"levelo://app?vid=1ddfb46e-017f-4e4a-85ad-b159b7c5a348"},"vehicle_type_id":"4","last_reported":1720465562,"current_range_meters":7200,"station_id":"ce4bhap2rcd13ifvqek0","pricing_plan_id":"cebpf4jnsgd1na2vs0mg"},{"bike_id":"567a6590-a778-46fb-8b58-4a6698f0d5ab","system_id":"levelo_inurba_marseille","lat":43.289184,"lon":5.366408,"is_reserved":false,"is_disabled":false,"rental_uris":{"android":"levelo://app?vid=567a6590-a778-46fb-8b58-4a6698f0d5ab","ios":"levelo://app?vid=567a6590-a778-46fb-8b58-4a6698f0d5ab"},"vehicle_type_id":"4","last_reported":1720465562,"current_range_meters":29600,"station_id":"ce4bhap2rcd13ifvqek0","pricing_plan_id":"cebpf4jnsgd1na2vs0mg"},{"bike_id":"13f3670d-258b-4886-9195-00b07ce3e105","system_id":"levelo_inurba_marseille","lat":43.289184,"lon":5.366408,"is_reserved":false,"is_disabled":false,"rental_uris":{"android":"levelo://app?vid=13f3670d-258b-4886-9195-00b07ce3e105","ios":"levelo://app?vid=13f3670d-258b-4886-9195-00b07ce3e105"},"vehicle_type_id":"4","last_reported":1720465562,"current_range_meters":18400,"station_id":"ce4bhap2rcd13ifvqek0","pricing_plan_id":"cebpf4jnsgd1na2vs0mg"},{"bike_id":"355a3152-c3da-4102-bc09-c42fe36df273","system_id":"levelo_inurba_marseille","lat":43.289184,"lon":5.366408,"is_reserved":false,"is_disabled":false,"rental_uris":{"android":"levelo://app?vid=355a3152-c3da-4102-bc09-c42fe36df273","ios":"levelo://app?vid=355a3152-c3da-4102-bc09-c42fe36df273"},"vehicle_type_id":"4","last_reported":1720465562,"current_range_meters":6800,"station_id":"ce4bhap2rcd13ifvqek0","pricing_plan_id":"cebpf4jnsgd1na2vs0mg"},{"bike_id":"7d13e98e-8d75-4f33-b903-0667c650e008","system_id":"levelo_inurba_marseille","lat":43.289468,"lon":5.363719,"is_reserved":false,"is_disabled":false,"rental_uris":{"android":"levelo://app?vid=7d13e98e-8d75-4f33-b903-0667c650e008","ios":"levelo://app?vid=7d13e98e-8d75-4f33-b903-0667c650e008"},"vehicle_type_id":"4","last_reported":1720465562,"current_range_meters":8400,"station_id":"ce4bhc92rcd13ifvqetg","pricing_plan_id":"cebpf4jnsgd1na2vs0mg"},{"bike_id":"68464e77-e31e-4f54-ad1b-c3ae587b9b14","system_id":"levelo_inurba_marseille","lat":43.289468,"lon":5.363719,"is_reserved":false,"is_disabled":false,"rental_uris":{"android":"levelo://app?vid=68464e77-e31e-4f54-ad1b-c3ae587b9b14","ios":"levelo://app?vid=68464e77-e31e-4f54-ad1b-c3ae587b9b14"},"vehicle_type_id":"4","last_reported":1720465562,"current_range_meters":29200,"station_id":"ce4bhc92rcd13ifvqetg","pricing_plan_id":"cebpf4jnsgd1na2vs0mg"},{"bike_id":"0df2de2c-de82-4c9a-88f9-1896f8371b17","system_id":"levelo_inurba_marseille","lat":43.289184,"lon":5.366408,"is_reserved":false,"is_disabled":false,"rental_uris":{"android":"levelo://app?vid=0df2de2c-de82-4c9a-88f9-1896f8371b17","ios":"levelo://app?vid=0df2de2c-de82-4c9a-88f9-1896f8371b17"},"vehicle_type_id":"4","last_reported":1720465562,"current_range_meters":6400,"station_id":"ce4bhap2rcd13ifvqek0","pricing_plan_id":"cebpf4jnsgd1na2vs0mg"},{"bike_id":"58818e49-c026-4fcd-9efd-b8307966a27d","system_id":"levelo_inurba_marseille","lat":43.289184,"lon":5.366408,"is_reserved":false,"is_disabled":false,"rental_uris":{"android":"levelo://app?vid=58818e49-c026-4fcd-9efd-b8307966a27d","ios":"levelo://app?vid=58818e49-c026-4fcd-9efd-b8307966a27d"},"vehicle_type_id":"4","last_reported":1720465562,"current_range_meters":9200,"station_id":"ce4bhap2rcd13ifvqek0","pricing_plan_id":"cebpf4jnsgd1na2vs0mg"},{"bike_id":"bfd17abe-7320-4e8b-8f83-34a21f21808a","system_id":"levelo_inurba_marseille","lat":43.289468,"lon":5.363719,"is_reserved":false,"is_disabled":false,"rental_uris":{"android":"levelo://app?vid=bfd17abe-7320-4e8b-8f83-34a21f21808a","ios":"levelo://app?vid=bfd17abe-7320-4e8b-8f83-34a21f21808a"},"vehicle_type_id":"4","last_reported":1720465562,"current_range_meters":12400,"station_id":"ce4bhc92rcd13ifvqetg","pricing_plan_id":"cebpf4jnsgd1na2vs0mg"},{"bike_id":"f5922f16-6ac4-4841-b9e1-ea91588bbba9","system_id":"levelo_inurba_marseille","lat":43.289184,"lon":5.366408,"is_reserved":false,"is_disabled":false,"rental_uris":{"android":"levelo://app?vid=f5922f16-6ac4-4841-b9e1-ea91588bbba9","ios":"levelo://app?vid=f5922f16-6ac4-4841-b9e1-ea91588bbba9"},"vehicle_type_id":"4","last_reported":1720465562,"current_range_meters":27200,"station_id":"ce4bhap2rcd13ifvqek0","pricing_plan_id":"cebpf4jnsgd1na2vs0mg"},{"bike_id":"60bc4100-09ff-4b88-a036-d46a63df7729","system_id":"levelo_inurba_marseille","lat":43.289468,"lon":5.363719,"is_reserved":false,"is_disabled":false,"rental_uris":{"android":"levelo://app?vid=60bc4100-09ff-4b88-a036-d46a63df7729","ios":"levelo://app?vid=60bc4100-09ff-4b88-a036-d46a63df7729"},"vehicle_type_id":"4","last_reported":1720465562,"current_range_meters":5200,"station_id":"ce4bhc92rcd13ifvqetg","pricing_plan_id":"cebpf4jnsgd1na2vs0mg"},{"bike_id":"0bea075a-351a-4290-ab3b-72161b3b21ca","system_id":"levelo_inurba_marseille","lat":43.289468,"lon":5.363719,"is_reserved":false,"is_disabled":false,"rental_uris":{"android":"levelo://app?vid=0bea075a-351a-4290-ab3b-72161b3b21ca","ios":"levelo://app?vid=0bea075a-351a-4290-ab3b-72161b3b21ca"},"vehicle_type_id":"4","last_reported":1720465562,"current_range_meters":0,"station_id":"ce4bhc92rcd13ifvqetg","pricing_plan_id":"cebpf4jnsgd1na2vs0mg"},{"bike_id":"c0cbc6b2-3ec9-4d87-94aa-88429853c955","system_id":"levelo_inurba_marseille","lat":43.28856,"lon":5.358371,"is_reserved":false,"is_disabled":false,"rental_uris":{"android":"levelo://app?vid=c0cbc6b2-3ec9-4d87-94aa-88429853c955","ios":"levelo://app?vid=c0cbc6b2-3ec9-4d87-94aa-88429853c955"},"vehicle_type_id":"4","last_reported":1720465562,"current_range_meters":29600,"station_id":"ce4bhb12rcd13ifvqem0","pricing_plan_id":"cebpf4jnsgd1na2vs0mg"},{"bike_id":"0462c48c-81dc-494b-9fc5-a61670eb227a","system_id":"levelo_inurba_marseille","lat":43.292644,"lon":5.384257,"is_reserved":false,"is_disabled":false,"rental_uris":{"android":"levelo://app?vid=0462c48c-81dc-494b-9fc5-a61670eb227a","ios":"levelo://app?vid=0462c48c-81dc-494b-9fc5-a61670eb227a"},"vehicle_type_id":"4","last_reported":1720465562,"current_range_meters":28400,"station_id":"ce4bh692rcd13ifvqea0","pricing_plan_id":"cebpf4jnsgd1na2vs0mg"},{"bike_id":"15e54881-0d4d-4f2b-9a34-3dacc30d85cf","system_id":"levelo_inurba_marseille","lat":43.292644,"lon":5.384257,"is_reserved":false,"is_disabled":false,"rental_uris":{"android":"levelo://app?vid=15e54881-0d4d-4f2b-9a34-3dacc30d85cf","ios":"levelo://app?vid=15e54881-0d4d-4f2b-9a34-3dacc30d85cf"},"vehicle_type_id":"4","last_reported":1720465562,"current_range_meters":400,"station_id":"ce4bh692rcd13ifvqea0","pricing_plan_id":"cebpf4jnsgd1na2vs0mg"},{"bike_id":"ce67a88f-05a6-4f2e-a29d-f0be2acec3dc","system_id":"levelo_inurba_marseille","lat":43.292642,"lon":5.384254,"is_reserved":false,"is_disabled":false,"rental_uris":{"android":"levelo://app?vid=ce67a88f-05a6-4f2e-a29d-f0be2acec3dc","ios":"levelo://app?vid=ce67a88f-05a6-4f2e-a29d-f0be2acec3dc"},"vehicle_type_id":"4","last_reported":1720465562,"current_range_meters":2000,"station_id":"ce4bh692rcd13ifvqea0","pricing_plan_id":"cebpf4jnsgd1na2vs0mg"},{"bike_id":"3c88cbb4-4bb4-4339-9fcf-a3edca208336","system_id":"levelo_inurba_marseille","lat":43.291958,"lon":5.382863,"is_reserved":false,"is_disabled":false,"rental_uris":{"android":"levelo://app?vid=3c88cbb4-4bb4-4339-9fcf-a3edca208336","ios":"levelo://app?vid=3c88cbb4-4bb4-4339-9fcf-a3edca208336"},"vehicle_type_id":"4","last_reported":1720465562,"current_range_meters":0,"station_id":"","pricing_plan_id":"cebpf4jnsgd1na2vs0mg"},{"bike_id":"47b16a81-6f3a-47e2-b21b-bade57526421","system_id":"levelo_inurba_marseille","lat":43.304296,"lon":5.397513,"is_reserved":false,"is_disabled":false,"rental_uris":{"android":"levelo://app?vid=47b16a81-6f3a-47e2-b21b-bade57526421","ios":"levelo://app?vid=47b16a81-6f3a-47e2-b21b-bade57526421"},"vehicle_type_id":"4","last_reported":1720465562,"current_range_meters":12400,"station_id":"ce4bh092rcd13ifvqd20","pricing_plan_id":"cebpf4jnsgd1na2vs0mg"},{"bike_id":"3d46f579-2042-4bfb-b76a-8563dab75e00","system_id":"levelo_inurba_marseille","lat":43.292644,"lon":5.384257,"is_reserved":false,"is_disabled":false,"rental_uris":{"android":"levelo://app?vid=3d46f579-2042-4bfb-b76a-8563dab75e00","ios":"levelo://app?vid=3d46f579-2042-4bfb-b76a-8563dab75e00"},"vehicle_type_id":"4","last_reported":1720465562,"current_range_meters":6800,"station_id":"ce4bh692rcd13ifvqea0","pricing_plan_id":"cebpf4jnsgd1na2vs0mg"},{"bike_id":"56453372-ac98-4648-9638-590f812acecc","system_id":"levelo_inurba_marseille","lat":43.292644,"lon":5.384257,"is_reserved":false,"is_disabled":false,"rental_uris":{"android":"levelo://app?vid=56453372-ac98-4648-9638-590f812acecc","ios":"levelo://app?vid=56453372-ac98-4648-9638-590f812acecc"},"vehicle_type_id":"4","last_reported":1720465562,"current_range_meters":7200,"station_id":"ce4bh692rcd13ifvqea0","pricing_plan_id":"cebpf4jnsgd1na2vs0mg"},{"bike_id":"2b1fceb1-f11b-41f8-ab53-c1769610a646","system_id":"levelo_inurba_marseille","lat":43.292644,"lon":5.384257,"is_reserved":false,"is_disabled":false,"rental_uris":{"android":"levelo://app?vid=2b1fceb1-f11b-41f8-ab53-c1769610a646","ios":"levelo://app?vid=2b1fceb1-f11b-41f8-ab53-c1769610a646"},"vehicle_type_id":"4","last_reported":1720465562,"current_range_meters":3600,"station_id":"ce4bh692rcd13ifvqea0","pricing_plan_id":"cebpf4jnsgd1na2vs0mg"},{"bike_id":"a9093e2b-ccfb-497e-84c5-97576620235a","system_id":"levelo_inurba_marseille","lat":43.29006,"lon":5.35608,"is_reserved":false,"is_disabled":false,"rental_uris":{"android":"levelo://app?vid=a9093e2b-ccfb-497e-84c5-97576620235a","ios":"levelo://app?vid=a9093e2b-ccfb-497e-84c5-97576620235a"},"vehicle_type_id":"4","last_reported":1720465562,"current_range_meters":11200,"station_id":"ce4bhb92rcd13ifvqen0","pricing_plan_id":"cebpf4jnsgd1na2vs0mg"},{"bike_id":"020472bf-3e69-4f22-bc4f-b41c0349dab8","system_id":"levelo_inurba_marseille","lat":43.290103,"lon":5.356114,"is_reserved":false,"is_disabled":false,"rental_uris":{"android":"levelo://app?vid=020472bf-3e69-4f22-bc4f-b41c0349dab8","ios":"levelo://app?vid=020472bf-3e69-4f22-bc4f-b41c0349dab8"},"vehicle_type_id":"4","last_reported":1720465562,"current_range_meters":800,"station_id":"ce4bhb92rcd13ifvqen0","pricing_plan_id":"cebpf4jnsgd1na2vs0mg"},{"bike_id":"d64c6a5d-f5b1-488a-9a15-f16781ec8a8e","system_id":"levelo_inurba_marseille","lat":43.290104,"lon":5.356111,"is_reserved":false,"is_disabled":false,"rental_uris":{"android":"levelo://app?vid=d64c6a5d-f5b1-488a-9a15-f16781ec8a8e","ios":"levelo://app?vid=d64c6a5d-f5b1-488a-9a15-f16781ec8a8e"},"vehicle_type_id":"4","last_reported":1720465562,"current_range_meters":0,"station_id":"ce4bhb92rcd13ifvqen0","pricing_plan_id":"cebpf4jnsgd1na2vs0mg"},{"bike_id":"355f90c8-5400-40f8-8c6d-ddb544347616","system_id":"levelo_inurba_marseille","lat":43.290995,"lon":5.381361,"is_reserved":false,"is_disabled":false,"rental_uris":{"android":"levelo://app?vid=355f90c8-5400-40f8-8c6d-ddb544347616","ios":"levelo://app?vid=355f90c8-5400-40f8-8c6d-ddb544347616"},"vehicle_type_id":"4","last_reported":1720465562,"current_range_meters":15200,"station_id":"ce4bh512rcd13ifvqe2g","pricing_plan_id":"cebpf4jnsgd1na2vs0mg"},{"bike_id":"a955a828-c671-4626-8fe3-a48bc22331c6","system_id":"levelo_inurba_marseille","lat":43.295169,"lon":5.390426,"is_reserved":false,"is_disabled":false,"rental_uris":{"android":"levelo://app?vid=a955a828-c671-4626-8fe3-a48bc22331c6","ios":"levelo://app?vid=a955a828-c671-4626-8fe3-a48bc22331c6"},"vehicle_type_id":"4","last_reported":1720465562,"current_range_meters":28800,"station_id":"ce4bh3p2rcd13ifvqdp0","pricing_plan_id":"cebpf4jnsgd1na2vs0mg"},{"bike_id":"5526f0fc-4b1c-48fa-a54d-ab3ad351e5b8","system_id":"levelo_inurba_marseille","lat":43.295169,"lon":5.390426,"is_reserved":false,"is_disabled":false,"rental_uris":{"android":"levelo://app?vid=5526f0fc-4b1c-48fa-a54d-ab3ad351e5b8","ios":"levelo://app?vid=5526f0fc-4b1c-48fa-a54d-ab3ad351e5b8"},"vehicle_type_id":"4","last_reported":1720465562,"current_range_meters":24800,"station_id":"ce4bh3p2rcd13ifvqdp0","pricing_plan_id":"cebpf4jnsgd1na2vs0mg"},{"bike_id":"1f9a5e45-bb50-4c46-83ee-a99e1d8b69c0","system_id":"levelo_inurba_marseille","lat":43.295169,"lon":5.390426,"is_reserved":false,"is_disabled":false,"rental_uris":{"android":"levelo://app?vid=1f9a5e45-bb50-4c46-83ee-a99e1d8b69c0","ios":"levelo://app?vid=1f9a5e45-bb50-4c46-83ee-a99e1d8b69c0"},"vehicle_type_id":"4","last_reported":1720465562,"current_range_meters":0,"station_id":"ce4bh3p2rcd13ifvqdp0","pricing_plan_id":"cebpf4jnsgd1na2vs0mg"},{"bike_id":"070c1f99-7ece-434b-b753-f3be1f7373f6","system_id":"levelo_inurba_marseille","lat":43.295169,"lon":5.390426,"is_reserved":false,"is_disabled":false,"rental_uris":{"android":"levelo://app?vid=070c1f99-7ece-434b-b753-f3be1f7373f6","ios":"levelo://app?vid=070c1f99-7ece-434b-b753-f3be1f7373f6"},"vehicle_type_id":"4","last_reported":1720465562,"current_range_meters":20800,"station_id":"ce4bh3p2rcd13ifvqdp0","pricing_plan_id":"cebpf4jnsgd1na2vs0mg"},{"bike_id":"ee6db9f2-e71b-4503-8e3b-eac518d8a9a6","system_id":"levelo_inurba_marseille","lat":43.330442,"lon":5.389148,"is_reserved":false,"is_disabled":false,"rental_uris":{"android":"levelo://app?vid=ee6db9f2-e71b-4503-8e3b-eac518d8a9a6","ios":"levelo://app?vid=ee6db9f2-e71b-4503-8e3b-eac518d8a9a6"},"vehicle_type_id":"4","last_reported":1720465562,"current_range_meters":13200,"station_id":"ce4bhr92rcd13ifvqhrg","pricing_plan_id":"cebpf4jnsgd1na2vs0mg"},{"bike_id":"3e9b031d-a92a-4109-a849-3d861bae3712","system_id":"levelo_inurba_marseille","lat":43.295169,"lon":5.390426,"is_reserved":false,"is_disabled":false,"rental_uris":{"android":"levelo://app?vid=3e9b031d-a92a-4109-a849-3d861bae3712","ios":"levelo://app?vid=3e9b031d-a92a-4109-a849-3d861bae3712"},"vehicle_type_id":"4","last_reported":1720465562,"current_range_meters":28400,"station_id":"ce4bh3p2rcd13ifvqdp0","pricing_plan_id":"cebpf4jnsgd1na2vs0mg"},{"bike_id":"e2ef798e-bb3d-4424-ba55-444207c9c3b8","system_id":"levelo_inurba_marseille","lat":43.289714,"lon":5.378298,"is_reserved":false,"is_disabled":false,"rental_uris":{"android":"levelo://app?vid=e2ef798e-bb3d-4424-ba55-444207c9c3b8","ios":"levelo://app?vid=e2ef798e-bb3d-4424-ba55-444207c9c3b8"},"vehicle_type_id":"4","last_reported":1720465562,"current_range_meters":0,"station_id":"ce4bh9p2rcd13ifvqed0","pricing_plan_id":"cebpf4jnsgd1na2vs0mg"},{"bike_id":"96e0ca26-0e12-451b-b48c-80912a820d0a","system_id":"levelo_inurba_marseille","lat":43.295169,"lon":5.390426,"is_reserved":false,"is_disabled":false,"rental_uris":{"android":"levelo://app?vid=96e0ca26-0e12-451b-b48c-80912a820d0a","ios":"levelo://app?vid=96e0ca26-0e12-451b-b48c-80912a820d0a"},"vehicle_type_id":"4","last_reported":1720465562,"current_range_meters":10000,"station_id":"ce4bh3p2rcd13ifvqdp0","pricing_plan_id":"cebpf4jnsgd1na2vs0mg"},{"bike_id":"81d50e9e-245f-44b0-b6b2-06274e88f9f5","system_id":"levelo_inurba_marseille","lat":43.295169,"lon":5.390426,"is_reserved":false,"is_disabled":false,"rental_uris":{"android":"levelo://app?vid=81d50e9e-245f-44b0-b6b2-06274e88f9f5","ios":"levelo://app?vid=81d50e9e-245f-44b0-b6b2-06274e88f9f5"},"vehicle_type_id":"4","last_reported":1720465562,"current_range_meters":8800,"station_id":"ce4bh3p2rcd13ifvqdp0","pricing_plan_id":"cebpf4jnsgd1na2vs0mg"},{"bike_id":"122753c8-a9b5-43f5-9c00-1c0221d51b0d","system_id":"levelo_inurba_marseille","lat":43.295169,"lon":5.390426,"is_reserved":false,"is_disabled":false,"rental_uris":{"android":"levelo://app?vid=122753c8-a9b5-43f5-9c00-1c0221d51b0d","ios":"levelo://app?vid=122753c8-a9b5-43f5-9c00-1c0221d51b0d"},"vehicle_type_id":"4","last_reported":1720465562,"current_range_meters":6800,"station_id":"ce4bh3p2rcd13ifvqdp0","pricing_plan_id":"cebpf4jnsgd1na2vs0mg"},{"bike_id":"ad56e251-630e-4a8d-b555-359aa44f2f10","system_id":"levelo_inurba_marseille","lat":43.295169,"lon":5.390426,"is_reserved":false,"is_disabled":false,"rental_uris":{"android":"levelo://app?vid=ad56e251-630e-4a8d-b555-359aa44f2f10","ios":"levelo://app?vid=ad56e251-630e-4a8d-b555-359aa44f2f10"},"vehicle_type_id":"4","last_reported":1720465562,"current_range_meters":6000,"station_id":"ce4bh3p2rcd13ifvqdp0","pricing_plan_id":"cebpf4jnsgd1na2vs0mg"},{"bike_id":"da60141b-00fd-4ab1-bf74-e590313b7c67","system_id":"levelo_inurba_marseille","lat":43.295169,"lon":5.390426,"is_reserved":false,"is_disabled":false,"rental_uris":{"android":"levelo://app?vid=da60141b-00fd-4ab1-bf74-e590313b7c67","ios":"levelo://app?vid=da60141b-00fd-4ab1-bf74-e590313b7c67"},"vehicle_type_id":"4","last_reported":1720465562,"current_range_meters":8800,"station_id":"ce4bh3p2rcd13ifvqdp0","pricing_plan_id":"cebpf4jnsgd1na2vs0mg"},{"bike_id":"acd15c1e-eee0-41aa-83e7-dde893bbb1f3","system_id":"levelo_inurba_marseille","lat":43.28856,"lon":5.358371,"is_reserved":false,"is_disabled":false,"rental_uris":{"android":"levelo://app?vid=acd15c1e-eee0-41aa-83e7-dde893bbb1f3","ios":"levelo://app?vid=acd15c1e-eee0-41aa-83e7-dde893bbb1f3"},"vehicle_type_id":"4","last_reported":1720465562,"current_range_meters":3200,"station_id":"ce4bhb12rcd13ifvqem0","pricing_plan_id":"cebpf4jnsgd1na2vs0mg"},{"bike_id":"e6365d46-6499-46de-bd7a-0fc06c3bc4af","system_id":"levelo_inurba_marseille","lat":43.28856,"lon":5.358371,"is_reserved":false,"is_disabled":false,"rental_uris":{"android":"levelo://app?vid=e6365d46-6499-46de-bd7a-0fc06c3bc4af","ios":"levelo://app?vid=e6365d46-6499-46de-bd7a-0fc06c3bc4af"},"vehicle_type_id":"4","last_reported":1720465562,"current_range_meters":3600,"station_id":"ce4bhb12rcd13ifvqem0","pricing_plan_id":"cebpf4jnsgd1na2vs0mg"},{"bike_id":"4904b74e-7e9b-480a-91f9-0f1fb096304d","system_id":"levelo_inurba_marseille","lat":43.290094,"lon":5.381264,"is_reserved":false,"is_disabled":false,"rental_uris":{"android":"levelo://app?vid=4904b74e-7e9b-480a-91f9-0f1fb096304d","ios":"levelo://app?vid=4904b74e-7e9b-480a-91f9-0f1fb096304d"},"vehicle_type_id":"4","last_reported":1720465562,"current_range_meters":13200,"station_id":"ce4bh4p2rcd13ifvqe1g","pricing_plan_id":"cebpf4jnsgd1na2vs0mg"},{"bike_id":"ee9ba0e7-f2ab-4eb6-9f9a-d3356ed27051","system_id":"levelo_inurba_marseille","lat":43.28856,"lon":5.358371,"is_reserved":false,"is_disabled":false,"rental_uris":{"android":"levelo://app?vid=ee9ba0e7-f2ab-4eb6-9f9a-d3356ed27051","ios":"levelo://app?vid=ee9ba0e7-f2ab-4eb6-9f9a-d3356ed27051"},"vehicle_type_id":"4","last_reported":1720465562,"current_range_meters":22800,"station_id":"ce4bhb12rcd13ifvqem0","pricing_plan_id":"cebpf4jnsgd1na2vs0mg"},{"bike_id":"c188b46e-d9a1-4f33-b413-51810bc57663","system_id":"levelo_inurba_marseille","lat":43.28845,"lon":5.35842,"is_reserved":false,"is_disabled":false,"rental_uris":{"android":"levelo://app?vid=c188b46e-d9a1-4f33-b413-51810bc57663","ios":"levelo://app?vid=c188b46e-d9a1-4f33-b413-51810bc57663"},"vehicle_type_id":"4","last_reported":1720465562,"current_range_meters":9200,"station_id":"ce4bhb12rcd13ifvqem0","pricing_plan_id":"cebpf4jnsgd1na2vs0mg"},{"bike_id":"aa6768fd-e427-4630-b6e8-53dc7cbbd08e","system_id":"levelo_inurba_marseille","lat":43.312609,"lon":5.401662,"is_reserved":false,"is_disabled":false,"rental_uris":{"android":"levelo://app?vid=aa6768fd-e427-4630-b6e8-53dc7cbbd08e","ios":"levelo://app?vid=aa6768fd-e427-4630-b6e8-53dc7cbbd08e"},"vehicle_type_id":"4","last_reported":1720465562,"current_range_meters":800,"station_id":"ce4bh092rcd13ifvqd30","pricing_plan_id":"cebpf4jnsgd1na2vs0mg"},{"bike_id":"b13876c4-c027-4c62-922a-9780bb599258","system_id":"levelo_inurba_marseille","lat":43.309371,"lon":5.401449,"is_reserved":false,"is_disabled":false,"rental_uris":{"android":"levelo://app?vid=b13876c4-c027-4c62-922a-9780bb599258","ios":"levelo://app?vid=b13876c4-c027-4c62-922a-9780bb599258"},"vehicle_type_id":"4","last_reported":1720465562,"current_range_meters":6800,"station_id":"ce4bgvp2rcd13ifvqct0","pricing_plan_id":"cebpf4jnsgd1na2vs0mg"},{"bike_id":"b5855ff6-6665-4165-bbe1-9aab30f90a95","system_id":"levelo_inurba_marseille","lat":43.309371,"lon":5.401449,"is_reserved":false,"is_disabled":false,"rental_uris":{"android":"levelo://app?vid=b5855ff6-6665-4165-bbe1-9aab30f90a95","ios":"levelo://app?vid=b5855ff6-6665-4165-bbe1-9aab30f90a95"},"vehicle_type_id":"4","last_reported":1720465562,"current_range_meters":2800,"station_id":"ce4bgvp2rcd13ifvqct0","pricing_plan_id":"cebpf4jnsgd1na2vs0mg"},{"bike_id":"27822084-c1be-45dd-9170-641041ed1d2e","system_id":"levelo_inurba_marseille","lat":43.309371,"lon":5.401449,"is_reserved":false,"is_disabled":false,"rental_uris":{"android":"levelo://app?vid=27822084-c1be-45dd-9170-641041ed1d2e","ios":"levelo://app?vid=27822084-c1be-45dd-9170-641041ed1d2e"},"vehicle_type_id":"4","last_reported":1720465562,"current_range_meters":0,"station_id":"ce4bgvp2rcd13ifvqct0","pricing_plan_id":"cebpf4jnsgd1na2vs0mg"},{"bike_id":"9366f619-009b-45e5-ba62-de7bc50d4da0","system_id":"levelo_inurba_marseille","lat":43.3375,"lon":5.37479,"is_reserved":false,"is_disabled":false,"rental_uris":{"android":"levelo://app?vid=9366f619-009b-45e5-ba62-de7bc50d4da0","ios":"levelo://app?vid=9366f619-009b-45e5-ba62-de7bc50d4da0"},"vehicle_type_id":"4","last_reported":1720465562,"current_range_meters":27200,"station_id":"","pricing_plan_id":"cebpf4jnsgd1na2vs0mg"},{"bike_id":"16ffc86e-0523-424d-8b91-db552c040fdb","system_id":"levelo_inurba_marseille","lat":43.30645,"lon":5.40099,"is_reserved":false,"is_disabled":false,"rental_uris":{"android":"levelo://app?vid=16ffc86e-0523-424d-8b91-db552c040fdb","ios":"levelo://app?vid=16ffc86e-0523-424d-8b91-db552c040fdb"},"vehicle_type_id":"4","last_reported":1720465562,"current_range_meters":12800,"station_id":"ce4bh112rcd13ifvqda0","pricing_plan_id":"cebpf4jnsgd1na2vs0mg"},{"bike_id":"aebb537c-93e0-44ae-9e1f-23e4cf7d7a32","system_id":"levelo_inurba_marseille","lat":43.3377,"lon":5.37462,"is_reserved":false,"is_disabled":false,"rental_uris":{"android":"levelo://app?vid=aebb537c-93e0-44ae-9e1f-23e4cf7d7a32","ios":"levelo://app?vid=aebb537c-93e0-44ae-9e1f-23e4cf7d7a32"},"vehicle_type_id":"4","last_reported":1720465562,"current_range_meters":10000,"station_id":"","pricing_plan_id":"cebpf4jnsgd1na2vs0mg"},{"bike_id":"132f7b92-f030-4ec7-94fe-c05b77b8617d","system_id":"levelo_inurba_marseille","lat":43.306412,"lon":5.401035,"is_reserved":false,"is_disabled":false,"rental_uris":{"android":"levelo://app?vid=132f7b92-f030-4ec7-94fe-c05b77b8617d","ios":"levelo://app?vid=132f7b92-f030-4ec7-94fe-c05b77b8617d"},"vehicle_type_id":"4","last_reported":1720465562,"current_range_meters":4000,"station_id":"ce4bh112rcd13ifvqda0","pricing_plan_id":"cebpf4jnsgd1na2vs0mg"},{"bike_id":"25514b7a-e61f-4aa7-9644-4542ce6928af","system_id":"levelo_inurba_marseille","lat":43.306412,"lon":5.401035,"is_reserved":false,"is_disabled":false,"rental_uris":{"android":"levelo://app?vid=25514b7a-e61f-4aa7-9644-4542ce6928af","ios":"levelo://app?vid=25514b7a-e61f-4aa7-9644-4542ce6928af"},"vehicle_type_id":"4","last_reported":1720465562,"current_range_meters":7200,"station_id":"ce4bh112rcd13ifvqda0","pricing_plan_id":"cebpf4jnsgd1na2vs0mg"},{"bike_id":"093bf479-859a-49ad-b2e7-65e7d8175764","system_id":"levelo_inurba_marseille","lat":43.306412,"lon":5.401035,"is_reserved":false,"is_disabled":false,"rental_uris":{"android":"levelo://app?vid=093bf479-859a-49ad-b2e7-65e7d8175764","ios":"levelo://app?vid=093bf479-859a-49ad-b2e7-65e7d8175764"},"vehicle_type_id":"4","last_reported":1720465562,"current_range_meters":2800,"station_id":"ce4bh112rcd13ifvqda0","pricing_plan_id":"cebpf4jnsgd1na2vs0mg"},{"bike_id":"5d0b3209-9d87-44b5-900f-d2a7f60a844b","system_id":"levelo_inurba_marseille","lat":43.30133,"lon":5.39865,"is_reserved":false,"is_disabled":false,"rental_uris":{"android":"levelo://app?vid=5d0b3209-9d87-44b5-900f-d2a7f60a844b","ios":"levelo://app?vid=5d0b3209-9d87-44b5-900f-d2a7f60a844b"},"vehicle_type_id":"4","last_reported":1720465562,"current_range_meters":0,"station_id":"ce4bh0h2rcd13ifvqd40","pricing_plan_id":"cebpf4jnsgd1na2vs0mg"},{"bike_id":"ff24c229-b245-4d69-a83a-9ba278d3a8b8","system_id":"levelo_inurba_marseille","lat":43.28727,"lon":5.36078,"is_reserved":false,"is_disabled":false,"rental_uris":{"android":"levelo://app?vid=ff24c229-b245-4d69-a83a-9ba278d3a8b8","ios":"levelo://app?vid=ff24c229-b245-4d69-a83a-9ba278d3a8b8"},"vehicle_type_id":"4","last_reported":1720465562,"current_range_meters":15600,"station_id":"cki0cbj6b192h4jlfktg","pricing_plan_id":"cebpf4jnsgd1na2vs0mg"},{"bike_id":"4d3a187a-6060-4853-bda1-e536ac0122d4","system_id":"levelo_inurba_marseille","lat":43.28727,"lon":5.36078,"is_reserved":false,"is_disabled":false,"rental_uris":{"android":"levelo://app?vid=4d3a187a-6060-4853-bda1-e536ac0122d4","ios":"levelo://app?vid=4d3a187a-6060-4853-bda1-e536ac0122d4"},"vehicle_type_id":"4","last_reported":1720465562,"current_range_meters":22800,"station_id":"cki0cbj6b192h4jlfktg","pricing_plan_id":"cebpf4jnsgd1na2vs0mg"},{"bike_id":"8c3b4f76-df72-4010-ace7-bcd807656a12","system_id":"levelo_inurba_marseille","lat":43.295196,"lon":5.39397,"is_reserved":false,"is_disabled":false,"rental_uris":{"android":"levelo://app?vid=8c3b4f76-df72-4010-ace7-bcd807656a12","ios":"levelo://app?vid=8c3b4f76-df72-4010-ace7-bcd807656a12"},"vehicle_type_id":"4","last_reported":1720465562,"current_range_meters":17600,"station_id":"ce4bh292rcd13ifvqdf0","pricing_plan_id":"cebpf4jnsgd1na2vs0mg"},{"bike_id":"0c100388-d480-45ee-a699-0717b7f3c86f","system_id":"levelo_inurba_marseille","lat":43.29886,"lon":5.39742,"is_reserved":false,"is_disabled":false,"rental_uris":{"android":"levelo://app?vid=0c100388-d480-45ee-a699-0717b7f3c86f","ios":"levelo://app?vid=0c100388-d480-45ee-a699-0717b7f3c86f"},"vehicle_type_id":"4","last_reported":1720465562,"current_range_meters":30800,"station_id":"ce4bh0h2rcd13ifvqd50","pricing_plan_id":"cebpf4jnsgd1na2vs0mg"},{"bike_id":"1b07dcee-a108-40aa-a559-8fd4aab27859","system_id":"levelo_inurba_marseille","lat":43.286591,"lon":5.363346,"is_reserved":false,"is_disabled":false,"rental_uris":{"android":"levelo://app?vid=1b07dcee-a108-40aa-a559-8fd4aab27859","ios":"levelo://app?vid=1b07dcee-a108-40aa-a559-8fd4aab27859"},"vehicle_type_id":"4","last_reported":1720465562,"current_range_meters":4400,"station_id":"ce4bhah2rcd13ifvqej0","pricing_plan_id":"cebpf4jnsgd1na2vs0mg"},{"bike_id":"a6cfb7b3-14db-4cc1-89d8-9be85ebf09c3","system_id":"levelo_inurba_marseille","lat":43.286591,"lon":5.363346,"is_reserved":false,"is_disabled":false,"rental_uris":{"android":"levelo://app?vid=a6cfb7b3-14db-4cc1-89d8-9be85ebf09c3","ios":"levelo://app?vid=a6cfb7b3-14db-4cc1-89d8-9be85ebf09c3"},"vehicle_type_id":"4","last_reported":1720465562,"current_range_meters":5200,"station_id":"ce4bhah2rcd13ifvqej0","pricing_plan_id":"cebpf4jnsgd1na2vs0mg"},{"bike_id":"80209d8d-d6c6-4660-b02b-918a9d138608","system_id":"levelo_inurba_marseille","lat":43.286591,"lon":5.363346,"is_reserved":false,"is_disabled":false,"rental_uris":{"android":"levelo://app?vid=80209d8d-d6c6-4660-b02b-918a9d138608","ios":"levelo://app?vid=80209d8d-d6c6-4660-b02b-918a9d138608"},"vehicle_type_id":"4","last_reported":1720465562,"current_range_meters":0,"station_id":"ce4bhah2rcd13ifvqej0","pricing_plan_id":"cebpf4jnsgd1na2vs0mg"},{"bike_id":"4887e240-5178-49b7-87f7-6c74e397258d","system_id":"levelo_inurba_marseille","lat":43.286591,"lon":5.363346,"is_reserved":false,"is_disabled":false,"rental_uris":{"android":"levelo://app?vid=4887e240-5178-49b7-87f7-6c74e397258d","ios":"levelo://app?vid=4887e240-5178-49b7-87f7-6c74e397258d"},"vehicle_type_id":"4","last_reported":1720465562,"current_range_meters":2400,"station_id":"ce4bhah2rcd13ifvqej0","pricing_plan_id":"cebpf4jnsgd1na2vs0mg"},{"bike_id":"d3c20ced-96ac-48d5-9282-1fa11ea5f410","system_id":"levelo_inurba_marseille","lat":43.286591,"lon":5.363346,"is_reserved":false,"is_disabled":false,"rental_uris":{"android":"levelo://app?vid=d3c20ced-96ac-48d5-9282-1fa11ea5f410","ios":"levelo://app?vid=d3c20ced-96ac-48d5-9282-1fa11ea5f410"},"vehicle_type_id":"4","last_reported":1720465562,"current_range_meters":20400,"station_id":"ce4bhah2rcd13ifvqej0","pricing_plan_id":"cebpf4jnsgd1na2vs0mg"},{"bike_id":"fcf899d1-ca24-4127-b82c-21005b26599a","system_id":"levelo_inurba_marseille","lat":43.286591,"lon":5.363346,"is_reserved":false,"is_disabled":false,"rental_uris":{"android":"levelo://app?vid=fcf899d1-ca24-4127-b82c-21005b26599a","ios":"levelo://app?vid=fcf899d1-ca24-4127-b82c-21005b26599a"},"vehicle_type_id":"4","last_reported":1720465562,"current_range_meters":7200,"station_id":"ce4bhah2rcd13ifvqej0","pricing_plan_id":"cebpf4jnsgd1na2vs0mg"},{"bike_id":"d30cd658-cf56-48bb-9dd1-32de01e15758","system_id":"levelo_inurba_marseille","lat":43.286961,"lon":5.373785,"is_reserved":false,"is_disabled":false,"rental_uris":{"android":"levelo://app?vid=d30cd658-cf56-48bb-9dd1-32de01e15758","ios":"levelo://app?vid=d30cd658-cf56-48bb-9dd1-32de01e15758"},"vehicle_type_id":"4","last_reported":1720465562,"current_range_meters":31200,"station_id":"ce4bh3p2rcd13ifvqdq0","pricing_plan_id":"cebpf4jnsgd1na2vs0mg"},{"bike_id":"9b737c3d-fbeb-4772-9afd-9add0f3e23bd","system_id":"levelo_inurba_marseille","lat":43.295196,"lon":5.39397,"is_reserved":false,"is_disabled":false,"rental_uris":{"android":"levelo://app?vid=9b737c3d-fbeb-4772-9afd-9add0f3e23bd","ios":"levelo://app?vid=9b737c3d-fbeb-4772-9afd-9add0f3e23bd"},"vehicle_type_id":"4","last_reported":1720465562,"current_range_meters":2400,"station_id":"ce4bh292rcd13ifvqdf0","pricing_plan_id":"cebpf4jnsgd1na2vs0mg"},{"bike_id":"2d33993b-5ded-4fde-8c4f-d5c1a9e0c99c","system_id":"levelo_inurba_marseille","lat":43.295194,"lon":5.39397,"is_reserved":false,"is_disabled":false,"rental_uris":{"android":"levelo://app?vid=2d33993b-5ded-4fde-8c4f-d5c1a9e0c99c","ios":"levelo://app?vid=2d33993b-5ded-4fde-8c4f-d5c1a9e0c99c"},"vehicle_type_id":"4","last_reported":1720465562,"current_range_meters":22400,"station_id":"ce4bh292rcd13ifvqdf0","pricing_plan_id":"cebpf4jnsgd1na2vs0mg"},{"bike_id":"5ed3a66c-ae83-4c87-9e4b-9d8d0409549d","system_id":"levelo_inurba_marseille","lat":43.290336,"lon":5.386425,"is_reserved":false,"is_disabled":false,"rental_uris":{"android":"levelo://app?vid=5ed3a66c-ae83-4c87-9e4b-9d8d0409549d","ios":"levelo://app?vid=5ed3a66c-ae83-4c87-9e4b-9d8d0409549d"},"vehicle_type_id":"4","last_reported":1720465562,"current_range_meters":0,"station_id":"ce4bh4p2rcd13ifvqe0g","pricing_plan_id":"cebpf4jnsgd1na2vs0mg"},{"bike_id":"76e60cc6-18e5-4a3a-905e-13a5bd68de98","system_id":"levelo_inurba_marseille","lat":43.290336,"lon":5.386425,"is_reserved":false,"is_disabled":false,"rental_uris":{"android":"levelo://app?vid=76e60cc6-18e5-4a3a-905e-13a5bd68de98","ios":"levelo://app?vid=76e60cc6-18e5-4a3a-905e-13a5bd68de98"},"vehicle_type_id":"4","last_reported":1720465562,"current_range_meters":23600,"station_id":"ce4bh4p2rcd13ifvqe0g","pricing_plan_id":"cebpf4jnsgd1na2vs0mg"},{"bike_id":"a294dc75-3330-422e-a917-83264a51bbaa","system_id":"levelo_inurba_marseille","lat":43.30251,"lon":5.40071,"is_reserved":false,"is_disabled":false,"rental_uris":{"android":"levelo://app?vid=a294dc75-3330-422e-a917-83264a51bbaa","ios":"levelo://app?vid=a294dc75-3330-422e-a917-83264a51bbaa"},"vehicle_type_id":"4","last_reported":1720465562,"current_range_meters":0,"station_id":"ce4bgvh2rcd13ifvqcs0","pricing_plan_id":"cebpf4jnsgd1na2vs0mg"},{"bike_id":"9019cce8-5d06-41d6-9c6e-e2f63a126621","system_id":"levelo_inurba_marseille","lat":43.302759,"lon":5.400793,"is_reserved":false,"is_disabled":false,"rental_uris":{"android":"levelo://app?vid=9019cce8-5d06-41d6-9c6e-e2f63a126621","ios":"levelo://app?vid=9019cce8-5d06-41d6-9c6e-e2f63a126621"},"vehicle_type_id":"4","last_reported":1720465562,"current_range_meters":28400,"station_id":"ce4bgvh2rcd13ifvqcs0","pricing_plan_id":"cebpf4jnsgd1na2vs0mg"},{"bike_id":"3940cc22-8e3a-458a-b607-891dbe961ea6","system_id":"levelo_inurba_marseille","lat":43.286039,"lon":5.370679,"is_reserved":false,"is_disabled":false,"rental_uris":{"android":"levelo://app?vid=3940cc22-8e3a-458a-b607-891dbe961ea6","ios":"levelo://app?vid=3940cc22-8e3a-458a-b607-891dbe961ea6"},"vehicle_type_id":"4","last_reported":1720465562,"current_range_meters":6000,"station_id":"ce4bht12rcd13ifvqi60","pricing_plan_id":"cebpf4jnsgd1na2vs0mg"},{"bike_id":"e5a8506c-d39e-4b92-b283-6c900248a461","system_id":"levelo_inurba_marseille","lat":43.286039,"lon":5.370679,"is_reserved":false,"is_disabled":false,"rental_uris":{"android":"levelo://app?vid=e5a8506c-d39e-4b92-b283-6c900248a461","ios":"levelo://app?vid=e5a8506c-d39e-4b92-b283-6c900248a461"},"vehicle_type_id":"4","last_reported":1720465562,"current_range_meters":9200,"station_id":"ce4bht12rcd13ifvqi60","pricing_plan_id":"cebpf4jnsgd1na2vs0mg"},{"bike_id":"ba68d87a-f978-461c-b8ec-7c2cdaa0b958","system_id":"levelo_inurba_marseille","lat":43.28614,"lon":5.37062,"is_reserved":false,"is_disabled":false,"rental_uris":{"android":"levelo://app?vid=ba68d87a-f978-461c-b8ec-7c2cdaa0b958","ios":"levelo://app?vid=ba68d87a-f978-461c-b8ec-7c2cdaa0b958"},"vehicle_type_id":"4","last_reported":1720465562,"current_range_meters":400,"station_id":"ce4bht12rcd13ifvqi60","pricing_plan_id":"cebpf4jnsgd1na2vs0mg"},{"bike_id":"49b797a4-bc35-444a-a0e5-36608c2dacdf","system_id":"levelo_inurba_marseille","lat":43.28611,"lon":5.37064,"is_reserved":false,"is_disabled":false,"rental_uris":{"android":"levelo://app?vid=49b797a4-bc35-444a-a0e5-36608c2dacdf","ios":"levelo://app?vid=49b797a4-bc35-444a-a0e5-36608c2dacdf"},"vehicle_type_id":"4","last_reported":1720465562,"current_range_meters":10400,"station_id":"","pricing_plan_id":"cebpf4jnsgd1na2vs0mg"},{"bike_id":"ffb81d58-476c-4b6d-859d-bc06d5692ad2","system_id":"levelo_inurba_marseille","lat":43.286039,"lon":5.370681,"is_reserved":false,"is_disabled":false,"rental_uris":{"android":"levelo://app?vid=ffb81d58-476c-4b6d-859d-bc06d5692ad2","ios":"levelo://app?vid=ffb81d58-476c-4b6d-859d-bc06d5692ad2"},"vehicle_type_id":"4","last_reported":1720465562,"current_range_meters":22000,"station_id":"ce4bht12rcd13ifvqi60","pricing_plan_id":"cebpf4jnsgd1na2vs0mg"},{"bike_id":"66657a6b-955f-4732-9380-035c26f99e9d","system_id":"levelo_inurba_marseille","lat":43.286039,"lon":5.370681,"is_reserved":false,"is_disabled":false,"rental_uris":{"android":"levelo://app?vid=66657a6b-955f-4732-9380-035c26f99e9d","ios":"levelo://app?vid=66657a6b-955f-4732-9380-035c26f99e9d"},"vehicle_type_id":"4","last_reported":1720465562,"current_range_meters":18800,"station_id":"ce4bht12rcd13ifvqi60","pricing_plan_id":"cebpf4jnsgd1na2vs0mg"},{"bike_id":"47f20204-7b66-498a-80ad-a5ce4e6dbfa9","system_id":"levelo_inurba_marseille","lat":43.286039,"lon":5.370679,"is_reserved":false,"is_disabled":false,"rental_uris":{"android":"levelo://app?vid=47f20204-7b66-498a-80ad-a5ce4e6dbfa9","ios":"levelo://app?vid=47f20204-7b66-498a-80ad-a5ce4e6dbfa9"},"vehicle_type_id":"4","last_reported":1720465562,"current_range_meters":14000,"station_id":"ce4bht12rcd13ifvqi60","pricing_plan_id":"cebpf4jnsgd1na2vs0mg"},{"bike_id":"db81dc3d-35c3-436f-a0d5-95c96e1e6fce","system_id":"levelo_inurba_marseille","lat":43.286039,"lon":5.370681,"is_reserved":false,"is_disabled":false,"rental_uris":{"android":"levelo://app?vid=db81dc3d-35c3-436f-a0d5-95c96e1e6fce","ios":"levelo://app?vid=db81dc3d-35c3-436f-a0d5-95c96e1e6fce"},"vehicle_type_id":"4","last_reported":1720465562,"current_range_meters":24400,"station_id":"ce4bht12rcd13ifvqi60","pricing_plan_id":"cebpf4jnsgd1na2vs0mg"},{"bike_id":"bc8bd3e4-53b8-496b-a2b2-2c7421982eba","system_id":"levelo_inurba_marseille","lat":43.286039,"lon":5.370681,"is_reserved":false,"is_disabled":false,"rental_uris":{"android":"levelo://app?vid=bc8bd3e4-53b8-496b-a2b2-2c7421982eba","ios":"levelo://app?vid=bc8bd3e4-53b8-496b-a2b2-2c7421982eba"},"vehicle_type_id":"4","last_reported":1720465562,"current_range_meters":13600,"station_id":"ce4bht12rcd13ifvqi60","pricing_plan_id":"cebpf4jnsgd1na2vs0mg"},