{"last_updated":1769023063,"ttl":60,"version":"2.2","data":{"bikes":[{"bike_id":"34bf08cf-d6d3-44fe-bef6-fdfaf1be1b32","system_id":"levelo_inurba_marseille","lat":43.27328,"lon":5.39107,"is_reserved":false,"is_disabled":false,"rental_uris":{"android":"levelo://app?vid=34bf08cf-d6d3-44fe-bef6-fdfaf1be1b32","ios":"levelo://app?vid=34bf08cf-d6d3-44fe-bef6-fdfaf1be1b32"},"vehicle_type_id":"4","last_reported":1769023064,"current_range_meters":2800,"station_id":"ce4bhgp2rcd13ifvqfe0","pricing_plan_id":"cebpf4jnsgd1na2vs0mg"},{"bike_id":"40b9fc55-5f2a-4946-bf7e-c20949cda247","system_id":"levelo_inurba_marseille","lat":43.27565,"lon":5.38404,"is_reserved":false,"is_disabled":false,"rental_uris":{"android":"levelo://app?vid=40b9fc55-5f2a-4946-bf7e-c20949cda247","ios":"levelo://app?vid=40b9fc55-5f2a-4946-bf7e-c20949cda247"},"vehicle_type_id":"4","last_reported":1769023064,"current_range_meters":2800,"station_id":"ce4bhh92rcd13ifvqfi0","pricing_plan_id":"cebpf4jnsgd1na2vs0mg"},{"bike_id":"07c4194e-c79b-42c5-8538-5a3b0e5689c2","system_id":"levelo_inurba_marseille","lat":43.23778,"lon":5.36631,"is_reserved":false,"is_disabled":false,"rental_uris":{"android":"levelo://app?vid=07c4194e-c79b-42c5-8538-5a3b0e5689c2","ios":"levelo://app?vid=07c4194e-c79b-42c5-8538-5a3b0e5689c2"},"vehicle_type_id":"4","last_reported":1769023064,"current_range_meters":2800,"station_id":"st_d3nk18o9ro0c73en2l3g","pricing_plan_id":"cebpf4jnsgd1na2vs0mg"},{"bike_id":"5f2a80b5-75a9-4cd4-92a9-6247caf17674","system_id":"levelo_inurba_marseille","lat":43.29529,"lon":5.38542,"is_reserved":false,"is_disabled":false,"rental_uris":{"android":"levelo://app?vid=5f2a80b5-75a9-4cd4-92a9-6247caf17674","ios":"levelo://app?vid=5f2a80b5-75a9-4cd4-92a9-6247caf17674"},"vehicle_type_id":"4","last_reported":1769023064,"current_range_meters":2800,"station_id":"ce4bgih2rcd13ifvqba0","pricing_plan_id":"cebpf4jnsgd1na2vs0mg"},{"bike_id":"eca1804a-771c-4bf0-995d-0572229eab65","system_id":"levelo_inurba_marseille","lat":43.29741,"lon":5.37656,"is_reserved":false,"is_disabled":true,"rental_uris":{"android":"levelo://app?vid=eca1804a-771c-4bf0-995d-0572229eab65","ios":"levelo://app?vid=eca1804a-771c-4bf0-995d-0572229eab65"},"vehicle_type_id":"4","last_reported":1769023064,"current_range_meters":2800,"station_id":"ce4bgkh2rcd13ifvqbl0","pricing_plan_id":"cebpf4jnsgd1na2vs0mg"},{"bike_id":"80b6088e-4629-4da8-ab15-b24cbb3d27b8","system_id":"levelo_inurba_marseille","lat":43.29195,"lon":5.39304,"is_reserved":false,"is_disabled":false,"rental_uris":{"android":"levelo://app?vid=80b6088e-4629-4da8-ab15-b24cbb3d27b8","ios":"levelo://app?vid=80b6088e-4629-4da8-ab15-b24cbb3d27b8"},"vehicle_type_id":"4","last_reported":1769023064,"current_range_meters":2800,"station_id":"ce4bh192rcd13ifvqdd0","pricing_plan_id":"cebpf4jnsgd1na2vs0mg"},{"bike_id":"072af904-04f9-41a5-b4fb-16f7d8c2b63d","system_id":"levelo_inurba_marseille","lat":43.27197,"lon":5.39182,"is_reserved":false,"is_disabled":false,"rental_uris":{"android":"levelo://app?vid=072af904-04f9-41a5-b4fb-16f7d8c2b63d","ios":"levelo://app?vid=072af904-04f9-41a5-b4fb-16f7d8c2b63d"},"vehicle_type_id":"4","last_reported":1769023064,"current_range_meters":2800,"station_id":"ce4bhhp2rcd13ifvqfm0","pricing_plan_id":"cebpf4jnsgd1na2vs0mg"},{"bike_id":"aba7d3ea-7de0-44e7-8338-576767d8d352","system_id":"levelo_inurba_marseille","lat":43.30091,"lon":5.39067,"is_reserved":false,"is_disabled":false,"rental_uris":{"android":"levelo://app?vid=aba7d3ea-7de0-44e7-8338-576767d8d352","ios":"levelo://app?vid=aba7d3ea-7de0-44e7-8338-576767d8d352"},"vehicle_type_id":"4","last_reported":1769023064,"current_range_meters":2800,"station_id":"ce4bh192rcd13ifvqdb0","pricing_plan_id":"cebpf4jnsgd1na2vs0mg"},{"bike_id":"d2cb0070-0422-466b-b462-1892f78475a2","system_id":"levelo_inurba_marseille","lat":43.22923,"lon":5.35386,"is_reserved":false,"is_disabled":false,"rental_uris":{"android":"levelo://app?vid=d2cb0070-0422-466b-b462-1892f78475a2","ios":"levelo://app?vid=d2cb0070-0422-466b-b462-1892f78475a2"},"vehicle_type_id":"4","last_reported":1769023064,"current_range_meters":2800,"station_id":"cpo3532slgdg3j2ikp40","pricing_plan_id":"cebpf4jnsgd1na2vs0mg"},{"bike_id":"77321c92-4e75-4d10-a065-584501435f47","system_id":"levelo_inurba_marseille","lat":43.279962,"lon":5.400109,"is_reserved":false,"is_disabled":false,"rental_uris":{"android":"levelo://app?vid=77321c92-4e75-4d10-a065-584501435f47","ios":"levelo://app?vid=77321c92-4e75-4d10-a065-584501435f47"},"vehicle_type_id":"4","last_reported":1769023064,"current_range_meters":2800,"station_id":"","pricing_plan_id":"cebpf4jnsgd1na2vs0mg"},{"bike_id":"e93334c2-e7a2-4f00-a705-add2197036fa","system_id":"levelo_inurba_marseille","lat":43.26943,"lon":5.40262,"is_reserved":false,"is_disabled":false,"rental_uris":{"android":"levelo://app?vid=e93334c2-e7a2-4f00-a705-add2197036fa","ios":"levelo://app?vid=e93334c2-e7a2-4f00-a705-add2197036fa"},"vehicle_type_id":"4","last_reported":1769023064,"current_range_meters":2800,"station_id":"cjm6bp8fraef2m0cb0m0","pricing_plan_id":"cebpf4jnsgd1na2vs0mg"},{"bike_id":"d9d259ef-225c-4373-ba75-518a5c906d5f","system_id":"levelo_inurba_marseille","lat":43.292272,"lon":5.360598,"is_reserved":false,"is_disabled":false,"rental_uris":{"android":"levelo://app?vid=d9d259ef-225c-4373-ba75-518a5c906d5f","ios":"levelo://app?vid=d9d259ef-225c-4373-ba75-518a5c906d5f"},"vehicle_type_id":"4","last_reported":1769023064,"current_range_meters":2800,"station_id":"ce4bhbh2rcd13ifvqeqg","pricing_plan_id":"cebpf4jnsgd1na2vs0mg"},{"bike_id":"ad473098-59c2-4c8e-8fd2-dd511975eb09","system_id":"levelo_inurba_marseille","lat":43.2175,"lon":5.34602,"is_reserved":false,"is_disabled":true,"rental_uris":{"android":"levelo://app?vid=ad473098-59c2-4c8e-8fd2-dd511975eb09","ios":"levelo://app?vid=ad473098-59c2-4c8e-8fd2-dd511975eb09"},"vehicle_type_id":"4","last_reported":1769023064,"current_range_meters":2800,"station_id":"st_cvj6r9ubvosntc0bgbag","pricing_plan_id":"cebpf4jnsgd1na2vs0mg"},{"bike_id":"8ea4f3ce-e0a2-49e0-9b9b-9dfc0dfbbf42","system_id":"levelo_inurba_marseille","lat":43.27564,"lon":5.3842,"is_reserved":false,"is_disabled":false,"rental_uris":{"android":"levelo://app?vid=8ea4f3ce-e0a2-49e0-9b9b-9dfc0dfbbf42","ios":"levelo://app?vid=8ea4f3ce-e0a2-49e0-9b9b-9dfc0dfbbf42"},"vehicle_type_id":"4","last_reported":1769023064,"current_range_meters":2800,"station_id":"ce4bhh92rcd13ifvqfi0","pricing_plan_id":"cebpf4jnsgd1na2vs0mg"},{"bike_id":"d64808fa-6727-414b-a04f-16fee77f78aa","system_id":"levelo_inurba_marseille","lat":43.282104,"lon":5.390577,"is_reserved":false,"is_disabled":false,"rental_uris":{"android":"levelo://app?vid=d64808fa-6727-414b-a04f-16fee77f78aa","ios":"levelo://app?vid=d64808fa-6727-414b-a04f-16fee77f78aa"},"vehicle_type_id":"4","last_reported":1769023064,"current_range_meters":2800,"station_id":"ce4bgip2rcd13ifvqbb0","pricing_plan_id":"cebpf4jnsgd1na2vs0mg"},{"bike_id":"78e12897-5eb8-4dff-af9f-f840b2932fdc","system_id":"levelo_inurba_marseille","lat":43.32368,"lon":5.38506,"is_reserved":false,"is_disabled":false,"rental_uris":{"android":"levelo://app?vid=78e12897-5eb8-4dff-af9f-f840b2932fdc","ios":"levelo://app?vid=78e12897-5eb8-4dff-af9f-f840b2932fdc"},"vehicle_type_id":"4","last_reported":1769023064,"current_range_meters":2800,"station_id":"st_d45171o9ee8s73djdqug","pricing_plan_id":"cebpf4jnsgd1na2vs0mg"},{"bike_id":"8155f86b-6d64-4287-9ed7-7fbe9d103dde","system_id":"levelo_inurba_marseille","lat":43.22563,"lon":5.4162,"is_reserved":false,"is_disabled":false,"rental_uris":{"android":"levelo://app?vid=8155f86b-6d64-4287-9ed7-7fbe9d103dde","ios":"levelo://app?vid=8155f86b-6d64-4287-9ed7-7fbe9d103dde"},"vehicle_type_id":"4","last_reported":1769023064,"current_range_meters":2800,"station_id":"st_d2o4gvlbi1j2169b742g","pricing_plan_id":"cebpf4jnsgd1na2vs0mg"},{"bike_id":"0b857ada-bed9-47df-869a-44f8e17a76e1","system_id":"levelo_inurba_marseille","lat":43.22557,"lon":5.4163,"is_reserved":false,"is_disabled":false,"rental_uris":{"android":"levelo://app?vid=0b857ada-bed9-47df-869a-44f8e17a76e1","ios":"levelo://app?vid=0b857ada-bed9-47df-869a-44f8e17a76e1"},"vehicle_type_id":"4","last_reported":1769023064,"current_range_meters":3200,"station_id":"st_d2o4gvlbi1j2169b742g","pricing_plan_id":"cebpf4jnsgd1na2vs0mg"},{"bike_id":"e8fee6c6-7b97-491f-b611-2895b23fd80b","system_id":"levelo_inurba_marseille","lat":43.267,"lon":5.38258,"is_reserved":false,"is_disabled":true,"rental_uris":{"android":"levelo://app?vid=e8fee6c6-7b97-491f-b611-2895b23fd80b","ios":"levelo://app?vid=e8fee6c6-7b97-491f-b611-2895b23fd80b"},"vehicle_type_id":"4","last_reported":1769023064,"current_range_meters":3200,"station_id":"ce4bhg92rcd13ifvqf90","pricing_plan_id":"cebpf4jnsgd1na2vs0mg"},{"bike_id":"b1daebab-d13d-4688-abca-bf67031b451f","system_id":"levelo_inurba_marseille","lat":43.305449,"lon":5.365683,"is_reserved":false,"is_disabled":false,"rental_uris":{"android":"levelo://app?vid=b1daebab-d13d-4688-abca-bf67031b451f","ios":"levelo://app?vid=b1daebab-d13d-4688-abca-bf67031b451f"},"vehicle_type_id":"4","last_reported":1769023064,"current_range_meters":3200,"station_id":"ce4bgs12rcd13ifvqcag","pricing_plan_id":"cebpf4jnsgd1na2vs0mg"},{"bike_id":"04d1fa74-7078-4e54-86c0-c9d3f7b08c45","system_id":"levelo_inurba_marseille","lat":43.25596,"lon":5.38217,"is_reserved":false,"is_disabled":false,"rental_uris":{"android":"levelo://app?vid=04d1fa74-7078-4e54-86c0-c9d3f7b08c45","ios":"levelo://app?vid=04d1fa74-7078-4e54-86c0-c9d3f7b08c45"},"vehicle_type_id":"4","last_reported":1769023064,"current_range_meters":3200,"station_id":"ce4bhih2rcd13ifvqfs0","pricing_plan_id":"cebpf4jnsgd1na2vs0mg"},{"bike_id":"fd690e66-c2a4-46a4-a49e-74d3defa3526","system_id":"levelo_inurba_marseille","lat":43.29886,"lon":5.4366,"is_reserved":false,"is_disabled":false,"rental_uris":{"android":"levelo://app?vid=fd690e66-c2a4-46a4-a49e-74d3defa3526","ios":"levelo://app?vid=fd690e66-c2a4-46a4-a49e-74d3defa3526"},"vehicle_type_id":"4","last_reported":1769023064,"current_range_meters":3200,"station_id":"ce4bhpp2rcd13ifvqhfg","pricing_plan_id":"cebpf4jnsgd1na2vs0mg"},{"bike_id":"23e7e55c-e0a7-4c21-9c7b-401f7a4b5220","system_id":"levelo_inurba_marseille","lat":43.27995,"lon":5.40019,"is_reserved":false,"is_disabled":false,"rental_uris":{"android":"levelo://app?vid=23e7e55c-e0a7-4c21-9c7b-401f7a4b5220","ios":"levelo://app?vid=23e7e55c-e0a7-4c21-9c7b-401f7a4b5220"},"vehicle_type_id":"4","last_reported":1769023064,"current_range_meters":3200,"station_id":"ce4bho92rcd13ifvqh4g","pricing_plan_id":"cebpf4jnsgd1na2vs0mg"},{"bike_id":"51469472-4cc7-4fff-babd-738f91e7aa30","system_id":"levelo_inurba_marseille","lat":43.26234,"lon":5.40446,"is_reserved":false,"is_disabled":false,"rental_uris":{"android":"levelo://app?vid=51469472-4cc7-4fff-babd-738f91e7aa30","ios":"levelo://app?vid=51469472-4cc7-4fff-babd-738f91e7aa30"},"vehicle_type_id":"4","last_reported":1769023064,"current_range_meters":3200,"station_id":"ce4bhmh2rcd13ifvqgmg","pricing_plan_id":"cebpf4jnsgd1na2vs0mg"},{"bike_id":"5dbfcf3f-7cec-4c29-8168-14f9c37f7762","system_id":"levelo_inurba_marseille","lat":43.22559,"lon":5.41621,"is_reserved":false,"is_disabled":false,"rental_uris":{"android":"levelo://app?vid=5dbfcf3f-7cec-4c29-8168-14f9c37f7762","ios":"levelo://app?vid=5dbfcf3f-7cec-4c29-8168-14f9c37f7762"},"vehicle_type_id":"4","last_reported":1769023064,"current_range_meters":3200,"station_id":"st_d2o4gvlbi1j2169b742g","pricing_plan_id":"cebpf4jnsgd1na2vs0mg"},{"bike_id":"66160d64-23f9-4d70-b989-daa254cf260e","system_id":"levelo_inurba_marseille","lat":43.28158,"lon":5.42649,"is_reserved":false,"is_disabled":true,"rental_uris":{"android":"levelo://app?vid=66160d64-23f9-4d70-b989-daa254cf260e","ios":"levelo://app?vid=66160d64-23f9-4d70-b989-daa254cf260e"},"vehicle_type_id":"4","last_reported":1769023064,"current_range_meters":3200,"station_id":"ce4bhnh2rcd13ifvqgug","pricing_plan_id":"cebpf4jnsgd1na2vs0mg"},{"bike_id":"56aebe64-5e14-40af-99f2-62c233e94a99","system_id":"levelo_inurba_marseille","lat":43.29704,"lon":5.387441,"is_reserved":false,"is_disabled":false,"rental_uris":{"android":"levelo://app?vid=56aebe64-5e14-40af-99f2-62c233e94a99","ios":"levelo://app?vid=56aebe64-5e14-40af-99f2-62c233e94a99"},"vehicle_type_id":"4","last_reported":1769023064,"current_range_meters":3200,"station_id":"","pricing_plan_id":"cebpf4jnsgd1na2vs0mg"},{"bike_id":"35eb0f0f-42a8-4fd5-956e-bec6aa3f7ee3","system_id":"levelo_inurba_marseille","lat":43.231788,"lon":5.399988,"is_reserved":false,"is_disabled":false,"rental_uris":{"android":"levelo://app?vid=35eb0f0f-42a8-4fd5-956e-bec6aa3f7ee3","ios":"levelo://app?vid=35eb0f0f-42a8-4fd5-956e-bec6aa3f7ee3"},"vehicle_type_id":"4","last_reported":1769023064,"current_range_meters":3200,"station_id":"ce4bhn12rcd13ifvqgqg","pricing_plan_id":"cebpf4jnsgd1na2vs0mg"},{"bike_id":"2cf1ea64-26bb-4964-939a-03465aee6659","system_id":"levelo_inurba_marseille","lat":43.22561,"lon":5.41623,"is_reserved":false,"is_disabled":false,"rental_uris":{"android":"levelo://app?vid=2cf1ea64-26bb-4964-939a-03465aee6659","ios":"levelo://app?vid=2cf1ea64-26bb-4964-939a-03465aee6659"},"vehicle_type_id":"4","last_reported":1769023064,"current_range_meters":3200,"station_id":"st_d2o4gvlbi1j2169b742g","pricing_plan_id":"cebpf4jnsgd1na2vs0mg"},{"bike_id":"ace6dc7b-844d-48b9-85a1-bde754a67228","system_id":"levelo_inurba_marseille","lat":43.31482,"lon":5.37289,"is_reserved":false,"is_disabled":false,"rental_uris":{"android":"levelo://app?vid=ace6dc7b-844d-48b9-85a1-bde754a67228","ios":"levelo://app?vid=ace6dc7b-844d-48b9-85a1-bde754a67228"},"vehicle_type_id":"4","last_reported":1769023064,"current_range_meters":3200,"station_id":"ce4bgt12rcd13ifvqcd0","pricing_plan_id":"cebpf4jnsgd1na2vs0mg"},{"bike_id":"12b5343b-6490-4834-9ada-d261d5f78c34","system_id":"levelo_inurba_marseille","lat":43.29083,"lon":5.38146,"is_reserved":false,"is_disabled":false,"rental_uris":{"android":"levelo://app?vid=12b5343b-6490-4834-9ada-d261d5f78c34","ios":"levelo://app?vid=12b5343b-6490-4834-9ada-d261d5f78c34"},"vehicle_type_id":"4","last_reported":1769023064,"current_range_meters":3200,"station_id":"ce4bh512rcd13ifvqe2g","pricing_plan_id":"cebpf4jnsgd1na2vs0mg"},{"bike_id":"c05b8407-cf27-4e47-8a1c-27451f8a16bd","system_id":"levelo_inurba_marseille","lat":43.251198,"lon":5.403181,"is_reserved":false,"is_disabled":false,"rental_uris":{"android":"levelo://app?vid=c05b8407-cf27-4e47-8a1c-27451f8a16bd","ios":"levelo://app?vid=c05b8407-cf27-4e47-8a1c-27451f8a16bd"},"vehicle_type_id":"4","last_reported":1769023064,"current_range_meters":3600,"station_id":"ce4bhlh2rcd13ifvqgig","pricing_plan_id":"cebpf4jnsgd1na2vs0mg"},{"bike_id":"ee0649f4-b809-4aef-add5-3c8ad98310f4","system_id":"levelo_inurba_marseille","lat":43.25004,"lon":5.38915,"is_reserved":false,"is_disabled":false,"rental_uris":{"android":"levelo://app?vid=ee0649f4-b809-4aef-add5-3c8ad98310f4","ios":"levelo://app?vid=ee0649f4-b809-4aef-add5-3c8ad98310f4"},"vehicle_type_id":"4","last_reported":1769023064,"current_range_meters":3600,"station_id":"ce4bhgp2rcd13ifvqfd0","pricing_plan_id":"cebpf4jnsgd1na2vs0mg"},{"bike_id":"386404ee-f0ba-457d-90aa-b174a4c2d2a3","system_id":"levelo_inurba_marseille","lat":43.3032,"lon":5.40443,"is_reserved":false,"is_disabled":false,"rental_uris":{"android":"levelo://app?vid=386404ee-f0ba-457d-90aa-b174a4c2d2a3","ios":"levelo://app?vid=386404ee-f0ba-457d-90aa-b174a4c2d2a3"},"vehicle_type_id":"4","last_reported":1769023064,"current_range_meters":3600,"station_id":"ce4bh012rcd13ifvqd10","pricing_plan_id":"cebpf4jnsgd1na2vs0mg"},{"bike_id":"c7c76144-23b1-416e-a9ce-18579fb71224","system_id":"levelo_inurba_marseille","lat":43.2906,"lon":5.37169,"is_reserved":false,"is_disabled":false,"rental_uris":{"android":"levelo://app?vid=c7c76144-23b1-416e-a9ce-18579fb71224","ios":"levelo://app?vid=c7c76144-23b1-416e-a9ce-18579fb71224"},"vehicle_type_id":"4","last_reported":1769023064,"current_range_meters":3600,"station_id":"ce4bh5p2rcd13ifvqe4g","pricing_plan_id":"cebpf4jnsgd1na2vs0mg"},{"bike_id":"5dacebc2-c827-4400-a04d-b9a970859917","system_id":"levelo_inurba_marseille","lat":43.28929,"lon":5.36636,"is_reserved":false,"is_disabled":false,"rental_uris":{"android":"levelo://app?vid=5dacebc2-c827-4400-a04d-b9a970859917","ios":"levelo://app?vid=5dacebc2-c827-4400-a04d-b9a970859917"},"vehicle_type_id":"4","last_reported":1769023064,"current_range_meters":3600,"station_id":"ce4bhap2rcd13ifvqek0","pricing_plan_id":"cebpf4jnsgd1na2vs0mg"},{"bike_id":"ea437f88-145f-4dfa-a3b1-3b48500f6748","system_id":"levelo_inurba_marseille","lat":43.24468,"lon":5.425563,"is_reserved":false,"is_disabled":false,"rental_uris":{"android":"levelo://app?vid=ea437f88-145f-4dfa-a3b1-3b48500f6748","ios":"levelo://app?vid=ea437f88-145f-4dfa-a3b1-3b48500f6748"},"vehicle_type_id":"4","last_reported":1769023064,"current_range_meters":3600,"station_id":"","pricing_plan_id":"cebpf4jnsgd1na2vs0mg"},{"bike_id":"d8f4cd8b-b467-4cac-846a-9f3638aa8b07","system_id":"levelo_inurba_marseille","lat":43.29268,"lon":5.384333,"is_reserved":false,"is_disabled":false,"rental_uris":{"android":"levelo://app?vid=d8f4cd8b-b467-4cac-846a-9f3638aa8b07","ios":"levelo://app?vid=d8f4cd8b-b467-4cac-846a-9f3638aa8b07"},"vehicle_type_id":"4","last_reported":1769023064,"current_range_meters":3600,"station_id":"","pricing_plan_id":"cebpf4jnsgd1na2vs0mg"},{"bike_id":"22d3769a-e132-481e-95fc-4e0acf9c3019","system_id":"levelo_inurba_marseille","lat":43.25086,"lon":5.39517,"is_reserved":false,"is_disabled":false,"rental_uris":{"android":"levelo://app?vid=22d3769a-e132-481e-95fc-4e0acf9c3019","ios":"levelo://app?vid=22d3769a-e132-481e-95fc-4e0acf9c3019"},"vehicle_type_id":"4","last_reported":1769023064,"current_range_meters":3600,"station_id":"ce4bhm12rcd13ifvqgkg","pricing_plan_id":"cebpf4jnsgd1na2vs0mg"},{"bike_id":"d89723de-e603-4547-b826-b6b41cf5109c","system_id":"levelo_inurba_marseille","lat":43.24676,"lon":5.38156,"is_reserved":false,"is_disabled":false,"rental_uris":{"android":"levelo://app?vid=d89723de-e603-4547-b826-b6b41cf5109c","ios":"levelo://app?vid=d89723de-e603-4547-b826-b6b41cf5109c"},"vehicle_type_id":"4","last_reported":1769023064,"current_range_meters":3600,"station_id":"ce4bhih2rcd13ifvqfr0","pricing_plan_id":"cebpf4jnsgd1na2vs0mg"},{"bike_id":"37b9b189-94d2-4e18-82aa-b813b05c81f5","system_id":"levelo_inurba_marseille","lat":43.27328,"lon":5.39084,"is_reserved":false,"is_disabled":false,"rental_uris":{"android":"levelo://app?vid=37b9b189-94d2-4e18-82aa-b813b05c81f5","ios":"levelo://app?vid=37b9b189-94d2-4e18-82aa-b813b05c81f5"},"vehicle_type_id":"4","last_reported":1769023064,"current_range_meters":3600,"station_id":"ce4bhgp2rcd13ifvqfe0","pricing_plan_id":"cebpf4jnsgd1na2vs0mg"},{"bike_id":"f9e20ef2-1614-4d03-8ea4-2dab043b76e2","system_id":"levelo_inurba_marseille","lat":43.31368,"lon":5.38487,"is_reserved":false,"is_disabled":false,"rental_uris":{"android":"levelo://app?vid=f9e20ef2-1614-4d03-8ea4-2dab043b76e2","ios":"levelo://app?vid=f9e20ef2-1614-4d03-8ea4-2dab043b76e2"},"vehicle_type_id":"4","last_reported":1769023064,"current_range_meters":3600,"station_id":"ce4bgt92rcd13ifvqcf0","pricing_plan_id":"cebpf4jnsgd1na2vs0mg"},{"bike_id":"65fd7955-07dd-47da-bfed-ae167c3de24b","system_id":"levelo_inurba_marseille","lat":43.27305,"lon":5.39099,"is_reserved":false,"is_disabled":false,"rental_uris":{"android":"levelo://app?vid=65fd7955-07dd-47da-bfed-ae167c3de24b","ios":"levelo://app?vid=65fd7955-07dd-47da-bfed-ae167c3de24b"},"vehicle_type_id":"4","last_reported":1769023064,"current_range_meters":4000,"station_id":"ce4bhgp2rcd13ifvqfe0","pricing_plan_id":"cebpf4jnsgd1na2vs0mg"},{"bike_id":"a2a002d0-bc1e-41cd-9b1d-a834b25b6b43","system_id":"levelo_inurba_marseille","lat":43.27995,"lon":5.40008,"is_reserved":false,"is_disabled":false,"rental_uris":{"android":"levelo://app?vid=a2a002d0-bc1e-41cd-9b1d-a834b25b6b43","ios":"levelo://app?vid=a2a002d0-bc1e-41cd-9b1d-a834b25b6b43"},"vehicle_type_id":"4","last_reported":1769023064,"current_range_meters":4000,"station_id":"ce4bho92rcd13ifvqh4g","pricing_plan_id":"cebpf4jnsgd1na2vs0mg"},{"bike_id":"b879bdb0-3364-4e43-95d1-60b6b5fbc4d0","system_id":"levelo_inurba_marseille","lat":43.246449,"lon":5.389052,"is_reserved":false,"is_disabled":false,"rental_uris":{"android":"levelo://app?vid=b879bdb0-3364-4e43-95d1-60b6b5fbc4d0","ios":"levelo://app?vid=b879bdb0-3364-4e43-95d1-60b6b5fbc4d0"},"vehicle_type_id":"4","last_reported":1769023064,"current_range_meters":4000,"station_id":"ce4bhg12rcd13ifvqf60","pricing_plan_id":"cebpf4jnsgd1na2vs0mg"},{"bike_id":"6afc194d-8be5-401c-b489-cfac80ae0c60","system_id":"levelo_inurba_marseille","lat":43.29523,"lon":5.38541,"is_reserved":false,"is_disabled":false,"rental_uris":{"android":"levelo://app?vid=6afc194d-8be5-401c-b489-cfac80ae0c60","ios":"levelo://app?vid=6afc194d-8be5-401c-b489-cfac80ae0c60"},"vehicle_type_id":"4","last_reported":1769023064,"current_range_meters":4000,"station_id":"ce4bgih2rcd13ifvqba0","pricing_plan_id":"cebpf4jnsgd1na2vs0mg"},{"bike_id":"e9cf4d98-a47d-4cc7-82f6-b2e075f45c6a","system_id":"levelo_inurba_marseille","lat":43.22567,"lon":5.4166,"is_reserved":false,"is_disabled":false,"rental_uris":{"android":"levelo://app?vid=e9cf4d98-a47d-4cc7-82f6-b2e075f45c6a","ios":"levelo://app?vid=e9cf4d98-a47d-4cc7-82f6-b2e075f45c6a"},"vehicle_type_id":"4","last_reported":1769023064,"current_range_meters":4000,"station_id":"st_d2o4gvlbi1j2169b742g","pricing_plan_id":"cebpf4jnsgd1na2vs0mg"},{"bike_id":"bd263ecd-e110-47eb-9c35-c2199c34085a","system_id":"levelo_inurba_marseille","lat":43.280007,"lon":5.40015,"is_reserved":false,"is_disabled":false,"rental_uris":{"android":"levelo://app?vid=bd263ecd-e110-47eb-9c35-c2199c34085a","ios":"levelo://app?vid=bd263ecd-e110-47eb-9c35-c2199c34085a"},"vehicle_type_id":"4","last_reported":1769023064,"current_range_meters":4000,"station_id":"ce4bho92rcd13ifvqh4g","pricing_plan_id":"cebpf4jnsgd1na2vs0mg"},{"bike_id":"20f2e691-7ee8-4508-9b1c-b43a813819d1","system_id":"levelo_inurba_marseille","lat":43.26062,"lon":5.37571,"is_reserved":false,"is_disabled":false,"rental_uris":{"android":"levelo://app?vid=20f2e691-7ee8-4508-9b1c-b43a813819d1","ios":"levelo://app?vid=20f2e691-7ee8-4508-9b1c-b43a813819d1"},"vehicle_type_id":"4","last_reported":1769023064,"current_range_meters":4000,"station_id":"ce4bhgh2rcd13ifvqfa0","pricing_plan_id":"cebpf4jnsgd1na2vs0mg"},{"bike_id":"bcd3d6d4-62c6-4126-bacd-c20f19a53f49","system_id":"levelo_inurba_marseille","lat":43.29762,"lon":5.4278,"is_reserved":false,"is_disabled":false,"rental_uris":{"android":"levelo://app?vid=bcd3d6d4-62c6-4126-bacd-c20f19a53f49","ios":"levelo://app?vid=bcd3d6d4-62c6-4126-bacd-c20f19a53f49"},"vehicle_type_id":"4","last_reported":1769023064,"current_range_meters":4000,"station_id":"st_d3md5207bmas73dh9klg","pricing_plan_id":"cebpf4jnsgd1na2vs0mg"},{"bike_id":"02b19501-ae2b-4d21-ae93-ce26586838ae","system_id":"levelo_inurba_marseille","lat":43.29569,"lon":5.42272,"is_reserved":false,"is_disabled":false,"rental_uris":{"android":"levelo://app?vid=02b19501-ae2b-4d21-ae93-ce26586838ae","ios":"levelo://app?vid=02b19501-ae2b-4d21-ae93-ce26586838ae"},"vehicle_type_id":"4","last_reported":1769023064,"current_range_meters":4000,"station_id":"ce4bhph2rcd13ifvqhdg","pricing_plan_id":"cebpf4jnsgd1na2vs0mg"},{"bike_id":"65055ef3-54bd-43a9-99e0-7870e0d58868","system_id":"levelo_inurba_marseille","lat":43.30804,"lon":5.38136,"is_reserved":false,"is_disabled":false,"rental_uris":{"android":"levelo://app?vid=65055ef3-54bd-43a9-99e0-7870e0d58868","ios":"levelo://app?vid=65055ef3-54bd-43a9-99e0-7870e0d58868"},"vehicle_type_id":"4","last_reported":1769023064,"current_range_meters":4000,"station_id":"ce4bgt12rcd13ifvqce0","pricing_plan_id":"cebpf4jnsgd1na2vs0mg"},{"bike_id":"674e3ad4-0057-4a66-86e9-d4ef9e8f9d7f","system_id":"levelo_inurba_marseille","lat":43.25338,"lon":5.42165,"is_reserved":false,"is_disabled":false,"rental_uris":{"android":"levelo://app?vid=674e3ad4-0057-4a66-86e9-d4ef9e8f9d7f","ios":"levelo://app?vid=674e3ad4-0057-4a66-86e9-d4ef9e8f9d7f"},"vehicle_type_id":"4","last_reported":1769023064,"current_range_meters":4000,"station_id":"st_d2m65c5bi1j21697t3ng","pricing_plan_id":"cebpf4jnsgd1na2vs0mg"},{"bike_id":"e33484e0-7a35-4b93-ab20-96b6be2bd7f2","system_id":"levelo_inurba_marseille","lat":43.317544,"lon":5.39021,"is_reserved":false,"is_disabled":false,"rental_uris":{"android":"levelo://app?vid=e33484e0-7a35-4b93-ab20-96b6be2bd7f2","ios":"levelo://app?vid=e33484e0-7a35-4b93-ab20-96b6be2bd7f2"},"vehicle_type_id":"4","last_reported":1769023064,"current_range_meters":4000,"station_id":"ce4bhqp2rcd13ifvqhng","pricing_plan_id":"cebpf4jnsgd1na2vs0mg"},{"bike_id":"ba5cf8bf-3fab-4906-a539-9829815d5bcb","system_id":"levelo_inurba_marseille","lat":43.27059,"lon":5.40254,"is_reserved":false,"is_disabled":false,"rental_uris":{"android":"levelo://app?vid=ba5cf8bf-3fab-4906-a539-9829815d5bcb","ios":"levelo://app?vid=ba5cf8bf-3fab-4906-a539-9829815d5bcb"},"vehicle_type_id":"4","last_reported":1769023064,"current_range_meters":4000,"station_id":"ce4bhk92rcd13ifvqgc0","pricing_plan_id":"cebpf4jnsgd1na2vs0mg"},{"bike_id":"5e6a2e23-cc18-498f-9f67-276968f75f61","system_id":"levelo_inurba_marseille","lat":43.27421,"lon":5.39389,"is_reserved":false,"is_disabled":false,"rental_uris":{"android":"levelo://app?vid=5e6a2e23-cc18-498f-9f67-276968f75f61","ios":"levelo://app?vid=5e6a2e23-cc18-498f-9f67-276968f75f61"},"vehicle_type_id":"4","last_reported":1769023064,"current_range_meters":4000,"station_id":"ce4bhdp2rcd13ifvqf20","pricing_plan_id":"cebpf4jnsgd1na2vs0mg"},{"bike_id":"1a42f3a8-2ec5-42b6-a29c-4fd0023ddc50","system_id":"levelo_inurba_marseille","lat":43.28716,"lon":5.37936,"is_reserved":false,"is_disabled":true,"rental_uris":{"android":"levelo://app?vid=1a42f3a8-2ec5-42b6-a29c-4fd0023ddc50","ios":"levelo://app?vid=1a42f3a8-2ec5-42b6-a29c-4fd0023ddc50"},"vehicle_type_id":"4","last_reported":1769023064,"current_range_meters":4000,"station_id":"ce4bh9p2rcd13ifvqec0","pricing_plan_id":"cebpf4jnsgd1na2vs0mg"},{"bike_id":"48214cab-a20a-430a-8300-e70f3a4adf2b","system_id":"levelo_inurba_marseille","lat":43.29519,"lon":5.39036,"is_reserved":false,"is_disabled":false,"rental_uris":{"android":"levelo://app?vid=48214cab-a20a-430a-8300-e70f3a4adf2b","ios":"levelo://app?vid=48214cab-a20a-430a-8300-e70f3a4adf2b"},"vehicle_type_id":"4","last_reported":1769023064,"current_range_meters":4000,"station_id":"ce4bh3p2rcd13ifvqdp0","pricing_plan_id":"cebpf4jnsgd1na2vs0mg"},{"bike_id":"8071b732-6495-4355-8bd2-d391f59dfffd","system_id":"levelo_inurba_marseille","lat":43.21757,"lon":5.34604,"is_reserved":false,"is_disabled":false,"rental_uris":{"android":"levelo://app?vid=8071b732-6495-4355-8bd2-d391f59dfffd","ios":"levelo://app?vid=8071b732-6495-4355-8bd2-d391f59dfffd"},"vehicle_type_id":"4","last_reported":1769023064,"current_range_meters":4000,"station_id":"","pricing_plan_id":"cebpf4jnsgd1na2vs0mg"},{"bike_id":"a2424baa-0e5e-4ed2-9ae6-78591e46955c","system_id":"levelo_inurba_marseille","lat":43.28468,"lon":5.48407,"is_reserved":false,"is_disabled":false,"rental_uris":{"android":"levelo://app?vid=a2424baa-0e5e-4ed2-9ae6-78591e46955c","ios":"levelo://app?vid=a2424baa-0e5e-4ed2-9ae6-78591e46955c"},"vehicle_type_id":"4","last_reported":1769023064,"current_range_meters":4000,"station_id":"st_d3svhcjqgbts73a3dn0g","pricing_plan_id":"cebpf4jnsgd1na2vs0mg"},{"bike_id":"8069f374-6bb2-4df8-950d-be2e50fcd180","system_id":"levelo_inurba_marseille","lat":43.3111,"lon":5.3775,"is_reserved":false,"is_disabled":true,"rental_uris":{"android":"levelo://app?vid=8069f374-6bb2-4df8-950d-be2e50fcd180","ios":"levelo://app?vid=8069f374-6bb2-4df8-950d-be2e50fcd180"},"vehicle_type_id":"4","last_reported":1769023064,"current_range_meters":4400,"station_id":"ce4bgt92rcd13ifvqcg0","pricing_plan_id":"cebpf4jnsgd1na2vs0mg"},{"bike_id":"6ded5397-c2f0-42e8-b246-f33d3955879d","system_id":"levelo_inurba_marseille","lat":43.28606,"lon":5.3988,"is_reserved":false,"is_disabled":false,"rental_uris":{"android":"levelo://app?vid=6ded5397-c2f0-42e8-b246-f33d3955879d","ios":"levelo://app?vid=6ded5397-c2f0-42e8-b246-f33d3955879d"},"vehicle_type_id":"4","last_reported":1769023064,"current_range_meters":4400,"station_id":"st_d4a7ka997mjs738ck50g","pricing_plan_id":"cebpf4jnsgd1na2vs0mg"},{"bike_id":"836c81e2-f192-454e-b003-dbad80208c28","system_id":"levelo_inurba_marseille","lat":43.25825,"lon":5.39423,"is_reserved":false,"is_disabled":false,"rental_uris":{"android":"levelo://app?vid=836c81e2-f192-454e-b003-dbad80208c28","ios":"levelo://app?vid=836c81e2-f192-454e-b003-dbad80208c28"},"vehicle_type_id":"4","last_reported":1769023064,"current_range_meters":4400,"station_id":"ce4bhip2rcd13ifvqft0","pricing_plan_id":"cebpf4jnsgd1na2vs0mg"},{"bike_id":"f9bb0ce4-18f3-401e-9ec8-0504228dbd0f","system_id":"levelo_inurba_marseille","lat":43.270508,"lon":5.402638,"is_reserved":false,"is_disabled":false,"rental_uris":{"android":"levelo://app?vid=f9bb0ce4-18f3-401e-9ec8-0504228dbd0f","ios":"levelo://app?vid=f9bb0ce4-18f3-401e-9ec8-0504228dbd0f"},"vehicle_type_id":"4","last_reported":1769023064,"current_range_meters":4400,"station_id":"ce4bhk92rcd13ifvqgc0","pricing_plan_id":"cebpf4jnsgd1na2vs0mg"},{"bike_id":"9ed85f30-2205-4d4d-9b08-e4294486deeb","system_id":"levelo_inurba_marseille","lat":43.27237,"lon":5.39092,"is_reserved":false,"is_disabled":false,"rental_uris":{"android":"levelo://app?vid=9ed85f30-2205-4d4d-9b08-e4294486deeb","ios":"levelo://app?vid=9ed85f30-2205-4d4d-9b08-e4294486deeb"},"vehicle_type_id":"4","last_reported":1769023064,"current_range_meters":4400,"station_id":"","pricing_plan_id":"cebpf4jnsgd1na2vs0mg"},{"bike_id":"d07869fc-7f2f-4a56-a1d6-ce6a237eac4c","system_id":"levelo_inurba_marseille","lat":43.29541,"lon":5.39401,"is_reserved":false,"is_disabled":false,"rental_uris":{"android":"levelo://app?vid=d07869fc-7f2f-4a56-a1d6-ce6a237eac4c","ios":"levelo://app?vid=d07869fc-7f2f-4a56-a1d6-ce6a237eac4c"},"vehicle_type_id":"4","last_reported":1769023064,"current_range_meters":4400,"station_id":"ce4bh292rcd13ifvqdf0","pricing_plan_id":"cebpf4jnsgd1na2vs0mg"},{"bike_id":"cce149ec-a99d-44c4-9dd1-ee56040aed78","system_id":"levelo_inurba_marseille","lat":43.29275,"lon":5.38435,"is_reserved":false,"is_disabled":false,"rental_uris":{"android":"levelo://app?vid=cce149ec-a99d-44c4-9dd1-ee56040aed78","ios":"levelo://app?vid=cce149ec-a99d-44c4-9dd1-ee56040aed78"},"vehicle_type_id":"4","last_reported":1769023064,"current_range_meters":4400,"station_id":"ce4bh692rcd13ifvqea0","pricing_plan_id":"cebpf4jnsgd1na2vs0mg"},{"bike_id":"8fd37eb2-3b65-4481-aaea-413cb5168da8","system_id":"levelo_inurba_marseille","lat":43.33354,"lon":5.41077,"is_reserved":false,"is_disabled":false,"rental_uris":{"android":"levelo://app?vid=8fd37eb2-3b65-4481-aaea-413cb5168da8","ios":"levelo://app?vid=8fd37eb2-3b65-4481-aaea-413cb5168da8"},"vehicle_type_id":"4","last_reported":1769023064,"current_range_meters":4400,"station_id":"","pricing_plan_id":"cebpf4jnsgd1na2vs0mg"},{"bike_id":"75d212f5-2dae-4b21-9e67-495cb3723ca2","system_id":"levelo_inurba_marseille","lat":43.239671,"lon":5.366285,"is_reserved":false,"is_disabled":false,"rental_uris":{"android":"levelo://app?vid=75d212f5-2dae-4b21-9e67-495cb3723ca2","ios":"levelo://app?vid=75d212f5-2dae-4b21-9e67-495cb3723ca2"},"vehicle_type_id":"4","last_reported":1769023064,"current_range_meters":4400,"station_id":"ce4bhi12rcd13ifvqfp0","pricing_plan_id":"cebpf4jnsgd1na2vs0mg"},{"bike_id":"7dec8c94-369e-4111-95bd-94da7a72318c","system_id":"levelo_inurba_marseille","lat":43.28331,"lon":5.38103,"is_reserved":false,"is_disabled":false,"rental_uris":{"android":"levelo://app?vid=7dec8c94-369e-4111-95bd-94da7a72318c","ios":"levelo://app?vid=7dec8c94-369e-4111-95bd-94da7a72318c"},"vehicle_type_id":"4","last_reported":1769023064,"current_range_meters":4400,"station_id":"ce4bh412rcd13ifvqdr0","pricing_plan_id":"cebpf4jnsgd1na2vs0mg"},{"bike_id":"e06afa04-24f4-4957-959f-813d2e62546a","system_id":"levelo_inurba_marseille","lat":43.31359,"lon":5.38488,"is_reserved":false,"is_disabled":false,"rental_uris":{"android":"levelo://app?vid=e06afa04-24f4-4957-959f-813d2e62546a","ios":"levelo://app?vid=e06afa04-24f4-4957-959f-813d2e62546a"},"vehicle_type_id":"4","last_reported":1769023064,"current_range_meters":4400,"station_id":"ce4bgt92rcd13ifvqcf0","pricing_plan_id":"cebpf4jnsgd1na2vs0mg"},{"bike_id":"a0f1b526-5994-428c-b44d-0d452fc7072c","system_id":"levelo_inurba_marseille","lat":43.30421,"lon":5.41294,"is_reserved":false,"is_disabled":false,"rental_uris":{"android":"levelo://app?vid=a0f1b526-5994-428c-b44d-0d452fc7072c","ios":"levelo://app?vid=a0f1b526-5994-428c-b44d-0d452fc7072c"},"vehicle_type_id":"4","last_reported":1769023064,"current_range_meters":4400,"station_id":"ce4bhop2rcd13ifvqh8g","pricing_plan_id":"cebpf4jnsgd1na2vs0mg"},{"bike_id":"4a76d979-e50d-4881-b5ec-95f93d564aeb","system_id":"levelo_inurba_marseille","lat":43.24171,"lon":5.396972,"is_reserved":false,"is_disabled":false,"rental_uris":{"android":"levelo://app?vid=4a76d979-e50d-4881-b5ec-95f93d564aeb","ios":"levelo://app?vid=4a76d979-e50d-4881-b5ec-95f93d564aeb"},"vehicle_type_id":"4","last_reported":1769023064,"current_range_meters":4800,"station_id":"ce4bhn12rcd13ifvqgqg","pricing_plan_id":"cebpf4jnsgd1na2vs0mg"},{"bike_id":"2a5f5e2c-a450-48d8-bdee-1f523895da20","system_id":"levelo_inurba_marseille","lat":43.27972,"lon":5.40055,"is_reserved":false,"is_disabled":false,"rental_uris":{"android":"levelo://app?vid=2a5f5e2c-a450-48d8-bdee-1f523895da20","ios":"levelo://app?vid=2a5f5e2c-a450-48d8-bdee-1f523895da20"},"vehicle_type_id":"4","last_reported":1769023064,"current_range_meters":4800,"station_id":"ce4bho92rcd13ifvqh4g","pricing_plan_id":"cebpf4jnsgd1na2vs0mg"},{"bike_id":"f32f99ba-3ead-4e04-9bcb-0439bdc4e6db","system_id":"levelo_inurba_marseille","lat":43.29857,"lon":5.40329,"is_reserved":false,"is_disabled":false,"rental_uris":{"android":"levelo://app?vid=f32f99ba-3ead-4e04-9bcb-0439bdc4e6db","ios":"levelo://app?vid=f32f99ba-3ead-4e04-9bcb-0439bdc4e6db"},"vehicle_type_id":"4","last_reported":1769023064,"current_range_meters":4800,"station_id":"","pricing_plan_id":"cebpf4jnsgd1na2vs0mg"},{"bike_id":"d5de6009-af4e-4bdb-b925-fb7999e856b8","system_id":"levelo_inurba_marseille","lat":43.24546,"lon":5.39517,"is_reserved":false,"is_disabled":true,"rental_uris":{"android":"levelo://app?vid=d5de6009-af4e-4bdb-b925-fb7999e856b8","ios":"levelo://app?vid=d5de6009-af4e-4bdb-b925-fb7999e856b8"},"vehicle_type_id":"4","last_reported":1769023064,"current_range_meters":4800,"station_id":"ce4bhlp2rcd13ifvqgjg","pricing_plan_id":"cebpf4jnsgd1na2vs0mg"},{"bike_id":"3639d55f-2c56-4a01-8e17-429ca48b3f11","system_id":"levelo_inurba_marseille","lat":43.30087,"lon":5.39063,"is_reserved":false,"is_disabled":false,"rental_uris":{"android":"levelo://app?vid=3639d55f-2c56-4a01-8e17-429ca48b3f11","ios":"levelo://app?vid=3639d55f-2c56-4a01-8e17-429ca48b3f11"},"vehicle_type_id":"4","last_reported":1769023064,"current_range_meters":4800,"station_id":"ce4bh192rcd13ifvqdb0","pricing_plan_id":"cebpf4jnsgd1na2vs0mg"},{"bike_id":"0d039f66-11a1-4daa-9c3e-527b4b511ff8","system_id":"levelo_inurba_marseille","lat":43.26037,"lon":5.39429,"is_reserved":false,"is_disabled":true,"rental_uris":{"android":"levelo://app?vid=0d039f66-11a1-4daa-9c3e-527b4b511ff8","ios":"levelo://app?vid=0d039f66-11a1-4daa-9c3e-527b4b511ff8"},"vehicle_type_id":"4","last_reported":1769023064,"current_range_meters":4800,"station_id":"ce4bhh92rcd13ifvqfj0","pricing_plan_id":"cebpf4jnsgd1na2vs0mg"},{"bike_id":"94b856bc-8a8a-49fc-9052-35a630264686","system_id":"levelo_inurba_marseille","lat":43.273204,"lon":5.390638,"is_reserved":false,"is_disabled":false,"rental_uris":{"android":"levelo://app?vid=94b856bc-8a8a-49fc-9052-35a630264686","ios":"levelo://app?vid=94b856bc-8a8a-49fc-9052-35a630264686"},"vehicle_type_id":"4","last_reported":1769023064,"current_range_meters":4800,"station_id":"ce4bhgp2rcd13ifvqfe0","pricing_plan_id":"cebpf4jnsgd1na2vs0mg"},{"bike_id":"5f6a0a0c-aaf7-41c1-be98-33b50db68fe6","system_id":"levelo_inurba_marseille","lat":43.26483,"lon":5.39557,"is_reserved":false,"is_disabled":true,"rental_uris":{"android":"levelo://app?vid=5f6a0a0c-aaf7-41c1-be98-33b50db68fe6","ios":"levelo://app?vid=5f6a0a0c-aaf7-41c1-be98-33b50db68fe6"},"vehicle_type_id":"4","last_reported":1769023064,"current_range_meters":4800,"station_id":"ce4bhi12rcd13ifvqfq0","pricing_plan_id":"cebpf4jnsgd1na2vs0mg"},{"bike_id":"cfc88531-5dff-4a01-b504-ad9f7eb0e753","system_id":"levelo_inurba_marseille","lat":43.27984,"lon":5.40033,"is_reserved":false,"is_disabled":false,"rental_uris":{"android":"levelo://app?vid=cfc88531-5dff-4a01-b504-ad9f7eb0e753","ios":"levelo://app?vid=cfc88531-5dff-4a01-b504-ad9f7eb0e753"},"vehicle_type_id":"4","last_reported":1769023064,"current_range_meters":4800,"station_id":"ce4bho92rcd13ifvqh4g","pricing_plan_id":"cebpf4jnsgd1na2vs0mg"},{"bike_id":"93c7a025-127d-40b2-862c-98919fbc02da","system_id":"levelo_inurba_marseille","lat":43.23184,"lon":5.39985,"is_reserved":false,"is_disabled":false,"rental_uris":{"android":"levelo://app?vid=93c7a025-127d-40b2-862c-98919fbc02da","ios":"levelo://app?vid=93c7a025-127d-40b2-862c-98919fbc02da"},"vehicle_type_id":"4","last_reported":1769023064,"current_range_meters":4800,"station_id":"ce4bhn12rcd13ifvqgqg","pricing_plan_id":"cebpf4jnsgd1na2vs0mg"},{"bike_id":"6986176b-80b7-46a4-b7d0-346a0bd424f9","system_id":"levelo_inurba_marseille","lat":43.29929,"lon":5.36541,"is_reserved":false,"is_disabled":false,"rental_uris":{"android":"levelo://app?vid=6986176b-80b7-46a4-b7d0-346a0bd424f9","ios":"levelo://app?vid=6986176b-80b7-46a4-b7d0-346a0bd424f9"},"vehicle_type_id":"4","last_reported":1769023064,"current_range_meters":4800,"station_id":"ce4bgm92rcd13ifvqbr0","pricing_plan_id":"cebpf4jnsgd1na2vs0mg"},{"bike_id":"1e9683fd-3419-4707-ab97-e3b80d5f4bea","system_id":"levelo_inurba_marseille","lat":43.27158,"lon":5.40458,"is_reserved":false,"is_disabled":false,"rental_uris":{"android":"levelo://app?vid=1e9683fd-3419-4707-ab97-e3b80d5f4bea","ios":"levelo://app?vid=1e9683fd-3419-4707-ab97-e3b80d5f4bea"},"vehicle_type_id":"4","last_reported":1769023064,"current_range_meters":4800,"station_id":"","pricing_plan_id":"cebpf4jnsgd1na2vs0mg"},{"bike_id":"1c9f2e94-25b8-432d-aac8-42f703544d49","system_id":"levelo_inurba_marseille","lat":43.225325,"lon":5.34829,"is_reserved":false,"is_disabled":false,"rental_uris":{"android":"levelo://app?vid=1c9f2e94-25b8-432d-aac8-42f703544d49","ios":"levelo://app?vid=1c9f2e94-25b8-432d-aac8-42f703544d49"},"vehicle_type_id":"4","last_reported":1769023064,"current_range_meters":4800,"station_id":"","pricing_plan_id":"cebpf4jnsgd1na2vs0mg"},{"bike_id":"c78510da-469f-4504-b37e-17e429d37c1f","system_id":"levelo_inurba_marseille","lat":43.30305,"lon":5.39205,"is_reserved":false,"is_disabled":false,"rental_uris":{"android":"levelo://app?vid=c78510da-469f-4504-b37e-17e429d37c1f","ios":"levelo://app?vid=c78510da-469f-4504-b37e-17e429d37c1f"},"vehicle_type_id":"4","last_reported":1769023064,"current_range_meters":4800,"station_id":"ce4bgkh2rcd13ifvqbk0","pricing_plan_id":"cebpf4jnsgd1na2vs0mg"},{"bike_id":"4d755896-9582-4758-91af-66367ae21645","system_id":"levelo_inurba_marseille","lat":43.28931,"lon":5.38386,"is_reserved":false,"is_disabled":false,"rental_uris":{"android":"levelo://app?vid=4d755896-9582-4758-91af-66367ae21645","ios":"levelo://app?vid=4d755896-9582-4758-91af-66367ae21645"},"vehicle_type_id":"4","last_reported":1769023064,"current_range_meters":4800,"station_id":"ce4bh612rcd13ifvqe6g","pricing_plan_id":"cebpf4jnsgd1na2vs0mg"},{"bike_id":"e9a42ead-0d12-40f0-b190-b1b6a6eb7802","system_id":"levelo_inurba_marseille","lat":43.24811,"lon":5.37461,"is_reserved":false,"is_disabled":false,"rental_uris":{"android":"levelo://app?vid=e9a42ead-0d12-40f0-b190-b1b6a6eb7802","ios":"levelo://app?vid=e9a42ead-0d12-40f0-b190-b1b6a6eb7802"},"vehicle_type_id":"4","last_reported":1769023064,"current_range_meters":4800,"station_id":"ce4bhgh2rcd13ifvqfb0","pricing_plan_id":"cebpf4jnsgd1na2vs0mg"},{"bike_id":"00d13be8-f5ba-411a-9ab3-e17b60014e24","system_id":"levelo_inurba_marseille","lat":43.28,"lon":5.39977,"is_reserved":false,"is_disabled":false,"rental_uris":{"android":"levelo://app?vid=00d13be8-f5ba-411a-9ab3-e17b60014e24","ios":"levelo://app?vid=00d13be8-f5ba-411a-9ab3-e17b60014e24"},"vehicle_type_id":"4","last_reported":1769023064,"current_range_meters":5600,"station_id":"ce4bho92rcd13ifvqh4g","pricing_plan_id":"cebpf4jnsgd1na2vs0mg"},{"bike_id":"4455ca85-6dc7-433d-ba56-810118fb0bb6","system_id":"levelo_inurba_marseille","lat":43.29488,"lon":5.43298,"is_reserved":false,"is_disabled":false,"rental_uris":{"android":"levelo://app?vid=4455ca85-6dc7-433d-ba56-810118fb0bb6","ios":"levelo://app?vid=4455ca85-6dc7-433d-ba56-810118fb0bb6"},"vehicle_type_id":"4","last_reported":1769023064,"current_range_meters":5600,"station_id":"st_d3j5ugp08ojc73fj9d10","pricing_plan_id":"cebpf4jnsgd1na2vs0mg"},{"bike_id":"fb2014f7-1d5f-4062-89cd-f41381344fc0","system_id":"levelo_inurba_marseille","lat":43.26935,"lon":5.40245,"is_reserved":false,"is_disabled":false,"rental_uris":{"android":"levelo://app?vid=fb2014f7-1d5f-4062-89cd-f41381344fc0","ios":"levelo://app?vid=fb2014f7-1d5f-4062-89cd-f41381344fc0"},"vehicle_type_id":"4","last_reported":1769023064,"current_range_meters":5600,"station_id":"cjm6bp8fraef2m0cb0m0","pricing_plan_id":"cebpf4jnsgd1na2vs0mg"},{"bike_id":"5ccd4b49-397b-4ce5-a22c-752ca0560289","system_id":"levelo_inurba_marseille","lat":43.295714,"lon":5.399694,"is_reserved":false,"is_disabled":false,"rental_uris":{"android":"levelo://app?vid=5ccd4b49-397b-4ce5-a22c-752ca0560289","ios":"levelo://app?vid=5ccd4b49-397b-4ce5-a22c-752ca0560289"},"vehicle_type_id":"4","last_reported":1769023064,"current_range_meters":5600,"station_id":"ce4bh312rcd13ifvqdj0","pricing_plan_id":"cebpf4jnsgd1na2vs0mg"},{"bike_id":"951d8829-e976-4f3c-b7cf-ce8d37c31a72","system_id":"levelo_inurba_marseille","lat":43.26579,"lon":5.39048,"is_reserved":false,"is_disabled":false,"rental_uris":{"android":"levelo://app?vid=951d8829-e976-4f3c-b7cf-ce8d37c31a72","ios":"levelo://app?vid=951d8829-e976-4f3c-b7cf-ce8d37c31a72"},"vehicle_type_id":"4","last_reported":1769023064,"current_range_meters":5600,"station_id":"ce4bhe12rcd13ifvqf30","pricing_plan_id":"cebpf4jnsgd1na2vs0mg"},{"bike_id":"fc4e3a66-55ac-450e-a159-861862597655","system_id":"levelo_inurba_marseille","lat":43.27305,"lon":5.39064,"is_reserved":false,"is_disabled":false,"rental_uris":{"android":"levelo://app?vid=fc4e3a66-55ac-450e-a159-861862597655","ios":"levelo://app?vid=fc4e3a66-55ac-450e-a159-861862597655"},"vehicle_type_id":"4","last_reported":1769023064,"current_range_meters":5600,"station_id":"ce4bhgp2rcd13ifvqfe0","pricing_plan_id":"cebpf4jnsgd1na2vs0mg"},{"bike_id":"c0d9e78b-3abc-4874-8130-93bb77b93573","system_id":"levelo_inurba_marseille","lat":43.27977,"lon":5.38732,"is_reserved":false,"is_disabled":false,"rental_uris":{"android":"levelo://app?vid=c0d9e78b-3abc-4874-8130-93bb77b93573","ios":"levelo://app?vid=c0d9e78b-3abc-4874-8130-93bb77b93573"},"vehicle_type_id":"4","last_reported":1769023064,"current_range_meters":5600,"station_id":"ce4bhg12rcd13ifvqf80","pricing_plan_id":"cebpf4jnsgd1na2vs0mg"},{"bike_id":"2351e1c9-97c0-42ed-8ba7-93d168c64106","system_id":"levelo_inurba_marseille","lat":43.2976,"lon":5.42784,"is_reserved":false,"is_disabled":false,"rental_uris":{"android":"levelo://app?vid=2351e1c9-97c0-42ed-8ba7-93d168c64106","ios":"levelo://app?vid=2351e1c9-97c0-42ed-8ba7-93d168c64106"},"vehicle_type_id":"4","last_reported":1769023064,"current_range_meters":5600,"station_id":"st_d3md5207bmas73dh9klg","pricing_plan_id":"cebpf4jnsgd1na2vs0mg"},{"bike_id":"00729f81-defe-4949-ab38-da427b717ebf","system_id":"levelo_inurba_marseille","lat":43.26203,"lon":5.40469,"is_reserved":false,"is_disabled":false,"rental_uris":{"android":"levelo://app?vid=00729f81-defe-4949-ab38-da427b717ebf","ios":"levelo://app?vid=00729f81-defe-4949-ab38-da427b717ebf"},"vehicle_type_id":"4","last_reported":1769023064,"current_range_meters":5600,"station_id":"ce4bhmh2rcd13ifvqgmg","pricing_plan_id":"cebpf4jnsgd1na2vs0mg"},{"bike_id":"08eb101e-89fc-4caa-bfba-333ac2e2ccf4","system_id":"levelo_inurba_marseille","lat":43.28848,"lon":5.42516,"is_reserved":false,"is_disabled":false,"rental_uris":{"android":"levelo://app?vid=08eb101e-89fc-4caa-bfba-333ac2e2ccf4","ios":"levelo://app?vid=08eb101e-89fc-4caa-bfba-333ac2e2ccf4"},"vehicle_type_id":"4","last_reported":1769023064,"current_range_meters":5600,"station_id":"st_d3b462108ojc7389ooeg","pricing_plan_id":"cebpf4jnsgd1na2vs0mg"},{"bike_id":"56496f15-285b-4dff-92b3-54ffdff3e399","system_id":"levelo_inurba_marseille","lat":43.26838,"lon":5.39613,"is_reserved":false,"is_disabled":false,"rental_uris":{"android":"levelo://app?vid=56496f15-285b-4dff-92b3-54ffdff3e399","ios":"levelo://app?vid=56496f15-285b-4dff-92b3-54ffdff3e399"},"vehicle_type_id":"4","last_reported":1769023064,"current_range_meters":5600,"station_id":"","pricing_plan_id":"cebpf4jnsgd1na2vs0mg"},{"bike_id":"6b0a7910-4f3c-47d6-b165-5319282e4ed9","system_id":"levelo_inurba_marseille","lat":43.33547,"lon":5.37461,"is_reserved":false,"is_disabled":false,"rental_uris":{"android":"levelo://app?vid=6b0a7910-4f3c-47d6-b165-5319282e4ed9","ios":"levelo://app?vid=6b0a7910-4f3c-47d6-b165-5319282e4ed9"},"vehicle_type_id":"4","last_reported":1769023064,"current_range_meters":5600,"station_id":"","pricing_plan_id":"cebpf4jnsgd1na2vs0mg"},{"bike_id":"12d50624-36fb-429d-be6d-b5122cf2de21","system_id":"levelo_inurba_marseille","lat":43.31746,"lon":5.38996,"is_reserved":false,"is_disabled":false,"rental_uris":{"android":"levelo://app?vid=12d50624-36fb-429d-be6d-b5122cf2de21","ios":"levelo://app?vid=12d50624-36fb-429d-be6d-b5122cf2de21"},"vehicle_type_id":"4","last_reported":1769023064,"current_range_meters":5600,"station_id":"ce4bhqp2rcd13ifvqhng","pricing_plan_id":"cebpf4jnsgd1na2vs0mg"},{"bike_id":"94cd4065-2da4-4578-bc78-c1ec4a590ca1","system_id":"levelo_inurba_marseille","lat":43.276,"lon":5.42445,"is_reserved":false,"is_disabled":false,"rental_uris":{"android":"levelo://app?vid=94cd4065-2da4-4578-bc78-c1ec4a590ca1","ios":"levelo://app?vid=94cd4065-2da4-4578-bc78-c1ec4a590ca1"},"vehicle_type_id":"4","last_reported":1769023064,"current_range_meters":5600,"station_id":"","pricing_plan_id":"cebpf4jnsgd1na2vs0mg"},{"bike_id":"00b937db-a2ad-4ae8-a0bd-5b7deb088884","system_id":"levelo_inurba_marseille","lat":43.29533,"lon":5.38531,"is_reserved":false,"is_disabled":false,"rental_uris":{"android":"levelo://app?vid=00b937db-a2ad-4ae8-a0bd-5b7deb088884","ios":"levelo://app?vid=00b937db-a2ad-4ae8-a0bd-5b7deb088884"},"vehicle_type_id":"4","last_reported":1769023064,"current_range_meters":5600,"station_id":"ce4bgih2rcd13ifvqba0","pricing_plan_id":"cebpf4jnsgd1na2vs0mg"},{"bike_id":"b68a3bae-e3a7-4c2a-a215-ace4e181ff67","system_id":"levelo_inurba_marseille","lat":43.29538,"lon":5.39016,"is_reserved":false,"is_disabled":false,"rental_uris":{"android":"levelo://app?vid=b68a3bae-e3a7-4c2a-a215-ace4e181ff67","ios":"levelo://app?vid=b68a3bae-e3a7-4c2a-a215-ace4e181ff67"},"vehicle_type_id":"4","last_reported":1769023064,"current_range_meters":5600,"station_id":"ce4bh3p2rcd13ifvqdp0","pricing_plan_id":"cebpf4jnsgd1na2vs0mg"},{"bike_id":"81e064df-319d-4cae-bb05-3e047943ab91","system_id":"levelo_inurba_marseille","lat":43.240781,"lon":5.377514,"is_reserved":false,"is_disabled":false,"rental_uris":{"android":"levelo://app?vid=81e064df-319d-4cae-bb05-3e047943ab91","ios":"levelo://app?vid=81e064df-319d-4cae-bb05-3e047943ab91"},"vehicle_type_id":"4","last_reported":1769023064,"current_range_meters":5600,"station_id":"ce4bhnp2rcd13ifvqgvg","pricing_plan_id":"cebpf4jnsgd1na2vs0mg"},{"bike_id":"f72efe51-12d3-4c91-8eb1-b0d276f7cb47","system_id":"levelo_inurba_marseille","lat":43.248039,"lon":5.374545,"is_reserved":false,"is_disabled":false,"rental_uris":{"android":"levelo://app?vid=f72efe51-12d3-4c91-8eb1-b0d276f7cb47","ios":"levelo://app?vid=f72efe51-12d3-4c91-8eb1-b0d276f7cb47"},"vehicle_type_id":"4","last_reported":1769023064,"current_range_meters":5600,"station_id":"ce4bhgh2rcd13ifvqfb0","pricing_plan_id":"cebpf4jnsgd1na2vs0mg"},{"bike_id":"bc53fded-5652-4ab5-920f-ec142a69c388","system_id":"levelo_inurba_marseille","lat":43.297897,"lon":5.393585,"is_reserved":false,"is_disabled":false,"rental_uris":{"android":"levelo://app?vid=bc53fded-5652-4ab5-920f-ec142a69c388","ios":"levelo://app?vid=bc53fded-5652-4ab5-920f-ec142a69c388"},"vehicle_type_id":"4","last_reported":1769023064,"current_range_meters":5600,"station_id":"chh1huq6cuj3fo74tm60","pricing_plan_id":"cebpf4jnsgd1na2vs0mg"},{"bike_id":"5d5e6254-e5e8-477d-b13b-b8c0bb7b8104","system_id":"levelo_inurba_marseille","lat":43.31281,"lon":5.40169,"is_reserved":false,"is_disabled":false,"rental_uris":{"android":"levelo://app?vid=5d5e6254-e5e8-477d-b13b-b8c0bb7b8104","ios":"levelo://app?vid=5d5e6254-e5e8-477d-b13b-b8c0bb7b8104"},"vehicle_type_id":"4","last_reported":1769023064,"current_range_meters":5600,"station_id":"ce4bh092rcd13ifvqd30","pricing_plan_id":"cebpf4jnsgd1na2vs0mg"},{"bike_id":"8dc4411e-9508-49e0-afc3-b0c97fab5bd3","system_id":"levelo_inurba_marseille","lat":43.24662,"lon":5.38155,"is_reserved":false,"is_disabled":false,"rental_uris":{"android":"levelo://app?vid=8dc4411e-9508-49e0-afc3-b0c97fab5bd3","ios":"levelo://app?vid=8dc4411e-9508-49e0-afc3-b0c97fab5bd3"},"vehicle_type_id":"4","last_reported":1769023064,"current_range_meters":5600,"station_id":"ce4bhih2rcd13ifvqfr0","pricing_plan_id":"cebpf4jnsgd1na2vs0mg"},{"bike_id":"b642efed-2622-4265-b5d7-cc947cf196cf","system_id":"levelo_inurba_marseille","lat":43.27988,"lon":5.40016,"is_reserved":false,"is_disabled":false,"rental_uris":{"android":"levelo://app?vid=b642efed-2622-4265-b5d7-cc947cf196cf","ios":"levelo://app?vid=b642efed-2622-4265-b5d7-cc947cf196cf"},"vehicle_type_id":"4","last_reported":1769023064,"current_range_meters":5600,"station_id":"ce4bho92rcd13ifvqh4g","pricing_plan_id":"cebpf4jnsgd1na2vs0mg"},{"bike_id":"29bfec45-ad76-429c-882a-34b6f5ca4191","system_id":"levelo_inurba_marseille","lat":43.321057,"lon":5.367726,"is_reserved":false,"is_disabled":false,"rental_uris":{"android":"levelo://app?vid=29bfec45-ad76-429c-882a-34b6f5ca4191","ios":"levelo://app?vid=29bfec45-ad76-429c-882a-34b6f5ca4191"},"vehicle_type_id":"4","last_reported":1769023064,"current_range_meters":5600,"station_id":"ce4bhrh2rcd13ifvqhug","pricing_plan_id":"cebpf4jnsgd1na2vs0mg"},{"bike_id":"92627d90-ac48-4227-8b3f-dad6aa59d4b3","system_id":"levelo_inurba_marseille","lat":43.2119,"lon":5.35074,"is_reserved":false,"is_disabled":false,"rental_uris":{"android":"levelo://app?vid=92627d90-ac48-4227-8b3f-dad6aa59d4b3","ios":"levelo://app?vid=92627d90-ac48-4227-8b3f-dad6aa59d4b3"},"vehicle_type_id":"4","last_reported":1769023064,"current_range_meters":6000,"station_id":"","pricing_plan_id":"cebpf4jnsgd1na2vs0mg"},{"bike_id":"64562a8f-fe86-4a1b-b14c-4a382af5be03","system_id":"levelo_inurba_marseille","lat":43.29033,"lon":5.38646,"is_reserved":false,"is_disabled":false,"rental_uris":{"android":"levelo://app?vid=64562a8f-fe86-4a1b-b14c-4a382af5be03","ios":"levelo://app?vid=64562a8f-fe86-4a1b-b14c-4a382af5be03"},"vehicle_type_id":"4","last_reported":1769023064,"current_range_meters":6000,"station_id":"ce4bh4p2rcd13ifvqe0g","pricing_plan_id":"cebpf4jnsgd1na2vs0mg"},{"bike_id":"99d65f09-c0e6-4f0f-b72f-6e110c0f1bd4","system_id":"levelo_inurba_marseille","lat":43.29,"lon":5.37585,"is_reserved":false,"is_disabled":false,"rental_uris":{"android":"levelo://app?vid=99d65f09-c0e6-4f0f-b72f-6e110c0f1bd4","ios":"levelo://app?vid=99d65f09-c0e6-4f0f-b72f-6e110c0f1bd4"},"vehicle_type_id":"4","last_reported":1769023064,"current_range_meters":6000,"station_id":"ce4bh692rcd13ifvqe90","pricing_plan_id":"cebpf4jnsgd1na2vs0mg"},{"bike_id":"9fe9b7fa-bf5e-456b-b148-d56a572e2392","system_id":"levelo_inurba_marseille","lat":43.22564,"lon":5.41634,"is_reserved":false,"is_disabled":false,"rental_uris":{"android":"levelo://app?vid=9fe9b7fa-bf5e-456b-b148-d56a572e2392","ios":"levelo://app?vid=9fe9b7fa-bf5e-456b-b148-d56a572e2392"},"vehicle_type_id":"4","last_reported":1769023064,"current_range_meters":6000,"station_id":"st_d2o4gvlbi1j2169b742g","pricing_plan_id":"cebpf4jnsgd1na2vs0mg"},{"bike_id":"3a3d17f1-3218-4389-9a3e-0cd10de4a59d","system_id":"levelo_inurba_marseille","lat":43.2927,"lon":5.40895,"is_reserved":false,"is_disabled":false,"rental_uris":{"android":"levelo://app?vid=3a3d17f1-3218-4389-9a3e-0cd10de4a59d","ios":"levelo://app?vid=3a3d17f1-3218-4389-9a3e-0cd10de4a59d"},"vehicle_type_id":"4","last_reported":1769023064,"current_range_meters":6000,"station_id":"ce4bh192rcd13ifvqdc0","pricing_plan_id":"cebpf4jnsgd1na2vs0mg"},{"bike_id":"9742d8c6-3acb-4294-a816-9234fb6b9330","system_id":"levelo_inurba_marseille","lat":43.28856,"lon":5.3588,"is_reserved":false,"is_disabled":false,"rental_uris":{"android":"levelo://app?vid=9742d8c6-3acb-4294-a816-9234fb6b9330","ios":"levelo://app?vid=9742d8c6-3acb-4294-a816-9234fb6b9330"},"vehicle_type_id":"4","last_reported":1769023064,"current_range_meters":6000,"station_id":"ce4bhb12rcd13ifvqem0","pricing_plan_id":"cebpf4jnsgd1na2vs0mg"},{"bike_id":"8c9d9dd5-6ae3-4a8b-ab79-ea51ac5d3931","system_id":"levelo_inurba_marseille","lat":43.27986,"lon":5.41649,"is_reserved":false,"is_disabled":false,"rental_uris":{"android":"levelo://app?vid=8c9d9dd5-6ae3-4a8b-ab79-ea51ac5d3931","ios":"levelo://app?vid=8c9d9dd5-6ae3-4a8b-ab79-ea51ac5d3931"},"vehicle_type_id":"4","last_reported":1769023064,"current_range_meters":6000,"station_id":"ce4bho12rcd13ifvqh1g","pricing_plan_id":"cebpf4jnsgd1na2vs0mg"},{"bike_id":"31c21be6-18ca-494d-8d01-2f205767068d","system_id":"levelo_inurba_marseille","lat":43.3186,"lon":5.37458,"is_reserved":false,"is_disabled":false,"rental_uris":{"android":"levelo://app?vid=31c21be6-18ca-494d-8d01-2f205767068d","ios":"levelo://app?vid=31c21be6-18ca-494d-8d01-2f205767068d"},"vehicle_type_id":"4","last_reported":1769023064,"current_range_meters":6000,"station_id":"","pricing_plan_id":"cebpf4jnsgd1na2vs0mg"},{"bike_id":"1b7535e7-29f2-4cef-a34e-eae7e23e0ac7","system_id":"levelo_inurba_marseille","lat":43.25703,"lon":5.41115,"is_reserved":false,"is_disabled":false,"rental_uris":{"android":"levelo://app?vid=1b7535e7-29f2-4cef-a34e-eae7e23e0ac7","ios":"levelo://app?vid=1b7535e7-29f2-4cef-a34e-eae7e23e0ac7"},"vehicle_type_id":"4","last_reported":1769023064,"current_range_meters":6000,"station_id":"ce4bhkp2rcd13ifvqgd0","pricing_plan_id":"cebpf4jnsgd1na2vs0mg"},{"bike_id":"be6b36a0-078d-473b-ba9b-75ef77c2fb3f","system_id":"levelo_inurba_marseille","lat":43.2734,"lon":5.3908,"is_reserved":false,"is_disabled":false,"rental_uris":{"android":"levelo://app?vid=be6b36a0-078d-473b-ba9b-75ef77c2fb3f","ios":"levelo://app?vid=be6b36a0-078d-473b-ba9b-75ef77c2fb3f"},"vehicle_type_id":"4","last_reported":1769023064,"current_range_meters":6000,"station_id":"ce4bhgp2rcd13ifvqfe0","pricing_plan_id":"cebpf4jnsgd1na2vs0mg"},{"bike_id":"0e37b52c-57cd-4fc7-b10e-ab1e434f4b99","system_id":"levelo_inurba_marseille","lat":43.29071,"lon":5.371589,"is_reserved":false,"is_disabled":false,"rental_uris":{"android":"levelo://app?vid=0e37b52c-57cd-4fc7-b10e-ab1e434f4b99","ios":"levelo://app?vid=0e37b52c-57cd-4fc7-b10e-ab1e434f4b99"},"vehicle_type_id":"4","last_reported":1769023064,"current_range_meters":6000,"station_id":"","pricing_plan_id":"cebpf4jnsgd1na2vs0mg"},{"bike_id":"d60d69f0-11b1-4196-a1a6-b500cf4e2e4c","system_id":"levelo_inurba_marseille","lat":43.28931,"lon":5.36628,"is_reserved":false,"is_disabled":false,"rental_uris":{"android":"levelo://app?vid=d60d69f0-11b1-4196-a1a6-b500cf4e2e4c","ios":"levelo://app?vid=d60d69f0-11b1-4196-a1a6-b500cf4e2e4c"},"vehicle_type_id":"4","last_reported":1769023064,"current_range_meters":6000,"station_id":"ce4bhap2rcd13ifvqek0","pricing_plan_id":"cebpf4jnsgd1na2vs0mg"},{"bike_id":"e6df6fb7-994b-4037-99d6-76175fe9a7d0","system_id":"levelo_inurba_marseille","lat":43.2319,"lon":5.39986,"is_reserved":false,"is_disabled":false,"rental_uris":{"android":"levelo://app?vid=e6df6fb7-994b-4037-99d6-76175fe9a7d0","ios":"levelo://app?vid=e6df6fb7-994b-4037-99d6-76175fe9a7d0"},"vehicle_type_id":"4","last_reported":1769023064,"current_range_meters":6000,"station_id":"ce4bhn12rcd13ifvqgqg","pricing_plan_id":"cebpf4jnsgd1na2vs0mg"},{"bike_id":"17e3837d-c9c2-4dda-a2b0-afa55c7ec00c","system_id":"levelo_inurba_marseille","lat":43.29219,"lon":5.3607,"is_reserved":false,"is_disabled":false,"rental_uris":{"android":"levelo://app?vid=17e3837d-c9c2-4dda-a2b0-afa55c7ec00c","ios":"levelo://app?vid=17e3837d-c9c2-4dda-a2b0-afa55c7ec00c"},"vehicle_type_id":"4","last_reported":1769023064,"current_range_meters":6000,"station_id":"ce4bhbh2rcd13ifvqeqg","pricing_plan_id":"cebpf4jnsgd1na2vs0mg"},{"bike_id":"971ebd27-c95b-46d2-918b-36cfd0fbea03","system_id":"levelo_inurba_marseille","lat":43.29279,"lon":5.36838,"is_reserved":false,"is_disabled":false,"rental_uris":{"android":"levelo://app?vid=971ebd27-c95b-46d2-918b-36cfd0fbea03","ios":"levelo://app?vid=971ebd27-c95b-46d2-918b-36cfd0fbea03"},"vehicle_type_id":"4","last_reported":1769023064,"current_range_meters":6000,"station_id":"ce4bhbp2rcd13ifvqesg","pricing_plan_id":"cebpf4jnsgd1na2vs0mg"},{"bike_id":"9468ca0d-7f5e-49f4-a589-1ffb095457a9","system_id":"levelo_inurba_marseille","lat":43.29166,"lon":5.37143,"is_reserved":false,"is_disabled":false,"rental_uris":{"android":"levelo://app?vid=9468ca0d-7f5e-49f4-a589-1ffb095457a9","ios":"levelo://app?vid=9468ca0d-7f5e-49f4-a589-1ffb095457a9"},"vehicle_type_id":"4","last_reported":1769023064,"current_range_meters":6000,"station_id":"ce4bha92rcd13ifvqeh0","pricing_plan_id":"cebpf4jnsgd1na2vs0mg"},{"bike_id":"36379ecc-f580-4cc3-ac28-1068980e3530","system_id":"levelo_inurba_marseille","lat":43.290017,"lon":5.356116,"is_reserved":false,"is_disabled":false,"rental_uris":{"android":"levelo://app?vid=36379ecc-f580-4cc3-ac28-1068980e3530","ios":"levelo://app?vid=36379ecc-f580-4cc3-ac28-1068980e3530"},"vehicle_type_id":"4","last_reported":1769023064,"current_range_meters":6000,"station_id":"ce4bhbh2rcd13ifvqeo0","pricing_plan_id":"cebpf4jnsgd1na2vs0mg"},{"bike_id":"f09c06aa-a05d-4b00-b228-d8bee2b62b4f","system_id":"levelo_inurba_marseille","lat":43.32349,"lon":5.36743,"is_reserved":false,"is_disabled":false,"rental_uris":{"android":"levelo://app?vid=f09c06aa-a05d-4b00-b228-d8bee2b62b4f","ios":"levelo://app?vid=f09c06aa-a05d-4b00-b228-d8bee2b62b4f"},"vehicle_type_id":"4","last_reported":1769023064,"current_range_meters":6400,"station_id":"ce4bhsh2rcd13ifvqi2g","pricing_plan_id":"cebpf4jnsgd1na2vs0mg"},{"bike_id":"2c764d7e-d42c-4007-b5cd-02a2acd16493","system_id":"levelo_inurba_marseille","lat":43.29034,"lon":5.38659,"is_reserved":false,"is_disabled":false,"rental_uris":{"android":"levelo://app?vid=2c764d7e-d42c-4007-b5cd-02a2acd16493","ios":"levelo://app?vid=2c764d7e-d42c-4007-b5cd-02a2acd16493"},"vehicle_type_id":"4","last_reported":1769023064,"current_range_meters":6400,"station_id":"ce4bh4p2rcd13ifvqe0g","pricing_plan_id":"cebpf4jnsgd1na2vs0mg"},{"bike_id":"f73788f7-dec5-4308-a431-6e346b811946","system_id":"levelo_inurba_marseille","lat":43.30179,"lon":5.38033,"is_reserved":false,"is_disabled":false,"rental_uris":{"android":"levelo://app?vid=f73788f7-dec5-4308-a431-6e346b811946","ios":"levelo://app?vid=f73788f7-dec5-4308-a431-6e346b811946"},"vehicle_type_id":"4","last_reported":1769023064,"current_range_meters":6400,"station_id":"","pricing_plan_id":"cebpf4jnsgd1na2vs0mg"},{"bike_id":"5f477738-733e-4c98-961a-33429c5938fd","system_id":"levelo_inurba_marseille","lat":43.260586,"lon":5.393984,"is_reserved":false,"is_disabled":false,"rental_uris":{"android":"levelo://app?vid=5f477738-733e-4c98-961a-33429c5938fd","ios":"levelo://app?vid=5f477738-733e-4c98-961a-33429c5938fd"},"vehicle_type_id":"4","last_reported":1769023064,"current_range_meters":6400,"station_id":"ce4bhh92rcd13ifvqfj0","pricing_plan_id":"cebpf4jnsgd1na2vs0mg"},{"bike_id":"6f1b9a2a-353a-4450-9878-491b3917ba7d","system_id":"levelo_inurba_marseille","lat":43.26567,"lon":5.39006,"is_reserved":false,"is_disabled":false,"rental_uris":{"android":"levelo://app?vid=6f1b9a2a-353a-4450-9878-491b3917ba7d","ios":"levelo://app?vid=6f1b9a2a-353a-4450-9878-491b3917ba7d"},"vehicle_type_id":"4","last_reported":1769023064,"current_range_meters":6400,"station_id":"ce4bhe12rcd13ifvqf30","pricing_plan_id":"cebpf4jnsgd1na2vs0mg"},{"bike_id":"cd49692c-4008-4f7f-815f-119877d0dd64","system_id":"levelo_inurba_marseille","lat":43.27992,"lon":5.40022,"is_reserved":false,"is_disabled":false,"rental_uris":{"android":"levelo://app?vid=cd49692c-4008-4f7f-815f-119877d0dd64","ios":"levelo://app?vid=cd49692c-4008-4f7f-815f-119877d0dd64"},"vehicle_type_id":"4","last_reported":1769023064,"current_range_meters":6400,"station_id":"ce4bho92rcd13ifvqh4g","pricing_plan_id":"cebpf4jnsgd1na2vs0mg"},{"bike_id":"5bdad711-817a-42cc-84b1-10d4beae812a","system_id":"levelo_inurba_marseille","lat":43.22559,"lon":5.41621,"is_reserved":false,"is_disabled":false,"rental_uris":{"android":"levelo://app?vid=5bdad711-817a-42cc-84b1-10d4beae812a","ios":"levelo://app?vid=5bdad711-817a-42cc-84b1-10d4beae812a"},"vehicle_type_id":"4","last_reported":1769023064,"current_range_meters":6400,"station_id":"st_d2o4gvlbi1j2169b742g","pricing_plan_id":"cebpf4jnsgd1na2vs0mg"},{"bike_id":"e3006b68-2895-43e3-a6a3-f525aa75c699","system_id":"levelo_inurba_marseille","lat":43.24066,"lon":5.37746,"is_reserved":false,"is_disabled":false,"rental_uris":{"android":"levelo://app?vid=e3006b68-2895-43e3-a6a3-f525aa75c699","ios":"levelo://app?vid=e3006b68-2895-43e3-a6a3-f525aa75c699"},"vehicle_type_id":"4","last_reported":1769023064,"current_range_meters":6400,"station_id":"ce4bhnp2rcd13ifvqgvg","pricing_plan_id":"cebpf4jnsgd1na2vs0mg"},{"bike_id":"965dd989-517a-4115-966e-a14093e50092","system_id":"levelo_inurba_marseille","lat":43.27061,"lon":5.40253,"is_reserved":false,"is_disabled":false,"rental_uris":{"android":"levelo://app?vid=965dd989-517a-4115-966e-a14093e50092","ios":"levelo://app?vid=965dd989-517a-4115-966e-a14093e50092"},"vehicle_type_id":"4","last_reported":1769023064,"current_range_meters":6400,"station_id":"ce4bhk92rcd13ifvqgc0","pricing_plan_id":"cebpf4jnsgd1na2vs0mg"},{"bike_id":"b178fe28-787e-4cf2-8e9f-53564dafc878","system_id":"levelo_inurba_marseille","lat":43.29072,"lon":5.38673,"is_reserved":false,"is_disabled":false,"rental_uris":{"android":"levelo://app?vid=b178fe28-787e-4cf2-8e9f-53564dafc878","ios":"levelo://app?vid=b178fe28-787e-4cf2-8e9f-53564dafc878"},"vehicle_type_id":"4","last_reported":1769023064,"current_range_meters":6400,"station_id":"ce4bh4p2rcd13ifvqe0g","pricing_plan_id":"cebpf4jnsgd1na2vs0mg"},{"bike_id":"54e81d72-6df6-4012-a081-cf6517db670b","system_id":"levelo_inurba_marseille","lat":43.295832,"lon":5.380766,"is_reserved":false,"is_disabled":false,"rental_uris":{"android":"levelo://app?vid=54e81d72-6df6-4012-a081-cf6517db670b","ios":"levelo://app?vid=54e81d72-6df6-4012-a081-cf6517db670b"},"vehicle_type_id":"4","last_reported":1769023064,"current_range_meters":6400,"station_id":"ce4bgl12rcd13ifvqbo0","pricing_plan_id":"cebpf4jnsgd1na2vs0mg"},{"bike_id":"ec3505f8-2e5f-442c-868b-c38116e6be45","system_id":"levelo_inurba_marseille","lat":43.24827,"lon":5.37448,"is_reserved":false,"is_disabled":false,"rental_uris":{"android":"levelo://app?vid=ec3505f8-2e5f-442c-868b-c38116e6be45","ios":"levelo://app?vid=ec3505f8-2e5f-442c-868b-c38116e6be45"},"vehicle_type_id":"4","last_reported":1769023064,"current_range_meters":6400,"station_id":"ce4bhgh2rcd13ifvqfb0","pricing_plan_id":"cebpf4jnsgd1na2vs0mg"},{"bike_id":"87376c51-7b52-4611-acd2-49441baafe3f","system_id":"levelo_inurba_marseille","lat":43.24608,"lon":5.40212,"is_reserved":false,"is_disabled":false,"rental_uris":{"android":"levelo://app?vid=87376c51-7b52-4611-acd2-49441baafe3f","ios":"levelo://app?vid=87376c51-7b52-4611-acd2-49441baafe3f"},"vehicle_type_id":"4","last_reported":1769023064,"current_range_meters":6400,"station_id":"","pricing_plan_id":"cebpf4jnsgd1na2vs0mg"},{"bike_id":"09708090-eb01-48c4-a317-0b7bbbd48bc6","system_id":"levelo_inurba_marseille","lat":43.27688,"lon":5.3616,"is_reserved":false,"is_disabled":false,"rental_uris":{"android":"levelo://app?vid=09708090-eb01-48c4-a317-0b7bbbd48bc6","ios":"levelo://app?vid=09708090-eb01-48c4-a317-0b7bbbd48bc6"},"vehicle_type_id":"4","last_reported":1769023064,"current_range_meters":6400,"station_id":"","pricing_plan_id":"cebpf4jnsgd1na2vs0mg"},{"bike_id":"fd603ab1-7fba-4f8b-9938-c63d3924c1a0","system_id":"levelo_inurba_marseille","lat":43.276242,"lon":5.361057,"is_reserved":false,"is_disabled":false,"rental_uris":{"android":"levelo://app?vid=fd603ab1-7fba-4f8b-9938-c63d3924c1a0","ios":"levelo://app?vid=fd603ab1-7fba-4f8b-9938-c63d3924c1a0"},"vehicle_type_id":"4","last_reported":1769023064,"current_range_meters":6400,"station_id":"ce4bgj92rcd13ifvqbe0","pricing_plan_id":"cebpf4jnsgd1na2vs0mg"},{"bike_id":"416786c9-5441-4ae2-97be-8dd18ff4a833","system_id":"levelo_inurba_marseille","lat":43.26569,"lon":5.40318,"is_reserved":false,"is_disabled":false,"rental_uris":{"android":"levelo://app?vid=416786c9-5441-4ae2-97be-8dd18ff4a833","ios":"levelo://app?vid=416786c9-5441-4ae2-97be-8dd18ff4a833"},"vehicle_type_id":"4","last_reported":1769023064,"current_range_meters":6400,"station_id":"ce4bhmp2rcd13ifvqgng","pricing_plan_id":"cebpf4jnsgd1na2vs0mg"},{"bike_id":"4e8c5f8d-72df-450f-903d-9087223cc50e","system_id":"levelo_inurba_marseille","lat":43.28699,"lon":5.373783,"is_reserved":false,"is_disabled":false,"rental_uris":{"android":"levelo://app?vid=4e8c5f8d-72df-450f-903d-9087223cc50e","ios":"levelo://app?vid=4e8c5f8d-72df-450f-903d-9087223cc50e"},"vehicle_type_id":"4","last_reported":1769023064,"current_range_meters":6400,"station_id":"ce4bh3p2rcd13ifvqdq0","pricing_plan_id":"cebpf4jnsgd1na2vs0mg"},{"bike_id":"badbc602-0473-49a3-b391-c9cc2829b875","system_id":"levelo_inurba_marseille","lat":43.30213,"lon":5.39463,"is_reserved":false,"is_disabled":false,"rental_uris":{"android":"levelo://app?vid=badbc602-0473-49a3-b391-c9cc2829b875","ios":"levelo://app?vid=badbc602-0473-49a3-b391-c9cc2829b875"},"vehicle_type_id":"4","last_reported":1769023064,"current_range_meters":6800,"station_id":"ce4bh0p2rcd13ifvqd70","pricing_plan_id":"cebpf4jnsgd1na2vs0mg"},{"bike_id":"8dd5e1ae-27b7-4b13-84ee-a9d2cf511ca0","system_id":"levelo_inurba_marseille","lat":43.27954,"lon":5.38015,"is_reserved":false,"is_disabled":false,"rental_uris":{"android":"levelo://app?vid=8dd5e1ae-27b7-4b13-84ee-a9d2cf511ca0","ios":"levelo://app?vid=8dd5e1ae-27b7-4b13-84ee-a9d2cf511ca0"},"vehicle_type_id":"4","last_reported":1769023064,"current_range_meters":6800,"station_id":"","pricing_plan_id":"cebpf4jnsgd1na2vs0mg"},{"bike_id":"db3f14e4-220b-415c-9e28-2fe041e49f9a","system_id":"levelo_inurba_marseille","lat":43.26066,"lon":5.394042,"is_reserved":false,"is_disabled":false,"rental_uris":{"android":"levelo://app?vid=db3f14e4-220b-415c-9e28-2fe041e49f9a","ios":"levelo://app?vid=db3f14e4-220b-415c-9e28-2fe041e49f9a"},"vehicle_type_id":"4","last_reported":1769023064,"current_range_meters":6800,"station_id":"ce4bhh92rcd13ifvqfj0","pricing_plan_id":"cebpf4jnsgd1na2vs0mg"},{"bike_id":"fff05648-ce51-4cbc-b594-e74426073b2f","system_id":"levelo_inurba_marseille","lat":43.29533,"lon":5.38542,"is_reserved":false,"is_disabled":false,"rental_uris":{"android":"levelo://app?vid=fff05648-ce51-4cbc-b594-e74426073b2f","ios":"levelo://app?vid=fff05648-ce51-4cbc-b594-e74426073b2f"},"vehicle_type_id":"4","last_reported":1769023064,"current_range_meters":6800,"station_id":"ce4bgih2rcd13ifvqba0","pricing_plan_id":"cebpf4jnsgd1na2vs0mg"},{"bike_id":"07334ae3-a27a-46ae-b685-938785481481","system_id":"levelo_inurba_marseille","lat":43.28503,"lon":5.44103,"is_reserved":false,"is_disabled":false,"rental_uris":{"android":"levelo://app?vid=07334ae3-a27a-46ae-b685-938785481481","ios":"levelo://app?vid=07334ae3-a27a-46ae-b685-938785481481"},"vehicle_type_id":"4","last_reported":1769023064,"current_range_meters":6800,"station_id":"st_d3j3df2ikq2c7380ej80","pricing_plan_id":"cebpf4jnsgd1na2vs0mg"},{"bike_id":"054e163b-1e47-4a0a-a038-a7939885860e","system_id":"levelo_inurba_marseille","lat":43.32351,"lon":5.36748,"is_reserved":false,"is_disabled":false,"rental_uris":{"android":"levelo://app?vid=054e163b-1e47-4a0a-a038-a7939885860e","ios":"levelo://app?vid=054e163b-1e47-4a0a-a038-a7939885860e"},"vehicle_type_id":"4","last_reported":1769023064,"current_range_meters":6800,"station_id":"ce4bhsh2rcd13ifvqi2g","pricing_plan_id":"cebpf4jnsgd1na2vs0mg"},{"bike_id":"ffabd398-f54b-45bd-9851-1b3115defcf6","system_id":"levelo_inurba_marseille","lat":43.24189,"lon":5.39695,"is_reserved":false,"is_disabled":false,"rental_uris":{"android":"levelo://app?vid=ffabd398-f54b-45bd-9851-1b3115defcf6","ios":"levelo://app?vid=ffabd398-f54b-45bd-9851-1b3115defcf6"},"vehicle_type_id":"4","last_reported":1769023064,"current_range_meters":6800,"station_id":"ce4bhn12rcd13ifvqgpg","pricing_plan_id":"cebpf4jnsgd1na2vs0mg"},{"bike_id":"d1679ca0-febb-4b2d-bce9-e05bb1ced4f9","system_id":"levelo_inurba_marseille","lat":43.29188,"lon":5.39309,"is_reserved":false,"is_disabled":false,"rental_uris":{"android":"levelo://app?vid=d1679ca0-febb-4b2d-bce9-e05bb1ced4f9","ios":"levelo://app?vid=d1679ca0-febb-4b2d-bce9-e05bb1ced4f9"},"vehicle_type_id":"4","last_reported":1769023064,"current_range_meters":6800,"station_id":"ce4bh192rcd13ifvqdd0","pricing_plan_id":"cebpf4jnsgd1na2vs0mg"},{"bike_id":"0d7f695a-89f3-4581-8a80-db75af0beef8","system_id":"levelo_inurba_marseille","lat":43.31881,"lon":5.4074,"is_reserved":false,"is_disabled":false,"rental_uris":{"android":"levelo://app?vid=0d7f695a-89f3-4581-8a80-db75af0beef8","ios":"levelo://app?vid=0d7f695a-89f3-4581-8a80-db75af0beef8"},"vehicle_type_id":"4","last_reported":1769023064,"current_range_meters":6800,"station_id":"ce4bhq12rcd13ifvqhig","pricing_plan_id":"cebpf4jnsgd1na2vs0mg"},{"bike_id":"e26301b9-2ba6-4110-823c-43c3e31eef15","system_id":"levelo_inurba_marseille","lat":43.306423,"lon":5.393085,"is_reserved":false,"is_disabled":false,"rental_uris":{"android":"levelo://app?vid=e26301b9-2ba6-4110-823c-43c3e31eef15","ios":"levelo://app?vid=e26301b9-2ba6-4110-823c-43c3e31eef15"},"vehicle_type_id":"4","last_reported":1769023064,"current_range_meters":6800,"station_id":"","pricing_plan_id":"cebpf4jnsgd1na2vs0mg"},{"bike_id":"26bd1e32-0e40-488f-8b10-e954188f606f","system_id":"levelo_inurba_marseille","lat":43.31495,"lon":5.37305,"is_reserved":false,"is_disabled":false,"rental_uris":{"android":"levelo://app?vid=26bd1e32-0e40-488f-8b10-e954188f606f","ios":"levelo://app?vid=26bd1e32-0e40-488f-8b10-e954188f606f"},"vehicle_type_id":"4","last_reported":1769023064,"current_range_meters":6800,"station_id":"ce4bgt12rcd13ifvqcd0","pricing_plan_id":"cebpf4jnsgd1na2vs0mg"},{"bike_id":"0f17bb75-4977-4cf9-a564-7738bd32f63f","system_id":"levelo_inurba_marseille","lat":43.24081,"lon":5.3775,"is_reserved":false,"is_disabled":false,"rental_uris":{"android":"levelo://app?vid=0f17bb75-4977-4cf9-a564-7738bd32f63f","ios":"levelo://app?vid=0f17bb75-4977-4cf9-a564-7738bd32f63f"},"vehicle_type_id":"4","last_reported":1769023064,"current_range_meters":6800,"station_id":"ce4bhnp2rcd13ifvqgvg","pricing_plan_id":"cebpf4jnsgd1na2vs0mg"},{"bike_id":"2771ce31-d709-4fb7-9a4d-89036be5b0b7","system_id":"levelo_inurba_marseille","lat":43.308,"lon":5.38149,"is_reserved":false,"is_disabled":false,"rental_uris":{"android":"levelo://app?vid=2771ce31-d709-4fb7-9a4d-89036be5b0b7","ios":"levelo://app?vid=2771ce31-d709-4fb7-9a4d-89036be5b0b7"},"vehicle_type_id":"4","last_reported":1769023064,"current_range_meters":6800,"station_id":"ce4bgt12rcd13ifvqce0","pricing_plan_id":"cebpf4jnsgd1na2vs0mg"},{"bike_id":"dfeb36c6-888d-4fd8-befb-3cc783b4b768","system_id":"levelo_inurba_marseille","lat":43.29273,"lon":5.38445,"is_reserved":false,"is_disabled":false,"rental_uris":{"android":"levelo://app?vid=dfeb36c6-888d-4fd8-befb-3cc783b4b768","ios":"levelo://app?vid=dfeb36c6-888d-4fd8-befb-3cc783b4b768"},"vehicle_type_id":"4","last_reported":1769023064,"current_range_meters":6800,"station_id":"ce4bh692rcd13ifvqea0","pricing_plan_id":"cebpf4jnsgd1na2vs0mg"},{"bike_id":"c70e0bb4-fab0-4654-bdca-7c1110702f66","system_id":"levelo_inurba_marseille","lat":43.23966,"lon":5.36632,"is_reserved":false,"is_disabled":false,"rental_uris":{"android":"levelo://app?vid=c70e0bb4-fab0-4654-bdca-7c1110702f66","ios":"levelo://app?vid=c70e0bb4-fab0-4654-bdca-7c1110702f66"},"vehicle_type_id":"4","last_reported":1769023064,"current_range_meters":6800,"station_id":"ce4bhi12rcd13ifvqfp0","pricing_plan_id":"cebpf4jnsgd1na2vs0mg"},{"bike_id":"673852a4-6416-4b33-a80d-5a20f826521f","system_id":"levelo_inurba_marseille","lat":43.28994,"lon":5.39038,"is_reserved":false,"is_disabled":false,"rental_uris":{"android":"levelo://app?vid=673852a4-6416-4b33-a80d-5a20f826521f","ios":"levelo://app?vid=673852a4-6416-4b33-a80d-5a20f826521f"},"vehicle_type_id":"4","last_reported":1769023064,"current_range_meters":6800,"station_id":"","pricing_plan_id":"cebpf4jnsgd1na2vs0mg"},{"bike_id":"72e1655d-aec3-4349-93c1-06571442ed3a","system_id":"levelo_inurba_marseille","lat":43.24682,"lon":5.38124,"is_reserved":false,"is_disabled":false,"rental_uris":{"android":"levelo://app?vid=72e1655d-aec3-4349-93c1-06571442ed3a","ios":"levelo://app?vid=72e1655d-aec3-4349-93c1-06571442ed3a"},"vehicle_type_id":"4","last_reported":1769023064,"current_range_meters":6800,"station_id":"ce4bhih2rcd13ifvqfr0","pricing_plan_id":"cebpf4jnsgd1na2vs0mg"},{"bike_id":"43448dd5-9537-449d-8160-6a955b585b98","system_id":"levelo_inurba_marseille","lat":43.25583,"lon":5.3821,"is_reserved":false,"is_disabled":false,"rental_uris":{"android":"levelo://app?vid=43448dd5-9537-449d-8160-6a955b585b98","ios":"levelo://app?vid=43448dd5-9537-449d-8160-6a955b585b98"},"vehicle_type_id":"4","last_reported":1769023064,"current_range_meters":6800,"station_id":"ce4bhih2rcd13ifvqfs0","pricing_plan_id":"cebpf4jnsgd1na2vs0mg"},{"bike_id":"778f0eaf-54be-4513-b373-b1605eeed242","system_id":"levelo_inurba_marseille","lat":43.29765,"lon":5.42783,"is_reserved":false,"is_disabled":false,"rental_uris":{"android":"levelo://app?vid=778f0eaf-54be-4513-b373-b1605eeed242","ios":"levelo://app?vid=778f0eaf-54be-4513-b373-b1605eeed242"},"vehicle_type_id":"4","last_reported":1769023064,"current_range_meters":6800,"station_id":"st_d3md5207bmas73dh9klg","pricing_plan_id":"cebpf4jnsgd1na2vs0mg"},{"bike_id":"261c1578-133a-4250-8d7e-b4bbed341250","system_id":"levelo_inurba_marseille","lat":43.30149,"lon":5.39859,"is_reserved":false,"is_disabled":false,"rental_uris":{"android":"levelo://app?vid=261c1578-133a-4250-8d7e-b4bbed341250","ios":"levelo://app?vid=261c1578-133a-4250-8d7e-b4bbed341250"},"vehicle_type_id":"4","last_reported":1769023064,"current_range_meters":6800,"station_id":"ce4bh0h2rcd13ifvqd40","pricing_plan_id":"cebpf4jnsgd1na2vs0mg"},{"bike_id":"336af5e4-e4b7-4f86-93e9-80e9403a95af","system_id":"levelo_inurba_marseille","lat":43.27948,"lon":5.41043,"is_reserved":false,"is_disabled":false,"rental_uris":{"android":"levelo://app?vid=336af5e4-e4b7-4f86-93e9-80e9403a95af","ios":"levelo://app?vid=336af5e4-e4b7-4f86-93e9-80e9403a95af"},"vehicle_type_id":"4","last_reported":1769023064,"current_range_meters":6800,"station_id":"ce4bhnp2rcd13ifvqh0g","pricing_plan_id":"cebpf4jnsgd1na2vs0mg"},{"bike_id":"c055199c-bd62-490e-8577-d64c0f179897","system_id":"levelo_inurba_marseille","lat":43.285345,"lon":5.440979,"is_reserved":false,"is_disabled":false,"rental_uris":{"android":"levelo://app?vid=c055199c-bd62-490e-8577-d64c0f179897","ios":"levelo://app?vid=c055199c-bd62-490e-8577-d64c0f179897"},"vehicle_type_id":"4","last_reported":1769023064,"current_range_meters":6800,"station_id":"st_d3j3df2ikq2c7380ej80","pricing_plan_id":"cebpf4jnsgd1na2vs0mg"},{"bike_id":"0a2277df-81ad-45b1-b928-190db606b70d","system_id":"levelo_inurba_marseille","lat":43.27059,"lon":5.40258,"is_reserved":false,"is_disabled":false,"rental_uris":{"android":"levelo://app?vid=0a2277df-81ad-45b1-b928-190db606b70d","ios":"levelo://app?vid=0a2277df-81ad-45b1-b928-190db606b70d"},"vehicle_type_id":"4","last_reported":1769023064,"current_range_meters":7200,"station_id":"ce4bhk92rcd13ifvqgc0","pricing_plan_id":"cebpf4jnsgd1na2vs0mg"},{"bike_id":"f5df5dab-005e-4afd-ac33-6b6937a1daf8","system_id":"levelo_inurba_marseille","lat":43.27994,"lon":5.40022,"is_reserved":false,"is_disabled":false,"rental_uris":{"android":"levelo://app?vid=f5df5dab-005e-4afd-ac33-6b6937a1daf8","ios":"levelo://app?vid=f5df5dab-005e-4afd-ac33-6b6937a1daf8"},"vehicle_type_id":"4","last_reported":1769023064,"current_range_meters":7200,"station_id":"ce4bho92rcd13ifvqh4g","pricing_plan_id":"cebpf4jnsgd1na2vs0mg"},{"bike_id":"1c5b23bd-2ff7-41ce-9b81-d371fc2b68a7","system_id":"levelo_inurba_marseille","lat":43.29512,"lon":5.3902,"is_reserved":false,"is_disabled":false,"rental_uris":{"android":"levelo://app?vid=1c5b23bd-2ff7-41ce-9b81-d371fc2b68a7","ios":"levelo://app?vid=1c5b23bd-2ff7-41ce-9b81-d371fc2b68a7"},"vehicle_type_id":"4","last_reported":1769023064,"current_range_meters":7200,"station_id":"ce4bh3p2rcd13ifvqdp0","pricing_plan_id":"cebpf4jnsgd1na2vs0mg"},{"bike_id":"e28155d4-5bbb-4d57-bce2-a4e601bf8249","system_id":"levelo_inurba_marseille","lat":43.305527,"lon":5.36531,"is_reserved":false,"is_disabled":false,"rental_uris":{"android":"levelo://app?vid=e28155d4-5bbb-4d57-bce2-a4e601bf8249","ios":"levelo://app?vid=e28155d4-5bbb-4d57-bce2-a4e601bf8249"},"vehicle_type_id":"4","last_reported":1769023064,"current_range_meters":7200,"station_id":"ce4bgs12rcd13ifvqcag","pricing_plan_id":"cebpf4jnsgd1na2vs0mg"},{"bike_id":"ff4b4e08-33f6-4372-bd6a-79e5068680b5","system_id":"levelo_inurba_marseille","lat":43.29296,"lon":5.40902,"is_reserved":false,"is_disabled":false,"rental_uris":{"android":"levelo://app?vid=ff4b4e08-33f6-4372-bd6a-79e5068680b5","ios":"levelo://app?vid=ff4b4e08-33f6-4372-bd6a-79e5068680b5"},"vehicle_type_id":"4","last_reported":1769023064,"current_range_meters":7200,"station_id":"ce4bh192rcd13ifvqdc0","pricing_plan_id":"cebpf4jnsgd1na2vs0mg"},{"bike_id":"58b28e0e-9514-4826-8c44-0093f0fc0b84","system_id":"levelo_inurba_marseille","lat":43.27055,"lon":5.40256,"is_reserved":false,"is_disabled":false,"rental_uris":{"android":"levelo://app?vid=58b28e0e-9514-4826-8c44-0093f0fc0b84","ios":"levelo://app?vid=58b28e0e-9514-4826-8c44-0093f0fc0b84"},"vehicle_type_id":"4","last_reported":1769023064,"current_range_meters":7200,"station_id":"ce4bhk92rcd13ifvqgc0","pricing_plan_id":"cebpf4jnsgd1na2vs0mg"},{"bike_id":"f1bb088f-7852-4bdc-bd02-6065110d0872","system_id":"levelo_inurba_marseille","lat":43.28537,"lon":5.441005,"is_reserved":false,"is_disabled":false,"rental_uris":{"android":"levelo://app?vid=f1bb088f-7852-4bdc-bd02-6065110d0872","ios":"levelo://app?vid=f1bb088f-7852-4bdc-bd02-6065110d0872"},"vehicle_type_id":"4","last_reported":1769023064,"current_range_meters":7200,"station_id":"st_d3j3df2ikq2c7380ej80","pricing_plan_id":"cebpf4jnsgd1na2vs0mg"},{"bike_id":"19c9b524-76f1-4e5d-8be9-000b11a19079","system_id":"levelo_inurba_marseille","lat":43.25005,"lon":5.38902,"is_reserved":false,"is_disabled":false,"rental_uris":{"android":"levelo://app?vid=19c9b524-76f1-4e5d-8be9-000b11a19079","ios":"levelo://app?vid=19c9b524-76f1-4e5d-8be9-000b11a19079"},"vehicle_type_id":"4","last_reported":1769023064,"current_range_meters":7200,"station_id":"ce4bhgp2rcd13ifvqfd0","pricing_plan_id":"cebpf4jnsgd1na2vs0mg"},{"bike_id":"fca00d5f-2997-436f-ba8d-58032d11c09e","system_id":"levelo_inurba_marseille","lat":43.27952,"lon":5.38707,"is_reserved":false,"is_disabled":true,"rental_uris":{"android":"levelo://app?vid=fca00d5f-2997-436f-ba8d-58032d11c09e","ios":"levelo://app?vid=fca00d5f-2997-436f-ba8d-58032d11c09e"},"vehicle_type_id":"4","last_reported":1769023064,"current_range_meters":7200,"station_id":"ce4bhg12rcd13ifvqf80","pricing_plan_id":"cebpf4jnsgd1na2vs0mg"},{"bike_id":"fe2a828f-710f-491e-b529-f22ca09a8365","system_id":"levelo_inurba_marseille","lat":43.30743,"lon":5.40949,"is_reserved":false,"is_disabled":false,"rental_uris":{"android":"levelo://app?vid=fe2a828f-710f-491e-b529-f22ca09a8365","ios":"levelo://app?vid=fe2a828f-710f-491e-b529-f22ca09a8365"},"vehicle_type_id":"4","last_reported":1769023064,"current_range_meters":7200,"station_id":"","pricing_plan_id":"cebpf4jnsgd1na2vs0mg"},{"bike_id":"f3a01c85-86e9-4a7c-837b-602faf4bbfde","system_id":"levelo_inurba_marseille","lat":43.28,"lon":5.38741,"is_reserved":false,"is_disabled":false,"rental_uris":{"android":"levelo://app?vid=f3a01c85-86e9-4a7c-837b-602faf4bbfde","ios":"levelo://app?vid=f3a01c85-86e9-4a7c-837b-602faf4bbfde"},"vehicle_type_id":"4","last_reported":1769023064,"current_range_meters":7200,"station_id":"","pricing_plan_id":"cebpf4jnsgd1na2vs0mg"},{"bike_id":"eaad7dcc-c797-4d78-96ea-aa702bdcc172","system_id":"levelo_inurba_marseille","lat":43.31533,"lon":5.38021,"is_reserved":false,"is_disabled":false,"rental_uris":{"android":"levelo://app?vid=eaad7dcc-c797-4d78-96ea-aa702bdcc172","ios":"levelo://app?vid=eaad7dcc-c797-4d78-96ea-aa702bdcc172"},"vehicle_type_id":"4","last_reported":1769023064,"current_range_meters":7200,"station_id":"ce4bhsp2rcd13ifvqi50","pricing_plan_id":"cebpf4jnsgd1na2vs0mg"},{"bike_id":"48cc7d16-2258-4386-8259-518dccac9460","system_id":"levelo_inurba_marseille","lat":43.29152,"lon":5.38589,"is_reserved":false,"is_disabled":false,"rental_uris":{"android":"levelo://app?vid=48cc7d16-2258-4386-8259-518dccac9460","ios":"levelo://app?vid=48cc7d16-2258-4386-8259-518dccac9460"},"vehicle_type_id":"4","last_reported":1769023064,"current_range_meters":7200,"station_id":"","pricing_plan_id":"cebpf4jnsgd1na2vs0mg"},{"bike_id":"f6de2d43-1f49-448d-9d89-c685ca8fe5a3","system_id":"levelo_inurba_marseille","lat":43.3053,"lon":5.36527,"is_reserved":false,"is_disabled":false,"rental_uris":{"android":"levelo://app?vid=f6de2d43-1f49-448d-9d89-c685ca8fe5a3","ios":"levelo://app?vid=f6de2d43-1f49-448d-9d89-c685ca8fe5a3"},"vehicle_type_id":"4","last_reported":1769023064,"current_range_meters":7200,"station_id":"ce4bgs12rcd13ifvqcag","pricing_plan_id":"cebpf4jnsgd1na2vs0mg"},{"bike_id":"91208c3c-66a3-4daf-9051-02a33817882c","system_id":"levelo_inurba_marseille","lat":43.30905,"lon":5.36835,"is_reserved":false,"is_disabled":false,"rental_uris":{"android":"levelo://app?vid=91208c3c-66a3-4daf-9051-02a33817882c","ios":"levelo://app?vid=91208c3c-66a3-4daf-9051-02a33817882c"},"vehicle_type_id":"4","last_reported":1769023064,"current_range_meters":7200,"station_id":"ce4bgn92rcd13ifvqbvg","pricing_plan_id":"cebpf4jnsgd1na2vs0mg"},{"bike_id":"370a6405-fdf1-423e-a465-6cdd23b50ee2","system_id":"levelo_inurba_marseille","lat":43.29041,"lon":5.38659,"is_reserved":false,"is_disabled":true,"rental_uris":{"android":"levelo://app?vid=370a6405-fdf1-423e-a465-6cdd23b50ee2","ios":"levelo://app?vid=370a6405-fdf1-423e-a465-6cdd23b50ee2"},"vehicle_type_id":"4","last_reported":1769023064,"current_range_meters":7200,"station_id":"ce4bh4p2rcd13ifvqe0g","pricing_plan_id":"cebpf4jnsgd1na2vs0mg"},{"bike_id":"59f484b3-dca6-45f8-a9df-3ecb3edf68a4","system_id":"levelo_inurba_marseille","lat":43.29166,"lon":5.3715,"is_reserved":false,"is_disabled":false,"rental_uris":{"android":"levelo://app?vid=59f484b3-dca6-45f8-a9df-3ecb3edf68a4","ios":"levelo://app?vid=59f484b3-dca6-45f8-a9df-3ecb3edf68a4"},"vehicle_type_id":"4","last_reported":1769023064,"current_range_meters":7200,"station_id":"ce4bha92rcd13ifvqeh0","pricing_plan_id":"cebpf4jnsgd1na2vs0mg"},{"bike_id":"0b64e895-792b-4498-9172-5f40249c5668","system_id":"levelo_inurba_marseille","lat":43.26038,"lon":5.39392,"is_reserved":false,"is_disabled":false,"rental_uris":{"android":"levelo://app?vid=0b64e895-792b-4498-9172-5f40249c5668","ios":"levelo://app?vid=0b64e895-792b-4498-9172-5f40249c5668"},"vehicle_type_id":"4","last_reported":1769023064,"current_range_meters":7200,"station_id":"ce4bhh92rcd13ifvqfj0","pricing_plan_id":"cebpf4jnsgd1na2vs0mg"},{"bike_id":"dde7b0e0-bbd1-44de-82f6-999f8e69694c","system_id":"levelo_inurba_marseille","lat":43.25508,"lon":5.37653,"is_reserved":false,"is_disabled":false,"rental_uris":{"android":"levelo://app?vid=dde7b0e0-bbd1-44de-82f6-999f8e69694c","ios":"levelo://app?vid=dde7b0e0-bbd1-44de-82f6-999f8e69694c"},"vehicle_type_id":"4","last_reported":1769023064,"current_range_meters":7200,"station_id":"ce4bhh12rcd13ifvqff0","pricing_plan_id":"cebpf4jnsgd1na2vs0mg"},{"bike_id":"15c72daf-2274-4070-bba9-52247c08d25f","system_id":"levelo_inurba_marseille","lat":43.273152,"lon":5.39072,"is_reserved":false,"is_disabled":false,"rental_uris":{"android":"levelo://app?vid=15c72daf-2274-4070-bba9-52247c08d25f","ios":"levelo://app?vid=15c72daf-2274-4070-bba9-52247c08d25f"},"vehicle_type_id":"4","last_reported":1769023064,"current_range_meters":7200,"station_id":"","pricing_plan_id":"cebpf4jnsgd1na2vs0mg"},{"bike_id":"01742311-3f12-409f-a5e8-bc53a3d5ac79","system_id":"levelo_inurba_marseille","lat":43.26582,"lon":5.39028,"is_reserved":false,"is_disabled":false,"rental_uris":{"android":"levelo://app?vid=01742311-3f12-409f-a5e8-bc53a3d5ac79","ios":"levelo://app?vid=01742311-3f12-409f-a5e8-bc53a3d5ac79"},"vehicle_type_id":"4","last_reported":1769023064,"current_range_meters":7200,"station_id":"ce4bhe12rcd13ifvqf30","pricing_plan_id":"cebpf4jnsgd1na2vs0mg"},{"bike_id":"d68cd528-87dc-4a28-8471-721b0cea6df0","system_id":"levelo_inurba_marseille","lat":43.28189,"lon":5.39241,"is_reserved":false,"is_disabled":false,"rental_uris":{"android":"levelo://app?vid=d68cd528-87dc-4a28-8471-721b0cea6df0","ios":"levelo://app?vid=d68cd528-87dc-4a28-8471-721b0cea6df0"},"vehicle_type_id":"4","last_reported":1769023064,"current_range_meters":7200,"station_id":"","pricing_plan_id":"cebpf4jnsgd1na2vs0mg"},{"bike_id":"527a2f47-d726-4c2b-8ad7-97a83e437dc2","system_id":"levelo_inurba_marseille","lat":43.31177,"lon":5.37194,"is_reserved":false,"is_disabled":false,"rental_uris":{"android":"levelo://app?vid=527a2f47-d726-4c2b-8ad7-97a83e437dc2","ios":"levelo://app?vid=527a2f47-d726-4c2b-8ad7-97a83e437dc2"},"vehicle_type_id":"4","last_reported":1769023064,"current_range_meters":7200,"station_id":"","pricing_plan_id":"cebpf4jnsgd1na2vs0mg"},{"bike_id":"131d083d-d299-49de-ae79-91ebeb210640","system_id":"levelo_inurba_marseille","lat":43.25724,"lon":5.41798,"is_reserved":false,"is_disabled":false,"rental_uris":{"android":"levelo://app?vid=131d083d-d299-49de-ae79-91ebeb210640","ios":"levelo://app?vid=131d083d-d299-49de-ae79-91ebeb210640"},"vehicle_type_id":"4","last_reported":1769023064,"current_range_meters":7200,"station_id":"","pricing_plan_id":"cebpf4jnsgd1na2vs0mg"},{"bike_id":"9f267b1b-9ecb-4537-8b3b-db033635a9b6","system_id":"levelo_inurba_marseille","lat":43.27323,"lon":5.39069,"is_reserved":false,"is_disabled":false,"rental_uris":{"android":"levelo://app?vid=9f267b1b-9ecb-4537-8b3b-db033635a9b6","ios":"levelo://app?vid=9f267b1b-9ecb-4537-8b3b-db033635a9b6"},"vehicle_type_id":"4","last_reported":1769023064,"current_range_meters":7200,"station_id":"ce4bhgp2rcd13ifvqfe0","pricing_plan_id":"cebpf4jnsgd1na2vs0mg"},{"bike_id":"a66a00c2-aafd-48a8-a673-aa69e10efa2c","system_id":"levelo_inurba_marseille","lat":43.30553,"lon":5.38435,"is_reserved":false,"is_disabled":false,"rental_uris":{"android":"levelo://app?vid=a66a00c2-aafd-48a8-a673-aa69e10efa2c","ios":"levelo://app?vid=a66a00c2-aafd-48a8-a673-aa69e10efa2c"},"vehicle_type_id":"4","last_reported":1769023064,"current_range_meters":8000,"station_id":"ce4bgg92rcd13ifvqb30","pricing_plan_id":"cebpf4jnsgd1na2vs0mg"},{"bike_id":"ebc59118-e1a4-482d-84d0-eafb34b0b9ea","system_id":"levelo_inurba_marseille","lat":43.23779,"lon":5.366372,"is_reserved":false,"is_disabled":false,"rental_uris":{"android":"levelo://app?vid=ebc59118-e1a4-482d-84d0-eafb34b0b9ea","ios":"levelo://app?vid=ebc59118-e1a4-482d-84d0-eafb34b0b9ea"},"vehicle_type_id":"4","last_reported":1769023064,"current_range_meters":8000,"station_id":"st_d3nk18o9ro0c73en2l3g","pricing_plan_id":"cebpf4jnsgd1na2vs0mg"},{"bike_id":"fce217f8-f4fd-42bc-87ff-3580d8db4654","system_id":"levelo_inurba_marseille","lat":43.29045,"lon":5.38639,"is_reserved":false,"is_disabled":false,"rental_uris":{"android":"levelo://app?vid=fce217f8-f4fd-42bc-87ff-3580d8db4654","ios":"levelo://app?vid=fce217f8-f4fd-42bc-87ff-3580d8db4654"},"vehicle_type_id":"4","last_reported":1769023064,"current_range_meters":8000,"station_id":"ce4bh4p2rcd13ifvqe0g","pricing_plan_id":"cebpf4jnsgd1na2vs0mg"},{"bike_id":"607c435d-5fb0-4f63-b221-a58bdcfdc9c2","system_id":"levelo_inurba_marseille","lat":43.25002,"lon":5.38926,"is_reserved":false,"is_disabled":false,"rental_uris":{"android":"levelo://app?vid=607c435d-5fb0-4f63-b221-a58bdcfdc9c2","ios":"levelo://app?vid=607c435d-5fb0-4f63-b221-a58bdcfdc9c2"},"vehicle_type_id":"4","last_reported":1769023064,"current_range_meters":8000,"station_id":"ce4bhgp2rcd13ifvqfd0","pricing_plan_id":"cebpf4jnsgd1na2vs0mg"},{"bike_id":"04b943ba-f6c5-4d86-9eab-64bd2d2a7a98","system_id":"levelo_inurba_marseille","lat":43.297912,"lon":5.380908,"is_reserved":false,"is_disabled":false,"rental_uris":{"android":"levelo://app?vid=04b943ba-f6c5-4d86-9eab-64bd2d2a7a98","ios":"levelo://app?vid=04b943ba-f6c5-4d86-9eab-64bd2d2a7a98"},"vehicle_type_id":"4","last_reported":1769023064,"current_range_meters":8000,"station_id":"","pricing_plan_id":"cebpf4jnsgd1na2vs0mg"},{"bike_id":"d1b43981-f32f-4ec5-8c44-cf200439f322","system_id":"levelo_inurba_marseille","lat":43.30789,"lon":5.38152,"is_reserved":false,"is_disabled":false,"rental_uris":{"android":"levelo://app?vid=d1b43981-f32f-4ec5-8c44-cf200439f322","ios":"levelo://app?vid=d1b43981-f32f-4ec5-8c44-cf200439f322"},"vehicle_type_id":"4","last_reported":1769023064,"current_range_meters":8000,"station_id":"ce4bgt12rcd13ifvqce0","pricing_plan_id":"cebpf4jnsgd1na2vs0mg"},{"bike_id":"fddbb7cb-a21d-46ff-8d07-df9eecd44019","system_id":"levelo_inurba_marseille","lat":43.32111,"lon":5.36756,"is_reserved":false,"is_disabled":false,"rental_uris":{"android":"levelo://app?vid=fddbb7cb-a21d-46ff-8d07-df9eecd44019","ios":"levelo://app?vid=fddbb7cb-a21d-46ff-8d07-df9eecd44019"},"vehicle_type_id":"4","last_reported":1769023064,"current_range_meters":8000,"station_id":"ce4bhrh2rcd13ifvqhug","pricing_plan_id":"cebpf4jnsgd1na2vs0mg"},{"bike_id":"bf9df301-dc0d-41cc-96a1-27301e9f819b","system_id":"levelo_inurba_marseille","lat":43.28482,"lon":5.48382,"is_reserved":false,"is_disabled":false,"rental_uris":{"android":"levelo://app?vid=bf9df301-dc0d-41cc-96a1-27301e9f819b","ios":"levelo://app?vid=bf9df301-dc0d-41cc-96a1-27301e9f819b"},"vehicle_type_id":"4","last_reported":1769023064,"current_range_meters":8000,"station_id":"","pricing_plan_id":"cebpf4jnsgd1na2vs0mg"},{"bike_id":"c93b0143-e32a-4807-a8c0-60875e0c2134","system_id":"levelo_inurba_marseille","lat":43.25081,"lon":5.39509,"is_reserved":false,"is_disabled":false,"rental_uris":{"android":"levelo://app?vid=c93b0143-e32a-4807-a8c0-60875e0c2134","ios":"levelo://app?vid=c93b0143-e32a-4807-a8c0-60875e0c2134"},"vehicle_type_id":"4","last_reported":1769023064,"current_range_meters":8000,"station_id":"ce4bhm12rcd13ifvqgkg","pricing_plan_id":"cebpf4jnsgd1na2vs0mg"},{"bike_id":"800ac751-b72d-4eb8-b5ef-7e899db1abd8","system_id":"levelo_inurba_marseille","lat":43.32698,"lon":5.39271,"is_reserved":false,"is_disabled":false,"rental_uris":{"android":"levelo://app?vid=800ac751-b72d-4eb8-b5ef-7e899db1abd8","ios":"levelo://app?vid=800ac751-b72d-4eb8-b5ef-7e899db1abd8"},"vehicle_type_id":"4","last_reported":1769023064,"current_range_meters":8000,"station_id":"","pricing_plan_id":"cebpf4jnsgd1na2vs0mg"},{"bike_id":"258b4153-0ee8-4d31-b068-229f8c76496d","system_id":"levelo_inurba_marseille","lat":43.27815,"lon":5.40709,"is_reserved":false,"is_disabled":false,"rental_uris":{"android":"levelo://app?vid=258b4153-0ee8-4d31-b068-229f8c76496d","ios":"levelo://app?vid=258b4153-0ee8-4d31-b068-229f8c76496d"},"vehicle_type_id":"4","last_reported":1769023064,"current_range_meters":8000,"station_id":"ce4bhnh2rcd13ifvqgtg","pricing_plan_id":"cebpf4jnsgd1na2vs0mg"},{"bike_id":"92a7b094-8419-42a8-92bc-cde61631e7f4","system_id":"levelo_inurba_marseille","lat":43.29283,"lon":5.36832,"is_reserved":false,"is_disabled":false,"rental_uris":{"android":"levelo://app?vid=92a7b094-8419-42a8-92bc-cde61631e7f4","ios":"levelo://app?vid=92a7b094-8419-42a8-92bc-cde61631e7f4"},"vehicle_type_id":"4","last_reported":1769023064,"current_range_meters":8000,"station_id":"ce4bhbp2rcd13ifvqesg","pricing_plan_id":"cebpf4jnsgd1na2vs0mg"},{"bike_id":"488d3d36-c3f0-4390-80be-f0194a76248a","system_id":"levelo_inurba_marseille","lat":43.25587,"lon":5.40417,"is_reserved":false,"is_disabled":false,"rental_uris":{"android":"levelo://app?vid=488d3d36-c3f0-4390-80be-f0194a76248a","ios":"levelo://app?vid=488d3d36-c3f0-4390-80be-f0194a76248a"},"vehicle_type_id":"4","last_reported":1769023064,"current_range_meters":8000,"station_id":"","pricing_plan_id":"cebpf4jnsgd1na2vs0mg"},{"bike_id":"f67035e4-7e2f-4f61-9362-74370903fc82","system_id":"levelo_inurba_marseille","lat":43.26936,"lon":5.40247,"is_reserved":false,"is_disabled":false,"rental_uris":{"android":"levelo://app?vid=f67035e4-7e2f-4f61-9362-74370903fc82","ios":"levelo://app?vid=f67035e4-7e2f-4f61-9362-74370903fc82"},"vehicle_type_id":"4","last_reported":1769023064,"current_range_meters":8000,"station_id":"cjm6bp8fraef2m0cb0m0","pricing_plan_id":"cebpf4jnsgd1na2vs0mg"},{"bike_id":"aec5c08c-9f05-47e9-bb02-2d63b83fc483","system_id":"levelo_inurba_marseille","lat":43.267559,"lon":5.392396,"is_reserved":false,"is_disabled":false,"rental_uris":{"android":"levelo://app?vid=aec5c08c-9f05-47e9-bb02-2d63b83fc483","ios":"levelo://app?vid=aec5c08c-9f05-47e9-bb02-2d63b83fc483"},"vehicle_type_id":"4","last_reported":1769023064,"current_range_meters":8000,"station_id":"","pricing_plan_id":"cebpf4jnsgd1na2vs0mg"},{"bike_id":"42ad3ecc-0a5c-4850-9931-a019c27979e1","system_id":"levelo_inurba_marseille","lat":43.28614,"lon":5.35088,"is_reserved":false,"is_disabled":false,"rental_uris":{"android":"levelo://app?vid=42ad3ecc-0a5c-4850-9931-a019c27979e1","ios":"levelo://app?vid=42ad3ecc-0a5c-4850-9931-a019c27979e1"},"vehicle_type_id":"4","last_reported":1769023064,"current_range_meters":8000,"station_id":"ce4bhch2rcd13ifvqeug","pricing_plan_id":"cebpf4jnsgd1na2vs0mg"},{"bike_id":"019ceb53-5592-4d8b-8ed7-8ec71fe45a46","system_id":"levelo_inurba_marseille","lat":43.29258,"lon":5.38437,"is_reserved":false,"is_disabled":false,"rental_uris":{"android":"levelo://app?vid=019ceb53-5592-4d8b-8ed7-8ec71fe45a46","ios":"levelo://app?vid=019ceb53-5592-4d8b-8ed7-8ec71fe45a46"},"vehicle_type_id":"4","last_reported":1769023064,"current_range_meters":8000,"station_id":"ce4bh692rcd13ifvqea0","pricing_plan_id":"cebpf4jnsgd1na2vs0mg"},{"bike_id":"a508f47f-ebff-4470-a927-07c95f76437c","system_id":"levelo_inurba_marseille","lat":43.28727,"lon":5.36077,"is_reserved":false,"is_disabled":false,"rental_uris":{"android":"levelo://app?vid=a508f47f-ebff-4470-a927-07c95f76437c","ios":"levelo://app?vid=a508f47f-ebff-4470-a927-07c95f76437c"},"vehicle_type_id":"4","last_reported":1769023064,"current_range_meters":8000,"station_id":"cki0cbj6b192h4jlfktg","pricing_plan_id":"cebpf4jnsgd1na2vs0mg"},{"bike_id":"83461687-2d6f-44e3-8195-fb721f9fb181","system_id":"levelo_inurba_marseille","lat":43.28473,"lon":5.48407,"is_reserved":false,"is_disabled":false,"rental_uris":{"android":"levelo://app?vid=83461687-2d6f-44e3-8195-fb721f9fb181","ios":"levelo://app?vid=83461687-2d6f-44e3-8195-fb721f9fb181"},"vehicle_type_id":"4","last_reported":1769023064,"current_range_meters":8000,"station_id":"","pricing_plan_id":"cebpf4jnsgd1na2vs0mg"},{"bike_id":"13c816e9-5043-41d0-a44f-0b67121a9c07","system_id":"levelo_inurba_marseille","lat":43.2793,"lon":5.39156,"is_reserved":false,"is_disabled":false,"rental_uris":{"android":"levelo://app?vid=13c816e9-5043-41d0-a44f-0b67121a9c07","ios":"levelo://app?vid=13c816e9-5043-41d0-a44f-0b67121a9c07"},"vehicle_type_id":"4","last_reported":1769023064,"current_range_meters":8000,"station_id":"ce4bhjp2rcd13ifvqga0","pricing_plan_id":"cebpf4jnsgd1na2vs0mg"},{"bike_id":"0f52188f-7530-4a1c-922c-967fa0cd99b4","system_id":"levelo_inurba_marseille","lat":43.27991,"lon":5.40007,"is_reserved":false,"is_disabled":false,"rental_uris":{"android":"levelo://app?vid=0f52188f-7530-4a1c-922c-967fa0cd99b4","ios":"levelo://app?vid=0f52188f-7530-4a1c-922c-967fa0cd99b4"},"vehicle_type_id":"4","last_reported":1769023064,"current_range_meters":8000,"station_id":"ce4bho92rcd13ifvqh4g","pricing_plan_id":"cebpf4jnsgd1na2vs0mg"},{"bike_id":"4e5bcba8-45be-4b94-8dba-994eb2d73f0e","system_id":"levelo_inurba_marseille","lat":43.246612,"lon":5.381569,"is_reserved":false,"is_disabled":false,"rental_uris":{"android":"levelo://app?vid=4e5bcba8-45be-4b94-8dba-994eb2d73f0e","ios":"levelo://app?vid=4e5bcba8-45be-4b94-8dba-994eb2d73f0e"},"vehicle_type_id":"4","last_reported":1769023064,"current_range_meters":8000,"station_id":"ce4bhih2rcd13ifvqfr0","pricing_plan_id":"cebpf4jnsgd1na2vs0mg"},{"bike_id":"6131e764-e5b9-44aa-a66a-1b45fe019e3f","system_id":"levelo_inurba_marseille","lat":43.275692,"lon":5.384182,"is_reserved":false,"is_disabled":false,"rental_uris":{"android":"levelo://app?vid=6131e764-e5b9-44aa-a66a-1b45fe019e3f","ios":"levelo://app?vid=6131e764-e5b9-44aa-a66a-1b45fe019e3f"},"vehicle_type_id":"4","last_reported":1769023064,"current_range_meters":8000,"station_id":"ce4bhh92rcd13ifvqfi0","pricing_plan_id":"cebpf4jnsgd1na2vs0mg"},{"bike_id":"db5c533d-ad6a-4cca-9da6-b7b91ac05bc1","system_id":"levelo_inurba_marseille","lat":43.21753,"lon":5.34602,"is_reserved":false,"is_disabled":false,"rental_uris":{"android":"levelo://app?vid=db5c533d-ad6a-4cca-9da6-b7b91ac05bc1","ios":"levelo://app?vid=db5c533d-ad6a-4cca-9da6-b7b91ac05bc1"},"vehicle_type_id":"4","last_reported":1769023064,"current_range_meters":8000,"station_id":"st_cvj6r9ubvosntc0bgbag","pricing_plan_id":"cebpf4jnsgd1na2vs0mg"},{"bike_id":"30471bf1-4e97-480f-9e18-3f7a93804303","system_id":"levelo_inurba_marseille","lat":43.24072,"lon":5.37756,"is_reserved":false,"is_disabled":false,"rental_uris":{"android":"levelo://app?vid=30471bf1-4e97-480f-9e18-3f7a93804303","ios":"levelo://app?vid=30471bf1-4e97-480f-9e18-3f7a93804303"},"vehicle_type_id":"4","last_reported":1769023064,"current_range_meters":8000,"station_id":"ce4bhnp2rcd13ifvqgvg","pricing_plan_id":"cebpf4jnsgd1na2vs0mg"},{"bike_id":"2200e9d2-1068-424e-9d7a-bd6973ee7562","system_id":"levelo_inurba_marseille","lat":43.26576,"lon":5.39036,"is_reserved":false,"is_disabled":false,"rental_uris":{"android":"levelo://app?vid=2200e9d2-1068-424e-9d7a-bd6973ee7562","ios":"levelo://app?vid=2200e9d2-1068-424e-9d7a-bd6973ee7562"},"vehicle_type_id":"4","last_reported":1769023064,"current_range_meters":8000,"station_id":"ce4bhe12rcd13ifvqf30","pricing_plan_id":"cebpf4jnsgd1na2vs0mg"},{"bike_id":"176ed226-8266-4b4b-a453-b4e4f11a848d","system_id":"levelo_inurba_marseille","lat":43.24398,"lon":5.37031,"is_reserved":false,"is_disabled":false,"rental_uris":{"android":"levelo://app?vid=176ed226-8266-4b4b-a453-b4e4f11a848d","ios":"levelo://app?vid=176ed226-8266-4b4b-a453-b4e4f11a848d"},"vehicle_type_id":"4","last_reported":1769023064,"current_range_meters":8000,"station_id":"ce4bhhh2rcd13ifvqfk0","pricing_plan_id":"cebpf4jnsgd1na2vs0mg"},{"bike_id":"58cd0546-ee0c-4f92-ba44-6393bfd47c70","system_id":"levelo_inurba_marseille","lat":43.26569,"lon":5.39027,"is_reserved":false,"is_disabled":false,"rental_uris":{"android":"levelo://app?vid=58cd0546-ee0c-4f92-ba44-6393bfd47c70","ios":"levelo://app?vid=58cd0546-ee0c-4f92-ba44-6393bfd47c70"},"vehicle_type_id":"4","last_reported":1769023064,"current_range_meters":8400,"station_id":"ce4bhe12rcd13ifvqf30","pricing_plan_id":"cebpf4jnsgd1na2vs0mg"},