{"last_updated":1702231700,"ttl":30,"version":"2.2","data":{"bikes":[{"bike_id":"1b4246c7-25f4-4854-83bd-5a993b7808cd","system_id":"levelo_inurba_marseille","lat":43.309076,"lon":5.368465,"is_reserved":false,"is_disabled":false,"rental_uris":{"android":"levelo://app?vid=1b4246c7-25f4-4854-83bd-5a993b7808cd","ios":"levelo://app?vid=1b4246c7-25f4-4854-83bd-5a993b7808cd"},"vehicle_type_id":"4","last_reported":1702231701,"current_range_meters":3200,"station_id":"ce4bgn92rcd13ifvqbvg","pricing_plan_id":"free"},{"bike_id":"adff1d54-38e0-4e1a-b7cb-801621b6863f","system_id":"levelo_inurba_marseille","lat":43.309076,"lon":5.368465,"is_reserved":false,"is_disabled":false,"rental_uris":{"android":"levelo://app?vid=adff1d54-38e0-4e1a-b7cb-801621b6863f","ios":"levelo://app?vid=adff1d54-38e0-4e1a-b7cb-801621b6863f"},"vehicle_type_id":"4","last_reported":1702231701,"current_range_meters":24400,"station_id":"ce4bgn92rcd13ifvqbvg","pricing_plan_id":"free"},{"bike_id":"b11517f9-0b31-4104-bf3b-a77e2c12de52","system_id":"levelo_inurba_marseille","lat":43.314811,"lon":5.373103,"is_reserved":false,"is_disabled":false,"rental_uris":{"android":"levelo://app?vid=b11517f9-0b31-4104-bf3b-a77e2c12de52","ios":"levelo://app?vid=b11517f9-0b31-4104-bf3b-a77e2c12de52"},"vehicle_type_id":"4","last_reported":1702231701,"current_range_meters":6000,"station_id":"ce4bgt12rcd13ifvqcd0","pricing_plan_id":"free"},{"bike_id":"cbbbabb5-bc2f-4077-97cb-28766f551c53","system_id":"levelo_inurba_marseille","lat":43.305989,"lon":5.37225,"is_reserved":false,"is_disabled":false,"rental_uris":{"android":"levelo://app?vid=cbbbabb5-bc2f-4077-97cb-28766f551c53","ios":"levelo://app?vid=cbbbabb5-bc2f-4077-97cb-28766f551c53"},"vehicle_type_id":"4","last_reported":1702231701,"current_range_meters":14000,"station_id":"ce4bgqh2rcd13ifvqc4g","pricing_plan_id":"free"},{"bike_id":"ac0874d1-33d0-4519-af53-e190c98986eb","system_id":"levelo_inurba_marseille","lat":43.305989,"lon":5.37225,"is_reserved":false,"is_disabled":false,"rental_uris":{"android":"levelo://app?vid=ac0874d1-33d0-4519-af53-e190c98986eb","ios":"levelo://app?vid=ac0874d1-33d0-4519-af53-e190c98986eb"},"vehicle_type_id":"4","last_reported":1702231701,"current_range_meters":0,"station_id":"ce4bgqh2rcd13ifvqc4g","pricing_plan_id":"free"},{"bike_id":"2330bda6-7ff6-47a9-bfa2-86d106547740","system_id":"levelo_inurba_marseille","lat":43.31128,"lon":5.37764,"is_reserved":false,"is_disabled":false,"rental_uris":{"android":"levelo://app?vid=2330bda6-7ff6-47a9-bfa2-86d106547740","ios":"levelo://app?vid=2330bda6-7ff6-47a9-bfa2-86d106547740"},"vehicle_type_id":"4","last_reported":1702231701,"current_range_meters":0,"station_id":"ce4bgt92rcd13ifvqcg0","pricing_plan_id":"free"},{"bike_id":"77a6c46d-d898-4e4f-8846-efa91689c7f0","system_id":"levelo_inurba_marseille","lat":43.30467,"lon":5.36593,"is_reserved":false,"is_disabled":false,"rental_uris":{"android":"levelo://app?vid=77a6c46d-d898-4e4f-8846-efa91689c7f0","ios":"levelo://app?vid=77a6c46d-d898-4e4f-8846-efa91689c7f0"},"vehicle_type_id":"4","last_reported":1702231701,"current_range_meters":0,"station_id":"","pricing_plan_id":"free"},{"bike_id":"98c7773a-ac33-4088-a3f6-5333d9eb3e1a","system_id":"levelo_inurba_marseille","lat":43.317075,"lon":5.377367,"is_reserved":false,"is_disabled":false,"rental_uris":{"android":"levelo://app?vid=98c7773a-ac33-4088-a3f6-5333d9eb3e1a","ios":"levelo://app?vid=98c7773a-ac33-4088-a3f6-5333d9eb3e1a"},"vehicle_type_id":"4","last_reported":1702231701,"current_range_meters":29600,"station_id":"ce4bgth2rcd13ifvqch0","pricing_plan_id":"free"},{"bike_id":"e410483d-7edc-4b5c-8b00-70f481df6c3a","system_id":"levelo_inurba_marseille","lat":43.31535,"lon":5.38018,"is_reserved":false,"is_disabled":false,"rental_uris":{"android":"levelo://app?vid=e410483d-7edc-4b5c-8b00-70f481df6c3a","ios":"levelo://app?vid=e410483d-7edc-4b5c-8b00-70f481df6c3a"},"vehicle_type_id":"4","last_reported":1702231701,"current_range_meters":0,"station_id":"ce4bhsp2rcd13ifvqi50","pricing_plan_id":"free"},{"bike_id":"60b1d0a8-1085-4dc4-a079-b0a4a22142b9","system_id":"levelo_inurba_marseille","lat":43.308012,"lon":5.381511,"is_reserved":false,"is_disabled":false,"rental_uris":{"android":"levelo://app?vid=60b1d0a8-1085-4dc4-a079-b0a4a22142b9","ios":"levelo://app?vid=60b1d0a8-1085-4dc4-a079-b0a4a22142b9"},"vehicle_type_id":"4","last_reported":1702231701,"current_range_meters":0,"station_id":"ce4bgt12rcd13ifvqce0","pricing_plan_id":"free"},{"bike_id":"d8be298e-f4c0-4479-a66b-e307c680d7cc","system_id":"levelo_inurba_marseille","lat":43.31356,"lon":5.38493,"is_reserved":false,"is_disabled":false,"rental_uris":{"android":"levelo://app?vid=d8be298e-f4c0-4479-a66b-e307c680d7cc","ios":"levelo://app?vid=d8be298e-f4c0-4479-a66b-e307c680d7cc"},"vehicle_type_id":"4","last_reported":1702231701,"current_range_meters":19600,"station_id":"ce4bgt92rcd13ifvqcf0","pricing_plan_id":"free"},{"bike_id":"e85801e0-ab54-457a-81fa-140fd62523ec","system_id":"levelo_inurba_marseille","lat":43.31369,"lon":5.38497,"is_reserved":false,"is_disabled":false,"rental_uris":{"android":"levelo://app?vid=e85801e0-ab54-457a-81fa-140fd62523ec","ios":"levelo://app?vid=e85801e0-ab54-457a-81fa-140fd62523ec"},"vehicle_type_id":"4","last_reported":1702231701,"current_range_meters":12400,"station_id":"ce4bgt92rcd13ifvqcf0","pricing_plan_id":"free"},{"bike_id":"22d8b9fb-2432-4b34-b1d7-f236a18e27f0","system_id":"levelo_inurba_marseille","lat":43.305383,"lon":5.38419,"is_reserved":false,"is_disabled":false,"rental_uris":{"android":"levelo://app?vid=22d8b9fb-2432-4b34-b1d7-f236a18e27f0","ios":"levelo://app?vid=22d8b9fb-2432-4b34-b1d7-f236a18e27f0"},"vehicle_type_id":"4","last_reported":1702231701,"current_range_meters":0,"station_id":"ce4bgg92rcd13ifvqb30","pricing_plan_id":"free"},{"bike_id":"41f6f808-929b-45c2-b161-b254542f7cc9","system_id":"levelo_inurba_marseille","lat":43.311722,"lon":5.387247,"is_reserved":false,"is_disabled":false,"rental_uris":{"android":"levelo://app?vid=41f6f808-929b-45c2-b161-b254542f7cc9","ios":"levelo://app?vid=41f6f808-929b-45c2-b161-b254542f7cc9"},"vehicle_type_id":"4","last_reported":1702231701,"current_range_meters":25200,"station_id":"ce4bgv12rcd13ifvqcp0","pricing_plan_id":"free"},{"bike_id":"5e6ade61-2378-4662-a535-0618dff027ec","system_id":"levelo_inurba_marseille","lat":43.311722,"lon":5.387247,"is_reserved":false,"is_disabled":false,"rental_uris":{"android":"levelo://app?vid=5e6ade61-2378-4662-a535-0618dff027ec","ios":"levelo://app?vid=5e6ade61-2378-4662-a535-0618dff027ec"},"vehicle_type_id":"4","last_reported":1702231701,"current_range_meters":0,"station_id":"ce4bgv12rcd13ifvqcp0","pricing_plan_id":"free"},{"bike_id":"d87953a9-90b8-4e7c-a058-42869f4e2969","system_id":"levelo_inurba_marseille","lat":43.297774,"lon":5.370875,"is_reserved":false,"is_disabled":false,"rental_uris":{"android":"levelo://app?vid=d87953a9-90b8-4e7c-a058-42869f4e2969","ios":"levelo://app?vid=d87953a9-90b8-4e7c-a058-42869f4e2969"},"vehicle_type_id":"4","last_reported":1702231701,"current_range_meters":19600,"station_id":"ce4bgop2rcd13ifvqc1g","pricing_plan_id":"free"},{"bike_id":"ccd4fbf7-a0c2-498b-8ecc-15a67004cff0","system_id":"levelo_inurba_marseille","lat":43.322872,"lon":5.382756,"is_reserved":false,"is_disabled":false,"rental_uris":{"android":"levelo://app?vid=ccd4fbf7-a0c2-498b-8ecc-15a67004cff0","ios":"levelo://app?vid=ccd4fbf7-a0c2-498b-8ecc-15a67004cff0"},"vehicle_type_id":"4","last_reported":1702231701,"current_range_meters":28000,"station_id":"ce4bhr12rcd13ifvqhqg","pricing_plan_id":"free"},{"bike_id":"c21bda38-712f-4f56-9446-1b078e6c9c76","system_id":"levelo_inurba_marseille","lat":43.297794,"lon":5.370888,"is_reserved":false,"is_disabled":false,"rental_uris":{"android":"levelo://app?vid=c21bda38-712f-4f56-9446-1b078e6c9c76","ios":"levelo://app?vid=c21bda38-712f-4f56-9446-1b078e6c9c76"},"vehicle_type_id":"4","last_reported":1702231701,"current_range_meters":11600,"station_id":"ce4bgop2rcd13ifvqc1g","pricing_plan_id":"free"},{"bike_id":"6ac675f1-e0be-498c-ad2f-b742a949d4b0","system_id":"levelo_inurba_marseille","lat":43.298218,"lon":5.374416,"is_reserved":false,"is_disabled":false,"rental_uris":{"android":"levelo://app?vid=6ac675f1-e0be-498c-ad2f-b742a949d4b0","ios":"levelo://app?vid=6ac675f1-e0be-498c-ad2f-b742a949d4b0"},"vehicle_type_id":"4","last_reported":1702231701,"current_range_meters":0,"station_id":"","pricing_plan_id":"free"},{"bike_id":"13bf6281-9789-44ba-a352-3b8cde8a7a5d","system_id":"levelo_inurba_marseille","lat":43.3283,"lon":5.36678,"is_reserved":false,"is_disabled":false,"rental_uris":{"android":"levelo://app?vid=13bf6281-9789-44ba-a352-3b8cde8a7a5d","ios":"levelo://app?vid=13bf6281-9789-44ba-a352-3b8cde8a7a5d"},"vehicle_type_id":"4","last_reported":1702231701,"current_range_meters":10400,"station_id":"ce4bhs92rcd13ifvqi0g","pricing_plan_id":"free"},{"bike_id":"53ce9a5c-7083-4855-850e-d386fd44f816","system_id":"levelo_inurba_marseille","lat":43.2968,"lon":5.37291,"is_reserved":false,"is_disabled":false,"rental_uris":{"android":"levelo://app?vid=53ce9a5c-7083-4855-850e-d386fd44f816","ios":"levelo://app?vid=53ce9a5c-7083-4855-850e-d386fd44f816"},"vehicle_type_id":"4","last_reported":1702231701,"current_range_meters":26400,"station_id":"ce4bgk12rcd13ifvqbj0","pricing_plan_id":"free"},{"bike_id":"92dc65d6-6823-4de3-93d4-056f738f090c","system_id":"levelo_inurba_marseille","lat":43.316538,"lon":5.38954,"is_reserved":false,"is_disabled":false,"rental_uris":{"android":"levelo://app?vid=92dc65d6-6823-4de3-93d4-056f738f090c","ios":"levelo://app?vid=92dc65d6-6823-4de3-93d4-056f738f090c"},"vehicle_type_id":"4","last_reported":1702231701,"current_range_meters":0,"station_id":"","pricing_plan_id":"free"},{"bike_id":"587cb203-8e4d-444f-9209-e40ac3e543cd","system_id":"levelo_inurba_marseille","lat":43.29618,"lon":5.37149,"is_reserved":false,"is_disabled":false,"rental_uris":{"android":"levelo://app?vid=587cb203-8e4d-444f-9209-e40ac3e543cd","ios":"levelo://app?vid=587cb203-8e4d-444f-9209-e40ac3e543cd"},"vehicle_type_id":"4","last_reported":1702231701,"current_range_meters":0,"station_id":"ce4bgnh2rcd13ifvqc0g","pricing_plan_id":"free"},{"bike_id":"91608101-3e17-4e7b-bbd5-1450f844f342","system_id":"levelo_inurba_marseille","lat":43.317557,"lon":5.390173,"is_reserved":false,"is_disabled":false,"rental_uris":{"android":"levelo://app?vid=91608101-3e17-4e7b-bbd5-1450f844f342","ios":"levelo://app?vid=91608101-3e17-4e7b-bbd5-1450f844f342"},"vehicle_type_id":"4","last_reported":1702231701,"current_range_meters":14800,"station_id":"ce4bhqp2rcd13ifvqhng","pricing_plan_id":"free"},{"bike_id":"a2ae038b-dd2f-4359-b08c-54bd110329fe","system_id":"levelo_inurba_marseille","lat":43.29582,"lon":5.37502,"is_reserved":false,"is_disabled":false,"rental_uris":{"android":"levelo://app?vid=a2ae038b-dd2f-4359-b08c-54bd110329fe","ios":"levelo://app?vid=a2ae038b-dd2f-4359-b08c-54bd110329fe"},"vehicle_type_id":"4","last_reported":1702231701,"current_range_meters":0,"station_id":"ce4bgh92rcd13ifvqb50","pricing_plan_id":"free"},{"bike_id":"7aac4cbf-1c69-43e3-a3cc-5da43ae9f1b4","system_id":"levelo_inurba_marseille","lat":43.304274,"lon":5.388873,"is_reserved":false,"is_disabled":false,"rental_uris":{"android":"levelo://app?vid=7aac4cbf-1c69-43e3-a3cc-5da43ae9f1b4","ios":"levelo://app?vid=7aac4cbf-1c69-43e3-a3cc-5da43ae9f1b4"},"vehicle_type_id":"4","last_reported":1702231701,"current_range_meters":11600,"station_id":"ce4bgk12rcd13ifvqbi0","pricing_plan_id":"free"},{"bike_id":"cd68c3fb-4194-450e-b5dc-e7c395a79981","system_id":"levelo_inurba_marseille","lat":43.304278,"lon":5.388868,"is_reserved":false,"is_disabled":false,"rental_uris":{"android":"levelo://app?vid=cd68c3fb-4194-450e-b5dc-e7c395a79981","ios":"levelo://app?vid=cd68c3fb-4194-450e-b5dc-e7c395a79981"},"vehicle_type_id":"4","last_reported":1702231701,"current_range_meters":22400,"station_id":"ce4bgk12rcd13ifvqbi0","pricing_plan_id":"free"},{"bike_id":"3a4267ec-eb56-4d43-82a1-817967632c68","system_id":"levelo_inurba_marseille","lat":43.28856,"lon":5.358371,"is_reserved":false,"is_disabled":false,"rental_uris":{"android":"levelo://app?vid=3a4267ec-eb56-4d43-82a1-817967632c68","ios":"levelo://app?vid=3a4267ec-eb56-4d43-82a1-817967632c68"},"vehicle_type_id":"4","last_reported":1702231701,"current_range_meters":0,"station_id":"ce4bhb12rcd13ifvqem0","pricing_plan_id":"free"},{"bike_id":"944f993e-454a-4bc3-be8c-c96b0d7f08d7","system_id":"levelo_inurba_marseille","lat":43.29978,"lon":5.38491,"is_reserved":false,"is_disabled":false,"rental_uris":{"android":"levelo://app?vid=944f993e-454a-4bc3-be8c-c96b0d7f08d7","ios":"levelo://app?vid=944f993e-454a-4bc3-be8c-c96b0d7f08d7"},"vehicle_type_id":"4","last_reported":1702231701,"current_range_meters":0,"station_id":"ce4bgj92rcd13ifvqbd0","pricing_plan_id":"free"},{"bike_id":"7fc1d242-272a-4a56-9b6a-e36737812002","system_id":"levelo_inurba_marseille","lat":43.293259,"lon":5.371586,"is_reserved":false,"is_disabled":false,"rental_uris":{"android":"levelo://app?vid=7fc1d242-272a-4a56-9b6a-e36737812002","ios":"levelo://app?vid=7fc1d242-272a-4a56-9b6a-e36737812002"},"vehicle_type_id":"4","last_reported":1702231701,"current_range_meters":13200,"station_id":"ce4bgh92rcd13ifvqb40","pricing_plan_id":"free"},{"bike_id":"b1ca3dff-5547-4857-84e3-56d433fb02ae","system_id":"levelo_inurba_marseille","lat":43.300852,"lon":5.390859,"is_reserved":false,"is_disabled":false,"rental_uris":{"android":"levelo://app?vid=b1ca3dff-5547-4857-84e3-56d433fb02ae","ios":"levelo://app?vid=b1ca3dff-5547-4857-84e3-56d433fb02ae"},"vehicle_type_id":"4","last_reported":1702231701,"current_range_meters":3200,"station_id":"ce4bh192rcd13ifvqdb0","pricing_plan_id":"free"},{"bike_id":"6c7db12f-4edd-4f22-ac65-7064e7fbb09a","system_id":"levelo_inurba_marseille","lat":43.292311,"lon":5.360731,"is_reserved":false,"is_disabled":false,"rental_uris":{"android":"levelo://app?vid=6c7db12f-4edd-4f22-ac65-7064e7fbb09a","ios":"levelo://app?vid=6c7db12f-4edd-4f22-ac65-7064e7fbb09a"},"vehicle_type_id":"4","last_reported":1702231701,"current_range_meters":21600,"station_id":"ce4bhbh2rcd13ifvqeqg","pricing_plan_id":"free"},{"bike_id":"b8f6f99b-9098-48ac-a70b-3bb5a7742f1f","system_id":"levelo_inurba_marseille","lat":43.29278,"lon":5.37625,"is_reserved":false,"is_disabled":false,"rental_uris":{"android":"levelo://app?vid=b8f6f99b-9098-48ac-a70b-3bb5a7742f1f","ios":"levelo://app?vid=b8f6f99b-9098-48ac-a70b-3bb5a7742f1f"},"vehicle_type_id":"4","last_reported":1702231701,"current_range_meters":3600,"station_id":"ce4bgi12rcd13ifvqb80","pricing_plan_id":"free"},{"bike_id":"7c8c94e9-225b-4a46-88ee-1e06bffb4f4a","system_id":"levelo_inurba_marseille","lat":43.29203,"lon":5.35798,"is_reserved":false,"is_disabled":false,"rental_uris":{"android":"levelo://app?vid=7c8c94e9-225b-4a46-88ee-1e06bffb4f4a","ios":"levelo://app?vid=7c8c94e9-225b-4a46-88ee-1e06bffb4f4a"},"vehicle_type_id":"4","last_reported":1702231701,"current_range_meters":9200,"station_id":"ce4bhb12rcd13ifvqel0","pricing_plan_id":"free"},{"bike_id":"0fe4232f-81c8-43ed-b132-91f0c72f06f5","system_id":"levelo_inurba_marseille","lat":43.3132,"lon":5.39695,"is_reserved":false,"is_disabled":false,"rental_uris":{"android":"levelo://app?vid=0fe4232f-81c8-43ed-b132-91f0c72f06f5","ios":"levelo://app?vid=0fe4232f-81c8-43ed-b132-91f0c72f06f5"},"vehicle_type_id":"4","last_reported":1702231701,"current_range_meters":0,"station_id":"ce4bgvp2rcd13ifvqcu0","pricing_plan_id":"free"},{"bike_id":"cd5182f1-23f1-49a1-b186-08218a57f8b8","system_id":"levelo_inurba_marseille","lat":43.31332,"lon":5.39705,"is_reserved":false,"is_disabled":false,"rental_uris":{"android":"levelo://app?vid=cd5182f1-23f1-49a1-b186-08218a57f8b8","ios":"levelo://app?vid=cd5182f1-23f1-49a1-b186-08218a57f8b8"},"vehicle_type_id":"4","last_reported":1702231701,"current_range_meters":800,"station_id":"ce4bgvp2rcd13ifvqcu0","pricing_plan_id":"free"},{"bike_id":"c2583ee2-f1e9-4900-b32e-53c4c32a64ba","system_id":"levelo_inurba_marseille","lat":43.29429,"lon":5.386167,"is_reserved":false,"is_disabled":false,"rental_uris":{"android":"levelo://app?vid=c2583ee2-f1e9-4900-b32e-53c4c32a64ba","ios":"levelo://app?vid=c2583ee2-f1e9-4900-b32e-53c4c32a64ba"},"vehicle_type_id":"4","last_reported":1702231701,"current_range_meters":400,"station_id":"ce4bh2h2rcd13ifvqdh0","pricing_plan_id":"free"},{"bike_id":"dd1b5a61-ef01-4007-b4ca-201044d24689","system_id":"levelo_inurba_marseille","lat":43.29419,"lon":5.3862,"is_reserved":false,"is_disabled":false,"rental_uris":{"android":"levelo://app?vid=dd1b5a61-ef01-4007-b4ca-201044d24689","ios":"levelo://app?vid=dd1b5a61-ef01-4007-b4ca-201044d24689"},"vehicle_type_id":"4","last_reported":1702231701,"current_range_meters":0,"station_id":"ce4bh2h2rcd13ifvqdh0","pricing_plan_id":"free"},{"bike_id":"3af642cb-1f1b-404a-87d4-82c9cd732356","system_id":"levelo_inurba_marseille","lat":43.28948,"lon":5.36642,"is_reserved":false,"is_disabled":false,"rental_uris":{"android":"levelo://app?vid=3af642cb-1f1b-404a-87d4-82c9cd732356","ios":"levelo://app?vid=3af642cb-1f1b-404a-87d4-82c9cd732356"},"vehicle_type_id":"4","last_reported":1702231701,"current_range_meters":6400,"station_id":"ce4bhap2rcd13ifvqek0","pricing_plan_id":"free"},{"bike_id":"0d55287e-6324-4a21-96f1-2aa124f5d1a5","system_id":"levelo_inurba_marseille","lat":43.290161,"lon":5.375651,"is_reserved":false,"is_disabled":false,"rental_uris":{"android":"levelo://app?vid=0d55287e-6324-4a21-96f1-2aa124f5d1a5","ios":"levelo://app?vid=0d55287e-6324-4a21-96f1-2aa124f5d1a5"},"vehicle_type_id":"4","last_reported":1702231701,"current_range_meters":8800,"station_id":"","pricing_plan_id":"free"},{"bike_id":"a02a1b20-1fb1-4951-988a-77389649024d","system_id":"levelo_inurba_marseille","lat":43.289259,"lon":5.366364,"is_reserved":false,"is_disabled":false,"rental_uris":{"android":"levelo://app?vid=a02a1b20-1fb1-4951-988a-77389649024d","ios":"levelo://app?vid=a02a1b20-1fb1-4951-988a-77389649024d"},"vehicle_type_id":"4","last_reported":1702231701,"current_range_meters":7600,"station_id":"","pricing_plan_id":"free"},{"bike_id":"49fed072-ab32-46c6-ba7a-a5ebf33b305f","system_id":"levelo_inurba_marseille","lat":43.33042,"lon":5.3892,"is_reserved":false,"is_disabled":false,"rental_uris":{"android":"levelo://app?vid=49fed072-ab32-46c6-ba7a-a5ebf33b305f","ios":"levelo://app?vid=49fed072-ab32-46c6-ba7a-a5ebf33b305f"},"vehicle_type_id":"4","last_reported":1702231701,"current_range_meters":23600,"station_id":"ce4bhr92rcd13ifvqhrg","pricing_plan_id":"free"},{"bike_id":"57836237-4b1f-4a82-a4bc-3f67fb0804cc","system_id":"levelo_inurba_marseille","lat":43.33043,"lon":5.38921,"is_reserved":false,"is_disabled":false,"rental_uris":{"android":"levelo://app?vid=57836237-4b1f-4a82-a4bc-3f67fb0804cc","ios":"levelo://app?vid=57836237-4b1f-4a82-a4bc-3f67fb0804cc"},"vehicle_type_id":"4","last_reported":1702231701,"current_range_meters":2800,"station_id":"ce4bhr92rcd13ifvqhrg","pricing_plan_id":"free"},{"bike_id":"2c922e28-5d22-4dd1-bf6c-d686043bce6c","system_id":"levelo_inurba_marseille","lat":43.330442,"lon":5.389148,"is_reserved":false,"is_disabled":false,"rental_uris":{"android":"levelo://app?vid=2c922e28-5d22-4dd1-bf6c-d686043bce6c","ios":"levelo://app?vid=2c922e28-5d22-4dd1-bf6c-d686043bce6c"},"vehicle_type_id":"4","last_reported":1702231701,"current_range_meters":0,"station_id":"ce4bhr92rcd13ifvqhrg","pricing_plan_id":"free"},{"bike_id":"fffc6f13-c560-49d3-8a8f-8f28812d2885","system_id":"levelo_inurba_marseille","lat":43.295169,"lon":5.390426,"is_reserved":false,"is_disabled":false,"rental_uris":{"android":"levelo://app?vid=fffc6f13-c560-49d3-8a8f-8f28812d2885","ios":"levelo://app?vid=fffc6f13-c560-49d3-8a8f-8f28812d2885"},"vehicle_type_id":"4","last_reported":1702231701,"current_range_meters":10000,"station_id":"ce4bh3p2rcd13ifvqdp0","pricing_plan_id":"free"},{"bike_id":"6c7da5e6-aca5-4246-9dd1-820f8bdd9a20","system_id":"levelo_inurba_marseille","lat":43.295169,"lon":5.390426,"is_reserved":false,"is_disabled":false,"rental_uris":{"android":"levelo://app?vid=6c7da5e6-aca5-4246-9dd1-820f8bdd9a20","ios":"levelo://app?vid=6c7da5e6-aca5-4246-9dd1-820f8bdd9a20"},"vehicle_type_id":"4","last_reported":1702231701,"current_range_meters":1200,"station_id":"ce4bh3p2rcd13ifvqdp0","pricing_plan_id":"free"},{"bike_id":"46d5a0da-c490-4aa9-8b71-3db6a614f946","system_id":"levelo_inurba_marseille","lat":43.295169,"lon":5.390426,"is_reserved":false,"is_disabled":false,"rental_uris":{"android":"levelo://app?vid=46d5a0da-c490-4aa9-8b71-3db6a614f946","ios":"levelo://app?vid=46d5a0da-c490-4aa9-8b71-3db6a614f946"},"vehicle_type_id":"4","last_reported":1702231701,"current_range_meters":6400,"station_id":"ce4bh3p2rcd13ifvqdp0","pricing_plan_id":"free"},{"bike_id":"4a3e0be9-e3ff-4aeb-b97e-3a7f3d4e7b91","system_id":"levelo_inurba_marseille","lat":43.29513,"lon":5.39036,"is_reserved":false,"is_disabled":false,"rental_uris":{"android":"levelo://app?vid=4a3e0be9-e3ff-4aeb-b97e-3a7f3d4e7b91","ios":"levelo://app?vid=4a3e0be9-e3ff-4aeb-b97e-3a7f3d4e7b91"},"vehicle_type_id":"4","last_reported":1702231701,"current_range_meters":0,"station_id":"ce4bh3p2rcd13ifvqdp0","pricing_plan_id":"free"},{"bike_id":"27d937ea-ceec-488a-b513-5fb1944d92c2","system_id":"levelo_inurba_marseille","lat":43.30934,"lon":5.40133,"is_reserved":false,"is_disabled":false,"rental_uris":{"android":"levelo://app?vid=27d937ea-ceec-488a-b513-5fb1944d92c2","ios":"levelo://app?vid=27d937ea-ceec-488a-b513-5fb1944d92c2"},"vehicle_type_id":"4","last_reported":1702231701,"current_range_meters":7600,"station_id":"ce4bgvp2rcd13ifvqct0","pricing_plan_id":"free"},{"bike_id":"12d9684c-3e17-4e9c-9499-4ec31e700134","system_id":"levelo_inurba_marseille","lat":43.309371,"lon":5.401449,"is_reserved":false,"is_disabled":false,"rental_uris":{"android":"levelo://app?vid=12d9684c-3e17-4e9c-9499-4ec31e700134","ios":"levelo://app?vid=12d9684c-3e17-4e9c-9499-4ec31e700134"},"vehicle_type_id":"4","last_reported":1702231701,"current_range_meters":7600,"station_id":"ce4bgvp2rcd13ifvqct0","pricing_plan_id":"free"},{"bike_id":"3d055773-9123-4a8a-a60c-874536768de9","system_id":"levelo_inurba_marseille","lat":43.30943,"lon":5.40141,"is_reserved":false,"is_disabled":false,"rental_uris":{"android":"levelo://app?vid=3d055773-9123-4a8a-a60c-874536768de9","ios":"levelo://app?vid=3d055773-9123-4a8a-a60c-874536768de9"},"vehicle_type_id":"4","last_reported":1702231701,"current_range_meters":13600,"station_id":"ce4bgvp2rcd13ifvqct0","pricing_plan_id":"free"},{"bike_id":"c7dc1baf-2585-4138-9aa9-1bea746ab99a","system_id":"levelo_inurba_marseille","lat":43.312753,"lon":5.401727,"is_reserved":false,"is_disabled":false,"rental_uris":{"android":"levelo://app?vid=c7dc1baf-2585-4138-9aa9-1bea746ab99a","ios":"levelo://app?vid=c7dc1baf-2585-4138-9aa9-1bea746ab99a"},"vehicle_type_id":"4","last_reported":1702231701,"current_range_meters":0,"station_id":"ce4bh092rcd13ifvqd30","pricing_plan_id":"free"},{"bike_id":"708de96c-139f-4450-8101-bca3902a1e8b","system_id":"levelo_inurba_marseille","lat":43.301117,"lon":5.398795,"is_reserved":false,"is_disabled":false,"rental_uris":{"android":"levelo://app?vid=708de96c-139f-4450-8101-bca3902a1e8b","ios":"levelo://app?vid=708de96c-139f-4450-8101-bca3902a1e8b"},"vehicle_type_id":"4","last_reported":1702231701,"current_range_meters":1600,"station_id":"ce4bh0h2rcd13ifvqd40","pricing_plan_id":"free"},{"bike_id":"ec895315-dc2d-4277-ac24-20c29d74b8d9","system_id":"levelo_inurba_marseille","lat":43.28727,"lon":5.36078,"is_reserved":false,"is_disabled":false,"rental_uris":{"android":"levelo://app?vid=ec895315-dc2d-4277-ac24-20c29d74b8d9","ios":"levelo://app?vid=ec895315-dc2d-4277-ac24-20c29d74b8d9"},"vehicle_type_id":"4","last_reported":1702231701,"current_range_meters":6000,"station_id":"cki0cbj6b192h4jlfktg","pricing_plan_id":"free"},{"bike_id":"0c8a3561-f607-4030-b9c8-75b49fca0c86","system_id":"levelo_inurba_marseille","lat":43.301117,"lon":5.398795,"is_reserved":false,"is_disabled":false,"rental_uris":{"android":"levelo://app?vid=0c8a3561-f607-4030-b9c8-75b49fca0c86","ios":"levelo://app?vid=0c8a3561-f607-4030-b9c8-75b49fca0c86"},"vehicle_type_id":"4","last_reported":1702231701,"current_range_meters":11200,"station_id":"ce4bh0h2rcd13ifvqd40","pricing_plan_id":"free"},{"bike_id":"4c06b94a-2fb1-45f2-94b1-2322bea97855","system_id":"levelo_inurba_marseille","lat":43.298681,"lon":5.397225,"is_reserved":false,"is_disabled":false,"rental_uris":{"android":"levelo://app?vid=4c06b94a-2fb1-45f2-94b1-2322bea97855","ios":"levelo://app?vid=4c06b94a-2fb1-45f2-94b1-2322bea97855"},"vehicle_type_id":"4","last_reported":1702231701,"current_range_meters":4000,"station_id":"ce4bh0h2rcd13ifvqd50","pricing_plan_id":"free"},{"bike_id":"dcaa49fd-aa34-4d07-8229-5e5e7ba5d9c2","system_id":"levelo_inurba_marseille","lat":43.286591,"lon":5.363346,"is_reserved":false,"is_disabled":false,"rental_uris":{"android":"levelo://app?vid=dcaa49fd-aa34-4d07-8229-5e5e7ba5d9c2","ios":"levelo://app?vid=dcaa49fd-aa34-4d07-8229-5e5e7ba5d9c2"},"vehicle_type_id":"4","last_reported":1702231701,"current_range_meters":22800,"station_id":"ce4bhah2rcd13ifvqej0","pricing_plan_id":"free"},{"bike_id":"743c9578-b8f3-4e30-9547-3f47d37efa14","system_id":"levelo_inurba_marseille","lat":43.286591,"lon":5.363346,"is_reserved":false,"is_disabled":false,"rental_uris":{"android":"levelo://app?vid=743c9578-b8f3-4e30-9547-3f47d37efa14","ios":"levelo://app?vid=743c9578-b8f3-4e30-9547-3f47d37efa14"},"vehicle_type_id":"4","last_reported":1702231701,"current_range_meters":26400,"station_id":"ce4bhah2rcd13ifvqej0","pricing_plan_id":"free"},{"bike_id":"dbbc3d52-7c83-4c21-8811-70473d55207d","system_id":"levelo_inurba_marseille","lat":43.290345,"lon":5.38646,"is_reserved":false,"is_disabled":false,"rental_uris":{"android":"levelo://app?vid=dbbc3d52-7c83-4c21-8811-70473d55207d","ios":"levelo://app?vid=dbbc3d52-7c83-4c21-8811-70473d55207d"},"vehicle_type_id":"4","last_reported":1702231701,"current_range_meters":2000,"station_id":"ce4bh4p2rcd13ifvqe0g","pricing_plan_id":"free"},{"bike_id":"06bca111-9661-4572-ad95-8bcccb0d7373","system_id":"levelo_inurba_marseille","lat":43.302485,"lon":5.400793,"is_reserved":false,"is_disabled":false,"rental_uris":{"android":"levelo://app?vid=06bca111-9661-4572-ad95-8bcccb0d7373","ios":"levelo://app?vid=06bca111-9661-4572-ad95-8bcccb0d7373"},"vehicle_type_id":"4","last_reported":1702231701,"current_range_meters":0,"station_id":"ce4bgvh2rcd13ifvqcs0","pricing_plan_id":"free"},{"bike_id":"a36a9510-a84b-4d65-80f0-bea0bd430ee1","system_id":"levelo_inurba_marseille","lat":43.291994,"lon":5.392907,"is_reserved":false,"is_disabled":false,"rental_uris":{"android":"levelo://app?vid=a36a9510-a84b-4d65-80f0-bea0bd430ee1","ios":"levelo://app?vid=a36a9510-a84b-4d65-80f0-bea0bd430ee1"},"vehicle_type_id":"4","last_reported":1702231701,"current_range_meters":1600,"station_id":"ce4bh192rcd13ifvqdd0","pricing_plan_id":"free"},{"bike_id":"c9bdfd9d-659c-41a7-9d9b-4c86251ef96c","system_id":"levelo_inurba_marseille","lat":43.28463,"lon":5.35888,"is_reserved":false,"is_disabled":false,"rental_uris":{"android":"levelo://app?vid=c9bdfd9d-659c-41a7-9d9b-4c86251ef96c","ios":"levelo://app?vid=c9bdfd9d-659c-41a7-9d9b-4c86251ef96c"},"vehicle_type_id":"4","last_reported":1702231701,"current_range_meters":20000,"station_id":"ce4bhah2rcd13ifvqei0","pricing_plan_id":"free"},{"bike_id":"7e6adb79-d0a0-4bfc-8bc7-d73d960440e0","system_id":"levelo_inurba_marseille","lat":43.28461,"lon":5.35883,"is_reserved":false,"is_disabled":false,"rental_uris":{"android":"levelo://app?vid=7e6adb79-d0a0-4bfc-8bc7-d73d960440e0","ios":"levelo://app?vid=7e6adb79-d0a0-4bfc-8bc7-d73d960440e0"},"vehicle_type_id":"4","last_reported":1702231701,"current_range_meters":23600,"station_id":"ce4bhah2rcd13ifvqei0","pricing_plan_id":"free"},{"bike_id":"54eca29a-728b-41f2-b50a-77a0d433362e","system_id":"levelo_inurba_marseille","lat":43.284587,"lon":5.3589,"is_reserved":false,"is_disabled":false,"rental_uris":{"android":"levelo://app?vid=54eca29a-728b-41f2-b50a-77a0d433362e","ios":"levelo://app?vid=54eca29a-728b-41f2-b50a-77a0d433362e"},"vehicle_type_id":"4","last_reported":1702231701,"current_range_meters":19600,"station_id":"ce4bhah2rcd13ifvqei0","pricing_plan_id":"free"},{"bike_id":"a864b496-4175-421d-a32b-6c3b511474cb","system_id":"levelo_inurba_marseille","lat":43.28456,"lon":5.35896,"is_reserved":false,"is_disabled":false,"rental_uris":{"android":"levelo://app?vid=a864b496-4175-421d-a32b-6c3b511474cb","ios":"levelo://app?vid=a864b496-4175-421d-a32b-6c3b511474cb"},"vehicle_type_id":"4","last_reported":1702231701,"current_range_meters":21200,"station_id":"ce4bhah2rcd13ifvqei0","pricing_plan_id":"free"},{"bike_id":"25abb136-3c34-4966-a7ae-66a1e6ac7379","system_id":"levelo_inurba_marseille","lat":43.28456,"lon":5.35894,"is_reserved":false,"is_disabled":false,"rental_uris":{"android":"levelo://app?vid=25abb136-3c34-4966-a7ae-66a1e6ac7379","ios":"levelo://app?vid=25abb136-3c34-4966-a7ae-66a1e6ac7379"},"vehicle_type_id":"4","last_reported":1702231701,"current_range_meters":17600,"station_id":"ce4bhah2rcd13ifvqei0","pricing_plan_id":"free"},{"bike_id":"119ee8e3-fa65-44d6-bb3b-11d0d77085d3","system_id":"levelo_inurba_marseille","lat":43.28455,"lon":5.35893,"is_reserved":false,"is_disabled":false,"rental_uris":{"android":"levelo://app?vid=119ee8e3-fa65-44d6-bb3b-11d0d77085d3","ios":"levelo://app?vid=119ee8e3-fa65-44d6-bb3b-11d0d77085d3"},"vehicle_type_id":"4","last_reported":1702231701,"current_range_meters":18400,"station_id":"ce4bhah2rcd13ifvqei0","pricing_plan_id":"free"},{"bike_id":"785c37c5-b843-4aab-9969-4591f6fc52ec","system_id":"levelo_inurba_marseille","lat":43.28455,"lon":5.35889,"is_reserved":false,"is_disabled":false,"rental_uris":{"android":"levelo://app?vid=785c37c5-b843-4aab-9969-4591f6fc52ec","ios":"levelo://app?vid=785c37c5-b843-4aab-9969-4591f6fc52ec"},"vehicle_type_id":"4","last_reported":1702231701,"current_range_meters":31200,"station_id":"ce4bhah2rcd13ifvqei0","pricing_plan_id":"free"},{"bike_id":"fa8fc40c-2bf2-4cc0-bee7-a0e4d72c9a1d","system_id":"levelo_inurba_marseille","lat":43.28453,"lon":5.35896,"is_reserved":false,"is_disabled":false,"rental_uris":{"android":"levelo://app?vid=fa8fc40c-2bf2-4cc0-bee7-a0e4d72c9a1d","ios":"levelo://app?vid=fa8fc40c-2bf2-4cc0-bee7-a0e4d72c9a1d"},"vehicle_type_id":"4","last_reported":1702231701,"current_range_meters":16000,"station_id":"ce4bhah2rcd13ifvqei0","pricing_plan_id":"free"},{"bike_id":"3f8e14cd-3867-434e-9465-ac73c9cfc25f","system_id":"levelo_inurba_marseille","lat":43.284504,"lon":5.359022,"is_reserved":false,"is_disabled":false,"rental_uris":{"android":"levelo://app?vid=3f8e14cd-3867-434e-9465-ac73c9cfc25f","ios":"levelo://app?vid=3f8e14cd-3867-434e-9465-ac73c9cfc25f"},"vehicle_type_id":"4","last_reported":1702231701,"current_range_meters":31200,"station_id":"ce4bhah2rcd13ifvqei0","pricing_plan_id":"free"},{"bike_id":"ee45295d-d2ac-4bad-b547-2e77e282c6d5","system_id":"levelo_inurba_marseille","lat":43.28452,"lon":5.35891,"is_reserved":false,"is_disabled":false,"rental_uris":{"android":"levelo://app?vid=ee45295d-d2ac-4bad-b547-2e77e282c6d5","ios":"levelo://app?vid=ee45295d-d2ac-4bad-b547-2e77e282c6d5"},"vehicle_type_id":"4","last_reported":1702231701,"current_range_meters":29600,"station_id":"ce4bhah2rcd13ifvqei0","pricing_plan_id":"free"},{"bike_id":"64fe99bf-1064-4561-a3b5-f86a9f6b520a","system_id":"levelo_inurba_marseille","lat":43.284493,"lon":5.358889,"is_reserved":false,"is_disabled":false,"rental_uris":{"android":"levelo://app?vid=64fe99bf-1064-4561-a3b5-f86a9f6b520a","ios":"levelo://app?vid=64fe99bf-1064-4561-a3b5-f86a9f6b520a"},"vehicle_type_id":"4","last_reported":1702231701,"current_range_meters":30000,"station_id":"ce4bhah2rcd13ifvqei0","pricing_plan_id":"free"},{"bike_id":"f1b5cdb2-7df3-4e18-9ce9-10081cd786b8","system_id":"levelo_inurba_marseille","lat":43.284155,"lon":5.375884,"is_reserved":false,"is_disabled":false,"rental_uris":{"android":"levelo://app?vid=f1b5cdb2-7df3-4e18-9ce9-10081cd786b8","ios":"levelo://app?vid=f1b5cdb2-7df3-4e18-9ce9-10081cd786b8"},"vehicle_type_id":"4","last_reported":1702231701,"current_range_meters":0,"station_id":"","pricing_plan_id":"free"},{"bike_id":"db0f7655-4d86-4d0c-86cd-8ca3c853afbc","system_id":"levelo_inurba_marseille","lat":43.286595,"lon":5.386795,"is_reserved":false,"is_disabled":false,"rental_uris":{"android":"levelo://app?vid=db0f7655-4d86-4d0c-86cd-8ca3c853afbc","ios":"levelo://app?vid=db0f7655-4d86-4d0c-86cd-8ca3c853afbc"},"vehicle_type_id":"4","last_reported":1702231701,"current_range_meters":3200,"station_id":"ce4bh492rcd13ifvqdug","pricing_plan_id":"free"},{"bike_id":"0a675db9-5b44-4c9b-879a-3c672eb082f9","system_id":"levelo_inurba_marseille","lat":43.323464,"lon":5.406297,"is_reserved":false,"is_disabled":false,"rental_uris":{"android":"levelo://app?vid=0a675db9-5b44-4c9b-879a-3c672eb082f9","ios":"levelo://app?vid=0a675db9-5b44-4c9b-879a-3c672eb082f9"},"vehicle_type_id":"4","last_reported":1702231701,"current_range_meters":23200,"station_id":"ce4bhq92rcd13ifvqhjg","pricing_plan_id":"free"},{"bike_id":"223ebb3c-d3e5-4967-bf36-c430261773ad","system_id":"levelo_inurba_marseille","lat":43.288501,"lon":5.393087,"is_reserved":false,"is_disabled":false,"rental_uris":{"android":"levelo://app?vid=223ebb3c-d3e5-4967-bf36-c430261773ad","ios":"levelo://app?vid=223ebb3c-d3e5-4967-bf36-c430261773ad"},"vehicle_type_id":"4","last_reported":1702231701,"current_range_meters":25200,"station_id":"ce4bh2p2rcd13ifvqdi0","pricing_plan_id":"free"},{"bike_id":"400a59c7-9ad9-4d7d-b304-5c56c8ab1352","system_id":"levelo_inurba_marseille","lat":43.292724,"lon":5.401131,"is_reserved":false,"is_disabled":false,"rental_uris":{"android":"levelo://app?vid=400a59c7-9ad9-4d7d-b304-5c56c8ab1352","ios":"levelo://app?vid=400a59c7-9ad9-4d7d-b304-5c56c8ab1352"},"vehicle_type_id":"4","last_reported":1702231701,"current_range_meters":0,"station_id":"ce4bh312rcd13ifvqdk0","pricing_plan_id":"free"},{"bike_id":"06daeba5-4b52-4862-bdf3-3a5fc40a942d","system_id":"levelo_inurba_marseille","lat":43.292724,"lon":5.401131,"is_reserved":false,"is_disabled":false,"rental_uris":{"android":"levelo://app?vid=06daeba5-4b52-4862-bdf3-3a5fc40a942d","ios":"levelo://app?vid=06daeba5-4b52-4862-bdf3-3a5fc40a942d"},"vehicle_type_id":"4","last_reported":1702231701,"current_range_meters":0,"station_id":"ce4bh312rcd13ifvqdk0","pricing_plan_id":"free"},{"bike_id":"8892afcc-75a6-406a-8efb-f34202a8eab7","system_id":"levelo_inurba_marseille","lat":43.29274,"lon":5.40129,"is_reserved":false,"is_disabled":false,"rental_uris":{"android":"levelo://app?vid=8892afcc-75a6-406a-8efb-f34202a8eab7","ios":"levelo://app?vid=8892afcc-75a6-406a-8efb-f34202a8eab7"},"vehicle_type_id":"4","last_reported":1702231701,"current_range_meters":0,"station_id":"ce4bh312rcd13ifvqdk0","pricing_plan_id":"free"},{"bike_id":"93c89498-1772-428f-a2d2-c1a30868cdb3","system_id":"levelo_inurba_marseille","lat":43.282754,"lon":5.350519,"is_reserved":false,"is_disabled":false,"rental_uris":{"android":"levelo://app?vid=93c89498-1772-428f-a2d2-c1a30868cdb3","ios":"levelo://app?vid=93c89498-1772-428f-a2d2-c1a30868cdb3"},"vehicle_type_id":"4","last_reported":1702231701,"current_range_meters":800,"station_id":"ce4bhbp2rcd13ifvqerg","pricing_plan_id":"free"},{"bike_id":"eec56870-9a62-41e6-ac60-2575abe11d23","system_id":"levelo_inurba_marseille","lat":43.28043,"lon":5.36936,"is_reserved":false,"is_disabled":false,"rental_uris":{"android":"levelo://app?vid=eec56870-9a62-41e6-ac60-2575abe11d23","ios":"levelo://app?vid=eec56870-9a62-41e6-ac60-2575abe11d23"},"vehicle_type_id":"4","last_reported":1702231701,"current_range_meters":400,"station_id":"ce4bha12rcd13ifvqef0","pricing_plan_id":"free"},{"bike_id":"abcda9e3-1980-418d-992a-1140197b04df","system_id":"levelo_inurba_marseille","lat":43.283565,"lon":5.386413,"is_reserved":false,"is_disabled":false,"rental_uris":{"android":"levelo://app?vid=abcda9e3-1980-418d-992a-1140197b04df","ios":"levelo://app?vid=abcda9e3-1980-418d-992a-1140197b04df"},"vehicle_type_id":"4","last_reported":1702231701,"current_range_meters":0,"station_id":"ce4bh492rcd13ifvqdvg","pricing_plan_id":"free"},{"bike_id":"48a4d9fe-fdc0-4cd0-9ac0-baf0bd45d62b","system_id":"levelo_inurba_marseille","lat":43.28033,"lon":5.36938,"is_reserved":false,"is_disabled":false,"rental_uris":{"android":"levelo://app?vid=48a4d9fe-fdc0-4cd0-9ac0-baf0bd45d62b","ios":"levelo://app?vid=48a4d9fe-fdc0-4cd0-9ac0-baf0bd45d62b"},"vehicle_type_id":"4","last_reported":1702231701,"current_range_meters":3200,"station_id":"ce4bha12rcd13ifvqef0","pricing_plan_id":"free"},{"bike_id":"e3de3e89-326e-46aa-8636-9e843a3feddb","system_id":"levelo_inurba_marseille","lat":43.281044,"lon":5.378308,"is_reserved":false,"is_disabled":false,"rental_uris":{"android":"levelo://app?vid=e3de3e89-326e-46aa-8636-9e843a3feddb","ios":"levelo://app?vid=e3de3e89-326e-46aa-8636-9e843a3feddb"},"vehicle_type_id":"4","last_reported":1702231701,"current_range_meters":24000,"station_id":"ce4bha12rcd13ifvqee0","pricing_plan_id":"free"},{"bike_id":"01d810e8-126f-4170-97db-edd4e7b159e0","system_id":"levelo_inurba_marseille","lat":43.284462,"lon":5.392121,"is_reserved":false,"is_disabled":false,"rental_uris":{"android":"levelo://app?vid=01d810e8-126f-4170-97db-edd4e7b159e0","ios":"levelo://app?vid=01d810e8-126f-4170-97db-edd4e7b159e0"},"vehicle_type_id":"4","last_reported":1702231701,"current_range_meters":24000,"station_id":"ce4bhoh2rcd13ifvqh5g","pricing_plan_id":"free"},{"bike_id":"5ee7e84f-5922-43a2-9c96-8b27c780e2f4","system_id":"levelo_inurba_marseille","lat":43.284462,"lon":5.392121,"is_reserved":false,"is_disabled":false,"rental_uris":{"android":"levelo://app?vid=5ee7e84f-5922-43a2-9c96-8b27c780e2f4","ios":"levelo://app?vid=5ee7e84f-5922-43a2-9c96-8b27c780e2f4"},"vehicle_type_id":"4","last_reported":1702231701,"current_range_meters":6800,"station_id":"ce4bhoh2rcd13ifvqh5g","pricing_plan_id":"free"},{"bike_id":"ad77bbf9-aeeb-47ea-8cb0-3fb230492363","system_id":"levelo_inurba_marseille","lat":43.28573,"lon":5.394992,"is_reserved":false,"is_disabled":false,"rental_uris":{"android":"levelo://app?vid=ad77bbf9-aeeb-47ea-8cb0-3fb230492363","ios":"levelo://app?vid=ad77bbf9-aeeb-47ea-8cb0-3fb230492363"},"vehicle_type_id":"4","last_reported":1702231701,"current_range_meters":14400,"station_id":"ce4bh292rcd13ifvqdg0","pricing_plan_id":"free"},{"bike_id":"6da20e4a-29d3-46f6-9d42-34f66f2f25f0","system_id":"levelo_inurba_marseille","lat":43.299577,"lon":5.413277,"is_reserved":false,"is_disabled":false,"rental_uris":{"android":"levelo://app?vid=6da20e4a-29d3-46f6-9d42-34f66f2f25f0","ios":"levelo://app?vid=6da20e4a-29d3-46f6-9d42-34f66f2f25f0"},"vehicle_type_id":"4","last_reported":1702231701,"current_range_meters":22400,"station_id":"ce4bhp12rcd13ifvqh9g","pricing_plan_id":"free"},{"bike_id":"a74651b3-6159-4ec3-a0fa-c17553737f86","system_id":"levelo_inurba_marseille","lat":43.279742,"lon":5.38744,"is_reserved":false,"is_disabled":false,"rental_uris":{"android":"levelo://app?vid=a74651b3-6159-4ec3-a0fa-c17553737f86","ios":"levelo://app?vid=a74651b3-6159-4ec3-a0fa-c17553737f86"},"vehicle_type_id":"4","last_reported":1702231701,"current_range_meters":17600,"station_id":"ce4bhg12rcd13ifvqf80","pricing_plan_id":"free"},{"bike_id":"9638eac7-dd02-4789-ae7e-65432f706640","system_id":"levelo_inurba_marseille","lat":43.280784,"lon":5.396622,"is_reserved":false,"is_disabled":false,"rental_uris":{"android":"levelo://app?vid=9638eac7-dd02-4789-ae7e-65432f706640","ios":"levelo://app?vid=9638eac7-dd02-4789-ae7e-65432f706640"},"vehicle_type_id":"4","last_reported":1702231701,"current_range_meters":20800,"station_id":"ce4bho12rcd13ifvqh2g","pricing_plan_id":"free"},{"bike_id":"ae50fddf-d47a-4db6-88d8-7864fffc4ddf","system_id":"levelo_inurba_marseille","lat":43.278401,"lon":5.392152,"is_reserved":false,"is_disabled":false,"rental_uris":{"android":"levelo://app?vid=ae50fddf-d47a-4db6-88d8-7864fffc4ddf","ios":"levelo://app?vid=ae50fddf-d47a-4db6-88d8-7864fffc4ddf"},"vehicle_type_id":"4","last_reported":1702231701,"current_range_meters":27200,"station_id":"ce4bhjp2rcd13ifvqga0","pricing_plan_id":"free"},{"bike_id":"bdc02cd0-273d-410a-a6f6-f9509807fd04","system_id":"levelo_inurba_marseille","lat":43.336134,"lon":5.410341,"is_reserved":false,"is_disabled":false,"rental_uris":{"android":"levelo://app?vid=bdc02cd0-273d-410a-a6f6-f9509807fd04","ios":"levelo://app?vid=bdc02cd0-273d-410a-a6f6-f9509807fd04"},"vehicle_type_id":"4","last_reported":1702231701,"current_range_meters":11200,"station_id":"ce4bhqh2rcd13ifvqhmg","pricing_plan_id":"free"},{"bike_id":"b49195d1-5252-4b63-9ddd-c39017071e00","system_id":"levelo_inurba_marseille","lat":43.27639,"lon":5.39485,"is_reserved":false,"is_disabled":false,"rental_uris":{"android":"levelo://app?vid=b49195d1-5252-4b63-9ddd-c39017071e00","ios":"levelo://app?vid=b49195d1-5252-4b63-9ddd-c39017071e00"},"vehicle_type_id":"4","last_reported":1702231701,"current_range_meters":18000,"station_id":"","pricing_plan_id":"free"},{"bike_id":"63133364-316e-458e-b234-bbd4926c63fc","system_id":"levelo_inurba_marseille","lat":43.27583,"lon":5.39474,"is_reserved":false,"is_disabled":false,"rental_uris":{"android":"levelo://app?vid=63133364-316e-458e-b234-bbd4926c63fc","ios":"levelo://app?vid=63133364-316e-458e-b234-bbd4926c63fc"},"vehicle_type_id":"4","last_reported":1702231701,"current_range_meters":2800,"station_id":"","pricing_plan_id":"free"},{"bike_id":"e6fa82c7-9b8c-4159-b744-915cffa5cbd5","system_id":"levelo_inurba_marseille","lat":43.304096,"lon":5.425385,"is_reserved":false,"is_disabled":false,"rental_uris":{"android":"levelo://app?vid=e6fa82c7-9b8c-4159-b744-915cffa5cbd5","ios":"levelo://app?vid=e6fa82c7-9b8c-4159-b744-915cffa5cbd5"},"vehicle_type_id":"4","last_reported":1702231701,"current_range_meters":12000,"station_id":"ce4bhoh2rcd13ifvqh6g","pricing_plan_id":"free"},{"bike_id":"4b592d42-3227-4336-8bfa-03f1508edf63","system_id":"levelo_inurba_marseille","lat":43.30415,"lon":5.42539,"is_reserved":false,"is_disabled":false,"rental_uris":{"android":"levelo://app?vid=4b592d42-3227-4336-8bfa-03f1508edf63","ios":"levelo://app?vid=4b592d42-3227-4336-8bfa-03f1508edf63"},"vehicle_type_id":"4","last_reported":1702231701,"current_range_meters":20800,"station_id":"ce4bhoh2rcd13ifvqh6g","pricing_plan_id":"free"},{"bike_id":"b97b56e0-6c5f-4636-9523-78734a8d3e3e","system_id":"levelo_inurba_marseille","lat":43.278128,"lon":5.407195,"is_reserved":false,"is_disabled":false,"rental_uris":{"android":"levelo://app?vid=b97b56e0-6c5f-4636-9523-78734a8d3e3e","ios":"levelo://app?vid=b97b56e0-6c5f-4636-9523-78734a8d3e3e"},"vehicle_type_id":"4","last_reported":1702231701,"current_range_meters":25200,"station_id":"ce4bhnh2rcd13ifvqgtg","pricing_plan_id":"free"},{"bike_id":"785aa56a-d909-44d2-b33a-7c27cfa20d05","system_id":"levelo_inurba_marseille","lat":43.278128,"lon":5.407195,"is_reserved":false,"is_disabled":false,"rental_uris":{"android":"levelo://app?vid=785aa56a-d909-44d2-b33a-7c27cfa20d05","ios":"levelo://app?vid=785aa56a-d909-44d2-b33a-7c27cfa20d05"},"vehicle_type_id":"4","last_reported":1702231701,"current_range_meters":4800,"station_id":"ce4bhnh2rcd13ifvqgtg","pricing_plan_id":"free"},{"bike_id":"cc782833-78d1-4a61-b0c7-9863f91d36fc","system_id":"levelo_inurba_marseille","lat":43.278128,"lon":5.407195,"is_reserved":false,"is_disabled":false,"rental_uris":{"android":"levelo://app?vid=cc782833-78d1-4a61-b0c7-9863f91d36fc","ios":"levelo://app?vid=cc782833-78d1-4a61-b0c7-9863f91d36fc"},"vehicle_type_id":"4","last_reported":1702231701,"current_range_meters":6400,"station_id":"ce4bhnh2rcd13ifvqgtg","pricing_plan_id":"free"},{"bike_id":"c92b2869-dae8-4727-a126-c1deb1cd64a7","system_id":"levelo_inurba_marseille","lat":43.279465,"lon":5.410561,"is_reserved":false,"is_disabled":false,"rental_uris":{"android":"levelo://app?vid=c92b2869-dae8-4727-a126-c1deb1cd64a7","ios":"levelo://app?vid=c92b2869-dae8-4727-a126-c1deb1cd64a7"},"vehicle_type_id":"4","last_reported":1702231701,"current_range_meters":18400,"station_id":"ce4bhnp2rcd13ifvqh0g","pricing_plan_id":"free"},{"bike_id":"6541afb9-7aa9-40b3-9870-99428645670e","system_id":"levelo_inurba_marseille","lat":43.26778,"lon":5.3942,"is_reserved":false,"is_disabled":false,"rental_uris":{"android":"levelo://app?vid=6541afb9-7aa9-40b3-9870-99428645670e","ios":"levelo://app?vid=6541afb9-7aa9-40b3-9870-99428645670e"},"vehicle_type_id":"4","last_reported":1702231701,"current_range_meters":400,"station_id":"ce4bhh12rcd13ifvqfg0","pricing_plan_id":"free"},{"bike_id":"287e9254-f263-4a4d-afd9-500f2b256a68","system_id":"levelo_inurba_marseille","lat":43.2616,"lon":5.37423,"is_reserved":false,"is_disabled":false,"rental_uris":{"android":"levelo://app?vid=287e9254-f263-4a4d-afd9-500f2b256a68","ios":"levelo://app?vid=287e9254-f263-4a4d-afd9-500f2b256a68"},"vehicle_type_id":"4","last_reported":1702231701,"current_range_meters":26800,"station_id":"ce4bhgp2rcd13ifvqfc0","pricing_plan_id":"free"},{"bike_id":"b415c3f6-eff2-4aa1-901a-3aa510fe5885","system_id":"levelo_inurba_marseille","lat":43.271388,"lon":5.409269,"is_reserved":false,"is_disabled":false,"rental_uris":{"android":"levelo://app?vid=b415c3f6-eff2-4aa1-901a-3aa510fe5885","ios":"levelo://app?vid=b415c3f6-eff2-4aa1-901a-3aa510fe5885"},"vehicle_type_id":"4","last_reported":1702231701,"current_range_meters":1200,"station_id":"ce4bhl12rcd13ifvqgf0","pricing_plan_id":"free"},{"bike_id":"bba8858e-2565-4fb8-b7f5-1043d9f538d1","system_id":"levelo_inurba_marseille","lat":43.298768,"lon":5.43643,"is_reserved":false,"is_disabled":false,"rental_uris":{"android":"levelo://app?vid=bba8858e-2565-4fb8-b7f5-1043d9f538d1","ios":"levelo://app?vid=bba8858e-2565-4fb8-b7f5-1043d9f538d1"},"vehicle_type_id":"4","last_reported":1702231701,"current_range_meters":19200,"station_id":"ce4bhpp2rcd13ifvqhfg","pricing_plan_id":"free"},{"bike_id":"3de0a6a1-4453-486c-a1ba-fc284c4c0e2c","system_id":"levelo_inurba_marseille","lat":43.298768,"lon":5.43643,"is_reserved":false,"is_disabled":false,"rental_uris":{"android":"levelo://app?vid=3de0a6a1-4453-486c-a1ba-fc284c4c0e2c","ios":"levelo://app?vid=3de0a6a1-4453-486c-a1ba-fc284c4c0e2c"},"vehicle_type_id":"4","last_reported":1702231701,"current_range_meters":18400,"station_id":"ce4bhpp2rcd13ifvqhfg","pricing_plan_id":"free"},{"bike_id":"4891a837-5e91-4750-ba1b-e095e2c3b9ce","system_id":"levelo_inurba_marseille","lat":43.295511,"lon":5.422926,"is_reserved":false,"is_disabled":false,"rental_uris":{"android":"levelo://app?vid=4891a837-5e91-4750-ba1b-e095e2c3b9ce","ios":"levelo://app?vid=4891a837-5e91-4750-ba1b-e095e2c3b9ce"},"vehicle_type_id":"4","last_reported":1702231701,"current_range_meters":16800,"station_id":"ce4bhph2rcd13ifvqhdg","pricing_plan_id":"free"},{"bike_id":"565786fa-eb1c-4c71-9970-60c79fca54bc","system_id":"levelo_inurba_marseille","lat":43.281548,"lon":5.42643,"is_reserved":false,"is_disabled":false,"rental_uris":{"android":"levelo://app?vid=565786fa-eb1c-4c71-9970-60c79fca54bc","ios":"levelo://app?vid=565786fa-eb1c-4c71-9970-60c79fca54bc"},"vehicle_type_id":"4","last_reported":1702231701,"current_range_meters":2400,"station_id":"ce4bhnh2rcd13ifvqgug","pricing_plan_id":"free"},{"bike_id":"90188d6f-a681-4a1a-8d65-fe11addc178e","system_id":"levelo_inurba_marseille","lat":43.26066,"lon":5.39389,"is_reserved":false,"is_disabled":false,"rental_uris":{"android":"levelo://app?vid=90188d6f-a681-4a1a-8d65-fe11addc178e","ios":"levelo://app?vid=90188d6f-a681-4a1a-8d65-fe11addc178e"},"vehicle_type_id":"4","last_reported":1702231701,"current_range_meters":0,"station_id":"ce4bhh92rcd13ifvqfj0","pricing_plan_id":"free"},{"bike_id":"911862de-4921-4af8-99fc-8adbf071a664","system_id":"levelo_inurba_marseille","lat":43.2607,"lon":5.393983,"is_reserved":false,"is_disabled":false,"rental_uris":{"android":"levelo://app?vid=911862de-4921-4af8-99fc-8adbf071a664","ios":"levelo://app?vid=911862de-4921-4af8-99fc-8adbf071a664"},"vehicle_type_id":"4","last_reported":1702231701,"current_range_meters":0,"station_id":"ce4bhh92rcd13ifvqfj0","pricing_plan_id":"free"},{"bike_id":"6c7a4d38-e522-47d3-9eef-64a42f5cb103","system_id":"levelo_inurba_marseille","lat":43.258224,"lon":5.394369,"is_reserved":false,"is_disabled":false,"rental_uris":{"android":"levelo://app?vid=6c7a4d38-e522-47d3-9eef-64a42f5cb103","ios":"levelo://app?vid=6c7a4d38-e522-47d3-9eef-64a42f5cb103"},"vehicle_type_id":"4","last_reported":1702231701,"current_range_meters":29200,"station_id":"ce4bhip2rcd13ifvqft0","pricing_plan_id":"free"},{"bike_id":"f2b52594-a15f-4b0a-b4da-a5ec557ca0d8","system_id":"levelo_inurba_marseille","lat":43.258224,"lon":5.394369,"is_reserved":false,"is_disabled":false,"rental_uris":{"android":"levelo://app?vid=f2b52594-a15f-4b0a-b4da-a5ec557ca0d8","ios":"levelo://app?vid=f2b52594-a15f-4b0a-b4da-a5ec557ca0d8"},"vehicle_type_id":"4","last_reported":1702231701,"current_range_meters":14800,"station_id":"ce4bhip2rcd13ifvqft0","pricing_plan_id":"free"},{"bike_id":"6d5fde86-ed5d-4075-80bf-bb30ce6e88cf","system_id":"levelo_inurba_marseille","lat":43.25862,"lon":5.39902,"is_reserved":false,"is_disabled":false,"rental_uris":{"android":"levelo://app?vid=6d5fde86-ed5d-4075-80bf-bb30ce6e88cf","ios":"levelo://app?vid=6d5fde86-ed5d-4075-80bf-bb30ce6e88cf"},"vehicle_type_id":"4","last_reported":1702231701,"current_range_meters":14800,"station_id":"ce4bhl92rcd13ifvqghg","pricing_plan_id":"free"},{"bike_id":"b4408aed-a663-49ff-a72e-60a86d2103cd","system_id":"levelo_inurba_marseille","lat":43.25929,"lon":5.40919,"is_reserved":false,"is_disabled":false,"rental_uris":{"android":"levelo://app?vid=b4408aed-a663-49ff-a72e-60a86d2103cd","ios":"levelo://app?vid=b4408aed-a663-49ff-a72e-60a86d2103cd"},"vehicle_type_id":"4","last_reported":1702231701,"current_range_meters":3200,"station_id":"ce4bhm92rcd13ifvqglg","pricing_plan_id":"free"},{"bike_id":"12cad532-059e-430e-8687-280170c85cfb","system_id":"levelo_inurba_marseille","lat":43.257079,"lon":5.411051,"is_reserved":false,"is_disabled":false,"rental_uris":{"android":"levelo://app?vid=12cad532-059e-430e-8687-280170c85cfb","ios":"levelo://app?vid=12cad532-059e-430e-8687-280170c85cfb"},"vehicle_type_id":"4","last_reported":1702231701,"current_range_meters":9200,"station_id":"ce4bhkp2rcd13ifvqgd0","pricing_plan_id":"free"},{"bike_id":"548bdd7c-bb01-4420-a166-3de6bf59d824","system_id":"levelo_inurba_marseille","lat":43.257203,"lon":5.41116,"is_reserved":false,"is_disabled":false,"rental_uris":{"android":"levelo://app?vid=548bdd7c-bb01-4420-a166-3de6bf59d824","ios":"levelo://app?vid=548bdd7c-bb01-4420-a166-3de6bf59d824"},"vehicle_type_id":"4","last_reported":1702231701,"current_range_meters":21600,"station_id":"ce4bhkp2rcd13ifvqgd0","pricing_plan_id":"free"},{"bike_id":"00a5b07a-b2a0-4584-b6c3-5aa7c74e4aa3","system_id":"levelo_inurba_marseille","lat":43.250009,"lon":5.389195,"is_reserved":false,"is_disabled":false,"rental_uris":{"android":"levelo://app?vid=00a5b07a-b2a0-4584-b6c3-5aa7c74e4aa3","ios":"levelo://app?vid=00a5b07a-b2a0-4584-b6c3-5aa7c74e4aa3"},"vehicle_type_id":"4","last_reported":1702231701,"current_range_meters":26000,"station_id":"ce4bhgp2rcd13ifvqfd0","pricing_plan_id":"free"},{"bike_id":"e0eb6ebe-eca6-45f6-a068-57b3a31075c3","system_id":"levelo_inurba_marseille","lat":43.2479,"lon":5.374457,"is_reserved":false,"is_disabled":false,"rental_uris":{"android":"levelo://app?vid=e0eb6ebe-eca6-45f6-a068-57b3a31075c3","ios":"levelo://app?vid=e0eb6ebe-eca6-45f6-a068-57b3a31075c3"},"vehicle_type_id":"4","last_reported":1702231701,"current_range_meters":4400,"station_id":"ce4bhgh2rcd13ifvqfb0","pricing_plan_id":"free"},{"bike_id":"83f6e1d6-cd2e-4fad-bbb2-31522ab93d71","system_id":"levelo_inurba_marseille","lat":43.250966,"lon":5.395186,"is_reserved":false,"is_disabled":false,"rental_uris":{"android":"levelo://app?vid=83f6e1d6-cd2e-4fad-bbb2-31522ab93d71","ios":"levelo://app?vid=83f6e1d6-cd2e-4fad-bbb2-31522ab93d71"},"vehicle_type_id":"4","last_reported":1702231701,"current_range_meters":4800,"station_id":"ce4bhm12rcd13ifvqgkg","pricing_plan_id":"free"},{"bike_id":"b4c7d7d2-c0c6-40e1-bd48-3f6ac68f22b2","system_id":"levelo_inurba_marseille","lat":43.25102,"lon":5.403214,"is_reserved":false,"is_disabled":false,"rental_uris":{"android":"levelo://app?vid=b4c7d7d2-c0c6-40e1-bd48-3f6ac68f22b2","ios":"levelo://app?vid=b4c7d7d2-c0c6-40e1-bd48-3f6ac68f22b2"},"vehicle_type_id":"4","last_reported":1702231701,"current_range_meters":10000,"station_id":"ce4bhlh2rcd13ifvqgig","pricing_plan_id":"free"},{"bike_id":"1bb1c2bd-88e3-4f08-b197-73160dca12b7","system_id":"levelo_inurba_marseille","lat":43.25102,"lon":5.403214,"is_reserved":false,"is_disabled":false,"rental_uris":{"android":"levelo://app?vid=1bb1c2bd-88e3-4f08-b197-73160dca12b7","ios":"levelo://app?vid=1bb1c2bd-88e3-4f08-b197-73160dca12b7"},"vehicle_type_id":"4","last_reported":1702231701,"current_range_meters":2800,"station_id":"ce4bhlh2rcd13ifvqgig","pricing_plan_id":"free"},{"bike_id":"11869ed4-6484-4284-9616-3cde02eee067","system_id":"levelo_inurba_marseille","lat":43.246461,"lon":5.389014,"is_reserved":false,"is_disabled":false,"rental_uris":{"android":"levelo://app?vid=11869ed4-6484-4284-9616-3cde02eee067","ios":"levelo://app?vid=11869ed4-6484-4284-9616-3cde02eee067"},"vehicle_type_id":"4","last_reported":1702231701,"current_range_meters":29600,"station_id":"ce4bhg12rcd13ifvqf60","pricing_plan_id":"free"},{"bike_id":"e99f7d5f-12a1-4131-b431-e9a618fefa83","system_id":"levelo_inurba_marseille","lat":43.243884,"lon":5.370736,"is_reserved":false,"is_disabled":false,"rental_uris":{"android":"levelo://app?vid=e99f7d5f-12a1-4131-b431-e9a618fefa83","ios":"levelo://app?vid=e99f7d5f-12a1-4131-b431-e9a618fefa83"},"vehicle_type_id":"4","last_reported":1702231701,"current_range_meters":13200,"station_id":"ce4bhhh2rcd13ifvqfk0","pricing_plan_id":"free"},{"bike_id":"07e94e5d-294c-48fc-a9d7-3043712a08f2","system_id":"levelo_inurba_marseille","lat":43.240623,"lon":5.377642,"is_reserved":false,"is_disabled":false,"rental_uris":{"android":"levelo://app?vid=07e94e5d-294c-48fc-a9d7-3043712a08f2","ios":"levelo://app?vid=07e94e5d-294c-48fc-a9d7-3043712a08f2"},"vehicle_type_id":"4","last_reported":1702231701,"current_range_meters":18400,"station_id":"ce4bhnp2rcd13ifvqgvg","pricing_plan_id":"free"},{"bike_id":"ec018a64-19cc-4c66-902a-46a766854ba0","system_id":"levelo_inurba_marseille","lat":43.2318,"lon":5.39987,"is_reserved":false,"is_disabled":false,"rental_uris":{"android":"levelo://app?vid=ec018a64-19cc-4c66-902a-46a766854ba0","ios":"levelo://app?vid=ec018a64-19cc-4c66-902a-46a766854ba0"},"vehicle_type_id":"4","last_reported":1702231701,"current_range_meters":21200,"station_id":"ce4bhn12rcd13ifvqgqg","pricing_plan_id":"free"},{"bike_id":"0311697d-adf6-41de-9abf-d37af953c84b","system_id":"levelo_inurba_marseille","lat":43.231562,"lon":5.436933,"is_reserved":false,"is_disabled":false,"rental_uris":{"android":"levelo://app?vid=0311697d-adf6-41de-9abf-d37af953c84b","ios":"levelo://app?vid=0311697d-adf6-41de-9abf-d37af953c84b"},"vehicle_type_id":"4","last_reported":1702231701,"current_range_meters":6400,"station_id":"ce4bhmp2rcd13ifvqgog","pricing_plan_id":"free"}]}}