{"last_updated":1731683361,"ttl":60,"version":"2.2","data":{"bikes":[{"bike_id":"018f2baf-e35c-47de-9660-001d445723a2","system_id":"levelo_inurba_marseille","lat":43.29936,"lon":5.36557,"is_reserved":false,"is_disabled":false,"rental_uris":{"android":"levelo://app?vid=018f2baf-e35c-47de-9660-001d445723a2","ios":"levelo://app?vid=018f2baf-e35c-47de-9660-001d445723a2"},"vehicle_type_id":"4","last_reported":1731683361,"current_range_meters":35600,"station_id":"ce4bgm92rcd13ifvqbr0","pricing_plan_id":"cebpf4jnsgd1na2vs0mg"},{"bike_id":"46b61a2e-a264-4076-89c0-c966e9f59be0","system_id":"levelo_inurba_marseille","lat":43.28437,"lon":5.39193,"is_reserved":false,"is_disabled":false,"rental_uris":{"android":"levelo://app?vid=46b61a2e-a264-4076-89c0-c966e9f59be0","ios":"levelo://app?vid=46b61a2e-a264-4076-89c0-c966e9f59be0"},"vehicle_type_id":"4","last_reported":1731683361,"current_range_meters":4800,"station_id":"ce4bhoh2rcd13ifvqh5g","pricing_plan_id":"cebpf4jnsgd1na2vs0mg"},{"bike_id":"5856ad94-bc0e-4f57-993d-864d7234767f","system_id":"levelo_inurba_marseille","lat":43.33763,"lon":5.37483,"is_reserved":false,"is_disabled":false,"rental_uris":{"android":"levelo://app?vid=5856ad94-bc0e-4f57-993d-864d7234767f","ios":"levelo://app?vid=5856ad94-bc0e-4f57-993d-864d7234767f"},"vehicle_type_id":"4","last_reported":1731683361,"current_range_meters":37600,"station_id":"","pricing_plan_id":"cebpf4jnsgd1na2vs0mg"},{"bike_id":"e2182448-5403-4d13-9ed0-95420eadbbaf","system_id":"levelo_inurba_marseille","lat":43.31325,"lon":5.39698,"is_reserved":false,"is_disabled":false,"rental_uris":{"android":"levelo://app?vid=e2182448-5403-4d13-9ed0-95420eadbbaf","ios":"levelo://app?vid=e2182448-5403-4d13-9ed0-95420eadbbaf"},"vehicle_type_id":"4","last_reported":1731683361,"current_range_meters":24800,"station_id":"ce4bgvp2rcd13ifvqcu0","pricing_plan_id":"cebpf4jnsgd1na2vs0mg"},{"bike_id":"aa1a5ada-34e5-4ee8-8d26-1c510285f33e","system_id":"levelo_inurba_marseille","lat":43.26211,"lon":5.37441,"is_reserved":false,"is_disabled":false,"rental_uris":{"android":"levelo://app?vid=aa1a5ada-34e5-4ee8-8d26-1c510285f33e","ios":"levelo://app?vid=aa1a5ada-34e5-4ee8-8d26-1c510285f33e"},"vehicle_type_id":"4","last_reported":1731683361,"current_range_meters":34000,"station_id":"ce4bhgp2rcd13ifvqfc0","pricing_plan_id":"cebpf4jnsgd1na2vs0mg"},{"bike_id":"bba30ccd-2b4f-42d8-b68d-f3f8cfd6f6dd","system_id":"levelo_inurba_marseille","lat":43.31222,"lon":5.36858,"is_reserved":false,"is_disabled":false,"rental_uris":{"android":"levelo://app?vid=bba30ccd-2b4f-42d8-b68d-f3f8cfd6f6dd","ios":"levelo://app?vid=bba30ccd-2b4f-42d8-b68d-f3f8cfd6f6dd"},"vehicle_type_id":"4","last_reported":1731683361,"current_range_meters":35200,"station_id":"ce4bgl92rcd13ifvqbq0","pricing_plan_id":"cebpf4jnsgd1na2vs0mg"},{"bike_id":"7e0c73d0-43b5-4018-8c64-1a20755ac697","system_id":"levelo_inurba_marseille","lat":43.29021,"lon":5.38652,"is_reserved":false,"is_disabled":false,"rental_uris":{"android":"levelo://app?vid=7e0c73d0-43b5-4018-8c64-1a20755ac697","ios":"levelo://app?vid=7e0c73d0-43b5-4018-8c64-1a20755ac697"},"vehicle_type_id":"4","last_reported":1731683361,"current_range_meters":12800,"station_id":"ce4bh4p2rcd13ifvqe0g","pricing_plan_id":"cebpf4jnsgd1na2vs0mg"},{"bike_id":"6897c793-ba6d-4b62-9bc1-d29da293f968","system_id":"levelo_inurba_marseille","lat":43.31461,"lon":5.3673,"is_reserved":false,"is_disabled":false,"rental_uris":{"android":"levelo://app?vid=6897c793-ba6d-4b62-9bc1-d29da293f968","ios":"levelo://app?vid=6897c793-ba6d-4b62-9bc1-d29da293f968"},"vehicle_type_id":"4","last_reported":1731683361,"current_range_meters":38800,"station_id":"ce4bgr92rcd13ifvqc6g","pricing_plan_id":"cebpf4jnsgd1na2vs0mg"},{"bike_id":"89a04468-50e1-4c1a-ac98-9cdfdc504e64","system_id":"levelo_inurba_marseille","lat":43.33023,"lon":5.3904,"is_reserved":false,"is_disabled":false,"rental_uris":{"android":"levelo://app?vid=89a04468-50e1-4c1a-ac98-9cdfdc504e64","ios":"levelo://app?vid=89a04468-50e1-4c1a-ac98-9cdfdc504e64"},"vehicle_type_id":"4","last_reported":1731683361,"current_range_meters":38800,"station_id":"ce4bhr92rcd13ifvqhrg","pricing_plan_id":"cebpf4jnsgd1na2vs0mg"},{"bike_id":"f025dd98-2128-4d8e-bf6b-48869edf4c64","system_id":"levelo_inurba_marseille","lat":43.299819,"lon":5.371869,"is_reserved":false,"is_disabled":false,"rental_uris":{"android":"levelo://app?vid=f025dd98-2128-4d8e-bf6b-48869edf4c64","ios":"levelo://app?vid=f025dd98-2128-4d8e-bf6b-48869edf4c64"},"vehicle_type_id":"4","last_reported":1731683361,"current_range_meters":38800,"station_id":"ce4bgr92rcd13ifvqc7g","pricing_plan_id":"cebpf4jnsgd1na2vs0mg"},{"bike_id":"f2a1326c-923f-47e2-b344-6315629b34a5","system_id":"levelo_inurba_marseille","lat":43.28695,"lon":5.37404,"is_reserved":false,"is_disabled":false,"rental_uris":{"android":"levelo://app?vid=f2a1326c-923f-47e2-b344-6315629b34a5","ios":"levelo://app?vid=f2a1326c-923f-47e2-b344-6315629b34a5"},"vehicle_type_id":"4","last_reported":1731683361,"current_range_meters":35600,"station_id":"ce4bh3p2rcd13ifvqdq0","pricing_plan_id":"cebpf4jnsgd1na2vs0mg"},{"bike_id":"57ba65f1-355a-478e-a5df-832a0180f911","system_id":"levelo_inurba_marseille","lat":43.24387,"lon":5.37062,"is_reserved":false,"is_disabled":false,"rental_uris":{"android":"levelo://app?vid=57ba65f1-355a-478e-a5df-832a0180f911","ios":"levelo://app?vid=57ba65f1-355a-478e-a5df-832a0180f911"},"vehicle_type_id":"4","last_reported":1731683361,"current_range_meters":30400,"station_id":"ce4bhhh2rcd13ifvqfk0","pricing_plan_id":"cebpf4jnsgd1na2vs0mg"},{"bike_id":"3834b18a-95dc-4cc3-a656-7fe23aebdcc5","system_id":"levelo_inurba_marseille","lat":43.29518,"lon":5.39401,"is_reserved":false,"is_disabled":false,"rental_uris":{"android":"levelo://app?vid=3834b18a-95dc-4cc3-a656-7fe23aebdcc5","ios":"levelo://app?vid=3834b18a-95dc-4cc3-a656-7fe23aebdcc5"},"vehicle_type_id":"4","last_reported":1731683361,"current_range_meters":6400,"station_id":"ce4bh292rcd13ifvqdf0","pricing_plan_id":"cebpf4jnsgd1na2vs0mg"},{"bike_id":"7a662aab-1e9a-4423-90fc-af939fd156df","system_id":"levelo_inurba_marseille","lat":43.28267,"lon":5.35085,"is_reserved":false,"is_disabled":false,"rental_uris":{"android":"levelo://app?vid=7a662aab-1e9a-4423-90fc-af939fd156df","ios":"levelo://app?vid=7a662aab-1e9a-4423-90fc-af939fd156df"},"vehicle_type_id":"4","last_reported":1731683361,"current_range_meters":38800,"station_id":"ce4bhbp2rcd13ifvqerg","pricing_plan_id":"cebpf4jnsgd1na2vs0mg"},{"bike_id":"246962e0-6133-4c0a-8be6-425590141393","system_id":"levelo_inurba_marseille","lat":43.27806,"lon":5.40716,"is_reserved":false,"is_disabled":false,"rental_uris":{"android":"levelo://app?vid=246962e0-6133-4c0a-8be6-425590141393","ios":"levelo://app?vid=246962e0-6133-4c0a-8be6-425590141393"},"vehicle_type_id":"4","last_reported":1731683361,"current_range_meters":22800,"station_id":"ce4bhnh2rcd13ifvqgtg","pricing_plan_id":"cebpf4jnsgd1na2vs0mg"},{"bike_id":"2b5b4574-5d43-4c03-98f1-a97ed0d2f818","system_id":"levelo_inurba_marseille","lat":43.27363,"lon":5.36259,"is_reserved":false,"is_disabled":false,"rental_uris":{"android":"levelo://app?vid=2b5b4574-5d43-4c03-98f1-a97ed0d2f818","ios":"levelo://app?vid=2b5b4574-5d43-4c03-98f1-a97ed0d2f818"},"vehicle_type_id":"4","last_reported":1731683361,"current_range_meters":38800,"station_id":"ce4bhbh2rcd13ifvqeo0","pricing_plan_id":"cebpf4jnsgd1na2vs0mg"},{"bike_id":"a0721954-1a3f-425b-87d5-e4463e7bd4d1","system_id":"levelo_inurba_marseille","lat":43.31329,"lon":5.39698,"is_reserved":false,"is_disabled":false,"rental_uris":{"android":"levelo://app?vid=a0721954-1a3f-425b-87d5-e4463e7bd4d1","ios":"levelo://app?vid=a0721954-1a3f-425b-87d5-e4463e7bd4d1"},"vehicle_type_id":"4","last_reported":1731683361,"current_range_meters":39200,"station_id":"ce4bgvp2rcd13ifvqcu0","pricing_plan_id":"cebpf4jnsgd1na2vs0mg"},{"bike_id":"bf456e7e-3318-43eb-b5b6-172756a69b96","system_id":"levelo_inurba_marseille","lat":43.33755,"lon":5.37447,"is_reserved":false,"is_disabled":false,"rental_uris":{"android":"levelo://app?vid=bf456e7e-3318-43eb-b5b6-172756a69b96","ios":"levelo://app?vid=bf456e7e-3318-43eb-b5b6-172756a69b96"},"vehicle_type_id":"4","last_reported":1731683361,"current_range_meters":38800,"station_id":"","pricing_plan_id":"cebpf4jnsgd1na2vs0mg"},{"bike_id":"6e9e3d55-2e38-4cdf-abac-8ac745d6a88a","system_id":"levelo_inurba_marseille","lat":43.29615,"lon":5.38108,"is_reserved":false,"is_disabled":false,"rental_uris":{"android":"levelo://app?vid=6e9e3d55-2e38-4cdf-abac-8ac745d6a88a","ios":"levelo://app?vid=6e9e3d55-2e38-4cdf-abac-8ac745d6a88a"},"vehicle_type_id":"4","last_reported":1731683361,"current_range_meters":37600,"station_id":"ce4bgl12rcd13ifvqbo0","pricing_plan_id":"cebpf4jnsgd1na2vs0mg"},{"bike_id":"6b0ea79e-cb12-4a50-9845-e4686b3cacc8","system_id":"levelo_inurba_marseille","lat":43.295751,"lon":5.399791,"is_reserved":false,"is_disabled":false,"rental_uris":{"android":"levelo://app?vid=6b0ea79e-cb12-4a50-9845-e4686b3cacc8","ios":"levelo://app?vid=6b0ea79e-cb12-4a50-9845-e4686b3cacc8"},"vehicle_type_id":"4","last_reported":1731683361,"current_range_meters":18000,"station_id":"","pricing_plan_id":"cebpf4jnsgd1na2vs0mg"},{"bike_id":"1cadd580-d8fe-4579-a681-34c7f00df801","system_id":"levelo_inurba_marseille","lat":43.30245,"lon":5.39058,"is_reserved":false,"is_disabled":false,"rental_uris":{"android":"levelo://app?vid=1cadd580-d8fe-4579-a681-34c7f00df801","ios":"levelo://app?vid=1cadd580-d8fe-4579-a681-34c7f00df801"},"vehicle_type_id":"4","last_reported":1731683361,"current_range_meters":28000,"station_id":"ce4bgt92rcd13ifvqcf0","pricing_plan_id":"cebpf4jnsgd1na2vs0mg"},{"bike_id":"7a1dcc2f-5802-46f4-b78e-319db1197095","system_id":"levelo_inurba_marseille","lat":43.28939,"lon":5.36638,"is_reserved":false,"is_disabled":false,"rental_uris":{"android":"levelo://app?vid=7a1dcc2f-5802-46f4-b78e-319db1197095","ios":"levelo://app?vid=7a1dcc2f-5802-46f4-b78e-319db1197095"},"vehicle_type_id":"4","last_reported":1731683361,"current_range_meters":38400,"station_id":"ce4bhap2rcd13ifvqek0","pricing_plan_id":"cebpf4jnsgd1na2vs0mg"},{"bike_id":"4a74f469-1d99-48ee-a8ca-9199898c00a4","system_id":"levelo_inurba_marseille","lat":43.23197,"lon":5.35547,"is_reserved":false,"is_disabled":false,"rental_uris":{"android":"levelo://app?vid=4a74f469-1d99-48ee-a8ca-9199898c00a4","ios":"levelo://app?vid=4a74f469-1d99-48ee-a8ca-9199898c00a4"},"vehicle_type_id":"4","last_reported":1731683361,"current_range_meters":14800,"station_id":"ce4bhu92rcd13ifvqi70","pricing_plan_id":"cebpf4jnsgd1na2vs0mg"},{"bike_id":"cdc743f9-3d5b-4ed0-b21b-f62aa50c650a","system_id":"levelo_inurba_marseille","lat":43.28262,"lon":5.35066,"is_reserved":false,"is_disabled":false,"rental_uris":{"android":"levelo://app?vid=cdc743f9-3d5b-4ed0-b21b-f62aa50c650a","ios":"levelo://app?vid=cdc743f9-3d5b-4ed0-b21b-f62aa50c650a"},"vehicle_type_id":"4","last_reported":1731683361,"current_range_meters":16400,"station_id":"ce4bhbp2rcd13ifvqerg","pricing_plan_id":"cebpf4jnsgd1na2vs0mg"},{"bike_id":"6babf76a-ba79-4056-910f-7a5af004d4ea","system_id":"levelo_inurba_marseille","lat":43.29008,"lon":5.35609,"is_reserved":false,"is_disabled":false,"rental_uris":{"android":"levelo://app?vid=6babf76a-ba79-4056-910f-7a5af004d4ea","ios":"levelo://app?vid=6babf76a-ba79-4056-910f-7a5af004d4ea"},"vehicle_type_id":"4","last_reported":1731683361,"current_range_meters":34800,"station_id":"ce4bhb92rcd13ifvqen0","pricing_plan_id":"cebpf4jnsgd1na2vs0mg"},{"bike_id":"06961473-c5ad-401c-914a-eccf35f50c19","system_id":"levelo_inurba_marseille","lat":43.29072,"lon":5.3718,"is_reserved":false,"is_disabled":false,"rental_uris":{"android":"levelo://app?vid=06961473-c5ad-401c-914a-eccf35f50c19","ios":"levelo://app?vid=06961473-c5ad-401c-914a-eccf35f50c19"},"vehicle_type_id":"4","last_reported":1731683361,"current_range_meters":16800,"station_id":"ce4bh5p2rcd13ifvqe4g","pricing_plan_id":"cebpf4jnsgd1na2vs0mg"},{"bike_id":"88d87670-1088-4195-a19a-42388d5a775b","system_id":"levelo_inurba_marseille","lat":43.29531,"lon":5.38543,"is_reserved":false,"is_disabled":false,"rental_uris":{"android":"levelo://app?vid=88d87670-1088-4195-a19a-42388d5a775b","ios":"levelo://app?vid=88d87670-1088-4195-a19a-42388d5a775b"},"vehicle_type_id":"4","last_reported":1731683361,"current_range_meters":36000,"station_id":"ce4bgih2rcd13ifvqba0","pricing_plan_id":"cebpf4jnsgd1na2vs0mg"},{"bike_id":"7c23f94e-cdb5-433d-b828-96d283759388","system_id":"levelo_inurba_marseille","lat":43.3117,"lon":5.38736,"is_reserved":false,"is_disabled":false,"rental_uris":{"android":"levelo://app?vid=7c23f94e-cdb5-433d-b828-96d283759388","ios":"levelo://app?vid=7c23f94e-cdb5-433d-b828-96d283759388"},"vehicle_type_id":"4","last_reported":1731683361,"current_range_meters":30000,"station_id":"ce4bgv12rcd13ifvqcp0","pricing_plan_id":"cebpf4jnsgd1na2vs0mg"},{"bike_id":"0c21a761-f7b3-4c63-b4aa-6b71e7a913e6","system_id":"levelo_inurba_marseille","lat":43.27374,"lon":5.36258,"is_reserved":false,"is_disabled":false,"rental_uris":{"android":"levelo://app?vid=0c21a761-f7b3-4c63-b4aa-6b71e7a913e6","ios":"levelo://app?vid=0c21a761-f7b3-4c63-b4aa-6b71e7a913e6"},"vehicle_type_id":"4","last_reported":1731683361,"current_range_meters":20000,"station_id":"ce4bhbh2rcd13ifvqeo0","pricing_plan_id":"cebpf4jnsgd1na2vs0mg"},{"bike_id":"7811c85e-ace6-4809-bc0b-7e8e9cefd74c","system_id":"levelo_inurba_marseille","lat":43.27376,"lon":5.3627,"is_reserved":false,"is_disabled":false,"rental_uris":{"android":"levelo://app?vid=7811c85e-ace6-4809-bc0b-7e8e9cefd74c","ios":"levelo://app?vid=7811c85e-ace6-4809-bc0b-7e8e9cefd74c"},"vehicle_type_id":"4","last_reported":1731683361,"current_range_meters":24400,"station_id":"ce4bhbh2rcd13ifvqeo0","pricing_plan_id":"cebpf4jnsgd1na2vs0mg"},{"bike_id":"dca415e1-3cc2-444c-bcc1-7ce6aedb9739","system_id":"levelo_inurba_marseille","lat":43.24164,"lon":5.36396,"is_reserved":false,"is_disabled":false,"rental_uris":{"android":"levelo://app?vid=dca415e1-3cc2-444c-bcc1-7ce6aedb9739","ios":"levelo://app?vid=dca415e1-3cc2-444c-bcc1-7ce6aedb9739"},"vehicle_type_id":"4","last_reported":1731683361,"current_range_meters":16800,"station_id":"cpo36qri1sfpv3e86is0","pricing_plan_id":"cebpf4jnsgd1na2vs0mg"},{"bike_id":"93453f50-2c7c-44a7-9c57-7c1a3258bf8d","system_id":"levelo_inurba_marseille","lat":43.25583,"lon":5.38223,"is_reserved":false,"is_disabled":false,"rental_uris":{"android":"levelo://app?vid=93453f50-2c7c-44a7-9c57-7c1a3258bf8d","ios":"levelo://app?vid=93453f50-2c7c-44a7-9c57-7c1a3258bf8d"},"vehicle_type_id":"4","last_reported":1731683361,"current_range_meters":25600,"station_id":"ce4bhih2rcd13ifvqfs0","pricing_plan_id":"cebpf4jnsgd1na2vs0mg"},{"bike_id":"aaf790d0-fb18-40c8-b289-7a594670d9f2","system_id":"levelo_inurba_marseille","lat":43.3149,"lon":5.3731,"is_reserved":false,"is_disabled":false,"rental_uris":{"android":"levelo://app?vid=aaf790d0-fb18-40c8-b289-7a594670d9f2","ios":"levelo://app?vid=aaf790d0-fb18-40c8-b289-7a594670d9f2"},"vehicle_type_id":"4","last_reported":1731683361,"current_range_meters":30800,"station_id":"ce4bgt12rcd13ifvqcd0","pricing_plan_id":"cebpf4jnsgd1na2vs0mg"},{"bike_id":"0dd5c336-8bf7-409f-a046-4f44d557e694","system_id":"levelo_inurba_marseille","lat":43.33725,"lon":5.39187,"is_reserved":false,"is_disabled":false,"rental_uris":{"android":"levelo://app?vid=0dd5c336-8bf7-409f-a046-4f44d557e694","ios":"levelo://app?vid=0dd5c336-8bf7-409f-a046-4f44d557e694"},"vehicle_type_id":"4","last_reported":1731683361,"current_range_meters":38800,"station_id":"ce4bhr92rcd13ifvqhsg","pricing_plan_id":"cebpf4jnsgd1na2vs0mg"},{"bike_id":"0292b14f-41fc-4bec-b7d6-7b37962c56ba","system_id":"levelo_inurba_marseille","lat":43.301442,"lon":5.380791,"is_reserved":false,"is_disabled":false,"rental_uris":{"android":"levelo://app?vid=0292b14f-41fc-4bec-b7d6-7b37962c56ba","ios":"levelo://app?vid=0292b14f-41fc-4bec-b7d6-7b37962c56ba"},"vehicle_type_id":"4","last_reported":1731683361,"current_range_meters":19200,"station_id":"ce4bgjp2rcd13ifvqbh0","pricing_plan_id":"cebpf4jnsgd1na2vs0mg"},{"bike_id":"00f7d1f4-ab3c-4240-ba90-c1c8d0b56d78","system_id":"levelo_inurba_marseille","lat":43.2737,"lon":5.36262,"is_reserved":false,"is_disabled":false,"rental_uris":{"android":"levelo://app?vid=00f7d1f4-ab3c-4240-ba90-c1c8d0b56d78","ios":"levelo://app?vid=00f7d1f4-ab3c-4240-ba90-c1c8d0b56d78"},"vehicle_type_id":"4","last_reported":1731683361,"current_range_meters":24400,"station_id":"ce4bhbh2rcd13ifvqeo0","pricing_plan_id":"cebpf4jnsgd1na2vs0mg"},{"bike_id":"631284bc-ca79-4566-a19e-c81968ea3fef","system_id":"levelo_inurba_marseille","lat":43.2669,"lon":5.38279,"is_reserved":false,"is_disabled":false,"rental_uris":{"android":"levelo://app?vid=631284bc-ca79-4566-a19e-c81968ea3fef","ios":"levelo://app?vid=631284bc-ca79-4566-a19e-c81968ea3fef"},"vehicle_type_id":"4","last_reported":1731683361,"current_range_meters":29600,"station_id":"ce4bhg92rcd13ifvqf90","pricing_plan_id":"cebpf4jnsgd1na2vs0mg"},{"bike_id":"8ce9d1a6-97af-4f60-ad0e-4f6ab367ba8c","system_id":"levelo_inurba_marseille","lat":43.31314,"lon":5.3972,"is_reserved":false,"is_disabled":false,"rental_uris":{"android":"levelo://app?vid=8ce9d1a6-97af-4f60-ad0e-4f6ab367ba8c","ios":"levelo://app?vid=8ce9d1a6-97af-4f60-ad0e-4f6ab367ba8c"},"vehicle_type_id":"4","last_reported":1731683361,"current_range_meters":29600,"station_id":"ce4bgvp2rcd13ifvqcu0","pricing_plan_id":"cebpf4jnsgd1na2vs0mg"},{"bike_id":"18443a55-b5b2-46e9-95b1-103b58e16c30","system_id":"levelo_inurba_marseille","lat":43.28421,"lon":5.3498,"is_reserved":false,"is_disabled":false,"rental_uris":{"android":"levelo://app?vid=18443a55-b5b2-46e9-95b1-103b58e16c30","ios":"levelo://app?vid=18443a55-b5b2-46e9-95b1-103b58e16c30"},"vehicle_type_id":"4","last_reported":1731683361,"current_range_meters":30000,"station_id":"ce4bhbh2rcd13ifvqepg","pricing_plan_id":"cebpf4jnsgd1na2vs0mg"},{"bike_id":"def8f59f-0944-4d41-b001-c4ea7db9202c","system_id":"levelo_inurba_marseille","lat":43.28266,"lon":5.35082,"is_reserved":false,"is_disabled":false,"rental_uris":{"android":"levelo://app?vid=def8f59f-0944-4d41-b001-c4ea7db9202c","ios":"levelo://app?vid=def8f59f-0944-4d41-b001-c4ea7db9202c"},"vehicle_type_id":"4","last_reported":1731683361,"current_range_meters":16000,"station_id":"ce4bhbp2rcd13ifvqerg","pricing_plan_id":"cebpf4jnsgd1na2vs0mg"},{"bike_id":"ac6358ba-2919-45de-8d36-3a65f522d99d","system_id":"levelo_inurba_marseille","lat":43.28033,"lon":5.36964,"is_reserved":false,"is_disabled":false,"rental_uris":{"android":"levelo://app?vid=ac6358ba-2919-45de-8d36-3a65f522d99d","ios":"levelo://app?vid=ac6358ba-2919-45de-8d36-3a65f522d99d"},"vehicle_type_id":"4","last_reported":1731683361,"current_range_meters":18000,"station_id":"ce4bha12rcd13ifvqef0","pricing_plan_id":"cebpf4jnsgd1na2vs0mg"},{"bike_id":"93ebab0a-b53f-428d-b33b-fe1b830f1938","system_id":"levelo_inurba_marseille","lat":43.2318,"lon":5.39986,"is_reserved":false,"is_disabled":false,"rental_uris":{"android":"levelo://app?vid=93ebab0a-b53f-428d-b33b-fe1b830f1938","ios":"levelo://app?vid=93ebab0a-b53f-428d-b33b-fe1b830f1938"},"vehicle_type_id":"4","last_reported":1731683361,"current_range_meters":27200,"station_id":"ce4bhn12rcd13ifvqgqg","pricing_plan_id":"cebpf4jnsgd1na2vs0mg"},{"bike_id":"44aba617-3574-4308-8e69-031838617271","system_id":"levelo_inurba_marseille","lat":43.26032,"lon":5.37549,"is_reserved":false,"is_disabled":false,"rental_uris":{"android":"levelo://app?vid=44aba617-3574-4308-8e69-031838617271","ios":"levelo://app?vid=44aba617-3574-4308-8e69-031838617271"},"vehicle_type_id":"4","last_reported":1731683361,"current_range_meters":30800,"station_id":"ce4bhgh2rcd13ifvqfa0","pricing_plan_id":"cebpf4jnsgd1na2vs0mg"},{"bike_id":"4d9f4689-49c2-432b-b5e0-de6fcadbb10a","system_id":"levelo_inurba_marseille","lat":43.293065,"lon":5.371647,"is_reserved":false,"is_disabled":false,"rental_uris":{"android":"levelo://app?vid=4d9f4689-49c2-432b-b5e0-de6fcadbb10a","ios":"levelo://app?vid=4d9f4689-49c2-432b-b5e0-de6fcadbb10a"},"vehicle_type_id":"4","last_reported":1731683361,"current_range_meters":19600,"station_id":"ce4bhh12rcd13ifvqfg0","pricing_plan_id":"cebpf4jnsgd1na2vs0mg"},{"bike_id":"e229226f-5c35-4352-8909-818c0580333b","system_id":"levelo_inurba_marseille","lat":43.26061,"lon":5.39399,"is_reserved":false,"is_disabled":false,"rental_uris":{"android":"levelo://app?vid=e229226f-5c35-4352-8909-818c0580333b","ios":"levelo://app?vid=e229226f-5c35-4352-8909-818c0580333b"},"vehicle_type_id":"4","last_reported":1731683361,"current_range_meters":37600,"station_id":"ce4bhh92rcd13ifvqfj0","pricing_plan_id":"cebpf4jnsgd1na2vs0mg"},{"bike_id":"c9809380-2c85-435b-ad9c-c195bc91e83d","system_id":"levelo_inurba_marseille","lat":43.29978,"lon":5.37189,"is_reserved":false,"is_disabled":false,"rental_uris":{"android":"levelo://app?vid=c9809380-2c85-435b-ad9c-c195bc91e83d","ios":"levelo://app?vid=c9809380-2c85-435b-ad9c-c195bc91e83d"},"vehicle_type_id":"4","last_reported":1731683361,"current_range_meters":38400,"station_id":"ce4bgr92rcd13ifvqc7g","pricing_plan_id":"cebpf4jnsgd1na2vs0mg"},{"bike_id":"c6004910-0375-4b4e-afa3-1d5f1f5b4002","system_id":"levelo_inurba_marseille","lat":43.28406,"lon":5.35002,"is_reserved":false,"is_disabled":false,"rental_uris":{"android":"levelo://app?vid=c6004910-0375-4b4e-afa3-1d5f1f5b4002","ios":"levelo://app?vid=c6004910-0375-4b4e-afa3-1d5f1f5b4002"},"vehicle_type_id":"4","last_reported":1731683361,"current_range_meters":15200,"station_id":"ce4bhbh2rcd13ifvqepg","pricing_plan_id":"cebpf4jnsgd1na2vs0mg"},{"bike_id":"174efcdc-cb41-4b41-82b5-abcff938d45e","system_id":"levelo_inurba_marseille","lat":43.30209,"lon":5.39466,"is_reserved":false,"is_disabled":false,"rental_uris":{"android":"levelo://app?vid=174efcdc-cb41-4b41-82b5-abcff938d45e","ios":"levelo://app?vid=174efcdc-cb41-4b41-82b5-abcff938d45e"},"vehicle_type_id":"4","last_reported":1731683361,"current_range_meters":30400,"station_id":"ce4bh0p2rcd13ifvqd70","pricing_plan_id":"cebpf4jnsgd1na2vs0mg"},{"bike_id":"f86ebfbe-3dd4-4416-bf39-3d6bba495f19","system_id":"levelo_inurba_marseille","lat":43.29553,"lon":5.42294,"is_reserved":false,"is_disabled":false,"rental_uris":{"android":"levelo://app?vid=f86ebfbe-3dd4-4416-bf39-3d6bba495f19","ios":"levelo://app?vid=f86ebfbe-3dd4-4416-bf39-3d6bba495f19"},"vehicle_type_id":"4","last_reported":1731683361,"current_range_meters":6800,"station_id":"ce4bhph2rcd13ifvqhdg","pricing_plan_id":"cebpf4jnsgd1na2vs0mg"},{"bike_id":"6b8eba9e-251e-401f-9b82-4a96d08ef40f","system_id":"levelo_inurba_marseille","lat":43.33015,"lon":5.39043,"is_reserved":false,"is_disabled":false,"rental_uris":{"android":"levelo://app?vid=6b8eba9e-251e-401f-9b82-4a96d08ef40f","ios":"levelo://app?vid=6b8eba9e-251e-401f-9b82-4a96d08ef40f"},"vehicle_type_id":"4","last_reported":1731683361,"current_range_meters":23200,"station_id":"ce4bhr92rcd13ifvqhrg","pricing_plan_id":"cebpf4jnsgd1na2vs0mg"},{"bike_id":"239ba8db-ab99-4376-9d2e-afca84ccb09b","system_id":"levelo_inurba_marseille","lat":43.28154,"lon":5.42635,"is_reserved":false,"is_disabled":false,"rental_uris":{"android":"levelo://app?vid=239ba8db-ab99-4376-9d2e-afca84ccb09b","ios":"levelo://app?vid=239ba8db-ab99-4376-9d2e-afca84ccb09b"},"vehicle_type_id":"4","last_reported":1731683361,"current_range_meters":2800,"station_id":"ce4bhnh2rcd13ifvqgug","pricing_plan_id":"cebpf4jnsgd1na2vs0mg"},{"bike_id":"d9355850-effc-486f-a50f-bddeca40ad1f","system_id":"levelo_inurba_marseille","lat":43.2718,"lon":5.40995,"is_reserved":false,"is_disabled":false,"rental_uris":{"android":"levelo://app?vid=d9355850-effc-486f-a50f-bddeca40ad1f","ios":"levelo://app?vid=d9355850-effc-486f-a50f-bddeca40ad1f"},"vehicle_type_id":"4","last_reported":1731683361,"current_range_meters":4400,"station_id":"ce4bhl12rcd13ifvqgf0","pricing_plan_id":"cebpf4jnsgd1na2vs0mg"},{"bike_id":"8b288a29-2c92-46c8-b5e9-cb0d9530de7b","system_id":"levelo_inurba_marseille","lat":43.2991,"lon":5.38138,"is_reserved":false,"is_disabled":false,"rental_uris":{"android":"levelo://app?vid=8b288a29-2c92-46c8-b5e9-cb0d9530de7b","ios":"levelo://app?vid=8b288a29-2c92-46c8-b5e9-cb0d9530de7b"},"vehicle_type_id":"4","last_reported":1731683361,"current_range_meters":13600,"station_id":"ce4bgj12rcd13ifvqbc0","pricing_plan_id":"cebpf4jnsgd1na2vs0mg"},{"bike_id":"c974cc8b-299b-4d52-81c8-4e50a91b9225","system_id":"levelo_inurba_marseille","lat":43.33745,"lon":5.37487,"is_reserved":false,"is_disabled":false,"rental_uris":{"android":"levelo://app?vid=c974cc8b-299b-4d52-81c8-4e50a91b9225","ios":"levelo://app?vid=c974cc8b-299b-4d52-81c8-4e50a91b9225"},"vehicle_type_id":"4","last_reported":1731683361,"current_range_meters":38400,"station_id":"","pricing_plan_id":"cebpf4jnsgd1na2vs0mg"},{"bike_id":"f86a601e-26e3-440e-a7e5-894f75bad9f4","system_id":"levelo_inurba_marseille","lat":43.337444,"lon":5.374475,"is_reserved":false,"is_disabled":false,"rental_uris":{"android":"levelo://app?vid=f86a601e-26e3-440e-a7e5-894f75bad9f4","ios":"levelo://app?vid=f86a601e-26e3-440e-a7e5-894f75bad9f4"},"vehicle_type_id":"4","last_reported":1731683361,"current_range_meters":23200,"station_id":"","pricing_plan_id":"cebpf4jnsgd1na2vs0mg"},{"bike_id":"1eb97dbf-5446-4ab0-b07f-9456d20ddc92","system_id":"levelo_inurba_marseille","lat":43.284066,"lon":5.349927,"is_reserved":false,"is_disabled":false,"rental_uris":{"android":"levelo://app?vid=1eb97dbf-5446-4ab0-b07f-9456d20ddc92","ios":"levelo://app?vid=1eb97dbf-5446-4ab0-b07f-9456d20ddc92"},"vehicle_type_id":"4","last_reported":1731683361,"current_range_meters":36800,"station_id":"ce4bhbh2rcd13ifvqepg","pricing_plan_id":"cebpf4jnsgd1na2vs0mg"},{"bike_id":"12b506a4-e3f6-436d-a6c7-6a4f8c28ea2a","system_id":"levelo_inurba_marseille","lat":43.28422,"lon":5.34985,"is_reserved":false,"is_disabled":false,"rental_uris":{"android":"levelo://app?vid=12b506a4-e3f6-436d-a6c7-6a4f8c28ea2a","ios":"levelo://app?vid=12b506a4-e3f6-436d-a6c7-6a4f8c28ea2a"},"vehicle_type_id":"4","last_reported":1731683361,"current_range_meters":32400,"station_id":"ce4bhbh2rcd13ifvqepg","pricing_plan_id":"cebpf4jnsgd1na2vs0mg"},{"bike_id":"8bd9ce3e-fe15-45d0-9ac0-5aab50ea179c","system_id":"levelo_inurba_marseille","lat":43.29183,"lon":5.35822,"is_reserved":false,"is_disabled":false,"rental_uris":{"android":"levelo://app?vid=8bd9ce3e-fe15-45d0-9ac0-5aab50ea179c","ios":"levelo://app?vid=8bd9ce3e-fe15-45d0-9ac0-5aab50ea179c"},"vehicle_type_id":"4","last_reported":1731683361,"current_range_meters":33600,"station_id":"ce4bhb12rcd13ifvqel0","pricing_plan_id":"cebpf4jnsgd1na2vs0mg"},{"bike_id":"b9e51218-4e4e-4373-9cea-bf2faa6d1132","system_id":"levelo_inurba_marseille","lat":43.29794,"lon":5.40391,"is_reserved":false,"is_disabled":false,"rental_uris":{"android":"levelo://app?vid=b9e51218-4e4e-4373-9cea-bf2faa6d1132","ios":"levelo://app?vid=b9e51218-4e4e-4373-9cea-bf2faa6d1132"},"vehicle_type_id":"4","last_reported":1731683361,"current_range_meters":32000,"station_id":"ce4bh112rcd13ifvqd90","pricing_plan_id":"cebpf4jnsgd1na2vs0mg"},{"bike_id":"c7606a79-6927-46a8-93a6-cfeccedb514a","system_id":"levelo_inurba_marseille","lat":43.25863,"lon":5.39904,"is_reserved":false,"is_disabled":false,"rental_uris":{"android":"levelo://app?vid=c7606a79-6927-46a8-93a6-cfeccedb514a","ios":"levelo://app?vid=c7606a79-6927-46a8-93a6-cfeccedb514a"},"vehicle_type_id":"4","last_reported":1731683361,"current_range_meters":24000,"station_id":"ce4bhl92rcd13ifvqghg","pricing_plan_id":"cebpf4jnsgd1na2vs0mg"},{"bike_id":"beba84cd-a5b5-41ab-bcae-36dc23dca579","system_id":"levelo_inurba_marseille","lat":43.25869,"lon":5.39896,"is_reserved":false,"is_disabled":false,"rental_uris":{"android":"levelo://app?vid=beba84cd-a5b5-41ab-bcae-36dc23dca579","ios":"levelo://app?vid=beba84cd-a5b5-41ab-bcae-36dc23dca579"},"vehicle_type_id":"4","last_reported":1731683361,"current_range_meters":4000,"station_id":"ce4bhl92rcd13ifvqghg","pricing_plan_id":"cebpf4jnsgd1na2vs0mg"},{"bike_id":"dfcfe354-e322-490f-b024-523dca687d00","system_id":"levelo_inurba_marseille","lat":43.31145,"lon":5.38766,"is_reserved":false,"is_disabled":false,"rental_uris":{"android":"levelo://app?vid=dfcfe354-e322-490f-b024-523dca687d00","ios":"levelo://app?vid=dfcfe354-e322-490f-b024-523dca687d00"},"vehicle_type_id":"4","last_reported":1731683361,"current_range_meters":22400,"station_id":"ce4bgv12rcd13ifvqcp0","pricing_plan_id":"cebpf4jnsgd1na2vs0mg"},{"bike_id":"b1caeabb-7dcd-451d-a70b-a5bb93a6fc68","system_id":"levelo_inurba_marseille","lat":43.29164,"lon":5.37164,"is_reserved":false,"is_disabled":false,"rental_uris":{"android":"levelo://app?vid=b1caeabb-7dcd-451d-a70b-a5bb93a6fc68","ios":"levelo://app?vid=b1caeabb-7dcd-451d-a70b-a5bb93a6fc68"},"vehicle_type_id":"4","last_reported":1731683361,"current_range_meters":38000,"station_id":"ce4bha92rcd13ifvqeh0","pricing_plan_id":"cebpf4jnsgd1na2vs0mg"},{"bike_id":"2539b101-cc8d-4545-a855-0c50791ba406","system_id":"levelo_inurba_marseille","lat":43.29556,"lon":5.39395,"is_reserved":false,"is_disabled":false,"rental_uris":{"android":"levelo://app?vid=2539b101-cc8d-4545-a855-0c50791ba406","ios":"levelo://app?vid=2539b101-cc8d-4545-a855-0c50791ba406"},"vehicle_type_id":"4","last_reported":1731683361,"current_range_meters":32400,"station_id":"ce4bh292rcd13ifvqdf0","pricing_plan_id":"cebpf4jnsgd1na2vs0mg"},{"bike_id":"0e9cab2c-02c4-4e13-96fc-ca8ffd2bce04","system_id":"levelo_inurba_marseille","lat":43.301393,"lon":5.37427,"is_reserved":false,"is_disabled":false,"rental_uris":{"android":"levelo://app?vid=0e9cab2c-02c4-4e13-96fc-ca8ffd2bce04","ios":"levelo://app?vid=0e9cab2c-02c4-4e13-96fc-ca8ffd2bce04"},"vehicle_type_id":"4","last_reported":1731683361,"current_range_meters":12000,"station_id":"ce4bgs92rcd13ifvqcc0","pricing_plan_id":"cebpf4jnsgd1na2vs0mg"},{"bike_id":"1b488d89-c274-4911-8f3f-5a400a4d8514","system_id":"levelo_inurba_marseille","lat":43.317062,"lon":5.377366,"is_reserved":false,"is_disabled":false,"rental_uris":{"android":"levelo://app?vid=1b488d89-c274-4911-8f3f-5a400a4d8514","ios":"levelo://app?vid=1b488d89-c274-4911-8f3f-5a400a4d8514"},"vehicle_type_id":"4","last_reported":1731683361,"current_range_meters":10800,"station_id":"ce4bgth2rcd13ifvqch0","pricing_plan_id":"cebpf4jnsgd1na2vs0mg"},{"bike_id":"26452fcc-1366-4c73-bd85-a72e3e90c954","system_id":"levelo_inurba_marseille","lat":43.3248,"lon":5.36561,"is_reserved":false,"is_disabled":false,"rental_uris":{"android":"levelo://app?vid=26452fcc-1366-4c73-bd85-a72e3e90c954","ios":"levelo://app?vid=26452fcc-1366-4c73-bd85-a72e3e90c954"},"vehicle_type_id":"4","last_reported":1731683361,"current_range_meters":38000,"station_id":"ce4bhs12rcd13ifvqhvg","pricing_plan_id":"cebpf4jnsgd1na2vs0mg"},{"bike_id":"27ccca2f-1893-428d-b4ad-79525959cc2e","system_id":"levelo_inurba_marseille","lat":43.27613,"lon":5.36121,"is_reserved":false,"is_disabled":false,"rental_uris":{"android":"levelo://app?vid=27ccca2f-1893-428d-b4ad-79525959cc2e","ios":"levelo://app?vid=27ccca2f-1893-428d-b4ad-79525959cc2e"},"vehicle_type_id":"4","last_reported":1731683361,"current_range_meters":38800,"station_id":"ce4bgj92rcd13ifvqbe0","pricing_plan_id":"cebpf4jnsgd1na2vs0mg"},{"bike_id":"b6be80db-98ea-41d0-b0ba-32f7f2486ada","system_id":"levelo_inurba_marseille","lat":43.25502,"lon":5.37653,"is_reserved":false,"is_disabled":false,"rental_uris":{"android":"levelo://app?vid=b6be80db-98ea-41d0-b0ba-32f7f2486ada","ios":"levelo://app?vid=b6be80db-98ea-41d0-b0ba-32f7f2486ada"},"vehicle_type_id":"4","last_reported":1731683361,"current_range_meters":9600,"station_id":"ce4bhh12rcd13ifvqff0","pricing_plan_id":"cebpf4jnsgd1na2vs0mg"},{"bike_id":"7401c5f0-0881-4d31-938a-3f20910ee4a4","system_id":"levelo_inurba_marseille","lat":43.29202,"lon":5.39319,"is_reserved":false,"is_disabled":false,"rental_uris":{"android":"levelo://app?vid=7401c5f0-0881-4d31-938a-3f20910ee4a4","ios":"levelo://app?vid=7401c5f0-0881-4d31-938a-3f20910ee4a4"},"vehicle_type_id":"4","last_reported":1731683361,"current_range_meters":18000,"station_id":"ce4bh192rcd13ifvqdd0","pricing_plan_id":"cebpf4jnsgd1na2vs0mg"},{"bike_id":"60346686-846e-43e0-b1f0-095f872d71c2","system_id":"levelo_inurba_marseille","lat":43.337444,"lon":5.374475,"is_reserved":false,"is_disabled":false,"rental_uris":{"android":"levelo://app?vid=60346686-846e-43e0-b1f0-095f872d71c2","ios":"levelo://app?vid=60346686-846e-43e0-b1f0-095f872d71c2"},"vehicle_type_id":"4","last_reported":1731683361,"current_range_meters":38800,"station_id":"","pricing_plan_id":"cebpf4jnsgd1na2vs0mg"},{"bike_id":"98d248a2-65e9-45e6-a0e5-ded316c191c1","system_id":"levelo_inurba_marseille","lat":43.24397,"lon":5.37059,"is_reserved":false,"is_disabled":false,"rental_uris":{"android":"levelo://app?vid=98d248a2-65e9-45e6-a0e5-ded316c191c1","ios":"levelo://app?vid=98d248a2-65e9-45e6-a0e5-ded316c191c1"},"vehicle_type_id":"4","last_reported":1731683361,"current_range_meters":38800,"station_id":"ce4bhhh2rcd13ifvqfk0","pricing_plan_id":"cebpf4jnsgd1na2vs0mg"},{"bike_id":"ab0276d0-9de6-4901-b3b0-22b57a8b28c5","system_id":"levelo_inurba_marseille","lat":43.29723,"lon":5.37689,"is_reserved":false,"is_disabled":false,"rental_uris":{"android":"levelo://app?vid=ab0276d0-9de6-4901-b3b0-22b57a8b28c5","ios":"levelo://app?vid=ab0276d0-9de6-4901-b3b0-22b57a8b28c5"},"vehicle_type_id":"4","last_reported":1731683361,"current_range_meters":3200,"station_id":"ce4bgkh2rcd13ifvqbl0","pricing_plan_id":"cebpf4jnsgd1na2vs0mg"},{"bike_id":"965b3a46-4f76-4aa9-b5ba-b1a6e45b1bb3","system_id":"levelo_inurba_marseille","lat":43.31823,"lon":5.38978,"is_reserved":false,"is_disabled":false,"rental_uris":{"android":"levelo://app?vid=965b3a46-4f76-4aa9-b5ba-b1a6e45b1bb3","ios":"levelo://app?vid=965b3a46-4f76-4aa9-b5ba-b1a6e45b1bb3"},"vehicle_type_id":"4","last_reported":1731683361,"current_range_meters":7200,"station_id":"","pricing_plan_id":"cebpf4jnsgd1na2vs0mg"},{"bike_id":"5326c5f8-bba7-40e6-bfc7-8e986a3bddf3","system_id":"levelo_inurba_marseille","lat":43.31031,"lon":5.37458,"is_reserved":false,"is_disabled":false,"rental_uris":{"android":"levelo://app?vid=5326c5f8-bba7-40e6-bfc7-8e986a3bddf3","ios":"levelo://app?vid=5326c5f8-bba7-40e6-bfc7-8e986a3bddf3"},"vehicle_type_id":"4","last_reported":1731683361,"current_range_meters":22400,"station_id":"ce4bgt12rcd13ifvqcd0","pricing_plan_id":"cebpf4jnsgd1na2vs0mg"},{"bike_id":"602c1ff7-4982-4818-9970-7a2557fc684c","system_id":"levelo_inurba_marseille","lat":43.29275,"lon":5.36851,"is_reserved":false,"is_disabled":false,"rental_uris":{"android":"levelo://app?vid=602c1ff7-4982-4818-9970-7a2557fc684c","ios":"levelo://app?vid=602c1ff7-4982-4818-9970-7a2557fc684c"},"vehicle_type_id":"4","last_reported":1731683361,"current_range_meters":38800,"station_id":"ce4bhbp2rcd13ifvqesg","pricing_plan_id":"cebpf4jnsgd1na2vs0mg"},{"bike_id":"4a140b9b-fafb-4ba7-b6d7-ef23b025ab59","system_id":"levelo_inurba_marseille","lat":43.29035,"lon":5.37575,"is_reserved":false,"is_disabled":false,"rental_uris":{"android":"levelo://app?vid=4a140b9b-fafb-4ba7-b6d7-ef23b025ab59","ios":"levelo://app?vid=4a140b9b-fafb-4ba7-b6d7-ef23b025ab59"},"vehicle_type_id":"4","last_reported":1731683361,"current_range_meters":32400,"station_id":"ce4bh692rcd13ifvqe90","pricing_plan_id":"cebpf4jnsgd1na2vs0mg"},{"bike_id":"53d7bcd3-9b91-45ae-a329-82890c3251d9","system_id":"levelo_inurba_marseille","lat":43.26678,"lon":5.38267,"is_reserved":false,"is_disabled":false,"rental_uris":{"android":"levelo://app?vid=53d7bcd3-9b91-45ae-a329-82890c3251d9","ios":"levelo://app?vid=53d7bcd3-9b91-45ae-a329-82890c3251d9"},"vehicle_type_id":"4","last_reported":1731683361,"current_range_meters":9600,"station_id":"ce4bhg92rcd13ifvqf90","pricing_plan_id":"cebpf4jnsgd1na2vs0mg"},{"bike_id":"eeac3b06-fb1d-4a05-bc34-5770017c2201","system_id":"levelo_inurba_marseille","lat":43.29007,"lon":5.35621,"is_reserved":false,"is_disabled":false,"rental_uris":{"android":"levelo://app?vid=eeac3b06-fb1d-4a05-bc34-5770017c2201","ios":"levelo://app?vid=eeac3b06-fb1d-4a05-bc34-5770017c2201"},"vehicle_type_id":"4","last_reported":1731683361,"current_range_meters":38400,"station_id":"ce4bhb92rcd13ifvqen0","pricing_plan_id":"cebpf4jnsgd1na2vs0mg"},{"bike_id":"73e0cdd4-dbed-44e9-8f18-f00dd137c24e","system_id":"levelo_inurba_marseille","lat":43.24159,"lon":5.36405,"is_reserved":false,"is_disabled":false,"rental_uris":{"android":"levelo://app?vid=73e0cdd4-dbed-44e9-8f18-f00dd137c24e","ios":"levelo://app?vid=73e0cdd4-dbed-44e9-8f18-f00dd137c24e"},"vehicle_type_id":"4","last_reported":1731683361,"current_range_meters":7200,"station_id":"cpo36qri1sfpv3e86is0","pricing_plan_id":"cebpf4jnsgd1na2vs0mg"},{"bike_id":"881eacb7-0ffc-4171-9405-9084fa6720be","system_id":"levelo_inurba_marseille","lat":43.3055,"lon":5.36538,"is_reserved":false,"is_disabled":false,"rental_uris":{"android":"levelo://app?vid=881eacb7-0ffc-4171-9405-9084fa6720be","ios":"levelo://app?vid=881eacb7-0ffc-4171-9405-9084fa6720be"},"vehicle_type_id":"4","last_reported":1731683361,"current_range_meters":29600,"station_id":"ce4bgs12rcd13ifvqcag","pricing_plan_id":"cebpf4jnsgd1na2vs0mg"},{"bike_id":"07dde62c-98e7-4806-bda6-bc9b609384fd","system_id":"levelo_inurba_marseille","lat":43.29003,"lon":5.35614,"is_reserved":false,"is_disabled":false,"rental_uris":{"android":"levelo://app?vid=07dde62c-98e7-4806-bda6-bc9b609384fd","ios":"levelo://app?vid=07dde62c-98e7-4806-bda6-bc9b609384fd"},"vehicle_type_id":"4","last_reported":1731683361,"current_range_meters":28800,"station_id":"ce4bhb92rcd13ifvqen0","pricing_plan_id":"cebpf4jnsgd1na2vs0mg"},{"bike_id":"ed97135a-c2d8-4749-9c42-2f286e6ad93c","system_id":"levelo_inurba_marseille","lat":43.2827,"lon":5.35062,"is_reserved":false,"is_disabled":false,"rental_uris":{"android":"levelo://app?vid=ed97135a-c2d8-4749-9c42-2f286e6ad93c","ios":"levelo://app?vid=ed97135a-c2d8-4749-9c42-2f286e6ad93c"},"vehicle_type_id":"4","last_reported":1731683361,"current_range_meters":22400,"station_id":"ce4bhbp2rcd13ifvqerg","pricing_plan_id":"cebpf4jnsgd1na2vs0mg"},{"bike_id":"f958f471-cf92-436a-bc8d-8e57613d3090","system_id":"levelo_inurba_marseille","lat":43.28456,"lon":5.35886,"is_reserved":false,"is_disabled":false,"rental_uris":{"android":"levelo://app?vid=f958f471-cf92-436a-bc8d-8e57613d3090","ios":"levelo://app?vid=f958f471-cf92-436a-bc8d-8e57613d3090"},"vehicle_type_id":"4","last_reported":1731683361,"current_range_meters":38800,"station_id":"ce4bhah2rcd13ifvqei0","pricing_plan_id":"cebpf4jnsgd1na2vs0mg"},{"bike_id":"bb6e4153-aa1a-40c9-bcd4-df111dd9b4b7","system_id":"levelo_inurba_marseille","lat":43.28456,"lon":5.35891,"is_reserved":false,"is_disabled":false,"rental_uris":{"android":"levelo://app?vid=bb6e4153-aa1a-40c9-bcd4-df111dd9b4b7","ios":"levelo://app?vid=bb6e4153-aa1a-40c9-bcd4-df111dd9b4b7"},"vehicle_type_id":"4","last_reported":1731683361,"current_range_meters":38400,"station_id":"ce4bhah2rcd13ifvqei0","pricing_plan_id":"cebpf4jnsgd1na2vs0mg"},{"bike_id":"9a97000e-f39e-45b5-bed7-760d4ecf52ae","system_id":"levelo_inurba_marseille","lat":43.31074,"lon":5.38375,"is_reserved":false,"is_disabled":false,"rental_uris":{"android":"levelo://app?vid=9a97000e-f39e-45b5-bed7-760d4ecf52ae","ios":"levelo://app?vid=9a97000e-f39e-45b5-bed7-760d4ecf52ae"},"vehicle_type_id":"4","last_reported":1731683361,"current_range_meters":14000,"station_id":"ce4bgv92rcd13ifvqcr0","pricing_plan_id":"cebpf4jnsgd1na2vs0mg"},{"bike_id":"b9808bb6-a11f-4fe4-b510-1c876ab89fe6","system_id":"levelo_inurba_marseille","lat":43.31077,"lon":5.3835,"is_reserved":false,"is_disabled":false,"rental_uris":{"android":"levelo://app?vid=b9808bb6-a11f-4fe4-b510-1c876ab89fe6","ios":"levelo://app?vid=b9808bb6-a11f-4fe4-b510-1c876ab89fe6"},"vehicle_type_id":"4","last_reported":1731683361,"current_range_meters":4000,"station_id":"ce4bgv92rcd13ifvqcr0","pricing_plan_id":"cebpf4jnsgd1na2vs0mg"},{"bike_id":"a2bc66c9-9cee-4e7b-8a00-25965437d27c","system_id":"levelo_inurba_marseille","lat":43.2984,"lon":5.36269,"is_reserved":false,"is_disabled":false,"rental_uris":{"android":"levelo://app?vid=a2bc66c9-9cee-4e7b-8a00-25965437d27c","ios":"levelo://app?vid=a2bc66c9-9cee-4e7b-8a00-25965437d27c"},"vehicle_type_id":"4","last_reported":1731683361,"current_range_meters":6400,"station_id":"ce4bgpp2rcd13ifvqc3g","pricing_plan_id":"cebpf4jnsgd1na2vs0mg"},{"bike_id":"70c8699e-3d9d-47e7-94f3-b511732c792f","system_id":"levelo_inurba_marseille","lat":43.31992,"lon":5.38148,"is_reserved":false,"is_disabled":false,"rental_uris":{"android":"levelo://app?vid=70c8699e-3d9d-47e7-94f3-b511732c792f","ios":"levelo://app?vid=70c8699e-3d9d-47e7-94f3-b511732c792f"},"vehicle_type_id":"4","last_reported":1731683361,"current_range_meters":38800,"station_id":"ce4bhr12rcd13ifvqhpg","pricing_plan_id":"cebpf4jnsgd1na2vs0mg"},{"bike_id":"58f73f55-14c1-457e-879e-075985d8370b","system_id":"levelo_inurba_marseille","lat":43.27057,"lon":5.40266,"is_reserved":false,"is_disabled":false,"rental_uris":{"android":"levelo://app?vid=58f73f55-14c1-457e-879e-075985d8370b","ios":"levelo://app?vid=58f73f55-14c1-457e-879e-075985d8370b"},"vehicle_type_id":"4","last_reported":1731683361,"current_range_meters":2800,"station_id":"ce4bhk92rcd13ifvqgc0","pricing_plan_id":"cebpf4jnsgd1na2vs0mg"},{"bike_id":"3954dd37-8389-4e48-b138-27e1c188a614","system_id":"levelo_inurba_marseille","lat":43.31221,"lon":5.36864,"is_reserved":false,"is_disabled":false,"rental_uris":{"android":"levelo://app?vid=3954dd37-8389-4e48-b138-27e1c188a614","ios":"levelo://app?vid=3954dd37-8389-4e48-b138-27e1c188a614"},"vehicle_type_id":"4","last_reported":1731683361,"current_range_meters":34800,"station_id":"ce4bgl92rcd13ifvqbq0","pricing_plan_id":"cebpf4jnsgd1na2vs0mg"},{"bike_id":"d4d2195e-a417-4fc9-b5fd-4404afe7e310","system_id":"levelo_inurba_marseille","lat":43.30659,"lon":5.40073,"is_reserved":false,"is_disabled":false,"rental_uris":{"android":"levelo://app?vid=d4d2195e-a417-4fc9-b5fd-4404afe7e310","ios":"levelo://app?vid=d4d2195e-a417-4fc9-b5fd-4404afe7e310"},"vehicle_type_id":"4","last_reported":1731683361,"current_range_meters":38800,"station_id":"ce4bh112rcd13ifvqda0","pricing_plan_id":"cebpf4jnsgd1na2vs0mg"},{"bike_id":"69610431-9c9e-4655-87a1-70d00811dd91","system_id":"levelo_inurba_marseille","lat":43.28001,"lon":5.41661,"is_reserved":false,"is_disabled":false,"rental_uris":{"android":"levelo://app?vid=69610431-9c9e-4655-87a1-70d00811dd91","ios":"levelo://app?vid=69610431-9c9e-4655-87a1-70d00811dd91"},"vehicle_type_id":"4","last_reported":1731683361,"current_range_meters":14800,"station_id":"ce4bho12rcd13ifvqh1g","pricing_plan_id":"cebpf4jnsgd1na2vs0mg"},{"bike_id":"0701e4b9-9444-48b3-9658-efe7a8bc3560","system_id":"levelo_inurba_marseille","lat":43.28941,"lon":5.3639,"is_reserved":false,"is_disabled":false,"rental_uris":{"android":"levelo://app?vid=0701e4b9-9444-48b3-9658-efe7a8bc3560","ios":"levelo://app?vid=0701e4b9-9444-48b3-9658-efe7a8bc3560"},"vehicle_type_id":"4","last_reported":1731683361,"current_range_meters":37600,"station_id":"ce4bhc92rcd13ifvqetg","pricing_plan_id":"cebpf4jnsgd1na2vs0mg"},{"bike_id":"1d449be8-c2a9-42c7-8fca-26258764e5c9","system_id":"levelo_inurba_marseille","lat":43.29964,"lon":5.385,"is_reserved":false,"is_disabled":false,"rental_uris":{"android":"levelo://app?vid=1d449be8-c2a9-42c7-8fca-26258764e5c9","ios":"levelo://app?vid=1d449be8-c2a9-42c7-8fca-26258764e5c9"},"vehicle_type_id":"4","last_reported":1731683361,"current_range_meters":3200,"station_id":"ce4bgj92rcd13ifvqbd0","pricing_plan_id":"cebpf4jnsgd1na2vs0mg"},{"bike_id":"b47cb991-57c8-4ef2-ba6f-88a50e1a1219","system_id":"levelo_inurba_marseille","lat":43.22935,"lon":5.35378,"is_reserved":false,"is_disabled":false,"rental_uris":{"android":"levelo://app?vid=b47cb991-57c8-4ef2-ba6f-88a50e1a1219","ios":"levelo://app?vid=b47cb991-57c8-4ef2-ba6f-88a50e1a1219"},"vehicle_type_id":"4","last_reported":1731683361,"current_range_meters":36800,"station_id":"cpo3532slgdg3j2ikp40","pricing_plan_id":"cebpf4jnsgd1na2vs0mg"},{"bike_id":"00af4745-af34-4f7d-8ab4-df39a1893418","system_id":"levelo_inurba_marseille","lat":43.31134,"lon":5.37755,"is_reserved":false,"is_disabled":false,"rental_uris":{"android":"levelo://app?vid=00af4745-af34-4f7d-8ab4-df39a1893418","ios":"levelo://app?vid=00af4745-af34-4f7d-8ab4-df39a1893418"},"vehicle_type_id":"4","last_reported":1731683361,"current_range_meters":20800,"station_id":"ce4bgt92rcd13ifvqcg0","pricing_plan_id":"cebpf4jnsgd1na2vs0mg"},{"bike_id":"2a54e76e-cd76-4a10-940f-30917d8bcf09","system_id":"levelo_inurba_marseille","lat":43.22929,"lon":5.35378,"is_reserved":false,"is_disabled":false,"rental_uris":{"android":"levelo://app?vid=2a54e76e-cd76-4a10-940f-30917d8bcf09","ios":"levelo://app?vid=2a54e76e-cd76-4a10-940f-30917d8bcf09"},"vehicle_type_id":"4","last_reported":1731683361,"current_range_meters":9200,"station_id":"cpo3532slgdg3j2ikp40","pricing_plan_id":"cebpf4jnsgd1na2vs0mg"},{"bike_id":"ae514e1b-2a9b-4f79-86ba-46576db14f4e","system_id":"levelo_inurba_marseille","lat":43.33023,"lon":5.39044,"is_reserved":false,"is_disabled":false,"rental_uris":{"android":"levelo://app?vid=ae514e1b-2a9b-4f79-86ba-46576db14f4e","ios":"levelo://app?vid=ae514e1b-2a9b-4f79-86ba-46576db14f4e"},"vehicle_type_id":"4","last_reported":1731683361,"current_range_meters":37600,"station_id":"ce4bhr92rcd13ifvqhrg","pricing_plan_id":"cebpf4jnsgd1na2vs0mg"},{"bike_id":"3ef12259-0205-4fca-97de-2b73c6392514","system_id":"levelo_inurba_marseille","lat":43.31081,"lon":5.42436,"is_reserved":false,"is_disabled":false,"rental_uris":{"android":"levelo://app?vid=3ef12259-0205-4fca-97de-2b73c6392514","ios":"levelo://app?vid=3ef12259-0205-4fca-97de-2b73c6392514"},"vehicle_type_id":"4","last_reported":1731683361,"current_range_meters":26000,"station_id":"ce4bhp92rcd13ifvqhag","pricing_plan_id":"cebpf4jnsgd1na2vs0mg"},{"bike_id":"ab3e9974-73b8-450f-9978-1a657412acab","system_id":"levelo_inurba_marseille","lat":43.28464,"lon":5.35903,"is_reserved":false,"is_disabled":false,"rental_uris":{"android":"levelo://app?vid=ab3e9974-73b8-450f-9978-1a657412acab","ios":"levelo://app?vid=ab3e9974-73b8-450f-9978-1a657412acab"},"vehicle_type_id":"4","last_reported":1731683361,"current_range_meters":38800,"station_id":"ce4bhah2rcd13ifvqei0","pricing_plan_id":"cebpf4jnsgd1na2vs0mg"},{"bike_id":"76fda271-4bcd-4529-8397-8074a1eff7fe","system_id":"levelo_inurba_marseille","lat":43.337444,"lon":5.374475,"is_reserved":false,"is_disabled":false,"rental_uris":{"android":"levelo://app?vid=76fda271-4bcd-4529-8397-8074a1eff7fe","ios":"levelo://app?vid=76fda271-4bcd-4529-8397-8074a1eff7fe"},"vehicle_type_id":"4","last_reported":1731683361,"current_range_meters":37600,"station_id":"","pricing_plan_id":"cebpf4jnsgd1na2vs0mg"},{"bike_id":"7125cda5-6cac-4f0d-b24c-2d801b2955b5","system_id":"levelo_inurba_marseille","lat":43.23186,"lon":5.39988,"is_reserved":false,"is_disabled":false,"rental_uris":{"android":"levelo://app?vid=7125cda5-6cac-4f0d-b24c-2d801b2955b5","ios":"levelo://app?vid=7125cda5-6cac-4f0d-b24c-2d801b2955b5"},"vehicle_type_id":"4","last_reported":1731683361,"current_range_meters":39200,"station_id":"ce4bhn12rcd13ifvqgqg","pricing_plan_id":"cebpf4jnsgd1na2vs0mg"},{"bike_id":"f2272cf7-a1bf-444b-b37a-2615e5e43513","system_id":"levelo_inurba_marseille","lat":43.29938,"lon":5.36552,"is_reserved":false,"is_disabled":false,"rental_uris":{"android":"levelo://app?vid=f2272cf7-a1bf-444b-b37a-2615e5e43513","ios":"levelo://app?vid=f2272cf7-a1bf-444b-b37a-2615e5e43513"},"vehicle_type_id":"4","last_reported":1731683361,"current_range_meters":4400,"station_id":"ce4bgm92rcd13ifvqbr0","pricing_plan_id":"cebpf4jnsgd1na2vs0mg"},{"bike_id":"c426093b-76d0-4e1c-96ce-2be4609800b4","system_id":"levelo_inurba_marseille","lat":43.29007,"lon":5.35614,"is_reserved":false,"is_disabled":false,"rental_uris":{"android":"levelo://app?vid=c426093b-76d0-4e1c-96ce-2be4609800b4","ios":"levelo://app?vid=c426093b-76d0-4e1c-96ce-2be4609800b4"},"vehicle_type_id":"4","last_reported":1731683361,"current_range_meters":32400,"station_id":"ce4bhb92rcd13ifvqen0","pricing_plan_id":"cebpf4jnsgd1na2vs0mg"},{"bike_id":"ac96e79e-fbe6-42e9-b01c-f172c32f819f","system_id":"levelo_inurba_marseille","lat":43.28264,"lon":5.35086,"is_reserved":false,"is_disabled":false,"rental_uris":{"android":"levelo://app?vid=ac96e79e-fbe6-42e9-b01c-f172c32f819f","ios":"levelo://app?vid=ac96e79e-fbe6-42e9-b01c-f172c32f819f"},"vehicle_type_id":"4","last_reported":1731683361,"current_range_meters":2800,"station_id":"ce4bhbp2rcd13ifvqerg","pricing_plan_id":"cebpf4jnsgd1na2vs0mg"},{"bike_id":"3fb151b3-d48c-4675-b5b3-eb99ea50f9ca","system_id":"levelo_inurba_marseille","lat":43.30906,"lon":5.36851,"is_reserved":false,"is_disabled":false,"rental_uris":{"android":"levelo://app?vid=3fb151b3-d48c-4675-b5b3-eb99ea50f9ca","ios":"levelo://app?vid=3fb151b3-d48c-4675-b5b3-eb99ea50f9ca"},"vehicle_type_id":"4","last_reported":1731683361,"current_range_meters":19200,"station_id":"ce4bgn92rcd13ifvqbvg","pricing_plan_id":"cebpf4jnsgd1na2vs0mg"},{"bike_id":"967551c5-a6e8-4b45-9d0b-0a97c81fb6e7","system_id":"levelo_inurba_marseille","lat":43.28256,"lon":5.35069,"is_reserved":false,"is_disabled":false,"rental_uris":{"android":"levelo://app?vid=967551c5-a6e8-4b45-9d0b-0a97c81fb6e7","ios":"levelo://app?vid=967551c5-a6e8-4b45-9d0b-0a97c81fb6e7"},"vehicle_type_id":"4","last_reported":1731683361,"current_range_meters":28800,"station_id":"ce4bhbp2rcd13ifvqerg","pricing_plan_id":"cebpf4jnsgd1na2vs0mg"},{"bike_id":"7dc7a9d4-b4bf-43c0-99ff-e7005d1e5a28","system_id":"levelo_inurba_marseille","lat":43.29418,"lon":5.38622,"is_reserved":false,"is_disabled":false,"rental_uris":{"android":"levelo://app?vid=7dc7a9d4-b4bf-43c0-99ff-e7005d1e5a28","ios":"levelo://app?vid=7dc7a9d4-b4bf-43c0-99ff-e7005d1e5a28"},"vehicle_type_id":"4","last_reported":1731683361,"current_range_meters":4000,"station_id":"ce4bh2h2rcd13ifvqdh0","pricing_plan_id":"cebpf4jnsgd1na2vs0mg"},{"bike_id":"6d757fef-4f26-43f9-ac2c-ffab39bf7dae","system_id":"levelo_inurba_marseille","lat":43.32249,"lon":5.36901,"is_reserved":false,"is_disabled":false,"rental_uris":{"android":"levelo://app?vid=6d757fef-4f26-43f9-ac2c-ffab39bf7dae","ios":"levelo://app?vid=6d757fef-4f26-43f9-ac2c-ffab39bf7dae"},"vehicle_type_id":"4","last_reported":1731683361,"current_range_meters":24000,"station_id":"","pricing_plan_id":"cebpf4jnsgd1na2vs0mg"},{"bike_id":"e6e2f63a-fab7-4cf8-8316-0417b217a4e4","system_id":"levelo_inurba_marseille","lat":43.27048,"lon":5.40264,"is_reserved":false,"is_disabled":false,"rental_uris":{"android":"levelo://app?vid=e6e2f63a-fab7-4cf8-8316-0417b217a4e4","ios":"levelo://app?vid=e6e2f63a-fab7-4cf8-8316-0417b217a4e4"},"vehicle_type_id":"4","last_reported":1731683361,"current_range_meters":27200,"station_id":"ce4bhk92rcd13ifvqgc0","pricing_plan_id":"cebpf4jnsgd1na2vs0mg"},{"bike_id":"fdc40bf7-dd1f-442a-b10e-f1ae0546c484","system_id":"levelo_inurba_marseille","lat":43.26023,"lon":5.37555,"is_reserved":false,"is_disabled":false,"rental_uris":{"android":"levelo://app?vid=fdc40bf7-dd1f-442a-b10e-f1ae0546c484","ios":"levelo://app?vid=fdc40bf7-dd1f-442a-b10e-f1ae0546c484"},"vehicle_type_id":"4","last_reported":1731683361,"current_range_meters":24800,"station_id":"ce4bhgh2rcd13ifvqfa0","pricing_plan_id":"cebpf4jnsgd1na2vs0mg"},{"bike_id":"0c1fe052-3ae1-4f72-80e1-e83397274787","system_id":"levelo_inurba_marseille","lat":43.26939,"lon":5.40256,"is_reserved":false,"is_disabled":false,"rental_uris":{"android":"levelo://app?vid=0c1fe052-3ae1-4f72-80e1-e83397274787","ios":"levelo://app?vid=0c1fe052-3ae1-4f72-80e1-e83397274787"},"vehicle_type_id":"4","last_reported":1731683361,"current_range_meters":33200,"station_id":"cjm6bp8fraef2m0cb0m0","pricing_plan_id":"cebpf4jnsgd1na2vs0mg"},{"bike_id":"29007c3d-d145-4271-bc46-16778830e2e9","system_id":"levelo_inurba_marseille","lat":43.30249,"lon":5.40067,"is_reserved":false,"is_disabled":false,"rental_uris":{"android":"levelo://app?vid=29007c3d-d145-4271-bc46-16778830e2e9","ios":"levelo://app?vid=29007c3d-d145-4271-bc46-16778830e2e9"},"vehicle_type_id":"4","last_reported":1731683361,"current_range_meters":34000,"station_id":"ce4bgvh2rcd13ifvqcs0","pricing_plan_id":"cebpf4jnsgd1na2vs0mg"},{"bike_id":"aa6dc477-f689-4f54-a32c-590a92ca76b2","system_id":"levelo_inurba_marseille","lat":43.23183,"lon":5.39991,"is_reserved":false,"is_disabled":false,"rental_uris":{"android":"levelo://app?vid=aa6dc477-f689-4f54-a32c-590a92ca76b2","ios":"levelo://app?vid=aa6dc477-f689-4f54-a32c-590a92ca76b2"},"vehicle_type_id":"4","last_reported":1731683361,"current_range_meters":6000,"station_id":"ce4bhn12rcd13ifvqgqg","pricing_plan_id":"cebpf4jnsgd1na2vs0mg"},{"bike_id":"7d244f1e-0114-48a4-9cc3-2270c1058441","system_id":"levelo_inurba_marseille","lat":43.32368,"lon":5.38882,"is_reserved":false,"is_disabled":false,"rental_uris":{"android":"levelo://app?vid=7d244f1e-0114-48a4-9cc3-2270c1058441","ios":"levelo://app?vid=7d244f1e-0114-48a4-9cc3-2270c1058441"},"vehicle_type_id":"4","last_reported":1731683361,"current_range_meters":22800,"station_id":"ce4bhqp2rcd13ifvqhog","pricing_plan_id":"cebpf4jnsgd1na2vs0mg"},{"bike_id":"b38e639e-d12e-457c-9da2-11763fd88d86","system_id":"levelo_inurba_marseille","lat":43.24663,"lon":5.38166,"is_reserved":false,"is_disabled":false,"rental_uris":{"android":"levelo://app?vid=b38e639e-d12e-457c-9da2-11763fd88d86","ios":"levelo://app?vid=b38e639e-d12e-457c-9da2-11763fd88d86"},"vehicle_type_id":"4","last_reported":1731683361,"current_range_meters":35600,"station_id":"ce4bhih2rcd13ifvqfr0","pricing_plan_id":"cebpf4jnsgd1na2vs0mg"},{"bike_id":"ed30e341-f2e3-4939-bee3-090b3706f497","system_id":"levelo_inurba_marseille","lat":43.25828,"lon":5.39434,"is_reserved":false,"is_disabled":false,"rental_uris":{"android":"levelo://app?vid=ed30e341-f2e3-4939-bee3-090b3706f497","ios":"levelo://app?vid=ed30e341-f2e3-4939-bee3-090b3706f497"},"vehicle_type_id":"4","last_reported":1731683361,"current_range_meters":30400,"station_id":"ce4bhip2rcd13ifvqft0","pricing_plan_id":"cebpf4jnsgd1na2vs0mg"},{"bike_id":"a5ce8633-489f-43d5-902e-127d66923462","system_id":"levelo_inurba_marseille","lat":43.30599,"lon":5.37241,"is_reserved":false,"is_disabled":false,"rental_uris":{"android":"levelo://app?vid=a5ce8633-489f-43d5-902e-127d66923462","ios":"levelo://app?vid=a5ce8633-489f-43d5-902e-127d66923462"},"vehicle_type_id":"4","last_reported":1731683361,"current_range_meters":16400,"station_id":"ce4bgqh2rcd13ifvqc4g","pricing_plan_id":"cebpf4jnsgd1na2vs0mg"},{"bike_id":"e56f10ff-8630-427e-9dd0-4fc8393aae20","system_id":"levelo_inurba_marseille","lat":43.27373,"lon":5.36261,"is_reserved":false,"is_disabled":false,"rental_uris":{"android":"levelo://app?vid=e56f10ff-8630-427e-9dd0-4fc8393aae20","ios":"levelo://app?vid=e56f10ff-8630-427e-9dd0-4fc8393aae20"},"vehicle_type_id":"4","last_reported":1731683361,"current_range_meters":21600,"station_id":"ce4bhbh2rcd13ifvqeo0","pricing_plan_id":"cebpf4jnsgd1na2vs0mg"},{"bike_id":"85dad442-5742-4ee1-93f3-6cdcb2afd771","system_id":"levelo_inurba_marseille","lat":43.30145,"lon":5.38781,"is_reserved":false,"is_disabled":false,"rental_uris":{"android":"levelo://app?vid=85dad442-5742-4ee1-93f3-6cdcb2afd771","ios":"levelo://app?vid=85dad442-5742-4ee1-93f3-6cdcb2afd771"},"vehicle_type_id":"4","last_reported":1731683361,"current_range_meters":35600,"station_id":"","pricing_plan_id":"cebpf4jnsgd1na2vs0mg"},{"bike_id":"aaf8e28d-92c1-4478-ab7f-07a664f2a4c9","system_id":"levelo_inurba_marseille","lat":43.30135,"lon":5.37422,"is_reserved":false,"is_disabled":false,"rental_uris":{"android":"levelo://app?vid=aaf8e28d-92c1-4478-ab7f-07a664f2a4c9","ios":"levelo://app?vid=aaf8e28d-92c1-4478-ab7f-07a664f2a4c9"},"vehicle_type_id":"4","last_reported":1731683361,"current_range_meters":12000,"station_id":"ce4bgs92rcd13ifvqcc0","pricing_plan_id":"cebpf4jnsgd1na2vs0mg"},{"bike_id":"e0017fcd-6a54-4232-97db-8cd57addfd64","system_id":"levelo_inurba_marseille","lat":43.28268,"lon":5.3506,"is_reserved":false,"is_disabled":false,"rental_uris":{"android":"levelo://app?vid=e0017fcd-6a54-4232-97db-8cd57addfd64","ios":"levelo://app?vid=e0017fcd-6a54-4232-97db-8cd57addfd64"},"vehicle_type_id":"4","last_reported":1731683361,"current_range_meters":10800,"station_id":"ce4bhbp2rcd13ifvqerg","pricing_plan_id":"cebpf4jnsgd1na2vs0mg"},{"bike_id":"29f5c3ee-648a-45ab-a995-4789b3de08d3","system_id":"levelo_inurba_marseille","lat":43.27377,"lon":5.36258,"is_reserved":false,"is_disabled":false,"rental_uris":{"android":"levelo://app?vid=29f5c3ee-648a-45ab-a995-4789b3de08d3","ios":"levelo://app?vid=29f5c3ee-648a-45ab-a995-4789b3de08d3"},"vehicle_type_id":"4","last_reported":1731683361,"current_range_meters":36800,"station_id":"ce4bhbh2rcd13ifvqeo0","pricing_plan_id":"cebpf4jnsgd1na2vs0mg"},{"bike_id":"e559b3c4-9ee3-4076-8a94-a23a99291e9c","system_id":"levelo_inurba_marseille","lat":43.27996,"lon":5.41669,"is_reserved":false,"is_disabled":false,"rental_uris":{"android":"levelo://app?vid=e559b3c4-9ee3-4076-8a94-a23a99291e9c","ios":"levelo://app?vid=e559b3c4-9ee3-4076-8a94-a23a99291e9c"},"vehicle_type_id":"4","last_reported":1731683361,"current_range_meters":4400,"station_id":"ce4bho12rcd13ifvqh1g","pricing_plan_id":"cebpf4jnsgd1na2vs0mg"},{"bike_id":"cbfd49cf-066b-431b-af87-4c2858d93153","system_id":"levelo_inurba_marseille","lat":43.29512,"lon":5.37506,"is_reserved":false,"is_disabled":false,"rental_uris":{"android":"levelo://app?vid=cbfd49cf-066b-431b-af87-4c2858d93153","ios":"levelo://app?vid=cbfd49cf-066b-431b-af87-4c2858d93153"},"vehicle_type_id":"4","last_reported":1731683361,"current_range_meters":38800,"station_id":"ce4bgkp2rcd13ifvqbmg","pricing_plan_id":"cebpf4jnsgd1na2vs0mg"},{"bike_id":"e14339e0-1837-4fa9-a858-86dc78e5d1a5","system_id":"levelo_inurba_marseille","lat":43.28029,"lon":5.3695,"is_reserved":false,"is_disabled":false,"rental_uris":{"android":"levelo://app?vid=e14339e0-1837-4fa9-a858-86dc78e5d1a5","ios":"levelo://app?vid=e14339e0-1837-4fa9-a858-86dc78e5d1a5"},"vehicle_type_id":"4","last_reported":1731683361,"current_range_meters":22000,"station_id":"ce4bha12rcd13ifvqef0","pricing_plan_id":"cebpf4jnsgd1na2vs0mg"},{"bike_id":"6ca68794-6b2d-4499-a155-204a72ef3b13","system_id":"levelo_inurba_marseille","lat":43.27176,"lon":5.40999,"is_reserved":false,"is_disabled":false,"rental_uris":{"android":"levelo://app?vid=6ca68794-6b2d-4499-a155-204a72ef3b13","ios":"levelo://app?vid=6ca68794-6b2d-4499-a155-204a72ef3b13"},"vehicle_type_id":"4","last_reported":1731683361,"current_range_meters":24000,"station_id":"ce4bhl12rcd13ifvqgf0","pricing_plan_id":"cebpf4jnsgd1na2vs0mg"},{"bike_id":"061f8c74-61b9-472b-be2f-e7ec104bfd75","system_id":"levelo_inurba_marseille","lat":43.306061,"lon":5.371724,"is_reserved":false,"is_disabled":false,"rental_uris":{"android":"levelo://app?vid=061f8c74-61b9-472b-be2f-e7ec104bfd75","ios":"levelo://app?vid=061f8c74-61b9-472b-be2f-e7ec104bfd75"},"vehicle_type_id":"4","last_reported":1731683361,"current_range_meters":38000,"station_id":"ce4bgqh2rcd13ifvqc4g","pricing_plan_id":"cebpf4jnsgd1na2vs0mg"},{"bike_id":"e20af615-f3f9-4f62-aeb9-7bcf6228f777","system_id":"levelo_inurba_marseille","lat":43.2904,"lon":5.35919,"is_reserved":false,"is_disabled":false,"rental_uris":{"android":"levelo://app?vid=e20af615-f3f9-4f62-aeb9-7bcf6228f777","ios":"levelo://app?vid=e20af615-f3f9-4f62-aeb9-7bcf6228f777"},"vehicle_type_id":"4","last_reported":1731683361,"current_range_meters":28800,"station_id":"ce4bha92rcd13ifvqeg0","pricing_plan_id":"cebpf4jnsgd1na2vs0mg"},{"bike_id":"b398519a-04b3-40b9-83d8-026d73f33740","system_id":"levelo_inurba_marseille","lat":43.27375,"lon":5.36259,"is_reserved":false,"is_disabled":false,"rental_uris":{"android":"levelo://app?vid=b398519a-04b3-40b9-83d8-026d73f33740","ios":"levelo://app?vid=b398519a-04b3-40b9-83d8-026d73f33740"},"vehicle_type_id":"4","last_reported":1731683361,"current_range_meters":33600,"station_id":"ce4bhbh2rcd13ifvqeo0","pricing_plan_id":"cebpf4jnsgd1na2vs0mg"},{"bike_id":"b54f4471-f146-477a-ade3-58e1dea1b85e","system_id":"levelo_inurba_marseille","lat":43.337444,"lon":5.374475,"is_reserved":false,"is_disabled":false,"rental_uris":{"android":"levelo://app?vid=b54f4471-f146-477a-ade3-58e1dea1b85e","ios":"levelo://app?vid=b54f4471-f146-477a-ade3-58e1dea1b85e"},"vehicle_type_id":"4","last_reported":1731683361,"current_range_meters":36800,"station_id":"","pricing_plan_id":"cebpf4jnsgd1na2vs0mg"},{"bike_id":"9d57872f-7cb7-4569-9577-5b93503698c0","system_id":"levelo_inurba_marseille","lat":43.24166,"lon":5.36408,"is_reserved":false,"is_disabled":false,"rental_uris":{"android":"levelo://app?vid=9d57872f-7cb7-4569-9577-5b93503698c0","ios":"levelo://app?vid=9d57872f-7cb7-4569-9577-5b93503698c0"},"vehicle_type_id":"4","last_reported":1731683361,"current_range_meters":8000,"station_id":"cpo36qri1sfpv3e86is0","pricing_plan_id":"cebpf4jnsgd1na2vs0mg"},{"bike_id":"c16ca623-92bb-4e82-844b-39889d295162","system_id":"levelo_inurba_marseille","lat":43.29703,"lon":5.3771,"is_reserved":false,"is_disabled":false,"rental_uris":{"android":"levelo://app?vid=c16ca623-92bb-4e82-844b-39889d295162","ios":"levelo://app?vid=c16ca623-92bb-4e82-844b-39889d295162"},"vehicle_type_id":"4","last_reported":1731683361,"current_range_meters":13600,"station_id":"ce4bgkh2rcd13ifvqbl0","pricing_plan_id":"cebpf4jnsgd1na2vs0mg"},{"bike_id":"a46156d3-1a73-4704-8dca-809fa9fedeb0","system_id":"levelo_inurba_marseille","lat":43.30329,"lon":5.4044,"is_reserved":false,"is_disabled":false,"rental_uris":{"android":"levelo://app?vid=a46156d3-1a73-4704-8dca-809fa9fedeb0","ios":"levelo://app?vid=a46156d3-1a73-4704-8dca-809fa9fedeb0"},"vehicle_type_id":"4","last_reported":1731683361,"current_range_meters":24400,"station_id":"ce4bh012rcd13ifvqd10","pricing_plan_id":"cebpf4jnsgd1na2vs0mg"},{"bike_id":"5b3f9fa4-046e-4aeb-ba07-a39e844fe696","system_id":"levelo_inurba_marseille","lat":43.24387,"lon":5.37055,"is_reserved":false,"is_disabled":false,"rental_uris":{"android":"levelo://app?vid=5b3f9fa4-046e-4aeb-ba07-a39e844fe696","ios":"levelo://app?vid=5b3f9fa4-046e-4aeb-ba07-a39e844fe696"},"vehicle_type_id":"4","last_reported":1731683361,"current_range_meters":38000,"station_id":"ce4bhhh2rcd13ifvqfk0","pricing_plan_id":"cebpf4jnsgd1na2vs0mg"},{"bike_id":"792531a3-4da6-4082-bd0a-16451cbb2558","system_id":"levelo_inurba_marseille","lat":43.26026,"lon":5.3755,"is_reserved":false,"is_disabled":false,"rental_uris":{"android":"levelo://app?vid=792531a3-4da6-4082-bd0a-16451cbb2558","ios":"levelo://app?vid=792531a3-4da6-4082-bd0a-16451cbb2558"},"vehicle_type_id":"4","last_reported":1731683361,"current_range_meters":20800,"station_id":"ce4bhgh2rcd13ifvqfa0","pricing_plan_id":"cebpf4jnsgd1na2vs0mg"},{"bike_id":"805cfe6b-be44-4949-bab5-57b1ce8478a4","system_id":"levelo_inurba_marseille","lat":43.33752,"lon":5.37459,"is_reserved":false,"is_disabled":false,"rental_uris":{"android":"levelo://app?vid=805cfe6b-be44-4949-bab5-57b1ce8478a4","ios":"levelo://app?vid=805cfe6b-be44-4949-bab5-57b1ce8478a4"},"vehicle_type_id":"4","last_reported":1731683361,"current_range_meters":33200,"station_id":"","pricing_plan_id":"cebpf4jnsgd1na2vs0mg"},{"bike_id":"acacdfc4-d24f-4466-8d6c-b7acbaa3c062","system_id":"levelo_inurba_marseille","lat":43.32027,"lon":5.41548,"is_reserved":false,"is_disabled":false,"rental_uris":{"android":"levelo://app?vid=acacdfc4-d24f-4466-8d6c-b7acbaa3c062","ios":"levelo://app?vid=acacdfc4-d24f-4466-8d6c-b7acbaa3c062"},"vehicle_type_id":"4","last_reported":1731683361,"current_range_meters":36400,"station_id":"ce4bhq92rcd13ifvqhkg","pricing_plan_id":"cebpf4jnsgd1na2vs0mg"},{"bike_id":"4b0cd02b-710e-4206-bb23-694dd52e493b","system_id":"levelo_inurba_marseille","lat":43.26032,"lon":5.37549,"is_reserved":false,"is_disabled":false,"rental_uris":{"android":"levelo://app?vid=4b0cd02b-710e-4206-bb23-694dd52e493b","ios":"levelo://app?vid=4b0cd02b-710e-4206-bb23-694dd52e493b"},"vehicle_type_id":"4","last_reported":1731683361,"current_range_meters":38800,"station_id":"ce4bhgh2rcd13ifvqfa0","pricing_plan_id":"cebpf4jnsgd1na2vs0mg"},{"bike_id":"5a427756-8a2a-4c85-83d0-551885eff5bf","system_id":"levelo_inurba_marseille","lat":43.30541,"lon":5.36552,"is_reserved":false,"is_disabled":false,"rental_uris":{"android":"levelo://app?vid=5a427756-8a2a-4c85-83d0-551885eff5bf","ios":"levelo://app?vid=5a427756-8a2a-4c85-83d0-551885eff5bf"},"vehicle_type_id":"4","last_reported":1731683361,"current_range_meters":38800,"station_id":"ce4bgs12rcd13ifvqcag","pricing_plan_id":"cebpf4jnsgd1na2vs0mg"},{"bike_id":"b38c59a0-ce08-4eb9-b870-02b578ca24a3","system_id":"levelo_inurba_marseille","lat":43.31816,"lon":5.39028,"is_reserved":false,"is_disabled":false,"rental_uris":{"android":"levelo://app?vid=b38c59a0-ce08-4eb9-b870-02b578ca24a3","ios":"levelo://app?vid=b38c59a0-ce08-4eb9-b870-02b578ca24a3"},"vehicle_type_id":"4","last_reported":1731683361,"current_range_meters":30800,"station_id":"","pricing_plan_id":"cebpf4jnsgd1na2vs0mg"},{"bike_id":"debaec47-0b0a-41b6-9254-b9a23971ae87","system_id":"levelo_inurba_marseille","lat":43.31326,"lon":5.39697,"is_reserved":false,"is_disabled":false,"rental_uris":{"android":"levelo://app?vid=debaec47-0b0a-41b6-9254-b9a23971ae87","ios":"levelo://app?vid=debaec47-0b0a-41b6-9254-b9a23971ae87"},"vehicle_type_id":"4","last_reported":1731683361,"current_range_meters":38800,"station_id":"ce4bgvp2rcd13ifvqcu0","pricing_plan_id":"cebpf4jnsgd1na2vs0mg"},{"bike_id":"072228c2-0a2f-47ff-86c9-734b93af6a9b","system_id":"levelo_inurba_marseille","lat":43.28444,"lon":5.39209,"is_reserved":false,"is_disabled":false,"rental_uris":{"android":"levelo://app?vid=072228c2-0a2f-47ff-86c9-734b93af6a9b","ios":"levelo://app?vid=072228c2-0a2f-47ff-86c9-734b93af6a9b"},"vehicle_type_id":"4","last_reported":1731683361,"current_range_meters":24800,"station_id":"ce4bhoh2rcd13ifvqh5g","pricing_plan_id":"cebpf4jnsgd1na2vs0mg"},{"bike_id":"ca655f3b-8380-4045-b3f8-8acaa0e83ede","system_id":"levelo_inurba_marseille","lat":43.33746,"lon":5.37471,"is_reserved":false,"is_disabled":false,"rental_uris":{"android":"levelo://app?vid=ca655f3b-8380-4045-b3f8-8acaa0e83ede","ios":"levelo://app?vid=ca655f3b-8380-4045-b3f8-8acaa0e83ede"},"vehicle_type_id":"4","last_reported":1731683361,"current_range_meters":36000,"station_id":"","pricing_plan_id":"cebpf4jnsgd1na2vs0mg"},{"bike_id":"c34db467-a972-4129-b510-f6daa0aac297","system_id":"levelo_inurba_marseille","lat":43.30534,"lon":5.36709,"is_reserved":false,"is_disabled":false,"rental_uris":{"android":"levelo://app?vid=c34db467-a972-4129-b510-f6daa0aac297","ios":"levelo://app?vid=c34db467-a972-4129-b510-f6daa0aac297"},"vehicle_type_id":"4","last_reported":1731683361,"current_range_meters":8000,"station_id":"ce4bgrp2rcd13ifvqc9g","pricing_plan_id":"cebpf4jnsgd1na2vs0mg"},{"bike_id":"9dbca982-f0bf-4dde-851d-b0447750c1b6","system_id":"levelo_inurba_marseille","lat":43.30924,"lon":5.4016,"is_reserved":false,"is_disabled":false,"rental_uris":{"android":"levelo://app?vid=9dbca982-f0bf-4dde-851d-b0447750c1b6","ios":"levelo://app?vid=9dbca982-f0bf-4dde-851d-b0447750c1b6"},"vehicle_type_id":"4","last_reported":1731683361,"current_range_meters":27200,"station_id":"ce4bgvp2rcd13ifvqct0","pricing_plan_id":"cebpf4jnsgd1na2vs0mg"},{"bike_id":"a6b8c285-acc9-4039-9531-1aae39136a33","system_id":"levelo_inurba_marseille","lat":43.312042,"lon":5.367348,"is_reserved":false,"is_disabled":false,"rental_uris":{"android":"levelo://app?vid=a6b8c285-acc9-4039-9531-1aae39136a33","ios":"levelo://app?vid=a6b8c285-acc9-4039-9531-1aae39136a33"},"vehicle_type_id":"4","last_reported":1731683361,"current_range_meters":19200,"station_id":"","pricing_plan_id":"cebpf4jnsgd1na2vs0mg"},{"bike_id":"5c254126-8805-4ed8-9520-9f63561143b3","system_id":"levelo_inurba_marseille","lat":43.24168,"lon":5.36399,"is_reserved":false,"is_disabled":false,"rental_uris":{"android":"levelo://app?vid=5c254126-8805-4ed8-9520-9f63561143b3","ios":"levelo://app?vid=5c254126-8805-4ed8-9520-9f63561143b3"},"vehicle_type_id":"4","last_reported":1731683361,"current_range_meters":26800,"station_id":"cpo36qri1sfpv3e86is0","pricing_plan_id":"cebpf4jnsgd1na2vs0mg"},{"bike_id":"265a998c-096d-4a07-974e-41be37e184a7","system_id":"levelo_inurba_marseille","lat":43.30528,"lon":5.36551,"is_reserved":false,"is_disabled":false,"rental_uris":{"android":"levelo://app?vid=265a998c-096d-4a07-974e-41be37e184a7","ios":"levelo://app?vid=265a998c-096d-4a07-974e-41be37e184a7"},"vehicle_type_id":"4","last_reported":1731683361,"current_range_meters":39200,"station_id":"ce4bgs12rcd13ifvqcag","pricing_plan_id":"cebpf4jnsgd1na2vs0mg"},{"bike_id":"121d2fe9-ec26-4c3d-b050-ca5e1af4f558","system_id":"levelo_inurba_marseille","lat":43.29918,"lon":5.37483,"is_reserved":false,"is_disabled":false,"rental_uris":{"android":"levelo://app?vid=121d2fe9-ec26-4c3d-b050-ca5e1af4f558","ios":"levelo://app?vid=121d2fe9-ec26-4c3d-b050-ca5e1af4f558"},"vehicle_type_id":"4","last_reported":1731683361,"current_range_meters":26800,"station_id":"ce4bgjh2rcd13ifvqbg0","pricing_plan_id":"cebpf4jnsgd1na2vs0mg"},{"bike_id":"03851bc5-ccd8-4614-8dd1-1e2781f15a8c","system_id":"levelo_inurba_marseille","lat":43.25933,"lon":5.39868,"is_reserved":false,"is_disabled":false,"rental_uris":{"android":"levelo://app?vid=03851bc5-ccd8-4614-8dd1-1e2781f15a8c","ios":"levelo://app?vid=03851bc5-ccd8-4614-8dd1-1e2781f15a8c"},"vehicle_type_id":"4","last_reported":1731683361,"current_range_meters":28000,"station_id":"ce4bhl92rcd13ifvqghg","pricing_plan_id":"cebpf4jnsgd1na2vs0mg"},{"bike_id":"be6e0969-be6b-483e-93b9-17d8b044509e","system_id":"levelo_inurba_marseille","lat":43.296916,"lon":5.365774,"is_reserved":false,"is_disabled":false,"rental_uris":{"android":"levelo://app?vid=be6e0969-be6b-483e-93b9-17d8b044509e","ios":"levelo://app?vid=be6e0969-be6b-483e-93b9-17d8b044509e"},"vehicle_type_id":"4","last_reported":1731683361,"current_range_meters":38000,"station_id":"ce4bgn12rcd13ifvqbt0","pricing_plan_id":"cebpf4jnsgd1na2vs0mg"},{"bike_id":"fb99fb82-1c03-4526-b862-280bcf8ac70c","system_id":"levelo_inurba_marseille","lat":43.239595,"lon":5.366439,"is_reserved":false,"is_disabled":false,"rental_uris":{"android":"levelo://app?vid=fb99fb82-1c03-4526-b862-280bcf8ac70c","ios":"levelo://app?vid=fb99fb82-1c03-4526-b862-280bcf8ac70c"},"vehicle_type_id":"4","last_reported":1731683361,"current_range_meters":38800,"station_id":"ce4bhi12rcd13ifvqfp0","pricing_plan_id":"cebpf4jnsgd1na2vs0mg"},{"bike_id":"156955cd-3c48-4a8d-8940-2434bea84a6d","system_id":"levelo_inurba_marseille","lat":43.27375,"lon":5.36254,"is_reserved":false,"is_disabled":false,"rental_uris":{"android":"levelo://app?vid=156955cd-3c48-4a8d-8940-2434bea84a6d","ios":"levelo://app?vid=156955cd-3c48-4a8d-8940-2434bea84a6d"},"vehicle_type_id":"4","last_reported":1731683361,"current_range_meters":35200,"station_id":"ce4bhbh2rcd13ifvqeo0","pricing_plan_id":"cebpf4jnsgd1na2vs0mg"},{"bike_id":"d2d44301-b769-41b3-a2e3-e992ecf10fa9","system_id":"levelo_inurba_marseille","lat":43.25718,"lon":5.41115,"is_reserved":false,"is_disabled":false,"rental_uris":{"android":"levelo://app?vid=d2d44301-b769-41b3-a2e3-e992ecf10fa9","ios":"levelo://app?vid=d2d44301-b769-41b3-a2e3-e992ecf10fa9"},"vehicle_type_id":"4","last_reported":1731683361,"current_range_meters":14800,"station_id":"ce4bhkp2rcd13ifvqgd0","pricing_plan_id":"cebpf4jnsgd1na2vs0mg"},{"bike_id":"1ae8fe75-00ad-479b-a755-74d45d76bfbe","system_id":"levelo_inurba_marseille","lat":43.24169,"lon":5.36404,"is_reserved":false,"is_disabled":false,"rental_uris":{"android":"levelo://app?vid=1ae8fe75-00ad-479b-a755-74d45d76bfbe","ios":"levelo://app?vid=1ae8fe75-00ad-479b-a755-74d45d76bfbe"},"vehicle_type_id":"4","last_reported":1731683361,"current_range_meters":10800,"station_id":"cpo36qri1sfpv3e86is0","pricing_plan_id":"cebpf4jnsgd1na2vs0mg"},{"bike_id":"5df34f29-1a7a-4221-97e5-c009d97a2929","system_id":"levelo_inurba_marseille","lat":43.23843,"lon":5.36544,"is_reserved":false,"is_disabled":false,"rental_uris":{"android":"levelo://app?vid=5df34f29-1a7a-4221-97e5-c009d97a2929","ios":"levelo://app?vid=5df34f29-1a7a-4221-97e5-c009d97a2929"},"vehicle_type_id":"4","last_reported":1731683361,"current_range_meters":14800,"station_id":"","pricing_plan_id":"cebpf4jnsgd1na2vs0mg"},{"bike_id":"92ac4858-87d6-4ceb-8f6e-004635a816a8","system_id":"levelo_inurba_marseille","lat":43.27785,"lon":5.40741,"is_reserved":false,"is_disabled":false,"rental_uris":{"android":"levelo://app?vid=92ac4858-87d6-4ceb-8f6e-004635a816a8","ios":"levelo://app?vid=92ac4858-87d6-4ceb-8f6e-004635a816a8"},"vehicle_type_id":"4","last_reported":1731683361,"current_range_meters":36400,"station_id":"ce4bhnh2rcd13ifvqgtg","pricing_plan_id":"cebpf4jnsgd1na2vs0mg"},{"bike_id":"eb3f0580-a465-46e0-b2f3-2572eb7e164f","system_id":"levelo_inurba_marseille","lat":43.28565,"lon":5.39501,"is_reserved":false,"is_disabled":false,"rental_uris":{"android":"levelo://app?vid=eb3f0580-a465-46e0-b2f3-2572eb7e164f","ios":"levelo://app?vid=eb3f0580-a465-46e0-b2f3-2572eb7e164f"},"vehicle_type_id":"4","last_reported":1731683361,"current_range_meters":19600,"station_id":"ce4bh292rcd13ifvqdg0","pricing_plan_id":"cebpf4jnsgd1na2vs0mg"},{"bike_id":"cd714737-ec5c-47ec-a4e3-cf8af1ba8fc7","system_id":"levelo_inurba_marseille","lat":43.29534,"lon":5.37507,"is_reserved":false,"is_disabled":false,"rental_uris":{"android":"levelo://app?vid=cd714737-ec5c-47ec-a4e3-cf8af1ba8fc7","ios":"levelo://app?vid=cd714737-ec5c-47ec-a4e3-cf8af1ba8fc7"},"vehicle_type_id":"4","last_reported":1731683361,"current_range_meters":33200,"station_id":"ce4bgkp2rcd13ifvqbmg","pricing_plan_id":"cebpf4jnsgd1na2vs0mg"},{"bike_id":"d37a5777-a5f5-4b7f-b7f5-a1dae307da91","system_id":"levelo_inurba_marseille","lat":43.23183,"lon":5.35558,"is_reserved":false,"is_disabled":false,"rental_uris":{"android":"levelo://app?vid=d37a5777-a5f5-4b7f-b7f5-a1dae307da91","ios":"levelo://app?vid=d37a5777-a5f5-4b7f-b7f5-a1dae307da91"},"vehicle_type_id":"4","last_reported":1731683361,"current_range_meters":36400,"station_id":"ce4bhu92rcd13ifvqi70","pricing_plan_id":"cebpf4jnsgd1na2vs0mg"},{"bike_id":"bbf035b4-ed34-4a0b-b98a-266ecbda4271","system_id":"levelo_inurba_marseille","lat":43.25869,"lon":5.39899,"is_reserved":false,"is_disabled":false,"rental_uris":{"android":"levelo://app?vid=bbf035b4-ed34-4a0b-b98a-266ecbda4271","ios":"levelo://app?vid=bbf035b4-ed34-4a0b-b98a-266ecbda4271"},"vehicle_type_id":"4","last_reported":1731683361,"current_range_meters":36800,"station_id":"ce4bhl92rcd13ifvqghg","pricing_plan_id":"cebpf4jnsgd1na2vs0mg"},{"bike_id":"fe00b793-a27d-4cf0-9c62-69bcd7f63110","system_id":"levelo_inurba_marseille","lat":43.264809,"lon":5.395443,"is_reserved":false,"is_disabled":false,"rental_uris":{"android":"levelo://app?vid=fe00b793-a27d-4cf0-9c62-69bcd7f63110","ios":"levelo://app?vid=fe00b793-a27d-4cf0-9c62-69bcd7f63110"},"vehicle_type_id":"4","last_reported":1731683361,"current_range_meters":25600,"station_id":"ce4bhi12rcd13ifvqfq0","pricing_plan_id":"cebpf4jnsgd1na2vs0mg"},{"bike_id":"139d00fc-e67b-449a-9fd4-0db893561dc2","system_id":"levelo_inurba_marseille","lat":43.33756,"lon":5.37418,"is_reserved":false,"is_disabled":false,"rental_uris":{"android":"levelo://app?vid=139d00fc-e67b-449a-9fd4-0db893561dc2","ios":"levelo://app?vid=139d00fc-e67b-449a-9fd4-0db893561dc2"},"vehicle_type_id":"4","last_reported":1731683361,"current_range_meters":9200,"station_id":"","pricing_plan_id":"cebpf4jnsgd1na2vs0mg"},{"bike_id":"bdda4347-118f-4304-b506-09b4b5e15b39","system_id":"levelo_inurba_marseille","lat":43.33723,"lon":5.39186,"is_reserved":false,"is_disabled":false,"rental_uris":{"android":"levelo://app?vid=bdda4347-118f-4304-b506-09b4b5e15b39","ios":"levelo://app?vid=bdda4347-118f-4304-b506-09b4b5e15b39"},"vehicle_type_id":"4","last_reported":1731683361,"current_range_meters":19600,"station_id":"ce4bhr92rcd13ifvqhsg","pricing_plan_id":"cebpf4jnsgd1na2vs0mg"},{"bike_id":"80988ce4-1198-46a8-8108-d84b8a86a8d6","system_id":"levelo_inurba_marseille","lat":43.30782,"lon":5.37649,"is_reserved":false,"is_disabled":false,"rental_uris":{"android":"levelo://app?vid=80988ce4-1198-46a8-8108-d84b8a86a8d6","ios":"levelo://app?vid=80988ce4-1198-46a8-8108-d84b8a86a8d6"},"vehicle_type_id":"4","last_reported":1731683361,"current_range_meters":16800,"station_id":"ce4bgv92rcd13ifvqcq0","pricing_plan_id":"cebpf4jnsgd1na2vs0mg"},{"bike_id":"ecbf4464-bbdd-416a-87d2-839c60e87a84","system_id":"levelo_inurba_marseille","lat":43.28272,"lon":5.35087,"is_reserved":false,"is_disabled":false,"rental_uris":{"android":"levelo://app?vid=ecbf4464-bbdd-416a-87d2-839c60e87a84","ios":"levelo://app?vid=ecbf4464-bbdd-416a-87d2-839c60e87a84"},"vehicle_type_id":"4","last_reported":1731683361,"current_range_meters":8000,"station_id":"ce4bhbp2rcd13ifvqerg","pricing_plan_id":"cebpf4jnsgd1na2vs0mg"},{"bike_id":"9d2e78ea-93c0-4f54-8d36-50985cde445c","system_id":"levelo_inurba_marseille","lat":43.28255,"lon":5.35064,"is_reserved":false,"is_disabled":false,"rental_uris":{"android":"levelo://app?vid=9d2e78ea-93c0-4f54-8d36-50985cde445c","ios":"levelo://app?vid=9d2e78ea-93c0-4f54-8d36-50985cde445c"},"vehicle_type_id":"4","last_reported":1731683361,"current_range_meters":38800,"station_id":"ce4bhbp2rcd13ifvqerg","pricing_plan_id":"cebpf4jnsgd1na2vs0mg"},{"bike_id":"f83a05bf-9920-47a0-a140-7cbf3e1f661f","system_id":"levelo_inurba_marseille","lat":43.29981,"lon":5.3719,"is_reserved":false,"is_disabled":false,"rental_uris":{"android":"levelo://app?vid=f83a05bf-9920-47a0-a140-7cbf3e1f661f","ios":"levelo://app?vid=f83a05bf-9920-47a0-a140-7cbf3e1f661f"},"vehicle_type_id":"4","last_reported":1731683361,"current_range_meters":12400,"station_id":"ce4bgr92rcd13ifvqc7g","pricing_plan_id":"cebpf4jnsgd1na2vs0mg"},{"bike_id":"98121d5f-01e5-45e8-a04a-1b8c07d4a29c","system_id":"levelo_inurba_marseille","lat":43.23956,"lon":5.36638,"is_reserved":false,"is_disabled":false,"rental_uris":{"android":"levelo://app?vid=98121d5f-01e5-45e8-a04a-1b8c07d4a29c","ios":"levelo://app?vid=98121d5f-01e5-45e8-a04a-1b8c07d4a29c"},"vehicle_type_id":"4","last_reported":1731683361,"current_range_meters":12400,"station_id":"ce4bhi12rcd13ifvqfp0","pricing_plan_id":"cebpf4jnsgd1na2vs0mg"},{"bike_id":"a2093831-6093-4959-a0f7-dab6a243ed02","system_id":"levelo_inurba_marseille","lat":43.31231,"lon":5.36848,"is_reserved":false,"is_disabled":false,"rental_uris":{"android":"levelo://app?vid=a2093831-6093-4959-a0f7-dab6a243ed02","ios":"levelo://app?vid=a2093831-6093-4959-a0f7-dab6a243ed02"},"vehicle_type_id":"4","last_reported":1731683361,"current_range_meters":38800,"station_id":"ce4bgl92rcd13ifvqbq0","pricing_plan_id":"cebpf4jnsgd1na2vs0mg"},{"bike_id":"1251cdec-4e0b-4865-8190-36fd90191faa","system_id":"levelo_inurba_marseille","lat":43.315,"lon":5.37306,"is_reserved":false,"is_disabled":false,"rental_uris":{"android":"levelo://app?vid=1251cdec-4e0b-4865-8190-36fd90191faa","ios":"levelo://app?vid=1251cdec-4e0b-4865-8190-36fd90191faa"},"vehicle_type_id":"4","last_reported":1731683361,"current_range_meters":35200,"station_id":"","pricing_plan_id":"cebpf4jnsgd1na2vs0mg"},{"bike_id":"aaa9556d-c130-49ac-a5b1-c7f3e6eeabd2","system_id":"levelo_inurba_marseille","lat":43.30542,"lon":5.36722,"is_reserved":false,"is_disabled":false,"rental_uris":{"android":"levelo://app?vid=aaa9556d-c130-49ac-a5b1-c7f3e6eeabd2","ios":"levelo://app?vid=aaa9556d-c130-49ac-a5b1-c7f3e6eeabd2"},"vehicle_type_id":"4","last_reported":1731683361,"current_range_meters":37600,"station_id":"ce4bgrp2rcd13ifvqc9g","pricing_plan_id":"cebpf4jnsgd1na2vs0mg"},{"bike_id":"5a64e164-d94f-41f1-8880-21e8ebafbb9a","system_id":"levelo_inurba_marseille","lat":43.28421,"lon":5.35005,"is_reserved":false,"is_disabled":false,"rental_uris":{"android":"levelo://app?vid=5a64e164-d94f-41f1-8880-21e8ebafbb9a","ios":"levelo://app?vid=5a64e164-d94f-41f1-8880-21e8ebafbb9a"},"vehicle_type_id":"4","last_reported":1731683361,"current_range_meters":11200,"station_id":"ce4bhbh2rcd13ifvqepg","pricing_plan_id":"cebpf4jnsgd1na2vs0mg"},{"bike_id":"f765df4a-0462-477c-989d-67c0bff36300","system_id":"levelo_inurba_marseille","lat":43.26685,"lon":5.38267,"is_reserved":false,"is_disabled":false,"rental_uris":{"android":"levelo://app?vid=f765df4a-0462-477c-989d-67c0bff36300","ios":"levelo://app?vid=f765df4a-0462-477c-989d-67c0bff36300"},"vehicle_type_id":"4","last_reported":1731683361,"current_range_meters":38800,"station_id":"ce4bhg92rcd13ifvqf90","pricing_plan_id":"cebpf4jnsgd1na2vs0mg"},{"bike_id":"72323bc7-0fd1-43c9-bdb6-a4250b098721","system_id":"levelo_inurba_marseille","lat":43.2466,"lon":5.38167,"is_reserved":false,"is_disabled":false,"rental_uris":{"android":"levelo://app?vid=72323bc7-0fd1-43c9-bdb6-a4250b098721","ios":"levelo://app?vid=72323bc7-0fd1-43c9-bdb6-a4250b098721"},"vehicle_type_id":"4","last_reported":1731683361,"current_range_meters":22400,"station_id":"ce4bhih2rcd13ifvqfr0","pricing_plan_id":"cebpf4jnsgd1na2vs0mg"},{"bike_id":"69e34718-5548-4fc9-a34d-845fce797ba4","system_id":"levelo_inurba_marseille","lat":43.29967,"lon":5.38497,"is_reserved":false,"is_disabled":false,"rental_uris":{"android":"levelo://app?vid=69e34718-5548-4fc9-a34d-845fce797ba4","ios":"levelo://app?vid=69e34718-5548-4fc9-a34d-845fce797ba4"},"vehicle_type_id":"4","last_reported":1731683361,"current_range_meters":8800,"station_id":"ce4bgj92rcd13ifvqbd0","pricing_plan_id":"cebpf4jnsgd1na2vs0mg"},{"bike_id":"9bafab45-cb8e-4c27-803a-82d257c6d546","system_id":"levelo_inurba_marseille","lat":43.29839,"lon":5.36271,"is_reserved":false,"is_disabled":false,"rental_uris":{"android":"levelo://app?vid=9bafab45-cb8e-4c27-803a-82d257c6d546","ios":"levelo://app?vid=9bafab45-cb8e-4c27-803a-82d257c6d546"},"vehicle_type_id":"4","last_reported":1731683361,"current_range_meters":39200,"station_id":"ce4bgpp2rcd13ifvqc3g","pricing_plan_id":"cebpf4jnsgd1na2vs0mg"},{"bike_id":"6d6992bf-ade3-4a22-a168-306dafdc4544","system_id":"levelo_inurba_marseille","lat":43.24167,"lon":5.36403,"is_reserved":false,"is_disabled":false,"rental_uris":{"android":"levelo://app?vid=6d6992bf-ade3-4a22-a168-306dafdc4544","ios":"levelo://app?vid=6d6992bf-ade3-4a22-a168-306dafdc4544"},"vehicle_type_id":"4","last_reported":1731683361,"current_range_meters":37600,"station_id":"cpo36qri1sfpv3e86is0","pricing_plan_id":"cebpf4jnsgd1na2vs0mg"},{"bike_id":"723d1851-243a-45a0-b611-276b9e40945b","system_id":"levelo_inurba_marseille","lat":43.3054,"lon":5.3654,"is_reserved":false,"is_disabled":false,"rental_uris":{"android":"levelo://app?vid=723d1851-243a-45a0-b611-276b9e40945b","ios":"levelo://app?vid=723d1851-243a-45a0-b611-276b9e40945b"},"vehicle_type_id":"4","last_reported":1731683361,"current_range_meters":37600,"station_id":"ce4bgs12rcd13ifvqcag","pricing_plan_id":"cebpf4jnsgd1na2vs0mg"},{"bike_id":"3ce332c8-6f12-484c-b840-78411122c964","system_id":"levelo_inurba_marseille","lat":43.24542,"lon":5.39535,"is_reserved":false,"is_disabled":false,"rental_uris":{"android":"levelo://app?vid=3ce332c8-6f12-484c-b840-78411122c964","ios":"levelo://app?vid=3ce332c8-6f12-484c-b840-78411122c964"},"vehicle_type_id":"4","last_reported":1731683361,"current_range_meters":38000,"station_id":"ce4bhlp2rcd13ifvqgjg","pricing_plan_id":"cebpf4jnsgd1na2vs0mg"},{"bike_id":"bbd81c38-414d-434f-a9ae-9c40020ac50d","system_id":"levelo_inurba_marseille","lat":43.29011,"lon":5.3561,"is_reserved":false,"is_disabled":false,"rental_uris":{"android":"levelo://app?vid=bbd81c38-414d-434f-a9ae-9c40020ac50d","ios":"levelo://app?vid=bbd81c38-414d-434f-a9ae-9c40020ac50d"},"vehicle_type_id":"4","last_reported":1731683361,"current_range_meters":35600,"station_id":"ce4bhb92rcd13ifvqen0","pricing_plan_id":"cebpf4jnsgd1na2vs0mg"},{"bike_id":"eef5d37c-5bfd-4c76-81bd-46afa511c5a9","system_id":"levelo_inurba_marseille","lat":43.33019,"lon":5.3905,"is_reserved":false,"is_disabled":false,"rental_uris":{"android":"levelo://app?vid=eef5d37c-5bfd-4c76-81bd-46afa511c5a9","ios":"levelo://app?vid=eef5d37c-5bfd-4c76-81bd-46afa511c5a9"},"vehicle_type_id":"4","last_reported":1731683361,"current_range_meters":39200,"station_id":"ce4bhr92rcd13ifvqhrg","pricing_plan_id":"cebpf4jnsgd1na2vs0mg"},{"bike_id":"fb838147-a7da-4382-9bee-b1e614402b93","system_id":"levelo_inurba_marseille","lat":43.30929,"lon":5.40145,"is_reserved":false,"is_disabled":false,"rental_uris":{"android":"levelo://app?vid=fb838147-a7da-4382-9bee-b1e614402b93","ios":"levelo://app?vid=fb838147-a7da-4382-9bee-b1e614402b93"},"vehicle_type_id":"4","last_reported":1731683361,"current_range_meters":40000,"station_id":"ce4bgvp2rcd13ifvqct0","pricing_plan_id":"cebpf4jnsgd1na2vs0mg"},{"bike_id":"1707cb1e-404f-449a-8ec1-810d24d3f970","system_id":"levelo_inurba_marseille","lat":43.23219,"lon":5.39938,"is_reserved":false,"is_disabled":false,"rental_uris":{"android":"levelo://app?vid=1707cb1e-404f-449a-8ec1-810d24d3f970","ios":"levelo://app?vid=1707cb1e-404f-449a-8ec1-810d24d3f970"},"vehicle_type_id":"4","last_reported":1731683361,"current_range_meters":30000,"station_id":"","pricing_plan_id":"cebpf4jnsgd1na2vs0mg"},{"bike_id":"aa53dea9-0cec-40bf-b103-f733f7d1a955","system_id":"levelo_inurba_marseille","lat":43.26061,"lon":5.39396,"is_reserved":false,"is_disabled":false,"rental_uris":{"android":"levelo://app?vid=aa53dea9-0cec-40bf-b103-f733f7d1a955","ios":"levelo://app?vid=aa53dea9-0cec-40bf-b103-f733f7d1a955"},"vehicle_type_id":"4","last_reported":1731683361,"current_range_meters":27600,"station_id":"ce4bhh92rcd13ifvqfj0","pricing_plan_id":"cebpf4jnsgd1na2vs0mg"},{"bike_id":"12b6414d-a779-466f-9444-5f6a5dbfb429","system_id":"levelo_inurba_marseille","lat":43.32336,"lon":5.40621,"is_reserved":false,"is_disabled":false,"rental_uris":{"android":"levelo://app?vid=12b6414d-a779-466f-9444-5f6a5dbfb429","ios":"levelo://app?vid=12b6414d-a779-466f-9444-5f6a5dbfb429"},"vehicle_type_id":"4","last_reported":1731683361,"current_range_meters":3200,"station_id":"ce4bhq92rcd13ifvqhjg","pricing_plan_id":"cebpf4jnsgd1na2vs0mg"},{"bike_id":"437e4ad5-97d4-492c-9734-ab5a397fafd4","system_id":"levelo_inurba_marseille","lat":43.29278,"lon":5.39241,"is_reserved":false,"is_disabled":false,"rental_uris":{"android":"levelo://app?vid=437e4ad5-97d4-492c-9734-ab5a397fafd4","ios":"levelo://app?vid=437e4ad5-97d4-492c-9734-ab5a397fafd4"},"vehicle_type_id":"4","last_reported":1731683361,"current_range_meters":32000,"station_id":"","pricing_plan_id":"cebpf4jnsgd1na2vs0mg"},{"bike_id":"ff273380-c91d-4de0-97f4-4e62bfd1e6c1","system_id":"levelo_inurba_marseille","lat":43.29649,"lon":5.37648,"is_reserved":false,"is_disabled":false,"rental_uris":{"android":"levelo://app?vid=ff273380-c91d-4de0-97f4-4e62bfd1e6c1","ios":"levelo://app?vid=ff273380-c91d-4de0-97f4-4e62bfd1e6c1"},"vehicle_type_id":"4","last_reported":1731683361,"current_range_meters":16400,"station_id":"","pricing_plan_id":"cebpf4jnsgd1na2vs0mg"},{"bike_id":"cc62fcc4-337b-4171-9606-18c03e10f00d","system_id":"levelo_inurba_marseille","lat":43.31082,"lon":5.42434,"is_reserved":false,"is_disabled":false,"rental_uris":{"android":"levelo://app?vid=cc62fcc4-337b-4171-9606-18c03e10f00d","ios":"levelo://app?vid=cc62fcc4-337b-4171-9606-18c03e10f00d"},"vehicle_type_id":"4","last_reported":1731683361,"current_range_meters":28000,"station_id":"ce4bhp92rcd13ifvqhag","pricing_plan_id":"cebpf4jnsgd1na2vs0mg"},{"bike_id":"cb3095ed-188a-40f9-9a74-e608f1334364","system_id":"levelo_inurba_marseille","lat":43.30547,"lon":5.36536,"is_reserved":false,"is_disabled":false,"rental_uris":{"android":"levelo://app?vid=cb3095ed-188a-40f9-9a74-e608f1334364","ios":"levelo://app?vid=cb3095ed-188a-40f9-9a74-e608f1334364"},"vehicle_type_id":"4","last_reported":1731683361,"current_range_meters":11200,"station_id":"ce4bgs12rcd13ifvqcag","pricing_plan_id":"cebpf4jnsgd1na2vs0mg"},{"bike_id":"1ac4d725-7c8f-41ac-a4a3-d04633942509","system_id":"levelo_inurba_marseille","lat":43.27333,"lon":5.39064,"is_reserved":false,"is_disabled":false,"rental_uris":{"android":"levelo://app?vid=1ac4d725-7c8f-41ac-a4a3-d04633942509","ios":"levelo://app?vid=1ac4d725-7c8f-41ac-a4a3-d04633942509"},"vehicle_type_id":"4","last_reported":1731683361,"current_range_meters":30400,"station_id":"ce4bhgp2rcd13ifvqfe0","pricing_plan_id":"cebpf4jnsgd1na2vs0mg"},{"bike_id":"13b9d86a-46e3-45cf-8785-bba34a2ac5b6","system_id":"levelo_inurba_marseille","lat":43.29776,"lon":5.370478,"is_reserved":false,"is_disabled":false,"rental_uris":{"android":"levelo://app?vid=13b9d86a-46e3-45cf-8785-bba34a2ac5b6","ios":"levelo://app?vid=13b9d86a-46e3-45cf-8785-bba34a2ac5b6"},"vehicle_type_id":"4","last_reported":1731683361,"current_range_meters":37600,"station_id":"ce4bgop2rcd13ifvqc1g","pricing_plan_id":"cebpf4jnsgd1na2vs0mg"},{"bike_id":"c947d532-b6df-472c-a077-fc553da9a35a","system_id":"levelo_inurba_marseille","lat":43.32488,"lon":5.3657,"is_reserved":false,"is_disabled":false,"rental_uris":{"android":"levelo://app?vid=c947d532-b6df-472c-a077-fc553da9a35a","ios":"levelo://app?vid=c947d532-b6df-472c-a077-fc553da9a35a"},"vehicle_type_id":"4","last_reported":1731683361,"current_range_meters":3200,"station_id":"ce4bhs12rcd13ifvqhvg","pricing_plan_id":"cebpf4jnsgd1na2vs0mg"},{"bike_id":"40576e48-aaec-456b-8e7d-96af34db0e32","system_id":"levelo_inurba_marseille","lat":43.28266,"lon":5.35069,"is_reserved":false,"is_disabled":false,"rental_uris":{"android":"levelo://app?vid=40576e48-aaec-456b-8e7d-96af34db0e32","ios":"levelo://app?vid=40576e48-aaec-456b-8e7d-96af34db0e32"},"vehicle_type_id":"4","last_reported":1731683361,"current_range_meters":8400,"station_id":"ce4bhbp2rcd13ifvqerg","pricing_plan_id":"cebpf4jnsgd1na2vs0mg"},{"bike_id":"fd038e5a-a27b-4034-a378-4d3f31499fdd","system_id":"levelo_inurba_marseille","lat":43.30645,"lon":5.40083,"is_reserved":false,"is_disabled":false,"rental_uris":{"android":"levelo://app?vid=fd038e5a-a27b-4034-a378-4d3f31499fdd","ios":"levelo://app?vid=fd038e5a-a27b-4034-a378-4d3f31499fdd"},"vehicle_type_id":"4","last_reported":1731683361,"current_range_meters":38800,"station_id":"ce4bh112rcd13ifvqda0","pricing_plan_id":"cebpf4jnsgd1na2vs0mg"},{"bike_id":"86a9c6f8-21b3-4e90-a7e9-de1e686955f9","system_id":"levelo_inurba_marseille","lat":43.29564,"lon":5.37481,"is_reserved":false,"is_disabled":false,"rental_uris":{"android":"levelo://app?vid=86a9c6f8-21b3-4e90-a7e9-de1e686955f9","ios":"levelo://app?vid=86a9c6f8-21b3-4e90-a7e9-de1e686955f9"},"vehicle_type_id":"4","last_reported":1731683361,"current_range_meters":38800,"station_id":"ce4bgkp2rcd13ifvqbmg","pricing_plan_id":"cebpf4jnsgd1na2vs0mg"},{"bike_id":"54ca0469-42c9-4930-b7f6-f7e876b3ca0e","system_id":"levelo_inurba_marseille","lat":43.29411,"lon":5.38638,"is_reserved":false,"is_disabled":false,"rental_uris":{"android":"levelo://app?vid=54ca0469-42c9-4930-b7f6-f7e876b3ca0e","ios":"levelo://app?vid=54ca0469-42c9-4930-b7f6-f7e876b3ca0e"},"vehicle_type_id":"4","last_reported":1731683361,"current_range_meters":8400,"station_id":"ce4bh2h2rcd13ifvqdh0","pricing_plan_id":"cebpf4jnsgd1na2vs0mg"},{"bike_id":"e4380e4d-eaa0-4543-b18c-3a9a526c5443","system_id":"levelo_inurba_marseille","lat":43.323621,"lon":5.388843,"is_reserved":false,"is_disabled":false,"rental_uris":{"android":"levelo://app?vid=e4380e4d-eaa0-4543-b18c-3a9a526c5443","ios":"levelo://app?vid=e4380e4d-eaa0-4543-b18c-3a9a526c5443"},"vehicle_type_id":"4","last_reported":1731683361,"current_range_meters":38800,"station_id":"ce4bhqp2rcd13ifvqhog","pricing_plan_id":"cebpf4jnsgd1na2vs0mg"},{"bike_id":"ac4ef8d1-89a5-45c8-a5e1-abf2a9a08776","system_id":"levelo_inurba_marseille","lat":43.231903,"lon":5.355564,"is_reserved":false,"is_disabled":false,"rental_uris":{"android":"levelo://app?vid=ac4ef8d1-89a5-45c8-a5e1-abf2a9a08776","ios":"levelo://app?vid=ac4ef8d1-89a5-45c8-a5e1-abf2a9a08776"},"vehicle_type_id":"4","last_reported":1731683361,"current_range_meters":16800,"station_id":"ce4bhu92rcd13ifvqi70","pricing_plan_id":"cebpf4jnsgd1na2vs0mg"},{"bike_id":"f389336d-52b8-4419-9224-e84acd03c72a","system_id":"levelo_inurba_marseille","lat":43.2903,"lon":5.38648,"is_reserved":false,"is_disabled":false,"rental_uris":{"android":"levelo://app?vid=f389336d-52b8-4419-9224-e84acd03c72a","ios":"levelo://app?vid=f389336d-52b8-4419-9224-e84acd03c72a"},"vehicle_type_id":"4","last_reported":1731683361,"current_range_meters":14000,"station_id":"ce4bh4p2rcd13ifvqe0g","pricing_plan_id":"cebpf4jnsgd1na2vs0mg"},{"bike_id":"31b04d6c-332f-4504-a3ca-ec3287fdbec7","system_id":"levelo_inurba_marseille","lat":43.32659,"lon":5.40995,"is_reserved":false,"is_disabled":false,"rental_uris":{"android":"levelo://app?vid=31b04d6c-332f-4504-a3ca-ec3287fdbec7","ios":"levelo://app?vid=31b04d6c-332f-4504-a3ca-ec3287fdbec7"},"vehicle_type_id":"4","last_reported":1731683361,"current_range_meters":10800,"station_id":"ce4bhpp2rcd13ifvqhgg","pricing_plan_id":"cebpf4jnsgd1na2vs0mg"},{"bike_id":"62cd57b2-ebfd-46c7-afe4-d6c2596fce58","system_id":"levelo_inurba_marseille","lat":43.284123,"lon":5.349781,"is_reserved":false,"is_disabled":false,"rental_uris":{"android":"levelo://app?vid=62cd57b2-ebfd-46c7-afe4-d6c2596fce58","ios":"levelo://app?vid=62cd57b2-ebfd-46c7-afe4-d6c2596fce58"},"vehicle_type_id":"4","last_reported":1731683361,"current_range_meters":18800,"station_id":"ce4bhb12rcd13ifvqem0","pricing_plan_id":"cebpf4jnsgd1na2vs0mg"},{"bike_id":"7037a7a9-89be-4835-99e0-d202607efc23","system_id":"levelo_inurba_marseille","lat":43.28421,"lon":5.34995,"is_reserved":false,"is_disabled":false,"rental_uris":{"android":"levelo://app?vid=7037a7a9-89be-4835-99e0-d202607efc23","ios":"levelo://app?vid=7037a7a9-89be-4835-99e0-d202607efc23"},"vehicle_type_id":"4","last_reported":1731683361,"current_range_meters":38800,"station_id":"ce4bhbh2rcd13ifvqepg","pricing_plan_id":"cebpf4jnsgd1na2vs0mg"},{"bike_id":"150c3799-4921-4a3d-b463-30df6724a5fd","system_id":"levelo_inurba_marseille","lat":43.25574,"lon":5.38244,"is_reserved":false,"is_disabled":false,"rental_uris":{"android":"levelo://app?vid=150c3799-4921-4a3d-b463-30df6724a5fd","ios":"levelo://app?vid=150c3799-4921-4a3d-b463-30df6724a5fd"},"vehicle_type_id":"4","last_reported":1731683361,"current_range_meters":23200,"station_id":"ce4bhih2rcd13ifvqfs0","pricing_plan_id":"cebpf4jnsgd1na2vs0mg"},{"bike_id":"20f8c9b5-1c44-49af-a49c-7ca7bc047d8d","system_id":"levelo_inurba_marseille","lat":43.295349,"lon":5.385388,"is_reserved":false,"is_disabled":false,"rental_uris":{"android":"levelo://app?vid=20f8c9b5-1c44-49af-a49c-7ca7bc047d8d","ios":"levelo://app?vid=20f8c9b5-1c44-49af-a49c-7ca7bc047d8d"},"vehicle_type_id":"4","last_reported":1731683361,"current_range_meters":24800,"station_id":"ce4bgih2rcd13ifvqba0","pricing_plan_id":"cebpf4jnsgd1na2vs0mg"},{"bike_id":"1024c15b-6cc2-410d-88e1-71efbaf3f6b0","system_id":"levelo_inurba_marseille","lat":43.31114,"lon":5.37767,"is_reserved":false,"is_disabled":false,"rental_uris":{"android":"levelo://app?vid=1024c15b-6cc2-410d-88e1-71efbaf3f6b0","ios":"levelo://app?vid=1024c15b-6cc2-410d-88e1-71efbaf3f6b0"},"vehicle_type_id":"4","last_reported":1731683361,"current_range_meters":38800,"station_id":"ce4bgt92rcd13ifvqcg0","pricing_plan_id":"cebpf4jnsgd1na2vs0mg"},{"bike_id":"812dfd54-99b8-4f76-8fb7-2b81d9bd608d","system_id":"levelo_inurba_marseille","lat":43.26197,"lon":5.37937,"is_reserved":false,"is_disabled":false,"rental_uris":{"android":"levelo://app?vid=812dfd54-99b8-4f76-8fb7-2b81d9bd608d","ios":"levelo://app?vid=812dfd54-99b8-4f76-8fb7-2b81d9bd608d"},"vehicle_type_id":"4","last_reported":1731683361,"current_range_meters":6000,"station_id":"ce4bhjp2rcd13ifvqg90","pricing_plan_id":"cebpf4jnsgd1na2vs0mg"},{"bike_id":"f2af9365-fdc2-4b99-9391-e30a9e3e43b3","system_id":"levelo_inurba_marseille","lat":43.32347,"lon":5.36601,"is_reserved":false,"is_disabled":false,"rental_uris":{"android":"levelo://app?vid=f2af9365-fdc2-4b99-9391-e30a9e3e43b3","ios":"levelo://app?vid=f2af9365-fdc2-4b99-9391-e30a9e3e43b3"},"vehicle_type_id":"4","last_reported":1731683361,"current_range_meters":26000,"station_id":"ce4bhsh2rcd13ifvqi2g","pricing_plan_id":"cebpf4jnsgd1na2vs0mg"},{"bike_id":"bb522734-48ce-4de6-8330-a5f77169e2f2","system_id":"levelo_inurba_marseille","lat":43.29901,"lon":5.43666,"is_reserved":false,"is_disabled":false,"rental_uris":{"android":"levelo://app?vid=bb522734-48ce-4de6-8330-a5f77169e2f2","ios":"levelo://app?vid=bb522734-48ce-4de6-8330-a5f77169e2f2"},"vehicle_type_id":"4","last_reported":1731683361,"current_range_meters":10800,"station_id":"ce4bhpp2rcd13ifvqhfg","pricing_plan_id":"cebpf4jnsgd1na2vs0mg"},{"bike_id":"62280381-5699-4ab7-9ab6-a573e49f987e","system_id":"levelo_inurba_marseille","lat":43.26678,"lon":5.38264,"is_reserved":false,"is_disabled":false,"rental_uris":{"android":"levelo://app?vid=62280381-5699-4ab7-9ab6-a573e49f987e","ios":"levelo://app?vid=62280381-5699-4ab7-9ab6-a573e49f987e"},"vehicle_type_id":"4","last_reported":1731683361,"current_range_meters":39200,"station_id":"ce4bhg92rcd13ifvqf90","pricing_plan_id":"cebpf4jnsgd1na2vs0mg"},{"bike_id":"069f956f-9880-44d7-9606-9bd8ef3db0fb","system_id":"levelo_inurba_marseille","lat":43.2953,"lon":5.38542,"is_reserved":false,"is_disabled":false,"rental_uris":{"android":"levelo://app?vid=069f956f-9880-44d7-9606-9bd8ef3db0fb","ios":"levelo://app?vid=069f956f-9880-44d7-9606-9bd8ef3db0fb"},"vehicle_type_id":"4","last_reported":1731683361,"current_range_meters":26000,"station_id":"ce4bgih2rcd13ifvqba0","pricing_plan_id":"cebpf4jnsgd1na2vs0mg"},{"bike_id":"10afd853-f114-48bf-8d52-74a650c05795","system_id":"levelo_inurba_marseille","lat":43.26026,"lon":5.37563,"is_reserved":false,"is_disabled":false,"rental_uris":{"android":"levelo://app?vid=10afd853-f114-48bf-8d52-74a650c05795","ios":"levelo://app?vid=10afd853-f114-48bf-8d52-74a650c05795"},"vehicle_type_id":"4","last_reported":1731683361,"current_range_meters":19200,"station_id":"ce4bhgh2rcd13ifvqfa0","pricing_plan_id":"cebpf4jnsgd1na2vs0mg"},{"bike_id":"6cceeb09-431c-4b48-a5cf-db847b8faddb","system_id":"levelo_inurba_marseille","lat":43.337444,"lon":5.374475,"is_reserved":false,"is_disabled":false,"rental_uris":{"android":"levelo://app?vid=6cceeb09-431c-4b48-a5cf-db847b8faddb","ios":"levelo://app?vid=6cceeb09-431c-4b48-a5cf-db847b8faddb"},"vehicle_type_id":"4","last_reported":1731683361,"current_range_meters":33600,"station_id":"","pricing_plan_id":"cebpf4jnsgd1na2vs0mg"},{"bike_id":"b5cfc0df-c176-449e-879e-c859f11f57be","system_id":"levelo_inurba_marseille","lat":43.26682,"lon":5.38274,"is_reserved":false,"is_disabled":false,"rental_uris":{"android":"levelo://app?vid=b5cfc0df-c176-449e-879e-c859f11f57be","ios":"levelo://app?vid=b5cfc0df-c176-449e-879e-c859f11f57be"},"vehicle_type_id":"4","last_reported":1731683361,"current_range_meters":10800,"station_id":"ce4bhg92rcd13ifvqf90","pricing_plan_id":"cebpf4jnsgd1na2vs0mg"},{"bike_id":"4d164941-a4fe-429f-977f-982f0af93299","system_id":"levelo_inurba_marseille","lat":43.31826,"lon":5.38987,"is_reserved":false,"is_disabled":false,"rental_uris":{"android":"levelo://app?vid=4d164941-a4fe-429f-977f-982f0af93299","ios":"levelo://app?vid=4d164941-a4fe-429f-977f-982f0af93299"},"vehicle_type_id":"4","last_reported":1731683361,"current_range_meters":39200,"station_id":"","pricing_plan_id":"cebpf4jnsgd1na2vs0mg"},{"bike_id":"15d12ce5-d368-4e0c-8424-58b2f11e7740","system_id":"levelo_inurba_marseille","lat":43.30547,"lon":5.36715,"is_reserved":false,"is_disabled":false,"rental_uris":{"android":"levelo://app?vid=15d12ce5-d368-4e0c-8424-58b2f11e7740","ios":"levelo://app?vid=15d12ce5-d368-4e0c-8424-58b2f11e7740"},"vehicle_type_id":"4","last_reported":1731683361,"current_range_meters":38400,"station_id":"ce4bgrp2rcd13ifvqc9g","pricing_plan_id":"cebpf4jnsgd1na2vs0mg"},{"bike_id":"cbe80886-cf10-4769-ae0b-39a7e37f5819","system_id":"levelo_inurba_marseille","lat":43.27619,"lon":5.36118,"is_reserved":false,"is_disabled":false,"rental_uris":{"android":"levelo://app?vid=cbe80886-cf10-4769-ae0b-39a7e37f5819","ios":"levelo://app?vid=cbe80886-cf10-4769-ae0b-39a7e37f5819"},"vehicle_type_id":"4","last_reported":1731683361,"current_range_meters":38800,"station_id":"ce4bgj92rcd13ifvqbe0","pricing_plan_id":"cebpf4jnsgd1na2vs0mg"},{"bike_id":"fe34e79d-89a4-4c9d-9e26-e258e0391b41","system_id":"levelo_inurba_marseille","lat":43.2318,"lon":5.39989,"is_reserved":false,"is_disabled":false,"rental_uris":{"android":"levelo://app?vid=fe34e79d-89a4-4c9d-9e26-e258e0391b41","ios":"levelo://app?vid=fe34e79d-89a4-4c9d-9e26-e258e0391b41"},