{"last_updated":1747948173,"ttl":60,"version":"2.2","data":{"bikes":[{"bike_id":"c0b9fd4f-e181-46ce-b0bf-f5119973334f","system_id":"levelo_inurba_marseille","lat":43.33771,"lon":5.37424,"is_reserved":false,"is_disabled":true,"rental_uris":{"android":"levelo://app?vid=c0b9fd4f-e181-46ce-b0bf-f5119973334f","ios":"levelo://app?vid=c0b9fd4f-e181-46ce-b0bf-f5119973334f"},"vehicle_type_id":"4","last_reported":1747948173,"current_range_meters":0,"station_id":"","pricing_plan_id":"cebpf4jnsgd1na2vs0mg"},{"bike_id":"c306fa7d-481e-4ae3-9585-ff4c1f5ddcb9","system_id":"levelo_inurba_marseille","lat":43.34941,"lon":5.37873,"is_reserved":false,"is_disabled":true,"rental_uris":{"android":"levelo://app?vid=c306fa7d-481e-4ae3-9585-ff4c1f5ddcb9","ios":"levelo://app?vid=c306fa7d-481e-4ae3-9585-ff4c1f5ddcb9"},"vehicle_type_id":"4","last_reported":1747948173,"current_range_meters":0,"station_id":"","pricing_plan_id":"cebpf4jnsgd1na2vs0mg"},{"bike_id":"c2b4a03e-0b64-4ca0-8ea3-612bc6668100","system_id":"levelo_inurba_marseille","lat":43.314016,"lon":5.375543,"is_reserved":false,"is_disabled":true,"rental_uris":{"android":"levelo://app?vid=c2b4a03e-0b64-4ca0-8ea3-612bc6668100","ios":"levelo://app?vid=c2b4a03e-0b64-4ca0-8ea3-612bc6668100"},"vehicle_type_id":"4","last_reported":1747948173,"current_range_meters":0,"station_id":"","pricing_plan_id":"cebpf4jnsgd1na2vs0mg"},{"bike_id":"8f0f531d-6a65-4647-8a6f-baa3d982f42f","system_id":"levelo_inurba_marseille","lat":43.28127,"lon":5.42559,"is_reserved":false,"is_disabled":true,"rental_uris":{"android":"levelo://app?vid=8f0f531d-6a65-4647-8a6f-baa3d982f42f","ios":"levelo://app?vid=8f0f531d-6a65-4647-8a6f-baa3d982f42f"},"vehicle_type_id":"4","last_reported":1747948173,"current_range_meters":0,"station_id":"","pricing_plan_id":"cebpf4jnsgd1na2vs0mg"},{"bike_id":"70c5c5ad-5e66-4a49-9450-c4d67d96b788","system_id":"levelo_inurba_marseille","lat":43.27107,"lon":5.42717,"is_reserved":false,"is_disabled":true,"rental_uris":{"android":"levelo://app?vid=70c5c5ad-5e66-4a49-9450-c4d67d96b788","ios":"levelo://app?vid=70c5c5ad-5e66-4a49-9450-c4d67d96b788"},"vehicle_type_id":"4","last_reported":1747948173,"current_range_meters":0,"station_id":"","pricing_plan_id":"cebpf4jnsgd1na2vs0mg"},{"bike_id":"5281ff50-15a3-4882-a775-51088d6a98cc","system_id":"levelo_inurba_marseille","lat":43.31313,"lon":5.37855,"is_reserved":false,"is_disabled":true,"rental_uris":{"android":"levelo://app?vid=5281ff50-15a3-4882-a775-51088d6a98cc","ios":"levelo://app?vid=5281ff50-15a3-4882-a775-51088d6a98cc"},"vehicle_type_id":"4","last_reported":1747948173,"current_range_meters":0,"station_id":"","pricing_plan_id":"cebpf4jnsgd1na2vs0mg"},{"bike_id":"15dcdbbd-a41e-43eb-9ed6-26ec15ce7a50","system_id":"levelo_inurba_marseille","lat":43.21412,"lon":5.34117,"is_reserved":false,"is_disabled":true,"rental_uris":{"android":"levelo://app?vid=15dcdbbd-a41e-43eb-9ed6-26ec15ce7a50","ios":"levelo://app?vid=15dcdbbd-a41e-43eb-9ed6-26ec15ce7a50"},"vehicle_type_id":"4","last_reported":1747948173,"current_range_meters":0,"station_id":"","pricing_plan_id":"cebpf4jnsgd1na2vs0mg"},{"bike_id":"e9dd3aa4-b5e7-4480-926d-d7f537719bfa","system_id":"levelo_inurba_marseille","lat":43.230331,"lon":5.401847,"is_reserved":false,"is_disabled":true,"rental_uris":{"android":"levelo://app?vid=e9dd3aa4-b5e7-4480-926d-d7f537719bfa","ios":"levelo://app?vid=e9dd3aa4-b5e7-4480-926d-d7f537719bfa"},"vehicle_type_id":"4","last_reported":1747948173,"current_range_meters":0,"station_id":"","pricing_plan_id":"cebpf4jnsgd1na2vs0mg"},{"bike_id":"14603e41-b2dd-4757-a53c-2e366aa4f983","system_id":"levelo_inurba_marseille","lat":43.26994,"lon":5.42808,"is_reserved":false,"is_disabled":true,"rental_uris":{"android":"levelo://app?vid=14603e41-b2dd-4757-a53c-2e366aa4f983","ios":"levelo://app?vid=14603e41-b2dd-4757-a53c-2e366aa4f983"},"vehicle_type_id":"4","last_reported":1747948173,"current_range_meters":0,"station_id":"","pricing_plan_id":"cebpf4jnsgd1na2vs0mg"},{"bike_id":"de12e0ad-92f4-409b-b7b4-02da8b363ca3","system_id":"levelo_inurba_marseille","lat":43.31238,"lon":5.36846,"is_reserved":false,"is_disabled":true,"rental_uris":{"android":"levelo://app?vid=de12e0ad-92f4-409b-b7b4-02da8b363ca3","ios":"levelo://app?vid=de12e0ad-92f4-409b-b7b4-02da8b363ca3"},"vehicle_type_id":"4","last_reported":1747948173,"current_range_meters":0,"station_id":"ce4bgl92rcd13ifvqbq0","pricing_plan_id":"cebpf4jnsgd1na2vs0mg"},{"bike_id":"a932efc5-3f56-4271-8ada-6059e1f7ba38","system_id":"levelo_inurba_marseille","lat":43.26565,"lon":5.37307,"is_reserved":false,"is_disabled":true,"rental_uris":{"android":"levelo://app?vid=a932efc5-3f56-4271-8ada-6059e1f7ba38","ios":"levelo://app?vid=a932efc5-3f56-4271-8ada-6059e1f7ba38"},"vehicle_type_id":"4","last_reported":1747948173,"current_range_meters":0,"station_id":"ce4bhg12rcd13ifvqf70","pricing_plan_id":"cebpf4jnsgd1na2vs0mg"},{"bike_id":"9913adaa-d53d-44af-8cc0-e1c41d052752","system_id":"levelo_inurba_marseille","lat":43.27975,"lon":5.38684,"is_reserved":false,"is_disabled":true,"rental_uris":{"android":"levelo://app?vid=9913adaa-d53d-44af-8cc0-e1c41d052752","ios":"levelo://app?vid=9913adaa-d53d-44af-8cc0-e1c41d052752"},"vehicle_type_id":"4","last_reported":1747948173,"current_range_meters":0,"station_id":"ce4bhg12rcd13ifvqf80","pricing_plan_id":"cebpf4jnsgd1na2vs0mg"},{"bike_id":"1a923fe3-9b61-4f75-993d-10058a181d6d","system_id":"levelo_inurba_marseille","lat":43.21764,"lon":5.34592,"is_reserved":false,"is_disabled":true,"rental_uris":{"android":"levelo://app?vid=1a923fe3-9b61-4f75-993d-10058a181d6d","ios":"levelo://app?vid=1a923fe3-9b61-4f75-993d-10058a181d6d"},"vehicle_type_id":"4","last_reported":1747948173,"current_range_meters":400,"station_id":"st_cvj6r9ubvosntc0bgbag","pricing_plan_id":"cebpf4jnsgd1na2vs0mg"},{"bike_id":"93a35d3a-1936-4414-a1d8-31dec0b3097e","system_id":"levelo_inurba_marseille","lat":43.24185,"lon":5.39735,"is_reserved":false,"is_disabled":true,"rental_uris":{"android":"levelo://app?vid=93a35d3a-1936-4414-a1d8-31dec0b3097e","ios":"levelo://app?vid=93a35d3a-1936-4414-a1d8-31dec0b3097e"},"vehicle_type_id":"4","last_reported":1747948173,"current_range_meters":1600,"station_id":"ce4bhn12rcd13ifvqgpg","pricing_plan_id":"cebpf4jnsgd1na2vs0mg"},{"bike_id":"e8162579-a5ad-485f-ad83-fec8a2ebe7e1","system_id":"levelo_inurba_marseille","lat":43.26826,"lon":5.39099,"is_reserved":false,"is_disabled":false,"rental_uris":{"android":"levelo://app?vid=e8162579-a5ad-485f-ad83-fec8a2ebe7e1","ios":"levelo://app?vid=e8162579-a5ad-485f-ad83-fec8a2ebe7e1"},"vehicle_type_id":"4","last_reported":1747948173,"current_range_meters":2800,"station_id":"","pricing_plan_id":"cebpf4jnsgd1na2vs0mg"},{"bike_id":"943a04db-5f70-4903-871f-bb6a80a94945","system_id":"levelo_inurba_marseille","lat":43.25866,"lon":5.39906,"is_reserved":false,"is_disabled":false,"rental_uris":{"android":"levelo://app?vid=943a04db-5f70-4903-871f-bb6a80a94945","ios":"levelo://app?vid=943a04db-5f70-4903-871f-bb6a80a94945"},"vehicle_type_id":"4","last_reported":1747948173,"current_range_meters":2800,"station_id":"ce4bhl92rcd13ifvqghg","pricing_plan_id":"cebpf4jnsgd1na2vs0mg"},{"bike_id":"c57d2346-f44f-40e9-88b8-b38969205265","system_id":"levelo_inurba_marseille","lat":43.24229,"lon":5.36355,"is_reserved":false,"is_disabled":false,"rental_uris":{"android":"levelo://app?vid=c57d2346-f44f-40e9-88b8-b38969205265","ios":"levelo://app?vid=c57d2346-f44f-40e9-88b8-b38969205265"},"vehicle_type_id":"4","last_reported":1747948173,"current_range_meters":3200,"station_id":"cpo36qri1sfpv3e86is0","pricing_plan_id":"cebpf4jnsgd1na2vs0mg"},{"bike_id":"68abeed7-ecca-4dea-8323-3a8fed03b44d","system_id":"levelo_inurba_marseille","lat":43.308932,"lon":5.396507,"is_reserved":false,"is_disabled":false,"rental_uris":{"android":"levelo://app?vid=68abeed7-ecca-4dea-8323-3a8fed03b44d","ios":"levelo://app?vid=68abeed7-ecca-4dea-8323-3a8fed03b44d"},"vehicle_type_id":"4","last_reported":1747948173,"current_range_meters":3600,"station_id":"ce4bh012rcd13ifvqcv0","pricing_plan_id":"cebpf4jnsgd1na2vs0mg"},{"bike_id":"85142c3d-3ba2-4b4a-bc77-ebbfc5378a88","system_id":"levelo_inurba_marseille","lat":43.25503,"lon":5.37647,"is_reserved":false,"is_disabled":false,"rental_uris":{"android":"levelo://app?vid=85142c3d-3ba2-4b4a-bc77-ebbfc5378a88","ios":"levelo://app?vid=85142c3d-3ba2-4b4a-bc77-ebbfc5378a88"},"vehicle_type_id":"4","last_reported":1747948173,"current_range_meters":3600,"station_id":"ce4bhh12rcd13ifvqff0","pricing_plan_id":"cebpf4jnsgd1na2vs0mg"},{"bike_id":"491f9a1d-5693-47e4-b12e-6bff1644b580","system_id":"levelo_inurba_marseille","lat":43.31143,"lon":5.37752,"is_reserved":false,"is_disabled":false,"rental_uris":{"android":"levelo://app?vid=491f9a1d-5693-47e4-b12e-6bff1644b580","ios":"levelo://app?vid=491f9a1d-5693-47e4-b12e-6bff1644b580"},"vehicle_type_id":"4","last_reported":1747948173,"current_range_meters":4000,"station_id":"ce4bgt92rcd13ifvqcg0","pricing_plan_id":"cebpf4jnsgd1na2vs0mg"},{"bike_id":"b4bec66e-79f2-489b-aa20-300579418660","system_id":"levelo_inurba_marseille","lat":43.30886,"lon":5.39624,"is_reserved":false,"is_disabled":false,"rental_uris":{"android":"levelo://app?vid=b4bec66e-79f2-489b-aa20-300579418660","ios":"levelo://app?vid=b4bec66e-79f2-489b-aa20-300579418660"},"vehicle_type_id":"4","last_reported":1747948173,"current_range_meters":4000,"station_id":"ce4bh012rcd13ifvqcv0","pricing_plan_id":"cebpf4jnsgd1na2vs0mg"},{"bike_id":"d676095b-f90b-412e-9b39-b2f451adac42","system_id":"levelo_inurba_marseille","lat":43.28411,"lon":5.37514,"is_reserved":false,"is_disabled":false,"rental_uris":{"android":"levelo://app?vid=d676095b-f90b-412e-9b39-b2f451adac42","ios":"levelo://app?vid=d676095b-f90b-412e-9b39-b2f451adac42"},"vehicle_type_id":"4","last_reported":1747948173,"current_range_meters":4000,"station_id":"ce4bh412rcd13ifvqds0","pricing_plan_id":"cebpf4jnsgd1na2vs0mg"},{"bike_id":"6270d96f-40fe-41a6-a327-68ce235193c3","system_id":"levelo_inurba_marseille","lat":43.28077,"lon":5.39658,"is_reserved":false,"is_disabled":false,"rental_uris":{"android":"levelo://app?vid=6270d96f-40fe-41a6-a327-68ce235193c3","ios":"levelo://app?vid=6270d96f-40fe-41a6-a327-68ce235193c3"},"vehicle_type_id":"4","last_reported":1747948173,"current_range_meters":4400,"station_id":"ce4bho12rcd13ifvqh2g","pricing_plan_id":"cebpf4jnsgd1na2vs0mg"},{"bike_id":"a965f51f-aafb-4afe-bfe3-121b43346203","system_id":"levelo_inurba_marseille","lat":43.28016,"lon":5.39989,"is_reserved":false,"is_disabled":false,"rental_uris":{"android":"levelo://app?vid=a965f51f-aafb-4afe-bfe3-121b43346203","ios":"levelo://app?vid=a965f51f-aafb-4afe-bfe3-121b43346203"},"vehicle_type_id":"4","last_reported":1747948173,"current_range_meters":4400,"station_id":"ce4bho92rcd13ifvqh4g","pricing_plan_id":"cebpf4jnsgd1na2vs0mg"},{"bike_id":"31907cb9-b067-459a-920f-da7df97f835b","system_id":"levelo_inurba_marseille","lat":43.25213,"lon":5.40417,"is_reserved":false,"is_disabled":false,"rental_uris":{"android":"levelo://app?vid=31907cb9-b067-459a-920f-da7df97f835b","ios":"levelo://app?vid=31907cb9-b067-459a-920f-da7df97f835b"},"vehicle_type_id":"4","last_reported":1747948173,"current_range_meters":4800,"station_id":"","pricing_plan_id":"cebpf4jnsgd1na2vs0mg"},{"bike_id":"0fcb0883-bd59-40ff-b3a2-c7bc9655de75","system_id":"levelo_inurba_marseille","lat":43.24811,"lon":5.37444,"is_reserved":false,"is_disabled":false,"rental_uris":{"android":"levelo://app?vid=0fcb0883-bd59-40ff-b3a2-c7bc9655de75","ios":"levelo://app?vid=0fcb0883-bd59-40ff-b3a2-c7bc9655de75"},"vehicle_type_id":"4","last_reported":1747948173,"current_range_meters":4800,"station_id":"ce4bhgh2rcd13ifvqfb0","pricing_plan_id":"cebpf4jnsgd1na2vs0mg"},{"bike_id":"2856c34b-5844-4470-b8b4-65118c4d90e4","system_id":"levelo_inurba_marseille","lat":43.28724,"lon":5.3609,"is_reserved":false,"is_disabled":false,"rental_uris":{"android":"levelo://app?vid=2856c34b-5844-4470-b8b4-65118c4d90e4","ios":"levelo://app?vid=2856c34b-5844-4470-b8b4-65118c4d90e4"},"vehicle_type_id":"4","last_reported":1747948173,"current_range_meters":4800,"station_id":"cki0cbj6b192h4jlfktg","pricing_plan_id":"cebpf4jnsgd1na2vs0mg"},{"bike_id":"b5e11a81-2b3f-49e4-851a-0e4d42bd02f7","system_id":"levelo_inurba_marseille","lat":43.277928,"lon":5.399586,"is_reserved":false,"is_disabled":false,"rental_uris":{"android":"levelo://app?vid=b5e11a81-2b3f-49e4-851a-0e4d42bd02f7","ios":"levelo://app?vid=b5e11a81-2b3f-49e4-851a-0e4d42bd02f7"},"vehicle_type_id":"4","last_reported":1747948173,"current_range_meters":5600,"station_id":"","pricing_plan_id":"cebpf4jnsgd1na2vs0mg"},{"bike_id":"76394c4d-3056-444e-93db-abd92353dc1c","system_id":"levelo_inurba_marseille","lat":43.23971,"lon":5.36621,"is_reserved":false,"is_disabled":false,"rental_uris":{"android":"levelo://app?vid=76394c4d-3056-444e-93db-abd92353dc1c","ios":"levelo://app?vid=76394c4d-3056-444e-93db-abd92353dc1c"},"vehicle_type_id":"4","last_reported":1747948173,"current_range_meters":5600,"station_id":"ce4bhi12rcd13ifvqfp0","pricing_plan_id":"cebpf4jnsgd1na2vs0mg"},{"bike_id":"d9fe7580-4983-421e-81d5-cef83fd58d53","system_id":"levelo_inurba_marseille","lat":43.25729,"lon":5.41105,"is_reserved":false,"is_disabled":false,"rental_uris":{"android":"levelo://app?vid=d9fe7580-4983-421e-81d5-cef83fd58d53","ios":"levelo://app?vid=d9fe7580-4983-421e-81d5-cef83fd58d53"},"vehicle_type_id":"4","last_reported":1747948173,"current_range_meters":5600,"station_id":"ce4bhkp2rcd13ifvqgd0","pricing_plan_id":"cebpf4jnsgd1na2vs0mg"},{"bike_id":"4aaa0c9a-06f9-4739-9a58-ee92848a6f4b","system_id":"levelo_inurba_marseille","lat":43.23196,"lon":5.35543,"is_reserved":false,"is_disabled":false,"rental_uris":{"android":"levelo://app?vid=4aaa0c9a-06f9-4739-9a58-ee92848a6f4b","ios":"levelo://app?vid=4aaa0c9a-06f9-4739-9a58-ee92848a6f4b"},"vehicle_type_id":"4","last_reported":1747948173,"current_range_meters":5600,"station_id":"ce4bhu92rcd13ifvqi70","pricing_plan_id":"cebpf4jnsgd1na2vs0mg"},{"bike_id":"b1b9a613-d193-46d4-9d7c-da1b733dd3ea","system_id":"levelo_inurba_marseille","lat":43.31076,"lon":5.38361,"is_reserved":false,"is_disabled":false,"rental_uris":{"android":"levelo://app?vid=b1b9a613-d193-46d4-9d7c-da1b733dd3ea","ios":"levelo://app?vid=b1b9a613-d193-46d4-9d7c-da1b733dd3ea"},"vehicle_type_id":"4","last_reported":1747948173,"current_range_meters":6400,"station_id":"ce4bgv92rcd13ifvqcr0","pricing_plan_id":"cebpf4jnsgd1na2vs0mg"},{"bike_id":"b02202c4-15f1-4faf-863d-7ec08e15df02","system_id":"levelo_inurba_marseille","lat":43.26569,"lon":5.38999,"is_reserved":false,"is_disabled":false,"rental_uris":{"android":"levelo://app?vid=b02202c4-15f1-4faf-863d-7ec08e15df02","ios":"levelo://app?vid=b02202c4-15f1-4faf-863d-7ec08e15df02"},"vehicle_type_id":"4","last_reported":1747948173,"current_range_meters":6400,"station_id":"ce4bhe12rcd13ifvqf30","pricing_plan_id":"cebpf4jnsgd1na2vs0mg"},{"bike_id":"2c0b40ab-8e6e-451c-9ca9-7ac68cabe65f","system_id":"levelo_inurba_marseille","lat":43.248088,"lon":5.374567,"is_reserved":false,"is_disabled":false,"rental_uris":{"android":"levelo://app?vid=2c0b40ab-8e6e-451c-9ca9-7ac68cabe65f","ios":"levelo://app?vid=2c0b40ab-8e6e-451c-9ca9-7ac68cabe65f"},"vehicle_type_id":"4","last_reported":1747948173,"current_range_meters":6400,"station_id":"ce4bhgh2rcd13ifvqfb0","pricing_plan_id":"cebpf4jnsgd1na2vs0mg"},{"bike_id":"e184a245-540f-406d-99e5-38e13bcd8797","system_id":"levelo_inurba_marseille","lat":43.25499,"lon":5.3765,"is_reserved":false,"is_disabled":false,"rental_uris":{"android":"levelo://app?vid=e184a245-540f-406d-99e5-38e13bcd8797","ios":"levelo://app?vid=e184a245-540f-406d-99e5-38e13bcd8797"},"vehicle_type_id":"4","last_reported":1747948173,"current_range_meters":6400,"station_id":"ce4bhh12rcd13ifvqff0","pricing_plan_id":"cebpf4jnsgd1na2vs0mg"},{"bike_id":"29e28d4f-56b9-4580-b82b-d3f0b7ef5a1b","system_id":"levelo_inurba_marseille","lat":43.25506,"lon":5.37648,"is_reserved":false,"is_disabled":false,"rental_uris":{"android":"levelo://app?vid=29e28d4f-56b9-4580-b82b-d3f0b7ef5a1b","ios":"levelo://app?vid=29e28d4f-56b9-4580-b82b-d3f0b7ef5a1b"},"vehicle_type_id":"4","last_reported":1747948173,"current_range_meters":6400,"station_id":"ce4bhh12rcd13ifvqff0","pricing_plan_id":"cebpf4jnsgd1na2vs0mg"},{"bike_id":"2bc60531-66c5-4beb-98d9-3f95fb40010c","system_id":"levelo_inurba_marseille","lat":43.27061,"lon":5.40255,"is_reserved":false,"is_disabled":false,"rental_uris":{"android":"levelo://app?vid=2bc60531-66c5-4beb-98d9-3f95fb40010c","ios":"levelo://app?vid=2bc60531-66c5-4beb-98d9-3f95fb40010c"},"vehicle_type_id":"4","last_reported":1747948173,"current_range_meters":6400,"station_id":"ce4bhk92rcd13ifvqgc0","pricing_plan_id":"cebpf4jnsgd1na2vs0mg"},{"bike_id":"35b62aa6-a570-48d8-8fff-f4a2c0f14560","system_id":"levelo_inurba_marseille","lat":43.22933,"lon":5.35372,"is_reserved":false,"is_disabled":false,"rental_uris":{"android":"levelo://app?vid=35b62aa6-a570-48d8-8fff-f4a2c0f14560","ios":"levelo://app?vid=35b62aa6-a570-48d8-8fff-f4a2c0f14560"},"vehicle_type_id":"4","last_reported":1747948173,"current_range_meters":6400,"station_id":"cpo3532slgdg3j2ikp40","pricing_plan_id":"cebpf4jnsgd1na2vs0mg"},{"bike_id":"924dab71-6bea-4c4e-bed9-f60be72b9e2e","system_id":"levelo_inurba_marseille","lat":43.29714,"lon":5.36616,"is_reserved":false,"is_disabled":false,"rental_uris":{"android":"levelo://app?vid=924dab71-6bea-4c4e-bed9-f60be72b9e2e","ios":"levelo://app?vid=924dab71-6bea-4c4e-bed9-f60be72b9e2e"},"vehicle_type_id":"4","last_reported":1747948173,"current_range_meters":6800,"station_id":"","pricing_plan_id":"cebpf4jnsgd1na2vs0mg"},{"bike_id":"2ac901aa-fe7e-4325-af32-0d1acfb2a4a0","system_id":"levelo_inurba_marseille","lat":43.2894,"lon":5.39632,"is_reserved":false,"is_disabled":false,"rental_uris":{"android":"levelo://app?vid=2ac901aa-fe7e-4325-af32-0d1acfb2a4a0","ios":"levelo://app?vid=2ac901aa-fe7e-4325-af32-0d1acfb2a4a0"},"vehicle_type_id":"4","last_reported":1747948173,"current_range_meters":6800,"station_id":"ce4bh3h2rcd13ifvqdn0","pricing_plan_id":"cebpf4jnsgd1na2vs0mg"},{"bike_id":"490cfea9-fbaf-4353-81f0-ee1052d69c71","system_id":"levelo_inurba_marseille","lat":43.25496,"lon":5.376463,"is_reserved":false,"is_disabled":false,"rental_uris":{"android":"levelo://app?vid=490cfea9-fbaf-4353-81f0-ee1052d69c71","ios":"levelo://app?vid=490cfea9-fbaf-4353-81f0-ee1052d69c71"},"vehicle_type_id":"4","last_reported":1747948173,"current_range_meters":6800,"station_id":"ce4bhh12rcd13ifvqff0","pricing_plan_id":"cebpf4jnsgd1na2vs0mg"},{"bike_id":"7f374a0c-9ab4-412c-a8dd-1f59fe7a5317","system_id":"levelo_inurba_marseille","lat":43.2558,"lon":5.38229,"is_reserved":false,"is_disabled":false,"rental_uris":{"android":"levelo://app?vid=7f374a0c-9ab4-412c-a8dd-1f59fe7a5317","ios":"levelo://app?vid=7f374a0c-9ab4-412c-a8dd-1f59fe7a5317"},"vehicle_type_id":"4","last_reported":1747948173,"current_range_meters":6800,"station_id":"ce4bhih2rcd13ifvqfs0","pricing_plan_id":"cebpf4jnsgd1na2vs0mg"},{"bike_id":"8acff3a7-df9c-464f-b6b7-8215a976f175","system_id":"levelo_inurba_marseille","lat":43.27843,"lon":5.39206,"is_reserved":false,"is_disabled":false,"rental_uris":{"android":"levelo://app?vid=8acff3a7-df9c-464f-b6b7-8215a976f175","ios":"levelo://app?vid=8acff3a7-df9c-464f-b6b7-8215a976f175"},"vehicle_type_id":"4","last_reported":1747948173,"current_range_meters":6800,"station_id":"ce4bhjp2rcd13ifvqga0","pricing_plan_id":"cebpf4jnsgd1na2vs0mg"},{"bike_id":"fd2f99fe-1ea1-481b-832b-39a1fe20e03b","system_id":"levelo_inurba_marseille","lat":43.26807,"lon":5.40268,"is_reserved":false,"is_disabled":false,"rental_uris":{"android":"levelo://app?vid=fd2f99fe-1ea1-481b-832b-39a1fe20e03b","ios":"levelo://app?vid=fd2f99fe-1ea1-481b-832b-39a1fe20e03b"},"vehicle_type_id":"4","last_reported":1747948173,"current_range_meters":6800,"station_id":"ce501612rcd8frsf0b60","pricing_plan_id":"cebpf4jnsgd1na2vs0mg"},{"bike_id":"3fe3d6c4-138a-47df-b6b4-e6f19e8f7d46","system_id":"levelo_inurba_marseille","lat":43.21412,"lon":5.34113,"is_reserved":false,"is_disabled":false,"rental_uris":{"android":"levelo://app?vid=3fe3d6c4-138a-47df-b6b4-e6f19e8f7d46","ios":"levelo://app?vid=3fe3d6c4-138a-47df-b6b4-e6f19e8f7d46"},"vehicle_type_id":"4","last_reported":1747948173,"current_range_meters":7200,"station_id":"","pricing_plan_id":"cebpf4jnsgd1na2vs0mg"},{"bike_id":"3cc70f64-af75-4877-adc7-e044243dde50","system_id":"levelo_inurba_marseille","lat":43.24177,"lon":5.39721,"is_reserved":false,"is_disabled":false,"rental_uris":{"android":"levelo://app?vid=3cc70f64-af75-4877-adc7-e044243dde50","ios":"levelo://app?vid=3cc70f64-af75-4877-adc7-e044243dde50"},"vehicle_type_id":"4","last_reported":1747948173,"current_range_meters":7200,"station_id":"ce4bhn12rcd13ifvqgpg","pricing_plan_id":"cebpf4jnsgd1na2vs0mg"},{"bike_id":"b1f47978-a543-462a-baa9-7bb070a2cba9","system_id":"levelo_inurba_marseille","lat":43.3361,"lon":5.41036,"is_reserved":false,"is_disabled":false,"rental_uris":{"android":"levelo://app?vid=b1f47978-a543-462a-baa9-7bb070a2cba9","ios":"levelo://app?vid=b1f47978-a543-462a-baa9-7bb070a2cba9"},"vehicle_type_id":"4","last_reported":1747948173,"current_range_meters":7200,"station_id":"ce4bhqh2rcd13ifvqhmg","pricing_plan_id":"cebpf4jnsgd1na2vs0mg"},{"bike_id":"14feda73-7baf-4b64-8ae9-79f4fe7d4a5f","system_id":"levelo_inurba_marseille","lat":43.323704,"lon":5.367448,"is_reserved":false,"is_disabled":false,"rental_uris":{"android":"levelo://app?vid=14feda73-7baf-4b64-8ae9-79f4fe7d4a5f","ios":"levelo://app?vid=14feda73-7baf-4b64-8ae9-79f4fe7d4a5f"},"vehicle_type_id":"4","last_reported":1747948173,"current_range_meters":7200,"station_id":"ce4bhsh2rcd13ifvqi2g","pricing_plan_id":"cebpf4jnsgd1na2vs0mg"},{"bike_id":"4d220435-47a8-4d82-80db-a1284cf3e4c5","system_id":"levelo_inurba_marseille","lat":43.286633,"lon":5.387473,"is_reserved":false,"is_disabled":false,"rental_uris":{"android":"levelo://app?vid=4d220435-47a8-4d82-80db-a1284cf3e4c5","ios":"levelo://app?vid=4d220435-47a8-4d82-80db-a1284cf3e4c5"},"vehicle_type_id":"4","last_reported":1747948173,"current_range_meters":8000,"station_id":"","pricing_plan_id":"cebpf4jnsgd1na2vs0mg"},{"bike_id":"ad4d8099-03a6-43ca-966f-189fb83ff678","system_id":"levelo_inurba_marseille","lat":43.31267,"lon":5.37399,"is_reserved":false,"is_disabled":false,"rental_uris":{"android":"levelo://app?vid=ad4d8099-03a6-43ca-966f-189fb83ff678","ios":"levelo://app?vid=ad4d8099-03a6-43ca-966f-189fb83ff678"},"vehicle_type_id":"4","last_reported":1747948173,"current_range_meters":8000,"station_id":"","pricing_plan_id":"cebpf4jnsgd1na2vs0mg"},{"bike_id":"55a08e3e-db45-4c5e-b13c-af00ca45f993","system_id":"levelo_inurba_marseille","lat":43.25151,"lon":5.40264,"is_reserved":false,"is_disabled":false,"rental_uris":{"android":"levelo://app?vid=55a08e3e-db45-4c5e-b13c-af00ca45f993","ios":"levelo://app?vid=55a08e3e-db45-4c5e-b13c-af00ca45f993"},"vehicle_type_id":"4","last_reported":1747948173,"current_range_meters":8000,"station_id":"","pricing_plan_id":"cebpf4jnsgd1na2vs0mg"},{"bike_id":"7c923a08-e440-4ed9-8a55-ccefacf96a77","system_id":"levelo_inurba_marseille","lat":43.308815,"lon":5.396345,"is_reserved":false,"is_disabled":false,"rental_uris":{"android":"levelo://app?vid=7c923a08-e440-4ed9-8a55-ccefacf96a77","ios":"levelo://app?vid=7c923a08-e440-4ed9-8a55-ccefacf96a77"},"vehicle_type_id":"4","last_reported":1747948173,"current_range_meters":8000,"station_id":"ce4bh012rcd13ifvqcv0","pricing_plan_id":"cebpf4jnsgd1na2vs0mg"},{"bike_id":"e160593a-c198-4c35-81ec-2afab10ea39e","system_id":"levelo_inurba_marseille","lat":43.25819,"lon":5.39434,"is_reserved":false,"is_disabled":false,"rental_uris":{"android":"levelo://app?vid=e160593a-c198-4c35-81ec-2afab10ea39e","ios":"levelo://app?vid=e160593a-c198-4c35-81ec-2afab10ea39e"},"vehicle_type_id":"4","last_reported":1747948173,"current_range_meters":8000,"station_id":"ce4bhip2rcd13ifvqft0","pricing_plan_id":"cebpf4jnsgd1na2vs0mg"},{"bike_id":"b91980aa-60ff-467c-bd75-7d53cde9d475","system_id":"levelo_inurba_marseille","lat":43.25114,"lon":5.40315,"is_reserved":false,"is_disabled":false,"rental_uris":{"android":"levelo://app?vid=b91980aa-60ff-467c-bd75-7d53cde9d475","ios":"levelo://app?vid=b91980aa-60ff-467c-bd75-7d53cde9d475"},"vehicle_type_id":"4","last_reported":1747948173,"current_range_meters":8000,"station_id":"ce4bhlh2rcd13ifvqgig","pricing_plan_id":"cebpf4jnsgd1na2vs0mg"},{"bike_id":"3944f00c-e9fc-4706-a38a-ade0f43ef779","system_id":"levelo_inurba_marseille","lat":43.25096,"lon":5.40324,"is_reserved":false,"is_disabled":false,"rental_uris":{"android":"levelo://app?vid=3944f00c-e9fc-4706-a38a-ade0f43ef779","ios":"levelo://app?vid=3944f00c-e9fc-4706-a38a-ade0f43ef779"},"vehicle_type_id":"4","last_reported":1747948173,"current_range_meters":8000,"station_id":"ce4bhlh2rcd13ifvqgig","pricing_plan_id":"cebpf4jnsgd1na2vs0mg"},{"bike_id":"abe05535-e77a-49d1-9030-e7e29fc62a9f","system_id":"levelo_inurba_marseille","lat":43.32342,"lon":5.4062,"is_reserved":false,"is_disabled":false,"rental_uris":{"android":"levelo://app?vid=abe05535-e77a-49d1-9030-e7e29fc62a9f","ios":"levelo://app?vid=abe05535-e77a-49d1-9030-e7e29fc62a9f"},"vehicle_type_id":"4","last_reported":1747948173,"current_range_meters":8000,"station_id":"ce4bhq92rcd13ifvqhjg","pricing_plan_id":"cebpf4jnsgd1na2vs0mg"},{"bike_id":"02a52646-fecc-41d2-983b-5b9e6643aa91","system_id":"levelo_inurba_marseille","lat":43.32116,"lon":5.36798,"is_reserved":false,"is_disabled":false,"rental_uris":{"android":"levelo://app?vid=02a52646-fecc-41d2-983b-5b9e6643aa91","ios":"levelo://app?vid=02a52646-fecc-41d2-983b-5b9e6643aa91"},"vehicle_type_id":"4","last_reported":1747948173,"current_range_meters":8000,"station_id":"ce4bhrh2rcd13ifvqhug","pricing_plan_id":"cebpf4jnsgd1na2vs0mg"},{"bike_id":"cd2b9d97-3676-4c83-8e3b-aa4857457d9a","system_id":"levelo_inurba_marseille","lat":43.315086,"lon":5.370283,"is_reserved":false,"is_disabled":false,"rental_uris":{"android":"levelo://app?vid=cd2b9d97-3676-4c83-8e3b-aa4857457d9a","ios":"levelo://app?vid=cd2b9d97-3676-4c83-8e3b-aa4857457d9a"},"vehicle_type_id":"4","last_reported":1747948173,"current_range_meters":8400,"station_id":"","pricing_plan_id":"cebpf4jnsgd1na2vs0mg"},{"bike_id":"f9fb40c0-1fcd-48cb-8e26-3f2dc0fb2451","system_id":"levelo_inurba_marseille","lat":43.33751,"lon":5.37509,"is_reserved":false,"is_disabled":false,"rental_uris":{"android":"levelo://app?vid=f9fb40c0-1fcd-48cb-8e26-3f2dc0fb2451","ios":"levelo://app?vid=f9fb40c0-1fcd-48cb-8e26-3f2dc0fb2451"},"vehicle_type_id":"4","last_reported":1747948173,"current_range_meters":8400,"station_id":"","pricing_plan_id":"cebpf4jnsgd1na2vs0mg"},{"bike_id":"2539a3d1-f9f2-430d-bed3-a6a0af496c76","system_id":"levelo_inurba_marseille","lat":43.3065,"lon":5.40092,"is_reserved":false,"is_disabled":false,"rental_uris":{"android":"levelo://app?vid=2539a3d1-f9f2-430d-bed3-a6a0af496c76","ios":"levelo://app?vid=2539a3d1-f9f2-430d-bed3-a6a0af496c76"},"vehicle_type_id":"4","last_reported":1747948173,"current_range_meters":8400,"station_id":"ce4bh112rcd13ifvqda0","pricing_plan_id":"cebpf4jnsgd1na2vs0mg"},{"bike_id":"8022b9c5-3b31-46a7-933d-93d8ae4cd439","system_id":"levelo_inurba_marseille","lat":43.25113,"lon":5.40325,"is_reserved":false,"is_disabled":false,"rental_uris":{"android":"levelo://app?vid=8022b9c5-3b31-46a7-933d-93d8ae4cd439","ios":"levelo://app?vid=8022b9c5-3b31-46a7-933d-93d8ae4cd439"},"vehicle_type_id":"4","last_reported":1747948173,"current_range_meters":8400,"station_id":"ce4bhlh2rcd13ifvqgig","pricing_plan_id":"cebpf4jnsgd1na2vs0mg"},{"bike_id":"27653dcd-dec9-4f13-b172-8968c20c1725","system_id":"levelo_inurba_marseille","lat":43.23862,"lon":5.43083,"is_reserved":false,"is_disabled":false,"rental_uris":{"android":"levelo://app?vid=27653dcd-dec9-4f13-b172-8968c20c1725","ios":"levelo://app?vid=27653dcd-dec9-4f13-b172-8968c20c1725"},"vehicle_type_id":"4","last_reported":1747948173,"current_range_meters":8800,"station_id":"","pricing_plan_id":"cebpf4jnsgd1na2vs0mg"},{"bike_id":"96e2d940-ce08-4d81-9683-5a9854a74fc8","system_id":"levelo_inurba_marseille","lat":43.2894,"lon":5.36639,"is_reserved":false,"is_disabled":false,"rental_uris":{"android":"levelo://app?vid=96e2d940-ce08-4d81-9683-5a9854a74fc8","ios":"levelo://app?vid=96e2d940-ce08-4d81-9683-5a9854a74fc8"},"vehicle_type_id":"4","last_reported":1747948173,"current_range_meters":8800,"station_id":"ce4bhap2rcd13ifvqek0","pricing_plan_id":"cebpf4jnsgd1na2vs0mg"},{"bike_id":"40c1961e-6fde-4a19-9608-959fd903f308","system_id":"levelo_inurba_marseille","lat":43.24806,"lon":5.37451,"is_reserved":false,"is_disabled":false,"rental_uris":{"android":"levelo://app?vid=40c1961e-6fde-4a19-9608-959fd903f308","ios":"levelo://app?vid=40c1961e-6fde-4a19-9608-959fd903f308"},"vehicle_type_id":"4","last_reported":1747948173,"current_range_meters":8800,"station_id":"ce4bhgh2rcd13ifvqfb0","pricing_plan_id":"cebpf4jnsgd1na2vs0mg"},{"bike_id":"325a04d7-0c6c-4a4d-804e-27b29ba6514b","system_id":"levelo_inurba_marseille","lat":43.23942,"lon":5.36641,"is_reserved":false,"is_disabled":false,"rental_uris":{"android":"levelo://app?vid=325a04d7-0c6c-4a4d-804e-27b29ba6514b","ios":"levelo://app?vid=325a04d7-0c6c-4a4d-804e-27b29ba6514b"},"vehicle_type_id":"4","last_reported":1747948173,"current_range_meters":8800,"station_id":"ce4bhi12rcd13ifvqfp0","pricing_plan_id":"cebpf4jnsgd1na2vs0mg"},{"bike_id":"fb6be265-eb83-4439-bfcc-163b25b9a602","system_id":"levelo_inurba_marseille","lat":43.27175,"lon":5.40991,"is_reserved":false,"is_disabled":false,"rental_uris":{"android":"levelo://app?vid=fb6be265-eb83-4439-bfcc-163b25b9a602","ios":"levelo://app?vid=fb6be265-eb83-4439-bfcc-163b25b9a602"},"vehicle_type_id":"4","last_reported":1747948173,"current_range_meters":8800,"station_id":"ce4bhl12rcd13ifvqgf0","pricing_plan_id":"cebpf4jnsgd1na2vs0mg"},{"bike_id":"e4ccd2ca-5899-4e38-9a7d-85747cd7c75d","system_id":"levelo_inurba_marseille","lat":43.25868,"lon":5.39902,"is_reserved":false,"is_disabled":false,"rental_uris":{"android":"levelo://app?vid=e4ccd2ca-5899-4e38-9a7d-85747cd7c75d","ios":"levelo://app?vid=e4ccd2ca-5899-4e38-9a7d-85747cd7c75d"},"vehicle_type_id":"4","last_reported":1747948173,"current_range_meters":8800,"station_id":"ce4bhl92rcd13ifvqghg","pricing_plan_id":"cebpf4jnsgd1na2vs0mg"},{"bike_id":"7aae4ae8-7818-4c68-aea7-b7f338b36e37","system_id":"levelo_inurba_marseille","lat":43.24077,"lon":5.37763,"is_reserved":false,"is_disabled":false,"rental_uris":{"android":"levelo://app?vid=7aae4ae8-7818-4c68-aea7-b7f338b36e37","ios":"levelo://app?vid=7aae4ae8-7818-4c68-aea7-b7f338b36e37"},"vehicle_type_id":"4","last_reported":1747948173,"current_range_meters":8800,"station_id":"ce4bhnp2rcd13ifvqgvg","pricing_plan_id":"cebpf4jnsgd1na2vs0mg"},{"bike_id":"b2421589-4e6b-4946-a0a8-9c5526af668b","system_id":"levelo_inurba_marseille","lat":43.24069,"lon":5.37757,"is_reserved":false,"is_disabled":false,"rental_uris":{"android":"levelo://app?vid=b2421589-4e6b-4946-a0a8-9c5526af668b","ios":"levelo://app?vid=b2421589-4e6b-4946-a0a8-9c5526af668b"},"vehicle_type_id":"4","last_reported":1747948173,"current_range_meters":8800,"station_id":"ce4bhnp2rcd13ifvqgvg","pricing_plan_id":"cebpf4jnsgd1na2vs0mg"},{"bike_id":"7840330f-1868-47b7-b454-a81947a4dcc6","system_id":"levelo_inurba_marseille","lat":43.21753,"lon":5.34605,"is_reserved":false,"is_disabled":false,"rental_uris":{"android":"levelo://app?vid=7840330f-1868-47b7-b454-a81947a4dcc6","ios":"levelo://app?vid=7840330f-1868-47b7-b454-a81947a4dcc6"},"vehicle_type_id":"4","last_reported":1747948173,"current_range_meters":8800,"station_id":"st_cvj6r9ubvosntc0bgbag","pricing_plan_id":"cebpf4jnsgd1na2vs0mg"},{"bike_id":"971c8a5c-db56-48ea-b476-188519cb0562","system_id":"levelo_inurba_marseille","lat":43.30071,"lon":5.40501,"is_reserved":false,"is_disabled":false,"rental_uris":{"android":"levelo://app?vid=971c8a5c-db56-48ea-b476-188519cb0562","ios":"levelo://app?vid=971c8a5c-db56-48ea-b476-188519cb0562"},"vehicle_type_id":"4","last_reported":1747948173,"current_range_meters":9200,"station_id":"","pricing_plan_id":"cebpf4jnsgd1na2vs0mg"},{"bike_id":"6a85369f-636f-4448-91f6-e3994a0fb52b","system_id":"levelo_inurba_marseille","lat":43.27762,"lon":5.38679,"is_reserved":false,"is_disabled":false,"rental_uris":{"android":"levelo://app?vid=6a85369f-636f-4448-91f6-e3994a0fb52b","ios":"levelo://app?vid=6a85369f-636f-4448-91f6-e3994a0fb52b"},"vehicle_type_id":"4","last_reported":1747948173,"current_range_meters":9200,"station_id":"","pricing_plan_id":"cebpf4jnsgd1na2vs0mg"},{"bike_id":"3022497e-9a24-4d16-b5d2-78aa7c07375d","system_id":"levelo_inurba_marseille","lat":43.29049,"lon":5.37859,"is_reserved":false,"is_disabled":false,"rental_uris":{"android":"levelo://app?vid=3022497e-9a24-4d16-b5d2-78aa7c07375d","ios":"levelo://app?vid=3022497e-9a24-4d16-b5d2-78aa7c07375d"},"vehicle_type_id":"4","last_reported":1747948173,"current_range_meters":9200,"station_id":"","pricing_plan_id":"cebpf4jnsgd1na2vs0mg"},{"bike_id":"31110881-d64f-45f8-9810-bbf84a002836","system_id":"levelo_inurba_marseille","lat":43.283583,"lon":5.46015,"is_reserved":false,"is_disabled":false,"rental_uris":{"android":"levelo://app?vid=31110881-d64f-45f8-9810-bbf84a002836","ios":"levelo://app?vid=31110881-d64f-45f8-9810-bbf84a002836"},"vehicle_type_id":"4","last_reported":1747948173,"current_range_meters":9200,"station_id":"","pricing_plan_id":"cebpf4jnsgd1na2vs0mg"},{"bike_id":"26dffcce-923d-48d2-aeb9-22b9f556f70b","system_id":"levelo_inurba_marseille","lat":43.28043,"lon":5.36957,"is_reserved":false,"is_disabled":false,"rental_uris":{"android":"levelo://app?vid=26dffcce-923d-48d2-aeb9-22b9f556f70b","ios":"levelo://app?vid=26dffcce-923d-48d2-aeb9-22b9f556f70b"},"vehicle_type_id":"4","last_reported":1747948173,"current_range_meters":9200,"station_id":"ce4bha12rcd13ifvqef0","pricing_plan_id":"cebpf4jnsgd1na2vs0mg"},{"bike_id":"7f7e4179-7660-484a-9f47-89535b46ac10","system_id":"levelo_inurba_marseille","lat":43.26944,"lon":5.38653,"is_reserved":false,"is_disabled":false,"rental_uris":{"android":"levelo://app?vid=7f7e4179-7660-484a-9f47-89535b46ac10","ios":"levelo://app?vid=7f7e4179-7660-484a-9f47-89535b46ac10"},"vehicle_type_id":"4","last_reported":1747948173,"current_range_meters":9200,"station_id":"ce4bhh92rcd13ifvqfh0","pricing_plan_id":"cebpf4jnsgd1na2vs0mg"},{"bike_id":"7dfdfdc8-9c79-46b6-9a4b-924773b53f29","system_id":"levelo_inurba_marseille","lat":43.26854,"lon":5.39122,"is_reserved":false,"is_disabled":false,"rental_uris":{"android":"levelo://app?vid=7dfdfdc8-9c79-46b6-9a4b-924773b53f29","ios":"levelo://app?vid=7dfdfdc8-9c79-46b6-9a4b-924773b53f29"},"vehicle_type_id":"4","last_reported":1747948173,"current_range_meters":9600,"station_id":"","pricing_plan_id":"cebpf4jnsgd1na2vs0mg"},{"bike_id":"29d9e4c5-1a5e-4521-9ba1-41cb0a9ccead","system_id":"levelo_inurba_marseille","lat":43.306321,"lon":5.400661,"is_reserved":false,"is_disabled":false,"rental_uris":{"android":"levelo://app?vid=29d9e4c5-1a5e-4521-9ba1-41cb0a9ccead","ios":"levelo://app?vid=29d9e4c5-1a5e-4521-9ba1-41cb0a9ccead"},"vehicle_type_id":"4","last_reported":1747948173,"current_range_meters":9600,"station_id":"ce4bh112rcd13ifvqda0","pricing_plan_id":"cebpf4jnsgd1na2vs0mg"},{"bike_id":"bc71ac0c-23e5-4f9f-8046-eae94d67cdf4","system_id":"levelo_inurba_marseille","lat":43.248057,"lon":5.374617,"is_reserved":false,"is_disabled":false,"rental_uris":{"android":"levelo://app?vid=bc71ac0c-23e5-4f9f-8046-eae94d67cdf4","ios":"levelo://app?vid=bc71ac0c-23e5-4f9f-8046-eae94d67cdf4"},"vehicle_type_id":"4","last_reported":1747948173,"current_range_meters":9600,"station_id":"ce4bhgh2rcd13ifvqfb0","pricing_plan_id":"cebpf4jnsgd1na2vs0mg"},{"bike_id":"daa1fa20-a4fc-4e4c-a5e0-a46c69fa4a94","system_id":"levelo_inurba_marseille","lat":43.25134,"lon":5.40315,"is_reserved":false,"is_disabled":false,"rental_uris":{"android":"levelo://app?vid=daa1fa20-a4fc-4e4c-a5e0-a46c69fa4a94","ios":"levelo://app?vid=daa1fa20-a4fc-4e4c-a5e0-a46c69fa4a94"},"vehicle_type_id":"4","last_reported":1747948173,"current_range_meters":9600,"station_id":"ce4bhlh2rcd13ifvqgig","pricing_plan_id":"cebpf4jnsgd1na2vs0mg"},{"bike_id":"5dc9a4bd-3265-47eb-93b1-1ebd847847d8","system_id":"levelo_inurba_marseille","lat":43.31086,"lon":5.42431,"is_reserved":false,"is_disabled":false,"rental_uris":{"android":"levelo://app?vid=5dc9a4bd-3265-47eb-93b1-1ebd847847d8","ios":"levelo://app?vid=5dc9a4bd-3265-47eb-93b1-1ebd847847d8"},"vehicle_type_id":"4","last_reported":1747948173,"current_range_meters":9600,"station_id":"ce4bhp92rcd13ifvqhag","pricing_plan_id":"cebpf4jnsgd1na2vs0mg"},{"bike_id":"ca5d4306-f84c-4e20-9b88-830ffa4263d2","system_id":"levelo_inurba_marseille","lat":43.22923,"lon":5.35356,"is_reserved":false,"is_disabled":false,"rental_uris":{"android":"levelo://app?vid=ca5d4306-f84c-4e20-9b88-830ffa4263d2","ios":"levelo://app?vid=ca5d4306-f84c-4e20-9b88-830ffa4263d2"},"vehicle_type_id":"4","last_reported":1747948173,"current_range_meters":9600,"station_id":"cpo3532slgdg3j2ikp40","pricing_plan_id":"cebpf4jnsgd1na2vs0mg"},{"bike_id":"6f292ab3-2899-4f1b-8b79-40d26ddd0df1","system_id":"levelo_inurba_marseille","lat":43.27109,"lon":5.38498,"is_reserved":false,"is_disabled":false,"rental_uris":{"android":"levelo://app?vid=6f292ab3-2899-4f1b-8b79-40d26ddd0df1","ios":"levelo://app?vid=6f292ab3-2899-4f1b-8b79-40d26ddd0df1"},"vehicle_type_id":"4","last_reported":1747948173,"current_range_meters":10000,"station_id":"","pricing_plan_id":"cebpf4jnsgd1na2vs0mg"},{"bike_id":"f2078ae5-2f5e-4d79-b314-93d80adc7ac8","system_id":"levelo_inurba_marseille","lat":43.304502,"lon":5.38893,"is_reserved":false,"is_disabled":false,"rental_uris":{"android":"levelo://app?vid=f2078ae5-2f5e-4d79-b314-93d80adc7ac8","ios":"levelo://app?vid=f2078ae5-2f5e-4d79-b314-93d80adc7ac8"},"vehicle_type_id":"4","last_reported":1747948173,"current_range_meters":10000,"station_id":"ce4bgk12rcd13ifvqbi0","pricing_plan_id":"cebpf4jnsgd1na2vs0mg"},{"bike_id":"b50982dc-c688-4ce7-bf41-cefc41d4e965","system_id":"levelo_inurba_marseille","lat":43.3064,"lon":5.40069,"is_reserved":false,"is_disabled":false,"rental_uris":{"android":"levelo://app?vid=b50982dc-c688-4ce7-bf41-cefc41d4e965","ios":"levelo://app?vid=b50982dc-c688-4ce7-bf41-cefc41d4e965"},"vehicle_type_id":"4","last_reported":1747948173,"current_range_meters":10000,"station_id":"ce4bh112rcd13ifvqda0","pricing_plan_id":"cebpf4jnsgd1na2vs0mg"},{"bike_id":"5c53fd65-82fd-41a3-b8fa-9542c5356de1","system_id":"levelo_inurba_marseille","lat":43.306485,"lon":5.40089,"is_reserved":false,"is_disabled":false,"rental_uris":{"android":"levelo://app?vid=5c53fd65-82fd-41a3-b8fa-9542c5356de1","ios":"levelo://app?vid=5c53fd65-82fd-41a3-b8fa-9542c5356de1"},"vehicle_type_id":"4","last_reported":1747948173,"current_range_meters":10000,"station_id":"ce4bh112rcd13ifvqda0","pricing_plan_id":"cebpf4jnsgd1na2vs0mg"},{"bike_id":"a13bb9ba-77a9-407f-b696-719eda2bede9","system_id":"levelo_inurba_marseille","lat":43.29537,"lon":5.39398,"is_reserved":false,"is_disabled":false,"rental_uris":{"android":"levelo://app?vid=a13bb9ba-77a9-407f-b696-719eda2bede9","ios":"levelo://app?vid=a13bb9ba-77a9-407f-b696-719eda2bede9"},"vehicle_type_id":"4","last_reported":1747948173,"current_range_meters":10000,"station_id":"ce4bh292rcd13ifvqdf0","pricing_plan_id":"cebpf4jnsgd1na2vs0mg"},{"bike_id":"e61ffd66-609d-40f0-bfdc-1af5f284f921","system_id":"levelo_inurba_marseille","lat":43.286172,"lon":5.350988,"is_reserved":false,"is_disabled":false,"rental_uris":{"android":"levelo://app?vid=e61ffd66-609d-40f0-bfdc-1af5f284f921","ios":"levelo://app?vid=e61ffd66-609d-40f0-bfdc-1af5f284f921"},"vehicle_type_id":"4","last_reported":1747948173,"current_range_meters":10000,"station_id":"ce4bhch2rcd13ifvqeug","pricing_plan_id":"cebpf4jnsgd1na2vs0mg"},{"bike_id":"77d351e7-4031-43fb-a118-368e81529b6f","system_id":"levelo_inurba_marseille","lat":43.286266,"lon":5.351048,"is_reserved":false,"is_disabled":false,"rental_uris":{"android":"levelo://app?vid=77d351e7-4031-43fb-a118-368e81529b6f","ios":"levelo://app?vid=77d351e7-4031-43fb-a118-368e81529b6f"},"vehicle_type_id":"4","last_reported":1747948173,"current_range_meters":10000,"station_id":"ce4bhch2rcd13ifvqeug","pricing_plan_id":"cebpf4jnsgd1na2vs0mg"},{"bike_id":"d2154540-b55c-455c-bf22-0708547dd516","system_id":"levelo_inurba_marseille","lat":43.25128,"lon":5.40332,"is_reserved":false,"is_disabled":false,"rental_uris":{"android":"levelo://app?vid=d2154540-b55c-455c-bf22-0708547dd516","ios":"levelo://app?vid=d2154540-b55c-455c-bf22-0708547dd516"},"vehicle_type_id":"4","last_reported":1747948173,"current_range_meters":10000,"station_id":"ce4bhlh2rcd13ifvqgig","pricing_plan_id":"cebpf4jnsgd1na2vs0mg"},{"bike_id":"53eacf44-cd84-46fe-a787-7f933def7f8b","system_id":"levelo_inurba_marseille","lat":43.3013,"lon":5.38781,"is_reserved":false,"is_disabled":false,"rental_uris":{"android":"levelo://app?vid=53eacf44-cd84-46fe-a787-7f933def7f8b","ios":"levelo://app?vid=53eacf44-cd84-46fe-a787-7f933def7f8b"},"vehicle_type_id":"4","last_reported":1747948173,"current_range_meters":10800,"station_id":"ce4bghh2rcd13ifvqb60","pricing_plan_id":"cebpf4jnsgd1na2vs0mg"},{"bike_id":"8c011ad4-2b66-4c5d-84f1-f1c97f434249","system_id":"levelo_inurba_marseille","lat":43.2717,"lon":5.40987,"is_reserved":false,"is_disabled":false,"rental_uris":{"android":"levelo://app?vid=8c011ad4-2b66-4c5d-84f1-f1c97f434249","ios":"levelo://app?vid=8c011ad4-2b66-4c5d-84f1-f1c97f434249"},"vehicle_type_id":"4","last_reported":1747948173,"current_range_meters":10800,"station_id":"ce4bhl12rcd13ifvqgf0","pricing_plan_id":"cebpf4jnsgd1na2vs0mg"},{"bike_id":"cd682ff5-8c20-4e32-9385-312636eb3939","system_id":"levelo_inurba_marseille","lat":43.25112,"lon":5.40323,"is_reserved":false,"is_disabled":false,"rental_uris":{"android":"levelo://app?vid=cd682ff5-8c20-4e32-9385-312636eb3939","ios":"levelo://app?vid=cd682ff5-8c20-4e32-9385-312636eb3939"},"vehicle_type_id":"4","last_reported":1747948173,"current_range_meters":10800,"station_id":"ce4bhlh2rcd13ifvqgig","pricing_plan_id":"cebpf4jnsgd1na2vs0mg"},{"bike_id":"97ebe8c6-51f4-4e9c-afba-5a56e66cb0eb","system_id":"levelo_inurba_marseille","lat":43.280736,"lon":5.396609,"is_reserved":false,"is_disabled":false,"rental_uris":{"android":"levelo://app?vid=97ebe8c6-51f4-4e9c-afba-5a56e66cb0eb","ios":"levelo://app?vid=97ebe8c6-51f4-4e9c-afba-5a56e66cb0eb"},"vehicle_type_id":"4","last_reported":1747948173,"current_range_meters":10800,"station_id":"ce4bho12rcd13ifvqh2g","pricing_plan_id":"cebpf4jnsgd1na2vs0mg"},{"bike_id":"5704d719-e3bf-4781-8356-e58989838f65","system_id":"levelo_inurba_marseille","lat":43.34141,"lon":5.4091,"is_reserved":false,"is_disabled":false,"rental_uris":{"android":"levelo://app?vid=5704d719-e3bf-4781-8356-e58989838f65","ios":"levelo://app?vid=5704d719-e3bf-4781-8356-e58989838f65"},"vehicle_type_id":"4","last_reported":1747948173,"current_range_meters":10800,"station_id":"ce4bhqh2rcd13ifvqhlg","pricing_plan_id":"cebpf4jnsgd1na2vs0mg"},{"bike_id":"c2ea5a9c-8fd7-40ac-8515-427466010d70","system_id":"levelo_inurba_marseille","lat":43.32102,"lon":5.36777,"is_reserved":false,"is_disabled":false,"rental_uris":{"android":"levelo://app?vid=c2ea5a9c-8fd7-40ac-8515-427466010d70","ios":"levelo://app?vid=c2ea5a9c-8fd7-40ac-8515-427466010d70"},"vehicle_type_id":"4","last_reported":1747948173,"current_range_meters":10800,"station_id":"ce4bhrh2rcd13ifvqhug","pricing_plan_id":"cebpf4jnsgd1na2vs0mg"},{"bike_id":"fc478b53-8c86-4331-b685-e08cb1f0dc78","system_id":"levelo_inurba_marseille","lat":43.28433,"lon":5.34993,"is_reserved":false,"is_disabled":false,"rental_uris":{"android":"levelo://app?vid=fc478b53-8c86-4331-b685-e08cb1f0dc78","ios":"levelo://app?vid=fc478b53-8c86-4331-b685-e08cb1f0dc78"},"vehicle_type_id":"4","last_reported":1747948173,"current_range_meters":11200,"station_id":"ce4bhbh2rcd13ifvqepg","pricing_plan_id":"cebpf4jnsgd1na2vs0mg"},{"bike_id":"32d53416-3fc4-4bf2-9313-a939b6ab6fe7","system_id":"levelo_inurba_marseille","lat":43.2417,"lon":5.39698,"is_reserved":false,"is_disabled":false,"rental_uris":{"android":"levelo://app?vid=32d53416-3fc4-4bf2-9313-a939b6ab6fe7","ios":"levelo://app?vid=32d53416-3fc4-4bf2-9313-a939b6ab6fe7"},"vehicle_type_id":"4","last_reported":1747948173,"current_range_meters":11200,"station_id":"ce4bhn12rcd13ifvqgpg","pricing_plan_id":"cebpf4jnsgd1na2vs0mg"},{"bike_id":"2c001321-46c5-49fc-baa0-41a5b51fafc1","system_id":"levelo_inurba_marseille","lat":43.24075,"lon":5.37749,"is_reserved":false,"is_disabled":false,"rental_uris":{"android":"levelo://app?vid=2c001321-46c5-49fc-baa0-41a5b51fafc1","ios":"levelo://app?vid=2c001321-46c5-49fc-baa0-41a5b51fafc1"},"vehicle_type_id":"4","last_reported":1747948173,"current_range_meters":11200,"station_id":"ce4bhnp2rcd13ifvqgvg","pricing_plan_id":"cebpf4jnsgd1na2vs0mg"},{"bike_id":"d5ef9bfd-47f0-45d4-b59f-f18ac0ae1387","system_id":"levelo_inurba_marseille","lat":43.2407,"lon":5.37758,"is_reserved":false,"is_disabled":false,"rental_uris":{"android":"levelo://app?vid=d5ef9bfd-47f0-45d4-b59f-f18ac0ae1387","ios":"levelo://app?vid=d5ef9bfd-47f0-45d4-b59f-f18ac0ae1387"},"vehicle_type_id":"4","last_reported":1747948173,"current_range_meters":11600,"station_id":"ce4bhnp2rcd13ifvqgvg","pricing_plan_id":"cebpf4jnsgd1na2vs0mg"},{"bike_id":"84f00b51-2429-41be-8a43-83978d7764de","system_id":"levelo_inurba_marseille","lat":43.28003,"lon":5.40003,"is_reserved":false,"is_disabled":false,"rental_uris":{"android":"levelo://app?vid=84f00b51-2429-41be-8a43-83978d7764de","ios":"levelo://app?vid=84f00b51-2429-41be-8a43-83978d7764de"},"vehicle_type_id":"4","last_reported":1747948173,"current_range_meters":12000,"station_id":"ce4bho92rcd13ifvqh4g","pricing_plan_id":"cebpf4jnsgd1na2vs0mg"},{"bike_id":"bcbce528-f9d7-44b0-8e7c-a8ac87c23372","system_id":"levelo_inurba_marseille","lat":43.31112,"lon":5.42444,"is_reserved":false,"is_disabled":false,"rental_uris":{"android":"levelo://app?vid=bcbce528-f9d7-44b0-8e7c-a8ac87c23372","ios":"levelo://app?vid=bcbce528-f9d7-44b0-8e7c-a8ac87c23372"},"vehicle_type_id":"4","last_reported":1747948173,"current_range_meters":12000,"station_id":"ce4bhp92rcd13ifvqhag","pricing_plan_id":"cebpf4jnsgd1na2vs0mg"},{"bike_id":"65709e04-dd2d-4829-ad4c-b8b87c733266","system_id":"levelo_inurba_marseille","lat":43.29253,"lon":5.38457,"is_reserved":false,"is_disabled":false,"rental_uris":{"android":"levelo://app?vid=65709e04-dd2d-4829-ad4c-b8b87c733266","ios":"levelo://app?vid=65709e04-dd2d-4829-ad4c-b8b87c733266"},"vehicle_type_id":"4","last_reported":1747948173,"current_range_meters":12400,"station_id":"ce4bh692rcd13ifvqea0","pricing_plan_id":"cebpf4jnsgd1na2vs0mg"},{"bike_id":"e77b9d43-a803-4f5c-912a-7a91f5e7da59","system_id":"levelo_inurba_marseille","lat":43.28422,"lon":5.34991,"is_reserved":false,"is_disabled":false,"rental_uris":{"android":"levelo://app?vid=e77b9d43-a803-4f5c-912a-7a91f5e7da59","ios":"levelo://app?vid=e77b9d43-a803-4f5c-912a-7a91f5e7da59"},"vehicle_type_id":"4","last_reported":1747948173,"current_range_meters":12400,"station_id":"ce4bhbh2rcd13ifvqepg","pricing_plan_id":"cebpf4jnsgd1na2vs0mg"},{"bike_id":"665b73db-847c-4162-be3a-f9fe18819e9a","system_id":"levelo_inurba_marseille","lat":43.28629,"lon":5.35087,"is_reserved":false,"is_disabled":false,"rental_uris":{"android":"levelo://app?vid=665b73db-847c-4162-be3a-f9fe18819e9a","ios":"levelo://app?vid=665b73db-847c-4162-be3a-f9fe18819e9a"},"vehicle_type_id":"4","last_reported":1747948173,"current_range_meters":12400,"station_id":"ce4bhch2rcd13ifvqeug","pricing_plan_id":"cebpf4jnsgd1na2vs0mg"},{"bike_id":"6a279e33-f6c8-45e5-8010-e6bff4e56bb3","system_id":"levelo_inurba_marseille","lat":43.2397,"lon":5.36624,"is_reserved":false,"is_disabled":false,"rental_uris":{"android":"levelo://app?vid=6a279e33-f6c8-45e5-8010-e6bff4e56bb3","ios":"levelo://app?vid=6a279e33-f6c8-45e5-8010-e6bff4e56bb3"},"vehicle_type_id":"4","last_reported":1747948173,"current_range_meters":12400,"station_id":"ce4bhi12rcd13ifvqfp0","pricing_plan_id":"cebpf4jnsgd1na2vs0mg"},{"bike_id":"682e8c54-3f77-4582-937b-7490f31456f6","system_id":"levelo_inurba_marseille","lat":43.25871,"lon":5.39904,"is_reserved":false,"is_disabled":false,"rental_uris":{"android":"levelo://app?vid=682e8c54-3f77-4582-937b-7490f31456f6","ios":"levelo://app?vid=682e8c54-3f77-4582-937b-7490f31456f6"},"vehicle_type_id":"4","last_reported":1747948173,"current_range_meters":12400,"station_id":"ce4bhl92rcd13ifvqghg","pricing_plan_id":"cebpf4jnsgd1na2vs0mg"},{"bike_id":"82e0b8f7-3422-4587-ac56-37577d27ecdc","system_id":"levelo_inurba_marseille","lat":43.26225,"lon":5.40443,"is_reserved":false,"is_disabled":false,"rental_uris":{"android":"levelo://app?vid=82e0b8f7-3422-4587-ac56-37577d27ecdc","ios":"levelo://app?vid=82e0b8f7-3422-4587-ac56-37577d27ecdc"},"vehicle_type_id":"4","last_reported":1747948173,"current_range_meters":12400,"station_id":"ce4bhmh2rcd13ifvqgmg","pricing_plan_id":"cebpf4jnsgd1na2vs0mg"},{"bike_id":"b7cfd227-2238-4c74-a711-248386b37b65","system_id":"levelo_inurba_marseille","lat":43.30313,"lon":5.39198,"is_reserved":false,"is_disabled":false,"rental_uris":{"android":"levelo://app?vid=b7cfd227-2238-4c74-a711-248386b37b65","ios":"levelo://app?vid=b7cfd227-2238-4c74-a711-248386b37b65"},"vehicle_type_id":"4","last_reported":1747948173,"current_range_meters":12800,"station_id":"ce4bgkh2rcd13ifvqbk0","pricing_plan_id":"cebpf4jnsgd1na2vs0mg"},{"bike_id":"6eb8b916-4eae-4ca2-a682-410dd24a2d36","system_id":"levelo_inurba_marseille","lat":43.31074,"lon":5.38346,"is_reserved":false,"is_disabled":false,"rental_uris":{"android":"levelo://app?vid=6eb8b916-4eae-4ca2-a682-410dd24a2d36","ios":"levelo://app?vid=6eb8b916-4eae-4ca2-a682-410dd24a2d36"},"vehicle_type_id":"4","last_reported":1747948173,"current_range_meters":12800,"station_id":"ce4bgv92rcd13ifvqcr0","pricing_plan_id":"cebpf4jnsgd1na2vs0mg"},{"bike_id":"247c26f1-4440-4ae0-a99a-dcceb20f707b","system_id":"levelo_inurba_marseille","lat":43.298676,"lon":5.397312,"is_reserved":false,"is_disabled":false,"rental_uris":{"android":"levelo://app?vid=247c26f1-4440-4ae0-a99a-dcceb20f707b","ios":"levelo://app?vid=247c26f1-4440-4ae0-a99a-dcceb20f707b"},"vehicle_type_id":"4","last_reported":1747948173,"current_range_meters":12800,"station_id":"ce4bh0h2rcd13ifvqd50","pricing_plan_id":"cebpf4jnsgd1na2vs0mg"},{"bike_id":"23d143d1-3ad0-448c-a704-752010e19e0b","system_id":"levelo_inurba_marseille","lat":43.25517,"lon":5.3763,"is_reserved":false,"is_disabled":false,"rental_uris":{"android":"levelo://app?vid=23d143d1-3ad0-448c-a704-752010e19e0b","ios":"levelo://app?vid=23d143d1-3ad0-448c-a704-752010e19e0b"},"vehicle_type_id":"4","last_reported":1747948173,"current_range_meters":12800,"station_id":"ce4bhh12rcd13ifvqff0","pricing_plan_id":"cebpf4jnsgd1na2vs0mg"},{"bike_id":"e3e19b90-9823-4b53-b8a7-4c599b3176c2","system_id":"levelo_inurba_marseille","lat":43.251133,"lon":5.403269,"is_reserved":false,"is_disabled":false,"rental_uris":{"android":"levelo://app?vid=e3e19b90-9823-4b53-b8a7-4c599b3176c2","ios":"levelo://app?vid=e3e19b90-9823-4b53-b8a7-4c599b3176c2"},"vehicle_type_id":"4","last_reported":1747948173,"current_range_meters":12800,"station_id":"ce4bhlh2rcd13ifvqgig","pricing_plan_id":"cebpf4jnsgd1na2vs0mg"},{"bike_id":"54cc4023-e928-43db-9128-d21bf9cd7c01","system_id":"levelo_inurba_marseille","lat":43.34144,"lon":5.40905,"is_reserved":false,"is_disabled":false,"rental_uris":{"android":"levelo://app?vid=54cc4023-e928-43db-9128-d21bf9cd7c01","ios":"levelo://app?vid=54cc4023-e928-43db-9128-d21bf9cd7c01"},"vehicle_type_id":"4","last_reported":1747948173,"current_range_meters":12800,"station_id":"ce4bhqh2rcd13ifvqhlg","pricing_plan_id":"cebpf4jnsgd1na2vs0mg"},{"bike_id":"2c87c810-7a38-4e57-b8f4-53b1ff151be1","system_id":"levelo_inurba_marseille","lat":43.28629,"lon":5.35094,"is_reserved":false,"is_disabled":false,"rental_uris":{"android":"levelo://app?vid=2c87c810-7a38-4e57-b8f4-53b1ff151be1","ios":"levelo://app?vid=2c87c810-7a38-4e57-b8f4-53b1ff151be1"},"vehicle_type_id":"4","last_reported":1747948173,"current_range_meters":13600,"station_id":"ce4bhch2rcd13ifvqeug","pricing_plan_id":"cebpf4jnsgd1na2vs0mg"},{"bike_id":"06860ac7-5060-4573-b679-f409ec2b7a5c","system_id":"levelo_inurba_marseille","lat":43.25504,"lon":5.37654,"is_reserved":false,"is_disabled":false,"rental_uris":{"android":"levelo://app?vid=06860ac7-5060-4573-b679-f409ec2b7a5c","ios":"levelo://app?vid=06860ac7-5060-4573-b679-f409ec2b7a5c"},"vehicle_type_id":"4","last_reported":1747948173,"current_range_meters":13600,"station_id":"ce4bhh12rcd13ifvqff0","pricing_plan_id":"cebpf4jnsgd1na2vs0mg"},{"bike_id":"1a3da374-6bd4-4646-af14-2e73688eabac","system_id":"levelo_inurba_marseille","lat":43.270715,"lon":5.422773,"is_reserved":false,"is_disabled":false,"rental_uris":{"android":"levelo://app?vid=1a3da374-6bd4-4646-af14-2e73688eabac","ios":"levelo://app?vid=1a3da374-6bd4-4646-af14-2e73688eabac"},"vehicle_type_id":"4","last_reported":1747948173,"current_range_meters":13600,"station_id":"ce4bhk92rcd13ifvqgb0","pricing_plan_id":"cebpf4jnsgd1na2vs0mg"},{"bike_id":"60e4ed4d-cb67-42d1-aa59-cd42a0868b56","system_id":"levelo_inurba_marseille","lat":43.241861,"lon":5.397255,"is_reserved":false,"is_disabled":false,"rental_uris":{"android":"levelo://app?vid=60e4ed4d-cb67-42d1-aa59-cd42a0868b56","ios":"levelo://app?vid=60e4ed4d-cb67-42d1-aa59-cd42a0868b56"},"vehicle_type_id":"4","last_reported":1747948173,"current_range_meters":13600,"station_id":"ce4bhn12rcd13ifvqgpg","pricing_plan_id":"cebpf4jnsgd1na2vs0mg"},{"bike_id":"eed511be-1a62-4434-a2ef-3b183c6b312b","system_id":"levelo_inurba_marseille","lat":43.303824,"lon":5.424854,"is_reserved":false,"is_disabled":false,"rental_uris":{"android":"levelo://app?vid=eed511be-1a62-4434-a2ef-3b183c6b312b","ios":"levelo://app?vid=eed511be-1a62-4434-a2ef-3b183c6b312b"},"vehicle_type_id":"4","last_reported":1747948173,"current_range_meters":13600,"station_id":"ce4bhoh2rcd13ifvqh6g","pricing_plan_id":"cebpf4jnsgd1na2vs0mg"},{"bike_id":"3f66cb67-d77d-438d-9cea-3915d2842f58","system_id":"levelo_inurba_marseille","lat":43.31488,"lon":5.37293,"is_reserved":false,"is_disabled":false,"rental_uris":{"android":"levelo://app?vid=3f66cb67-d77d-438d-9cea-3915d2842f58","ios":"levelo://app?vid=3f66cb67-d77d-438d-9cea-3915d2842f58"},"vehicle_type_id":"4","last_reported":1747948173,"current_range_meters":14000,"station_id":"ce4bgt12rcd13ifvqcd0","pricing_plan_id":"cebpf4jnsgd1na2vs0mg"},{"bike_id":"817348e2-fb05-4de7-96f6-c8b207cb8ed8","system_id":"levelo_inurba_marseille","lat":43.21202,"lon":5.35066,"is_reserved":false,"is_disabled":false,"rental_uris":{"android":"levelo://app?vid=817348e2-fb05-4de7-96f6-c8b207cb8ed8","ios":"levelo://app?vid=817348e2-fb05-4de7-96f6-c8b207cb8ed8"},"vehicle_type_id":"4","last_reported":1747948173,"current_range_meters":14000,"station_id":"st_cvj6sg6p6f1abm77japg","pricing_plan_id":"cebpf4jnsgd1na2vs0mg"},{"bike_id":"41bef200-0210-46a9-afd1-c001d345c4b0","system_id":"levelo_inurba_marseille","lat":43.33633,"lon":5.37823,"is_reserved":false,"is_disabled":false,"rental_uris":{"android":"levelo://app?vid=41bef200-0210-46a9-afd1-c001d345c4b0","ios":"levelo://app?vid=41bef200-0210-46a9-afd1-c001d345c4b0"},"vehicle_type_id":"4","last_reported":1747948173,"current_range_meters":14400,"station_id":"","pricing_plan_id":"cebpf4jnsgd1na2vs0mg"},{"bike_id":"33416cf4-f5b4-4c12-8feb-dff0d93413c2","system_id":"levelo_inurba_marseille","lat":43.217567,"lon":5.345927,"is_reserved":false,"is_disabled":false,"rental_uris":{"android":"levelo://app?vid=33416cf4-f5b4-4c12-8feb-dff0d93413c2","ios":"levelo://app?vid=33416cf4-f5b4-4c12-8feb-dff0d93413c2"},"vehicle_type_id":"4","last_reported":1747948173,"current_range_meters":14400,"station_id":"","pricing_plan_id":"cebpf4jnsgd1na2vs0mg"},{"bike_id":"fd8f6f5d-a213-413a-ba2a-2c9bbbf02a79","system_id":"levelo_inurba_marseille","lat":43.2792,"lon":5.39582,"is_reserved":false,"is_disabled":false,"rental_uris":{"android":"levelo://app?vid=fd8f6f5d-a213-413a-ba2a-2c9bbbf02a79","ios":"levelo://app?vid=fd8f6f5d-a213-413a-ba2a-2c9bbbf02a79"},"vehicle_type_id":"4","last_reported":1747948173,"current_range_meters":14400,"station_id":"ce4bhf92rcd13ifvqf40","pricing_plan_id":"cebpf4jnsgd1na2vs0mg"},{"bike_id":"9f460d3d-f9bb-492b-abf4-8862d9a02303","system_id":"levelo_inurba_marseille","lat":43.27914,"lon":5.39578,"is_reserved":false,"is_disabled":false,"rental_uris":{"android":"levelo://app?vid=9f460d3d-f9bb-492b-abf4-8862d9a02303","ios":"levelo://app?vid=9f460d3d-f9bb-492b-abf4-8862d9a02303"},"vehicle_type_id":"4","last_reported":1747948173,"current_range_meters":14400,"station_id":"ce4bhf92rcd13ifvqf40","pricing_plan_id":"cebpf4jnsgd1na2vs0mg"},{"bike_id":"d9cedd87-60a9-44d9-b244-855865e44d16","system_id":"levelo_inurba_marseille","lat":43.26044,"lon":5.37543,"is_reserved":false,"is_disabled":false,"rental_uris":{"android":"levelo://app?vid=d9cedd87-60a9-44d9-b244-855865e44d16","ios":"levelo://app?vid=d9cedd87-60a9-44d9-b244-855865e44d16"},"vehicle_type_id":"4","last_reported":1747948173,"current_range_meters":14400,"station_id":"ce4bhgh2rcd13ifvqfa0","pricing_plan_id":"cebpf4jnsgd1na2vs0mg"},{"bike_id":"830cf864-878f-4c75-8035-e7f25af04892","system_id":"levelo_inurba_marseille","lat":43.26511,"lon":5.39527,"is_reserved":false,"is_disabled":false,"rental_uris":{"android":"levelo://app?vid=830cf864-878f-4c75-8035-e7f25af04892","ios":"levelo://app?vid=830cf864-878f-4c75-8035-e7f25af04892"},"vehicle_type_id":"4","last_reported":1747948173,"current_range_meters":14400,"station_id":"ce4bhi12rcd13ifvqfq0","pricing_plan_id":"cebpf4jnsgd1na2vs0mg"},{"bike_id":"d084dc71-41a3-42a0-bb47-05c4c340e7ba","system_id":"levelo_inurba_marseille","lat":43.25588,"lon":5.38231,"is_reserved":false,"is_disabled":false,"rental_uris":{"android":"levelo://app?vid=d084dc71-41a3-42a0-bb47-05c4c340e7ba","ios":"levelo://app?vid=d084dc71-41a3-42a0-bb47-05c4c340e7ba"},"vehicle_type_id":"4","last_reported":1747948173,"current_range_meters":14400,"station_id":"ce4bhih2rcd13ifvqfs0","pricing_plan_id":"cebpf4jnsgd1na2vs0mg"},{"bike_id":"38d7fd16-7f13-464c-9ad4-4fc2e6c38996","system_id":"levelo_inurba_marseille","lat":43.28429,"lon":5.39174,"is_reserved":false,"is_disabled":false,"rental_uris":{"android":"levelo://app?vid=38d7fd16-7f13-464c-9ad4-4fc2e6c38996","ios":"levelo://app?vid=38d7fd16-7f13-464c-9ad4-4fc2e6c38996"},"vehicle_type_id":"4","last_reported":1747948173,"current_range_meters":14400,"station_id":"ce4bhoh2rcd13ifvqh5g","pricing_plan_id":"cebpf4jnsgd1na2vs0mg"},{"bike_id":"605be4bf-deee-4b33-a4cb-0294e9797557","system_id":"levelo_inurba_marseille","lat":43.23065,"lon":5.35487,"is_reserved":false,"is_disabled":false,"rental_uris":{"android":"levelo://app?vid=605be4bf-deee-4b33-a4cb-0294e9797557","ios":"levelo://app?vid=605be4bf-deee-4b33-a4cb-0294e9797557"},"vehicle_type_id":"4","last_reported":1747948173,"current_range_meters":14400,"station_id":"cpo3342slgdg3j2ifvpg","pricing_plan_id":"cebpf4jnsgd1na2vs0mg"},{"bike_id":"8f318e31-6b77-4c4f-9465-912220e9e66a","system_id":"levelo_inurba_marseille","lat":43.29974,"lon":5.4005,"is_reserved":false,"is_disabled":false,"rental_uris":{"android":"levelo://app?vid=8f318e31-6b77-4c4f-9465-912220e9e66a","ios":"levelo://app?vid=8f318e31-6b77-4c4f-9465-912220e9e66a"},"vehicle_type_id":"4","last_reported":1747948173,"current_range_meters":14800,"station_id":"","pricing_plan_id":"cebpf4jnsgd1na2vs0mg"},{"bike_id":"b17f4d77-4af5-4e2c-ba22-92595ad072e2","system_id":"levelo_inurba_marseille","lat":43.24645,"lon":5.38882,"is_reserved":false,"is_disabled":false,"rental_uris":{"android":"levelo://app?vid=b17f4d77-4af5-4e2c-ba22-92595ad072e2","ios":"levelo://app?vid=b17f4d77-4af5-4e2c-ba22-92595ad072e2"},"vehicle_type_id":"4","last_reported":1747948173,"current_range_meters":14800,"station_id":"ce4bhg12rcd13ifvqf60","pricing_plan_id":"cebpf4jnsgd1na2vs0mg"},{"bike_id":"3a1e6be1-b28c-44d5-9fff-616b72420ce6","system_id":"levelo_inurba_marseille","lat":43.32269,"lon":5.36778,"is_reserved":false,"is_disabled":false,"rental_uris":{"android":"levelo://app?vid=3a1e6be1-b28c-44d5-9fff-616b72420ce6","ios":"levelo://app?vid=3a1e6be1-b28c-44d5-9fff-616b72420ce6"},"vehicle_type_id":"4","last_reported":1747948173,"current_range_meters":15200,"station_id":"","pricing_plan_id":"cebpf4jnsgd1na2vs0mg"},{"bike_id":"4a392fd0-88a8-42bf-b59b-b85d413f2701","system_id":"levelo_inurba_marseille","lat":43.33104,"lon":5.40808,"is_reserved":false,"is_disabled":false,"rental_uris":{"android":"levelo://app?vid=4a392fd0-88a8-42bf-b59b-b85d413f2701","ios":"levelo://app?vid=4a392fd0-88a8-42bf-b59b-b85d413f2701"},"vehicle_type_id":"4","last_reported":1747948173,"current_range_meters":15200,"station_id":"","pricing_plan_id":"cebpf4jnsgd1na2vs0mg"},{"bike_id":"550176f0-1d65-4315-b9ae-461a7cc83021","system_id":"levelo_inurba_marseille","lat":43.31176,"lon":5.38704,"is_reserved":false,"is_disabled":false,"rental_uris":{"android":"levelo://app?vid=550176f0-1d65-4315-b9ae-461a7cc83021","ios":"levelo://app?vid=550176f0-1d65-4315-b9ae-461a7cc83021"},"vehicle_type_id":"4","last_reported":1747948173,"current_range_meters":15200,"station_id":"ce4bgv12rcd13ifvqcp0","pricing_plan_id":"cebpf4jnsgd1na2vs0mg"},{"bike_id":"356272d3-31fb-42a2-bddb-7056d8393b3b","system_id":"levelo_inurba_marseille","lat":43.28077,"lon":5.396557,"is_reserved":false,"is_disabled":false,"rental_uris":{"android":"levelo://app?vid=356272d3-31fb-42a2-bddb-7056d8393b3b","ios":"levelo://app?vid=356272d3-31fb-42a2-bddb-7056d8393b3b"},"vehicle_type_id":"4","last_reported":1747948173,"current_range_meters":15200,"station_id":"ce4bho12rcd13ifvqh2g","pricing_plan_id":"cebpf4jnsgd1na2vs0mg"},{"bike_id":"6dde22b3-be2c-4353-838d-05c85608e4d3","system_id":"levelo_inurba_marseille","lat":43.32355,"lon":5.36746,"is_reserved":false,"is_disabled":false,"rental_uris":{"android":"levelo://app?vid=6dde22b3-be2c-4353-838d-05c85608e4d3","ios":"levelo://app?vid=6dde22b3-be2c-4353-838d-05c85608e4d3"},"vehicle_type_id":"4","last_reported":1747948173,"current_range_meters":15200,"station_id":"ce4bhsh2rcd13ifvqi2g","pricing_plan_id":"cebpf4jnsgd1na2vs0mg"},{"bike_id":"d490691b-9a9e-4395-8762-22362bdd30b7","system_id":"levelo_inurba_marseille","lat":43.30334,"lon":5.40434,"is_reserved":false,"is_disabled":false,"rental_uris":{"android":"levelo://app?vid=d490691b-9a9e-4395-8762-22362bdd30b7","ios":"levelo://app?vid=d490691b-9a9e-4395-8762-22362bdd30b7"},"vehicle_type_id":"4","last_reported":1747948173,"current_range_meters":16000,"station_id":"ce4bh012rcd13ifvqd10","pricing_plan_id":"cebpf4jnsgd1na2vs0mg"},{"bike_id":"8f5ad702-5ff8-41ee-b034-3d5a2428c0c5","system_id":"levelo_inurba_marseille","lat":43.25125,"lon":5.40314,"is_reserved":false,"is_disabled":false,"rental_uris":{"android":"levelo://app?vid=8f5ad702-5ff8-41ee-b034-3d5a2428c0c5","ios":"levelo://app?vid=8f5ad702-5ff8-41ee-b034-3d5a2428c0c5"},"vehicle_type_id":"4","last_reported":1747948173,"current_range_meters":16000,"station_id":"ce4bhlh2rcd13ifvqgig","pricing_plan_id":"cebpf4jnsgd1na2vs0mg"},{"bike_id":"7a174cf0-49bb-442b-9787-ed977ba34ca4","system_id":"levelo_inurba_marseille","lat":43.241976,"lon":5.397068,"is_reserved":false,"is_disabled":false,"rental_uris":{"android":"levelo://app?vid=7a174cf0-49bb-442b-9787-ed977ba34ca4","ios":"levelo://app?vid=7a174cf0-49bb-442b-9787-ed977ba34ca4"},"vehicle_type_id":"4","last_reported":1747948173,"current_range_meters":16000,"station_id":"ce4bhn12rcd13ifvqgpg","pricing_plan_id":"cebpf4jnsgd1na2vs0mg"},{"bike_id":"1e164eaf-2ffb-4814-9442-b43f6b5c9f80","system_id":"levelo_inurba_marseille","lat":43.24171,"lon":5.36385,"is_reserved":false,"is_disabled":false,"rental_uris":{"android":"levelo://app?vid=1e164eaf-2ffb-4814-9442-b43f6b5c9f80","ios":"levelo://app?vid=1e164eaf-2ffb-4814-9442-b43f6b5c9f80"},"vehicle_type_id":"4","last_reported":1747948173,"current_range_meters":16000,"station_id":"cpo36qri1sfpv3e86is0","pricing_plan_id":"cebpf4jnsgd1na2vs0mg"},{"bike_id":"1a340bac-8012-4c7c-b50a-247d19f083a9","system_id":"levelo_inurba_marseille","lat":43.22509,"lon":5.34776,"is_reserved":false,"is_disabled":false,"rental_uris":{"android":"levelo://app?vid=1a340bac-8012-4c7c-b50a-247d19f083a9","ios":"levelo://app?vid=1a340bac-8012-4c7c-b50a-247d19f083a9"},"vehicle_type_id":"4","last_reported":1747948173,"current_range_meters":16000,"station_id":"st_cvj5dfep6f1abm77gieg","pricing_plan_id":"cebpf4jnsgd1na2vs0mg"},{"bike_id":"0e27a530-5aca-4bdb-bcfe-2711f03311f8","system_id":"levelo_inurba_marseille","lat":43.21768,"lon":5.34588,"is_reserved":false,"is_disabled":false,"rental_uris":{"android":"levelo://app?vid=0e27a530-5aca-4bdb-bcfe-2711f03311f8","ios":"levelo://app?vid=0e27a530-5aca-4bdb-bcfe-2711f03311f8"},"vehicle_type_id":"4","last_reported":1747948173,"current_range_meters":16000,"station_id":"st_cvj6r9ubvosntc0bgbag","pricing_plan_id":"cebpf4jnsgd1na2vs0mg"},{"bike_id":"124d038b-39ac-4185-9861-0d91e8953561","system_id":"levelo_inurba_marseille","lat":43.31384,"lon":5.38495,"is_reserved":false,"is_disabled":false,"rental_uris":{"android":"levelo://app?vid=124d038b-39ac-4185-9861-0d91e8953561","ios":"levelo://app?vid=124d038b-39ac-4185-9861-0d91e8953561"},"vehicle_type_id":"4","last_reported":1747948173,"current_range_meters":16400,"station_id":"ce4bgt92rcd13ifvqcf0","pricing_plan_id":"cebpf4jnsgd1na2vs0mg"},{"bike_id":"ccdebd71-9c0f-4fc7-8be3-c083fa061b74","system_id":"levelo_inurba_marseille","lat":43.29522,"lon":5.39399,"is_reserved":false,"is_disabled":false,"rental_uris":{"android":"levelo://app?vid=ccdebd71-9c0f-4fc7-8be3-c083fa061b74","ios":"levelo://app?vid=ccdebd71-9c0f-4fc7-8be3-c083fa061b74"},"vehicle_type_id":"4","last_reported":1747948173,"current_range_meters":16400,"station_id":"ce4bh292rcd13ifvqdf0","pricing_plan_id":"cebpf4jnsgd1na2vs0mg"},{"bike_id":"0784f908-aae9-4bc1-9ca8-688bd9d0398c","system_id":"levelo_inurba_marseille","lat":43.28356,"lon":5.38095,"is_reserved":false,"is_disabled":false,"rental_uris":{"android":"levelo://app?vid=0784f908-aae9-4bc1-9ca8-688bd9d0398c","ios":"levelo://app?vid=0784f908-aae9-4bc1-9ca8-688bd9d0398c"},"vehicle_type_id":"4","last_reported":1747948173,"current_range_meters":16400,"station_id":"ce4bh412rcd13ifvqdr0","pricing_plan_id":"cebpf4jnsgd1na2vs0mg"},{"bike_id":"6c4343bb-4be2-40e8-8d29-21374f515dd5","system_id":"levelo_inurba_marseille","lat":43.28464,"lon":5.3589,"is_reserved":false,"is_disabled":false,"rental_uris":{"android":"levelo://app?vid=6c4343bb-4be2-40e8-8d29-21374f515dd5","ios":"levelo://app?vid=6c4343bb-4be2-40e8-8d29-21374f515dd5"},"vehicle_type_id":"4","last_reported":1747948173,"current_range_meters":16400,"station_id":"ce4bhah2rcd13ifvqei0","pricing_plan_id":"cebpf4jnsgd1na2vs0mg"},{"bike_id":"b138d1cc-9fe4-4dad-b078-790748d99d8e","system_id":"levelo_inurba_marseille","lat":43.27377,"lon":5.36251,"is_reserved":false,"is_disabled":false,"rental_uris":{"android":"levelo://app?vid=b138d1cc-9fe4-4dad-b078-790748d99d8e","ios":"levelo://app?vid=b138d1cc-9fe4-4dad-b078-790748d99d8e"},"vehicle_type_id":"4","last_reported":1747948173,"current_range_meters":16400,"station_id":"ce4bhbh2rcd13ifvqeo0","pricing_plan_id":"cebpf4jnsgd1na2vs0mg"},{"bike_id":"9f666833-34fa-43d3-921b-975828738834","system_id":"levelo_inurba_marseille","lat":43.25502,"lon":5.37648,"is_reserved":false,"is_disabled":false,"rental_uris":{"android":"levelo://app?vid=9f666833-34fa-43d3-921b-975828738834","ios":"levelo://app?vid=9f666833-34fa-43d3-921b-975828738834"},"vehicle_type_id":"4","last_reported":1747948173,"current_range_meters":16400,"station_id":"ce4bhh12rcd13ifvqff0","pricing_plan_id":"cebpf4jnsgd1na2vs0mg"},{"bike_id":"3d3cf174-89b5-4d90-bf4e-b5d32be1bb83","system_id":"levelo_inurba_marseille","lat":43.26789,"lon":5.39409,"is_reserved":false,"is_disabled":false,"rental_uris":{"android":"levelo://app?vid=3d3cf174-89b5-4d90-bf4e-b5d32be1bb83","ios":"levelo://app?vid=3d3cf174-89b5-4d90-bf4e-b5d32be1bb83"},"vehicle_type_id":"4","last_reported":1747948173,"current_range_meters":16400,"station_id":"ce4bhh12rcd13ifvqfg0","pricing_plan_id":"cebpf4jnsgd1na2vs0mg"},{"bike_id":"beb93ece-8a2b-401d-b7e3-ad77b01ce941","system_id":"levelo_inurba_marseille","lat":43.217498,"lon":5.34605,"is_reserved":false,"is_disabled":false,"rental_uris":{"android":"levelo://app?vid=beb93ece-8a2b-401d-b7e3-ad77b01ce941","ios":"levelo://app?vid=beb93ece-8a2b-401d-b7e3-ad77b01ce941"},"vehicle_type_id":"4","last_reported":1747948173,"current_range_meters":16400,"station_id":"st_cvj6r9ubvosntc0bgbag","pricing_plan_id":"cebpf4jnsgd1na2vs0mg"},{"bike_id":"34d4113c-1559-4750-a287-aa6c21337605","system_id":"levelo_inurba_marseille","lat":43.29284,"lon":5.40114,"is_reserved":false,"is_disabled":false,"rental_uris":{"android":"levelo://app?vid=34d4113c-1559-4750-a287-aa6c21337605","ios":"levelo://app?vid=34d4113c-1559-4750-a287-aa6c21337605"},"vehicle_type_id":"4","last_reported":1747948173,"current_range_meters":16800,"station_id":"ce4bh312rcd13ifvqdk0","pricing_plan_id":"cebpf4jnsgd1na2vs0mg"},{"bike_id":"6551eb7c-3b9e-4dfa-884c-9eb21912501f","system_id":"levelo_inurba_marseille","lat":43.28706,"lon":5.37374,"is_reserved":false,"is_disabled":false,"rental_uris":{"android":"levelo://app?vid=6551eb7c-3b9e-4dfa-884c-9eb21912501f","ios":"levelo://app?vid=6551eb7c-3b9e-4dfa-884c-9eb21912501f"},"vehicle_type_id":"4","last_reported":1747948173,"current_range_meters":16800,"station_id":"ce4bh3p2rcd13ifvqdq0","pricing_plan_id":"cebpf4jnsgd1na2vs0mg"},{"bike_id":"a63517d6-1d09-4803-a217-893c80757b63","system_id":"levelo_inurba_marseille","lat":43.28424,"lon":5.34995,"is_reserved":false,"is_disabled":false,"rental_uris":{"android":"levelo://app?vid=a63517d6-1d09-4803-a217-893c80757b63","ios":"levelo://app?vid=a63517d6-1d09-4803-a217-893c80757b63"},"vehicle_type_id":"4","last_reported":1747948173,"current_range_meters":16800,"station_id":"ce4bhbh2rcd13ifvqepg","pricing_plan_id":"cebpf4jnsgd1na2vs0mg"},{"bike_id":"a798eef8-c007-4e16-853c-244b6e137a9a","system_id":"levelo_inurba_marseille","lat":43.2841,"lon":5.34995,"is_reserved":false,"is_disabled":false,"rental_uris":{"android":"levelo://app?vid=a798eef8-c007-4e16-853c-244b6e137a9a","ios":"levelo://app?vid=a798eef8-c007-4e16-853c-244b6e137a9a"},"vehicle_type_id":"4","last_reported":1747948173,"current_range_meters":16800,"station_id":"ce4bhbh2rcd13ifvqepg","pricing_plan_id":"cebpf4jnsgd1na2vs0mg"},{"bike_id":"c7896a7d-b73c-4ce8-91f1-7fbe5362b2e3","system_id":"levelo_inurba_marseille","lat":43.32347,"lon":5.3675,"is_reserved":false,"is_disabled":false,"rental_uris":{"android":"levelo://app?vid=c7896a7d-b73c-4ce8-91f1-7fbe5362b2e3","ios":"levelo://app?vid=c7896a7d-b73c-4ce8-91f1-7fbe5362b2e3"},"vehicle_type_id":"4","last_reported":1747948173,"current_range_meters":16800,"station_id":"ce4bhsh2rcd13ifvqi2g","pricing_plan_id":"cebpf4jnsgd1na2vs0mg"},{"bike_id":"c6bf2e46-fb2f-4485-b1e5-f93500b0678b","system_id":"levelo_inurba_marseille","lat":43.230628,"lon":5.35497,"is_reserved":false,"is_disabled":false,"rental_uris":{"android":"levelo://app?vid=c6bf2e46-fb2f-4485-b1e5-f93500b0678b","ios":"levelo://app?vid=c6bf2e46-fb2f-4485-b1e5-f93500b0678b"},"vehicle_type_id":"4","last_reported":1747948173,"current_range_meters":16800,"station_id":"cpo3342slgdg3j2ifvpg","pricing_plan_id":"cebpf4jnsgd1na2vs0mg"},{"bike_id":"f5d829a6-a247-4bb7-8cb6-40d50b95ad24","system_id":"levelo_inurba_marseille","lat":43.31119,"lon":5.37778,"is_reserved":false,"is_disabled":false,"rental_uris":{"android":"levelo://app?vid=f5d829a6-a247-4bb7-8cb6-40d50b95ad24","ios":"levelo://app?vid=f5d829a6-a247-4bb7-8cb6-40d50b95ad24"},"vehicle_type_id":"4","last_reported":1747948173,"current_range_meters":17200,"station_id":"ce4bgt92rcd13ifvqcg0","pricing_plan_id":"cebpf4jnsgd1na2vs0mg"},{"bike_id":"b308dfdc-cf61-4e0b-afda-09441259d40e","system_id":"levelo_inurba_marseille","lat":43.31707,"lon":5.3775,"is_reserved":false,"is_disabled":false,"rental_uris":{"android":"levelo://app?vid=b308dfdc-cf61-4e0b-afda-09441259d40e","ios":"levelo://app?vid=b308dfdc-cf61-4e0b-afda-09441259d40e"},"vehicle_type_id":"4","last_reported":1747948173,"current_range_meters":17200,"station_id":"ce4bgth2rcd13ifvqch0","pricing_plan_id":"cebpf4jnsgd1na2vs0mg"},{"bike_id":"ad28e2f8-38a2-4c91-945b-6eaeb4ede8f1","system_id":"levelo_inurba_marseille","lat":43.25121,"lon":5.40316,"is_reserved":false,"is_disabled":false,"rental_uris":{"android":"levelo://app?vid=ad28e2f8-38a2-4c91-945b-6eaeb4ede8f1","ios":"levelo://app?vid=ad28e2f8-38a2-4c91-945b-6eaeb4ede8f1"},"vehicle_type_id":"4","last_reported":1747948173,"current_range_meters":17200,"station_id":"ce4bhlh2rcd13ifvqgig","pricing_plan_id":"cebpf4jnsgd1na2vs0mg"},{"bike_id":"40295a92-0c71-4824-afc9-e9766e591a50","system_id":"levelo_inurba_marseille","lat":43.24185,"lon":5.39724,"is_reserved":false,"is_disabled":false,"rental_uris":{"android":"levelo://app?vid=40295a92-0c71-4824-afc9-e9766e591a50","ios":"levelo://app?vid=40295a92-0c71-4824-afc9-e9766e591a50"},"vehicle_type_id":"4","last_reported":1747948173,"current_range_meters":17200,"station_id":"ce4bhn12rcd13ifvqgpg","pricing_plan_id":"cebpf4jnsgd1na2vs0mg"},{"bike_id":"d2cc243e-031f-4e1f-8668-89352a577155","system_id":"levelo_inurba_marseille","lat":43.28006,"lon":5.40006,"is_reserved":false,"is_disabled":false,"rental_uris":{"android":"levelo://app?vid=d2cc243e-031f-4e1f-8668-89352a577155","ios":"levelo://app?vid=d2cc243e-031f-4e1f-8668-89352a577155"},"vehicle_type_id":"4","last_reported":1747948173,"current_range_meters":17200,"station_id":"ce4bho92rcd13ifvqh4g","pricing_plan_id":"cebpf4jnsgd1na2vs0mg"},{"bike_id":"03c27706-dafc-4e44-b173-3742dda15e11","system_id":"levelo_inurba_marseille","lat":43.232,"lon":5.35542,"is_reserved":false,"is_disabled":false,"rental_uris":{"android":"levelo://app?vid=03c27706-dafc-4e44-b173-3742dda15e11","ios":"levelo://app?vid=03c27706-dafc-4e44-b173-3742dda15e11"},"vehicle_type_id":"4","last_reported":1747948173,"current_range_meters":17200,"station_id":"ce4bhu92rcd13ifvqi70","pricing_plan_id":"cebpf4jnsgd1na2vs0mg"},{"bike_id":"3c627d69-a2b4-4f60-8a0a-c04c968f8c35","system_id":"levelo_inurba_marseille","lat":43.21758,"lon":5.34594,"is_reserved":false,"is_disabled":false,"rental_uris":{"android":"levelo://app?vid=3c627d69-a2b4-4f60-8a0a-c04c968f8c35","ios":"levelo://app?vid=3c627d69-a2b4-4f60-8a0a-c04c968f8c35"},"vehicle_type_id":"4","last_reported":1747948173,"current_range_meters":17200,"station_id":"st_cvj6r9ubvosntc0bgbag","pricing_plan_id":"cebpf4jnsgd1na2vs0mg"},{"bike_id":"59e86a7a-e8b9-481c-93cf-968bdb5ba166","system_id":"levelo_inurba_marseille","lat":43.21195,"lon":5.35067,"is_reserved":false,"is_disabled":false,"rental_uris":{"android":"levelo://app?vid=59e86a7a-e8b9-481c-93cf-968bdb5ba166","ios":"levelo://app?vid=59e86a7a-e8b9-481c-93cf-968bdb5ba166"},"vehicle_type_id":"4","last_reported":1747948173,"current_range_meters":17200,"station_id":"st_cvj6sg6p6f1abm77japg","pricing_plan_id":"cebpf4jnsgd1na2vs0mg"},{"bike_id":"ee35b708-69bc-4b1d-bf3f-6425bc2f9977","system_id":"levelo_inurba_marseille","lat":43.296309,"lon":5.405983,"is_reserved":false,"is_disabled":false,"rental_uris":{"android":"levelo://app?vid=ee35b708-69bc-4b1d-bf3f-6425bc2f9977","ios":"levelo://app?vid=ee35b708-69bc-4b1d-bf3f-6425bc2f9977"},"vehicle_type_id":"4","last_reported":1747948173,"current_range_meters":17600,"station_id":"ce4bh0h2rcd13ifvqd60","pricing_plan_id":"cebpf4jnsgd1na2vs0mg"},{"bike_id":"7a5bbfb1-dafb-4777-8f4b-4b1e0e7c5d19","system_id":"levelo_inurba_marseille","lat":43.273766,"lon":5.362559,"is_reserved":false,"is_disabled":false,"rental_uris":{"android":"levelo://app?vid=7a5bbfb1-dafb-4777-8f4b-4b1e0e7c5d19","ios":"levelo://app?vid=7a5bbfb1-dafb-4777-8f4b-4b1e0e7c5d19"},"vehicle_type_id":"4","last_reported":1747948173,"current_range_meters":17600,"station_id":"ce4bhbh2rcd13ifvqeo0","pricing_plan_id":"cebpf4jnsgd1na2vs0mg"},{"bike_id":"6a4c7252-44b1-49df-a0f9-8b8fe5610dac","system_id":"levelo_inurba_marseille","lat":43.27057,"lon":5.40258,"is_reserved":false,"is_disabled":false,"rental_uris":{"android":"levelo://app?vid=6a4c7252-44b1-49df-a0f9-8b8fe5610dac","ios":"levelo://app?vid=6a4c7252-44b1-49df-a0f9-8b8fe5610dac"},"vehicle_type_id":"4","last_reported":1747948173,"current_range_meters":17600,"station_id":"ce4bhk92rcd13ifvqgc0","pricing_plan_id":"cebpf4jnsgd1na2vs0mg"},{"bike_id":"634cd4eb-86da-4d1a-adbb-ae26e13bb077","system_id":"levelo_inurba_marseille","lat":43.23214,"lon":5.39965,"is_reserved":false,"is_disabled":false,"rental_uris":{"android":"levelo://app?vid=634cd4eb-86da-4d1a-adbb-ae26e13bb077","ios":"levelo://app?vid=634cd4eb-86da-4d1a-adbb-ae26e13bb077"},"vehicle_type_id":"4","last_reported":1747948173,"current_range_meters":17600,"station_id":"ce4bhn12rcd13ifvqgqg","pricing_plan_id":"cebpf4jnsgd1na2vs0mg"},{"bike_id":"a90f8e9a-f6e2-4b3d-9d6c-5156fa8f0a33","system_id":"levelo_inurba_marseille","lat":43.23205,"lon":5.35537,"is_reserved":false,"is_disabled":false,"rental_uris":{"android":"levelo://app?vid=a90f8e9a-f6e2-4b3d-9d6c-5156fa8f0a33","ios":"levelo://app?vid=a90f8e9a-f6e2-4b3d-9d6c-5156fa8f0a33"},"vehicle_type_id":"4","last_reported":1747948173,"current_range_meters":17600,"station_id":"ce4bhu92rcd13ifvqi70","pricing_plan_id":"cebpf4jnsgd1na2vs0mg"},{"bike_id":"fc8c72ad-ca61-42c6-ae90-f61b57e45328","system_id":"levelo_inurba_marseille","lat":43.27897,"lon":5.41857,"is_reserved":false,"is_disabled":false,"rental_uris":{"android":"levelo://app?vid=fc8c72ad-ca61-42c6-ae90-f61b57e45328","ios":"levelo://app?vid=fc8c72ad-ca61-42c6-ae90-f61b57e45328"},"vehicle_type_id":"4","last_reported":1747948173,"current_range_meters":18000,"station_id":"","pricing_plan_id":"cebpf4jnsgd1na2vs0mg"},{"bike_id":"c9b4cb60-98fc-4df9-8edd-74d6f8ca3ad2","system_id":"levelo_inurba_marseille","lat":43.29399,"lon":5.38627,"is_reserved":false,"is_disabled":false,"rental_uris":{"android":"levelo://app?vid=c9b4cb60-98fc-4df9-8edd-74d6f8ca3ad2","ios":"levelo://app?vid=c9b4cb60-98fc-4df9-8edd-74d6f8ca3ad2"},"vehicle_type_id":"4","last_reported":1747948173,"current_range_meters":18000,"station_id":"ce4bh2h2rcd13ifvqdh0","pricing_plan_id":"cebpf4jnsgd1na2vs0mg"},{"bike_id":"106a8323-cfd7-4b99-bc2d-94d397ef2e07","system_id":"levelo_inurba_marseille","lat":43.28931,"lon":5.36414,"is_reserved":false,"is_disabled":false,"rental_uris":{"android":"levelo://app?vid=106a8323-cfd7-4b99-bc2d-94d397ef2e07","ios":"levelo://app?vid=106a8323-cfd7-4b99-bc2d-94d397ef2e07"},"vehicle_type_id":"4","last_reported":1747948173,"current_range_meters":18000,"station_id":"ce4bhc92rcd13ifvqetg","pricing_plan_id":"cebpf4jnsgd1na2vs0mg"},{"bike_id":"3018d689-e596-4461-b1de-4f7fdc55911e","system_id":"levelo_inurba_marseille","lat":43.28618,"lon":5.35112,"is_reserved":false,"is_disabled":false,"rental_uris":{"android":"levelo://app?vid=3018d689-e596-4461-b1de-4f7fdc55911e","ios":"levelo://app?vid=3018d689-e596-4461-b1de-4f7fdc55911e"},"vehicle_type_id":"4","last_reported":1747948173,"current_range_meters":18000,"station_id":"ce4bhch2rcd13ifvqeug","pricing_plan_id":"cebpf4jnsgd1na2vs0mg"},{"bike_id":"33c323cb-a07e-4648-a17c-2e400a29ab0c","system_id":"levelo_inurba_marseille","lat":43.23938,"lon":5.36657,"is_reserved":false,"is_disabled":false,"rental_uris":{"android":"levelo://app?vid=33c323cb-a07e-4648-a17c-2e400a29ab0c","ios":"levelo://app?vid=33c323cb-a07e-4648-a17c-2e400a29ab0c"},"vehicle_type_id":"4","last_reported":1747948173,"current_range_meters":18000,"station_id":"ce4bhi12rcd13ifvqfp0","pricing_plan_id":"cebpf4jnsgd1na2vs0mg"},{"bike_id":"75e91607-f093-41b1-947a-69b62fe724b6","system_id":"levelo_inurba_marseille","lat":43.34689,"lon":5.34534,"is_reserved":false,"is_disabled":false,"rental_uris":{"android":"levelo://app?vid=75e91607-f093-41b1-947a-69b62fe724b6","ios":"levelo://app?vid=75e91607-f093-41b1-947a-69b62fe724b6"},"vehicle_type_id":"4","last_reported":1747948173,"current_range_meters":18800,"station_id":"","pricing_plan_id":"cebpf4jnsgd1na2vs0mg"},{"bike_id":"a51c0182-44a8-45e2-87b4-9d801b526b3a","system_id":"levelo_inurba_marseille","lat":43.292,"lon":5.39313,"is_reserved":false,"is_disabled":false,"rental_uris":{"android":"levelo://app?vid=a51c0182-44a8-45e2-87b4-9d801b526b3a","ios":"levelo://app?vid=a51c0182-44a8-45e2-87b4-9d801b526b3a"},"vehicle_type_id":"4","last_reported":1747948173,"current_range_meters":18800,"station_id":"ce4bh192rcd13ifvqdd0","pricing_plan_id":"cebpf4jnsgd1na2vs0mg"},{"bike_id":"f9a7351f-1dd1-42b7-aec4-8a5d40ff7dc4","system_id":"levelo_inurba_marseille","lat":43.28658,"lon":5.36362,"is_reserved":false,"is_disabled":false,"rental_uris":{"android":"levelo://app?vid=f9a7351f-1dd1-42b7-aec4-8a5d40ff7dc4","ios":"levelo://app?vid=f9a7351f-1dd1-42b7-aec4-8a5d40ff7dc4"},"vehicle_type_id":"4","last_reported":1747948173,"current_range_meters":18800,"station_id":"ce4bhah2rcd13ifvqej0","pricing_plan_id":"cebpf4jnsgd1na2vs0mg"},{"bike_id":"f461d1e0-6d79-46b1-b321-3dbe076220d4","system_id":"levelo_inurba_marseille","lat":43.2862,"lon":5.35103,"is_reserved":false,"is_disabled":false,"rental_uris":{"android":"levelo://app?vid=f461d1e0-6d79-46b1-b321-3dbe076220d4","ios":"levelo://app?vid=f461d1e0-6d79-46b1-b321-3dbe076220d4"},"vehicle_type_id":"4","last_reported":1747948173,"current_range_meters":18800,"station_id":"ce4bhch2rcd13ifvqeug","pricing_plan_id":"cebpf4jnsgd1na2vs0mg"},{"bike_id":"36123f48-51d6-42f4-b754-a267c7432ad1","system_id":"levelo_inurba_marseille","lat":43.23965,"lon":5.36628,"is_reserved":false,"is_disabled":false,"rental_uris":{"android":"levelo://app?vid=36123f48-51d6-42f4-b754-a267c7432ad1","ios":"levelo://app?vid=36123f48-51d6-42f4-b754-a267c7432ad1"},"vehicle_type_id":"4","last_reported":1747948173,"current_range_meters":18800,"station_id":"ce4bhi12rcd13ifvqfp0","pricing_plan_id":"cebpf4jnsgd1na2vs0mg"},{"bike_id":"31158137-4c13-4424-885f-487bb8f713a2","system_id":"levelo_inurba_marseille","lat":43.24683,"lon":5.38177,"is_reserved":false,"is_disabled":false,"rental_uris":{"android":"levelo://app?vid=31158137-4c13-4424-885f-487bb8f713a2","ios":"levelo://app?vid=31158137-4c13-4424-885f-487bb8f713a2"},"vehicle_type_id":"4","last_reported":1747948173,"current_range_meters":18800,"station_id":"ce4bhih2rcd13ifvqfr0","pricing_plan_id":"cebpf4jnsgd1na2vs0mg"},{"bike_id":"01e09790-234a-4c0f-85e6-b033b224dd39","system_id":"levelo_inurba_marseille","lat":43.25887,"lon":5.39879,"is_reserved":false,"is_disabled":false,"rental_uris":{"android":"levelo://app?vid=01e09790-234a-4c0f-85e6-b033b224dd39","ios":"levelo://app?vid=01e09790-234a-4c0f-85e6-b033b224dd39"},"vehicle_type_id":"4","last_reported":1747948173,"current_range_meters":18800,"station_id":"ce4bhl92rcd13ifvqghg","pricing_plan_id":"cebpf4jnsgd1na2vs0mg"},{"bike_id":"f84e7850-4e38-4a2f-8058-4b5888bcc49b","system_id":"levelo_inurba_marseille","lat":43.32117,"lon":5.36779,"is_reserved":false,"is_disabled":false,"rental_uris":{"android":"levelo://app?vid=f84e7850-4e38-4a2f-8058-4b5888bcc49b","ios":"levelo://app?vid=f84e7850-4e38-4a2f-8058-4b5888bcc49b"},"vehicle_type_id":"4","last_reported":1747948173,"current_range_meters":18800,"station_id":"ce4bhrh2rcd13ifvqhug","pricing_plan_id":"cebpf4jnsgd1na2vs0mg"},{"bike_id":"77f30024-81a0-4787-8c59-87f17c670108","system_id":"levelo_inurba_marseille","lat":43.212003,"lon":5.350855,"is_reserved":false,"is_disabled":false,"rental_uris":{"android":"levelo://app?vid=77f30024-81a0-4787-8c59-87f17c670108","ios":"levelo://app?vid=77f30024-81a0-4787-8c59-87f17c670108"},"vehicle_type_id":"4","last_reported":1747948173,"current_range_meters":18800,"station_id":"st_cvj6sg6p6f1abm77japg","pricing_plan_id":"cebpf4jnsgd1na2vs0mg"},{"bike_id":"d0a39aae-54fd-46ce-ab4f-e69a9cc3bdc9","system_id":"levelo_inurba_marseille","lat":43.25171,"lon":5.40306,"is_reserved":false,"is_disabled":false,"rental_uris":{"android":"levelo://app?vid=d0a39aae-54fd-46ce-ab4f-e69a9cc3bdc9","ios":"levelo://app?vid=d0a39aae-54fd-46ce-ab4f-e69a9cc3bdc9"},"vehicle_type_id":"4","last_reported":1747948173,"current_range_meters":19200,"station_id":"","pricing_plan_id":"cebpf4jnsgd1na2vs0mg"},{"bike_id":"a986fc31-bd8e-46d0-81e7-73bd9270a920","system_id":"levelo_inurba_marseille","lat":43.29552,"lon":5.38537,"is_reserved":false,"is_disabled":false,"rental_uris":{"android":"levelo://app?vid=a986fc31-bd8e-46d0-81e7-73bd9270a920","ios":"levelo://app?vid=a986fc31-bd8e-46d0-81e7-73bd9270a920"},"vehicle_type_id":"4","last_reported":1747948173,"current_range_meters":19200,"station_id":"ce4bgih2rcd13ifvqba0","pricing_plan_id":"cebpf4jnsgd1na2vs0mg"},{"bike_id":"9ac33fbf-901e-4831-82ba-1ca9f5e490e3","system_id":"levelo_inurba_marseille","lat":43.30187,"lon":5.36613,"is_reserved":false,"is_disabled":false,"rental_uris":{"android":"levelo://app?vid=9ac33fbf-901e-4831-82ba-1ca9f5e490e3","ios":"levelo://app?vid=9ac33fbf-901e-4831-82ba-1ca9f5e490e3"},"vehicle_type_id":"4","last_reported":1747948173,"current_range_meters":19200,"station_id":"ce4bgrh2rcd13ifvqc8g","pricing_plan_id":"cebpf4jnsgd1na2vs0mg"},{"bike_id":"2f89a11e-478f-427f-a670-9a6775447a6f","system_id":"levelo_inurba_marseille","lat":43.312326,"lon":5.396224,"is_reserved":false,"is_disabled":false,"rental_uris":{"android":"levelo://app?vid=2f89a11e-478f-427f-a670-9a6775447a6f","ios":"levelo://app?vid=2f89a11e-478f-427f-a670-9a6775447a6f"},"vehicle_type_id":"4","last_reported":1747948173,"current_range_meters":19200,"station_id":"ce4bgvp2rcd13ifvqcu0","pricing_plan_id":"cebpf4jnsgd1na2vs0mg"},{"bike_id":"6a42cade-1217-4e53-9913-ba135248ee6a","system_id":"levelo_inurba_marseille","lat":43.25582,"lon":5.38251,"is_reserved":false,"is_disabled":false,"rental_uris":{"android":"levelo://app?vid=6a42cade-1217-4e53-9913-ba135248ee6a","ios":"levelo://app?vid=6a42cade-1217-4e53-9913-ba135248ee6a"},"vehicle_type_id":"4","last_reported":1747948173,"current_range_meters":19200,"station_id":"ce4bhih2rcd13ifvqfs0","pricing_plan_id":"cebpf4jnsgd1na2vs0mg"},{"bike_id":"0afac3c6-c7ce-4052-baf4-098b77e7b2ec","system_id":"levelo_inurba_marseille","lat":43.27836,"lon":5.39212,"is_reserved":false,"is_disabled":false,"rental_uris":{"android":"levelo://app?vid=0afac3c6-c7ce-4052-baf4-098b77e7b2ec","ios":"levelo://app?vid=0afac3c6-c7ce-4052-baf4-098b77e7b2ec"},"vehicle_type_id":"4","last_reported":1747948173,"current_range_meters":19200,"station_id":"ce4bhjp2rcd13ifvqga0","pricing_plan_id":"cebpf4jnsgd1na2vs0mg"},{"bike_id":"c2fe3e82-d800-4eaa-a230-c67a07c0b2d3","system_id":"levelo_inurba_marseille","lat":43.25737,"lon":5.41093,"is_reserved":false,"is_disabled":false,"rental_uris":{"android":"levelo://app?vid=c2fe3e82-d800-4eaa-a230-c67a07c0b2d3","ios":"levelo://app?vid=c2fe3e82-d800-4eaa-a230-c67a07c0b2d3"},"vehicle_type_id":"4","last_reported":1747948173,"current_range_meters":19200,"station_id":"ce4bhkp2rcd13ifvqgd0","pricing_plan_id":"cebpf4jnsgd1na2vs0mg"},{"bike_id":"8fcdf39c-cdc3-4270-8329-72ecd32df0f9","system_id":"levelo_inurba_marseille","lat":43.25937,"lon":5.40875,"is_reserved":false,"is_disabled":false,"rental_uris":{"android":"levelo://app?vid=8fcdf39c-cdc3-4270-8329-72ecd32df0f9","ios":"levelo://app?vid=8fcdf39c-cdc3-4270-8329-72ecd32df0f9"},"vehicle_type_id":"4","last_reported":1747948173,"current_range_meters":19200,"station_id":"ce4bhm92rcd13ifvqglg","pricing_plan_id":"cebpf4jnsgd1na2vs0mg"},{"bike_id":"725c5740-65c9-448b-9135-561a450c1a30","system_id":"levelo_inurba_marseille","lat":43.28076,"lon":5.39653,"is_reserved":false,"is_disabled":false,"rental_uris":{"android":"levelo://app?vid=725c5740-65c9-448b-9135-561a450c1a30","ios":"levelo://app?vid=725c5740-65c9-448b-9135-561a450c1a30"},"vehicle_type_id":"4","last_reported":1747948173,"current_range_meters":19200,"station_id":"ce4bho12rcd13ifvqh2g","pricing_plan_id":"cebpf4jnsgd1na2vs0mg"},{"bike_id":"f3d85424-f9d8-4862-9e9c-20e0293270fa","system_id":"levelo_inurba_marseille","lat":43.23187,"lon":5.35556,"is_reserved":false,"is_disabled":false,"rental_uris":{"android":"levelo://app?vid=f3d85424-f9d8-4862-9e9c-20e0293270fa","ios":"levelo://app?vid=f3d85424-f9d8-4862-9e9c-20e0293270fa"},"vehicle_type_id":"4","last_reported":1747948173,"current_range_meters":19200,"station_id":"ce4bhu92rcd13ifvqi70","pricing_plan_id":"cebpf4jnsgd1na2vs0mg"},{"bike_id":"06e4f6b3-d0ab-45db-b363-8413f86ed001","system_id":"levelo_inurba_marseille","lat":43.288925,"lon":5.428354,"is_reserved":false,"is_disabled":false,"rental_uris":{"android":"levelo://app?vid=06e4f6b3-d0ab-45db-b363-8413f86ed001","ios":"levelo://app?vid=06e4f6b3-d0ab-45db-b363-8413f86ed001"},"vehicle_type_id":"4","last_reported":1747948173,"current_range_meters":19600,"station_id":"","pricing_plan_id":"cebpf4jnsgd1na2vs0mg"},{"bike_id":"c4d37594-08f6-4f09-bf1f-9711a46c2ab5","system_id":"levelo_inurba_marseille","lat":43.31383,"lon":5.38505,"is_reserved":false,"is_disabled":false,"rental_uris":{"android":"levelo://app?vid=c4d37594-08f6-4f09-bf1f-9711a46c2ab5","ios":"levelo://app?vid=c4d37594-08f6-4f09-bf1f-9711a46c2ab5"},"vehicle_type_id":"4","last_reported":1747948173,"current_range_meters":19600,"station_id":"ce4bgt92rcd13ifvqcf0","pricing_plan_id":"cebpf4jnsgd1na2vs0mg"},{"bike_id":"6504ef7d-2bc2-44ab-86cf-824f70512395","system_id":"levelo_inurba_marseille","lat":43.28661,"lon":5.36346,"is_reserved":false,"is_disabled":false,"rental_uris":{"android":"levelo://app?vid=6504ef7d-2bc2-44ab-86cf-824f70512395","ios":"levelo://app?vid=6504ef7d-2bc2-44ab-86cf-824f70512395"},"vehicle_type_id":"4","last_reported":1747948173,"current_range_meters":19600,"station_id":"ce4bhah2rcd13ifvqej0","pricing_plan_id":"cebpf4jnsgd1na2vs0mg"},{"bike_id":"67847c1f-b16c-43ae-af6c-eeed2473b373","system_id":"levelo_inurba_marseille","lat":43.2808,"lon":5.396575,"is_reserved":false,"is_disabled":false,"rental_uris":{"android":"levelo://app?vid=67847c1f-b16c-43ae-af6c-eeed2473b373","ios":"levelo://app?vid=67847c1f-b16c-43ae-af6c-eeed2473b373"},"vehicle_type_id":"4","last_reported":1747948173,"current_range_meters":19600,"station_id":"ce4bho12rcd13ifvqh2g","pricing_plan_id":"cebpf4jnsgd1na2vs0mg"},{"bike_id":"9236550d-0dd5-4b0b-bce4-f96a6e239d85","system_id":"levelo_inurba_marseille","lat":43.22508,"lon":5.34781,"is_reserved":false,"is_disabled":false,"rental_uris":{"android":"levelo://app?vid=9236550d-0dd5-4b0b-bce4-f96a6e239d85","ios":"levelo://app?vid=9236550d-0dd5-4b0b-bce4-f96a6e239d85"},"vehicle_type_id":"4","last_reported":1747948173,"current_range_meters":19600,"station_id":"ce4bhoh2rcd13ifvqh5g","pricing_plan_id":"cebpf4jnsgd1na2vs0mg"},{"bike_id":"a7ce6ec2-5778-4c61-b1c6-cfc303e12f95","system_id":"levelo_inurba_marseille","lat":43.28926,"lon":5.37296,"is_reserved":false,"is_disabled":false,"rental_uris":{"android":"levelo://app?vid=a7ce6ec2-5778-4c61-b1c6-cfc303e12f95","ios":"levelo://app?vid=a7ce6ec2-5778-4c61-b1c6-cfc303e12f95"},"vehicle_type_id":"4","last_reported":1747948173,"current_range_meters":20000,"station_id":"","pricing_plan_id":"cebpf4jnsgd1na2vs0mg"},{"bike_id":"aefcd895-d95f-4cc6-9c28-0e143d90011a","system_id":"levelo_inurba_marseille","lat":43.29249,"lon":5.40891,"is_reserved":false,"is_disabled":false,"rental_uris":{"android":"levelo://app?vid=aefcd895-d95f-4cc6-9c28-0e143d90011a","ios":"levelo://app?vid=aefcd895-d95f-4cc6-9c28-0e143d90011a"},"vehicle_type_id":"4","last_reported":1747948173,"current_range_meters":20000,"station_id":"ce4bh192rcd13ifvqdc0","pricing_plan_id":"cebpf4jnsgd1na2vs0mg"},{"bike_id":"aed41b47-f25f-49c6-b6c3-78f16da7dc69","system_id":"levelo_inurba_marseille","lat":43.28409,"lon":5.37519,"is_reserved":false,"is_disabled":false,"rental_uris":{"android":"levelo://app?vid=aed41b47-f25f-49c6-b6c3-78f16da7dc69","ios":"levelo://app?vid=aed41b47-f25f-49c6-b6c3-78f16da7dc69"},"vehicle_type_id":"4","last_reported":1747948173,"current_range_meters":20000,"station_id":"ce4bh412rcd13ifvqds0","pricing_plan_id":"cebpf4jnsgd1na2vs0mg"},{"bike_id":"05d71633-975d-4fbb-a8ed-3760fed727a4","system_id":"levelo_inurba_marseille","lat":43.25111,"lon":5.40318,"is_reserved":false,"is_disabled":false,"rental_uris":{"android":"levelo://app?vid=05d71633-975d-4fbb-a8ed-3760fed727a4","ios":"levelo://app?vid=05d71633-975d-4fbb-a8ed-3760fed727a4"},"vehicle_type_id":"4","last_reported":1747948173,"current_range_meters":20000,"station_id":"ce4bhlh2rcd13ifvqgig","pricing_plan_id":"cebpf4jnsgd1na2vs0mg"},{"bike_id":"91ee897c-3435-4d10-b3f8-ba484194adba","system_id":"levelo_inurba_marseille","lat":43.33027,"lon":5.39034,"is_reserved":false,"is_disabled":false,"rental_uris":{"android":"levelo://app?vid=91ee897c-3435-4d10-b3f8-ba484194adba","ios":"levelo://app?vid=91ee897c-3435-4d10-b3f8-ba484194adba"},"vehicle_type_id":"4","last_reported":1747948173,"current_range_meters":20000,"station_id":"ce4bhr92rcd13ifvqhrg","pricing_plan_id":"cebpf4jnsgd1na2vs0mg"},{"bike_id":"87fc21bf-d497-442b-ac08-f0fe66da3e84","system_id":"levelo_inurba_marseille","lat":43.22513,"lon":5.34779,"is_reserved":false,"is_disabled":false,"rental_uris":{"android":"levelo://app?vid=87fc21bf-d497-442b-ac08-f0fe66da3e84","ios":"levelo://app?vid=87fc21bf-d497-442b-ac08-f0fe66da3e84"},"vehicle_type_id":"4","last_reported":1747948173,"current_range_meters":20400,"station_id":"","pricing_plan_id":"cebpf4jnsgd1na2vs0mg"},{"bike_id":"e647ca08-1919-489c-a54e-9b8973dde9c2","system_id":"levelo_inurba_marseille","lat":43.28034,"lon":5.3694,"is_reserved":false,"is_disabled":false,"rental_uris":{"android":"levelo://app?vid=e647ca08-1919-489c-a54e-9b8973dde9c2","ios":"levelo://app?vid=e647ca08-1919-489c-a54e-9b8973dde9c2"},"vehicle_type_id":"4","last_reported":1747948173,"current_range_meters":20400,"station_id":"ce4bha12rcd13ifvqef0","pricing_plan_id":"cebpf4jnsgd1na2vs0mg"},{"bike_id":"fdd6678a-46ba-4191-a6a8-2e5954c7f96b","system_id":"levelo_inurba_marseille","lat":43.307934,"lon":5.435248,"is_reserved":false,"is_disabled":false,"rental_uris":{"android":"levelo://app?vid=fdd6678a-46ba-4191-a6a8-2e5954c7f96b","ios":"levelo://app?vid=fdd6678a-46ba-4191-a6a8-2e5954c7f96b"},"vehicle_type_id":"4","last_reported":1747948173,"current_range_meters":20400,"station_id":"ce4bhph2rcd13ifvqheg","pricing_plan_id":"cebpf4jnsgd1na2vs0mg"},{"bike_id":"b3dbb1f8-c567-4a46-b5e9-76b7b95ba7ff","system_id":"levelo_inurba_marseille","lat":43.28665,"lon":5.36358,"is_reserved":false,"is_disabled":false,"rental_uris":{"android":"levelo://app?vid=b3dbb1f8-c567-4a46-b5e9-76b7b95ba7ff","ios":"levelo://app?vid=b3dbb1f8-c567-4a46-b5e9-76b7b95ba7ff"},"vehicle_type_id":"4","last_reported":1747948173,"current_range_meters":20800,"station_id":"ce4bhah2rcd13ifvqej0","pricing_plan_id":"cebpf4jnsgd1na2vs0mg"},{"bike_id":"106da32f-c135-4358-8828-da0eb8e1bfe6","system_id":"levelo_inurba_marseille","lat":43.26572,"lon":5.39006,"is_reserved":false,"is_disabled":false,"rental_uris":{"android":"levelo://app?vid=106da32f-c135-4358-8828-da0eb8e1bfe6","ios":"levelo://app?vid=106da32f-c135-4358-8828-da0eb8e1bfe6"},"vehicle_type_id":"4","last_reported":1747948173,"current_range_meters":20800,"station_id":"ce4bhe12rcd13ifvqf30","pricing_plan_id":"cebpf4jnsgd1na2vs0mg"},{"bike_id":"80bdf40e-3777-493e-9648-5a7a824d9fc1","system_id":"levelo_inurba_marseille","lat":43.26577,"lon":5.37284,"is_reserved":false,"is_disabled":false,"rental_uris":{"android":"levelo://app?vid=80bdf40e-3777-493e-9648-5a7a824d9fc1","ios":"levelo://app?vid=80bdf40e-3777-493e-9648-5a7a824d9fc1"},"vehicle_type_id":"4","last_reported":1747948173,"current_range_meters":20800,"station_id":"ce4bhg12rcd13ifvqf70","pricing_plan_id":"cebpf4jnsgd1na2vs0mg"},{"bike_id":"4c2a4c58-d2c6-48c4-a352-dd11fb06beb5","system_id":"levelo_inurba_marseille","lat":43.25119,"lon":5.40315,"is_reserved":false,"is_disabled":false,"rental_uris":{"android":"levelo://app?vid=4c2a4c58-d2c6-48c4-a352-dd11fb06beb5","ios":"levelo://app?vid=4c2a4c58-d2c6-48c4-a352-dd11fb06beb5"},"vehicle_type_id":"4","last_reported":1747948173,"current_range_meters":20800,"station_id":"ce4bhlh2rcd13ifvqgig","pricing_plan_id":"cebpf4jnsgd1na2vs0mg"},{"bike_id":"ee834ff3-0bab-42d4-bb68-497bb16afbc3","system_id":"levelo_inurba_marseille","lat":43.27804,"lon":5.40734,"is_reserved":false,"is_disabled":false,"rental_uris":{"android":"levelo://app?vid=ee834ff3-0bab-42d4-bb68-497bb16afbc3","ios":"levelo://app?vid=ee834ff3-0bab-42d4-bb68-497bb16afbc3"},"vehicle_type_id":"4","last_reported":1747948173,"current_range_meters":20800,"station_id":"ce4bhnh2rcd13ifvqgtg","pricing_plan_id":"cebpf4jnsgd1na2vs0mg"},{"bike_id":"672b4e9c-de52-477f-95b7-0c29aa716052","system_id":"levelo_inurba_marseille","lat":43.279998,"lon":5.400213,"is_reserved":false,"is_disabled":false,"rental_uris":{"android":"levelo://app?vid=672b4e9c-de52-477f-95b7-0c29aa716052","ios":"levelo://app?vid=672b4e9c-de52-477f-95b7-0c29aa716052"},"vehicle_type_id":"4","last_reported":1747948173,"current_range_meters":20800,"station_id":"ce4bho92rcd13ifvqh4g","pricing_plan_id":"cebpf4jnsgd1na2vs0mg"},{"bike_id":"8928326c-648b-48ca-ac72-50af7132758b","system_id":"levelo_inurba_marseille","lat":43.22931,"lon":5.35372,"is_reserved":false,"is_disabled":false,"rental_uris":{"android":"levelo://app?vid=8928326c-648b-48ca-ac72-50af7132758b","ios":"levelo://app?vid=8928326c-648b-48ca-ac72-50af7132758b"},"vehicle_type_id":"4","last_reported":1747948173,"current_range_meters":20800,"station_id":"cpo3532slgdg3j2ikp40","pricing_plan_id":"cebpf4jnsgd1na2vs0mg"},{"bike_id":"1940d0e8-a2c6-4d18-82d1-6c46737683d2","system_id":"levelo_inurba_marseille","lat":43.2294,"lon":5.35375,"is_reserved":false,"is_disabled":false,"rental_uris":{"android":"levelo://app?vid=1940d0e8-a2c6-4d18-82d1-6c46737683d2","ios":"levelo://app?vid=1940d0e8-a2c6-4d18-82d1-6c46737683d2"},"vehicle_type_id":"4","last_reported":1747948173,"current_range_meters":20800,"station_id":"cpo3532slgdg3j2ikp40","pricing_plan_id":"cebpf4jnsgd1na2vs0mg"},{"bike_id":"da453a88-f81b-4e0f-9781-5a7f6c1d364c","system_id":"levelo_inurba_marseille","lat":43.337499,"lon":5.374469,"is_reserved":false,"is_disabled":false,"rental_uris":{"android":"levelo://app?vid=da453a88-f81b-4e0f-9781-5a7f6c1d364c","ios":"levelo://app?vid=da453a88-f81b-4e0f-9781-5a7f6c1d364c"},"vehicle_type_id":"4","last_reported":1747948173,"current_range_meters":21600,"station_id":"","pricing_plan_id":"cebpf4jnsgd1na2vs0mg"},{"bike_id":"bfd66fe0-8f48-4e3d-b6e2-faeef9eb94be","system_id":"levelo_inurba_marseille","lat":43.268286,"lon":5.411063,"is_reserved":false,"is_disabled":false,"rental_uris":{"android":"levelo://app?vid=bfd66fe0-8f48-4e3d-b6e2-faeef9eb94be","ios":"levelo://app?vid=bfd66fe0-8f48-4e3d-b6e2-faeef9eb94be"},"vehicle_type_id":"4","last_reported":1747948173,"current_range_meters":21600,"station_id":"","pricing_plan_id":"cebpf4jnsgd1na2vs0mg"},{"bike_id":"fb2fe04e-62b5-49c0-b650-360a4fe05f9f","system_id":"levelo_inurba_marseille","lat":43.29524,"lon":5.38531,"is_reserved":false,"is_disabled":false,"rental_uris":{"android":"levelo://app?vid=fb2fe04e-62b5-49c0-b650-360a4fe05f9f","ios":"levelo://app?vid=fb2fe04e-62b5-49c0-b650-360a4fe05f9f"},"vehicle_type_id":"4","last_reported":1747948173,"current_range_meters":21600,"station_id":"ce4bgih2rcd13ifvqba0","pricing_plan_id":"cebpf4jnsgd1na2vs0mg"},{"bike_id":"44f0fed0-8fd0-4bc4-8253-b0f1ec123622","system_id":"levelo_inurba_marseille","lat":43.29425,"lon":5.38624,"is_reserved":false,"is_disabled":false,"rental_uris":{"android":"levelo://app?vid=44f0fed0-8fd0-4bc4-8253-b0f1ec123622","ios":"levelo://app?vid=44f0fed0-8fd0-4bc4-8253-b0f1ec123622"},"vehicle_type_id":"4","last_reported":1747948173,"current_range_meters":21600,"station_id":"ce4bh2h2rcd13ifvqdh0","pricing_plan_id":"cebpf4jnsgd1na2vs0mg"},{"bike_id":"d85153ee-4dda-4a70-b709-528467fa3cfd","system_id":"levelo_inurba_marseille","lat":43.291888,"lon":5.357988,"is_reserved":false,"is_disabled":false,"rental_uris":{"android":"levelo://app?vid=d85153ee-4dda-4a70-b709-528467fa3cfd","ios":"levelo://app?vid=d85153ee-4dda-4a70-b709-528467fa3cfd"},"vehicle_type_id":"4","last_reported":1747948173,"current_range_meters":21600,"station_id":"ce4bhb12rcd13ifvqel0","pricing_plan_id":"cebpf4jnsgd1na2vs0mg"},