{"last_updated":1731783974,"ttl":60,"version":"2.2","data":{"bikes":[{"bike_id":"084eaae4-9ca8-4be5-a009-133e7b156bcb","system_id":"levelo_inurba_marseille","lat":43.30891,"lon":5.37182,"is_reserved":false,"is_disabled":false,"rental_uris":{"android":"levelo://app?vid=084eaae4-9ca8-4be5-a009-133e7b156bcb","ios":"levelo://app?vid=084eaae4-9ca8-4be5-a009-133e7b156bcb"},"vehicle_type_id":"4","last_reported":1731783974,"current_range_meters":36000,"station_id":"ce4bguh2rcd13ifvqckg","pricing_plan_id":"cebpf4jnsgd1na2vs0mg"},{"bike_id":"8caca11c-7934-4728-b2d5-a14133cd9943","system_id":"levelo_inurba_marseille","lat":43.27997,"lon":5.4001,"is_reserved":false,"is_disabled":false,"rental_uris":{"android":"levelo://app?vid=8caca11c-7934-4728-b2d5-a14133cd9943","ios":"levelo://app?vid=8caca11c-7934-4728-b2d5-a14133cd9943"},"vehicle_type_id":"4","last_reported":1731783974,"current_range_meters":9600,"station_id":"ce4bho92rcd13ifvqh4g","pricing_plan_id":"cebpf4jnsgd1na2vs0mg"},{"bike_id":"a73af0c7-a3fb-431f-b77d-e26c682de41f","system_id":"levelo_inurba_marseille","lat":43.29106,"lon":5.3814,"is_reserved":false,"is_disabled":false,"rental_uris":{"android":"levelo://app?vid=a73af0c7-a3fb-431f-b77d-e26c682de41f","ios":"levelo://app?vid=a73af0c7-a3fb-431f-b77d-e26c682de41f"},"vehicle_type_id":"4","last_reported":1731783974,"current_range_meters":9600,"station_id":"ce4bh512rcd13ifvqe2g","pricing_plan_id":"cebpf4jnsgd1na2vs0mg"},{"bike_id":"51d825c6-caef-46b7-969f-faa38d32cc9a","system_id":"levelo_inurba_marseille","lat":43.28335,"lon":5.380972,"is_reserved":false,"is_disabled":false,"rental_uris":{"android":"levelo://app?vid=51d825c6-caef-46b7-969f-faa38d32cc9a","ios":"levelo://app?vid=51d825c6-caef-46b7-969f-faa38d32cc9a"},"vehicle_type_id":"4","last_reported":1731783974,"current_range_meters":29600,"station_id":"ce4bgip2rcd13ifvqbb0","pricing_plan_id":"cebpf4jnsgd1na2vs0mg"},{"bike_id":"12aa5ede-a12c-4041-ba8d-292720f85568","system_id":"levelo_inurba_marseille","lat":43.28925,"lon":5.38387,"is_reserved":false,"is_disabled":false,"rental_uris":{"android":"levelo://app?vid=12aa5ede-a12c-4041-ba8d-292720f85568","ios":"levelo://app?vid=12aa5ede-a12c-4041-ba8d-292720f85568"},"vehicle_type_id":"4","last_reported":1731783974,"current_range_meters":18800,"station_id":"ce4bh612rcd13ifvqe6g","pricing_plan_id":"cebpf4jnsgd1na2vs0mg"},{"bike_id":"65266fd8-f4f0-49ff-817e-ae4ba4fddfd2","system_id":"levelo_inurba_marseille","lat":43.31065,"lon":5.38354,"is_reserved":false,"is_disabled":false,"rental_uris":{"android":"levelo://app?vid=65266fd8-f4f0-49ff-817e-ae4ba4fddfd2","ios":"levelo://app?vid=65266fd8-f4f0-49ff-817e-ae4ba4fddfd2"},"vehicle_type_id":"4","last_reported":1731783974,"current_range_meters":12000,"station_id":"ce4bgv92rcd13ifvqcr0","pricing_plan_id":"cebpf4jnsgd1na2vs0mg"},{"bike_id":"fe7748b6-9d91-4994-bdd2-fe51f904eb01","system_id":"levelo_inurba_marseille","lat":43.29955,"lon":5.37364,"is_reserved":false,"is_disabled":false,"rental_uris":{"android":"levelo://app?vid=fe7748b6-9d91-4994-bdd2-fe51f904eb01","ios":"levelo://app?vid=fe7748b6-9d91-4994-bdd2-fe51f904eb01"},"vehicle_type_id":"4","last_reported":1731783974,"current_range_meters":21600,"station_id":"ce4bgjh2rcd13ifvqbg0","pricing_plan_id":"cebpf4jnsgd1na2vs0mg"},{"bike_id":"2e9eabb0-ccf2-48eb-91b1-4cc3a199d2cf","system_id":"levelo_inurba_marseille","lat":43.29563,"lon":5.39962,"is_reserved":false,"is_disabled":false,"rental_uris":{"android":"levelo://app?vid=2e9eabb0-ccf2-48eb-91b1-4cc3a199d2cf","ios":"levelo://app?vid=2e9eabb0-ccf2-48eb-91b1-4cc3a199d2cf"},"vehicle_type_id":"4","last_reported":1731783974,"current_range_meters":3200,"station_id":"ce4bh312rcd13ifvqdj0","pricing_plan_id":"cebpf4jnsgd1na2vs0mg"},{"bike_id":"43038cfa-c3ef-4248-9250-cdda1bec13e6","system_id":"levelo_inurba_marseille","lat":43.24999,"lon":5.38932,"is_reserved":false,"is_disabled":false,"rental_uris":{"android":"levelo://app?vid=43038cfa-c3ef-4248-9250-cdda1bec13e6","ios":"levelo://app?vid=43038cfa-c3ef-4248-9250-cdda1bec13e6"},"vehicle_type_id":"4","last_reported":1731783974,"current_range_meters":24400,"station_id":"ce4bhgp2rcd13ifvqfd0","pricing_plan_id":"cebpf4jnsgd1na2vs0mg"},{"bike_id":"0672d165-d197-4474-bbec-2df95543fd2f","system_id":"levelo_inurba_marseille","lat":43.29893,"lon":5.4367,"is_reserved":false,"is_disabled":false,"rental_uris":{"android":"levelo://app?vid=0672d165-d197-4474-bbec-2df95543fd2f","ios":"levelo://app?vid=0672d165-d197-4474-bbec-2df95543fd2f"},"vehicle_type_id":"4","last_reported":1731783974,"current_range_meters":18800,"station_id":"ce4bhpp2rcd13ifvqhfg","pricing_plan_id":"cebpf4jnsgd1na2vs0mg"},{"bike_id":"d9d8a7d9-cde4-4fab-ab69-fcee8fe6a6da","system_id":"levelo_inurba_marseille","lat":43.25053,"lon":5.38893,"is_reserved":false,"is_disabled":false,"rental_uris":{"android":"levelo://app?vid=d9d8a7d9-cde4-4fab-ab69-fcee8fe6a6da","ios":"levelo://app?vid=d9d8a7d9-cde4-4fab-ab69-fcee8fe6a6da"},"vehicle_type_id":"4","last_reported":1731783974,"current_range_meters":11600,"station_id":"ce4bhgp2rcd13ifvqfd0","pricing_plan_id":"cebpf4jnsgd1na2vs0mg"},{"bike_id":"083dbee0-0e04-4a5e-93ff-4f8789a778b7","system_id":"levelo_inurba_marseille","lat":43.229289,"lon":5.353823,"is_reserved":false,"is_disabled":false,"rental_uris":{"android":"levelo://app?vid=083dbee0-0e04-4a5e-93ff-4f8789a778b7","ios":"levelo://app?vid=083dbee0-0e04-4a5e-93ff-4f8789a778b7"},"vehicle_type_id":"4","last_reported":1731783974,"current_range_meters":39200,"station_id":"cpo3532slgdg3j2ikp40","pricing_plan_id":"cebpf4jnsgd1na2vs0mg"},{"bike_id":"92e7e379-7d0a-4c30-9d59-a0113c87e1bb","system_id":"levelo_inurba_marseille","lat":43.28672,"lon":5.3867,"is_reserved":false,"is_disabled":false,"rental_uris":{"android":"levelo://app?vid=92e7e379-7d0a-4c30-9d59-a0113c87e1bb","ios":"levelo://app?vid=92e7e379-7d0a-4c30-9d59-a0113c87e1bb"},"vehicle_type_id":"4","last_reported":1731783974,"current_range_meters":26000,"station_id":"ce4bh492rcd13ifvqdug","pricing_plan_id":"cebpf4jnsgd1na2vs0mg"},{"bike_id":"8e9c8815-da3e-4c2c-a45a-0993ae1758ce","system_id":"levelo_inurba_marseille","lat":43.28708,"lon":5.374,"is_reserved":false,"is_disabled":false,"rental_uris":{"android":"levelo://app?vid=8e9c8815-da3e-4c2c-a45a-0993ae1758ce","ios":"levelo://app?vid=8e9c8815-da3e-4c2c-a45a-0993ae1758ce"},"vehicle_type_id":"4","last_reported":1731783974,"current_range_meters":39200,"station_id":"ce4bh3p2rcd13ifvqdq0","pricing_plan_id":"cebpf4jnsgd1na2vs0mg"},{"bike_id":"ae38c86e-d97f-469b-9cea-5b188276fe25","system_id":"levelo_inurba_marseille","lat":43.251453,"lon":5.382365,"is_reserved":false,"is_disabled":false,"rental_uris":{"android":"levelo://app?vid=ae38c86e-d97f-469b-9cea-5b188276fe25","ios":"levelo://app?vid=ae38c86e-d97f-469b-9cea-5b188276fe25"},"vehicle_type_id":"4","last_reported":1731783974,"current_range_meters":34800,"station_id":"ce4bhg12rcd13ifvqf60","pricing_plan_id":"cebpf4jnsgd1na2vs0mg"},{"bike_id":"3c41873c-3fe0-4560-a4da-720535d00e29","system_id":"levelo_inurba_marseille","lat":43.29279,"lon":5.36842,"is_reserved":false,"is_disabled":false,"rental_uris":{"android":"levelo://app?vid=3c41873c-3fe0-4560-a4da-720535d00e29","ios":"levelo://app?vid=3c41873c-3fe0-4560-a4da-720535d00e29"},"vehicle_type_id":"4","last_reported":1731783974,"current_range_meters":3600,"station_id":"ce4bhbp2rcd13ifvqesg","pricing_plan_id":"cebpf4jnsgd1na2vs0mg"},{"bike_id":"4c167bc3-2964-4625-adc0-c92e539ad80f","system_id":"levelo_inurba_marseille","lat":43.28286,"lon":5.40798,"is_reserved":false,"is_disabled":false,"rental_uris":{"android":"levelo://app?vid=4c167bc3-2964-4625-adc0-c92e539ad80f","ios":"levelo://app?vid=4c167bc3-2964-4625-adc0-c92e539ad80f"},"vehicle_type_id":"4","last_reported":1731783974,"current_range_meters":37600,"station_id":"","pricing_plan_id":"cebpf4jnsgd1na2vs0mg"},{"bike_id":"5c8f882d-7a6f-41f6-8199-3c87df3d20ef","system_id":"levelo_inurba_marseille","lat":43.34146,"lon":5.40902,"is_reserved":false,"is_disabled":false,"rental_uris":{"android":"levelo://app?vid=5c8f882d-7a6f-41f6-8199-3c87df3d20ef","ios":"levelo://app?vid=5c8f882d-7a6f-41f6-8199-3c87df3d20ef"},"vehicle_type_id":"4","last_reported":1731783974,"current_range_meters":21600,"station_id":"ce4bhqh2rcd13ifvqhlg","pricing_plan_id":"cebpf4jnsgd1na2vs0mg"},{"bike_id":"53b1720a-db0a-4d15-b749-904a010eb61e","system_id":"levelo_inurba_marseille","lat":43.31537,"lon":5.38031,"is_reserved":false,"is_disabled":false,"rental_uris":{"android":"levelo://app?vid=53b1720a-db0a-4d15-b749-904a010eb61e","ios":"levelo://app?vid=53b1720a-db0a-4d15-b749-904a010eb61e"},"vehicle_type_id":"4","last_reported":1731783974,"current_range_meters":38000,"station_id":"ce4bhsp2rcd13ifvqi50","pricing_plan_id":"cebpf4jnsgd1na2vs0mg"},{"bike_id":"6b0ea79e-cb12-4a50-9845-e4686b3cacc8","system_id":"levelo_inurba_marseille","lat":43.295751,"lon":5.399791,"is_reserved":false,"is_disabled":false,"rental_uris":{"android":"levelo://app?vid=6b0ea79e-cb12-4a50-9845-e4686b3cacc8","ios":"levelo://app?vid=6b0ea79e-cb12-4a50-9845-e4686b3cacc8"},"vehicle_type_id":"4","last_reported":1731783974,"current_range_meters":12800,"station_id":"","pricing_plan_id":"cebpf4jnsgd1na2vs0mg"},{"bike_id":"72499688-a320-4333-843e-c093213a74e4","system_id":"levelo_inurba_marseille","lat":43.23061,"lon":5.35493,"is_reserved":false,"is_disabled":false,"rental_uris":{"android":"levelo://app?vid=72499688-a320-4333-843e-c093213a74e4","ios":"levelo://app?vid=72499688-a320-4333-843e-c093213a74e4"},"vehicle_type_id":"4","last_reported":1731783974,"current_range_meters":8400,"station_id":"cpo3342slgdg3j2ifvpg","pricing_plan_id":"cebpf4jnsgd1na2vs0mg"},{"bike_id":"be7b6632-f3b8-440f-b37a-a743de747592","system_id":"levelo_inurba_marseille","lat":43.25002,"lon":5.38929,"is_reserved":false,"is_disabled":false,"rental_uris":{"android":"levelo://app?vid=be7b6632-f3b8-440f-b37a-a743de747592","ios":"levelo://app?vid=be7b6632-f3b8-440f-b37a-a743de747592"},"vehicle_type_id":"4","last_reported":1731783974,"current_range_meters":33200,"station_id":"ce4bhgp2rcd13ifvqfd0","pricing_plan_id":"cebpf4jnsgd1na2vs0mg"},{"bike_id":"0effcb54-ca5e-4bbb-8632-a1592434e396","system_id":"levelo_inurba_marseille","lat":43.29424,"lon":5.38628,"is_reserved":false,"is_disabled":false,"rental_uris":{"android":"levelo://app?vid=0effcb54-ca5e-4bbb-8632-a1592434e396","ios":"levelo://app?vid=0effcb54-ca5e-4bbb-8632-a1592434e396"},"vehicle_type_id":"4","last_reported":1731783974,"current_range_meters":6400,"station_id":"ce4bh2h2rcd13ifvqdh0","pricing_plan_id":"cebpf4jnsgd1na2vs0mg"},{"bike_id":"0e1d2e7a-8318-45fe-af1b-31857eb1aac8","system_id":"levelo_inurba_marseille","lat":43.23962,"lon":5.36622,"is_reserved":false,"is_disabled":false,"rental_uris":{"android":"levelo://app?vid=0e1d2e7a-8318-45fe-af1b-31857eb1aac8","ios":"levelo://app?vid=0e1d2e7a-8318-45fe-af1b-31857eb1aac8"},"vehicle_type_id":"4","last_reported":1731783974,"current_range_meters":28000,"station_id":"ce4bhi12rcd13ifvqfp0","pricing_plan_id":"cebpf4jnsgd1na2vs0mg"},{"bike_id":"edec2afd-2fd4-49bc-9cc6-2ff866afd30c","system_id":"levelo_inurba_marseille","lat":43.281607,"lon":5.426529,"is_reserved":false,"is_disabled":false,"rental_uris":{"android":"levelo://app?vid=edec2afd-2fd4-49bc-9cc6-2ff866afd30c","ios":"levelo://app?vid=edec2afd-2fd4-49bc-9cc6-2ff866afd30c"},"vehicle_type_id":"4","last_reported":1731783974,"current_range_meters":6800,"station_id":"ce4bhnh2rcd13ifvqgug","pricing_plan_id":"cebpf4jnsgd1na2vs0mg"},{"bike_id":"79b76398-f4aa-422b-b325-2360d07a8784","system_id":"levelo_inurba_marseille","lat":43.33732,"lon":5.39189,"is_reserved":false,"is_disabled":false,"rental_uris":{"android":"levelo://app?vid=79b76398-f4aa-422b-b325-2360d07a8784","ios":"levelo://app?vid=79b76398-f4aa-422b-b325-2360d07a8784"},"vehicle_type_id":"4","last_reported":1731783974,"current_range_meters":27600,"station_id":"ce4bhr92rcd13ifvqhsg","pricing_plan_id":"cebpf4jnsgd1na2vs0mg"},{"bike_id":"d112d80a-1587-431f-adca-40cb0a72ad3d","system_id":"levelo_inurba_marseille","lat":43.30294,"lon":5.3769,"is_reserved":false,"is_disabled":false,"rental_uris":{"android":"levelo://app?vid=d112d80a-1587-431f-adca-40cb0a72ad3d","ios":"levelo://app?vid=d112d80a-1587-431f-adca-40cb0a72ad3d"},"vehicle_type_id":"4","last_reported":1731783974,"current_range_meters":38000,"station_id":"ce4bguh2rcd13ifvqcj0","pricing_plan_id":"cebpf4jnsgd1na2vs0mg"},{"bike_id":"49c36fe9-a28d-4af4-a0c5-bcc571a9eba6","system_id":"levelo_inurba_marseille","lat":43.24661,"lon":5.38158,"is_reserved":false,"is_disabled":false,"rental_uris":{"android":"levelo://app?vid=49c36fe9-a28d-4af4-a0c5-bcc571a9eba6","ios":"levelo://app?vid=49c36fe9-a28d-4af4-a0c5-bcc571a9eba6"},"vehicle_type_id":"4","last_reported":1731783974,"current_range_meters":20800,"station_id":"ce4bhih2rcd13ifvqfr0","pricing_plan_id":"cebpf4jnsgd1na2vs0mg"},{"bike_id":"d3160aab-1e15-49ee-8c77-9355db5d0498","system_id":"levelo_inurba_marseille","lat":43.28465,"lon":5.35886,"is_reserved":false,"is_disabled":false,"rental_uris":{"android":"levelo://app?vid=d3160aab-1e15-49ee-8c77-9355db5d0498","ios":"levelo://app?vid=d3160aab-1e15-49ee-8c77-9355db5d0498"},"vehicle_type_id":"4","last_reported":1731783974,"current_range_meters":9200,"station_id":"ce4bhah2rcd13ifvqei0","pricing_plan_id":"cebpf4jnsgd1na2vs0mg"},{"bike_id":"9285810a-20e7-4d99-a229-aafe61f891bd","system_id":"levelo_inurba_marseille","lat":43.30312,"lon":5.38631,"is_reserved":false,"is_disabled":false,"rental_uris":{"android":"levelo://app?vid=9285810a-20e7-4d99-a229-aafe61f891bd","ios":"levelo://app?vid=9285810a-20e7-4d99-a229-aafe61f891bd"},"vehicle_type_id":"4","last_reported":1731783974,"current_range_meters":16000,"station_id":"","pricing_plan_id":"cebpf4jnsgd1na2vs0mg"},{"bike_id":"b73a69d4-735e-4d58-bded-288003cc9f43","system_id":"levelo_inurba_marseille","lat":43.24164,"lon":5.36393,"is_reserved":false,"is_disabled":false,"rental_uris":{"android":"levelo://app?vid=b73a69d4-735e-4d58-bded-288003cc9f43","ios":"levelo://app?vid=b73a69d4-735e-4d58-bded-288003cc9f43"},"vehicle_type_id":"4","last_reported":1731783974,"current_range_meters":36800,"station_id":"cpo36qri1sfpv3e86is0","pricing_plan_id":"cebpf4jnsgd1na2vs0mg"},{"bike_id":"6dec8a86-33c6-474c-8bb0-3542c8c14f79","system_id":"levelo_inurba_marseille","lat":43.29421,"lon":5.38626,"is_reserved":false,"is_disabled":false,"rental_uris":{"android":"levelo://app?vid=6dec8a86-33c6-474c-8bb0-3542c8c14f79","ios":"levelo://app?vid=6dec8a86-33c6-474c-8bb0-3542c8c14f79"},"vehicle_type_id":"4","last_reported":1731783974,"current_range_meters":27600,"station_id":"ce4bh2h2rcd13ifvqdh0","pricing_plan_id":"cebpf4jnsgd1na2vs0mg"},{"bike_id":"3fcbe528-45e3-439d-80db-ce667e24fe73","system_id":"levelo_inurba_marseille","lat":43.23059,"lon":5.35494,"is_reserved":false,"is_disabled":false,"rental_uris":{"android":"levelo://app?vid=3fcbe528-45e3-439d-80db-ce667e24fe73","ios":"levelo://app?vid=3fcbe528-45e3-439d-80db-ce667e24fe73"},"vehicle_type_id":"4","last_reported":1731783974,"current_range_meters":20400,"station_id":"cpo3342slgdg3j2ifvpg","pricing_plan_id":"cebpf4jnsgd1na2vs0mg"},{"bike_id":"0cd35b64-65bb-414d-8013-49046faffff4","system_id":"levelo_inurba_marseille","lat":43.29202,"lon":5.39318,"is_reserved":false,"is_disabled":false,"rental_uris":{"android":"levelo://app?vid=0cd35b64-65bb-414d-8013-49046faffff4","ios":"levelo://app?vid=0cd35b64-65bb-414d-8013-49046faffff4"},"vehicle_type_id":"4","last_reported":1731783974,"current_range_meters":25600,"station_id":"ce4bh192rcd13ifvqdd0","pricing_plan_id":"cebpf4jnsgd1na2vs0mg"},{"bike_id":"b2f45d15-d036-4f36-a361-a492e289342e","system_id":"levelo_inurba_marseille","lat":43.22931,"lon":5.35364,"is_reserved":false,"is_disabled":false,"rental_uris":{"android":"levelo://app?vid=b2f45d15-d036-4f36-a361-a492e289342e","ios":"levelo://app?vid=b2f45d15-d036-4f36-a361-a492e289342e"},"vehicle_type_id":"4","last_reported":1731783974,"current_range_meters":38400,"station_id":"cpo3532slgdg3j2ikp40","pricing_plan_id":"cebpf4jnsgd1na2vs0mg"},{"bike_id":"1cf460c0-85ab-443a-b3f3-4cb69c3df707","system_id":"levelo_inurba_marseille","lat":43.31073,"lon":5.38353,"is_reserved":false,"is_disabled":false,"rental_uris":{"android":"levelo://app?vid=1cf460c0-85ab-443a-b3f3-4cb69c3df707","ios":"levelo://app?vid=1cf460c0-85ab-443a-b3f3-4cb69c3df707"},"vehicle_type_id":"4","last_reported":1731783974,"current_range_meters":16400,"station_id":"ce4bgv92rcd13ifvqcr0","pricing_plan_id":"cebpf4jnsgd1na2vs0mg"},{"bike_id":"ec7ebcef-0725-4a43-af4c-e60688c5fa08","system_id":"levelo_inurba_marseille","lat":43.28155,"lon":5.42639,"is_reserved":false,"is_disabled":false,"rental_uris":{"android":"levelo://app?vid=ec7ebcef-0725-4a43-af4c-e60688c5fa08","ios":"levelo://app?vid=ec7ebcef-0725-4a43-af4c-e60688c5fa08"},"vehicle_type_id":"4","last_reported":1731783974,"current_range_meters":9600,"station_id":"ce4bhnh2rcd13ifvqgug","pricing_plan_id":"cebpf4jnsgd1na2vs0mg"},{"bike_id":"adfe521e-8638-4287-bbaa-f313080f96a1","system_id":"levelo_inurba_marseille","lat":43.28665,"lon":5.38666,"is_reserved":false,"is_disabled":false,"rental_uris":{"android":"levelo://app?vid=adfe521e-8638-4287-bbaa-f313080f96a1","ios":"levelo://app?vid=adfe521e-8638-4287-bbaa-f313080f96a1"},"vehicle_type_id":"4","last_reported":1731783974,"current_range_meters":37600,"station_id":"ce4bh492rcd13ifvqdug","pricing_plan_id":"cebpf4jnsgd1na2vs0mg"},{"bike_id":"10d657a8-8cd0-4969-bf72-f4e74655639d","system_id":"levelo_inurba_marseille","lat":43.30286,"lon":5.37699,"is_reserved":false,"is_disabled":false,"rental_uris":{"android":"levelo://app?vid=10d657a8-8cd0-4969-bf72-f4e74655639d","ios":"levelo://app?vid=10d657a8-8cd0-4969-bf72-f4e74655639d"},"vehicle_type_id":"4","last_reported":1731783974,"current_range_meters":38800,"station_id":"ce4bguh2rcd13ifvqcj0","pricing_plan_id":"cebpf4jnsgd1na2vs0mg"},{"bike_id":"8974c738-534f-4b90-8ec0-72ad5331fe1c","system_id":"levelo_inurba_marseille","lat":43.31072,"lon":5.38358,"is_reserved":false,"is_disabled":false,"rental_uris":{"android":"levelo://app?vid=8974c738-534f-4b90-8ec0-72ad5331fe1c","ios":"levelo://app?vid=8974c738-534f-4b90-8ec0-72ad5331fe1c"},"vehicle_type_id":"4","last_reported":1731783974,"current_range_meters":10800,"station_id":"ce4bgv92rcd13ifvqcr0","pricing_plan_id":"cebpf4jnsgd1na2vs0mg"},{"bike_id":"6d6a0dde-c067-4493-bad2-5ee0d9b9474d","system_id":"levelo_inurba_marseille","lat":43.29297,"lon":5.37447,"is_reserved":false,"is_disabled":false,"rental_uris":{"android":"levelo://app?vid=6d6a0dde-c067-4493-bad2-5ee0d9b9474d","ios":"levelo://app?vid=6d6a0dde-c067-4493-bad2-5ee0d9b9474d"},"vehicle_type_id":"4","last_reported":1731783974,"current_range_meters":35200,"station_id":"ce4bgi12rcd13ifvqb70","pricing_plan_id":"cebpf4jnsgd1na2vs0mg"},{"bike_id":"257d8da4-2c66-4682-9cec-40191983ddff","system_id":"levelo_inurba_marseille","lat":43.29792,"lon":5.40404,"is_reserved":false,"is_disabled":false,"rental_uris":{"android":"levelo://app?vid=257d8da4-2c66-4682-9cec-40191983ddff","ios":"levelo://app?vid=257d8da4-2c66-4682-9cec-40191983ddff"},"vehicle_type_id":"4","last_reported":1731783974,"current_range_meters":32000,"station_id":"ce4bh112rcd13ifvqd90","pricing_plan_id":"cebpf4jnsgd1na2vs0mg"},{"bike_id":"9f517b98-b68d-4d6d-9fc3-aedb2693f4b3","system_id":"levelo_inurba_marseille","lat":43.299635,"lon":5.384885,"is_reserved":false,"is_disabled":false,"rental_uris":{"android":"levelo://app?vid=9f517b98-b68d-4d6d-9fc3-aedb2693f4b3","ios":"levelo://app?vid=9f517b98-b68d-4d6d-9fc3-aedb2693f4b3"},"vehicle_type_id":"4","last_reported":1731783974,"current_range_meters":18800,"station_id":"ce4bgj92rcd13ifvqbd0","pricing_plan_id":"cebpf4jnsgd1na2vs0mg"},{"bike_id":"bf31c3a5-ebaf-4bfd-a829-fbe4e9e9c8cd","system_id":"levelo_inurba_marseille","lat":43.28353,"lon":5.38624,"is_reserved":false,"is_disabled":false,"rental_uris":{"android":"levelo://app?vid=bf31c3a5-ebaf-4bfd-a829-fbe4e9e9c8cd","ios":"levelo://app?vid=bf31c3a5-ebaf-4bfd-a829-fbe4e9e9c8cd"},"vehicle_type_id":"4","last_reported":1731783974,"current_range_meters":22400,"station_id":"ce4bh492rcd13ifvqdvg","pricing_plan_id":"cebpf4jnsgd1na2vs0mg"},{"bike_id":"f692a003-c6f7-4783-a06b-49add521204d","system_id":"levelo_inurba_marseille","lat":43.28918,"lon":5.3838,"is_reserved":false,"is_disabled":false,"rental_uris":{"android":"levelo://app?vid=f692a003-c6f7-4783-a06b-49add521204d","ios":"levelo://app?vid=f692a003-c6f7-4783-a06b-49add521204d"},"vehicle_type_id":"4","last_reported":1731783974,"current_range_meters":20400,"station_id":"ce4bh612rcd13ifvqe6g","pricing_plan_id":"cebpf4jnsgd1na2vs0mg"},{"bike_id":"b7aeb756-959f-4209-bd9b-88129da41cb3","system_id":"levelo_inurba_marseille","lat":43.26204,"lon":5.37931,"is_reserved":false,"is_disabled":false,"rental_uris":{"android":"levelo://app?vid=b7aeb756-959f-4209-bd9b-88129da41cb3","ios":"levelo://app?vid=b7aeb756-959f-4209-bd9b-88129da41cb3"},"vehicle_type_id":"4","last_reported":1731783974,"current_range_meters":21600,"station_id":"ce4bhjp2rcd13ifvqg90","pricing_plan_id":"cebpf4jnsgd1na2vs0mg"},{"bike_id":"2423f2a9-c81e-48f6-8baa-d86e2049c321","system_id":"levelo_inurba_marseille","lat":43.29256,"lon":5.40925,"is_reserved":false,"is_disabled":false,"rental_uris":{"android":"levelo://app?vid=2423f2a9-c81e-48f6-8baa-d86e2049c321","ios":"levelo://app?vid=2423f2a9-c81e-48f6-8baa-d86e2049c321"},"vehicle_type_id":"4","last_reported":1731783974,"current_range_meters":27200,"station_id":"ce4bh192rcd13ifvqdc0","pricing_plan_id":"cebpf4jnsgd1na2vs0mg"},{"bike_id":"b4316491-a001-458c-8484-e9c7c5c95cbb","system_id":"levelo_inurba_marseille","lat":43.30427,"lon":5.38886,"is_reserved":false,"is_disabled":false,"rental_uris":{"android":"levelo://app?vid=b4316491-a001-458c-8484-e9c7c5c95cbb","ios":"levelo://app?vid=b4316491-a001-458c-8484-e9c7c5c95cbb"},"vehicle_type_id":"4","last_reported":1731783974,"current_range_meters":24800,"station_id":"ce4bgk12rcd13ifvqbi0","pricing_plan_id":"cebpf4jnsgd1na2vs0mg"},{"bike_id":"0d090cbd-7bd8-48ce-96b4-17fa666688e1","system_id":"levelo_inurba_marseille","lat":43.3414,"lon":5.40913,"is_reserved":false,"is_disabled":false,"rental_uris":{"android":"levelo://app?vid=0d090cbd-7bd8-48ce-96b4-17fa666688e1","ios":"levelo://app?vid=0d090cbd-7bd8-48ce-96b4-17fa666688e1"},"vehicle_type_id":"4","last_reported":1731783974,"current_range_meters":28800,"station_id":"ce4bhqh2rcd13ifvqhlg","pricing_plan_id":"cebpf4jnsgd1na2vs0mg"},{"bike_id":"f6baf4e4-6107-4eb9-937b-c04a8bc6ddad","system_id":"levelo_inurba_marseille","lat":43.29239,"lon":5.38429,"is_reserved":false,"is_disabled":false,"rental_uris":{"android":"levelo://app?vid=f6baf4e4-6107-4eb9-937b-c04a8bc6ddad","ios":"levelo://app?vid=f6baf4e4-6107-4eb9-937b-c04a8bc6ddad"},"vehicle_type_id":"4","last_reported":1731783974,"current_range_meters":2800,"station_id":"ce4bh692rcd13ifvqea0","pricing_plan_id":"cebpf4jnsgd1na2vs0mg"},{"bike_id":"0b580216-b07f-4821-a19d-686462be0488","system_id":"levelo_inurba_marseille","lat":43.2293,"lon":5.35381,"is_reserved":false,"is_disabled":false,"rental_uris":{"android":"levelo://app?vid=0b580216-b07f-4821-a19d-686462be0488","ios":"levelo://app?vid=0b580216-b07f-4821-a19d-686462be0488"},"vehicle_type_id":"4","last_reported":1731783974,"current_range_meters":38400,"station_id":"cpo3532slgdg3j2ikp40","pricing_plan_id":"cebpf4jnsgd1na2vs0mg"},{"bike_id":"8ec12441-0a09-48b5-9b60-4ec15c08e11c","system_id":"levelo_inurba_marseille","lat":43.23197,"lon":5.40006,"is_reserved":false,"is_disabled":false,"rental_uris":{"android":"levelo://app?vid=8ec12441-0a09-48b5-9b60-4ec15c08e11c","ios":"levelo://app?vid=8ec12441-0a09-48b5-9b60-4ec15c08e11c"},"vehicle_type_id":"4","last_reported":1731783974,"current_range_meters":12400,"station_id":"ce4bhn12rcd13ifvqgqg","pricing_plan_id":"cebpf4jnsgd1na2vs0mg"},{"bike_id":"dc148b60-efee-45c2-af1f-26a46263cd7d","system_id":"levelo_inurba_marseille","lat":43.29824,"lon":5.36245,"is_reserved":false,"is_disabled":false,"rental_uris":{"android":"levelo://app?vid=dc148b60-efee-45c2-af1f-26a46263cd7d","ios":"levelo://app?vid=dc148b60-efee-45c2-af1f-26a46263cd7d"},"vehicle_type_id":"4","last_reported":1731783974,"current_range_meters":30400,"station_id":"ce4bgpp2rcd13ifvqc3g","pricing_plan_id":"cebpf4jnsgd1na2vs0mg"},{"bike_id":"9e80fa8f-f0eb-4404-9b0d-a93074af700f","system_id":"levelo_inurba_marseille","lat":43.24172,"lon":5.36397,"is_reserved":false,"is_disabled":false,"rental_uris":{"android":"levelo://app?vid=9e80fa8f-f0eb-4404-9b0d-a93074af700f","ios":"levelo://app?vid=9e80fa8f-f0eb-4404-9b0d-a93074af700f"},"vehicle_type_id":"4","last_reported":1731783974,"current_range_meters":28800,"station_id":"cpo36qri1sfpv3e86is0","pricing_plan_id":"cebpf4jnsgd1na2vs0mg"},{"bike_id":"8c3b373e-69f4-423e-a6fd-d4cc3e96c4bb","system_id":"levelo_inurba_marseille","lat":43.268005,"lon":5.402724,"is_reserved":false,"is_disabled":false,"rental_uris":{"android":"levelo://app?vid=8c3b373e-69f4-423e-a6fd-d4cc3e96c4bb","ios":"levelo://app?vid=8c3b373e-69f4-423e-a6fd-d4cc3e96c4bb"},"vehicle_type_id":"4","last_reported":1731783974,"current_range_meters":37600,"station_id":"ce501612rcd8frsf0b60","pricing_plan_id":"cebpf4jnsgd1na2vs0mg"},{"bike_id":"4138345b-cc1d-40b0-8916-e8013770729a","system_id":"levelo_inurba_marseille","lat":43.24641,"lon":5.38893,"is_reserved":false,"is_disabled":false,"rental_uris":{"android":"levelo://app?vid=4138345b-cc1d-40b0-8916-e8013770729a","ios":"levelo://app?vid=4138345b-cc1d-40b0-8916-e8013770729a"},"vehicle_type_id":"4","last_reported":1731783974,"current_range_meters":38800,"station_id":"ce4bhg12rcd13ifvqf60","pricing_plan_id":"cebpf4jnsgd1na2vs0mg"},{"bike_id":"89ae34f1-4ce0-4f92-8e9a-d6dca889f1b8","system_id":"levelo_inurba_marseille","lat":43.29312,"lon":5.37457,"is_reserved":false,"is_disabled":false,"rental_uris":{"android":"levelo://app?vid=89ae34f1-4ce0-4f92-8e9a-d6dca889f1b8","ios":"levelo://app?vid=89ae34f1-4ce0-4f92-8e9a-d6dca889f1b8"},"vehicle_type_id":"4","last_reported":1731783974,"current_range_meters":34000,"station_id":"ce4bgi12rcd13ifvqb70","pricing_plan_id":"cebpf4jnsgd1na2vs0mg"},{"bike_id":"d2cfc3e9-d7d3-4827-bd7c-01e3252d4319","system_id":"levelo_inurba_marseille","lat":43.31535,"lon":5.38035,"is_reserved":false,"is_disabled":false,"rental_uris":{"android":"levelo://app?vid=d2cfc3e9-d7d3-4827-bd7c-01e3252d4319","ios":"levelo://app?vid=d2cfc3e9-d7d3-4827-bd7c-01e3252d4319"},"vehicle_type_id":"4","last_reported":1731783974,"current_range_meters":38800,"station_id":"ce4bhsp2rcd13ifvqi50","pricing_plan_id":"cebpf4jnsgd1na2vs0mg"},{"bike_id":"89c7f0b5-420b-46aa-b8b1-97a7a0871666","system_id":"levelo_inurba_marseille","lat":43.31754,"lon":5.38346,"is_reserved":false,"is_disabled":false,"rental_uris":{"android":"levelo://app?vid=89c7f0b5-420b-46aa-b8b1-97a7a0871666","ios":"levelo://app?vid=89c7f0b5-420b-46aa-b8b1-97a7a0871666"},"vehicle_type_id":"4","last_reported":1731783974,"current_range_meters":13600,"station_id":"","pricing_plan_id":"cebpf4jnsgd1na2vs0mg"},{"bike_id":"ca8542a7-392d-4521-8203-879c6d07ae3f","system_id":"levelo_inurba_marseille","lat":43.30803,"lon":5.36998,"is_reserved":false,"is_disabled":false,"rental_uris":{"android":"levelo://app?vid=ca8542a7-392d-4521-8203-879c6d07ae3f","ios":"levelo://app?vid=ca8542a7-392d-4521-8203-879c6d07ae3f"},"vehicle_type_id":"4","last_reported":1731783974,"current_range_meters":32800,"station_id":"","pricing_plan_id":"cebpf4jnsgd1na2vs0mg"},{"bike_id":"bae81943-f1eb-4f58-8fe3-254cd012d472","system_id":"levelo_inurba_marseille","lat":43.25488,"lon":5.37647,"is_reserved":false,"is_disabled":false,"rental_uris":{"android":"levelo://app?vid=bae81943-f1eb-4f58-8fe3-254cd012d472","ios":"levelo://app?vid=bae81943-f1eb-4f58-8fe3-254cd012d472"},"vehicle_type_id":"4","last_reported":1731783974,"current_range_meters":38800,"station_id":"ce4bhh12rcd13ifvqff0","pricing_plan_id":"cebpf4jnsgd1na2vs0mg"},{"bike_id":"b06659a9-ab8c-492e-940e-cfed6c453bcc","system_id":"levelo_inurba_marseille","lat":43.29205,"lon":5.3933,"is_reserved":false,"is_disabled":false,"rental_uris":{"android":"levelo://app?vid=b06659a9-ab8c-492e-940e-cfed6c453bcc","ios":"levelo://app?vid=b06659a9-ab8c-492e-940e-cfed6c453bcc"},"vehicle_type_id":"4","last_reported":1731783974,"current_range_meters":2800,"station_id":"ce4bh192rcd13ifvqdd0","pricing_plan_id":"cebpf4jnsgd1na2vs0mg"},{"bike_id":"46632805-d598-46ca-8978-4f5e71b702c6","system_id":"levelo_inurba_marseille","lat":43.28154,"lon":5.42638,"is_reserved":false,"is_disabled":false,"rental_uris":{"android":"levelo://app?vid=46632805-d598-46ca-8978-4f5e71b702c6","ios":"levelo://app?vid=46632805-d598-46ca-8978-4f5e71b702c6"},"vehicle_type_id":"4","last_reported":1731783974,"current_range_meters":36800,"station_id":"ce4bhnh2rcd13ifvqgug","pricing_plan_id":"cebpf4jnsgd1na2vs0mg"},{"bike_id":"a6a31327-35ee-44aa-80e9-47de1dc9f4e2","system_id":"levelo_inurba_marseille","lat":43.30418,"lon":5.38879,"is_reserved":false,"is_disabled":false,"rental_uris":{"android":"levelo://app?vid=a6a31327-35ee-44aa-80e9-47de1dc9f4e2","ios":"levelo://app?vid=a6a31327-35ee-44aa-80e9-47de1dc9f4e2"},"vehicle_type_id":"4","last_reported":1731783974,"current_range_meters":26000,"station_id":"ce4bgk12rcd13ifvqbi0","pricing_plan_id":"cebpf4jnsgd1na2vs0mg"},{"bike_id":"328b03f6-cb56-40ba-adb9-9b7acac37b5d","system_id":"levelo_inurba_marseille","lat":43.29599,"lon":5.38086,"is_reserved":false,"is_disabled":false,"rental_uris":{"android":"levelo://app?vid=328b03f6-cb56-40ba-adb9-9b7acac37b5d","ios":"levelo://app?vid=328b03f6-cb56-40ba-adb9-9b7acac37b5d"},"vehicle_type_id":"4","last_reported":1731783974,"current_range_meters":38800,"station_id":"ce4bgl12rcd13ifvqbo0","pricing_plan_id":"cebpf4jnsgd1na2vs0mg"},{"bike_id":"268d5d93-3de3-426e-83f2-f33352a57811","system_id":"levelo_inurba_marseille","lat":43.27069,"lon":5.4228,"is_reserved":false,"is_disabled":false,"rental_uris":{"android":"levelo://app?vid=268d5d93-3de3-426e-83f2-f33352a57811","ios":"levelo://app?vid=268d5d93-3de3-426e-83f2-f33352a57811"},"vehicle_type_id":"4","last_reported":1731783974,"current_range_meters":37600,"station_id":"ce4bhk92rcd13ifvqgb0","pricing_plan_id":"cebpf4jnsgd1na2vs0mg"},{"bike_id":"29a2ab7d-164a-412d-9749-7cc53b7574d7","system_id":"levelo_inurba_marseille","lat":43.30635,"lon":5.40092,"is_reserved":false,"is_disabled":false,"rental_uris":{"android":"levelo://app?vid=29a2ab7d-164a-412d-9749-7cc53b7574d7","ios":"levelo://app?vid=29a2ab7d-164a-412d-9749-7cc53b7574d7"},"vehicle_type_id":"4","last_reported":1731783974,"current_range_meters":20800,"station_id":"ce4bh112rcd13ifvqda0","pricing_plan_id":"cebpf4jnsgd1na2vs0mg"},{"bike_id":"12867844-fa2a-41b2-8d74-706d4ef15909","system_id":"levelo_inurba_marseille","lat":43.33771,"lon":5.37439,"is_reserved":false,"is_disabled":false,"rental_uris":{"android":"levelo://app?vid=12867844-fa2a-41b2-8d74-706d4ef15909","ios":"levelo://app?vid=12867844-fa2a-41b2-8d74-706d4ef15909"},"vehicle_type_id":"4","last_reported":1731783974,"current_range_meters":36800,"station_id":"","pricing_plan_id":"cebpf4jnsgd1na2vs0mg"},{"bike_id":"3455c789-2e35-4152-8de0-fa613ba872df","system_id":"levelo_inurba_marseille","lat":43.32362,"lon":5.38883,"is_reserved":false,"is_disabled":false,"rental_uris":{"android":"levelo://app?vid=3455c789-2e35-4152-8de0-fa613ba872df","ios":"levelo://app?vid=3455c789-2e35-4152-8de0-fa613ba872df"},"vehicle_type_id":"4","last_reported":1731783974,"current_range_meters":36400,"station_id":"ce4bhqp2rcd13ifvqhog","pricing_plan_id":"cebpf4jnsgd1na2vs0mg"},{"bike_id":"e8e228a0-a7e6-4188-8e51-c11c3cefe004","system_id":"levelo_inurba_marseille","lat":43.29528,"lon":5.39041,"is_reserved":false,"is_disabled":false,"rental_uris":{"android":"levelo://app?vid=e8e228a0-a7e6-4188-8e51-c11c3cefe004","ios":"levelo://app?vid=e8e228a0-a7e6-4188-8e51-c11c3cefe004"},"vehicle_type_id":"4","last_reported":1731783974,"current_range_meters":20800,"station_id":"ce4bh3p2rcd13ifvqdp0","pricing_plan_id":"cebpf4jnsgd1na2vs0mg"},{"bike_id":"b9cbd8ff-b8eb-46d3-b8f6-271afd1a8c51","system_id":"levelo_inurba_marseille","lat":43.28475,"lon":5.38411,"is_reserved":false,"is_disabled":false,"rental_uris":{"android":"levelo://app?vid=b9cbd8ff-b8eb-46d3-b8f6-271afd1a8c51","ios":"levelo://app?vid=b9cbd8ff-b8eb-46d3-b8f6-271afd1a8c51"},"vehicle_type_id":"4","last_reported":1731783974,"current_range_meters":13600,"station_id":"ce4bh512rcd13ifvqe3g","pricing_plan_id":"cebpf4jnsgd1na2vs0mg"},{"bike_id":"66536316-146d-45f2-aa1b-6e4b4924e42f","system_id":"levelo_inurba_marseille","lat":43.2962,"lon":5.37711,"is_reserved":false,"is_disabled":false,"rental_uris":{"android":"levelo://app?vid=66536316-146d-45f2-aa1b-6e4b4924e42f","ios":"levelo://app?vid=66536316-146d-45f2-aa1b-6e4b4924e42f"},"vehicle_type_id":"4","last_reported":1731783974,"current_range_meters":4400,"station_id":"ce4bgi92rcd13ifvqb90","pricing_plan_id":"cebpf4jnsgd1na2vs0mg"},{"bike_id":"2269ae49-2273-4749-8998-eebc9ab63ae9","system_id":"levelo_inurba_marseille","lat":43.29548,"lon":5.42283,"is_reserved":false,"is_disabled":false,"rental_uris":{"android":"levelo://app?vid=2269ae49-2273-4749-8998-eebc9ab63ae9","ios":"levelo://app?vid=2269ae49-2273-4749-8998-eebc9ab63ae9"},"vehicle_type_id":"4","last_reported":1731783974,"current_range_meters":36800,"station_id":"ce4bhph2rcd13ifvqhdg","pricing_plan_id":"cebpf4jnsgd1na2vs0mg"},{"bike_id":"8665dee3-66a6-4fa7-8868-0ae3aeb84240","system_id":"levelo_inurba_marseille","lat":43.31118,"lon":5.37764,"is_reserved":false,"is_disabled":false,"rental_uris":{"android":"levelo://app?vid=8665dee3-66a6-4fa7-8868-0ae3aeb84240","ios":"levelo://app?vid=8665dee3-66a6-4fa7-8868-0ae3aeb84240"},"vehicle_type_id":"4","last_reported":1731783974,"current_range_meters":28000,"station_id":"ce4bgt92rcd13ifvqcg0","pricing_plan_id":"cebpf4jnsgd1na2vs0mg"},{"bike_id":"27572b0c-7a5d-4149-ae0c-5e695af7d453","system_id":"levelo_inurba_marseille","lat":43.29248,"lon":5.384245,"is_reserved":false,"is_disabled":false,"rental_uris":{"android":"levelo://app?vid=27572b0c-7a5d-4149-ae0c-5e695af7d453","ios":"levelo://app?vid=27572b0c-7a5d-4149-ae0c-5e695af7d453"},"vehicle_type_id":"4","last_reported":1731783974,"current_range_meters":28000,"station_id":"ce4bhh92rcd13ifvqfh0","pricing_plan_id":"cebpf4jnsgd1na2vs0mg"},{"bike_id":"89dddfc4-ec44-4327-b3aa-c350546d94f0","system_id":"levelo_inurba_marseille","lat":43.24814,"lon":5.3746,"is_reserved":false,"is_disabled":false,"rental_uris":{"android":"levelo://app?vid=89dddfc4-ec44-4327-b3aa-c350546d94f0","ios":"levelo://app?vid=89dddfc4-ec44-4327-b3aa-c350546d94f0"},"vehicle_type_id":"4","last_reported":1731783974,"current_range_meters":38800,"station_id":"ce4bhgh2rcd13ifvqfb0","pricing_plan_id":"cebpf4jnsgd1na2vs0mg"},{"bike_id":"b4f0c3a0-9b14-4375-8e12-6df631be02a7","system_id":"levelo_inurba_marseille","lat":43.27374,"lon":5.36255,"is_reserved":false,"is_disabled":false,"rental_uris":{"android":"levelo://app?vid=b4f0c3a0-9b14-4375-8e12-6df631be02a7","ios":"levelo://app?vid=b4f0c3a0-9b14-4375-8e12-6df631be02a7"},"vehicle_type_id":"4","last_reported":1731783974,"current_range_meters":38800,"station_id":"ce4bhbh2rcd13ifvqeo0","pricing_plan_id":"cebpf4jnsgd1na2vs0mg"},{"bike_id":"5d5505be-3a03-4d64-8ce2-797d9a3b3a5b","system_id":"levelo_inurba_marseille","lat":43.27813,"lon":5.40715,"is_reserved":false,"is_disabled":false,"rental_uris":{"android":"levelo://app?vid=5d5505be-3a03-4d64-8ce2-797d9a3b3a5b","ios":"levelo://app?vid=5d5505be-3a03-4d64-8ce2-797d9a3b3a5b"},"vehicle_type_id":"4","last_reported":1731783974,"current_range_meters":20400,"station_id":"ce4bhnh2rcd13ifvqgtg","pricing_plan_id":"cebpf4jnsgd1na2vs0mg"},{"bike_id":"6b76da8b-8346-4b5f-a49b-cdde5bffd08b","system_id":"levelo_inurba_marseille","lat":43.27801,"lon":5.40706,"is_reserved":false,"is_disabled":false,"rental_uris":{"android":"levelo://app?vid=6b76da8b-8346-4b5f-a49b-cdde5bffd08b","ios":"levelo://app?vid=6b76da8b-8346-4b5f-a49b-cdde5bffd08b"},"vehicle_type_id":"4","last_reported":1731783974,"current_range_meters":32800,"station_id":"ce4bhnh2rcd13ifvqgtg","pricing_plan_id":"cebpf4jnsgd1na2vs0mg"},{"bike_id":"02a9db9f-5c74-40a5-8347-93309d10e500","system_id":"levelo_inurba_marseille","lat":43.28664,"lon":5.38664,"is_reserved":false,"is_disabled":false,"rental_uris":{"android":"levelo://app?vid=02a9db9f-5c74-40a5-8347-93309d10e500","ios":"levelo://app?vid=02a9db9f-5c74-40a5-8347-93309d10e500"},"vehicle_type_id":"4","last_reported":1731783974,"current_range_meters":15200,"station_id":"ce4bh492rcd13ifvqdug","pricing_plan_id":"cebpf4jnsgd1na2vs0mg"},{"bike_id":"809a283f-bc95-40a4-9863-a084b1dc45a4","system_id":"levelo_inurba_marseille","lat":43.29033,"lon":5.3864,"is_reserved":false,"is_disabled":false,"rental_uris":{"android":"levelo://app?vid=809a283f-bc95-40a4-9863-a084b1dc45a4","ios":"levelo://app?vid=809a283f-bc95-40a4-9863-a084b1dc45a4"},"vehicle_type_id":"4","last_reported":1731783974,"current_range_meters":25200,"station_id":"ce4bh4p2rcd13ifvqe0g","pricing_plan_id":"cebpf4jnsgd1na2vs0mg"},{"bike_id":"42642778-34ec-4ff2-bc69-8e18e12b6e12","system_id":"levelo_inurba_marseille","lat":43.27943,"lon":5.41045,"is_reserved":false,"is_disabled":false,"rental_uris":{"android":"levelo://app?vid=42642778-34ec-4ff2-bc69-8e18e12b6e12","ios":"levelo://app?vid=42642778-34ec-4ff2-bc69-8e18e12b6e12"},"vehicle_type_id":"4","last_reported":1731783974,"current_range_meters":18800,"station_id":"ce4bhnp2rcd13ifvqh0g","pricing_plan_id":"cebpf4jnsgd1na2vs0mg"},{"bike_id":"deacd5ed-b373-4996-af1b-e254408a66a1","system_id":"levelo_inurba_marseille","lat":43.29529,"lon":5.37498,"is_reserved":false,"is_disabled":false,"rental_uris":{"android":"levelo://app?vid=deacd5ed-b373-4996-af1b-e254408a66a1","ios":"levelo://app?vid=deacd5ed-b373-4996-af1b-e254408a66a1"},"vehicle_type_id":"4","last_reported":1731783974,"current_range_meters":16000,"station_id":"ce4bgkp2rcd13ifvqbmg","pricing_plan_id":"cebpf4jnsgd1na2vs0mg"},{"bike_id":"229a21f3-e57e-48a7-b1f1-ad0d31f9767a","system_id":"levelo_inurba_marseille","lat":43.24664,"lon":5.38162,"is_reserved":false,"is_disabled":false,"rental_uris":{"android":"levelo://app?vid=229a21f3-e57e-48a7-b1f1-ad0d31f9767a","ios":"levelo://app?vid=229a21f3-e57e-48a7-b1f1-ad0d31f9767a"},"vehicle_type_id":"4","last_reported":1731783974,"current_range_meters":10000,"station_id":"ce4bhih2rcd13ifvqfr0","pricing_plan_id":"cebpf4jnsgd1na2vs0mg"},{"bike_id":"5339d6f2-5b58-43f2-92da-fb6ab7b698b2","system_id":"levelo_inurba_marseille","lat":43.28481,"lon":5.38409,"is_reserved":false,"is_disabled":false,"rental_uris":{"android":"levelo://app?vid=5339d6f2-5b58-43f2-92da-fb6ab7b698b2","ios":"levelo://app?vid=5339d6f2-5b58-43f2-92da-fb6ab7b698b2"},"vehicle_type_id":"4","last_reported":1731783974,"current_range_meters":7200,"station_id":"ce4bh512rcd13ifvqe3g","pricing_plan_id":"cebpf4jnsgd1na2vs0mg"},{"bike_id":"97f86018-d348-4820-8deb-2eaad8cb9417","system_id":"levelo_inurba_marseille","lat":43.2848,"lon":5.3843,"is_reserved":false,"is_disabled":false,"rental_uris":{"android":"levelo://app?vid=97f86018-d348-4820-8deb-2eaad8cb9417","ios":"levelo://app?vid=97f86018-d348-4820-8deb-2eaad8cb9417"},"vehicle_type_id":"4","last_reported":1731783974,"current_range_meters":38800,"station_id":"ce4bh512rcd13ifvqe3g","pricing_plan_id":"cebpf4jnsgd1na2vs0mg"},{"bike_id":"65841371-ffae-4428-aaee-df1dbae6d5c8","system_id":"levelo_inurba_marseille","lat":43.31485,"lon":5.37304,"is_reserved":false,"is_disabled":false,"rental_uris":{"android":"levelo://app?vid=65841371-ffae-4428-aaee-df1dbae6d5c8","ios":"levelo://app?vid=65841371-ffae-4428-aaee-df1dbae6d5c8"},"vehicle_type_id":"4","last_reported":1731783974,"current_range_meters":24800,"station_id":"ce4bgt12rcd13ifvqcd0","pricing_plan_id":"cebpf4jnsgd1na2vs0mg"},{"bike_id":"96aa5eb8-b000-4db7-9728-6a1cd93401ce","system_id":"levelo_inurba_marseille","lat":43.29532,"lon":5.38542,"is_reserved":false,"is_disabled":false,"rental_uris":{"android":"levelo://app?vid=96aa5eb8-b000-4db7-9728-6a1cd93401ce","ios":"levelo://app?vid=96aa5eb8-b000-4db7-9728-6a1cd93401ce"},"vehicle_type_id":"4","last_reported":1731783974,"current_range_meters":24000,"station_id":"ce4bgih2rcd13ifvqba0","pricing_plan_id":"cebpf4jnsgd1na2vs0mg"},{"bike_id":"76702ce0-92fb-4f14-9f1c-6bfe77dc62cb","system_id":"levelo_inurba_marseille","lat":43.29517,"lon":5.38539,"is_reserved":false,"is_disabled":false,"rental_uris":{"android":"levelo://app?vid=76702ce0-92fb-4f14-9f1c-6bfe77dc62cb","ios":"levelo://app?vid=76702ce0-92fb-4f14-9f1c-6bfe77dc62cb"},"vehicle_type_id":"4","last_reported":1731783974,"current_range_meters":22800,"station_id":"ce4bgih2rcd13ifvqba0","pricing_plan_id":"cebpf4jnsgd1na2vs0mg"},{"bike_id":"d6029a07-4312-42af-9590-5c6b5c606e61","system_id":"levelo_inurba_marseille","lat":43.25577,"lon":5.38241,"is_reserved":false,"is_disabled":false,"rental_uris":{"android":"levelo://app?vid=d6029a07-4312-42af-9590-5c6b5c606e61","ios":"levelo://app?vid=d6029a07-4312-42af-9590-5c6b5c606e61"},"vehicle_type_id":"4","last_reported":1731783974,"current_range_meters":36800,"station_id":"ce4bhih2rcd13ifvqfs0","pricing_plan_id":"cebpf4jnsgd1na2vs0mg"},{"bike_id":"08586d67-74a4-4b66-9b20-38b225f131c4","system_id":"levelo_inurba_marseille","lat":43.246636,"lon":5.381642,"is_reserved":false,"is_disabled":false,"rental_uris":{"android":"levelo://app?vid=08586d67-74a4-4b66-9b20-38b225f131c4","ios":"levelo://app?vid=08586d67-74a4-4b66-9b20-38b225f131c4"},"vehicle_type_id":"4","last_reported":1731783974,"current_range_meters":14800,"station_id":"ce4bhih2rcd13ifvqfr0","pricing_plan_id":"cebpf4jnsgd1na2vs0mg"},{"bike_id":"b1d2b91d-10c0-45d1-a30c-e939ce60c72b","system_id":"levelo_inurba_marseille","lat":43.32663,"lon":5.41,"is_reserved":false,"is_disabled":false,"rental_uris":{"android":"levelo://app?vid=b1d2b91d-10c0-45d1-a30c-e939ce60c72b","ios":"levelo://app?vid=b1d2b91d-10c0-45d1-a30c-e939ce60c72b"},"vehicle_type_id":"4","last_reported":1731783974,"current_range_meters":12800,"station_id":"ce4bhpp2rcd13ifvqhgg","pricing_plan_id":"cebpf4jnsgd1na2vs0mg"},{"bike_id":"440cafc5-4eb6-4c9e-a433-d1e4bffc7566","system_id":"levelo_inurba_marseille","lat":43.30213,"lon":5.39478,"is_reserved":false,"is_disabled":false,"rental_uris":{"android":"levelo://app?vid=440cafc5-4eb6-4c9e-a433-d1e4bffc7566","ios":"levelo://app?vid=440cafc5-4eb6-4c9e-a433-d1e4bffc7566"},"vehicle_type_id":"4","last_reported":1731783974,"current_range_meters":22800,"station_id":"ce4bh0p2rcd13ifvqd70","pricing_plan_id":"cebpf4jnsgd1na2vs0mg"},{"bike_id":"9f92a7ac-738d-40f9-93b9-933c1f0ff525","system_id":"levelo_inurba_marseille","lat":43.32369,"lon":5.38885,"is_reserved":false,"is_disabled":false,"rental_uris":{"android":"levelo://app?vid=9f92a7ac-738d-40f9-93b9-933c1f0ff525","ios":"levelo://app?vid=9f92a7ac-738d-40f9-93b9-933c1f0ff525"},"vehicle_type_id":"4","last_reported":1731783974,"current_range_meters":27600,"station_id":"ce4bhqp2rcd13ifvqhog","pricing_plan_id":"cebpf4jnsgd1na2vs0mg"},{"bike_id":"73a9dc55-5feb-46d9-aa60-197f3d09bea8","system_id":"levelo_inurba_marseille","lat":43.29559,"lon":5.42293,"is_reserved":false,"is_disabled":false,"rental_uris":{"android":"levelo://app?vid=73a9dc55-5feb-46d9-aa60-197f3d09bea8","ios":"levelo://app?vid=73a9dc55-5feb-46d9-aa60-197f3d09bea8"},"vehicle_type_id":"4","last_reported":1731783974,"current_range_meters":28800,"station_id":"ce4bhph2rcd13ifvqhdg","pricing_plan_id":"cebpf4jnsgd1na2vs0mg"},{"bike_id":"a06a46ac-98f8-4c59-8eaf-f414043da4f0","system_id":"levelo_inurba_marseille","lat":43.2941,"lon":5.38621,"is_reserved":false,"is_disabled":false,"rental_uris":{"android":"levelo://app?vid=a06a46ac-98f8-4c59-8eaf-f414043da4f0","ios":"levelo://app?vid=a06a46ac-98f8-4c59-8eaf-f414043da4f0"},"vehicle_type_id":"4","last_reported":1731783974,"current_range_meters":22800,"station_id":"ce4bh2h2rcd13ifvqdh0","pricing_plan_id":"cebpf4jnsgd1na2vs0mg"},{"bike_id":"c65219d3-6b30-470d-8f58-b0a2906653ef","system_id":"levelo_inurba_marseille","lat":43.29521,"lon":5.38535,"is_reserved":false,"is_disabled":false,"rental_uris":{"android":"levelo://app?vid=c65219d3-6b30-470d-8f58-b0a2906653ef","ios":"levelo://app?vid=c65219d3-6b30-470d-8f58-b0a2906653ef"},"vehicle_type_id":"4","last_reported":1731783974,"current_range_meters":17200,"station_id":"ce4bgih2rcd13ifvqba0","pricing_plan_id":"cebpf4jnsgd1na2vs0mg"},{"bike_id":"5392ebd6-00c3-43c5-82c5-4bc675d0ea53","system_id":"levelo_inurba_marseille","lat":43.27989,"lon":5.41656,"is_reserved":false,"is_disabled":false,"rental_uris":{"android":"levelo://app?vid=5392ebd6-00c3-43c5-82c5-4bc675d0ea53","ios":"levelo://app?vid=5392ebd6-00c3-43c5-82c5-4bc675d0ea53"},"vehicle_type_id":"4","last_reported":1731783974,"current_range_meters":30000,"station_id":"ce4bho12rcd13ifvqh1g","pricing_plan_id":"cebpf4jnsgd1na2vs0mg"},{"bike_id":"d54f2dfa-2ad2-469a-8720-163ef98eb87d","system_id":"levelo_inurba_marseille","lat":43.25085,"lon":5.39507,"is_reserved":false,"is_disabled":false,"rental_uris":{"android":"levelo://app?vid=d54f2dfa-2ad2-469a-8720-163ef98eb87d","ios":"levelo://app?vid=d54f2dfa-2ad2-469a-8720-163ef98eb87d"},"vehicle_type_id":"4","last_reported":1731783974,"current_range_meters":22400,"station_id":"ce4bhm12rcd13ifvqgkg","pricing_plan_id":"cebpf4jnsgd1na2vs0mg"},{"bike_id":"634dbc16-8491-4980-baf5-1f3a95f823e2","system_id":"levelo_inurba_marseille","lat":43.29788,"lon":5.40416,"is_reserved":false,"is_disabled":false,"rental_uris":{"android":"levelo://app?vid=634dbc16-8491-4980-baf5-1f3a95f823e2","ios":"levelo://app?vid=634dbc16-8491-4980-baf5-1f3a95f823e2"},"vehicle_type_id":"4","last_reported":1731783974,"current_range_meters":36400,"station_id":"ce4bh112rcd13ifvqd90","pricing_plan_id":"cebpf4jnsgd1na2vs0mg"},{"bike_id":"6d757fef-4f26-43f9-ac2c-ffab39bf7dae","system_id":"levelo_inurba_marseille","lat":43.32249,"lon":5.36901,"is_reserved":false,"is_disabled":false,"rental_uris":{"android":"levelo://app?vid=6d757fef-4f26-43f9-ac2c-ffab39bf7dae","ios":"levelo://app?vid=6d757fef-4f26-43f9-ac2c-ffab39bf7dae"},"vehicle_type_id":"4","last_reported":1731783974,"current_range_meters":18800,"station_id":"","pricing_plan_id":"cebpf4jnsgd1na2vs0mg"},{"bike_id":"10e8770a-7e7c-48f0-8bdc-b5f989237eaa","system_id":"levelo_inurba_marseille","lat":43.29542,"lon":5.42274,"is_reserved":false,"is_disabled":false,"rental_uris":{"android":"levelo://app?vid=10e8770a-7e7c-48f0-8bdc-b5f989237eaa","ios":"levelo://app?vid=10e8770a-7e7c-48f0-8bdc-b5f989237eaa"},"vehicle_type_id":"4","last_reported":1731783974,"current_range_meters":39200,"station_id":"ce4bhph2rcd13ifvqhdg","pricing_plan_id":"cebpf4jnsgd1na2vs0mg"},{"bike_id":"c6281248-adb5-4605-b1ef-9c224c1bd327","system_id":"levelo_inurba_marseille","lat":43.30214,"lon":5.39474,"is_reserved":false,"is_disabled":false,"rental_uris":{"android":"levelo://app?vid=c6281248-adb5-4605-b1ef-9c224c1bd327","ios":"levelo://app?vid=c6281248-adb5-4605-b1ef-9c224c1bd327"},"vehicle_type_id":"4","last_reported":1731783974,"current_range_meters":38400,"station_id":"ce4bh0p2rcd13ifvqd70","pricing_plan_id":"cebpf4jnsgd1na2vs0mg"},{"bike_id":"b8525626-789f-4967-96a7-4e907cb52cab","system_id":"levelo_inurba_marseille","lat":43.29252,"lon":5.38446,"is_reserved":false,"is_disabled":false,"rental_uris":{"android":"levelo://app?vid=b8525626-789f-4967-96a7-4e907cb52cab","ios":"levelo://app?vid=b8525626-789f-4967-96a7-4e907cb52cab"},"vehicle_type_id":"4","last_reported":1731783974,"current_range_meters":4800,"station_id":"ce4bh692rcd13ifvqea0","pricing_plan_id":"cebpf4jnsgd1na2vs0mg"},{"bike_id":"9aa932f6-9b37-42ff-aab0-be07635afddf","system_id":"levelo_inurba_marseille","lat":43.2926,"lon":5.38432,"is_reserved":false,"is_disabled":false,"rental_uris":{"android":"levelo://app?vid=9aa932f6-9b37-42ff-aab0-be07635afddf","ios":"levelo://app?vid=9aa932f6-9b37-42ff-aab0-be07635afddf"},"vehicle_type_id":"4","last_reported":1731783974,"current_range_meters":4400,"station_id":"ce4bh692rcd13ifvqea0","pricing_plan_id":"cebpf4jnsgd1na2vs0mg"},{"bike_id":"3adcf372-7365-4902-b132-4f247c6fb2d3","system_id":"levelo_inurba_marseille","lat":43.29275,"lon":5.36848,"is_reserved":false,"is_disabled":false,"rental_uris":{"android":"levelo://app?vid=3adcf372-7365-4902-b132-4f247c6fb2d3","ios":"levelo://app?vid=3adcf372-7365-4902-b132-4f247c6fb2d3"},"vehicle_type_id":"4","last_reported":1731783974,"current_range_meters":27600,"station_id":"ce4bhbp2rcd13ifvqesg","pricing_plan_id":"cebpf4jnsgd1na2vs0mg"},{"bike_id":"180e1e05-f758-41ce-bd24-5696fef1f1d3","system_id":"levelo_inurba_marseille","lat":43.29618,"lon":5.37151,"is_reserved":false,"is_disabled":false,"rental_uris":{"android":"levelo://app?vid=180e1e05-f758-41ce-bd24-5696fef1f1d3","ios":"levelo://app?vid=180e1e05-f758-41ce-bd24-5696fef1f1d3"},"vehicle_type_id":"4","last_reported":1731783974,"current_range_meters":18000,"station_id":"ce4bgnh2rcd13ifvqc0g","pricing_plan_id":"cebpf4jnsgd1na2vs0mg"},{"bike_id":"3cb028b2-e9b4-4b5d-869e-e3723400af16","system_id":"levelo_inurba_marseille","lat":43.33024,"lon":5.39042,"is_reserved":false,"is_disabled":false,"rental_uris":{"android":"levelo://app?vid=3cb028b2-e9b4-4b5d-869e-e3723400af16","ios":"levelo://app?vid=3cb028b2-e9b4-4b5d-869e-e3723400af16"},"vehicle_type_id":"4","last_reported":1731783974,"current_range_meters":36400,"station_id":"ce4bhr92rcd13ifvqhrg","pricing_plan_id":"cebpf4jnsgd1na2vs0mg"},{"bike_id":"a585ac06-f4c8-4495-b753-2550cc35a978","system_id":"levelo_inurba_marseille","lat":43.27989,"lon":5.41654,"is_reserved":false,"is_disabled":false,"rental_uris":{"android":"levelo://app?vid=a585ac06-f4c8-4495-b753-2550cc35a978","ios":"levelo://app?vid=a585ac06-f4c8-4495-b753-2550cc35a978"},"vehicle_type_id":"4","last_reported":1731783974,"current_range_meters":6400,"station_id":"ce4bho12rcd13ifvqh1g","pricing_plan_id":"cebpf4jnsgd1na2vs0mg"},{"bike_id":"4bec7e71-b837-43ea-8202-2f5d7ec3f785","system_id":"levelo_inurba_marseille","lat":43.30291,"lon":5.37695,"is_reserved":false,"is_disabled":false,"rental_uris":{"android":"levelo://app?vid=4bec7e71-b837-43ea-8202-2f5d7ec3f785","ios":"levelo://app?vid=4bec7e71-b837-43ea-8202-2f5d7ec3f785"},"vehicle_type_id":"4","last_reported":1731783974,"current_range_meters":6000,"station_id":"ce4bguh2rcd13ifvqcj0","pricing_plan_id":"cebpf4jnsgd1na2vs0mg"},{"bike_id":"7847be02-d678-4754-a29e-2e3c8f7fb572","system_id":"levelo_inurba_marseille","lat":43.29871,"lon":5.38907,"is_reserved":false,"is_disabled":false,"rental_uris":{"android":"levelo://app?vid=7847be02-d678-4754-a29e-2e3c8f7fb572","ios":"levelo://app?vid=7847be02-d678-4754-a29e-2e3c8f7fb572"},"vehicle_type_id":"4","last_reported":1731783974,"current_range_meters":38800,"station_id":"ce4bh392rcd13ifvqdl0","pricing_plan_id":"cebpf4jnsgd1na2vs0mg"},{"bike_id":"744f8bcd-647a-4485-83b1-7a78e5dd8259","system_id":"levelo_inurba_marseille","lat":43.31082,"lon":5.42429,"is_reserved":false,"is_disabled":false,"rental_uris":{"android":"levelo://app?vid=744f8bcd-647a-4485-83b1-7a78e5dd8259","ios":"levelo://app?vid=744f8bcd-647a-4485-83b1-7a78e5dd8259"},"vehicle_type_id":"4","last_reported":1731783974,"current_range_meters":30400,"station_id":"ce4bhp92rcd13ifvqhag","pricing_plan_id":"cebpf4jnsgd1na2vs0mg"},{"bike_id":"8a485606-2884-4480-b7ef-6988528b4cd6","system_id":"levelo_inurba_marseille","lat":43.30496,"lon":5.38099,"is_reserved":false,"is_disabled":false,"rental_uris":{"android":"levelo://app?vid=8a485606-2884-4480-b7ef-6988528b4cd6","ios":"levelo://app?vid=8a485606-2884-4480-b7ef-6988528b4cd6"},"vehicle_type_id":"4","last_reported":1731783974,"current_range_meters":18800,"station_id":"","pricing_plan_id":"cebpf4jnsgd1na2vs0mg"},{"bike_id":"e4801e34-3bd7-4a0c-8f86-3c19ca8d863d","system_id":"levelo_inurba_marseille","lat":43.2927,"lon":5.38451,"is_reserved":false,"is_disabled":false,"rental_uris":{"android":"levelo://app?vid=e4801e34-3bd7-4a0c-8f86-3c19ca8d863d","ios":"levelo://app?vid=e4801e34-3bd7-4a0c-8f86-3c19ca8d863d"},"vehicle_type_id":"4","last_reported":1731783974,"current_range_meters":27600,"station_id":"ce4bh692rcd13ifvqea0","pricing_plan_id":"cebpf4jnsgd1na2vs0mg"},{"bike_id":"a4e8e96c-867e-4521-9861-087b3f6c78bd","system_id":"levelo_inurba_marseille","lat":43.24995,"lon":5.38925,"is_reserved":false,"is_disabled":false,"rental_uris":{"android":"levelo://app?vid=a4e8e96c-867e-4521-9861-087b3f6c78bd","ios":"levelo://app?vid=a4e8e96c-867e-4521-9861-087b3f6c78bd"},"vehicle_type_id":"4","last_reported":1731783974,"current_range_meters":39200,"station_id":"ce4bhgp2rcd13ifvqfd0","pricing_plan_id":"cebpf4jnsgd1na2vs0mg"},{"bike_id":"1ece79d9-7ffd-41b5-a656-cdbcd837990c","system_id":"levelo_inurba_marseille","lat":43.32104,"lon":5.36771,"is_reserved":false,"is_disabled":false,"rental_uris":{"android":"levelo://app?vid=1ece79d9-7ffd-41b5-a656-cdbcd837990c","ios":"levelo://app?vid=1ece79d9-7ffd-41b5-a656-cdbcd837990c"},"vehicle_type_id":"4","last_reported":1731783974,"current_range_meters":14400,"station_id":"ce4bhrh2rcd13ifvqhug","pricing_plan_id":"cebpf4jnsgd1na2vs0mg"},{"bike_id":"34086fed-aa86-4e74-a4e7-9fb1ff2b340d","system_id":"levelo_inurba_marseille","lat":43.27178,"lon":5.40991,"is_reserved":false,"is_disabled":false,"rental_uris":{"android":"levelo://app?vid=34086fed-aa86-4e74-a4e7-9fb1ff2b340d","ios":"levelo://app?vid=34086fed-aa86-4e74-a4e7-9fb1ff2b340d"},"vehicle_type_id":"4","last_reported":1731783974,"current_range_meters":39200,"station_id":"ce4bhl12rcd13ifvqgf0","pricing_plan_id":"cebpf4jnsgd1na2vs0mg"},{"bike_id":"dc58004f-8190-4e9e-95d8-5cee824b156b","system_id":"levelo_inurba_marseille","lat":43.2466,"lon":5.38164,"is_reserved":false,"is_disabled":false,"rental_uris":{"android":"levelo://app?vid=dc58004f-8190-4e9e-95d8-5cee824b156b","ios":"levelo://app?vid=dc58004f-8190-4e9e-95d8-5cee824b156b"},"vehicle_type_id":"4","last_reported":1731783974,"current_range_meters":2000,"station_id":"ce4bhih2rcd13ifvqfr0","pricing_plan_id":"cebpf4jnsgd1na2vs0mg"},{"bike_id":"f597c4a5-009b-4a56-9541-ad743d24b3a0","system_id":"levelo_inurba_marseille","lat":43.289276,"lon":5.366304,"is_reserved":false,"is_disabled":false,"rental_uris":{"android":"levelo://app?vid=f597c4a5-009b-4a56-9541-ad743d24b3a0","ios":"levelo://app?vid=f597c4a5-009b-4a56-9541-ad743d24b3a0"},"vehicle_type_id":"4","last_reported":1731783974,"current_range_meters":19600,"station_id":"ce4bhap2rcd13ifvqek0","pricing_plan_id":"cebpf4jnsgd1na2vs0mg"},{"bike_id":"9b99e18b-1cfb-49eb-9130-93a7c80e7907","system_id":"levelo_inurba_marseille","lat":43.24999,"lon":5.3893,"is_reserved":false,"is_disabled":false,"rental_uris":{"android":"levelo://app?vid=9b99e18b-1cfb-49eb-9130-93a7c80e7907","ios":"levelo://app?vid=9b99e18b-1cfb-49eb-9130-93a7c80e7907"},"vehicle_type_id":"4","last_reported":1731783974,"current_range_meters":38800,"station_id":"ce4bhgp2rcd13ifvqfd0","pricing_plan_id":"cebpf4jnsgd1na2vs0mg"},{"bike_id":"0a753e4d-0db8-4478-ac38-4913f7d07a7c","system_id":"levelo_inurba_marseille","lat":43.28719,"lon":5.37931,"is_reserved":false,"is_disabled":false,"rental_uris":{"android":"levelo://app?vid=0a753e4d-0db8-4478-ac38-4913f7d07a7c","ios":"levelo://app?vid=0a753e4d-0db8-4478-ac38-4913f7d07a7c"},"vehicle_type_id":"4","last_reported":1731783974,"current_range_meters":25200,"station_id":"ce4bh9p2rcd13ifvqec0","pricing_plan_id":"cebpf4jnsgd1na2vs0mg"},{"bike_id":"53f3493d-aa1d-41ce-974b-f1f6a141cc6a","system_id":"levelo_inurba_marseille","lat":43.31994,"lon":5.38153,"is_reserved":false,"is_disabled":false,"rental_uris":{"android":"levelo://app?vid=53f3493d-aa1d-41ce-974b-f1f6a141cc6a","ios":"levelo://app?vid=53f3493d-aa1d-41ce-974b-f1f6a141cc6a"},"vehicle_type_id":"4","last_reported":1731783974,"current_range_meters":38800,"station_id":"ce4bhr12rcd13ifvqhpg","pricing_plan_id":"cebpf4jnsgd1na2vs0mg"},{"bike_id":"0876f4fa-3b80-4ef8-a397-bcdc65be4124","system_id":"levelo_inurba_marseille","lat":43.29896,"lon":5.43665,"is_reserved":false,"is_disabled":false,"rental_uris":{"android":"levelo://app?vid=0876f4fa-3b80-4ef8-a397-bcdc65be4124","ios":"levelo://app?vid=0876f4fa-3b80-4ef8-a397-bcdc65be4124"},"vehicle_type_id":"4","last_reported":1731783974,"current_range_meters":22800,"station_id":"ce4bhpp2rcd13ifvqhfg","pricing_plan_id":"cebpf4jnsgd1na2vs0mg"},{"bike_id":"55de28cf-e37c-4724-b81f-8a648780c5b9","system_id":"levelo_inurba_marseille","lat":43.23194,"lon":5.35549,"is_reserved":false,"is_disabled":false,"rental_uris":{"android":"levelo://app?vid=55de28cf-e37c-4724-b81f-8a648780c5b9","ios":"levelo://app?vid=55de28cf-e37c-4724-b81f-8a648780c5b9"},"vehicle_type_id":"4","last_reported":1731783974,"current_range_meters":36800,"station_id":"ce4bhu92rcd13ifvqi70","pricing_plan_id":"cebpf4jnsgd1na2vs0mg"},{"bike_id":"403e970b-e0f1-40e2-8205-318267e86521","system_id":"levelo_inurba_marseille","lat":43.27967,"lon":5.38747,"is_reserved":false,"is_disabled":false,"rental_uris":{"android":"levelo://app?vid=403e970b-e0f1-40e2-8205-318267e86521","ios":"levelo://app?vid=403e970b-e0f1-40e2-8205-318267e86521"},"vehicle_type_id":"4","last_reported":1731783974,"current_range_meters":6400,"station_id":"ce4bhg12rcd13ifvqf80","pricing_plan_id":"cebpf4jnsgd1na2vs0mg"},{"bike_id":"cf7c4750-5abf-4ff7-967b-b9c20d6de747","system_id":"levelo_inurba_marseille","lat":43.2508,"lon":5.39521,"is_reserved":false,"is_disabled":false,"rental_uris":{"android":"levelo://app?vid=cf7c4750-5abf-4ff7-967b-b9c20d6de747","ios":"levelo://app?vid=cf7c4750-5abf-4ff7-967b-b9c20d6de747"},"vehicle_type_id":"4","last_reported":1731783974,"current_range_meters":19200,"station_id":"ce4bhm12rcd13ifvqgkg","pricing_plan_id":"cebpf4jnsgd1na2vs0mg"},{"bike_id":"2a514ccf-454a-477f-a84d-84d431121a4b","system_id":"levelo_inurba_marseille","lat":43.33026,"lon":5.39046,"is_reserved":false,"is_disabled":false,"rental_uris":{"android":"levelo://app?vid=2a514ccf-454a-477f-a84d-84d431121a4b","ios":"levelo://app?vid=2a514ccf-454a-477f-a84d-84d431121a4b"},"vehicle_type_id":"4","last_reported":1731783974,"current_range_meters":20400,"station_id":"ce4bhr92rcd13ifvqhrg","pricing_plan_id":"cebpf4jnsgd1na2vs0mg"},{"bike_id":"da47edd6-7879-42e4-9bae-ff0dec5e2d9c","system_id":"levelo_inurba_marseille","lat":43.32657,"lon":5.40991,"is_reserved":false,"is_disabled":false,"rental_uris":{"android":"levelo://app?vid=da47edd6-7879-42e4-9bae-ff0dec5e2d9c","ios":"levelo://app?vid=da47edd6-7879-42e4-9bae-ff0dec5e2d9c"},"vehicle_type_id":"4","last_reported":1731783974,"current_range_meters":10000,"station_id":"ce4bhpp2rcd13ifvqhgg","pricing_plan_id":"cebpf4jnsgd1na2vs0mg"},{"bike_id":"2435da41-d74a-416b-a90b-a1cf3e7dcb5f","system_id":"levelo_inurba_marseille","lat":43.27991,"lon":5.41656,"is_reserved":false,"is_disabled":false,"rental_uris":{"android":"levelo://app?vid=2435da41-d74a-416b-a90b-a1cf3e7dcb5f","ios":"levelo://app?vid=2435da41-d74a-416b-a90b-a1cf3e7dcb5f"},"vehicle_type_id":"4","last_reported":1731783974,"current_range_meters":8800,"station_id":"ce4bho12rcd13ifvqh1g","pricing_plan_id":"cebpf4jnsgd1na2vs0mg"},{"bike_id":"f3fe112d-bf29-4621-a795-f193f2d2276c","system_id":"levelo_inurba_marseille","lat":43.24658,"lon":5.38166,"is_reserved":false,"is_disabled":false,"rental_uris":{"android":"levelo://app?vid=f3fe112d-bf29-4621-a795-f193f2d2276c","ios":"levelo://app?vid=f3fe112d-bf29-4621-a795-f193f2d2276c"},"vehicle_type_id":"4","last_reported":1731783974,"current_range_meters":20000,"station_id":"ce4bhih2rcd13ifvqfr0","pricing_plan_id":"cebpf4jnsgd1na2vs0mg"},{"bike_id":"c2a32e84-7a8f-4d02-8dd1-4ba635a41ffa","system_id":"levelo_inurba_marseille","lat":43.30277,"lon":5.37709,"is_reserved":false,"is_disabled":false,"rental_uris":{"android":"levelo://app?vid=c2a32e84-7a8f-4d02-8dd1-4ba635a41ffa","ios":"levelo://app?vid=c2a32e84-7a8f-4d02-8dd1-4ba635a41ffa"},"vehicle_type_id":"4","last_reported":1731783974,"current_range_meters":20400,"station_id":"ce4bguh2rcd13ifvqcj0","pricing_plan_id":"cebpf4jnsgd1na2vs0mg"},{"bike_id":"eb9a84f5-6092-4dc4-a3c0-a07efb437c77","system_id":"levelo_inurba_marseille","lat":43.33776,"lon":5.37435,"is_reserved":false,"is_disabled":false,"rental_uris":{"android":"levelo://app?vid=eb9a84f5-6092-4dc4-a3c0-a07efb437c77","ios":"levelo://app?vid=eb9a84f5-6092-4dc4-a3c0-a07efb437c77"},"vehicle_type_id":"4","last_reported":1731783974,"current_range_meters":9200,"station_id":"","pricing_plan_id":"cebpf4jnsgd1na2vs0mg"},{"bike_id":"e9d49dcc-7968-4d84-9672-1f4bfe9f605a","system_id":"levelo_inurba_marseille","lat":43.27623,"lon":5.36103,"is_reserved":false,"is_disabled":false,"rental_uris":{"android":"levelo://app?vid=e9d49dcc-7968-4d84-9672-1f4bfe9f605a","ios":"levelo://app?vid=e9d49dcc-7968-4d84-9672-1f4bfe9f605a"},"vehicle_type_id":"4","last_reported":1731783974,"current_range_meters":15200,"station_id":"ce4bgj92rcd13ifvqbe0","pricing_plan_id":"cebpf4jnsgd1na2vs0mg"},{"bike_id":"22ea48db-755d-43c3-a7d2-0beff01815d8","system_id":"levelo_inurba_marseille","lat":43.33773,"lon":5.37435,"is_reserved":false,"is_disabled":false,"rental_uris":{"android":"levelo://app?vid=22ea48db-755d-43c3-a7d2-0beff01815d8","ios":"levelo://app?vid=22ea48db-755d-43c3-a7d2-0beff01815d8"},"vehicle_type_id":"4","last_reported":1731783974,"current_range_meters":11600,"station_id":"","pricing_plan_id":"cebpf4jnsgd1na2vs0mg"},{"bike_id":"b4076924-95e1-4670-8052-a245348dc9ce","system_id":"levelo_inurba_marseille","lat":43.2781,"lon":5.40714,"is_reserved":false,"is_disabled":false,"rental_uris":{"android":"levelo://app?vid=b4076924-95e1-4670-8052-a245348dc9ce","ios":"levelo://app?vid=b4076924-95e1-4670-8052-a245348dc9ce"},"vehicle_type_id":"4","last_reported":1731783974,"current_range_meters":8400,"station_id":"ce4bhnh2rcd13ifvqgtg","pricing_plan_id":"cebpf4jnsgd1na2vs0mg"},{"bike_id":"06c47285-89e0-47a4-8c99-28aa032f9c42","system_id":"levelo_inurba_marseille","lat":43.296082,"lon":5.397827,"is_reserved":false,"is_disabled":false,"rental_uris":{"android":"levelo://app?vid=06c47285-89e0-47a4-8c99-28aa032f9c42","ios":"levelo://app?vid=06c47285-89e0-47a4-8c99-28aa032f9c42"},"vehicle_type_id":"4","last_reported":1731783974,"current_range_meters":10000,"station_id":"ce4bh3h2rcd13ifvqdo0","pricing_plan_id":"cebpf4jnsgd1na2vs0mg"},{"bike_id":"6037fd09-c259-49b4-ae09-4ddd6923e7d0","system_id":"levelo_inurba_marseille","lat":43.33718,"lon":5.39187,"is_reserved":false,"is_disabled":false,"rental_uris":{"android":"levelo://app?vid=6037fd09-c259-49b4-ae09-4ddd6923e7d0","ios":"levelo://app?vid=6037fd09-c259-49b4-ae09-4ddd6923e7d0"},"vehicle_type_id":"4","last_reported":1731783974,"current_range_meters":10800,"station_id":"ce4bhr92rcd13ifvqhsg","pricing_plan_id":"cebpf4jnsgd1na2vs0mg"},{"bike_id":"a1862017-f597-4949-a306-4d7c53cc8b86","system_id":"levelo_inurba_marseille","lat":43.24169,"lon":5.364,"is_reserved":false,"is_disabled":false,"rental_uris":{"android":"levelo://app?vid=a1862017-f597-4949-a306-4d7c53cc8b86","ios":"levelo://app?vid=a1862017-f597-4949-a306-4d7c53cc8b86"},"vehicle_type_id":"4","last_reported":1731783974,"current_range_meters":12000,"station_id":"cpo36qri1sfpv3e86is0","pricing_plan_id":"cebpf4jnsgd1na2vs0mg"},{"bike_id":"93d2376b-d24b-4c4a-bf7c-d9d7da5c25f0","system_id":"levelo_inurba_marseille","lat":43.23055,"lon":5.35493,"is_reserved":false,"is_disabled":false,"rental_uris":{"android":"levelo://app?vid=93d2376b-d24b-4c4a-bf7c-d9d7da5c25f0","ios":"levelo://app?vid=93d2376b-d24b-4c4a-bf7c-d9d7da5c25f0"},"vehicle_type_id":"4","last_reported":1731783974,"current_range_meters":15200,"station_id":"cpo3342slgdg3j2ifvpg","pricing_plan_id":"cebpf4jnsgd1na2vs0mg"},{"bike_id":"c57e7b98-4ef3-401c-b08a-dc58040a3e50","system_id":"levelo_inurba_marseille","lat":43.26931,"lon":5.38918,"is_reserved":false,"is_disabled":false,"rental_uris":{"android":"levelo://app?vid=c57e7b98-4ef3-401c-b08a-dc58040a3e50","ios":"levelo://app?vid=c57e7b98-4ef3-401c-b08a-dc58040a3e50"},"vehicle_type_id":"4","last_reported":1731783974,"current_range_meters":34800,"station_id":"ce4bhhh2rcd13ifvqfl0","pricing_plan_id":"cebpf4jnsgd1na2vs0mg"},{"bike_id":"eb0b6258-25b5-4174-825d-16bccd206154","system_id":"levelo_inurba_marseille","lat":43.33022,"lon":5.39037,"is_reserved":false,"is_disabled":false,"rental_uris":{"android":"levelo://app?vid=eb0b6258-25b5-4174-825d-16bccd206154","ios":"levelo://app?vid=eb0b6258-25b5-4174-825d-16bccd206154"},"vehicle_type_id":"4","last_reported":1731783974,"current_range_meters":8400,"station_id":"ce4bhr92rcd13ifvqhrg","pricing_plan_id":"cebpf4jnsgd1na2vs0mg"},{"bike_id":"ca655f3b-8380-4045-b3f8-8acaa0e83ede","system_id":"levelo_inurba_marseille","lat":43.33739,"lon":5.37423,"is_reserved":false,"is_disabled":false,"rental_uris":{"android":"levelo://app?vid=ca655f3b-8380-4045-b3f8-8acaa0e83ede","ios":"levelo://app?vid=ca655f3b-8380-4045-b3f8-8acaa0e83ede"},"vehicle_type_id":"4","last_reported":1731783974,"current_range_meters":36400,"station_id":"","pricing_plan_id":"cebpf4jnsgd1na2vs0mg"},{"bike_id":"aba02772-eba9-442f-8060-12d6b60326c2","system_id":"levelo_inurba_marseille","lat":43.26785,"lon":5.39415,"is_reserved":false,"is_disabled":false,"rental_uris":{"android":"levelo://app?vid=aba02772-eba9-442f-8060-12d6b60326c2","ios":"levelo://app?vid=aba02772-eba9-442f-8060-12d6b60326c2"},"vehicle_type_id":"4","last_reported":1731783974,"current_range_meters":20000,"station_id":"ce4bhh12rcd13ifvqfg0","pricing_plan_id":"cebpf4jnsgd1na2vs0mg"},{"bike_id":"3bec9701-1266-4cd8-9789-f238163e8695","system_id":"levelo_inurba_marseille","lat":43.32483,"lon":5.36566,"is_reserved":false,"is_disabled":false,"rental_uris":{"android":"levelo://app?vid=3bec9701-1266-4cd8-9789-f238163e8695","ios":"levelo://app?vid=3bec9701-1266-4cd8-9789-f238163e8695"},"vehicle_type_id":"4","last_reported":1731783974,"current_range_meters":38800,"station_id":"ce4bhs12rcd13ifvqhvg","pricing_plan_id":"cebpf4jnsgd1na2vs0mg"},{"bike_id":"a6b8c285-acc9-4039-9531-1aae39136a33","system_id":"levelo_inurba_marseille","lat":43.312042,"lon":5.367348,"is_reserved":false,"is_disabled":false,"rental_uris":{"android":"levelo://app?vid=a6b8c285-acc9-4039-9531-1aae39136a33","ios":"levelo://app?vid=a6b8c285-acc9-4039-9531-1aae39136a33"},"vehicle_type_id":"4","last_reported":1731783974,"current_range_meters":14000,"station_id":"","pricing_plan_id":"cebpf4jnsgd1na2vs0mg"},{"bike_id":"04e579be-d930-46e5-bb29-40fdc45896e1","system_id":"levelo_inurba_marseille","lat":43.326451,"lon":5.362496,"is_reserved":false,"is_disabled":false,"rental_uris":{"android":"levelo://app?vid=04e579be-d930-46e5-bb29-40fdc45896e1","ios":"levelo://app?vid=04e579be-d930-46e5-bb29-40fdc45896e1"},"vehicle_type_id":"4","last_reported":1731783974,"current_range_meters":8800,"station_id":"","pricing_plan_id":"cebpf4jnsgd1na2vs0mg"},{"bike_id":"9bcfed07-c3a6-4c68-8e2e-1c76df283863","system_id":"levelo_inurba_marseille","lat":43.24801,"lon":5.37457,"is_reserved":false,"is_disabled":false,"rental_uris":{"android":"levelo://app?vid=9bcfed07-c3a6-4c68-8e2e-1c76df283863","ios":"levelo://app?vid=9bcfed07-c3a6-4c68-8e2e-1c76df283863"},"vehicle_type_id":"4","last_reported":1731783974,"current_range_meters":28400,"station_id":"ce4bhgh2rcd13ifvqfb0","pricing_plan_id":"cebpf4jnsgd1na2vs0mg"},{"bike_id":"5c254126-8805-4ed8-9520-9f63561143b3","system_id":"levelo_inurba_marseille","lat":43.24167,"lon":5.36401,"is_reserved":false,"is_disabled":false,"rental_uris":{"android":"levelo://app?vid=5c254126-8805-4ed8-9520-9f63561143b3","ios":"levelo://app?vid=5c254126-8805-4ed8-9520-9f63561143b3"},"vehicle_type_id":"4","last_reported":1731783974,"current_range_meters":19600,"station_id":"cpo36qri1sfpv3e86is0","pricing_plan_id":"cebpf4jnsgd1na2vs0mg"},{"bike_id":"b20c2f60-9544-4da8-84fe-236810634080","system_id":"levelo_inurba_marseille","lat":43.25001,"lon":5.38924,"is_reserved":false,"is_disabled":false,"rental_uris":{"android":"levelo://app?vid=b20c2f60-9544-4da8-84fe-236810634080","ios":"levelo://app?vid=b20c2f60-9544-4da8-84fe-236810634080"},"vehicle_type_id":"4","last_reported":1731783974,"current_range_meters":28800,"station_id":"ce4bhgp2rcd13ifvqfd0","pricing_plan_id":"cebpf4jnsgd1na2vs0mg"},{"bike_id":"40ec784c-6b04-46e3-bdf7-a82b7116ca05","system_id":"levelo_inurba_marseille","lat":43.29973,"lon":5.38476,"is_reserved":false,"is_disabled":false,"rental_uris":{"android":"levelo://app?vid=40ec784c-6b04-46e3-bdf7-a82b7116ca05","ios":"levelo://app?vid=40ec784c-6b04-46e3-bdf7-a82b7116ca05"},"vehicle_type_id":"4","last_reported":1731783974,"current_range_meters":38800,"station_id":"ce4bgj92rcd13ifvqbd0","pricing_plan_id":"cebpf4jnsgd1na2vs0mg"},{"bike_id":"e6ea5851-eec6-4b9e-a94c-cbf41e5cd360","system_id":"levelo_inurba_marseille","lat":43.299683,"lon":5.384804,"is_reserved":false,"is_disabled":false,"rental_uris":{"android":"levelo://app?vid=e6ea5851-eec6-4b9e-a94c-cbf41e5cd360","ios":"levelo://app?vid=e6ea5851-eec6-4b9e-a94c-cbf41e5cd360"},"vehicle_type_id":"4","last_reported":1731783974,"current_range_meters":36400,"station_id":"ce4bgj92rcd13ifvqbd0","pricing_plan_id":"cebpf4jnsgd1na2vs0mg"},{"bike_id":"a6a073a3-29b7-4484-87c1-444d9a2c0b4a","system_id":"levelo_inurba_marseille","lat":43.29258,"lon":5.3844,"is_reserved":false,"is_disabled":false,"rental_uris":{"android":"levelo://app?vid=a6a073a3-29b7-4484-87c1-444d9a2c0b4a","ios":"levelo://app?vid=a6a073a3-29b7-4484-87c1-444d9a2c0b4a"},"vehicle_type_id":"4","last_reported":1731783974,"current_range_meters":28000,"station_id":"ce4bh692rcd13ifvqea0","pricing_plan_id":"cebpf4jnsgd1na2vs0mg"},{"bike_id":"5be80e78-ca60-4498-8daf-6774cf208d0a","system_id":"levelo_inurba_marseille","lat":43.30786,"lon":5.37637,"is_reserved":false,"is_disabled":false,"rental_uris":{"android":"levelo://app?vid=5be80e78-ca60-4498-8daf-6774cf208d0a","ios":"levelo://app?vid=5be80e78-ca60-4498-8daf-6774cf208d0a"},"vehicle_type_id":"4","last_reported":1731783974,"current_range_meters":24800,"station_id":"ce4bgv92rcd13ifvqcq0","pricing_plan_id":"cebpf4jnsgd1na2vs0mg"},{"bike_id":"776c19bb-9271-4d1b-b450-71b28ade05f5","system_id":"levelo_inurba_marseille","lat":43.23191,"lon":5.35559,"is_reserved":false,"is_disabled":false,"rental_uris":{"android":"levelo://app?vid=776c19bb-9271-4d1b-b450-71b28ade05f5","ios":"levelo://app?vid=776c19bb-9271-4d1b-b450-71b28ade05f5"},"vehicle_type_id":"4","last_reported":1731783974,"current_range_meters":38400,"station_id":"ce4bhu92rcd13ifvqi70","pricing_plan_id":"cebpf4jnsgd1na2vs0mg"},{"bike_id":"3731846e-2218-45f1-ac96-76a41185ff9d","system_id":"levelo_inurba_marseille","lat":43.24171,"lon":5.36405,"is_reserved":false,"is_disabled":false,"rental_uris":{"android":"levelo://app?vid=3731846e-2218-45f1-ac96-76a41185ff9d","ios":"levelo://app?vid=3731846e-2218-45f1-ac96-76a41185ff9d"},"vehicle_type_id":"4","last_reported":1731783974,"current_range_meters":38800,"station_id":"cpo36qri1sfpv3e86is0","pricing_plan_id":"cebpf4jnsgd1na2vs0mg"},{"bike_id":"b497c4c1-47c5-46df-89b4-3a0f01d4aeca","system_id":"levelo_inurba_marseille","lat":43.32114,"lon":5.36774,"is_reserved":false,"is_disabled":false,"rental_uris":{"android":"levelo://app?vid=b497c4c1-47c5-46df-89b4-3a0f01d4aeca","ios":"levelo://app?vid=b497c4c1-47c5-46df-89b4-3a0f01d4aeca"},"vehicle_type_id":"4","last_reported":1731783974,"current_range_meters":27600,"station_id":"ce4bhrh2rcd13ifvqhug","pricing_plan_id":"cebpf4jnsgd1na2vs0mg"},{"bike_id":"92ac4858-87d6-4ceb-8f6e-004635a816a8","system_id":"levelo_inurba_marseille","lat":43.27792,"lon":5.40724,"is_reserved":false,"is_disabled":false,"rental_uris":{"android":"levelo://app?vid=92ac4858-87d6-4ceb-8f6e-004635a816a8","ios":"levelo://app?vid=92ac4858-87d6-4ceb-8f6e-004635a816a8"},"vehicle_type_id":"4","last_reported":1731783974,"current_range_meters":30400,"station_id":"ce4bhnh2rcd13ifvqgtg","pricing_plan_id":"cebpf4jnsgd1na2vs0mg"},{"bike_id":"5837896b-5dca-4d49-b05e-cc1583710155","system_id":"levelo_inurba_marseille","lat":43.24994,"lon":5.38932,"is_reserved":false,"is_disabled":false,"rental_uris":{"android":"levelo://app?vid=5837896b-5dca-4d49-b05e-cc1583710155","ios":"levelo://app?vid=5837896b-5dca-4d49-b05e-cc1583710155"},"vehicle_type_id":"4","last_reported":1731783974,"current_range_meters":35600,"station_id":"ce4bhgp2rcd13ifvqfd0","pricing_plan_id":"cebpf4jnsgd1na2vs0mg"},{"bike_id":"69b7e34e-c2f3-461a-a5c9-b7bbc1b89787","system_id":"levelo_inurba_marseille","lat":43.30307,"lon":5.3686,"is_reserved":false,"is_disabled":false,"rental_uris":{"android":"levelo://app?vid=69b7e34e-c2f3-461a-a5c9-b7bbc1b89787","ios":"levelo://app?vid=69b7e34e-c2f3-461a-a5c9-b7bbc1b89787"},"vehicle_type_id":"4","last_reported":1731783974,"current_range_meters":12800,"station_id":"ce4bguh2rcd13ifvqckg","pricing_plan_id":"cebpf4jnsgd1na2vs0mg"},{"bike_id":"6550161e-e866-41d6-a895-7e0068dc2140","system_id":"levelo_inurba_marseille","lat":43.25721,"lon":5.41111,"is_reserved":false,"is_disabled":false,"rental_uris":{"android":"levelo://app?vid=6550161e-e866-41d6-a895-7e0068dc2140","ios":"levelo://app?vid=6550161e-e866-41d6-a895-7e0068dc2140"},"vehicle_type_id":"4","last_reported":1731783974,"current_range_meters":9200,"station_id":"ce4bhkp2rcd13ifvqgd0","pricing_plan_id":"cebpf4jnsgd1na2vs0mg"},{"bike_id":"1e8f7fc1-fdd8-43e8-ba7e-6098a2ba0405","system_id":"levelo_inurba_marseille","lat":43.27316,"lon":5.39055,"is_reserved":false,"is_disabled":false,"rental_uris":{"android":"levelo://app?vid=1e8f7fc1-fdd8-43e8-ba7e-6098a2ba0405","ios":"levelo://app?vid=1e8f7fc1-fdd8-43e8-ba7e-6098a2ba0405"},"vehicle_type_id":"4","last_reported":1731783974,"current_range_meters":30000,"station_id":"ce4bhgp2rcd13ifvqfe0","pricing_plan_id":"cebpf4jnsgd1na2vs0mg"},{"bike_id":"4f072872-5e38-4a4b-9811-1d9e60a837c4","system_id":"levelo_inurba_marseille","lat":43.23072,"lon":5.35495,"is_reserved":false,"is_disabled":false,"rental_uris":{"android":"levelo://app?vid=4f072872-5e38-4a4b-9811-1d9e60a837c4","ios":"levelo://app?vid=4f072872-5e38-4a4b-9811-1d9e60a837c4"},"vehicle_type_id":"4","last_reported":1731783974,"current_range_meters":10000,"station_id":"cpo3342slgdg3j2ifvpg","pricing_plan_id":"cebpf4jnsgd1na2vs0mg"},{"bike_id":"d7d8695b-c3f6-4441-92ab-67d6ceb80853","system_id":"levelo_inurba_marseille","lat":43.29516,"lon":5.39394,"is_reserved":false,"is_disabled":false,"rental_uris":{"android":"levelo://app?vid=d7d8695b-c3f6-4441-92ab-67d6ceb80853","ios":"levelo://app?vid=d7d8695b-c3f6-4441-92ab-67d6ceb80853"},"vehicle_type_id":"4","last_reported":1731783974,"current_range_meters":35600,"station_id":"ce4bh292rcd13ifvqdf0","pricing_plan_id":"cebpf4jnsgd1na2vs0mg"},{"bike_id":"21383402-24e9-4441-aa76-14cd9507f776","system_id":"levelo_inurba_marseille","lat":43.26956,"lon":5.38628,"is_reserved":false,"is_disabled":false,"rental_uris":{"android":"levelo://app?vid=21383402-24e9-4441-aa76-14cd9507f776","ios":"levelo://app?vid=21383402-24e9-4441-aa76-14cd9507f776"},"vehicle_type_id":"4","last_reported":1731783974,"current_range_meters":38000,"station_id":"ce4bhh92rcd13ifvqfh0","pricing_plan_id":"cebpf4jnsgd1na2vs0mg"},{"bike_id":"a925a68e-f982-4993-9184-96298fb198c2","system_id":"levelo_inurba_marseille","lat":43.31998,"lon":5.38152,"is_reserved":false,"is_disabled":false,"rental_uris":{"android":"levelo://app?vid=a925a68e-f982-4993-9184-96298fb198c2","ios":"levelo://app?vid=a925a68e-f982-4993-9184-96298fb198c2"},"vehicle_type_id":"4","last_reported":1731783974,"current_range_meters":22000,"station_id":"ce4bhr12rcd13ifvqhpg","pricing_plan_id":"cebpf4jnsgd1na2vs0mg"},{"bike_id":"e79c1d71-1ce6-4d60-8fff-1fc1acef8ee4","system_id":"levelo_inurba_marseille","lat":43.23959,"lon":5.36631,"is_reserved":false,"is_disabled":false,"rental_uris":{"android":"levelo://app?vid=e79c1d71-1ce6-4d60-8fff-1fc1acef8ee4","ios":"levelo://app?vid=e79c1d71-1ce6-4d60-8fff-1fc1acef8ee4"},"vehicle_type_id":"4","last_reported":1731783974,"current_range_meters":22800,"station_id":"ce4bhi12rcd13ifvqfp0","pricing_plan_id":"cebpf4jnsgd1na2vs0mg"},{"bike_id":"a84f5389-258d-4508-9c0f-32ee5d326b43","system_id":"levelo_inurba_marseille","lat":43.33767,"lon":5.37475,"is_reserved":false,"is_disabled":false,"rental_uris":{"android":"levelo://app?vid=a84f5389-258d-4508-9c0f-32ee5d326b43","ios":"levelo://app?vid=a84f5389-258d-4508-9c0f-32ee5d326b43"},"vehicle_type_id":"4","last_reported":1731783974,"current_range_meters":33200,"station_id":"","pricing_plan_id":"cebpf4jnsgd1na2vs0mg"},{"bike_id":"23f3264b-9da6-4949-9209-a1440ddb9541","system_id":"levelo_inurba_marseille","lat":43.29565,"lon":5.39966,"is_reserved":false,"is_disabled":false,"rental_uris":{"android":"levelo://app?vid=23f3264b-9da6-4949-9209-a1440ddb9541","ios":"levelo://app?vid=23f3264b-9da6-4949-9209-a1440ddb9541"},"vehicle_type_id":"4","last_reported":1731783974,"current_range_meters":30800,"station_id":"ce4bh312rcd13ifvqdj0","pricing_plan_id":"cebpf4jnsgd1na2vs0mg"},{"bike_id":"382b4f83-5661-4d99-8a45-dd37126a30b9","system_id":"levelo_inurba_marseille","lat":43.29597,"lon":5.38092,"is_reserved":false,"is_disabled":false,"rental_uris":{"android":"levelo://app?vid=382b4f83-5661-4d99-8a45-dd37126a30b9","ios":"levelo://app?vid=382b4f83-5661-4d99-8a45-dd37126a30b9"},"vehicle_type_id":"4","last_reported":1731783974,"current_range_meters":36800,"station_id":"ce4bgl12rcd13ifvqbo0","pricing_plan_id":"cebpf4jnsgd1na2vs0mg"},{"bike_id":"69ad85ed-6fe5-4d89-9222-391cb77842a9","system_id":"levelo_inurba_marseille","lat":43.25082,"lon":5.39506,"is_reserved":false,"is_disabled":false,"rental_uris":{"android":"levelo://app?vid=69ad85ed-6fe5-4d89-9222-391cb77842a9","ios":"levelo://app?vid=69ad85ed-6fe5-4d89-9222-391cb77842a9"},"vehicle_type_id":"4","last_reported":1731783974,"current_range_meters":38800,"station_id":"ce4bhm12rcd13ifvqgkg","pricing_plan_id":"cebpf4jnsgd1na2vs0mg"},{"bike_id":"b5ce9235-4ffb-4d40-a9ab-7ab7ce5a79f6","system_id":"levelo_inurba_marseille","lat":43.24813,"lon":5.37465,"is_reserved":false,"is_disabled":false,"rental_uris":{"android":"levelo://app?vid=b5ce9235-4ffb-4d40-a9ab-7ab7ce5a79f6","ios":"levelo://app?vid=b5ce9235-4ffb-4d40-a9ab-7ab7ce5a79f6"},"vehicle_type_id":"4","last_reported":1731783974,"current_range_meters":38400,"station_id":"ce4bhgh2rcd13ifvqfb0","pricing_plan_id":"cebpf4jnsgd1na2vs0mg"},{"bike_id":"0bdc4ebb-8ae3-48a0-915a-ada36e03fd3e","system_id":"levelo_inurba_marseille","lat":43.27898,"lon":5.37992,"is_reserved":false,"is_disabled":false,"rental_uris":{"android":"levelo://app?vid=0bdc4ebb-8ae3-48a0-915a-ada36e03fd3e","ios":"levelo://app?vid=0bdc4ebb-8ae3-48a0-915a-ada36e03fd3e"},"vehicle_type_id":"4","last_reported":1731783974,"current_range_meters":38800,"station_id":"ce4bhf92rcd13ifvqf50","pricing_plan_id":"cebpf4jnsgd1na2vs0mg"},{"bike_id":"23dc3eca-7aa2-42ee-a821-5901eae129f9","system_id":"levelo_inurba_marseille","lat":43.32367,"lon":5.38884,"is_reserved":false,"is_disabled":false,"rental_uris":{"android":"levelo://app?vid=23dc3eca-7aa2-42ee-a821-5901eae129f9","ios":"levelo://app?vid=23dc3eca-7aa2-42ee-a821-5901eae129f9"},"vehicle_type_id":"4","last_reported":1731783974,"current_range_meters":8000,"station_id":"ce4bhqp2rcd13ifvqhog","pricing_plan_id":"cebpf4jnsgd1na2vs0mg"},{"bike_id":"ae7aa9df-9b30-4ca1-9d8c-301e689f0c14","system_id":"levelo_inurba_marseille","lat":43.33733,"lon":5.39196,"is_reserved":false,"is_disabled":false,"rental_uris":{"android":"levelo://app?vid=ae7aa9df-9b30-4ca1-9d8c-301e689f0c14","ios":"levelo://app?vid=ae7aa9df-9b30-4ca1-9d8c-301e689f0c14"},"vehicle_type_id":"4","last_reported":1731783974,"current_range_meters":21600,"station_id":"ce4bhr92rcd13ifvqhsg","pricing_plan_id":"cebpf4jnsgd1na2vs0mg"},{"bike_id":"6d6992bf-ade3-4a22-a168-306dafdc4544","system_id":"levelo_inurba_marseille","lat":43.24175,"lon":5.36395,"is_reserved":false,"is_disabled":false,"rental_uris":{"android":"levelo://app?vid=6d6992bf-ade3-4a22-a168-306dafdc4544","ios":"levelo://app?vid=6d6992bf-ade3-4a22-a168-306dafdc4544"},"vehicle_type_id":"4","last_reported":1731783974,"current_range_meters":32400,"station_id":"cpo36qri1sfpv3e86is0","pricing_plan_id":"cebpf4jnsgd1na2vs0mg"},{"bike_id":"074c6971-4ae7-4906-8673-1607af29a7e1","system_id":"levelo_inurba_marseille","lat":43.25092,"lon":5.39502,"is_reserved":false,"is_disabled":false,"rental_uris":{"android":"levelo://app?vid=074c6971-4ae7-4906-8673-1607af29a7e1","ios":"levelo://app?vid=074c6971-4ae7-4906-8673-1607af29a7e1"},"vehicle_type_id":"4","last_reported":1731783974,"current_range_meters":32000,"station_id":"ce4bhm12rcd13ifvqgkg","pricing_plan_id":"cebpf4jnsgd1na2vs0mg"},{"bike_id":"17969969-d259-461b-b03e-5c0bba5d26d7","system_id":"levelo_inurba_marseille","lat":43.24807,"lon":5.37458,"is_reserved":false,"is_disabled":false,"rental_uris":{"android":"levelo://app?vid=17969969-d259-461b-b03e-5c0bba5d26d7","ios":"levelo://app?vid=17969969-d259-461b-b03e-5c0bba5d26d7"},"vehicle_type_id":"4","last_reported":1731783974,"current_range_meters":24400,"station_id":"ce4bhgh2rcd13ifvqfb0","pricing_plan_id":"cebpf4jnsgd1na2vs0mg"},{"bike_id":"f7612cb9-64e6-456e-b407-47173cb6e342","system_id":"levelo_inurba_marseille","lat":43.28613,"lon":5.37064,"is_reserved":false,"is_disabled":false,"rental_uris":{"android":"levelo://app?vid=f7612cb9-64e6-456e-b407-47173cb6e342","ios":"levelo://app?vid=f7612cb9-64e6-456e-b407-47173cb6e342"},"vehicle_type_id":"4","last_reported":1731783974,"current_range_meters":8400,"station_id":"ce4bht12rcd13ifvqi60","pricing_plan_id":"cebpf4jnsgd1na2vs0mg"},{"bike_id":"24a23838-7843-4efd-8eaf-babf0ec81a3d","system_id":"levelo_inurba_marseille","lat":43.28413,"lon":5.37514,"is_reserved":false,"is_disabled":false,"rental_uris":{"android":"levelo://app?vid=24a23838-7843-4efd-8eaf-babf0ec81a3d","ios":"levelo://app?vid=24a23838-7843-4efd-8eaf-babf0ec81a3d"},"vehicle_type_id":"4","last_reported":1731783974,"current_range_meters":33600,"station_id":"ce4bh412rcd13ifvqds0","pricing_plan_id":"cebpf4jnsgd1na2vs0mg"},{"bike_id":"d475eb6d-87b7-4072-be9b-9a6404c36ac4","system_id":"levelo_inurba_marseille","lat":43.29876,"lon":5.39725,"is_reserved":false,"is_disabled":false,"rental_uris":{"android":"levelo://app?vid=d475eb6d-87b7-4072-be9b-9a6404c36ac4","ios":"levelo://app?vid=d475eb6d-87b7-4072-be9b-9a6404c36ac4"},"vehicle_type_id":"4","last_reported":1731783974,"current_range_meters":30000,"station_id":"ce4bh0h2rcd13ifvqd50","pricing_plan_id":"cebpf4jnsgd1na2vs0mg"},{"bike_id":"f977d484-43b9-4a08-9f25-946507f2ea63","system_id":"levelo_inurba_marseille","lat":43.31422,"lon":5.37396,"is_reserved":false,"is_disabled":false,"rental_uris":{"android":"levelo://app?vid=f977d484-43b9-4a08-9f25-946507f2ea63","ios":"levelo://app?vid=f977d484-43b9-4a08-9f25-946507f2ea63"},"vehicle_type_id":"4","last_reported":1731783974,"current_range_meters":23200,"station_id":"","pricing_plan_id":"cebpf4jnsgd1na2vs0mg"},{"bike_id":"11485639-5d98-46f2-8414-019452d65302","system_id":"levelo_inurba_marseille","lat":43.303,"lon":5.37696,"is_reserved":false,"is_disabled":false,"rental_uris":{"android":"levelo://app?vid=11485639-5d98-46f2-8414-019452d65302","ios":"levelo://app?vid=11485639-5d98-46f2-8414-019452d65302"},"vehicle_type_id":"4","last_reported":1731783974,"current_range_meters":38400,"station_id":"ce4bguh2rcd13ifvqcj0","pricing_plan_id":"cebpf4jnsgd1na2vs0mg"},{"bike_id":"f4a61eed-bb37-452a-8346-0e727fddab89","system_id":"levelo_inurba_marseille","lat":43.29967,"lon":5.38497,"is_reserved":false,"is_disabled":false,"rental_uris":{"android":"levelo://app?vid=f4a61eed-bb37-452a-8346-0e727fddab89","ios":"levelo://app?vid=f4a61eed-bb37-452a-8346-0e727fddab89"},"vehicle_type_id":"4","last_reported":1731783974,"current_range_meters":6800,"station_id":"","pricing_plan_id":"cebpf4jnsgd1na2vs0mg"},{"bike_id":"20f256c9-a4c1-486d-83bc-b5fc0afa0d8f","system_id":"levelo_inurba_marseille","lat":43.30793,"lon":5.43503,"is_reserved":false,"is_disabled":false,"rental_uris":{"android":"levelo://app?vid=20f256c9-a4c1-486d-83bc-b5fc0afa0d8f","ios":"levelo://app?vid=20f256c9-a4c1-486d-83bc-b5fc0afa0d8f"},"vehicle_type_id":"4","last_reported":1731783974,"current_range_meters":40000,"station_id":"ce4bhph2rcd13ifvqheg","pricing_plan_id":"cebpf4jnsgd1na2vs0mg"},{"bike_id":"4ee4605c-22f2-4532-b44d-f5fb03fd5142","system_id":"levelo_inurba_marseille","lat":43.30797,"lon":5.43519,"is_reserved":false,"is_disabled":false,"rental_uris":{"android":"levelo://app?vid=4ee4605c-22f2-4532-b44d-f5fb03fd5142","ios":"levelo://app?vid=4ee4605c-22f2-4532-b44d-f5fb03fd5142"},"vehicle_type_id":"4","last_reported":1731783974,"current_range_meters":12800,"station_id":"ce4bhph2rcd13ifvqheg","pricing_plan_id":"cebpf4jnsgd1na2vs0mg"},{"bike_id":"82d52ec1-cf83-4b9e-8643-38a7594316f2","system_id":"levelo_inurba_marseille","lat":43.24164,"lon":5.39738,"is_reserved":false,"is_disabled":false,"rental_uris":{"android":"levelo://app?vid=82d52ec1-cf83-4b9e-8643-38a7594316f2","ios":"levelo://app?vid=82d52ec1-cf83-4b9e-8643-38a7594316f2"},"vehicle_type_id":"4","last_reported":1731783974,"current_range_meters":8800,"station_id":"ce4bhn12rcd13ifvqgpg","pricing_plan_id":"cebpf4jnsgd1na2vs0mg"},{"bike_id":"d12776dd-7ba2-49d7-a666-159758337c79","system_id":"levelo_inurba_marseille","lat":43.32474,"lon":5.3658,"is_reserved":false,"is_disabled":false,"rental_uris":{"android":"levelo://app?vid=d12776dd-7ba2-49d7-a666-159758337c79","ios":"levelo://app?vid=d12776dd-7ba2-49d7-a666-159758337c79"},"vehicle_type_id":"4","last_reported":1731783974,"current_range_meters":38800,"station_id":"ce4bhs12rcd13ifvqhvg","pricing_plan_id":"cebpf4jnsgd1na2vs0mg"},{"bike_id":"472bd455-91fe-412d-93d6-bb8bc6e2eafd","system_id":"levelo_inurba_marseille","lat":43.29288,"lon":5.36845,"is_reserved":false,"is_disabled":false,"rental_uris":{"android":"levelo://app?vid=472bd455-91fe-412d-93d6-bb8bc6e2eafd","ios":"levelo://app?vid=472bd455-91fe-412d-93d6-bb8bc6e2eafd"},"vehicle_type_id":"4","last_reported":1731783974,"current_range_meters":5600,"station_id":"ce4bhbp2rcd13ifvqesg","pricing_plan_id":"cebpf4jnsgd1na2vs0mg"},{"bike_id":"fbafa770-936c-4a63-aa79-05d0d9c3438c","system_id":"levelo_inurba_marseille","lat":43.28675,"lon":5.38673,"is_reserved":false,"is_disabled":false,"rental_uris":{"android":"levelo://app?vid=fbafa770-936c-4a63-aa79-05d0d9c3438c","ios":"levelo://app?vid=fbafa770-936c-4a63-aa79-05d0d9c3438c"},"vehicle_type_id":"4","last_reported":1731783974,"current_range_meters":18000,"station_id":"ce4bh492rcd13ifvqdug","pricing_plan_id":"cebpf4jnsgd1na2vs0mg"},{"bike_id":"d4775f56-8908-488d-8360-95a3b9066370","system_id":"levelo_inurba_marseille","lat":43.26794,"lon":5.39414,"is_reserved":false,"is_disabled":false,"rental_uris":{"android":"levelo://app?vid=d4775f56-8908-488d-8360-95a3b9066370","ios":"levelo://app?vid=d4775f56-8908-488d-8360-95a3b9066370"},"vehicle_type_id":"4","last_reported":1731783974,"current_range_meters":22800,"station_id":"ce4bhh12rcd13ifvqfg0","pricing_plan_id":"cebpf4jnsgd1na2vs0mg"},{"bike_id":"022f478e-da93-4eda-9d1b-2d0e36905c07","system_id":"levelo_inurba_marseille","lat":43.33761,"lon":5.37436,"is_reserved":false,"is_disabled":false,"rental_uris":{"android":"levelo://app?vid=022f478e-da93-4eda-9d1b-2d0e36905c07","ios":"levelo://app?vid=022f478e-da93-4eda-9d1b-2d0e36905c07"},"vehicle_type_id":"4","last_reported":1731783974,"current_range_meters":16000,"station_id":"","pricing_plan_id":"cebpf4jnsgd1na2vs0mg"},{"bike_id":"3c7108fb-85fe-43b6-95ce-e6a5e6d34b1a","system_id":"levelo_inurba_marseille","lat":43.33731,"lon":5.39181,"is_reserved":false,"is_disabled":false,"rental_uris":{"android":"levelo://app?vid=3c7108fb-85fe-43b6-95ce-e6a5e6d34b1a","ios":"levelo://app?vid=3c7108fb-85fe-43b6-95ce-e6a5e6d34b1a"},"vehicle_type_id":"4","last_reported":1731783974,"current_range_meters":30400,"station_id":"ce4bhr92rcd13ifvqhsg","pricing_plan_id":"cebpf4jnsgd1na2vs0mg"},{"bike_id":"a55b7fe4-9578-4c32-99bf-91569446968f","system_id":"levelo_inurba_marseille","lat":43.26951,"lon":5.3863,"is_reserved":false,"is_disabled":false,"rental_uris":{"android":"levelo://app?vid=a55b7fe4-9578-4c32-99bf-91569446968f","ios":"levelo://app?vid=a55b7fe4-9578-4c32-99bf-91569446968f"},"vehicle_type_id":"4","last_reported":1731783974,"current_range_meters":38000,"station_id":"ce4bhh92rcd13ifvqfh0","pricing_plan_id":"cebpf4jnsgd1na2vs0mg"},{"bike_id":"73478797-105d-4789-81c6-684e471f3436","system_id":"levelo_inurba_marseille","lat":43.29259,"lon":5.38442,"is_reserved":false,"is_disabled":false,"rental_uris":{"android":"levelo://app?vid=73478797-105d-4789-81c6-684e471f3436","ios":"levelo://app?vid=73478797-105d-4789-81c6-684e471f3436"},"vehicle_type_id":"4","last_reported":1731783974,"current_range_meters":34800,"station_id":"ce4bh692rcd13ifvqea0","pricing_plan_id":"cebpf4jnsgd1na2vs0mg"},{"bike_id":"cda4f533-8733-4307-807d-9c1677b28a30","system_id":"levelo_inurba_marseille","lat":43.3127,"lon":5.4017,"is_reserved":false,"is_disabled":false,"rental_uris":{"android":"levelo://app?vid=cda4f533-8733-4307-807d-9c1677b28a30","ios":"levelo://app?vid=cda4f533-8733-4307-807d-9c1677b28a30"},"vehicle_type_id":"4","last_reported":1731783974,"current_range_meters":38000,"station_id":"ce4bh092rcd13ifvqd30","pricing_plan_id":"cebpf4jnsgd1na2vs0mg"},{"bike_id":"251d8918-1250-4853-9293-89ee39d3be92","system_id":"levelo_inurba_marseille","lat":43.33022,"lon":5.39038,"is_reserved":false,"is_disabled":false,"rental_uris":{"android":"levelo://app?vid=251d8918-1250-4853-9293-89ee39d3be92","ios":"levelo://app?vid=251d8918-1250-4853-9293-89ee39d3be92"},"vehicle_type_id":"4","last_reported":1731783974,"current_range_meters":35600,"station_id":"ce4bhr92rcd13ifvqhrg","pricing_plan_id":"cebpf4jnsgd1na2vs0mg"},{"bike_id":"d95b4d50-3556-45fe-8cbb-c33d5fd58715","system_id":"levelo_inurba_marseille","lat":43.32292,"lon":5.38275,"is_reserved":false,"is_disabled":false,"rental_uris":{"android":"levelo://app?vid=d95b4d50-3556-45fe-8cbb-c33d5fd58715","ios":"levelo://app?vid=d95b4d50-3556-45fe-8cbb-c33d5fd58715"},"vehicle_type_id":"4","last_reported":1731783974,"current_range_meters":8000,"station_id":"ce4bhr12rcd13ifvqhqg","pricing_plan_id":"cebpf4jnsgd1na2vs0mg"},{"bike_id":"809471e3-ec39-4f2b-b271-49c8263623d6","system_id":"levelo_inurba_marseille","lat":43.25009,"lon":5.38865,"is_reserved":false,"is_disabled":false,"rental_uris":{"android":"levelo://app?vid=809471e3-ec39-4f2b-b271-49c8263623d6","ios":"levelo://app?vid=809471e3-ec39-4f2b-b271-49c8263623d6"},"vehicle_type_id":"4","last_reported":1731783974,"current_range_meters":39200,"station_id":"ce4bhgp2rcd13ifvqfd0","pricing_plan_id":"cebpf4jnsgd1na2vs0mg"},{"bike_id":"fcb28ae1-5229-40b3-ab6f-8cef3f0d2bc7","system_id":"levelo_inurba_marseille","lat":43.29417,"lon":5.38623,"is_reserved":false,"is_disabled":false,"rental_uris":{"android":"levelo://app?vid=fcb28ae1-5229-40b3-ab6f-8cef3f0d2bc7","ios":"levelo://app?vid=fcb28ae1-5229-40b3-ab6f-8cef3f0d2bc7"},"vehicle_type_id":"4","last_reported":1731783974,"current_range_meters":19200,"station_id":"ce4bh2h2rcd13ifvqdh0","pricing_plan_id":"cebpf4jnsgd1na2vs0mg"},{"bike_id":"5110802c-078e-471a-ae0a-a899f47d3c7b","system_id":"levelo_inurba_marseille","lat":43.28408,"lon":5.37508,"is_reserved":false,"is_disabled":false,"rental_uris":{"android":"levelo://app?vid=5110802c-078e-471a-ae0a-a899f47d3c7b","ios":"levelo://app?vid=5110802c-078e-471a-ae0a-a899f47d3c7b"},"vehicle_type_id":"4","last_reported":1731783974,"current_range_meters":4000,"station_id":"ce4bh412rcd13ifvqds0","pricing_plan_id":"cebpf4jnsgd1na2vs0mg"},{"bike_id":"9e5dc250-b6a5-41ce-8a87-894e843c1424","system_id":"levelo_inurba_marseille","lat":43.28029,"lon":5.36935,"is_reserved":false,"is_disabled":false,"rental_uris":{"android":"levelo://app?vid=9e5dc250-b6a5-41ce-8a87-894e843c1424","ios":"levelo://app?vid=9e5dc250-b6a5-41ce-8a87-894e843c1424"},"vehicle_type_id":"4","last_reported":1731783974,"current_range_meters":38800,"station_id":"ce4bha12rcd13ifvqef0","pricing_plan_id":"cebpf4jnsgd1na2vs0mg"},{"bike_id":"ddcf2083-2477-42a7-b76d-c98616de5dcb","system_id":"levelo_inurba_marseille","lat":43.26031,"lon":5.37548,"is_reserved":false,"is_disabled":false,"rental_uris":{"android":"levelo://app?vid=ddcf2083-2477-42a7-b76d-c98616de5dcb","ios":"levelo://app?vid=ddcf2083-2477-42a7-b76d-c98616de5dcb"},"vehicle_type_id":"4","last_reported":1731783974,"current_range_meters":27600,"station_id":"ce4bhgh2rcd13ifvqfa0","pricing_plan_id":"cebpf4jnsgd1na2vs0mg"},{"bike_id":"da15e65e-16f4-46d4-a568-d34d06f99fda","system_id":"levelo_inurba_marseille","lat":43.24165,"lon":5.36401,"is_reserved":false,"is_disabled":false,"rental_uris":{"android":"levelo://app?vid=da15e65e-16f4-46d4-a568-d34d06f99fda","ios":"levelo://app?vid=da15e65e-16f4-46d4-a568-d34d06f99fda"},"vehicle_type_id":"4","last_reported":1731783974,"current_range_meters":32000,"station_id":"cpo36qri1sfpv3e86is0","pricing_plan_id":"cebpf4jnsgd1na2vs0mg"},{"bike_id":"92ae6e09-1f39-49c2-9455-cdbd4d0c4b63","system_id":"levelo_inurba_marseille","lat":43.292,"lon":5.40002,"is_reserved":false,"is_disabled":false,"rental_uris":{"android":"levelo://app?vid=92ae6e09-1f39-49c2-9455-cdbd4d0c4b63","ios":"levelo://app?vid=92ae6e09-1f39-49c2-9455-cdbd4d0c4b63"},"vehicle_type_id":"4","last_reported":1731783974,"current_range_meters":18000,"station_id":"","pricing_plan_id":"cebpf4jnsgd1na2vs0mg"},{"bike_id":"0defbaaf-820c-412e-8e18-87120d39f4b3","system_id":"levelo_inurba_marseille","lat":43.31992,"lon":5.38142,"is_reserved":false,"is_disabled":false,"rental_uris":{"android":"levelo://app?vid=0defbaaf-820c-412e-8e18-87120d39f4b3","ios":"levelo://app?vid=0defbaaf-820c-412e-8e18-87120d39f4b3"},"vehicle_type_id":"4","last_reported":1731783974,"current_range_meters":39200,"station_id":"ce4bhr12rcd13ifvqhpg","pricing_plan_id":"cebpf4jnsgd1na2vs0mg"},{"bike_id":"b9a0692f-1f3a-4fe8-bf07-b346390bcd78","system_id":"levelo_inurba_marseille","lat":43.32103,"lon":5.38111,"is_reserved":false,"is_disabled":false,"rental_uris":{"android":"levelo://app?vid=b9a0692f-1f3a-4fe8-bf07-b346390bcd78","ios":"levelo://app?vid=b9a0692f-1f3a-4fe8-bf07-b346390bcd78"},"vehicle_type_id":"4","last_reported":1731783974,"current_range_meters":30400,"station_id":"","pricing_plan_id":"cebpf4jnsgd1na2vs0mg"},{"bike_id":"442c0903-f40e-4bdf-be0d-6587cc076f59","system_id":"levelo_inurba_marseille","lat":43.23192,"lon":5.35555,"is_reserved":false,"is_disabled":false,"rental_uris":{"android":"levelo://app?vid=442c0903-f40e-4bdf-be0d-6587cc076f59","ios":"levelo://app?vid=442c0903-f40e-4bdf-be0d-6587cc076f59"},"vehicle_type_id":"4","last_reported":1731783974,"current_range_meters":38400,"station_id":"ce4bhu92rcd13ifvqi70","pricing_plan_id":"cebpf4jnsgd1na2vs0mg"},{"bike_id":"db202ba6-180b-44d8-949b-f1ce1e0f736b","system_id":"levelo_inurba_marseille","lat":43.29842,"lon":5.36275,"is_reserved":false,"is_disabled":false,"rental_uris":{"android":"levelo://app?vid=db202ba6-180b-44d8-949b-f1ce1e0f736b","ios":"levelo://app?vid=db202ba6-180b-44d8-949b-f1ce1e0f736b"},"vehicle_type_id":"4","last_reported":1731783974,"current_range_meters":10800,"station_id":"ce4bgpp2rcd13ifvqc3g","pricing_plan_id":"cebpf4jnsgd1na2vs0mg"},{"bike_id":"8d0bd407-b632-47e2-ae0a-24746a24d7bf","system_id":"levelo_inurba_marseille","lat":43.29566,"lon":5.37515,"is_reserved":false,"is_disabled":false,"rental_uris":{"android":"levelo://app?vid=8d0bd407-b632-47e2-ae0a-24746a24d7bf","ios":"levelo://app?vid=8d0bd407-b632-47e2-ae0a-24746a24d7bf"},"vehicle_type_id":"4","last_reported":1731783974,"current_range_meters":34800,"station_id":"ce4bgh92rcd13ifvqb50","pricing_plan_id":"cebpf4jnsgd1na2vs0mg"},{"bike_id":"1c4774a7-a2d4-4020-9a1a-c36e307e75d8","system_id":"levelo_inurba_marseille","lat":43.32363,"lon":5.38877,"is_reserved":false,"is_disabled":false,"rental_uris":{"android":"levelo://app?vid=1c4774a7-a2d4-4020-9a1a-c36e307e75d8","ios":"levelo://app?vid=1c4774a7-a2d4-4020-9a1a-c36e307e75d8"},"vehicle_type_id":"4","last_reported":1731783974,"current_range_meters":25600,"station_id":"ce4bhqp2rcd13ifvqhog","pricing_plan_id":"cebpf4jnsgd1na2vs0mg"},{"bike_id":"fe044a61-f10d-4bd7-84b9-a7a5b6d86113","system_id":"levelo_inurba_marseille","lat":43.308019,"lon":5.435278,"is_reserved":false,"is_disabled":false,"rental_uris":{"android":"levelo://app?vid=fe044a61-f10d-4bd7-84b9-a7a5b6d86113","ios":"levelo://app?vid=fe044a61-f10d-4bd7-84b9-a7a5b6d86113"},"vehicle_type_id":"4","last_reported":1731783974,"current_range_meters":38800,"station_id":"ce4bhph2rcd13ifvqheg","pricing_plan_id":"cebpf4jnsgd1na2vs0mg"},{"bike_id":"6f99dfa7-27dd-4f55-8dd7-7fb95f967d28","system_id":"levelo_inurba_marseille","lat":43.27957,"lon":5.387347,"is_reserved":false,"is_disabled":false,"rental_uris":{"android":"levelo://app?vid=6f99dfa7-27dd-4f55-8dd7-7fb95f967d28","ios":"levelo://app?vid=6f99dfa7-27dd-4f55-8dd7-7fb95f967d28"},"vehicle_type_id":"4","last_reported":1731783974,"current_range_meters":36800,"station_id":"ce4bhnh2rcd13ifvqgtg","pricing_plan_id":"cebpf4jnsgd1na2vs0mg"},{"bike_id":"5962e039-9036-4944-b5c6-f1a6c4a87b96","system_id":"levelo_inurba_marseille","lat":43.28034,"lon":5.36942,"is_reserved":false,"is_disabled":false,"rental_uris":{"android":"levelo://app?vid=5962e039-9036-4944-b5c6-f1a6c4a87b96","ios":"levelo://app?vid=5962e039-9036-4944-b5c6-f1a6c4a87b96"},"vehicle_type_id":"4","last_reported":1731783974,"current_range_meters":32000,"station_id":"ce4bha12rcd13ifvqef0","pricing_plan_id":"cebpf4jnsgd1na2vs0mg"},{"bike_id":"0cf92e02-9711-4bbf-a4c8-e1d6bc246a00","system_id":"levelo_inurba_marseille","lat":43.3041,"lon":5.38889,"is_reserved":false,"is_disabled":false,"rental_uris":{"android":"levelo://app?vid=0cf92e02-9711-4bbf-a4c8-e1d6bc246a00","ios":"levelo://app?vid=0cf92e02-9711-4bbf-a4c8-e1d6bc246a00"},"vehicle_type_id":"4","last_reported":1731783974,"current_range_meters":32000,"station_id":"ce4bgk12rcd13ifvqbi0","pricing_plan_id":"cebpf4jnsgd1na2vs0mg"},{"bike_id":"7d7d12f3-12a1-47c8-b4ba-b8a4e0a8b2cd","system_id":"levelo_inurba_marseille","lat":43.24646,"lon":5.38889,"is_reserved":false,"is_disabled":false,"rental_uris":{"android":"levelo://app?vid=7d7d12f3-12a1-47c8-b4ba-b8a4e0a8b2cd","ios":"levelo://app?vid=7d7d12f3-12a1-47c8-b4ba-b8a4e0a8b2cd"},"vehicle_type_id":"4","last_reported":1731783974,"current_range_meters":27600,"station_id":"ce4bhg12rcd13ifvqf60","pricing_plan_id":"cebpf4jnsgd1na2vs0mg"},{"bike_id":"3d1e60ca-0ef4-4d61-bde3-33dddb055cfa","system_id":"levelo_inurba_marseille","lat":43.29533,"lon":5.38549,"is_reserved":false,"is_disabled":false,"rental_uris":{"android":"levelo://app?vid=3d1e60ca-0ef4-4d61-bde3-33dddb055cfa","ios":"levelo://app?vid=3d1e60ca-0ef4-4d61-bde3-33dddb055cfa"},"vehicle_type_id":"4","last_reported":1731783974,"current_range_meters":38800,"station_id":"ce4bgih2rcd13ifvqba0","pricing_plan_id":"cebpf4jnsgd1na2vs0mg"},{"bike_id":"8aefca5b-62f0-43b0-b217-04e1a89378cc","system_id":"levelo_inurba_marseille","lat":43.2895,"lon":5.3664,"is_reserved":false,"is_disabled":false,"rental_uris":{"android":"levelo://app?vid=8aefca5b-62f0-43b0-b217-04e1a89378cc","ios":"levelo://app?vid=8aefca5b-62f0-43b0-b217-04e1a89378cc"},"vehicle_type_id":"4","last_reported":1731783974,"current_range_meters":22400,"station_id":"ce4bhap2rcd13ifvqek0","pricing_plan_id":"cebpf4jnsgd1na2vs0mg"},{"bike_id":"21d98bf0-03c3-4a4e-bc00-2daa40e0d68e","system_id":"levelo_inurba_marseille","lat":43.27817,"lon":5.40712,"is_reserved":false,"is_disabled":false,"rental_uris":{"android":"levelo://app?vid=21d98bf0-03c3-4a4e-bc00-2daa40e0d68e","ios":"levelo://app?vid=21d98bf0-03c3-4a4e-bc00-2daa40e0d68e"},"vehicle_type_id":"4","last_reported":1731783974,"current_range_meters":28800,"station_id":"ce4bhnh2rcd13ifvqgtg","pricing_plan_id":"cebpf4jnsgd1na2vs0mg"},{"bike_id":"085cc803-9e3a-4ef5-a415-cc75d2d9e877","system_id":"levelo_inurba_marseille","lat":43.2951,"lon":5.37496,"is_reserved":false,"is_disabled":false,"rental_uris":{"android":"levelo://app?vid=085cc803-9e3a-4ef5-a415-cc75d2d9e877","ios":"levelo://app?vid=085cc803-9e3a-4ef5-a415-cc75d2d9e877"},"vehicle_type_id":"4","last_reported":1731783974,"current_range_meters":20800,"station_id":"ce4bgkp2rcd13ifvqbmg","pricing_plan_id":"cebpf4jnsgd1na2vs0mg"},