{"last_updated":1737447122,"ttl":60,"version":"2.2","data":{"bikes":[{"bike_id":"2d837e6e-a55b-44a6-8c8b-9ab1fd8a260a","system_id":"levelo_inurba_marseille","lat":43.31085,"lon":5.42451,"is_reserved":false,"is_disabled":false,"rental_uris":{"android":"levelo://app?vid=2d837e6e-a55b-44a6-8c8b-9ab1fd8a260a","ios":"levelo://app?vid=2d837e6e-a55b-44a6-8c8b-9ab1fd8a260a"},"vehicle_type_id":"4","last_reported":1737447122,"current_range_meters":38800,"station_id":"ce4bhp92rcd13ifvqhag","pricing_plan_id":"cebpf4jnsgd1na2vs0mg"},{"bike_id":"b35cfe77-c215-418b-b426-ecaffb61c8e9","system_id":"levelo_inurba_marseille","lat":43.30948,"lon":5.39037,"is_reserved":false,"is_disabled":false,"rental_uris":{"android":"levelo://app?vid=b35cfe77-c215-418b-b426-ecaffb61c8e9","ios":"levelo://app?vid=b35cfe77-c215-418b-b426-ecaffb61c8e9"},"vehicle_type_id":"4","last_reported":1737447122,"current_range_meters":32400,"station_id":"ce4bgup2rcd13ifvqco0","pricing_plan_id":"cebpf4jnsgd1na2vs0mg"},{"bike_id":"4494fd7f-0fd7-43e9-b3b0-b1d616d3bd72","system_id":"levelo_inurba_marseille","lat":43.2903,"lon":5.37561,"is_reserved":false,"is_disabled":false,"rental_uris":{"android":"levelo://app?vid=4494fd7f-0fd7-43e9-b3b0-b1d616d3bd72","ios":"levelo://app?vid=4494fd7f-0fd7-43e9-b3b0-b1d616d3bd72"},"vehicle_type_id":"4","last_reported":1737447122,"current_range_meters":8400,"station_id":"ce4bh692rcd13ifvqe90","pricing_plan_id":"cebpf4jnsgd1na2vs0mg"},{"bike_id":"c1bf7f6f-f187-4e4b-833b-fc87f501fec9","system_id":"levelo_inurba_marseille","lat":43.24094,"lon":5.37729,"is_reserved":false,"is_disabled":false,"rental_uris":{"android":"levelo://app?vid=c1bf7f6f-f187-4e4b-833b-fc87f501fec9","ios":"levelo://app?vid=c1bf7f6f-f187-4e4b-833b-fc87f501fec9"},"vehicle_type_id":"4","last_reported":1737447122,"current_range_meters":29600,"station_id":"ce4bhnp2rcd13ifvqgvg","pricing_plan_id":"cebpf4jnsgd1na2vs0mg"},{"bike_id":"ff1df0fd-be2f-4894-8690-e8a61da9c700","system_id":"levelo_inurba_marseille","lat":43.28704,"lon":5.37406,"is_reserved":false,"is_disabled":true,"rental_uris":{"android":"levelo://app?vid=ff1df0fd-be2f-4894-8690-e8a61da9c700","ios":"levelo://app?vid=ff1df0fd-be2f-4894-8690-e8a61da9c700"},"vehicle_type_id":"4","last_reported":1737447122,"current_range_meters":38000,"station_id":"ce4bh3p2rcd13ifvqdq0","pricing_plan_id":"cebpf4jnsgd1na2vs0mg"},{"bike_id":"19ab77b4-671c-4d05-aa42-ad5f7c338f06","system_id":"levelo_inurba_marseille","lat":43.28263,"lon":5.35082,"is_reserved":false,"is_disabled":true,"rental_uris":{"android":"levelo://app?vid=19ab77b4-671c-4d05-aa42-ad5f7c338f06","ios":"levelo://app?vid=19ab77b4-671c-4d05-aa42-ad5f7c338f06"},"vehicle_type_id":"4","last_reported":1737447122,"current_range_meters":38800,"station_id":"ce4bhbp2rcd13ifvqerg","pricing_plan_id":"cebpf4jnsgd1na2vs0mg"},{"bike_id":"242f108c-3087-401f-9ccf-65df90ed03b3","system_id":"levelo_inurba_marseille","lat":43.29033,"lon":5.39979,"is_reserved":false,"is_disabled":false,"rental_uris":{"android":"levelo://app?vid=242f108c-3087-401f-9ccf-65df90ed03b3","ios":"levelo://app?vid=242f108c-3087-401f-9ccf-65df90ed03b3"},"vehicle_type_id":"4","last_reported":1737447122,"current_range_meters":32400,"station_id":"ce4bh392rcd13ifvqdm0","pricing_plan_id":"cebpf4jnsgd1na2vs0mg"},{"bike_id":"ee409563-9bed-4e39-bf13-7fceb7137e4f","system_id":"levelo_inurba_marseille","lat":43.29041,"lon":5.39963,"is_reserved":false,"is_disabled":false,"rental_uris":{"android":"levelo://app?vid=ee409563-9bed-4e39-bf13-7fceb7137e4f","ios":"levelo://app?vid=ee409563-9bed-4e39-bf13-7fceb7137e4f"},"vehicle_type_id":"4","last_reported":1737447122,"current_range_meters":33200,"station_id":"ce4bh392rcd13ifvqdm0","pricing_plan_id":"cebpf4jnsgd1na2vs0mg"},{"bike_id":"25413532-67ca-4605-8365-9476629db0f2","system_id":"levelo_inurba_marseille","lat":43.33605,"lon":5.41034,"is_reserved":false,"is_disabled":false,"rental_uris":{"android":"levelo://app?vid=25413532-67ca-4605-8365-9476629db0f2","ios":"levelo://app?vid=25413532-67ca-4605-8365-9476629db0f2"},"vehicle_type_id":"4","last_reported":1737447122,"current_range_meters":3200,"station_id":"ce4bhqh2rcd13ifvqhmg","pricing_plan_id":"cebpf4jnsgd1na2vs0mg"},{"bike_id":"b34432ff-0878-40d1-8c3e-5d0cbefc327c","system_id":"levelo_inurba_marseille","lat":43.24081,"lon":5.37736,"is_reserved":false,"is_disabled":true,"rental_uris":{"android":"levelo://app?vid=b34432ff-0878-40d1-8c3e-5d0cbefc327c","ios":"levelo://app?vid=b34432ff-0878-40d1-8c3e-5d0cbefc327c"},"vehicle_type_id":"4","last_reported":1737447122,"current_range_meters":18800,"station_id":"ce4bhnp2rcd13ifvqgvg","pricing_plan_id":"cebpf4jnsgd1na2vs0mg"},{"bike_id":"7388954d-535f-4c1a-960e-18bf9ca31df7","system_id":"levelo_inurba_marseille","lat":43.3015,"lon":5.37444,"is_reserved":false,"is_disabled":false,"rental_uris":{"android":"levelo://app?vid=7388954d-535f-4c1a-960e-18bf9ca31df7","ios":"levelo://app?vid=7388954d-535f-4c1a-960e-18bf9ca31df7"},"vehicle_type_id":"4","last_reported":1737447122,"current_range_meters":34800,"station_id":"ce4bgs92rcd13ifvqcc0","pricing_plan_id":"cebpf4jnsgd1na2vs0mg"},{"bike_id":"5c85ec9b-2544-4827-aaa8-3980c8898987","system_id":"levelo_inurba_marseille","lat":43.3124,"lon":5.3687,"is_reserved":false,"is_disabled":false,"rental_uris":{"android":"levelo://app?vid=5c85ec9b-2544-4827-aaa8-3980c8898987","ios":"levelo://app?vid=5c85ec9b-2544-4827-aaa8-3980c8898987"},"vehicle_type_id":"4","last_reported":1737447122,"current_range_meters":9600,"station_id":"ce4bgl92rcd13ifvqbq0","pricing_plan_id":"cebpf4jnsgd1na2vs0mg"},{"bike_id":"48a4db89-2f72-4ee8-b0ea-b0bc6e5aab84","system_id":"levelo_inurba_marseille","lat":43.26055,"lon":5.39399,"is_reserved":false,"is_disabled":false,"rental_uris":{"android":"levelo://app?vid=48a4db89-2f72-4ee8-b0ea-b0bc6e5aab84","ios":"levelo://app?vid=48a4db89-2f72-4ee8-b0ea-b0bc6e5aab84"},"vehicle_type_id":"4","last_reported":1737447122,"current_range_meters":20000,"station_id":"ce4bhh92rcd13ifvqfj0","pricing_plan_id":"cebpf4jnsgd1na2vs0mg"},{"bike_id":"48d60ac7-a2bd-44ea-8ae7-f8e68106fc06","system_id":"levelo_inurba_marseille","lat":43.29259,"lon":5.38508,"is_reserved":false,"is_disabled":true,"rental_uris":{"android":"levelo://app?vid=48d60ac7-a2bd-44ea-8ae7-f8e68106fc06","ios":"levelo://app?vid=48d60ac7-a2bd-44ea-8ae7-f8e68106fc06"},"vehicle_type_id":"4","last_reported":1737447122,"current_range_meters":32800,"station_id":"ce4bh692rcd13ifvqea0","pricing_plan_id":"cebpf4jnsgd1na2vs0mg"},{"bike_id":"763ed4fc-16fd-47a0-aedf-62c028daa66f","system_id":"levelo_inurba_marseille","lat":43.36388,"lon":5.35578,"is_reserved":false,"is_disabled":false,"rental_uris":{"android":"levelo://app?vid=763ed4fc-16fd-47a0-aedf-62c028daa66f","ios":"levelo://app?vid=763ed4fc-16fd-47a0-aedf-62c028daa66f"},"vehicle_type_id":"4","last_reported":1737447122,"current_range_meters":6000,"station_id":"","pricing_plan_id":"cebpf4jnsgd1na2vs0mg"},{"bike_id":"54e47bbf-d358-4fc6-9623-23d2eb6b92a9","system_id":"levelo_inurba_marseille","lat":43.276747,"lon":5.388474,"is_reserved":false,"is_disabled":true,"rental_uris":{"android":"levelo://app?vid=54e47bbf-d358-4fc6-9623-23d2eb6b92a9","ios":"levelo://app?vid=54e47bbf-d358-4fc6-9623-23d2eb6b92a9"},"vehicle_type_id":"4","last_reported":1737447122,"current_range_meters":13600,"station_id":"","pricing_plan_id":"cebpf4jnsgd1na2vs0mg"},{"bike_id":"a2771881-b956-4a9a-9bc9-a89642d437c9","system_id":"levelo_inurba_marseille","lat":43.23192,"lon":5.35547,"is_reserved":false,"is_disabled":false,"rental_uris":{"android":"levelo://app?vid=a2771881-b956-4a9a-9bc9-a89642d437c9","ios":"levelo://app?vid=a2771881-b956-4a9a-9bc9-a89642d437c9"},"vehicle_type_id":"4","last_reported":1737447122,"current_range_meters":38000,"station_id":"ce4bhu92rcd13ifvqi70","pricing_plan_id":"cebpf4jnsgd1na2vs0mg"},{"bike_id":"3b26ab37-3b51-49df-bcb5-b23c8b5b2a76","system_id":"levelo_inurba_marseille","lat":43.32087,"lon":5.36767,"is_reserved":false,"is_disabled":false,"rental_uris":{"android":"levelo://app?vid=3b26ab37-3b51-49df-bcb5-b23c8b5b2a76","ios":"levelo://app?vid=3b26ab37-3b51-49df-bcb5-b23c8b5b2a76"},"vehicle_type_id":"4","last_reported":1737447122,"current_range_meters":14000,"station_id":"ce4bhrh2rcd13ifvqhug","pricing_plan_id":"cebpf4jnsgd1na2vs0mg"},{"bike_id":"64e45a31-5f65-4688-9697-763f3cb20658","system_id":"levelo_inurba_marseille","lat":43.29973,"lon":5.38491,"is_reserved":false,"is_disabled":false,"rental_uris":{"android":"levelo://app?vid=64e45a31-5f65-4688-9697-763f3cb20658","ios":"levelo://app?vid=64e45a31-5f65-4688-9697-763f3cb20658"},"vehicle_type_id":"4","last_reported":1737447122,"current_range_meters":22800,"station_id":"ce4bgj92rcd13ifvqbd0","pricing_plan_id":"cebpf4jnsgd1na2vs0mg"},{"bike_id":"09c82fde-d64b-4f74-9640-7b61c315deb5","system_id":"levelo_inurba_marseille","lat":43.29789,"lon":5.39363,"is_reserved":false,"is_disabled":true,"rental_uris":{"android":"levelo://app?vid=09c82fde-d64b-4f74-9640-7b61c315deb5","ios":"levelo://app?vid=09c82fde-d64b-4f74-9640-7b61c315deb5"},"vehicle_type_id":"4","last_reported":1737447122,"current_range_meters":36800,"station_id":"chh1huq6cuj3fo74tm60","pricing_plan_id":"cebpf4jnsgd1na2vs0mg"},{"bike_id":"fced83d2-ee12-4832-920f-c4720f2a7190","system_id":"levelo_inurba_marseille","lat":43.30454,"lon":5.37901,"is_reserved":false,"is_disabled":false,"rental_uris":{"android":"levelo://app?vid=fced83d2-ee12-4832-920f-c4720f2a7190","ios":"levelo://app?vid=fced83d2-ee12-4832-920f-c4720f2a7190"},"vehicle_type_id":"4","last_reported":1737447122,"current_range_meters":26000,"station_id":"ce4bgup2rcd13ifvqcn0","pricing_plan_id":"cebpf4jnsgd1na2vs0mg"},{"bike_id":"c29020e0-83ef-4b06-ac4f-c4422257f84a","system_id":"levelo_inurba_marseille","lat":43.36397,"lon":5.356,"is_reserved":false,"is_disabled":false,"rental_uris":{"android":"levelo://app?vid=c29020e0-83ef-4b06-ac4f-c4422257f84a","ios":"levelo://app?vid=c29020e0-83ef-4b06-ac4f-c4422257f84a"},"vehicle_type_id":"4","last_reported":1737447122,"current_range_meters":9200,"station_id":"","pricing_plan_id":"cebpf4jnsgd1na2vs0mg"},{"bike_id":"694ea372-d3cc-49da-be40-0c196c4db234","system_id":"levelo_inurba_marseille","lat":43.24071,"lon":5.37762,"is_reserved":false,"is_disabled":false,"rental_uris":{"android":"levelo://app?vid=694ea372-d3cc-49da-be40-0c196c4db234","ios":"levelo://app?vid=694ea372-d3cc-49da-be40-0c196c4db234"},"vehicle_type_id":"4","last_reported":1737447122,"current_range_meters":11200,"station_id":"ce4bhnp2rcd13ifvqgvg","pricing_plan_id":"cebpf4jnsgd1na2vs0mg"},{"bike_id":"98a75e1a-d26d-4a3f-a10f-50a9ac4b8bac","system_id":"levelo_inurba_marseille","lat":43.28855,"lon":5.35858,"is_reserved":false,"is_disabled":false,"rental_uris":{"android":"levelo://app?vid=98a75e1a-d26d-4a3f-a10f-50a9ac4b8bac","ios":"levelo://app?vid=98a75e1a-d26d-4a3f-a10f-50a9ac4b8bac"},"vehicle_type_id":"4","last_reported":1737447122,"current_range_meters":37600,"station_id":"ce4bhb12rcd13ifvqem0","pricing_plan_id":"cebpf4jnsgd1na2vs0mg"},{"bike_id":"02da9480-e0bb-4089-86ef-36d062565380","system_id":"levelo_inurba_marseille","lat":43.32537,"lon":5.41467,"is_reserved":false,"is_disabled":false,"rental_uris":{"android":"levelo://app?vid=02da9480-e0bb-4089-86ef-36d062565380","ios":"levelo://app?vid=02da9480-e0bb-4089-86ef-36d062565380"},"vehicle_type_id":"4","last_reported":1737447122,"current_range_meters":32000,"station_id":"ce4bhq12rcd13ifvqhhg","pricing_plan_id":"cebpf4jnsgd1na2vs0mg"},{"bike_id":"a4929f10-be42-40bd-9958-40ba2c4eec72","system_id":"levelo_inurba_marseille","lat":43.32978,"lon":5.39098,"is_reserved":false,"is_disabled":false,"rental_uris":{"android":"levelo://app?vid=a4929f10-be42-40bd-9958-40ba2c4eec72","ios":"levelo://app?vid=a4929f10-be42-40bd-9958-40ba2c4eec72"},"vehicle_type_id":"4","last_reported":1737447122,"current_range_meters":15200,"station_id":"ce4bhr92rcd13ifvqhrg","pricing_plan_id":"cebpf4jnsgd1na2vs0mg"},{"bike_id":"ab7b1d7a-8ae0-4c4a-9611-7e663b41825a","system_id":"levelo_inurba_marseille","lat":43.32278,"lon":5.38299,"is_reserved":false,"is_disabled":false,"rental_uris":{"android":"levelo://app?vid=ab7b1d7a-8ae0-4c4a-9611-7e663b41825a","ios":"levelo://app?vid=ab7b1d7a-8ae0-4c4a-9611-7e663b41825a"},"vehicle_type_id":"4","last_reported":1737447122,"current_range_meters":39200,"station_id":"ce4bhr12rcd13ifvqhqg","pricing_plan_id":"cebpf4jnsgd1na2vs0mg"},{"bike_id":"d4a18e16-6eb1-455f-9f8d-52c212244e83","system_id":"levelo_inurba_marseille","lat":43.27846,"lon":5.40516,"is_reserved":false,"is_disabled":true,"rental_uris":{"android":"levelo://app?vid=d4a18e16-6eb1-455f-9f8d-52c212244e83","ios":"levelo://app?vid=d4a18e16-6eb1-455f-9f8d-52c212244e83"},"vehicle_type_id":"4","last_reported":1737447122,"current_range_meters":0,"station_id":"","pricing_plan_id":"cebpf4jnsgd1na2vs0mg"},{"bike_id":"9a46fc70-7cd3-48e2-808e-3b382fbb61cd","system_id":"levelo_inurba_marseille","lat":43.2315,"lon":5.43718,"is_reserved":false,"is_disabled":false,"rental_uris":{"android":"levelo://app?vid=9a46fc70-7cd3-48e2-808e-3b382fbb61cd","ios":"levelo://app?vid=9a46fc70-7cd3-48e2-808e-3b382fbb61cd"},"vehicle_type_id":"4","last_reported":1737447122,"current_range_meters":16000,"station_id":"ce4bhmp2rcd13ifvqgog","pricing_plan_id":"cebpf4jnsgd1na2vs0mg"},{"bike_id":"4a31d953-a351-4e4b-a04e-ac11058ef623","system_id":"levelo_inurba_marseille","lat":43.2784,"lon":5.40687,"is_reserved":false,"is_disabled":false,"rental_uris":{"android":"levelo://app?vid=4a31d953-a351-4e4b-a04e-ac11058ef623","ios":"levelo://app?vid=4a31d953-a351-4e4b-a04e-ac11058ef623"},"vehicle_type_id":"4","last_reported":1737447122,"current_range_meters":27600,"station_id":"ce4bhnh2rcd13ifvqgtg","pricing_plan_id":"cebpf4jnsgd1na2vs0mg"},{"bike_id":"3cdae501-d533-4bc4-8409-6212e9542676","system_id":"levelo_inurba_marseille","lat":43.24087,"lon":5.37755,"is_reserved":false,"is_disabled":false,"rental_uris":{"android":"levelo://app?vid=3cdae501-d533-4bc4-8409-6212e9542676","ios":"levelo://app?vid=3cdae501-d533-4bc4-8409-6212e9542676"},"vehicle_type_id":"4","last_reported":1737447122,"current_range_meters":28800,"station_id":"ce4bhnp2rcd13ifvqgvg","pricing_plan_id":"cebpf4jnsgd1na2vs0mg"},{"bike_id":"b174f992-4f2d-4136-abb7-4ef33e1db0d0","system_id":"levelo_inurba_marseille","lat":43.24067,"lon":5.37762,"is_reserved":false,"is_disabled":false,"rental_uris":{"android":"levelo://app?vid=b174f992-4f2d-4136-abb7-4ef33e1db0d0","ios":"levelo://app?vid=b174f992-4f2d-4136-abb7-4ef33e1db0d0"},"vehicle_type_id":"4","last_reported":1737447122,"current_range_meters":36000,"station_id":"ce4bhnp2rcd13ifvqgvg","pricing_plan_id":"cebpf4jnsgd1na2vs0mg"},{"bike_id":"d91be513-c350-4df2-80c9-9eac41eaf470","system_id":"levelo_inurba_marseille","lat":43.27969,"lon":5.38697,"is_reserved":false,"is_disabled":true,"rental_uris":{"android":"levelo://app?vid=d91be513-c350-4df2-80c9-9eac41eaf470","ios":"levelo://app?vid=d91be513-c350-4df2-80c9-9eac41eaf470"},"vehicle_type_id":"4","last_reported":1737447122,"current_range_meters":0,"station_id":"ce4bhg12rcd13ifvqf80","pricing_plan_id":"cebpf4jnsgd1na2vs0mg"},{"bike_id":"d932bfff-9daa-46e7-a04c-4bd3891cce32","system_id":"levelo_inurba_marseille","lat":43.27204,"lon":5.3919,"is_reserved":false,"is_disabled":false,"rental_uris":{"android":"levelo://app?vid=d932bfff-9daa-46e7-a04c-4bd3891cce32","ios":"levelo://app?vid=d932bfff-9daa-46e7-a04c-4bd3891cce32"},"vehicle_type_id":"4","last_reported":1737447122,"current_range_meters":20400,"station_id":"ce4bhhp2rcd13ifvqfm0","pricing_plan_id":"cebpf4jnsgd1na2vs0mg"},{"bike_id":"87ebad09-65a6-4770-9b00-958e02f13d23","system_id":"levelo_inurba_marseille","lat":43.27499,"lon":5.42457,"is_reserved":false,"is_disabled":false,"rental_uris":{"android":"levelo://app?vid=87ebad09-65a6-4770-9b00-958e02f13d23","ios":"levelo://app?vid=87ebad09-65a6-4770-9b00-958e02f13d23"},"vehicle_type_id":"4","last_reported":1737447122,"current_range_meters":36000,"station_id":"ce4bhn92rcd13ifvqgrg","pricing_plan_id":"cebpf4jnsgd1na2vs0mg"},{"bike_id":"b4ec1393-e61e-4eff-99ef-82eb1abde234","system_id":"levelo_inurba_marseille","lat":43.26214,"lon":5.40454,"is_reserved":false,"is_disabled":false,"rental_uris":{"android":"levelo://app?vid=b4ec1393-e61e-4eff-99ef-82eb1abde234","ios":"levelo://app?vid=b4ec1393-e61e-4eff-99ef-82eb1abde234"},"vehicle_type_id":"4","last_reported":1737447122,"current_range_meters":27600,"station_id":"","pricing_plan_id":"cebpf4jnsgd1na2vs0mg"},{"bike_id":"7c981f3d-d8ae-413a-bc44-55e9cce45c22","system_id":"levelo_inurba_marseille","lat":43.30905,"lon":5.3685,"is_reserved":false,"is_disabled":false,"rental_uris":{"android":"levelo://app?vid=7c981f3d-d8ae-413a-bc44-55e9cce45c22","ios":"levelo://app?vid=7c981f3d-d8ae-413a-bc44-55e9cce45c22"},"vehicle_type_id":"4","last_reported":1737447122,"current_range_meters":34800,"station_id":"ce4bgn92rcd13ifvqbvg","pricing_plan_id":"cebpf4jnsgd1na2vs0mg"},{"bike_id":"db090fa3-42a7-4621-ba95-24031c78cef7","system_id":"levelo_inurba_marseille","lat":43.26547,"lon":5.395,"is_reserved":false,"is_disabled":true,"rental_uris":{"android":"levelo://app?vid=db090fa3-42a7-4621-ba95-24031c78cef7","ios":"levelo://app?vid=db090fa3-42a7-4621-ba95-24031c78cef7"},"vehicle_type_id":"4","last_reported":1737447122,"current_range_meters":0,"station_id":"","pricing_plan_id":"cebpf4jnsgd1na2vs0mg"},{"bike_id":"c35f2a56-0945-408c-ab7b-059d91aadb6e","system_id":"levelo_inurba_marseille","lat":43.25937,"lon":5.40908,"is_reserved":false,"is_disabled":false,"rental_uris":{"android":"levelo://app?vid=c35f2a56-0945-408c-ab7b-059d91aadb6e","ios":"levelo://app?vid=c35f2a56-0945-408c-ab7b-059d91aadb6e"},"vehicle_type_id":"4","last_reported":1737447122,"current_range_meters":17200,"station_id":"ce4bhm92rcd13ifvqglg","pricing_plan_id":"cebpf4jnsgd1na2vs0mg"},{"bike_id":"e9a130dc-806e-49a7-80a8-0ae869a1a749","system_id":"levelo_inurba_marseille","lat":43.31227,"lon":5.36865,"is_reserved":false,"is_disabled":false,"rental_uris":{"android":"levelo://app?vid=e9a130dc-806e-49a7-80a8-0ae869a1a749","ios":"levelo://app?vid=e9a130dc-806e-49a7-80a8-0ae869a1a749"},"vehicle_type_id":"4","last_reported":1737447122,"current_range_meters":6000,"station_id":"ce4bgl92rcd13ifvqbq0","pricing_plan_id":"cebpf4jnsgd1na2vs0mg"},{"bike_id":"3167dc04-513b-4f4b-82fb-22c3d08d68df","system_id":"levelo_inurba_marseille","lat":43.27419,"lon":5.39434,"is_reserved":false,"is_disabled":false,"rental_uris":{"android":"levelo://app?vid=3167dc04-513b-4f4b-82fb-22c3d08d68df","ios":"levelo://app?vid=3167dc04-513b-4f4b-82fb-22c3d08d68df"},"vehicle_type_id":"4","last_reported":1737447122,"current_range_meters":34800,"station_id":"ce4bhdp2rcd13ifvqf20","pricing_plan_id":"cebpf4jnsgd1na2vs0mg"},{"bike_id":"89e5d999-b64a-4894-b233-fbd2ca840386","system_id":"levelo_inurba_marseille","lat":43.3092,"lon":5.36844,"is_reserved":false,"is_disabled":false,"rental_uris":{"android":"levelo://app?vid=89e5d999-b64a-4894-b233-fbd2ca840386","ios":"levelo://app?vid=89e5d999-b64a-4894-b233-fbd2ca840386"},"vehicle_type_id":"4","last_reported":1737447122,"current_range_meters":32400,"station_id":"ce4bgn92rcd13ifvqbvg","pricing_plan_id":"cebpf4jnsgd1na2vs0mg"},{"bike_id":"06854e5f-0715-4b1e-bab8-0862c9ddbbc5","system_id":"levelo_inurba_marseille","lat":43.29041,"lon":5.39976,"is_reserved":false,"is_disabled":false,"rental_uris":{"android":"levelo://app?vid=06854e5f-0715-4b1e-bab8-0862c9ddbbc5","ios":"levelo://app?vid=06854e5f-0715-4b1e-bab8-0862c9ddbbc5"},"vehicle_type_id":"4","last_reported":1737447122,"current_range_meters":35600,"station_id":"ce4bh392rcd13ifvqdm0","pricing_plan_id":"cebpf4jnsgd1na2vs0mg"},{"bike_id":"61a7c792-f70f-4282-923e-9494260e6175","system_id":"levelo_inurba_marseille","lat":43.30629,"lon":5.39326,"is_reserved":false,"is_disabled":true,"rental_uris":{"android":"levelo://app?vid=61a7c792-f70f-4282-923e-9494260e6175","ios":"levelo://app?vid=61a7c792-f70f-4282-923e-9494260e6175"},"vehicle_type_id":"4","last_reported":1737447122,"current_range_meters":0,"station_id":"ce4bh0p2rcd13ifvqd80","pricing_plan_id":"cebpf4jnsgd1na2vs0mg"},{"bike_id":"31254844-cf96-4069-8c0f-e219c1d8caa3","system_id":"levelo_inurba_marseille","lat":43.2903,"lon":5.39977,"is_reserved":false,"is_disabled":false,"rental_uris":{"android":"levelo://app?vid=31254844-cf96-4069-8c0f-e219c1d8caa3","ios":"levelo://app?vid=31254844-cf96-4069-8c0f-e219c1d8caa3"},"vehicle_type_id":"4","last_reported":1737447122,"current_range_meters":37600,"station_id":"ce4bh392rcd13ifvqdm0","pricing_plan_id":"cebpf4jnsgd1na2vs0mg"},{"bike_id":"3860f79b-6390-4baa-9962-103869425bc6","system_id":"levelo_inurba_marseille","lat":43.29901,"lon":5.43664,"is_reserved":false,"is_disabled":false,"rental_uris":{"android":"levelo://app?vid=3860f79b-6390-4baa-9962-103869425bc6","ios":"levelo://app?vid=3860f79b-6390-4baa-9962-103869425bc6"},"vehicle_type_id":"4","last_reported":1737447122,"current_range_meters":14000,"station_id":"ce4bhpp2rcd13ifvqhfg","pricing_plan_id":"cebpf4jnsgd1na2vs0mg"},{"bike_id":"c6aec08a-95b2-468e-b6ba-3552b798296e","system_id":"levelo_inurba_marseille","lat":43.336076,"lon":5.410284,"is_reserved":false,"is_disabled":false,"rental_uris":{"android":"levelo://app?vid=c6aec08a-95b2-468e-b6ba-3552b798296e","ios":"levelo://app?vid=c6aec08a-95b2-468e-b6ba-3552b798296e"},"vehicle_type_id":"4","last_reported":1737447122,"current_range_meters":28800,"station_id":"ce4bhqh2rcd13ifvqhmg","pricing_plan_id":"cebpf4jnsgd1na2vs0mg"},{"bike_id":"d483a7d7-97ee-4d4b-bfcb-ed21c079f15c","system_id":"levelo_inurba_marseille","lat":43.30619,"lon":5.3934,"is_reserved":false,"is_disabled":false,"rental_uris":{"android":"levelo://app?vid=d483a7d7-97ee-4d4b-bfcb-ed21c079f15c","ios":"levelo://app?vid=d483a7d7-97ee-4d4b-bfcb-ed21c079f15c"},"vehicle_type_id":"4","last_reported":1737447122,"current_range_meters":5600,"station_id":"ce4bh0p2rcd13ifvqd80","pricing_plan_id":"cebpf4jnsgd1na2vs0mg"},{"bike_id":"9a9a36ce-1da4-40bc-95da-645d86ed77b6","system_id":"levelo_inurba_marseille","lat":43.29556,"lon":5.3751,"is_reserved":false,"is_disabled":false,"rental_uris":{"android":"levelo://app?vid=9a9a36ce-1da4-40bc-95da-645d86ed77b6","ios":"levelo://app?vid=9a9a36ce-1da4-40bc-95da-645d86ed77b6"},"vehicle_type_id":"4","last_reported":1737447122,"current_range_meters":12000,"station_id":"ce4bgh92rcd13ifvqb50","pricing_plan_id":"cebpf4jnsgd1na2vs0mg"},{"bike_id":"31e19d60-3cd2-4b27-a0ec-9cbf35ba0c7b","system_id":"levelo_inurba_marseille","lat":43.25109,"lon":5.40325,"is_reserved":false,"is_disabled":false,"rental_uris":{"android":"levelo://app?vid=31e19d60-3cd2-4b27-a0ec-9cbf35ba0c7b","ios":"levelo://app?vid=31e19d60-3cd2-4b27-a0ec-9cbf35ba0c7b"},"vehicle_type_id":"4","last_reported":1737447122,"current_range_meters":32800,"station_id":"ce4bhlh2rcd13ifvqgig","pricing_plan_id":"cebpf4jnsgd1na2vs0mg"},{"bike_id":"580fd682-a63d-4470-bd40-a527c3d7e682","system_id":"levelo_inurba_marseille","lat":43.25003,"lon":5.38925,"is_reserved":false,"is_disabled":false,"rental_uris":{"android":"levelo://app?vid=580fd682-a63d-4470-bd40-a527c3d7e682","ios":"levelo://app?vid=580fd682-a63d-4470-bd40-a527c3d7e682"},"vehicle_type_id":"4","last_reported":1737447122,"current_range_meters":38000,"station_id":"ce4bhgp2rcd13ifvqfd0","pricing_plan_id":"cebpf4jnsgd1na2vs0mg"},{"bike_id":"78ead62c-8e6d-4caa-b268-759e0d7ac090","system_id":"levelo_inurba_marseille","lat":43.27487,"lon":5.42464,"is_reserved":false,"is_disabled":false,"rental_uris":{"android":"levelo://app?vid=78ead62c-8e6d-4caa-b268-759e0d7ac090","ios":"levelo://app?vid=78ead62c-8e6d-4caa-b268-759e0d7ac090"},"vehicle_type_id":"4","last_reported":1737447122,"current_range_meters":23200,"station_id":"ce4bhn92rcd13ifvqgrg","pricing_plan_id":"cebpf4jnsgd1na2vs0mg"},{"bike_id":"cc958890-0ed5-44c2-a0d9-92928b491c54","system_id":"levelo_inurba_marseille","lat":43.27207,"lon":5.3916,"is_reserved":false,"is_disabled":false,"rental_uris":{"android":"levelo://app?vid=cc958890-0ed5-44c2-a0d9-92928b491c54","ios":"levelo://app?vid=cc958890-0ed5-44c2-a0d9-92928b491c54"},"vehicle_type_id":"4","last_reported":1737447122,"current_range_meters":27200,"station_id":"ce4bhhp2rcd13ifvqfm0","pricing_plan_id":"cebpf4jnsgd1na2vs0mg"},{"bike_id":"eee25a8f-108b-49de-8a1c-1a99ef26e706","system_id":"levelo_inurba_marseille","lat":43.30901,"lon":5.36847,"is_reserved":false,"is_disabled":false,"rental_uris":{"android":"levelo://app?vid=eee25a8f-108b-49de-8a1c-1a99ef26e706","ios":"levelo://app?vid=eee25a8f-108b-49de-8a1c-1a99ef26e706"},"vehicle_type_id":"4","last_reported":1737447122,"current_range_meters":36000,"station_id":"ce4bgn92rcd13ifvqbvg","pricing_plan_id":"cebpf4jnsgd1na2vs0mg"},{"bike_id":"8015219e-1fe8-43fa-80f1-781ff00a08b2","system_id":"levelo_inurba_marseille","lat":43.25931,"lon":5.4091,"is_reserved":false,"is_disabled":false,"rental_uris":{"android":"levelo://app?vid=8015219e-1fe8-43fa-80f1-781ff00a08b2","ios":"levelo://app?vid=8015219e-1fe8-43fa-80f1-781ff00a08b2"},"vehicle_type_id":"4","last_reported":1737447122,"current_range_meters":33600,"station_id":"ce4bhm92rcd13ifvqglg","pricing_plan_id":"cebpf4jnsgd1na2vs0mg"},{"bike_id":"ea4936bb-a020-48d0-ad34-8742c0d8a98c","system_id":"levelo_inurba_marseille","lat":43.30906,"lon":5.36837,"is_reserved":false,"is_disabled":false,"rental_uris":{"android":"levelo://app?vid=ea4936bb-a020-48d0-ad34-8742c0d8a98c","ios":"levelo://app?vid=ea4936bb-a020-48d0-ad34-8742c0d8a98c"},"vehicle_type_id":"4","last_reported":1737447122,"current_range_meters":31200,"station_id":"ce4bgn92rcd13ifvqbvg","pricing_plan_id":"cebpf4jnsgd1na2vs0mg"},{"bike_id":"6d06bc90-1d32-4516-9bc9-b423317e82c4","system_id":"levelo_inurba_marseille","lat":43.31689,"lon":5.3775,"is_reserved":false,"is_disabled":true,"rental_uris":{"android":"levelo://app?vid=6d06bc90-1d32-4516-9bc9-b423317e82c4","ios":"levelo://app?vid=6d06bc90-1d32-4516-9bc9-b423317e82c4"},"vehicle_type_id":"4","last_reported":1737447122,"current_range_meters":26000,"station_id":"ce4bgth2rcd13ifvqch0","pricing_plan_id":"cebpf4jnsgd1na2vs0mg"},{"bike_id":"bc44b838-5e20-4546-8ae8-e1fd2cf0cd3c","system_id":"levelo_inurba_marseille","lat":43.27526,"lon":5.38448,"is_reserved":false,"is_disabled":false,"rental_uris":{"android":"levelo://app?vid=bc44b838-5e20-4546-8ae8-e1fd2cf0cd3c","ios":"levelo://app?vid=bc44b838-5e20-4546-8ae8-e1fd2cf0cd3c"},"vehicle_type_id":"4","last_reported":1737447122,"current_range_meters":38800,"station_id":"ce4bhh92rcd13ifvqfi0","pricing_plan_id":"cebpf4jnsgd1na2vs0mg"},{"bike_id":"68c49633-2755-4511-925d-0fdf7592e8b5","system_id":"levelo_inurba_marseille","lat":43.30464,"lon":5.37906,"is_reserved":false,"is_disabled":false,"rental_uris":{"android":"levelo://app?vid=68c49633-2755-4511-925d-0fdf7592e8b5","ios":"levelo://app?vid=68c49633-2755-4511-925d-0fdf7592e8b5"},"vehicle_type_id":"4","last_reported":1737447122,"current_range_meters":31200,"station_id":"ce4bgup2rcd13ifvqcn0","pricing_plan_id":"cebpf4jnsgd1na2vs0mg"},{"bike_id":"a3f90777-1b74-4cb6-afca-03f80d642831","system_id":"levelo_inurba_marseille","lat":43.2695,"lon":5.38637,"is_reserved":false,"is_disabled":false,"rental_uris":{"android":"levelo://app?vid=a3f90777-1b74-4cb6-afca-03f80d642831","ios":"levelo://app?vid=a3f90777-1b74-4cb6-afca-03f80d642831"},"vehicle_type_id":"4","last_reported":1737447122,"current_range_meters":38800,"station_id":"ce4bhh92rcd13ifvqfh0","pricing_plan_id":"cebpf4jnsgd1na2vs0mg"},{"bike_id":"b6cc31be-151e-4d56-8839-e71a9cd45b18","system_id":"levelo_inurba_marseille","lat":43.23208,"lon":5.35539,"is_reserved":false,"is_disabled":false,"rental_uris":{"android":"levelo://app?vid=b6cc31be-151e-4d56-8839-e71a9cd45b18","ios":"levelo://app?vid=b6cc31be-151e-4d56-8839-e71a9cd45b18"},"vehicle_type_id":"4","last_reported":1737447122,"current_range_meters":38000,"station_id":"ce4bhu92rcd13ifvqi70","pricing_plan_id":"cebpf4jnsgd1na2vs0mg"},{"bike_id":"0801c084-7ad5-46e3-ac94-7474634a859a","system_id":"levelo_inurba_marseille","lat":43.24695,"lon":5.38156,"is_reserved":false,"is_disabled":false,"rental_uris":{"android":"levelo://app?vid=0801c084-7ad5-46e3-ac94-7474634a859a","ios":"levelo://app?vid=0801c084-7ad5-46e3-ac94-7474634a859a"},"vehicle_type_id":"4","last_reported":1737447122,"current_range_meters":22400,"station_id":"ce4bhih2rcd13ifvqfr0","pricing_plan_id":"cebpf4jnsgd1na2vs0mg"},{"bike_id":"9bd5b754-5ff2-46c0-9fbe-8bf1af8887eb","system_id":"levelo_inurba_marseille","lat":43.29036,"lon":5.39968,"is_reserved":false,"is_disabled":false,"rental_uris":{"android":"levelo://app?vid=9bd5b754-5ff2-46c0-9fbe-8bf1af8887eb","ios":"levelo://app?vid=9bd5b754-5ff2-46c0-9fbe-8bf1af8887eb"},"vehicle_type_id":"4","last_reported":1737447122,"current_range_meters":8400,"station_id":"ce4bh392rcd13ifvqdm0","pricing_plan_id":"cebpf4jnsgd1na2vs0mg"},{"bike_id":"51ef1423-7a3e-4cca-ae71-2b6e28f69bdf","system_id":"levelo_inurba_marseille","lat":43.30466,"lon":5.37895,"is_reserved":false,"is_disabled":false,"rental_uris":{"android":"levelo://app?vid=51ef1423-7a3e-4cca-ae71-2b6e28f69bdf","ios":"levelo://app?vid=51ef1423-7a3e-4cca-ae71-2b6e28f69bdf"},"vehicle_type_id":"4","last_reported":1737447122,"current_range_meters":36800,"station_id":"ce4bgup2rcd13ifvqcn0","pricing_plan_id":"cebpf4jnsgd1na2vs0mg"},{"bike_id":"e769477c-b503-4bb8-b7d3-b7f7ff9ddf2d","system_id":"levelo_inurba_marseille","lat":43.29206,"lon":5.369,"is_reserved":false,"is_disabled":false,"rental_uris":{"android":"levelo://app?vid=e769477c-b503-4bb8-b7d3-b7f7ff9ddf2d","ios":"levelo://app?vid=e769477c-b503-4bb8-b7d3-b7f7ff9ddf2d"},"vehicle_type_id":"4","last_reported":1737447122,"current_range_meters":10800,"station_id":"","pricing_plan_id":"cebpf4jnsgd1na2vs0mg"},{"bike_id":"28ef1c1e-dd89-43e8-817b-9b489831397b","system_id":"levelo_inurba_marseille","lat":43.27105,"lon":5.39593,"is_reserved":false,"is_disabled":true,"rental_uris":{"android":"levelo://app?vid=28ef1c1e-dd89-43e8-817b-9b489831397b","ios":"levelo://app?vid=28ef1c1e-dd89-43e8-817b-9b489831397b"},"vehicle_type_id":"4","last_reported":1737447122,"current_range_meters":0,"station_id":"","pricing_plan_id":"cebpf4jnsgd1na2vs0mg"},{"bike_id":"f3368ef5-6173-40ef-8f5c-f34d53965dcb","system_id":"levelo_inurba_marseille","lat":43.29793,"lon":5.3809,"is_reserved":false,"is_disabled":false,"rental_uris":{"android":"levelo://app?vid=f3368ef5-6173-40ef-8f5c-f34d53965dcb","ios":"levelo://app?vid=f3368ef5-6173-40ef-8f5c-f34d53965dcb"},"vehicle_type_id":"4","last_reported":1737447122,"current_range_meters":26000,"station_id":"ce4bgip2rcd13ifvqbb0","pricing_plan_id":"cebpf4jnsgd1na2vs0mg"},{"bike_id":"973357c8-dead-42ca-92e9-500225bc994c","system_id":"levelo_inurba_marseille","lat":43.32989,"lon":5.39076,"is_reserved":false,"is_disabled":false,"rental_uris":{"android":"levelo://app?vid=973357c8-dead-42ca-92e9-500225bc994c","ios":"levelo://app?vid=973357c8-dead-42ca-92e9-500225bc994c"},"vehicle_type_id":"4","last_reported":1737447122,"current_range_meters":39200,"station_id":"ce4bhr92rcd13ifvqhrg","pricing_plan_id":"cebpf4jnsgd1na2vs0mg"},{"bike_id":"0e729aa5-5326-4364-804f-656f2002192a","system_id":"levelo_inurba_marseille","lat":43.30525,"lon":5.36723,"is_reserved":false,"is_disabled":false,"rental_uris":{"android":"levelo://app?vid=0e729aa5-5326-4364-804f-656f2002192a","ios":"levelo://app?vid=0e729aa5-5326-4364-804f-656f2002192a"},"vehicle_type_id":"4","last_reported":1737447122,"current_range_meters":18800,"station_id":"ce4bgrp2rcd13ifvqc9g","pricing_plan_id":"cebpf4jnsgd1na2vs0mg"},{"bike_id":"3126cfa9-7c24-476d-8681-f22494faa237","system_id":"levelo_inurba_marseille","lat":43.30525,"lon":5.36714,"is_reserved":false,"is_disabled":false,"rental_uris":{"android":"levelo://app?vid=3126cfa9-7c24-476d-8681-f22494faa237","ios":"levelo://app?vid=3126cfa9-7c24-476d-8681-f22494faa237"},"vehicle_type_id":"4","last_reported":1737447122,"current_range_meters":4400,"station_id":"ce4bgrp2rcd13ifvqc9g","pricing_plan_id":"cebpf4jnsgd1na2vs0mg"},{"bike_id":"526c1d72-da5c-48b1-b724-d5230cfe22b0","system_id":"levelo_inurba_marseille","lat":43.27214,"lon":5.39189,"is_reserved":false,"is_disabled":false,"rental_uris":{"android":"levelo://app?vid=526c1d72-da5c-48b1-b724-d5230cfe22b0","ios":"levelo://app?vid=526c1d72-da5c-48b1-b724-d5230cfe22b0"},"vehicle_type_id":"4","last_reported":1737447122,"current_range_meters":7200,"station_id":"ce4bhhp2rcd13ifvqfm0","pricing_plan_id":"cebpf4jnsgd1na2vs0mg"},{"bike_id":"5fa49ac5-f5fb-407d-9f73-7837cb4b4991","system_id":"levelo_inurba_marseille","lat":43.28623,"lon":5.35097,"is_reserved":false,"is_disabled":false,"rental_uris":{"android":"levelo://app?vid=5fa49ac5-f5fb-407d-9f73-7837cb4b4991","ios":"levelo://app?vid=5fa49ac5-f5fb-407d-9f73-7837cb4b4991"},"vehicle_type_id":"4","last_reported":1737447122,"current_range_meters":31200,"station_id":"ce4bhch2rcd13ifvqeug","pricing_plan_id":"cebpf4jnsgd1na2vs0mg"},{"bike_id":"4ab95246-ce55-4c9e-8a06-d19c18a8b4bc","system_id":"levelo_inurba_marseille","lat":43.30475,"lon":5.37905,"is_reserved":false,"is_disabled":false,"rental_uris":{"android":"levelo://app?vid=4ab95246-ce55-4c9e-8a06-d19c18a8b4bc","ios":"levelo://app?vid=4ab95246-ce55-4c9e-8a06-d19c18a8b4bc"},"vehicle_type_id":"4","last_reported":1737447122,"current_range_meters":38800,"station_id":"ce4bgup2rcd13ifvqcn0","pricing_plan_id":"cebpf4jnsgd1na2vs0mg"},{"bike_id":"58ddb32d-8842-4a66-a127-bc0e5b7ffb60","system_id":"levelo_inurba_marseille","lat":43.30284,"lon":5.37698,"is_reserved":false,"is_disabled":false,"rental_uris":{"android":"levelo://app?vid=58ddb32d-8842-4a66-a127-bc0e5b7ffb60","ios":"levelo://app?vid=58ddb32d-8842-4a66-a127-bc0e5b7ffb60"},"vehicle_type_id":"4","last_reported":1737447122,"current_range_meters":30800,"station_id":"ce4bguh2rcd13ifvqcj0","pricing_plan_id":"cebpf4jnsgd1na2vs0mg"},{"bike_id":"d1f26ac1-0feb-4438-9c5e-5814fefe5dd2","system_id":"levelo_inurba_marseille","lat":43.29916,"lon":5.37474,"is_reserved":false,"is_disabled":false,"rental_uris":{"android":"levelo://app?vid=d1f26ac1-0feb-4438-9c5e-5814fefe5dd2","ios":"levelo://app?vid=d1f26ac1-0feb-4438-9c5e-5814fefe5dd2"},"vehicle_type_id":"4","last_reported":1737447122,"current_range_meters":20400,"station_id":"ce4bgjh2rcd13ifvqbg0","pricing_plan_id":"cebpf4jnsgd1na2vs0mg"},{"bike_id":"03e42273-2f99-4a80-973f-076d50849b56","system_id":"levelo_inurba_marseille","lat":43.2416,"lon":5.39741,"is_reserved":false,"is_disabled":false,"rental_uris":{"android":"levelo://app?vid=03e42273-2f99-4a80-973f-076d50849b56","ios":"levelo://app?vid=03e42273-2f99-4a80-973f-076d50849b56"},"vehicle_type_id":"4","last_reported":1737447122,"current_range_meters":28800,"station_id":"ce4bhn12rcd13ifvqgpg","pricing_plan_id":"cebpf4jnsgd1na2vs0mg"},{"bike_id":"6d170c43-ed25-40d3-b88a-cefadd58002d","system_id":"levelo_inurba_marseille","lat":43.33612,"lon":5.41013,"is_reserved":false,"is_disabled":false,"rental_uris":{"android":"levelo://app?vid=6d170c43-ed25-40d3-b88a-cefadd58002d","ios":"levelo://app?vid=6d170c43-ed25-40d3-b88a-cefadd58002d"},"vehicle_type_id":"4","last_reported":1737447122,"current_range_meters":25600,"station_id":"ce4bhqh2rcd13ifvqhmg","pricing_plan_id":"cebpf4jnsgd1na2vs0mg"},{"bike_id":"1bc4f972-1eb6-4a1e-8920-bbde83f7ed86","system_id":"levelo_inurba_marseille","lat":43.30911,"lon":5.36872,"is_reserved":false,"is_disabled":false,"rental_uris":{"android":"levelo://app?vid=1bc4f972-1eb6-4a1e-8920-bbde83f7ed86","ios":"levelo://app?vid=1bc4f972-1eb6-4a1e-8920-bbde83f7ed86"},"vehicle_type_id":"4","last_reported":1737447122,"current_range_meters":38800,"station_id":"ce4bgn92rcd13ifvqbvg","pricing_plan_id":"cebpf4jnsgd1na2vs0mg"},{"bike_id":"cab7b8ea-328d-4b8d-b94b-9506fbabb77a","system_id":"levelo_inurba_marseille","lat":43.29789,"lon":5.38094,"is_reserved":false,"is_disabled":false,"rental_uris":{"android":"levelo://app?vid=cab7b8ea-328d-4b8d-b94b-9506fbabb77a","ios":"levelo://app?vid=cab7b8ea-328d-4b8d-b94b-9506fbabb77a"},"vehicle_type_id":"4","last_reported":1737447122,"current_range_meters":25200,"station_id":"ce4bgip2rcd13ifvqbb0","pricing_plan_id":"cebpf4jnsgd1na2vs0mg"},{"bike_id":"01a07bd9-36a1-4c19-a88b-7c9e3a6ee490","system_id":"levelo_inurba_marseille","lat":43.25086,"lon":5.39524,"is_reserved":false,"is_disabled":false,"rental_uris":{"android":"levelo://app?vid=01a07bd9-36a1-4c19-a88b-7c9e3a6ee490","ios":"levelo://app?vid=01a07bd9-36a1-4c19-a88b-7c9e3a6ee490"},"vehicle_type_id":"4","last_reported":1737447122,"current_range_meters":26800,"station_id":"ce4bhm12rcd13ifvqgkg","pricing_plan_id":"cebpf4jnsgd1na2vs0mg"},{"bike_id":"77ff5724-d727-4cb9-9e22-72b1fa336373","system_id":"levelo_inurba_marseille","lat":43.2306,"lon":5.35495,"is_reserved":false,"is_disabled":false,"rental_uris":{"android":"levelo://app?vid=77ff5724-d727-4cb9-9e22-72b1fa336373","ios":"levelo://app?vid=77ff5724-d727-4cb9-9e22-72b1fa336373"},"vehicle_type_id":"4","last_reported":1737447122,"current_range_meters":9600,"station_id":"cpo3342slgdg3j2ifvpg","pricing_plan_id":"cebpf4jnsgd1na2vs0mg"},{"bike_id":"5c553694-e398-4681-9126-df5bb320f912","system_id":"levelo_inurba_marseille","lat":43.295858,"lon":5.367336,"is_reserved":false,"is_disabled":false,"rental_uris":{"android":"levelo://app?vid=5c553694-e398-4681-9126-df5bb320f912","ios":"levelo://app?vid=5c553694-e398-4681-9126-df5bb320f912"},"vehicle_type_id":"4","last_reported":1737447122,"current_range_meters":27200,"station_id":"ce4bgph2rcd13ifvqc2g","pricing_plan_id":"cebpf4jnsgd1na2vs0mg"},{"bike_id":"b9a085cb-bb5b-4cc1-84ad-d76baa6c959d","system_id":"levelo_inurba_marseille","lat":43.30156,"lon":5.38089,"is_reserved":false,"is_disabled":false,"rental_uris":{"android":"levelo://app?vid=b9a085cb-bb5b-4cc1-84ad-d76baa6c959d","ios":"levelo://app?vid=b9a085cb-bb5b-4cc1-84ad-d76baa6c959d"},"vehicle_type_id":"4","last_reported":1737447122,"current_range_meters":36800,"station_id":"ce4bgjp2rcd13ifvqbh0","pricing_plan_id":"cebpf4jnsgd1na2vs0mg"},{"bike_id":"b0977a80-6e3f-461c-8852-5c7538e5b942","system_id":"levelo_inurba_marseille","lat":43.30267,"lon":5.37711,"is_reserved":false,"is_disabled":false,"rental_uris":{"android":"levelo://app?vid=b0977a80-6e3f-461c-8852-5c7538e5b942","ios":"levelo://app?vid=b0977a80-6e3f-461c-8852-5c7538e5b942"},"vehicle_type_id":"4","last_reported":1737447122,"current_range_meters":39200,"station_id":"ce4bguh2rcd13ifvqcj0","pricing_plan_id":"cebpf4jnsgd1na2vs0mg"},{"bike_id":"b1e7c0e3-f276-47c4-8832-08cec6a6eeae","system_id":"levelo_inurba_marseille","lat":43.30541,"lon":5.36694,"is_reserved":false,"is_disabled":false,"rental_uris":{"android":"levelo://app?vid=b1e7c0e3-f276-47c4-8832-08cec6a6eeae","ios":"levelo://app?vid=b1e7c0e3-f276-47c4-8832-08cec6a6eeae"},"vehicle_type_id":"4","last_reported":1737447122,"current_range_meters":38800,"station_id":"ce4bgrp2rcd13ifvqc9g","pricing_plan_id":"cebpf4jnsgd1na2vs0mg"},{"bike_id":"64b66824-f064-4903-8358-094ea3275fbf","system_id":"levelo_inurba_marseille","lat":43.30292,"lon":5.37701,"is_reserved":false,"is_disabled":false,"rental_uris":{"android":"levelo://app?vid=64b66824-f064-4903-8358-094ea3275fbf","ios":"levelo://app?vid=64b66824-f064-4903-8358-094ea3275fbf"},"vehicle_type_id":"4","last_reported":1737447122,"current_range_meters":39200,"station_id":"ce4bguh2rcd13ifvqcj0","pricing_plan_id":"cebpf4jnsgd1na2vs0mg"},{"bike_id":"8b21a03f-39dd-42a5-823b-0a5c57747eb3","system_id":"levelo_inurba_marseille","lat":43.30139,"lon":5.37411,"is_reserved":false,"is_disabled":false,"rental_uris":{"android":"levelo://app?vid=8b21a03f-39dd-42a5-823b-0a5c57747eb3","ios":"levelo://app?vid=8b21a03f-39dd-42a5-823b-0a5c57747eb3"},"vehicle_type_id":"4","last_reported":1737447122,"current_range_meters":31200,"station_id":"ce4bgs92rcd13ifvqcc0","pricing_plan_id":"cebpf4jnsgd1na2vs0mg"},{"bike_id":"1b1acf8d-54ac-4efe-96ff-66c901f3aba1","system_id":"levelo_inurba_marseille","lat":43.30532,"lon":5.3656,"is_reserved":false,"is_disabled":false,"rental_uris":{"android":"levelo://app?vid=1b1acf8d-54ac-4efe-96ff-66c901f3aba1","ios":"levelo://app?vid=1b1acf8d-54ac-4efe-96ff-66c901f3aba1"},"vehicle_type_id":"4","last_reported":1737447122,"current_range_meters":6000,"station_id":"ce4bgs12rcd13ifvqcag","pricing_plan_id":"cebpf4jnsgd1na2vs0mg"},{"bike_id":"aa720aaf-80a4-4d1e-a239-c9eefeb2c46d","system_id":"levelo_inurba_marseille","lat":43.30358,"lon":5.41868,"is_reserved":false,"is_disabled":false,"rental_uris":{"android":"levelo://app?vid=aa720aaf-80a4-4d1e-a239-c9eefeb2c46d","ios":"levelo://app?vid=aa720aaf-80a4-4d1e-a239-c9eefeb2c46d"},"vehicle_type_id":"4","last_reported":1737447122,"current_range_meters":38800,"station_id":"ce4bhop2rcd13ifvqh7g","pricing_plan_id":"cebpf4jnsgd1na2vs0mg"},{"bike_id":"d1c0ae1b-2227-4d30-b950-063d288cef29","system_id":"levelo_inurba_marseille","lat":43.24089,"lon":5.37734,"is_reserved":false,"is_disabled":false,"rental_uris":{"android":"levelo://app?vid=d1c0ae1b-2227-4d30-b950-063d288cef29","ios":"levelo://app?vid=d1c0ae1b-2227-4d30-b950-063d288cef29"},"vehicle_type_id":"4","last_reported":1737447122,"current_range_meters":38800,"station_id":"ce4bhnp2rcd13ifvqgvg","pricing_plan_id":"cebpf4jnsgd1na2vs0mg"},{"bike_id":"98b7aa51-fed2-44ba-b5ac-210899b2d33b","system_id":"levelo_inurba_marseille","lat":43.32657,"lon":5.40998,"is_reserved":false,"is_disabled":false,"rental_uris":{"android":"levelo://app?vid=98b7aa51-fed2-44ba-b5ac-210899b2d33b","ios":"levelo://app?vid=98b7aa51-fed2-44ba-b5ac-210899b2d33b"},"vehicle_type_id":"4","last_reported":1737447122,"current_range_meters":28000,"station_id":"ce4bhpp2rcd13ifvqhgg","pricing_plan_id":"cebpf4jnsgd1na2vs0mg"},{"bike_id":"f4769da4-49a1-4f09-884e-dbb121e5aacd","system_id":"levelo_inurba_marseille","lat":43.28145,"lon":5.42651,"is_reserved":false,"is_disabled":false,"rental_uris":{"android":"levelo://app?vid=f4769da4-49a1-4f09-884e-dbb121e5aacd","ios":"levelo://app?vid=f4769da4-49a1-4f09-884e-dbb121e5aacd"},"vehicle_type_id":"4","last_reported":1737447122,"current_range_meters":31200,"station_id":"ce4bhnh2rcd13ifvqgug","pricing_plan_id":"cebpf4jnsgd1na2vs0mg"},{"bike_id":"84ed4eb9-7943-44cb-bd21-13865ba432d5","system_id":"levelo_inurba_marseille","lat":43.28713,"lon":5.37375,"is_reserved":false,"is_disabled":false,"rental_uris":{"android":"levelo://app?vid=84ed4eb9-7943-44cb-bd21-13865ba432d5","ios":"levelo://app?vid=84ed4eb9-7943-44cb-bd21-13865ba432d5"},"vehicle_type_id":"4","last_reported":1737447122,"current_range_meters":19600,"station_id":"ce4bgr92rcd13ifvqc7g","pricing_plan_id":"cebpf4jnsgd1na2vs0mg"},{"bike_id":"437527dc-ddbf-4b91-b8bc-f0eeb992a7ff","system_id":"levelo_inurba_marseille","lat":43.24161,"lon":5.39743,"is_reserved":false,"is_disabled":false,"rental_uris":{"android":"levelo://app?vid=437527dc-ddbf-4b91-b8bc-f0eeb992a7ff","ios":"levelo://app?vid=437527dc-ddbf-4b91-b8bc-f0eeb992a7ff"},"vehicle_type_id":"4","last_reported":1737447122,"current_range_meters":30800,"station_id":"ce4bhn12rcd13ifvqgpg","pricing_plan_id":"cebpf4jnsgd1na2vs0mg"},{"bike_id":"075cc8df-67d0-4c3e-9b41-45007580b0bd","system_id":"levelo_inurba_marseille","lat":43.28484,"lon":5.38578,"is_reserved":false,"is_disabled":false,"rental_uris":{"android":"levelo://app?vid=075cc8df-67d0-4c3e-9b41-45007580b0bd","ios":"levelo://app?vid=075cc8df-67d0-4c3e-9b41-45007580b0bd"},"vehicle_type_id":"4","last_reported":1737447122,"current_range_meters":32400,"station_id":"ce4bh8p2rcd13ifvqeb0","pricing_plan_id":"cebpf4jnsgd1na2vs0mg"},{"bike_id":"2ebea97a-f43e-417b-be23-0570c9ef493b","system_id":"levelo_inurba_marseille","lat":43.26198,"lon":5.37455,"is_reserved":false,"is_disabled":false,"rental_uris":{"android":"levelo://app?vid=2ebea97a-f43e-417b-be23-0570c9ef493b","ios":"levelo://app?vid=2ebea97a-f43e-417b-be23-0570c9ef493b"},"vehicle_type_id":"4","last_reported":1737447122,"current_range_meters":20400,"station_id":"ce4bhgp2rcd13ifvqfc0","pricing_plan_id":"cebpf4jnsgd1na2vs0mg"},{"bike_id":"80bcc3e7-77de-44a5-8965-f19acb6d7452","system_id":"levelo_inurba_marseille","lat":43.330264,"lon":5.390458,"is_reserved":false,"is_disabled":false,"rental_uris":{"android":"levelo://app?vid=80bcc3e7-77de-44a5-8965-f19acb6d7452","ios":"levelo://app?vid=80bcc3e7-77de-44a5-8965-f19acb6d7452"},"vehicle_type_id":"4","last_reported":1737447122,"current_range_meters":38800,"station_id":"ce4bhr92rcd13ifvqhrg","pricing_plan_id":"cebpf4jnsgd1na2vs0mg"},{"bike_id":"9ca4de9a-cfca-4937-bf4d-f360d7c8f7f5","system_id":"levelo_inurba_marseille","lat":43.30543,"lon":5.36529,"is_reserved":false,"is_disabled":false,"rental_uris":{"android":"levelo://app?vid=9ca4de9a-cfca-4937-bf4d-f360d7c8f7f5","ios":"levelo://app?vid=9ca4de9a-cfca-4937-bf4d-f360d7c8f7f5"},"vehicle_type_id":"4","last_reported":1737447122,"current_range_meters":38000,"station_id":"ce4bgs12rcd13ifvqcag","pricing_plan_id":"cebpf4jnsgd1na2vs0mg"},{"bike_id":"72907924-f2de-43d9-88d7-314cf1d8cd1e","system_id":"levelo_inurba_marseille","lat":43.30315,"lon":5.36902,"is_reserved":false,"is_disabled":false,"rental_uris":{"android":"levelo://app?vid=72907924-f2de-43d9-88d7-314cf1d8cd1e","ios":"levelo://app?vid=72907924-f2de-43d9-88d7-314cf1d8cd1e"},"vehicle_type_id":"4","last_reported":1737447122,"current_range_meters":15200,"station_id":"ce4bgqh2rcd13ifvqc5g","pricing_plan_id":"cebpf4jnsgd1na2vs0mg"},{"bike_id":"baa73fed-78ef-42a2-a9ef-fe6cabba0067","system_id":"levelo_inurba_marseille","lat":43.27937,"lon":5.41048,"is_reserved":false,"is_disabled":false,"rental_uris":{"android":"levelo://app?vid=baa73fed-78ef-42a2-a9ef-fe6cabba0067","ios":"levelo://app?vid=baa73fed-78ef-42a2-a9ef-fe6cabba0067"},"vehicle_type_id":"4","last_reported":1737447122,"current_range_meters":28000,"station_id":"ce4bhnp2rcd13ifvqh0g","pricing_plan_id":"cebpf4jnsgd1na2vs0mg"},{"bike_id":"31cdf40e-faa5-460c-aa20-267d2aac76a2","system_id":"levelo_inurba_marseille","lat":43.24072,"lon":5.37763,"is_reserved":false,"is_disabled":false,"rental_uris":{"android":"levelo://app?vid=31cdf40e-faa5-460c-aa20-267d2aac76a2","ios":"levelo://app?vid=31cdf40e-faa5-460c-aa20-267d2aac76a2"},"vehicle_type_id":"4","last_reported":1737447122,"current_range_meters":17200,"station_id":"ce4bhnp2rcd13ifvqgvg","pricing_plan_id":"cebpf4jnsgd1na2vs0mg"},{"bike_id":"0743830b-c0d4-4c87-a5f6-897a0d553cd3","system_id":"levelo_inurba_marseille","lat":43.28346,"lon":5.38097,"is_reserved":false,"is_disabled":false,"rental_uris":{"android":"levelo://app?vid=0743830b-c0d4-4c87-a5f6-897a0d553cd3","ios":"levelo://app?vid=0743830b-c0d4-4c87-a5f6-897a0d553cd3"},"vehicle_type_id":"4","last_reported":1737447122,"current_range_meters":22800,"station_id":"ce4bh412rcd13ifvqdr0","pricing_plan_id":"cebpf4jnsgd1na2vs0mg"},{"bike_id":"751968b9-3f67-45de-aadc-83a067946788","system_id":"levelo_inurba_marseille","lat":43.33599,"lon":5.4104,"is_reserved":false,"is_disabled":false,"rental_uris":{"android":"levelo://app?vid=751968b9-3f67-45de-aadc-83a067946788","ios":"levelo://app?vid=751968b9-3f67-45de-aadc-83a067946788"},"vehicle_type_id":"4","last_reported":1737447122,"current_range_meters":31200,"station_id":"ce4bhqh2rcd13ifvqhmg","pricing_plan_id":"cebpf4jnsgd1na2vs0mg"},{"bike_id":"4b344f4f-63b5-4284-b400-eb66c5cbadff","system_id":"levelo_inurba_marseille","lat":43.31264,"lon":5.4016,"is_reserved":false,"is_disabled":false,"rental_uris":{"android":"levelo://app?vid=4b344f4f-63b5-4284-b400-eb66c5cbadff","ios":"levelo://app?vid=4b344f4f-63b5-4284-b400-eb66c5cbadff"},"vehicle_type_id":"4","last_reported":1737447122,"current_range_meters":26800,"station_id":"ce4bh092rcd13ifvqd30","pricing_plan_id":"cebpf4jnsgd1na2vs0mg"},{"bike_id":"b39f6109-7f56-4b17-b737-eaa8ed0334b8","system_id":"levelo_inurba_marseille","lat":43.30464,"lon":5.37903,"is_reserved":false,"is_disabled":true,"rental_uris":{"android":"levelo://app?vid=b39f6109-7f56-4b17-b737-eaa8ed0334b8","ios":"levelo://app?vid=b39f6109-7f56-4b17-b737-eaa8ed0334b8"},"vehicle_type_id":"4","last_reported":1737447122,"current_range_meters":36000,"station_id":"","pricing_plan_id":"cebpf4jnsgd1na2vs0mg"},{"bike_id":"db9233a0-541f-470e-96f3-96db6f81cf0f","system_id":"levelo_inurba_marseille","lat":43.27816,"lon":5.40718,"is_reserved":false,"is_disabled":false,"rental_uris":{"android":"levelo://app?vid=db9233a0-541f-470e-96f3-96db6f81cf0f","ios":"levelo://app?vid=db9233a0-541f-470e-96f3-96db6f81cf0f"},"vehicle_type_id":"4","last_reported":1737447122,"current_range_meters":22800,"station_id":"ce4bhnh2rcd13ifvqgtg","pricing_plan_id":"cebpf4jnsgd1na2vs0mg"},{"bike_id":"266498e9-cb55-4533-8936-a0e91814c53c","system_id":"levelo_inurba_marseille","lat":43.29027,"lon":5.40004,"is_reserved":false,"is_disabled":false,"rental_uris":{"android":"levelo://app?vid=266498e9-cb55-4533-8936-a0e91814c53c","ios":"levelo://app?vid=266498e9-cb55-4533-8936-a0e91814c53c"},"vehicle_type_id":"4","last_reported":1737447122,"current_range_meters":22000,"station_id":"ce4bh392rcd13ifvqdm0","pricing_plan_id":"cebpf4jnsgd1na2vs0mg"},{"bike_id":"ec4b4aa6-e15e-42d9-a6c4-77d324048687","system_id":"levelo_inurba_marseille","lat":43.28927,"lon":5.36637,"is_reserved":false,"is_disabled":true,"rental_uris":{"android":"levelo://app?vid=ec4b4aa6-e15e-42d9-a6c4-77d324048687","ios":"levelo://app?vid=ec4b4aa6-e15e-42d9-a6c4-77d324048687"},"vehicle_type_id":"4","last_reported":1737447122,"current_range_meters":32400,"station_id":"ce4bhap2rcd13ifvqek0","pricing_plan_id":"cebpf4jnsgd1na2vs0mg"},{"bike_id":"65de3ae7-2bef-416d-84f3-d91614ab5305","system_id":"levelo_inurba_marseille","lat":43.27312,"lon":5.39064,"is_reserved":false,"is_disabled":false,"rental_uris":{"android":"levelo://app?vid=65de3ae7-2bef-416d-84f3-d91614ab5305","ios":"levelo://app?vid=65de3ae7-2bef-416d-84f3-d91614ab5305"},"vehicle_type_id":"4","last_reported":1737447122,"current_range_meters":36800,"station_id":"ce4bhgp2rcd13ifvqfe0","pricing_plan_id":"cebpf4jnsgd1na2vs0mg"},{"bike_id":"8e37d5a1-5a26-42a5-8fbe-c99733a808dd","system_id":"levelo_inurba_marseille","lat":43.26051,"lon":5.39396,"is_reserved":false,"is_disabled":false,"rental_uris":{"android":"levelo://app?vid=8e37d5a1-5a26-42a5-8fbe-c99733a808dd","ios":"levelo://app?vid=8e37d5a1-5a26-42a5-8fbe-c99733a808dd"},"vehicle_type_id":"4","last_reported":1737447122,"current_range_meters":38000,"station_id":"ce4bhh92rcd13ifvqfj0","pricing_plan_id":"cebpf4jnsgd1na2vs0mg"},{"bike_id":"de5adbf7-c4d4-49e3-ba68-72cc812f5662","system_id":"levelo_inurba_marseille","lat":43.29621,"lon":5.37707,"is_reserved":false,"is_disabled":true,"rental_uris":{"android":"levelo://app?vid=de5adbf7-c4d4-49e3-ba68-72cc812f5662","ios":"levelo://app?vid=de5adbf7-c4d4-49e3-ba68-72cc812f5662"},"vehicle_type_id":"4","last_reported":1737447122,"current_range_meters":38000,"station_id":"ce4bgi92rcd13ifvqb90","pricing_plan_id":"cebpf4jnsgd1na2vs0mg"},{"bike_id":"1de5a59e-6003-46f4-b37d-86002ff1c5e7","system_id":"levelo_inurba_marseille","lat":43.24166,"lon":5.36392,"is_reserved":false,"is_disabled":false,"rental_uris":{"android":"levelo://app?vid=1de5a59e-6003-46f4-b37d-86002ff1c5e7","ios":"levelo://app?vid=1de5a59e-6003-46f4-b37d-86002ff1c5e7"},"vehicle_type_id":"4","last_reported":1737447122,"current_range_meters":21600,"station_id":"cpo36qri1sfpv3e86is0","pricing_plan_id":"cebpf4jnsgd1na2vs0mg"},{"bike_id":"22c3b3f3-6835-405e-9c28-a86f29f70685","system_id":"levelo_inurba_marseille","lat":43.25001,"lon":5.38932,"is_reserved":false,"is_disabled":false,"rental_uris":{"android":"levelo://app?vid=22c3b3f3-6835-405e-9c28-a86f29f70685","ios":"levelo://app?vid=22c3b3f3-6835-405e-9c28-a86f29f70685"},"vehicle_type_id":"4","last_reported":1737447122,"current_range_meters":23200,"station_id":"ce4bhgp2rcd13ifvqfd0","pricing_plan_id":"cebpf4jnsgd1na2vs0mg"},{"bike_id":"0d9ea08f-aadb-4135-b4c8-0d91cd810588","system_id":"levelo_inurba_marseille","lat":43.2749,"lon":5.4247,"is_reserved":false,"is_disabled":false,"rental_uris":{"android":"levelo://app?vid=0d9ea08f-aadb-4135-b4c8-0d91cd810588","ios":"levelo://app?vid=0d9ea08f-aadb-4135-b4c8-0d91cd810588"},"vehicle_type_id":"4","last_reported":1737447122,"current_range_meters":24000,"station_id":"ce4bhn92rcd13ifvqgrg","pricing_plan_id":"cebpf4jnsgd1na2vs0mg"},{"bike_id":"64dd059b-ecf7-48ee-8d07-a03165f684e7","system_id":"levelo_inurba_marseille","lat":43.29914,"lon":5.37471,"is_reserved":false,"is_disabled":false,"rental_uris":{"android":"levelo://app?vid=64dd059b-ecf7-48ee-8d07-a03165f684e7","ios":"levelo://app?vid=64dd059b-ecf7-48ee-8d07-a03165f684e7"},"vehicle_type_id":"4","last_reported":1737447122,"current_range_meters":28000,"station_id":"ce4bgjh2rcd13ifvqbg0","pricing_plan_id":"cebpf4jnsgd1na2vs0mg"},{"bike_id":"9504b7e0-2f20-49ea-814e-e380f0d8ec79","system_id":"levelo_inurba_marseille","lat":43.32099,"lon":5.36794,"is_reserved":false,"is_disabled":false,"rental_uris":{"android":"levelo://app?vid=9504b7e0-2f20-49ea-814e-e380f0d8ec79","ios":"levelo://app?vid=9504b7e0-2f20-49ea-814e-e380f0d8ec79"},"vehicle_type_id":"4","last_reported":1737447122,"current_range_meters":38400,"station_id":"ce4bhrh2rcd13ifvqhug","pricing_plan_id":"cebpf4jnsgd1na2vs0mg"},{"bike_id":"b4d6c288-80f8-45ed-a9cc-a0644ca111da","system_id":"levelo_inurba_marseille","lat":43.29632,"lon":5.406,"is_reserved":false,"is_disabled":false,"rental_uris":{"android":"levelo://app?vid=b4d6c288-80f8-45ed-a9cc-a0644ca111da","ios":"levelo://app?vid=b4d6c288-80f8-45ed-a9cc-a0644ca111da"},"vehicle_type_id":"4","last_reported":1737447122,"current_range_meters":36400,"station_id":"ce4bh0h2rcd13ifvqd60","pricing_plan_id":"cebpf4jnsgd1na2vs0mg"},{"bike_id":"97c52603-515a-40d4-9ab1-1af335cf2fbd","system_id":"levelo_inurba_marseille","lat":43.3091,"lon":5.36858,"is_reserved":false,"is_disabled":false,"rental_uris":{"android":"levelo://app?vid=97c52603-515a-40d4-9ab1-1af335cf2fbd","ios":"levelo://app?vid=97c52603-515a-40d4-9ab1-1af335cf2fbd"},"vehicle_type_id":"4","last_reported":1737447122,"current_range_meters":33600,"station_id":"ce4bgn92rcd13ifvqbvg","pricing_plan_id":"cebpf4jnsgd1na2vs0mg"},{"bike_id":"2e391245-990a-489f-b7cc-387a1c7f1479","system_id":"levelo_inurba_marseille","lat":43.30519,"lon":5.36698,"is_reserved":false,"is_disabled":false,"rental_uris":{"android":"levelo://app?vid=2e391245-990a-489f-b7cc-387a1c7f1479","ios":"levelo://app?vid=2e391245-990a-489f-b7cc-387a1c7f1479"},"vehicle_type_id":"4","last_reported":1737447122,"current_range_meters":26800,"station_id":"ce4bgrp2rcd13ifvqc9g","pricing_plan_id":"cebpf4jnsgd1na2vs0mg"},{"bike_id":"70b484fb-1f64-4cd1-af6b-615dc256a8b1","system_id":"levelo_inurba_marseille","lat":43.28921,"lon":5.38388,"is_reserved":false,"is_disabled":false,"rental_uris":{"android":"levelo://app?vid=70b484fb-1f64-4cd1-af6b-615dc256a8b1","ios":"levelo://app?vid=70b484fb-1f64-4cd1-af6b-615dc256a8b1"},"vehicle_type_id":"4","last_reported":1737447122,"current_range_meters":32800,"station_id":"ce4bh612rcd13ifvqe6g","pricing_plan_id":"cebpf4jnsgd1na2vs0mg"},{"bike_id":"e49401c7-f7a8-418d-8b78-718a422cd25d","system_id":"levelo_inurba_marseille","lat":43.29164,"lon":5.37151,"is_reserved":false,"is_disabled":true,"rental_uris":{"android":"levelo://app?vid=e49401c7-f7a8-418d-8b78-718a422cd25d","ios":"levelo://app?vid=e49401c7-f7a8-418d-8b78-718a422cd25d"},"vehicle_type_id":"4","last_reported":1737447122,"current_range_meters":25600,"station_id":"ce4bha92rcd13ifvqeh0","pricing_plan_id":"cebpf4jnsgd1na2vs0mg"},{"bike_id":"da3a7eb9-5fa6-49b3-9e5b-6452969eedf1","system_id":"levelo_inurba_marseille","lat":43.24382,"lon":5.37076,"is_reserved":false,"is_disabled":true,"rental_uris":{"android":"levelo://app?vid=da3a7eb9-5fa6-49b3-9e5b-6452969eedf1","ios":"levelo://app?vid=da3a7eb9-5fa6-49b3-9e5b-6452969eedf1"},"vehicle_type_id":"4","last_reported":1737447122,"current_range_meters":21600,"station_id":"ce4bhhh2rcd13ifvqfk0","pricing_plan_id":"cebpf4jnsgd1na2vs0mg"},{"bike_id":"13eb1080-0165-43df-ba68-3da74a387126","system_id":"levelo_inurba_marseille","lat":43.31251,"lon":5.36858,"is_reserved":false,"is_disabled":false,"rental_uris":{"android":"levelo://app?vid=13eb1080-0165-43df-ba68-3da74a387126","ios":"levelo://app?vid=13eb1080-0165-43df-ba68-3da74a387126"},"vehicle_type_id":"4","last_reported":1737447122,"current_range_meters":38800,"station_id":"ce4bgl92rcd13ifvqbq0","pricing_plan_id":"cebpf4jnsgd1na2vs0mg"},{"bike_id":"912eaddc-24ca-4ec3-8e28-6ad71de757bb","system_id":"levelo_inurba_marseille","lat":43.24078,"lon":5.37757,"is_reserved":false,"is_disabled":false,"rental_uris":{"android":"levelo://app?vid=912eaddc-24ca-4ec3-8e28-6ad71de757bb","ios":"levelo://app?vid=912eaddc-24ca-4ec3-8e28-6ad71de757bb"},"vehicle_type_id":"4","last_reported":1737447122,"current_range_meters":25200,"station_id":"ce4bhnp2rcd13ifvqgvg","pricing_plan_id":"cebpf4jnsgd1na2vs0mg"},{"bike_id":"026c5cbe-081d-480e-8260-80cc91166677","system_id":"levelo_inurba_marseille","lat":43.287156,"lon":5.399976,"is_reserved":false,"is_disabled":true,"rental_uris":{"android":"levelo://app?vid=026c5cbe-081d-480e-8260-80cc91166677","ios":"levelo://app?vid=026c5cbe-081d-480e-8260-80cc91166677"},"vehicle_type_id":"4","last_reported":1737447122,"current_range_meters":0,"station_id":"ce4bho92rcd13ifvqh3g","pricing_plan_id":"cebpf4jnsgd1na2vs0mg"},{"bike_id":"538dda5a-d3e7-4dcf-a470-d88f65afcff1","system_id":"levelo_inurba_marseille","lat":43.29615,"lon":5.37726,"is_reserved":false,"is_disabled":false,"rental_uris":{"android":"levelo://app?vid=538dda5a-d3e7-4dcf-a470-d88f65afcff1","ios":"levelo://app?vid=538dda5a-d3e7-4dcf-a470-d88f65afcff1"},"vehicle_type_id":"4","last_reported":1737447122,"current_range_meters":28000,"station_id":"ce4bgi92rcd13ifvqb90","pricing_plan_id":"cebpf4jnsgd1na2vs0mg"},{"bike_id":"55e9e33f-65d7-4114-a3b6-94916cdab4b2","system_id":"levelo_inurba_marseille","lat":43.26486,"lon":5.39549,"is_reserved":false,"is_disabled":false,"rental_uris":{"android":"levelo://app?vid=55e9e33f-65d7-4114-a3b6-94916cdab4b2","ios":"levelo://app?vid=55e9e33f-65d7-4114-a3b6-94916cdab4b2"},"vehicle_type_id":"4","last_reported":1737447122,"current_range_meters":18800,"station_id":"ce4bhi12rcd13ifvqfq0","pricing_plan_id":"cebpf4jnsgd1na2vs0mg"},{"bike_id":"3ef611c5-ae42-4350-95d0-309c99fcf5d3","system_id":"levelo_inurba_marseille","lat":43.26488,"lon":5.39562,"is_reserved":false,"is_disabled":true,"rental_uris":{"android":"levelo://app?vid=3ef611c5-ae42-4350-95d0-309c99fcf5d3","ios":"levelo://app?vid=3ef611c5-ae42-4350-95d0-309c99fcf5d3"},"vehicle_type_id":"4","last_reported":1737447122,"current_range_meters":39200,"station_id":"ce4bhi12rcd13ifvqfq0","pricing_plan_id":"cebpf4jnsgd1na2vs0mg"},{"bike_id":"a36ee2d1-1d7f-42c5-9a98-f1d3e9db357d","system_id":"levelo_inurba_marseille","lat":43.2396,"lon":5.36623,"is_reserved":false,"is_disabled":false,"rental_uris":{"android":"levelo://app?vid=a36ee2d1-1d7f-42c5-9a98-f1d3e9db357d","ios":"levelo://app?vid=a36ee2d1-1d7f-42c5-9a98-f1d3e9db357d"},"vehicle_type_id":"4","last_reported":1737447122,"current_range_meters":18800,"station_id":"ce4bhi12rcd13ifvqfp0","pricing_plan_id":"cebpf4jnsgd1na2vs0mg"},{"bike_id":"7aa9710a-b7e3-4890-81ca-654444a2204c","system_id":"levelo_inurba_marseille","lat":43.25933,"lon":5.4091,"is_reserved":false,"is_disabled":false,"rental_uris":{"android":"levelo://app?vid=7aa9710a-b7e3-4890-81ca-654444a2204c","ios":"levelo://app?vid=7aa9710a-b7e3-4890-81ca-654444a2204c"},"vehicle_type_id":"4","last_reported":1737447122,"current_range_meters":16400,"station_id":"ce4bhm92rcd13ifvqglg","pricing_plan_id":"cebpf4jnsgd1na2vs0mg"},{"bike_id":"a8a68a08-c628-497b-bfe5-57204ba5cc39","system_id":"levelo_inurba_marseille","lat":43.28152,"lon":5.42643,"is_reserved":false,"is_disabled":false,"rental_uris":{"android":"levelo://app?vid=a8a68a08-c628-497b-bfe5-57204ba5cc39","ios":"levelo://app?vid=a8a68a08-c628-497b-bfe5-57204ba5cc39"},"vehicle_type_id":"4","last_reported":1737447122,"current_range_meters":38800,"station_id":"ce4bhnh2rcd13ifvqgug","pricing_plan_id":"cebpf4jnsgd1na2vs0mg"},{"bike_id":"910c1c8e-72a6-432d-b380-8feaf18dbd89","system_id":"levelo_inurba_marseille","lat":43.28557,"lon":5.39505,"is_reserved":false,"is_disabled":true,"rental_uris":{"android":"levelo://app?vid=910c1c8e-72a6-432d-b380-8feaf18dbd89","ios":"levelo://app?vid=910c1c8e-72a6-432d-b380-8feaf18dbd89"},"vehicle_type_id":"4","last_reported":1737447122,"current_range_meters":12800,"station_id":"ce4bh292rcd13ifvqdg0","pricing_plan_id":"cebpf4jnsgd1na2vs0mg"},{"bike_id":"6a99ea2d-f694-4e1f-a14c-d9e385a5a4ad","system_id":"levelo_inurba_marseille","lat":43.24179,"lon":5.39724,"is_reserved":false,"is_disabled":false,"rental_uris":{"android":"levelo://app?vid=6a99ea2d-f694-4e1f-a14c-d9e385a5a4ad","ios":"levelo://app?vid=6a99ea2d-f694-4e1f-a14c-d9e385a5a4ad"},"vehicle_type_id":"4","last_reported":1737447122,"current_range_meters":26800,"station_id":"ce4bhn12rcd13ifvqgpg","pricing_plan_id":"cebpf4jnsgd1na2vs0mg"},{"bike_id":"4b88b371-38a3-443d-96cf-2b99cc4f3954","system_id":"levelo_inurba_marseille","lat":43.29763,"lon":5.37688,"is_reserved":false,"is_disabled":true,"rental_uris":{"android":"levelo://app?vid=4b88b371-38a3-443d-96cf-2b99cc4f3954","ios":"levelo://app?vid=4b88b371-38a3-443d-96cf-2b99cc4f3954"},"vehicle_type_id":"4","last_reported":1737447122,"current_range_meters":38800,"station_id":"ce4bgkh2rcd13ifvqbl0","pricing_plan_id":"cebpf4jnsgd1na2vs0mg"},{"bike_id":"0cb7ee67-eb67-41ea-b332-6ea5215b01c2","system_id":"levelo_inurba_marseille","lat":43.27318,"lon":5.39094,"is_reserved":false,"is_disabled":false,"rental_uris":{"android":"levelo://app?vid=0cb7ee67-eb67-41ea-b332-6ea5215b01c2","ios":"levelo://app?vid=0cb7ee67-eb67-41ea-b332-6ea5215b01c2"},"vehicle_type_id":"4","last_reported":1737447122,"current_range_meters":25600,"station_id":"ce4bhgp2rcd13ifvqfe0","pricing_plan_id":"cebpf4jnsgd1na2vs0mg"},{"bike_id":"bb2aa27c-d314-433f-a134-98756fdc47bc","system_id":"levelo_inurba_marseille","lat":43.31141,"lon":5.36935,"is_reserved":false,"is_disabled":false,"rental_uris":{"android":"levelo://app?vid=bb2aa27c-d314-433f-a134-98756fdc47bc","ios":"levelo://app?vid=bb2aa27c-d314-433f-a134-98756fdc47bc"},"vehicle_type_id":"4","last_reported":1737447122,"current_range_meters":6800,"station_id":"ce4bgr92rcd13ifvqc6g","pricing_plan_id":"cebpf4jnsgd1na2vs0mg"},{"bike_id":"344926f7-91b6-4b7c-a8c6-c574f0510d8d","system_id":"levelo_inurba_marseille","lat":43.30904,"lon":5.37189,"is_reserved":false,"is_disabled":false,"rental_uris":{"android":"levelo://app?vid=344926f7-91b6-4b7c-a8c6-c574f0510d8d","ios":"levelo://app?vid=344926f7-91b6-4b7c-a8c6-c574f0510d8d"},"vehicle_type_id":"4","last_reported":1737447122,"current_range_meters":30400,"station_id":"ce4bguh2rcd13ifvqckg","pricing_plan_id":"cebpf4jnsgd1na2vs0mg"},{"bike_id":"e74789ca-b0e5-4949-a7c4-507c382d1652","system_id":"levelo_inurba_marseille","lat":43.31285,"lon":5.40177,"is_reserved":false,"is_disabled":false,"rental_uris":{"android":"levelo://app?vid=e74789ca-b0e5-4949-a7c4-507c382d1652","ios":"levelo://app?vid=e74789ca-b0e5-4949-a7c4-507c382d1652"},"vehicle_type_id":"4","last_reported":1737447122,"current_range_meters":33600,"station_id":"ce4bh092rcd13ifvqd30","pricing_plan_id":"cebpf4jnsgd1na2vs0mg"},{"bike_id":"5a8f2cae-773a-4a96-a5bc-a2cd1ac34603","system_id":"levelo_inurba_marseille","lat":43.27976,"lon":5.38737,"is_reserved":false,"is_disabled":false,"rental_uris":{"android":"levelo://app?vid=5a8f2cae-773a-4a96-a5bc-a2cd1ac34603","ios":"levelo://app?vid=5a8f2cae-773a-4a96-a5bc-a2cd1ac34603"},"vehicle_type_id":"4","last_reported":1737447122,"current_range_meters":27600,"station_id":"ce4bhg12rcd13ifvqf80","pricing_plan_id":"cebpf4jnsgd1na2vs0mg"},{"bike_id":"d235bf92-29bf-4f4f-947e-cd181b5a22d2","system_id":"levelo_inurba_marseille","lat":43.28097,"lon":5.37842,"is_reserved":false,"is_disabled":true,"rental_uris":{"android":"levelo://app?vid=d235bf92-29bf-4f4f-947e-cd181b5a22d2","ios":"levelo://app?vid=d235bf92-29bf-4f4f-947e-cd181b5a22d2"},"vehicle_type_id":"4","last_reported":1737447122,"current_range_meters":0,"station_id":"ce4bha12rcd13ifvqee0","pricing_plan_id":"cebpf4jnsgd1na2vs0mg"},{"bike_id":"7c4b9d70-e01e-49f4-bcc2-da404f462a85","system_id":"levelo_inurba_marseille","lat":43.2931,"lon":5.37183,"is_reserved":false,"is_disabled":false,"rental_uris":{"android":"levelo://app?vid=7c4b9d70-e01e-49f4-bcc2-da404f462a85","ios":"levelo://app?vid=7c4b9d70-e01e-49f4-bcc2-da404f462a85"},"vehicle_type_id":"4","last_reported":1737447122,"current_range_meters":31200,"station_id":"ce4bgh92rcd13ifvqb40","pricing_plan_id":"cebpf4jnsgd1na2vs0mg"},{"bike_id":"8c071b1b-846e-4de8-b971-0bda4c6b8fdc","system_id":"levelo_inurba_marseille","lat":43.33606,"lon":5.41034,"is_reserved":false,"is_disabled":false,"rental_uris":{"android":"levelo://app?vid=8c071b1b-846e-4de8-b971-0bda4c6b8fdc","ios":"levelo://app?vid=8c071b1b-846e-4de8-b971-0bda4c6b8fdc"},"vehicle_type_id":"4","last_reported":1737447122,"current_range_meters":14800,"station_id":"ce4bhqh2rcd13ifvqhmg","pricing_plan_id":"cebpf4jnsgd1na2vs0mg"},{"bike_id":"1a3b29b3-17e8-4775-8d86-74e3b8c314ae","system_id":"levelo_inurba_marseille","lat":43.305409,"lon":5.366914,"is_reserved":false,"is_disabled":false,"rental_uris":{"android":"levelo://app?vid=1a3b29b3-17e8-4775-8d86-74e3b8c314ae","ios":"levelo://app?vid=1a3b29b3-17e8-4775-8d86-74e3b8c314ae"},"vehicle_type_id":"4","last_reported":1737447122,"current_range_meters":38800,"station_id":"ce4bgrp2rcd13ifvqc9g","pricing_plan_id":"cebpf4jnsgd1na2vs0mg"},{"bike_id":"ca74e526-580c-493e-b181-17fe0bc8eae8","system_id":"levelo_inurba_marseille","lat":43.25944,"lon":5.40905,"is_reserved":false,"is_disabled":false,"rental_uris":{"android":"levelo://app?vid=ca74e526-580c-493e-b181-17fe0bc8eae8","ios":"levelo://app?vid=ca74e526-580c-493e-b181-17fe0bc8eae8"},"vehicle_type_id":"4","last_reported":1737447122,"current_range_meters":5600,"station_id":"ce4bhm92rcd13ifvqglg","pricing_plan_id":"cebpf4jnsgd1na2vs0mg"},{"bike_id":"ce348ecb-e6da-4256-ae38-a3cca0ccf065","system_id":"levelo_inurba_marseille","lat":43.30535,"lon":5.36724,"is_reserved":false,"is_disabled":false,"rental_uris":{"android":"levelo://app?vid=ce348ecb-e6da-4256-ae38-a3cca0ccf065","ios":"levelo://app?vid=ce348ecb-e6da-4256-ae38-a3cca0ccf065"},"vehicle_type_id":"4","last_reported":1737447122,"current_range_meters":36000,"station_id":"ce4bgrp2rcd13ifvqc9g","pricing_plan_id":"cebpf4jnsgd1na2vs0mg"},{"bike_id":"f2390374-e060-4fe1-bcfa-cb2711193e58","system_id":"levelo_inurba_marseille","lat":43.25086,"lon":5.39525,"is_reserved":false,"is_disabled":false,"rental_uris":{"android":"levelo://app?vid=f2390374-e060-4fe1-bcfa-cb2711193e58","ios":"levelo://app?vid=f2390374-e060-4fe1-bcfa-cb2711193e58"},"vehicle_type_id":"4","last_reported":1737447122,"current_range_meters":31200,"station_id":"ce4bhm12rcd13ifvqgkg","pricing_plan_id":"cebpf4jnsgd1na2vs0mg"},{"bike_id":"7570aa25-ca97-489e-b331-ffe3c03d78d4","system_id":"levelo_inurba_marseille","lat":43.30465,"lon":5.37897,"is_reserved":false,"is_disabled":false,"rental_uris":{"android":"levelo://app?vid=7570aa25-ca97-489e-b331-ffe3c03d78d4","ios":"levelo://app?vid=7570aa25-ca97-489e-b331-ffe3c03d78d4"},"vehicle_type_id":"4","last_reported":1737447122,"current_range_meters":37600,"station_id":"ce4bgup2rcd13ifvqcn0","pricing_plan_id":"cebpf4jnsgd1na2vs0mg"},{"bike_id":"54f17643-86bb-494f-8b67-4a9bf8a4e466","system_id":"levelo_inurba_marseille","lat":43.26685,"lon":5.38272,"is_reserved":false,"is_disabled":false,"rental_uris":{"android":"levelo://app?vid=54f17643-86bb-494f-8b67-4a9bf8a4e466","ios":"levelo://app?vid=54f17643-86bb-494f-8b67-4a9bf8a4e466"},"vehicle_type_id":"4","last_reported":1737447122,"current_range_meters":24800,"station_id":"ce4bhg92rcd13ifvqf90","pricing_plan_id":"cebpf4jnsgd1na2vs0mg"},{"bike_id":"efbc7e30-fde0-41e4-b401-9eef753ab243","system_id":"levelo_inurba_marseille","lat":43.25581,"lon":5.3823,"is_reserved":false,"is_disabled":false,"rental_uris":{"android":"levelo://app?vid=efbc7e30-fde0-41e4-b401-9eef753ab243","ios":"levelo://app?vid=efbc7e30-fde0-41e4-b401-9eef753ab243"},"vehicle_type_id":"4","last_reported":1737447122,"current_range_meters":29600,"station_id":"ce4bhih2rcd13ifvqfs0","pricing_plan_id":"cebpf4jnsgd1na2vs0mg"},{"bike_id":"40e5a64d-65b5-4754-b8f6-3564af0d8c58","system_id":"levelo_inurba_marseille","lat":43.23149,"lon":5.43718,"is_reserved":false,"is_disabled":false,"rental_uris":{"android":"levelo://app?vid=40e5a64d-65b5-4754-b8f6-3564af0d8c58","ios":"levelo://app?vid=40e5a64d-65b5-4754-b8f6-3564af0d8c58"},"vehicle_type_id":"4","last_reported":1737447122,"current_range_meters":6400,"station_id":"ce4bhmp2rcd13ifvqgog","pricing_plan_id":"cebpf4jnsgd1na2vs0mg"},{"bike_id":"d5f81245-54b7-4268-b7ff-c775903366c8","system_id":"levelo_inurba_marseille","lat":43.31702,"lon":5.37769,"is_reserved":false,"is_disabled":true,"rental_uris":{"android":"levelo://app?vid=d5f81245-54b7-4268-b7ff-c775903366c8","ios":"levelo://app?vid=d5f81245-54b7-4268-b7ff-c775903366c8"},"vehicle_type_id":"4","last_reported":1737447122,"current_range_meters":1200,"station_id":"ce4bgth2rcd13ifvqch0","pricing_plan_id":"cebpf4jnsgd1na2vs0mg"},{"bike_id":"2eeb9544-f50a-4f44-8eaa-63b01b7ac06e","system_id":"levelo_inurba_marseille","lat":43.2721,"lon":5.39161,"is_reserved":false,"is_disabled":false,"rental_uris":{"android":"levelo://app?vid=2eeb9544-f50a-4f44-8eaa-63b01b7ac06e","ios":"levelo://app?vid=2eeb9544-f50a-4f44-8eaa-63b01b7ac06e"},"vehicle_type_id":"4","last_reported":1737447122,"current_range_meters":38800,"station_id":"ce4bhhp2rcd13ifvqfm0","pricing_plan_id":"cebpf4jnsgd1na2vs0mg"},{"bike_id":"23379a95-72b4-449c-abbd-5871cdaaa4bd","system_id":"levelo_inurba_marseille","lat":43.30525,"lon":5.36684,"is_reserved":false,"is_disabled":false,"rental_uris":{"android":"levelo://app?vid=23379a95-72b4-449c-abbd-5871cdaaa4bd","ios":"levelo://app?vid=23379a95-72b4-449c-abbd-5871cdaaa4bd"},"vehicle_type_id":"4","last_reported":1737447122,"current_range_meters":37600,"station_id":"ce4bgrp2rcd13ifvqc9g","pricing_plan_id":"cebpf4jnsgd1na2vs0mg"},{"bike_id":"e31b0789-d6d6-44f7-b2e9-dea5a9f1618d","system_id":"levelo_inurba_marseille","lat":43.26786,"lon":5.39416,"is_reserved":false,"is_disabled":false,"rental_uris":{"android":"levelo://app?vid=e31b0789-d6d6-44f7-b2e9-dea5a9f1618d","ios":"levelo://app?vid=e31b0789-d6d6-44f7-b2e9-dea5a9f1618d"},"vehicle_type_id":"4","last_reported":1737447122,"current_range_meters":18800,"station_id":"ce4bhh12rcd13ifvqfg0","pricing_plan_id":"cebpf4jnsgd1na2vs0mg"},{"bike_id":"8f71469a-250a-4e21-bf70-742a38e3fdee","system_id":"levelo_inurba_marseille","lat":43.29679,"lon":5.373,"is_reserved":false,"is_disabled":false,"rental_uris":{"android":"levelo://app?vid=8f71469a-250a-4e21-bf70-742a38e3fdee","ios":"levelo://app?vid=8f71469a-250a-4e21-bf70-742a38e3fdee"},"vehicle_type_id":"4","last_reported":1737447122,"current_range_meters":33600,"station_id":"ce4bgk12rcd13ifvqbj0","pricing_plan_id":"cebpf4jnsgd1na2vs0mg"},{"bike_id":"b831beff-cd30-475f-b6e5-88a78e09ec49","system_id":"levelo_inurba_marseille","lat":43.29573,"lon":5.37528,"is_reserved":false,"is_disabled":false,"rental_uris":{"android":"levelo://app?vid=b831beff-cd30-475f-b6e5-88a78e09ec49","ios":"levelo://app?vid=b831beff-cd30-475f-b6e5-88a78e09ec49"},"vehicle_type_id":"4","last_reported":1737447122,"current_range_meters":35200,"station_id":"ce4bgh92rcd13ifvqb50","pricing_plan_id":"cebpf4jnsgd1na2vs0mg"},{"bike_id":"2491be39-7386-4cd3-97fb-f649654c31c5","system_id":"levelo_inurba_marseille","lat":43.29933,"lon":5.37487,"is_reserved":false,"is_disabled":false,"rental_uris":{"android":"levelo://app?vid=2491be39-7386-4cd3-97fb-f649654c31c5","ios":"levelo://app?vid=2491be39-7386-4cd3-97fb-f649654c31c5"},"vehicle_type_id":"4","last_reported":1737447122,"current_range_meters":33200,"station_id":"ce4bgjh2rcd13ifvqbg0","pricing_plan_id":"cebpf4jnsgd1na2vs0mg"},{"bike_id":"4b4c42a9-7f73-4708-856c-d5f0c46d70e7","system_id":"levelo_inurba_marseille","lat":43.30441,"lon":5.37906,"is_reserved":false,"is_disabled":false,"rental_uris":{"android":"levelo://app?vid=4b4c42a9-7f73-4708-856c-d5f0c46d70e7","ios":"levelo://app?vid=4b4c42a9-7f73-4708-856c-d5f0c46d70e7"},"vehicle_type_id":"4","last_reported":1737447122,"current_range_meters":33600,"station_id":"ce4bgup2rcd13ifvqcn0","pricing_plan_id":"cebpf4jnsgd1na2vs0mg"},{"bike_id":"b98d1ee6-d9b6-4436-8256-e6796817c6db","system_id":"levelo_inurba_marseille","lat":43.27204,"lon":5.39191,"is_reserved":false,"is_disabled":false,"rental_uris":{"android":"levelo://app?vid=b98d1ee6-d9b6-4436-8256-e6796817c6db","ios":"levelo://app?vid=b98d1ee6-d9b6-4436-8256-e6796817c6db"},"vehicle_type_id":"4","last_reported":1737447122,"current_range_meters":22800,"station_id":"ce4bhhp2rcd13ifvqfm0","pricing_plan_id":"cebpf4jnsgd1na2vs0mg"},{"bike_id":"5957b55c-bbf3-4d79-a9fa-182e34bda710","system_id":"levelo_inurba_marseille","lat":43.26678,"lon":5.40283,"is_reserved":false,"is_disabled":false,"rental_uris":{"android":"levelo://app?vid=5957b55c-bbf3-4d79-a9fa-182e34bda710","ios":"levelo://app?vid=5957b55c-bbf3-4d79-a9fa-182e34bda710"},"vehicle_type_id":"4","last_reported":1737447122,"current_range_meters":8000,"station_id":"","pricing_plan_id":"cebpf4jnsgd1na2vs0mg"},{"bike_id":"6324b599-cd8e-46d5-b67f-d4286c6903ee","system_id":"levelo_inurba_marseille","lat":43.295708,"lon":5.375257,"is_reserved":false,"is_disabled":false,"rental_uris":{"android":"levelo://app?vid=6324b599-cd8e-46d5-b67f-d4286c6903ee","ios":"levelo://app?vid=6324b599-cd8e-46d5-b67f-d4286c6903ee"},"vehicle_type_id":"4","last_reported":1737447122,"current_range_meters":25200,"station_id":"ce4bgh92rcd13ifvqb50","pricing_plan_id":"cebpf4jnsgd1na2vs0mg"},{"bike_id":"3b8129b6-d888-4452-b961-c262972fbbf4","system_id":"levelo_inurba_marseille","lat":43.30479,"lon":5.37918,"is_reserved":false,"is_disabled":false,"rental_uris":{"android":"levelo://app?vid=3b8129b6-d888-4452-b961-c262972fbbf4","ios":"levelo://app?vid=3b8129b6-d888-4452-b961-c262972fbbf4"},"vehicle_type_id":"4","last_reported":1737447122,"current_range_meters":36000,"station_id":"ce4bgup2rcd13ifvqcn0","pricing_plan_id":"cebpf4jnsgd1na2vs0mg"},{"bike_id":"668f9767-c78d-438a-96bb-c0760f782967","system_id":"levelo_inurba_marseille","lat":43.262097,"lon":5.379193,"is_reserved":false,"is_disabled":false,"rental_uris":{"android":"levelo://app?vid=668f9767-c78d-438a-96bb-c0760f782967","ios":"levelo://app?vid=668f9767-c78d-438a-96bb-c0760f782967"},"vehicle_type_id":"4","last_reported":1737447122,"current_range_meters":28400,"station_id":"ce4bhjp2rcd13ifvqg90","pricing_plan_id":"cebpf4jnsgd1na2vs0mg"},{"bike_id":"07ca03a9-6bab-496a-937f-52a28f260425","system_id":"levelo_inurba_marseille","lat":43.24071,"lon":5.37757,"is_reserved":false,"is_disabled":false,"rental_uris":{"android":"levelo://app?vid=07ca03a9-6bab-496a-937f-52a28f260425","ios":"levelo://app?vid=07ca03a9-6bab-496a-937f-52a28f260425"},"vehicle_type_id":"4","last_reported":1737447122,"current_range_meters":31200,"station_id":"ce4bhnp2rcd13ifvqgvg","pricing_plan_id":"cebpf4jnsgd1na2vs0mg"},{"bike_id":"5b9fa318-2313-429a-968b-705fe81af405","system_id":"levelo_inurba_marseille","lat":43.25586,"lon":5.38231,"is_reserved":false,"is_disabled":false,"rental_uris":{"android":"levelo://app?vid=5b9fa318-2313-429a-968b-705fe81af405","ios":"levelo://app?vid=5b9fa318-2313-429a-968b-705fe81af405"},"vehicle_type_id":"4","last_reported":1737447122,"current_range_meters":34000,"station_id":"ce4bhih2rcd13ifvqfs0","pricing_plan_id":"cebpf4jnsgd1na2vs0mg"},{"bike_id":"d13e1ce9-dfb9-4338-9d34-66a2c5529080","system_id":"levelo_inurba_marseille","lat":43.28025,"lon":5.36942,"is_reserved":false,"is_disabled":false,"rental_uris":{"android":"levelo://app?vid=d13e1ce9-dfb9-4338-9d34-66a2c5529080","ios":"levelo://app?vid=d13e1ce9-dfb9-4338-9d34-66a2c5529080"},"vehicle_type_id":"4","last_reported":1737447122,"current_range_meters":38800,"station_id":"ce4bha12rcd13ifvqef0","pricing_plan_id":"cebpf4jnsgd1na2vs0mg"},{"bike_id":"1ebf1b0a-2f38-485e-b5f8-b22e4214d01d","system_id":"levelo_inurba_marseille","lat":43.30482,"lon":5.37901,"is_reserved":false,"is_disabled":true,"rental_uris":{"android":"levelo://app?vid=1ebf1b0a-2f38-485e-b5f8-b22e4214d01d","ios":"levelo://app?vid=1ebf1b0a-2f38-485e-b5f8-b22e4214d01d"},"vehicle_type_id":"4","last_reported":1737447122,"current_range_meters":36400,"station_id":"ce4bgup2rcd13ifvqcn0","pricing_plan_id":"cebpf4jnsgd1na2vs0mg"},{"bike_id":"62033f34-e72c-4ce5-a3ee-ea710e9916de","system_id":"levelo_inurba_marseille","lat":43.28032,"lon":5.36953,"is_reserved":false,"is_disabled":false,"rental_uris":{"android":"levelo://app?vid=62033f34-e72c-4ce5-a3ee-ea710e9916de","ios":"levelo://app?vid=62033f34-e72c-4ce5-a3ee-ea710e9916de"},"vehicle_type_id":"4","last_reported":1737447122,"current_range_meters":37600,"station_id":"ce4bha12rcd13ifvqef0","pricing_plan_id":"cebpf4jnsgd1na2vs0mg"},{"bike_id":"301a7c28-f84f-44f3-9078-f1912c12c75e","system_id":"levelo_inurba_marseille","lat":43.33615,"lon":5.41034,"is_reserved":false,"is_disabled":false,"rental_uris":{"android":"levelo://app?vid=301a7c28-f84f-44f3-9078-f1912c12c75e","ios":"levelo://app?vid=301a7c28-f84f-44f3-9078-f1912c12c75e"},"vehicle_type_id":"4","last_reported":1737447122,"current_range_meters":33600,"station_id":"ce4bhqh2rcd13ifvqhmg","pricing_plan_id":"cebpf4jnsgd1na2vs0mg"},{"bike_id":"dd2039f1-8740-4c00-8479-19e50aa83cba","system_id":"levelo_inurba_marseille","lat":43.2835,"lon":5.38103,"is_reserved":false,"is_disabled":false,"rental_uris":{"android":"levelo://app?vid=dd2039f1-8740-4c00-8479-19e50aa83cba","ios":"levelo://app?vid=dd2039f1-8740-4c00-8479-19e50aa83cba"},"vehicle_type_id":"4","last_reported":1737447122,"current_range_meters":26800,"station_id":"ce4bh412rcd13ifvqdr0","pricing_plan_id":"cebpf4jnsgd1na2vs0mg"},{"bike_id":"9ff09ad2-c3e0-445d-8ea1-0d6c58489981","system_id":"levelo_inurba_marseille","lat":43.30943,"lon":5.36818,"is_reserved":false,"is_disabled":false,"rental_uris":{"android":"levelo://app?vid=9ff09ad2-c3e0-445d-8ea1-0d6c58489981","ios":"levelo://app?vid=9ff09ad2-c3e0-445d-8ea1-0d6c58489981"},"vehicle_type_id":"4","last_reported":1737447122,"current_range_meters":29600,"station_id":"ce4bgn92rcd13ifvqbvg","pricing_plan_id":"cebpf4jnsgd1na2vs0mg"},{"bike_id":"31ad2d9a-ce05-4536-a3d3-90b3161080d2","system_id":"levelo_inurba_marseille","lat":43.29618,"lon":5.38104,"is_reserved":false,"is_disabled":false,"rental_uris":{"android":"levelo://app?vid=31ad2d9a-ce05-4536-a3d3-90b3161080d2","ios":"levelo://app?vid=31ad2d9a-ce05-4536-a3d3-90b3161080d2"},"vehicle_type_id":"4","last_reported":1737447122,"current_range_meters":36400,"station_id":"ce4bgl12rcd13ifvqbo0","pricing_plan_id":"cebpf4jnsgd1na2vs0mg"},{"bike_id":"686a45c4-240c-42ac-8f87-187e1593f8b7","system_id":"levelo_inurba_marseille","lat":43.32109,"lon":5.36767,"is_reserved":false,"is_disabled":true,"rental_uris":{"android":"levelo://app?vid=686a45c4-240c-42ac-8f87-187e1593f8b7","ios":"levelo://app?vid=686a45c4-240c-42ac-8f87-187e1593f8b7"},"vehicle_type_id":"4","last_reported":1737447122,"current_range_meters":27200,"station_id":"","pricing_plan_id":"cebpf4jnsgd1na2vs0mg"},{"bike_id":"477448eb-f60c-4a0c-8e7d-6fa92b99483b","system_id":"levelo_inurba_marseille","lat":43.3095,"lon":5.39027,"is_reserved":false,"is_disabled":false,"rental_uris":{"android":"levelo://app?vid=477448eb-f60c-4a0c-8e7d-6fa92b99483b","ios":"levelo://app?vid=477448eb-f60c-4a0c-8e7d-6fa92b99483b"},"vehicle_type_id":"4","last_reported":1737447122,"current_range_meters":25600,"station_id":"ce4bgup2rcd13ifvqco0","pricing_plan_id":"cebpf4jnsgd1na2vs0mg"},{"bike_id":"1aa0c501-5c0c-49c1-ad78-3e22ebd9bd00","system_id":"levelo_inurba_marseille","lat":43.30478,"lon":5.37908,"is_reserved":false,"is_disabled":false,"rental_uris":{"android":"levelo://app?vid=1aa0c501-5c0c-49c1-ad78-3e22ebd9bd00","ios":"levelo://app?vid=1aa0c501-5c0c-49c1-ad78-3e22ebd9bd00"},"vehicle_type_id":"4","last_reported":1737447122,"current_range_meters":37600,"station_id":"ce4bgup2rcd13ifvqcn0","pricing_plan_id":"cebpf4jnsgd1na2vs0mg"},{"bike_id":"31faccc2-9a8f-4f3f-8d1b-17a988118c8f","system_id":"levelo_inurba_marseille","lat":43.24057,"lon":5.37764,"is_reserved":false,"is_disabled":false,"rental_uris":{"android":"levelo://app?vid=31faccc2-9a8f-4f3f-8d1b-17a988118c8f","ios":"levelo://app?vid=31faccc2-9a8f-4f3f-8d1b-17a988118c8f"},"vehicle_type_id":"4","last_reported":1737447122,"current_range_meters":24000,"station_id":"ce4bhnp2rcd13ifvqgvg","pricing_plan_id":"cebpf4jnsgd1na2vs0mg"},{"bike_id":"5b4a5c93-c345-4b32-961a-b6e3d1fd64a4","system_id":"levelo_inurba_marseille","lat":43.29218,"lon":5.36087,"is_reserved":false,"is_disabled":false,"rental_uris":{"android":"levelo://app?vid=5b4a5c93-c345-4b32-961a-b6e3d1fd64a4","ios":"levelo://app?vid=5b4a5c93-c345-4b32-961a-b6e3d1fd64a4"},"vehicle_type_id":"4","last_reported":1737447122,"current_range_meters":38400,"station_id":"ce4bhbh2rcd13ifvqeqg","pricing_plan_id":"cebpf4jnsgd1na2vs0mg"},{"bike_id":"e87abcf7-cb69-4aca-bef6-dcb54c89dfbc","system_id":"levelo_inurba_marseille","lat":43.27331,"lon":5.39086,"is_reserved":false,"is_disabled":true,"rental_uris":{"android":"levelo://app?vid=e87abcf7-cb69-4aca-bef6-dcb54c89dfbc","ios":"levelo://app?vid=e87abcf7-cb69-4aca-bef6-dcb54c89dfbc"},"vehicle_type_id":"4","last_reported":1737447122,"current_range_meters":35200,"station_id":"ce4bhgp2rcd13ifvqfe0","pricing_plan_id":"cebpf4jnsgd1na2vs0mg"},{"bike_id":"478d2080-b9a4-4e97-b051-06829c0b3ab5","system_id":"levelo_inurba_marseille","lat":43.29046,"lon":5.3995,"is_reserved":false,"is_disabled":false,"rental_uris":{"android":"levelo://app?vid=478d2080-b9a4-4e97-b051-06829c0b3ab5","ios":"levelo://app?vid=478d2080-b9a4-4e97-b051-06829c0b3ab5"},"vehicle_type_id":"4","last_reported":1737447122,"current_range_meters":29600,"station_id":"ce4bh392rcd13ifvqdm0","pricing_plan_id":"cebpf4jnsgd1na2vs0mg"},{"bike_id":"f603dfbc-aa08-4060-966f-1cc52f9aa089","system_id":"levelo_inurba_marseille","lat":43.29045,"lon":5.37573,"is_reserved":false,"is_disabled":false,"rental_uris":{"android":"levelo://app?vid=f603dfbc-aa08-4060-966f-1cc52f9aa089","ios":"levelo://app?vid=f603dfbc-aa08-4060-966f-1cc52f9aa089"},"vehicle_type_id":"4","last_reported":1737447122,"current_range_meters":28400,"station_id":"ce4bh692rcd13ifvqe90","pricing_plan_id":"cebpf4jnsgd1na2vs0mg"},{"bike_id":"b5a26b79-495c-4bbb-b5b6-b37c6a195b67","system_id":"levelo_inurba_marseille","lat":43.27815,"lon":5.40706,"is_reserved":false,"is_disabled":false,"rental_uris":{"android":"levelo://app?vid=b5a26b79-495c-4bbb-b5b6-b37c6a195b67","ios":"levelo://app?vid=b5a26b79-495c-4bbb-b5b6-b37c6a195b67"},"vehicle_type_id":"4","last_reported":1737447122,"current_range_meters":32800,"station_id":"ce4bhnh2rcd13ifvqgtg","pricing_plan_id":"cebpf4jnsgd1na2vs0mg"},{"bike_id":"f29197b7-892b-4656-99c5-484d8091a1b7","system_id":"levelo_inurba_marseille","lat":43.30549,"lon":5.36715,"is_reserved":false,"is_disabled":false,"rental_uris":{"android":"levelo://app?vid=f29197b7-892b-4656-99c5-484d8091a1b7","ios":"levelo://app?vid=f29197b7-892b-4656-99c5-484d8091a1b7"},"vehicle_type_id":"4","last_reported":1737447122,"current_range_meters":31200,"station_id":"ce4bgrp2rcd13ifvqc9g","pricing_plan_id":"cebpf4jnsgd1na2vs0mg"},{"bike_id":"ba834d37-a138-4e00-bc01-7355fbf3fb3d","system_id":"levelo_inurba_marseille","lat":43.246488,"lon":5.381618,"is_reserved":false,"is_disabled":false,"rental_uris":{"android":"levelo://app?vid=ba834d37-a138-4e00-bc01-7355fbf3fb3d","ios":"levelo://app?vid=ba834d37-a138-4e00-bc01-7355fbf3fb3d"},"vehicle_type_id":"4","last_reported":1737447122,"current_range_meters":21600,"station_id":"ce4bhih2rcd13ifvqfr0","pricing_plan_id":"cebpf4jnsgd1na2vs0mg"},{"bike_id":"5434439c-80a7-45ef-8e7d-a897cb833684","system_id":"levelo_inurba_marseille","lat":43.32412,"lon":5.36756,"is_reserved":false,"is_disabled":false,"rental_uris":{"android":"levelo://app?vid=5434439c-80a7-45ef-8e7d-a897cb833684","ios":"levelo://app?vid=5434439c-80a7-45ef-8e7d-a897cb833684"},"vehicle_type_id":"4","last_reported":1737447122,"current_range_meters":3600,"station_id":"","pricing_plan_id":"cebpf4jnsgd1na2vs0mg"},{"bike_id":"888f5dbc-c5f2-4d30-a270-8e580ee458c1","system_id":"levelo_inurba_marseille","lat":43.28697,"lon":5.3739,"is_reserved":false,"is_disabled":false,"rental_uris":{"android":"levelo://app?vid=888f5dbc-c5f2-4d30-a270-8e580ee458c1","ios":"levelo://app?vid=888f5dbc-c5f2-4d30-a270-8e580ee458c1"},"vehicle_type_id":"4","last_reported":1737447122,"current_range_meters":32800,"station_id":"ce4bh3p2rcd13ifvqdq0","pricing_plan_id":"cebpf4jnsgd1na2vs0mg"},{"bike_id":"64899030-1386-4f33-8aa8-3daa0b76ca1f","system_id":"levelo_inurba_marseille","lat":43.33609,"lon":5.41007,"is_reserved":false,"is_disabled":false,"rental_uris":{"android":"levelo://app?vid=64899030-1386-4f33-8aa8-3daa0b76ca1f","ios":"levelo://app?vid=64899030-1386-4f33-8aa8-3daa0b76ca1f"},"vehicle_type_id":"4","last_reported":1737447122,"current_range_meters":11600,"station_id":"ce4bhqh2rcd13ifvqhmg","pricing_plan_id":"cebpf4jnsgd1na2vs0mg"},{"bike_id":"3692c5dd-7f10-4803-8abb-f618529762b7","system_id":"levelo_inurba_marseille","lat":43.28843,"lon":5.39314,"is_reserved":false,"is_disabled":false,"rental_uris":{"android":"levelo://app?vid=3692c5dd-7f10-4803-8abb-f618529762b7","ios":"levelo://app?vid=3692c5dd-7f10-4803-8abb-f618529762b7"},"vehicle_type_id":"4","last_reported":1737447122,"current_range_meters":29600,"station_id":"ce4bh2p2rcd13ifvqdi0","pricing_plan_id":"cebpf4jnsgd1na2vs0mg"},{"bike_id":"50267a36-8428-4ee1-ac27-ac6a771a71af","system_id":"levelo_inurba_marseille","lat":43.33697,"lon":5.35527,"is_reserved":false,"is_disabled":true,"rental_uris":{"android":"levelo://app?vid=50267a36-8428-4ee1-ac27-ac6a771a71af","ios":"levelo://app?vid=50267a36-8428-4ee1-ac27-ac6a771a71af"},"vehicle_type_id":"4","last_reported":1737447122,"current_range_meters":0,"station_id":"","pricing_plan_id":"cebpf4jnsgd1na2vs0mg"},{"bike_id":"f5863b18-13a1-4c6e-92de-5668ea912ad3","system_id":"levelo_inurba_marseille","lat":43.26234,"lon":5.40439,"is_reserved":false,"is_disabled":true,"rental_uris":{"android":"levelo://app?vid=f5863b18-13a1-4c6e-92de-5668ea912ad3","ios":"levelo://app?vid=f5863b18-13a1-4c6e-92de-5668ea912ad3"},"vehicle_type_id":"4","last_reported":1737447122,"current_range_meters":0,"station_id":"","pricing_plan_id":"cebpf4jnsgd1na2vs0mg"},{"bike_id":"3dd094e6-7b23-41d2-9e4a-a9cfaaac6a3e","system_id":"levelo_inurba_marseille","lat":43.32941,"lon":5.41017,"is_reserved":false,"is_disabled":false,"rental_uris":{"android":"levelo://app?vid=3dd094e6-7b23-41d2-9e4a-a9cfaaac6a3e","ios":"levelo://app?vid=3dd094e6-7b23-41d2-9e4a-a9cfaaac6a3e"},"vehicle_type_id":"4","last_reported":1737447122,"current_range_meters":37600,"station_id":"ce4bhqh2rcd13ifvqhmg","pricing_plan_id":"cebpf4jnsgd1na2vs0mg"},{"bike_id":"5c2eada5-c12f-4d4e-9ffe-40deaf6410ea","system_id":"levelo_inurba_marseille","lat":43.29732,"lon":5.37635,"is_reserved":false,"is_disabled":false,"rental_uris":{"android":"levelo://app?vid=5c2eada5-c12f-4d4e-9ffe-40deaf6410ea","ios":"levelo://app?vid=5c2eada5-c12f-4d4e-9ffe-40deaf6410ea"},"vehicle_type_id":"4","last_reported":1737447122,"current_range_meters":32000,"station_id":"ce4bgkh2rcd13ifvqbl0","pricing_plan_id":"cebpf4jnsgd1na2vs0mg"},{"bike_id":"233a6583-80ce-43e2-aa84-e796cbf5ca98","system_id":"levelo_inurba_marseille","lat":43.23961,"lon":5.36633,"is_reserved":false,"is_disabled":false,"rental_uris":{"android":"levelo://app?vid=233a6583-80ce-43e2-aa84-e796cbf5ca98","ios":"levelo://app?vid=233a6583-80ce-43e2-aa84-e796cbf5ca98"},"vehicle_type_id":"4","last_reported":1737447122,"current_range_meters":25200,"station_id":"ce4bhi12rcd13ifvqfp0","pricing_plan_id":"cebpf4jnsgd1na2vs0mg"},{"bike_id":"594c1384-39b6-427b-8b4d-615a1da41d12","system_id":"levelo_inurba_marseille","lat":43.27997,"lon":5.40009,"is_reserved":false,"is_disabled":false,"rental_uris":{"android":"levelo://app?vid=594c1384-39b6-427b-8b4d-615a1da41d12","ios":"levelo://app?vid=594c1384-39b6-427b-8b4d-615a1da41d12"},"vehicle_type_id":"4","last_reported":1737447122,"current_range_meters":38000,"station_id":"ce4bho92rcd13ifvqh4g","pricing_plan_id":"cebpf4jnsgd1na2vs0mg"},{"bike_id":"c396952d-f1f3-4edb-a785-472f1ff281a7","system_id":"levelo_inurba_marseille","lat":43.2618,"lon":5.37472,"is_reserved":false,"is_disabled":false,"rental_uris":{"android":"levelo://app?vid=c396952d-f1f3-4edb-a785-472f1ff281a7","ios":"levelo://app?vid=c396952d-f1f3-4edb-a785-472f1ff281a7"},"vehicle_type_id":"4","last_reported":1737447122,"current_range_meters":33200,"station_id":"ce4bhgp2rcd13ifvqfc0","pricing_plan_id":"cebpf4jnsgd1na2vs0mg"},{"bike_id":"36f9003d-43ee-4fd8-bcc9-3abdcff9b7fc","system_id":"levelo_inurba_marseille","lat":43.30417,"lon":5.39769,"is_reserved":false,"is_disabled":true,"rental_uris":{"android":"levelo://app?vid=36f9003d-43ee-4fd8-bcc9-3abdcff9b7fc","ios":"levelo://app?vid=36f9003d-43ee-4fd8-bcc9-3abdcff9b7fc"},"vehicle_type_id":"4","last_reported":1737447122,"current_range_meters":400,"station_id":"ce4bh092rcd13ifvqd20","pricing_plan_id":"cebpf4jnsgd1na2vs0mg"},{"bike_id":"4fe58642-8ec3-4f25-a4fc-eb5dc3dc47a8","system_id":"levelo_inurba_marseille","lat":43.33549,"lon":5.36141,"is_reserved":false,"is_disabled":true,"rental_uris":{"android":"levelo://app?vid=4fe58642-8ec3-4f25-a4fc-eb5dc3dc47a8","ios":"levelo://app?vid=4fe58642-8ec3-4f25-a4fc-eb5dc3dc47a8"},"vehicle_type_id":"4","last_reported":1737447122,"current_range_meters":22400,"station_id":"","pricing_plan_id":"cebpf4jnsgd1na2vs0mg"},{"bike_id":"9cccd2ff-b864-466b-83c6-b52ec2815836","system_id":"levelo_inurba_marseille","lat":43.256524,"lon":5.411277,"is_reserved":false,"is_disabled":false,"rental_uris":{"android":"levelo://app?vid=9cccd2ff-b864-466b-83c6-b52ec2815836","ios":"levelo://app?vid=9cccd2ff-b864-466b-83c6-b52ec2815836"},"vehicle_type_id":"4","last_reported":1737447122,"current_range_meters":28400,"station_id":"","pricing_plan_id":"cebpf4jnsgd1na2vs0mg"},{"bike_id":"9e6b4737-0d93-45cc-bb18-333843ee4aff","system_id":"levelo_inurba_marseille","lat":43.27488,"lon":5.4246,"is_reserved":false,"is_disabled":false,"rental_uris":{"android":"levelo://app?vid=9e6b4737-0d93-45cc-bb18-333843ee4aff","ios":"levelo://app?vid=9e6b4737-0d93-45cc-bb18-333843ee4aff"},"vehicle_type_id":"4","last_reported":1737447122,"current_range_meters":22800,"station_id":"ce4bhn92rcd13ifvqgrg","pricing_plan_id":"cebpf4jnsgd1na2vs0mg"},{"bike_id":"91205cd1-594e-404b-8d00-894de72b18ca","system_id":"levelo_inurba_marseille","lat":43.24077,"lon":5.37758,"is_reserved":false,"is_disabled":false,"rental_uris":{"android":"levelo://app?vid=91205cd1-594e-404b-8d00-894de72b18ca","ios":"levelo://app?vid=91205cd1-594e-404b-8d00-894de72b18ca"},"vehicle_type_id":"4","last_reported":1737447122,"current_range_meters":36800,"station_id":"ce4bhnp2rcd13ifvqgvg","pricing_plan_id":"cebpf4jnsgd1na2vs0mg"},{"bike_id":"5bc669ac-d025-4cd8-811c-a7c83bdeba88","system_id":"levelo_inurba_marseille","lat":43.30906,"lon":5.36851,"is_reserved":false,"is_disabled":false,"rental_uris":{"android":"levelo://app?vid=5bc669ac-d025-4cd8-811c-a7c83bdeba88","ios":"levelo://app?vid=5bc669ac-d025-4cd8-811c-a7c83bdeba88"},"vehicle_type_id":"4","last_reported":1737447122,"current_range_meters":19600,"station_id":"ce4bgn92rcd13ifvqbvg","pricing_plan_id":"cebpf4jnsgd1na2vs0mg"},{"bike_id":"b5b91842-f1aa-4bba-964f-7a9484225fb0","system_id":"levelo_inurba_marseille","lat":43.25867,"lon":5.3992,"is_reserved":false,"is_disabled":false,"rental_uris":{"android":"levelo://app?vid=b5b91842-f1aa-4bba-964f-7a9484225fb0","ios":"levelo://app?vid=b5b91842-f1aa-4bba-964f-7a9484225fb0"},"vehicle_type_id":"4","last_reported":1737447122,"current_range_meters":38800,"station_id":"ce4bhl92rcd13ifvqghg","pricing_plan_id":"cebpf4jnsgd1na2vs0mg"},{"bike_id":"ec4a5bc3-cf0f-4890-b885-7db6a0794752","system_id":"levelo_inurba_marseille","lat":43.31505,"lon":5.3729,"is_reserved":false,"is_disabled":true,"rental_uris":{"android":"levelo://app?vid=ec4a5bc3-cf0f-4890-b885-7db6a0794752","ios":"levelo://app?vid=ec4a5bc3-cf0f-4890-b885-7db6a0794752"},"vehicle_type_id":"4","last_reported":1737447122,"current_range_meters":36800,"station_id":"ce4bgt12rcd13ifvqcd0","pricing_plan_id":"cebpf4jnsgd1na2vs0mg"},{"bike_id":"60b7d049-237a-4dbd-ad0c-436ecde1802f","system_id":"levelo_inurba_marseille","lat":43.23213,"lon":5.3553,"is_reserved":false,"is_disabled":false,"rental_uris":{"android":"levelo://app?vid=60b7d049-237a-4dbd-ad0c-436ecde1802f","ios":"levelo://app?vid=60b7d049-237a-4dbd-ad0c-436ecde1802f"},"vehicle_type_id":"4","last_reported":1737447122,"current_range_meters":22000,"station_id":"ce4bhu92rcd13ifvqi70","pricing_plan_id":"cebpf4jnsgd1na2vs0mg"},{"bike_id":"eaf953c5-aa21-4bd3-993e-721f4f3c04ac","system_id":"levelo_inurba_marseille","lat":43.31997,"lon":5.3817,"is_reserved":false,"is_disabled":false,"rental_uris":{"android":"levelo://app?vid=eaf953c5-aa21-4bd3-993e-721f4f3c04ac","ios":"levelo://app?vid=eaf953c5-aa21-4bd3-993e-721f4f3c04ac"},"vehicle_type_id":"4","last_reported":1737447122,"current_range_meters":17600,"station_id":"ce4bhr12rcd13ifvqhpg","pricing_plan_id":"cebpf4jnsgd1na2vs0mg"},{"bike_id":"1ee5cc1b-614b-4925-acb6-d36b7da00468","system_id":"levelo_inurba_marseille","lat":43.2906,"lon":5.372,"is_reserved":false,"is_disabled":true,"rental_uris":{"android":"levelo://app?vid=1ee5cc1b-614b-4925-acb6-d36b7da00468","ios":"levelo://app?vid=1ee5cc1b-614b-4925-acb6-d36b7da00468"},"vehicle_type_id":"4","last_reported":1737447122,"current_range_meters":36400,"station_id":"ce4bh5p2rcd13ifvqe4g","pricing_plan_id":"cebpf4jnsgd1na2vs0mg"},{"bike_id":"ac3b4d19-9b24-43ce-861b-b5eefc2ce508","system_id":"levelo_inurba_marseille","lat":43.27487,"lon":5.42453,"is_reserved":false,"is_disabled":false,"rental_uris":{"android":"levelo://app?vid=ac3b4d19-9b24-43ce-861b-b5eefc2ce508","ios":"levelo://app?vid=ac3b4d19-9b24-43ce-861b-b5eefc2ce508"},"vehicle_type_id":"4","last_reported":1737447122,"current_range_meters":8800,"station_id":"ce4bhn92rcd13ifvqgrg","pricing_plan_id":"cebpf4jnsgd1na2vs0mg"},{"bike_id":"86d67274-3f7f-4b7f-936e-b73e7a0da0d3","system_id":"levelo_inurba_marseille","lat":43.30525,"lon":5.36691,"is_reserved":false,"is_disabled":false,"rental_uris":{"android":"levelo://app?vid=86d67274-3f7f-4b7f-936e-b73e7a0da0d3","ios":"levelo://app?vid=86d67274-3f7f-4b7f-936e-b73e7a0da0d3"},"vehicle_type_id":"4","last_reported":1737447122,"current_range_meters":38800,"station_id":"ce4bgrp2rcd13ifvqc9g","pricing_plan_id":"cebpf4jnsgd1na2vs0mg"},{"bike_id":"f2b8aeab-8c5b-4c5c-8520-4e486493b3b3","system_id":"levelo_inurba_marseille","lat":43.28298,"lon":5.4323,"is_reserved":false,"is_disabled":false,"rental_uris":{"android":"levelo://app?vid=f2b8aeab-8c5b-4c5c-8520-4e486493b3b3","ios":"levelo://app?vid=f2b8aeab-8c5b-4c5c-8520-4e486493b3b3"},"vehicle_type_id":"4","last_reported":1737447122,"current_range_meters":9200,"station_id":"","pricing_plan_id":"cebpf4jnsgd1na2vs0mg"},{"bike_id":"5a8c6244-5ad6-4c69-a241-bf40263a96eb","system_id":"levelo_inurba_marseille","lat":43.2706,"lon":5.42278,"is_reserved":false,"is_disabled":false,"rental_uris":{"android":"levelo://app?vid=5a8c6244-5ad6-4c69-a241-bf40263a96eb","ios":"levelo://app?vid=5a8c6244-5ad6-4c69-a241-bf40263a96eb"},"vehicle_type_id":"4","last_reported":1737447122,"current_range_meters":38800,"station_id":"ce4bhk92rcd13ifvqgb0","pricing_plan_id":"cebpf4jnsgd1na2vs0mg"},{"bike_id":"5f332c0c-02d1-4eb7-a43a-51173c240f7e","system_id":"levelo_inurba_marseille","lat":43.26952,"lon":5.38634,"is_reserved":false,"is_disabled":false,"rental_uris":{"android":"levelo://app?vid=5f332c0c-02d1-4eb7-a43a-51173c240f7e","ios":"levelo://app?vid=5f332c0c-02d1-4eb7-a43a-51173c240f7e"},"vehicle_type_id":"4","last_reported":1737447122,"current_range_meters":39200,"station_id":"ce4bhh92rcd13ifvqfh0","pricing_plan_id":"cebpf4jnsgd1na2vs0mg"},{"bike_id":"35adf1d8-47b5-45fe-8849-bfdf88141725","system_id":"levelo_inurba_marseille","lat":43.24062,"lon":5.37775,"is_reserved":false,"is_disabled":false,"rental_uris":{"android":"levelo://app?vid=35adf1d8-47b5-45fe-8849-bfdf88141725","ios":"levelo://app?vid=35adf1d8-47b5-45fe-8849-bfdf88141725"},"vehicle_type_id":"4","last_reported":1737447122,"current_range_meters":28400,"station_id":"ce4bhnp2rcd13ifvqgvg","pricing_plan_id":"cebpf4jnsgd1na2vs0mg"},{"bike_id":"95b517d0-9dcf-47f9-8053-773bec6e6a69","system_id":"levelo_inurba_marseille","lat":43.26684,"lon":5.39554,"is_reserved":false,"is_disabled":false,"rental_uris":{"android":"levelo://app?vid=95b517d0-9dcf-47f9-8053-773bec6e6a69","ios":"levelo://app?vid=95b517d0-9dcf-47f9-8053-773bec6e6a69"},"vehicle_type_id":"4","last_reported":1737447122,"current_range_meters":5600,"station_id":"","pricing_plan_id":"cebpf4jnsgd1na2vs0mg"},{"bike_id":"f5126947-458b-4bd7-81fa-1c7a2b6e6b5e","system_id":"levelo_inurba_marseille","lat":43.2319,"lon":5.39975,"is_reserved":false,"is_disabled":false,"rental_uris":{"android":"levelo://app?vid=f5126947-458b-4bd7-81fa-1c7a2b6e6b5e","ios":"levelo://app?vid=f5126947-458b-4bd7-81fa-1c7a2b6e6b5e"},"vehicle_type_id":"4","last_reported":1737447122,"current_range_meters":36400,"station_id":"ce4bhn12rcd13ifvqgqg","pricing_plan_id":"cebpf4jnsgd1na2vs0mg"},{"bike_id":"f3ce7fd6-1233-4a2d-aed1-e16c85ebea2e","system_id":"levelo_inurba_marseille","lat":43.32538,"lon":5.41453,"is_reserved":false,"is_disabled":true,"rental_uris":{"android":"levelo://app?vid=f3ce7fd6-1233-4a2d-aed1-e16c85ebea2e","ios":"levelo://app?vid=f3ce7fd6-1233-4a2d-aed1-e16c85ebea2e"},"vehicle_type_id":"4","last_reported":1737447122,"current_range_meters":21600,"station_id":"ce4bhq12rcd13ifvqhhg","pricing_plan_id":"cebpf4jnsgd1na2vs0mg"},{"bike_id":"4f990209-04d5-4ce5-bcf6-1abc31b5d30d","system_id":"levelo_inurba_marseille","lat":43.30538,"lon":5.36563,"is_reserved":false,"is_disabled":true,"rental_uris":{"android":"levelo://app?vid=4f990209-04d5-4ce5-bcf6-1abc31b5d30d","ios":"levelo://app?vid=4f990209-04d5-4ce5-bcf6-1abc31b5d30d"},"vehicle_type_id":"4","last_reported":1737447122,"current_range_meters":1200,"station_id":"ce4bgs12rcd13ifvqcag","pricing_plan_id":"cebpf4jnsgd1na2vs0mg"},{"bike_id":"a2665873-ff7d-4ec2-9a56-ebacf8c35007","system_id":"levelo_inurba_marseille","lat":43.29213,"lon":5.36068,"is_reserved":false,"is_disabled":false,"rental_uris":{"android":"levelo://app?vid=a2665873-ff7d-4ec2-9a56-ebacf8c35007","ios":"levelo://app?vid=a2665873-ff7d-4ec2-9a56-ebacf8c35007"},"vehicle_type_id":"4","last_reported":1737447122,"current_range_meters":28800,"station_id":"ce4bhbh2rcd13ifvqeqg","pricing_plan_id":"cebpf4jnsgd1na2vs0mg"},{"bike_id":"786757ae-b10f-40c4-b380-0b2af1144c2a","system_id":"levelo_inurba_marseille","lat":43.24077,"lon":5.3776,"is_reserved":false,"is_disabled":false,"rental_uris":{"android":"levelo://app?vid=786757ae-b10f-40c4-b380-0b2af1144c2a","ios":"levelo://app?vid=786757ae-b10f-40c4-b380-0b2af1144c2a"},"vehicle_type_id":"4","last_reported":1737447122,"current_range_meters":24800,"station_id":"ce4bhnp2rcd13ifvqgvg","pricing_plan_id":"cebpf4jnsgd1na2vs0mg"},{"bike_id":"09271c13-bc57-4a1b-ad60-73ddd2d0ee51","system_id":"levelo_inurba_marseille","lat":43.31346,"lon":5.36745,"is_reserved":false,"is_disabled":false,"rental_uris":{"android":"levelo://app?vid=09271c13-bc57-4a1b-ad60-73ddd2d0ee51","ios":"levelo://app?vid=09271c13-bc57-4a1b-ad60-73ddd2d0ee51"},"vehicle_type_id":"4","last_reported":1737447122,"current_range_meters":32800,"station_id":"ce4bgr92rcd13ifvqc6g","pricing_plan_id":"cebpf4jnsgd1na2vs0mg"},{"bike_id":"748bbd26-8b84-4deb-b770-fde9bed33d14","system_id":"levelo_inurba_marseille","lat":43.33195,"lon":5.39558,"is_reserved":false,"is_disabled":false,"rental_uris":{"android":"levelo://app?vid=748bbd26-8b84-4deb-b770-fde9bed33d14","ios":"levelo://app?vid=748bbd26-8b84-4deb-b770-fde9bed33d14"},"vehicle_type_id":"4","last_reported":1737447122,"current_range_meters":33600,"station_id":"","pricing_plan_id":"cebpf4jnsgd1na2vs0mg"},{"bike_id":"a2823e72-10c0-4726-a24c-518d1d500ca8","system_id":"levelo_inurba_marseille","lat":43.27573,"lon":5.38402,"is_reserved":false,"is_disabled":false,"rental_uris":{"android":"levelo://app?vid=a2823e72-10c0-4726-a24c-518d1d500ca8","ios":"levelo://app?vid=a2823e72-10c0-4726-a24c-518d1d500ca8"},