{"last_updated":1727950137,"ttl":60,"version":"2.2","data":{"bikes":[{"bike_id":"8bc0aa01-1d61-49ab-973d-784704f64634","system_id":"levelo_inurba_marseille","lat":43.2994,"lon":5.36522,"is_reserved":false,"is_disabled":false,"rental_uris":{"android":"levelo://app?vid=8bc0aa01-1d61-49ab-973d-784704f64634","ios":"levelo://app?vid=8bc0aa01-1d61-49ab-973d-784704f64634"},"vehicle_type_id":"4","last_reported":1727950137,"current_range_meters":38800,"station_id":"ce4bgm92rcd13ifvqbr0","pricing_plan_id":"cebpf4jnsgd1na2vs0mg"},{"bike_id":"8865a3ff-bbf9-4d88-9a8b-b1e2d5eef127","system_id":"levelo_inurba_marseille","lat":43.32367,"lon":5.38883,"is_reserved":false,"is_disabled":false,"rental_uris":{"android":"levelo://app?vid=8865a3ff-bbf9-4d88-9a8b-b1e2d5eef127","ios":"levelo://app?vid=8865a3ff-bbf9-4d88-9a8b-b1e2d5eef127"},"vehicle_type_id":"4","last_reported":1727950137,"current_range_meters":20800,"station_id":"ce4bhqp2rcd13ifvqhog","pricing_plan_id":"cebpf4jnsgd1na2vs0mg"},{"bike_id":"bc374655-6eae-4ab6-bb05-dda63ed6e782","system_id":"levelo_inurba_marseille","lat":43.30545,"lon":5.36596,"is_reserved":false,"is_disabled":false,"rental_uris":{"android":"levelo://app?vid=bc374655-6eae-4ab6-bb05-dda63ed6e782","ios":"levelo://app?vid=bc374655-6eae-4ab6-bb05-dda63ed6e782"},"vehicle_type_id":"4","last_reported":1727950137,"current_range_meters":38800,"station_id":"ce4bgs12rcd13ifvqcag","pricing_plan_id":"cebpf4jnsgd1na2vs0mg"},{"bike_id":"dfa316ed-31fe-4eb7-ae98-3312a562d760","system_id":"levelo_inurba_marseille","lat":43.27188,"lon":5.40989,"is_reserved":false,"is_disabled":false,"rental_uris":{"android":"levelo://app?vid=dfa316ed-31fe-4eb7-ae98-3312a562d760","ios":"levelo://app?vid=dfa316ed-31fe-4eb7-ae98-3312a562d760"},"vehicle_type_id":"4","last_reported":1727950137,"current_range_meters":36000,"station_id":"ce4bhl12rcd13ifvqgf0","pricing_plan_id":"cebpf4jnsgd1na2vs0mg"},{"bike_id":"df4ec099-b188-48ab-96c7-11a1ce7c7011","system_id":"levelo_inurba_marseille","lat":43.2465,"lon":5.38915,"is_reserved":false,"is_disabled":false,"rental_uris":{"android":"levelo://app?vid=df4ec099-b188-48ab-96c7-11a1ce7c7011","ios":"levelo://app?vid=df4ec099-b188-48ab-96c7-11a1ce7c7011"},"vehicle_type_id":"4","last_reported":1727950137,"current_range_meters":9600,"station_id":"ce4bhg12rcd13ifvqf60","pricing_plan_id":"cebpf4jnsgd1na2vs0mg"},{"bike_id":"2f2dac1b-1a7c-4a46-91b4-ab01373de409","system_id":"levelo_inurba_marseille","lat":43.2619,"lon":5.37457,"is_reserved":false,"is_disabled":false,"rental_uris":{"android":"levelo://app?vid=2f2dac1b-1a7c-4a46-91b4-ab01373de409","ios":"levelo://app?vid=2f2dac1b-1a7c-4a46-91b4-ab01373de409"},"vehicle_type_id":"4","last_reported":1727950137,"current_range_meters":28000,"station_id":"ce4bhgp2rcd13ifvqfc0","pricing_plan_id":"cebpf4jnsgd1na2vs0mg"},{"bike_id":"fc243098-24cb-4f5a-90e4-0e0376db7816","system_id":"levelo_inurba_marseille","lat":43.284149,"lon":5.349797,"is_reserved":false,"is_disabled":false,"rental_uris":{"android":"levelo://app?vid=fc243098-24cb-4f5a-90e4-0e0376db7816","ios":"levelo://app?vid=fc243098-24cb-4f5a-90e4-0e0376db7816"},"vehicle_type_id":"4","last_reported":1727950137,"current_range_meters":25600,"station_id":"ce4bh692rcd13ifvqe90","pricing_plan_id":"cebpf4jnsgd1na2vs0mg"},{"bike_id":"91dd8c22-d1e9-4d71-ae55-5dd7e65d7d5a","system_id":"levelo_inurba_marseille","lat":43.23147,"lon":5.43705,"is_reserved":false,"is_disabled":false,"rental_uris":{"android":"levelo://app?vid=91dd8c22-d1e9-4d71-ae55-5dd7e65d7d5a","ios":"levelo://app?vid=91dd8c22-d1e9-4d71-ae55-5dd7e65d7d5a"},"vehicle_type_id":"4","last_reported":1727950137,"current_range_meters":20400,"station_id":"ce4bhmp2rcd13ifvqgog","pricing_plan_id":"cebpf4jnsgd1na2vs0mg"},{"bike_id":"ff89b7e6-8dbb-4502-ae6b-954b46feae02","system_id":"levelo_inurba_marseille","lat":43.25004,"lon":5.38914,"is_reserved":false,"is_disabled":false,"rental_uris":{"android":"levelo://app?vid=ff89b7e6-8dbb-4502-ae6b-954b46feae02","ios":"levelo://app?vid=ff89b7e6-8dbb-4502-ae6b-954b46feae02"},"vehicle_type_id":"4","last_reported":1727950137,"current_range_meters":37600,"station_id":"ce4bhgp2rcd13ifvqfd0","pricing_plan_id":"cebpf4jnsgd1na2vs0mg"},{"bike_id":"bc41810d-3fc6-4e9c-bcc1-3b1d7bce3ce2","system_id":"levelo_inurba_marseille","lat":43.23175,"lon":5.39982,"is_reserved":false,"is_disabled":false,"rental_uris":{"android":"levelo://app?vid=bc41810d-3fc6-4e9c-bcc1-3b1d7bce3ce2","ios":"levelo://app?vid=bc41810d-3fc6-4e9c-bcc1-3b1d7bce3ce2"},"vehicle_type_id":"4","last_reported":1727950137,"current_range_meters":24800,"station_id":"ce4bhn12rcd13ifvqgqg","pricing_plan_id":"cebpf4jnsgd1na2vs0mg"},{"bike_id":"5be27cfd-2f51-431f-abf2-51279afe0380","system_id":"levelo_inurba_marseille","lat":43.30553,"lon":5.36544,"is_reserved":false,"is_disabled":false,"rental_uris":{"android":"levelo://app?vid=5be27cfd-2f51-431f-abf2-51279afe0380","ios":"levelo://app?vid=5be27cfd-2f51-431f-abf2-51279afe0380"},"vehicle_type_id":"4","last_reported":1727950137,"current_range_meters":23200,"station_id":"ce4bgs12rcd13ifvqcag","pricing_plan_id":"cebpf4jnsgd1na2vs0mg"},{"bike_id":"4b6721b8-1a28-4ce5-a9fa-1b893f7f0ac0","system_id":"levelo_inurba_marseille","lat":43.32478,"lon":5.36556,"is_reserved":false,"is_disabled":false,"rental_uris":{"android":"levelo://app?vid=4b6721b8-1a28-4ce5-a9fa-1b893f7f0ac0","ios":"levelo://app?vid=4b6721b8-1a28-4ce5-a9fa-1b893f7f0ac0"},"vehicle_type_id":"4","last_reported":1727950137,"current_range_meters":38800,"station_id":"ce4bhs12rcd13ifvqhvg","pricing_plan_id":"cebpf4jnsgd1na2vs0mg"},{"bike_id":"83e42c48-5de2-4ee8-94a3-cc510d7af4df","system_id":"levelo_inurba_marseille","lat":43.29799,"lon":5.38087,"is_reserved":false,"is_disabled":false,"rental_uris":{"android":"levelo://app?vid=83e42c48-5de2-4ee8-94a3-cc510d7af4df","ios":"levelo://app?vid=83e42c48-5de2-4ee8-94a3-cc510d7af4df"},"vehicle_type_id":"4","last_reported":1727950137,"current_range_meters":29600,"station_id":"ce4bgip2rcd13ifvqbb0","pricing_plan_id":"cebpf4jnsgd1na2vs0mg"},{"bike_id":"f0402554-d250-4a9b-bf9e-46e99b7d10ef","system_id":"levelo_inurba_marseille","lat":43.27489,"lon":5.42459,"is_reserved":false,"is_disabled":false,"rental_uris":{"android":"levelo://app?vid=f0402554-d250-4a9b-bf9e-46e99b7d10ef","ios":"levelo://app?vid=f0402554-d250-4a9b-bf9e-46e99b7d10ef"},"vehicle_type_id":"4","last_reported":1727950137,"current_range_meters":9200,"station_id":"ce4bhn92rcd13ifvqgrg","pricing_plan_id":"cebpf4jnsgd1na2vs0mg"},{"bike_id":"e0f80e16-7e80-4956-a0dd-31f64ae0a4cf","system_id":"levelo_inurba_marseille","lat":43.30524,"lon":5.36713,"is_reserved":false,"is_disabled":false,"rental_uris":{"android":"levelo://app?vid=e0f80e16-7e80-4956-a0dd-31f64ae0a4cf","ios":"levelo://app?vid=e0f80e16-7e80-4956-a0dd-31f64ae0a4cf"},"vehicle_type_id":"4","last_reported":1727950137,"current_range_meters":18800,"station_id":"ce4bgrp2rcd13ifvqc9g","pricing_plan_id":"cebpf4jnsgd1na2vs0mg"},{"bike_id":"d0355b6a-812e-44fd-a13b-7be0774fe990","system_id":"levelo_inurba_marseille","lat":43.292877,"lon":5.394334,"is_reserved":false,"is_disabled":false,"rental_uris":{"android":"levelo://app?vid=d0355b6a-812e-44fd-a13b-7be0774fe990","ios":"levelo://app?vid=d0355b6a-812e-44fd-a13b-7be0774fe990"},"vehicle_type_id":"4","last_reported":1727950137,"current_range_meters":22400,"station_id":"","pricing_plan_id":"cebpf4jnsgd1na2vs0mg"},{"bike_id":"5ef7cafa-57b9-4ce1-9638-102cdf54639c","system_id":"levelo_inurba_marseille","lat":43.30202,"lon":5.36626,"is_reserved":false,"is_disabled":false,"rental_uris":{"android":"levelo://app?vid=5ef7cafa-57b9-4ce1-9638-102cdf54639c","ios":"levelo://app?vid=5ef7cafa-57b9-4ce1-9638-102cdf54639c"},"vehicle_type_id":"4","last_reported":1727950137,"current_range_meters":39200,"station_id":"ce4bgrh2rcd13ifvqc8g","pricing_plan_id":"cebpf4jnsgd1na2vs0mg"},{"bike_id":"268dc80a-6843-4af9-a6ae-09dc537f44e9","system_id":"levelo_inurba_marseille","lat":43.29972,"lon":5.38488,"is_reserved":false,"is_disabled":false,"rental_uris":{"android":"levelo://app?vid=268dc80a-6843-4af9-a6ae-09dc537f44e9","ios":"levelo://app?vid=268dc80a-6843-4af9-a6ae-09dc537f44e9"},"vehicle_type_id":"4","last_reported":1727950137,"current_range_meters":11600,"station_id":"ce4bgj92rcd13ifvqbd0","pricing_plan_id":"cebpf4jnsgd1na2vs0mg"},{"bike_id":"5de7697b-ade3-4580-8008-2407cb9cb03c","system_id":"levelo_inurba_marseille","lat":43.30534,"lon":5.36538,"is_reserved":false,"is_disabled":false,"rental_uris":{"android":"levelo://app?vid=5de7697b-ade3-4580-8008-2407cb9cb03c","ios":"levelo://app?vid=5de7697b-ade3-4580-8008-2407cb9cb03c"},"vehicle_type_id":"4","last_reported":1727950137,"current_range_meters":36800,"station_id":"ce4bgs12rcd13ifvqcag","pricing_plan_id":"cebpf4jnsgd1na2vs0mg"},{"bike_id":"0a9918d7-41e5-40b7-a2f3-9509ab8baede","system_id":"levelo_inurba_marseille","lat":43.2834,"lon":5.41279,"is_reserved":false,"is_disabled":false,"rental_uris":{"android":"levelo://app?vid=0a9918d7-41e5-40b7-a2f3-9509ab8baede","ios":"levelo://app?vid=0a9918d7-41e5-40b7-a2f3-9509ab8baede"},"vehicle_type_id":"4","last_reported":1727950137,"current_range_meters":18800,"station_id":"","pricing_plan_id":"cebpf4jnsgd1na2vs0mg"},{"bike_id":"fd802ec6-87e9-40f7-8a8b-86140cac3ad3","system_id":"levelo_inurba_marseille","lat":43.2958,"lon":5.36737,"is_reserved":false,"is_disabled":false,"rental_uris":{"android":"levelo://app?vid=fd802ec6-87e9-40f7-8a8b-86140cac3ad3","ios":"levelo://app?vid=fd802ec6-87e9-40f7-8a8b-86140cac3ad3"},"vehicle_type_id":"4","last_reported":1727950137,"current_range_meters":38000,"station_id":"ce4bgph2rcd13ifvqc2g","pricing_plan_id":"cebpf4jnsgd1na2vs0mg"},{"bike_id":"16a714d4-56a8-49e7-92a3-debf531ddf74","system_id":"levelo_inurba_marseille","lat":43.24175,"lon":5.39722,"is_reserved":false,"is_disabled":false,"rental_uris":{"android":"levelo://app?vid=16a714d4-56a8-49e7-92a3-debf531ddf74","ios":"levelo://app?vid=16a714d4-56a8-49e7-92a3-debf531ddf74"},"vehicle_type_id":"4","last_reported":1727950137,"current_range_meters":25200,"station_id":"ce4bhn12rcd13ifvqgpg","pricing_plan_id":"cebpf4jnsgd1na2vs0mg"},{"bike_id":"c86382ac-a52c-44c4-ae21-a21b0f63f107","system_id":"levelo_inurba_marseille","lat":43.29254,"lon":5.40901,"is_reserved":false,"is_disabled":false,"rental_uris":{"android":"levelo://app?vid=c86382ac-a52c-44c4-ae21-a21b0f63f107","ios":"levelo://app?vid=c86382ac-a52c-44c4-ae21-a21b0f63f107"},"vehicle_type_id":"4","last_reported":1727950137,"current_range_meters":14400,"station_id":"ce4bh192rcd13ifvqdc0","pricing_plan_id":"cebpf4jnsgd1na2vs0mg"},{"bike_id":"0b6cd543-60a7-47b1-b002-d5c034bfce5f","system_id":"levelo_inurba_marseille","lat":43.30139,"lon":5.3741,"is_reserved":false,"is_disabled":false,"rental_uris":{"android":"levelo://app?vid=0b6cd543-60a7-47b1-b002-d5c034bfce5f","ios":"levelo://app?vid=0b6cd543-60a7-47b1-b002-d5c034bfce5f"},"vehicle_type_id":"4","last_reported":1727950137,"current_range_meters":27600,"station_id":"ce4bgs92rcd13ifvqcc0","pricing_plan_id":"cebpf4jnsgd1na2vs0mg"},{"bike_id":"d48c22bd-c4dc-4774-840b-c7671f45df16","system_id":"levelo_inurba_marseille","lat":43.28676,"lon":5.38665,"is_reserved":false,"is_disabled":false,"rental_uris":{"android":"levelo://app?vid=d48c22bd-c4dc-4774-840b-c7671f45df16","ios":"levelo://app?vid=d48c22bd-c4dc-4774-840b-c7671f45df16"},"vehicle_type_id":"4","last_reported":1727950137,"current_range_meters":18000,"station_id":"ce4bh492rcd13ifvqdug","pricing_plan_id":"cebpf4jnsgd1na2vs0mg"},{"bike_id":"25454cee-75e1-4829-863e-96eae8fc3747","system_id":"levelo_inurba_marseille","lat":43.34137,"lon":5.40909,"is_reserved":false,"is_disabled":false,"rental_uris":{"android":"levelo://app?vid=25454cee-75e1-4829-863e-96eae8fc3747","ios":"levelo://app?vid=25454cee-75e1-4829-863e-96eae8fc3747"},"vehicle_type_id":"4","last_reported":1727950137,"current_range_meters":39200,"station_id":"ce4bhqh2rcd13ifvqhlg","pricing_plan_id":"cebpf4jnsgd1na2vs0mg"},{"bike_id":"3133bc65-ab10-403e-97e6-930e7fa11673","system_id":"levelo_inurba_marseille","lat":43.30303,"lon":5.36908,"is_reserved":false,"is_disabled":false,"rental_uris":{"android":"levelo://app?vid=3133bc65-ab10-403e-97e6-930e7fa11673","ios":"levelo://app?vid=3133bc65-ab10-403e-97e6-930e7fa11673"},"vehicle_type_id":"4","last_reported":1727950137,"current_range_meters":7200,"station_id":"ce4bgqh2rcd13ifvqc5g","pricing_plan_id":"cebpf4jnsgd1na2vs0mg"},{"bike_id":"6c5ca904-ed34-4422-b7d5-f5ed4554a895","system_id":"levelo_inurba_marseille","lat":43.30547,"lon":5.38416,"is_reserved":false,"is_disabled":false,"rental_uris":{"android":"levelo://app?vid=6c5ca904-ed34-4422-b7d5-f5ed4554a895","ios":"levelo://app?vid=6c5ca904-ed34-4422-b7d5-f5ed4554a895"},"vehicle_type_id":"4","last_reported":1727950137,"current_range_meters":8000,"station_id":"ce4bgg92rcd13ifvqb30","pricing_plan_id":"cebpf4jnsgd1na2vs0mg"},{"bike_id":"1aa3456b-ec67-4878-ade6-654755a005bf","system_id":"levelo_inurba_marseille","lat":43.26942,"lon":5.40244,"is_reserved":false,"is_disabled":false,"rental_uris":{"android":"levelo://app?vid=1aa3456b-ec67-4878-ade6-654755a005bf","ios":"levelo://app?vid=1aa3456b-ec67-4878-ade6-654755a005bf"},"vehicle_type_id":"4","last_reported":1727950137,"current_range_meters":8400,"station_id":"cjm6bp8fraef2m0cb0m0","pricing_plan_id":"cebpf4jnsgd1na2vs0mg"},{"bike_id":"f09c7dad-fb04-4696-9876-636aa251fdfd","system_id":"levelo_inurba_marseille","lat":43.255807,"lon":5.382367,"is_reserved":false,"is_disabled":false,"rental_uris":{"android":"levelo://app?vid=f09c7dad-fb04-4696-9876-636aa251fdfd","ios":"levelo://app?vid=f09c7dad-fb04-4696-9876-636aa251fdfd"},"vehicle_type_id":"4","last_reported":1727950137,"current_range_meters":20000,"station_id":"ce4bhih2rcd13ifvqfs0","pricing_plan_id":"cebpf4jnsgd1na2vs0mg"},{"bike_id":"add76ba5-8541-479d-987c-2674a769bf7a","system_id":"levelo_inurba_marseille","lat":43.27939,"lon":5.41698,"is_reserved":false,"is_disabled":false,"rental_uris":{"android":"levelo://app?vid=add76ba5-8541-479d-987c-2674a769bf7a","ios":"levelo://app?vid=add76ba5-8541-479d-987c-2674a769bf7a"},"vehicle_type_id":"4","last_reported":1727950137,"current_range_meters":11600,"station_id":"","pricing_plan_id":"cebpf4jnsgd1na2vs0mg"},{"bike_id":"97c413f0-0499-425d-bfab-2f45162826bf","system_id":"levelo_inurba_marseille","lat":43.25488,"lon":5.37645,"is_reserved":false,"is_disabled":false,"rental_uris":{"android":"levelo://app?vid=97c413f0-0499-425d-bfab-2f45162826bf","ios":"levelo://app?vid=97c413f0-0499-425d-bfab-2f45162826bf"},"vehicle_type_id":"4","last_reported":1727950137,"current_range_meters":36400,"station_id":"ce4bhh12rcd13ifvqff0","pricing_plan_id":"cebpf4jnsgd1na2vs0mg"},{"bike_id":"78f485d1-bf5b-445b-a57f-ee387d423c2a","system_id":"levelo_inurba_marseille","lat":43.24644,"lon":5.38901,"is_reserved":false,"is_disabled":false,"rental_uris":{"android":"levelo://app?vid=78f485d1-bf5b-445b-a57f-ee387d423c2a","ios":"levelo://app?vid=78f485d1-bf5b-445b-a57f-ee387d423c2a"},"vehicle_type_id":"4","last_reported":1727950137,"current_range_meters":36400,"station_id":"ce4bhg12rcd13ifvqf60","pricing_plan_id":"cebpf4jnsgd1na2vs0mg"},{"bike_id":"93d573df-6042-4173-947f-3b8be9e772ee","system_id":"levelo_inurba_marseille","lat":43.2909,"lon":5.38139,"is_reserved":false,"is_disabled":false,"rental_uris":{"android":"levelo://app?vid=93d573df-6042-4173-947f-3b8be9e772ee","ios":"levelo://app?vid=93d573df-6042-4173-947f-3b8be9e772ee"},"vehicle_type_id":"4","last_reported":1727950137,"current_range_meters":38400,"station_id":"ce4bh512rcd13ifvqe2g","pricing_plan_id":"cebpf4jnsgd1na2vs0mg"},{"bike_id":"5ae00acb-b644-4b4e-b6ca-99b1a5dfcf2c","system_id":"levelo_inurba_marseille","lat":43.31355,"lon":5.38488,"is_reserved":false,"is_disabled":false,"rental_uris":{"android":"levelo://app?vid=5ae00acb-b644-4b4e-b6ca-99b1a5dfcf2c","ios":"levelo://app?vid=5ae00acb-b644-4b4e-b6ca-99b1a5dfcf2c"},"vehicle_type_id":"4","last_reported":1727950137,"current_range_meters":38400,"station_id":"ce4bgt92rcd13ifvqcf0","pricing_plan_id":"cebpf4jnsgd1na2vs0mg"},{"bike_id":"ffb801ac-5ca3-42a2-b542-f72fd0522feb","system_id":"levelo_inurba_marseille","lat":43.31136,"lon":5.39336,"is_reserved":false,"is_disabled":false,"rental_uris":{"android":"levelo://app?vid=ffb801ac-5ca3-42a2-b542-f72fd0522feb","ios":"levelo://app?vid=ffb801ac-5ca3-42a2-b542-f72fd0522feb"},"vehicle_type_id":"4","last_reported":1727950137,"current_range_meters":20800,"station_id":"","pricing_plan_id":"cebpf4jnsgd1na2vs0mg"},{"bike_id":"24c98704-a72f-4136-b091-895885dbb2c8","system_id":"levelo_inurba_marseille","lat":43.24083,"lon":5.37751,"is_reserved":false,"is_disabled":false,"rental_uris":{"android":"levelo://app?vid=24c98704-a72f-4136-b091-895885dbb2c8","ios":"levelo://app?vid=24c98704-a72f-4136-b091-895885dbb2c8"},"vehicle_type_id":"4","last_reported":1727950137,"current_range_meters":26800,"station_id":"ce4bhnp2rcd13ifvqgvg","pricing_plan_id":"cebpf4jnsgd1na2vs0mg"},{"bike_id":"52cbff26-46f2-4ff8-880e-528cf396d7a2","system_id":"levelo_inurba_marseille","lat":43.33604,"lon":5.41033,"is_reserved":false,"is_disabled":false,"rental_uris":{"android":"levelo://app?vid=52cbff26-46f2-4ff8-880e-528cf396d7a2","ios":"levelo://app?vid=52cbff26-46f2-4ff8-880e-528cf396d7a2"},"vehicle_type_id":"4","last_reported":1727950137,"current_range_meters":8800,"station_id":"ce4bhqh2rcd13ifvqhmg","pricing_plan_id":"cebpf4jnsgd1na2vs0mg"},{"bike_id":"d59619f5-6214-4a44-8844-7eba3a166368","system_id":"levelo_inurba_marseille","lat":43.30446,"lon":5.38889,"is_reserved":false,"is_disabled":false,"rental_uris":{"android":"levelo://app?vid=d59619f5-6214-4a44-8844-7eba3a166368","ios":"levelo://app?vid=d59619f5-6214-4a44-8844-7eba3a166368"},"vehicle_type_id":"4","last_reported":1727950137,"current_range_meters":19600,"station_id":"ce4bgk12rcd13ifvqbi0","pricing_plan_id":"cebpf4jnsgd1na2vs0mg"},{"bike_id":"0254b970-14d7-4dfc-8d38-0171ca9ae025","system_id":"levelo_inurba_marseille","lat":43.26674,"lon":5.3826,"is_reserved":false,"is_disabled":false,"rental_uris":{"android":"levelo://app?vid=0254b970-14d7-4dfc-8d38-0171ca9ae025","ios":"levelo://app?vid=0254b970-14d7-4dfc-8d38-0171ca9ae025"},"vehicle_type_id":"4","last_reported":1727950137,"current_range_meters":20400,"station_id":"ce4bhg92rcd13ifvqf90","pricing_plan_id":"cebpf4jnsgd1na2vs0mg"},{"bike_id":"b507c12a-bf18-412f-9cd0-6aa3f3e47a23","system_id":"levelo_inurba_marseille","lat":43.30562,"lon":5.36534,"is_reserved":false,"is_disabled":false,"rental_uris":{"android":"levelo://app?vid=b507c12a-bf18-412f-9cd0-6aa3f3e47a23","ios":"levelo://app?vid=b507c12a-bf18-412f-9cd0-6aa3f3e47a23"},"vehicle_type_id":"4","last_reported":1727950137,"current_range_meters":12400,"station_id":"ce4bgs12rcd13ifvqcag","pricing_plan_id":"cebpf4jnsgd1na2vs0mg"},{"bike_id":"f3ded537-2d94-4bf0-b696-14a43ed73f3a","system_id":"levelo_inurba_marseille","lat":43.3123,"lon":5.36906,"is_reserved":false,"is_disabled":false,"rental_uris":{"android":"levelo://app?vid=f3ded537-2d94-4bf0-b696-14a43ed73f3a","ios":"levelo://app?vid=f3ded537-2d94-4bf0-b696-14a43ed73f3a"},"vehicle_type_id":"4","last_reported":1727950137,"current_range_meters":29600,"station_id":"ce4bgl92rcd13ifvqbq0","pricing_plan_id":"cebpf4jnsgd1na2vs0mg"},{"bike_id":"5077e3da-46af-40a3-8277-cca140db96d3","system_id":"levelo_inurba_marseille","lat":43.33609,"lon":5.41018,"is_reserved":false,"is_disabled":false,"rental_uris":{"android":"levelo://app?vid=5077e3da-46af-40a3-8277-cca140db96d3","ios":"levelo://app?vid=5077e3da-46af-40a3-8277-cca140db96d3"},"vehicle_type_id":"4","last_reported":1727950137,"current_range_meters":24000,"station_id":"ce4bhqh2rcd13ifvqhmg","pricing_plan_id":"cebpf4jnsgd1na2vs0mg"},{"bike_id":"053e9fd7-eb8d-442d-8247-2cd4f2693372","system_id":"levelo_inurba_marseille","lat":43.28359,"lon":5.38616,"is_reserved":false,"is_disabled":false,"rental_uris":{"android":"levelo://app?vid=053e9fd7-eb8d-442d-8247-2cd4f2693372","ios":"levelo://app?vid=053e9fd7-eb8d-442d-8247-2cd4f2693372"},"vehicle_type_id":"4","last_reported":1727950137,"current_range_meters":25600,"station_id":"ce4bh492rcd13ifvqdvg","pricing_plan_id":"cebpf4jnsgd1na2vs0mg"},{"bike_id":"22094e14-fe04-4f6d-940c-3e57c3ad82a9","system_id":"levelo_inurba_marseille","lat":43.23151,"lon":5.43704,"is_reserved":false,"is_disabled":false,"rental_uris":{"android":"levelo://app?vid=22094e14-fe04-4f6d-940c-3e57c3ad82a9","ios":"levelo://app?vid=22094e14-fe04-4f6d-940c-3e57c3ad82a9"},"vehicle_type_id":"4","last_reported":1727950137,"current_range_meters":25600,"station_id":"ce4bhmp2rcd13ifvqgog","pricing_plan_id":"cebpf4jnsgd1na2vs0mg"},{"bike_id":"f6f97f2d-6d4d-44b7-b4df-5c820d9e1be3","system_id":"levelo_inurba_marseille","lat":43.27839,"lon":5.39202,"is_reserved":false,"is_disabled":false,"rental_uris":{"android":"levelo://app?vid=f6f97f2d-6d4d-44b7-b4df-5c820d9e1be3","ios":"levelo://app?vid=f6f97f2d-6d4d-44b7-b4df-5c820d9e1be3"},"vehicle_type_id":"4","last_reported":1727950137,"current_range_meters":38000,"station_id":"ce4bhjp2rcd13ifvqga0","pricing_plan_id":"cebpf4jnsgd1na2vs0mg"},{"bike_id":"dce38ac5-4dfe-41a6-835f-828c61af105f","system_id":"levelo_inurba_marseille","lat":43.2742,"lon":5.39415,"is_reserved":false,"is_disabled":false,"rental_uris":{"android":"levelo://app?vid=dce38ac5-4dfe-41a6-835f-828c61af105f","ios":"levelo://app?vid=dce38ac5-4dfe-41a6-835f-828c61af105f"},"vehicle_type_id":"4","last_reported":1727950137,"current_range_meters":38000,"station_id":"ce4bhdp2rcd13ifvqf20","pricing_plan_id":"cebpf4jnsgd1na2vs0mg"},{"bike_id":"b7046bd9-0899-4f40-956c-57be7242e42a","system_id":"levelo_inurba_marseille","lat":43.29162,"lon":5.36906,"is_reserved":false,"is_disabled":false,"rental_uris":{"android":"levelo://app?vid=b7046bd9-0899-4f40-956c-57be7242e42a","ios":"levelo://app?vid=b7046bd9-0899-4f40-956c-57be7242e42a"},"vehicle_type_id":"4","last_reported":1727950137,"current_range_meters":31200,"station_id":"","pricing_plan_id":"cebpf4jnsgd1na2vs0mg"},{"bike_id":"0d38caac-4e1b-4bc6-8634-fba8549655ca","system_id":"levelo_inurba_marseille","lat":43.32104,"lon":5.36777,"is_reserved":false,"is_disabled":false,"rental_uris":{"android":"levelo://app?vid=0d38caac-4e1b-4bc6-8634-fba8549655ca","ios":"levelo://app?vid=0d38caac-4e1b-4bc6-8634-fba8549655ca"},"vehicle_type_id":"4","last_reported":1727950137,"current_range_meters":36800,"station_id":"ce4bhrh2rcd13ifvqhug","pricing_plan_id":"cebpf4jnsgd1na2vs0mg"},{"bike_id":"bbb27d72-0252-43c1-8bee-677ba4f1e987","system_id":"levelo_inurba_marseille","lat":43.23149,"lon":5.43716,"is_reserved":false,"is_disabled":false,"rental_uris":{"android":"levelo://app?vid=bbb27d72-0252-43c1-8bee-677ba4f1e987","ios":"levelo://app?vid=bbb27d72-0252-43c1-8bee-677ba4f1e987"},"vehicle_type_id":"4","last_reported":1727950137,"current_range_meters":11200,"station_id":"ce4bhmp2rcd13ifvqgog","pricing_plan_id":"cebpf4jnsgd1na2vs0mg"},{"bike_id":"4f012cc6-31d2-4caa-8f39-337ae9626f04","system_id":"levelo_inurba_marseille","lat":43.23147,"lon":5.43714,"is_reserved":false,"is_disabled":false,"rental_uris":{"android":"levelo://app?vid=4f012cc6-31d2-4caa-8f39-337ae9626f04","ios":"levelo://app?vid=4f012cc6-31d2-4caa-8f39-337ae9626f04"},"vehicle_type_id":"4","last_reported":1727950137,"current_range_meters":8400,"station_id":"ce4bhmp2rcd13ifvqgog","pricing_plan_id":"cebpf4jnsgd1na2vs0mg"},{"bike_id":"39a282a7-0607-4c61-97ee-36c5e7310441","system_id":"levelo_inurba_marseille","lat":43.29552,"lon":5.42284,"is_reserved":false,"is_disabled":false,"rental_uris":{"android":"levelo://app?vid=39a282a7-0607-4c61-97ee-36c5e7310441","ios":"levelo://app?vid=39a282a7-0607-4c61-97ee-36c5e7310441"},"vehicle_type_id":"4","last_reported":1727950137,"current_range_meters":39200,"station_id":"ce4bhph2rcd13ifvqhdg","pricing_plan_id":"cebpf4jnsgd1na2vs0mg"},{"bike_id":"3c7ad232-3a27-488f-9a95-36ebb8728742","system_id":"levelo_inurba_marseille","lat":43.31118,"lon":5.37761,"is_reserved":false,"is_disabled":false,"rental_uris":{"android":"levelo://app?vid=3c7ad232-3a27-488f-9a95-36ebb8728742","ios":"levelo://app?vid=3c7ad232-3a27-488f-9a95-36ebb8728742"},"vehicle_type_id":"4","last_reported":1727950137,"current_range_meters":24800,"station_id":"ce4bgt92rcd13ifvqcg0","pricing_plan_id":"cebpf4jnsgd1na2vs0mg"},{"bike_id":"0c276684-a56d-4740-a5aa-cbb1c0fe31b7","system_id":"levelo_inurba_marseille","lat":43.29972,"lon":5.37177,"is_reserved":false,"is_disabled":false,"rental_uris":{"android":"levelo://app?vid=0c276684-a56d-4740-a5aa-cbb1c0fe31b7","ios":"levelo://app?vid=0c276684-a56d-4740-a5aa-cbb1c0fe31b7"},"vehicle_type_id":"4","last_reported":1727950137,"current_range_meters":22800,"station_id":"ce4bgr92rcd13ifvqc7g","pricing_plan_id":"cebpf4jnsgd1na2vs0mg"},{"bike_id":"a206afd1-5f87-4881-9f82-f59b6b528411","system_id":"levelo_inurba_marseille","lat":43.30327,"lon":5.40427,"is_reserved":false,"is_disabled":false,"rental_uris":{"android":"levelo://app?vid=a206afd1-5f87-4881-9f82-f59b6b528411","ios":"levelo://app?vid=a206afd1-5f87-4881-9f82-f59b6b528411"},"vehicle_type_id":"4","last_reported":1727950137,"current_range_meters":36800,"station_id":"ce4bh012rcd13ifvqd10","pricing_plan_id":"cebpf4jnsgd1na2vs0mg"},{"bike_id":"499cb64c-6fb8-4407-89d8-a118e3c5c28d","system_id":"levelo_inurba_marseille","lat":43.279892,"lon":5.400189,"is_reserved":false,"is_disabled":false,"rental_uris":{"android":"levelo://app?vid=499cb64c-6fb8-4407-89d8-a118e3c5c28d","ios":"levelo://app?vid=499cb64c-6fb8-4407-89d8-a118e3c5c28d"},"vehicle_type_id":"4","last_reported":1727950137,"current_range_meters":20400,"station_id":"ce4bho92rcd13ifvqh4g","pricing_plan_id":"cebpf4jnsgd1na2vs0mg"},{"bike_id":"fb4eee61-661c-4ed2-8cbf-7bca07075a53","system_id":"levelo_inurba_marseille","lat":43.27917,"lon":5.39577,"is_reserved":false,"is_disabled":false,"rental_uris":{"android":"levelo://app?vid=fb4eee61-661c-4ed2-8cbf-7bca07075a53","ios":"levelo://app?vid=fb4eee61-661c-4ed2-8cbf-7bca07075a53"},"vehicle_type_id":"4","last_reported":1727950137,"current_range_meters":22000,"station_id":"ce4bhf92rcd13ifvqf40","pricing_plan_id":"cebpf4jnsgd1na2vs0mg"},{"bike_id":"73f66102-21cd-4be5-9fb3-258e3aabfc34","system_id":"levelo_inurba_marseille","lat":43.31243,"lon":5.3684,"is_reserved":false,"is_disabled":false,"rental_uris":{"android":"levelo://app?vid=73f66102-21cd-4be5-9fb3-258e3aabfc34","ios":"levelo://app?vid=73f66102-21cd-4be5-9fb3-258e3aabfc34"},"vehicle_type_id":"4","last_reported":1727950137,"current_range_meters":40000,"station_id":"ce4bgl92rcd13ifvqbq0","pricing_plan_id":"cebpf4jnsgd1na2vs0mg"},{"bike_id":"1c08ed4a-adbb-43dc-914c-470d53fdd1a9","system_id":"levelo_inurba_marseille","lat":43.30145,"lon":5.374,"is_reserved":false,"is_disabled":false,"rental_uris":{"android":"levelo://app?vid=1c08ed4a-adbb-43dc-914c-470d53fdd1a9","ios":"levelo://app?vid=1c08ed4a-adbb-43dc-914c-470d53fdd1a9"},"vehicle_type_id":"4","last_reported":1727950137,"current_range_meters":36800,"station_id":"ce4bgs92rcd13ifvqcc0","pricing_plan_id":"cebpf4jnsgd1na2vs0mg"},{"bike_id":"8eb63676-eae2-4c2b-99d3-c2220eaa8407","system_id":"levelo_inurba_marseille","lat":43.27952,"lon":5.38694,"is_reserved":false,"is_disabled":false,"rental_uris":{"android":"levelo://app?vid=8eb63676-eae2-4c2b-99d3-c2220eaa8407","ios":"levelo://app?vid=8eb63676-eae2-4c2b-99d3-c2220eaa8407"},"vehicle_type_id":"4","last_reported":1727950137,"current_range_meters":9600,"station_id":"ce4bhg12rcd13ifvqf80","pricing_plan_id":"cebpf4jnsgd1na2vs0mg"},{"bike_id":"3e2daf70-0524-4e71-8de4-0ed4b5df5a53","system_id":"levelo_inurba_marseille","lat":43.25499,"lon":5.37645,"is_reserved":false,"is_disabled":false,"rental_uris":{"android":"levelo://app?vid=3e2daf70-0524-4e71-8de4-0ed4b5df5a53","ios":"levelo://app?vid=3e2daf70-0524-4e71-8de4-0ed4b5df5a53"},"vehicle_type_id":"4","last_reported":1727950137,"current_range_meters":24000,"station_id":"ce4bhh12rcd13ifvqff0","pricing_plan_id":"cebpf4jnsgd1na2vs0mg"},{"bike_id":"893a33ca-4d5e-4098-ae63-d5992779e7f0","system_id":"levelo_inurba_marseille","lat":43.28257,"lon":5.35077,"is_reserved":false,"is_disabled":false,"rental_uris":{"android":"levelo://app?vid=893a33ca-4d5e-4098-ae63-d5992779e7f0","ios":"levelo://app?vid=893a33ca-4d5e-4098-ae63-d5992779e7f0"},"vehicle_type_id":"4","last_reported":1727950137,"current_range_meters":38800,"station_id":"ce4bhbp2rcd13ifvqerg","pricing_plan_id":"cebpf4jnsgd1na2vs0mg"},{"bike_id":"a8edbae9-085d-40e4-91c8-4030fc88999a","system_id":"levelo_inurba_marseille","lat":43.29618,"lon":5.37166,"is_reserved":false,"is_disabled":false,"rental_uris":{"android":"levelo://app?vid=a8edbae9-085d-40e4-91c8-4030fc88999a","ios":"levelo://app?vid=a8edbae9-085d-40e4-91c8-4030fc88999a"},"vehicle_type_id":"4","last_reported":1727950137,"current_range_meters":37600,"station_id":"ce4bgnh2rcd13ifvqc0g","pricing_plan_id":"cebpf4jnsgd1na2vs0mg"},{"bike_id":"5cfc4391-5f26-443c-bd89-f8edc7c2c468","system_id":"levelo_inurba_marseille","lat":43.272106,"lon":5.391782,"is_reserved":false,"is_disabled":false,"rental_uris":{"android":"levelo://app?vid=5cfc4391-5f26-443c-bd89-f8edc7c2c468","ios":"levelo://app?vid=5cfc4391-5f26-443c-bd89-f8edc7c2c468"},"vehicle_type_id":"4","last_reported":1727950137,"current_range_meters":24800,"station_id":"ce4bhhp2rcd13ifvqfm0","pricing_plan_id":"cebpf4jnsgd1na2vs0mg"},{"bike_id":"b3cb6fd8-ec99-4b53-bf4d-1a253cf58a80","system_id":"levelo_inurba_marseille","lat":43.28267,"lon":5.35067,"is_reserved":false,"is_disabled":false,"rental_uris":{"android":"levelo://app?vid=b3cb6fd8-ec99-4b53-bf4d-1a253cf58a80","ios":"levelo://app?vid=b3cb6fd8-ec99-4b53-bf4d-1a253cf58a80"},"vehicle_type_id":"4","last_reported":1727950137,"current_range_meters":29600,"station_id":"ce4bhbp2rcd13ifvqerg","pricing_plan_id":"cebpf4jnsgd1na2vs0mg"},{"bike_id":"ad5250a1-dc93-4266-b15a-4ac0eff9ed92","system_id":"levelo_inurba_marseille","lat":43.29779,"lon":5.38129,"is_reserved":false,"is_disabled":false,"rental_uris":{"android":"levelo://app?vid=ad5250a1-dc93-4266-b15a-4ac0eff9ed92","ios":"levelo://app?vid=ad5250a1-dc93-4266-b15a-4ac0eff9ed92"},"vehicle_type_id":"4","last_reported":1727950137,"current_range_meters":8000,"station_id":"ce4bgip2rcd13ifvqbb0","pricing_plan_id":"cebpf4jnsgd1na2vs0mg"},{"bike_id":"7bfb5721-baf3-4893-bbf9-7c8112a113a1","system_id":"levelo_inurba_marseille","lat":43.27992,"lon":5.40009,"is_reserved":false,"is_disabled":false,"rental_uris":{"android":"levelo://app?vid=7bfb5721-baf3-4893-bbf9-7c8112a113a1","ios":"levelo://app?vid=7bfb5721-baf3-4893-bbf9-7c8112a113a1"},"vehicle_type_id":"4","last_reported":1727950137,"current_range_meters":35200,"station_id":"ce4bho92rcd13ifvqh4g","pricing_plan_id":"cebpf4jnsgd1na2vs0mg"},{"bike_id":"552bf509-b6e1-4ac9-9428-630f86708366","system_id":"levelo_inurba_marseille","lat":43.309,"lon":5.36859,"is_reserved":false,"is_disabled":false,"rental_uris":{"android":"levelo://app?vid=552bf509-b6e1-4ac9-9428-630f86708366","ios":"levelo://app?vid=552bf509-b6e1-4ac9-9428-630f86708366"},"vehicle_type_id":"4","last_reported":1727950137,"current_range_meters":39200,"station_id":"ce4bgn92rcd13ifvqbvg","pricing_plan_id":"cebpf4jnsgd1na2vs0mg"},{"bike_id":"69fdf13e-e66d-48a5-9ff4-6d874fa48a59","system_id":"levelo_inurba_marseille","lat":43.32527,"lon":5.41443,"is_reserved":false,"is_disabled":false,"rental_uris":{"android":"levelo://app?vid=69fdf13e-e66d-48a5-9ff4-6d874fa48a59","ios":"levelo://app?vid=69fdf13e-e66d-48a5-9ff4-6d874fa48a59"},"vehicle_type_id":"4","last_reported":1727950137,"current_range_meters":38800,"station_id":"ce4bhq12rcd13ifvqhhg","pricing_plan_id":"cebpf4jnsgd1na2vs0mg"},{"bike_id":"85f7fd24-03ef-4191-aead-7c25f2b83389","system_id":"levelo_inurba_marseille","lat":43.29699,"lon":5.377,"is_reserved":false,"is_disabled":false,"rental_uris":{"android":"levelo://app?vid=85f7fd24-03ef-4191-aead-7c25f2b83389","ios":"levelo://app?vid=85f7fd24-03ef-4191-aead-7c25f2b83389"},"vehicle_type_id":"4","last_reported":1727950137,"current_range_meters":39200,"station_id":"ce4bgkh2rcd13ifvqbl0","pricing_plan_id":"cebpf4jnsgd1na2vs0mg"},{"bike_id":"63da3757-c3d3-4b57-a2ed-d8bca15ede83","system_id":"levelo_inurba_marseille","lat":43.29936,"lon":5.36546,"is_reserved":false,"is_disabled":false,"rental_uris":{"android":"levelo://app?vid=63da3757-c3d3-4b57-a2ed-d8bca15ede83","ios":"levelo://app?vid=63da3757-c3d3-4b57-a2ed-d8bca15ede83"},"vehicle_type_id":"4","last_reported":1727950137,"current_range_meters":38800,"station_id":"ce4bgm92rcd13ifvqbr0","pricing_plan_id":"cebpf4jnsgd1na2vs0mg"},{"bike_id":"aa7b18e1-6672-4c2b-a14b-b596f410ac2a","system_id":"levelo_inurba_marseille","lat":43.27911,"lon":5.39578,"is_reserved":false,"is_disabled":false,"rental_uris":{"android":"levelo://app?vid=aa7b18e1-6672-4c2b-a14b-b596f410ac2a","ios":"levelo://app?vid=aa7b18e1-6672-4c2b-a14b-b596f410ac2a"},"vehicle_type_id":"4","last_reported":1727950137,"current_range_meters":23200,"station_id":"ce4bhf92rcd13ifvqf40","pricing_plan_id":"cebpf4jnsgd1na2vs0mg"},{"bike_id":"71df8d68-d681-474c-bc91-c17849864970","system_id":"levelo_inurba_marseille","lat":43.31219,"lon":5.3687,"is_reserved":false,"is_disabled":false,"rental_uris":{"android":"levelo://app?vid=71df8d68-d681-474c-bc91-c17849864970","ios":"levelo://app?vid=71df8d68-d681-474c-bc91-c17849864970"},"vehicle_type_id":"4","last_reported":1727950137,"current_range_meters":22000,"station_id":"ce4bgl92rcd13ifvqbq0","pricing_plan_id":"cebpf4jnsgd1na2vs0mg"},{"bike_id":"b47b6bdf-e5ed-48c6-abcc-904489cd992d","system_id":"levelo_inurba_marseille","lat":43.26953,"lon":5.38633,"is_reserved":false,"is_disabled":false,"rental_uris":{"android":"levelo://app?vid=b47b6bdf-e5ed-48c6-abcc-904489cd992d","ios":"levelo://app?vid=b47b6bdf-e5ed-48c6-abcc-904489cd992d"},"vehicle_type_id":"4","last_reported":1727950137,"current_range_meters":38000,"station_id":"ce4bhh92rcd13ifvqfh0","pricing_plan_id":"cebpf4jnsgd1na2vs0mg"},{"bike_id":"a54cfe94-7b25-4869-a5a2-ddf52c56839b","system_id":"levelo_inurba_marseille","lat":43.2454,"lon":5.3953,"is_reserved":false,"is_disabled":false,"rental_uris":{"android":"levelo://app?vid=a54cfe94-7b25-4869-a5a2-ddf52c56839b","ios":"levelo://app?vid=a54cfe94-7b25-4869-a5a2-ddf52c56839b"},"vehicle_type_id":"4","last_reported":1727950137,"current_range_meters":11200,"station_id":"ce4bhlp2rcd13ifvqgjg","pricing_plan_id":"cebpf4jnsgd1na2vs0mg"},{"bike_id":"418a1e41-1e04-4f17-85ac-6c551299276f","system_id":"levelo_inurba_marseille","lat":43.33607,"lon":5.41027,"is_reserved":false,"is_disabled":false,"rental_uris":{"android":"levelo://app?vid=418a1e41-1e04-4f17-85ac-6c551299276f","ios":"levelo://app?vid=418a1e41-1e04-4f17-85ac-6c551299276f"},"vehicle_type_id":"4","last_reported":1727950137,"current_range_meters":35200,"station_id":"ce4bhqh2rcd13ifvqhmg","pricing_plan_id":"cebpf4jnsgd1na2vs0mg"},{"bike_id":"92542e79-91f4-4480-92b9-160ca33f17dd","system_id":"levelo_inurba_marseille","lat":43.27415,"lon":5.39409,"is_reserved":false,"is_disabled":false,"rental_uris":{"android":"levelo://app?vid=92542e79-91f4-4480-92b9-160ca33f17dd","ios":"levelo://app?vid=92542e79-91f4-4480-92b9-160ca33f17dd"},"vehicle_type_id":"4","last_reported":1727950137,"current_range_meters":36800,"station_id":"ce4bhdp2rcd13ifvqf20","pricing_plan_id":"cebpf4jnsgd1na2vs0mg"},{"bike_id":"d422d47c-ac21-471d-8cdd-ba47a7b92a76","system_id":"levelo_inurba_marseille","lat":43.29915,"lon":5.37474,"is_reserved":false,"is_disabled":false,"rental_uris":{"android":"levelo://app?vid=d422d47c-ac21-471d-8cdd-ba47a7b92a76","ios":"levelo://app?vid=d422d47c-ac21-471d-8cdd-ba47a7b92a76"},"vehicle_type_id":"4","last_reported":1727950137,"current_range_meters":34800,"station_id":"ce4bgjh2rcd13ifvqbg0","pricing_plan_id":"cebpf4jnsgd1na2vs0mg"},{"bike_id":"e5b747aa-9c65-403d-8f10-52d207d6aa78","system_id":"levelo_inurba_marseille","lat":43.29572,"lon":5.37511,"is_reserved":false,"is_disabled":false,"rental_uris":{"android":"levelo://app?vid=e5b747aa-9c65-403d-8f10-52d207d6aa78","ios":"levelo://app?vid=e5b747aa-9c65-403d-8f10-52d207d6aa78"},"vehicle_type_id":"4","last_reported":1727950137,"current_range_meters":32800,"station_id":"ce4bgh92rcd13ifvqb50","pricing_plan_id":"cebpf4jnsgd1na2vs0mg"},{"bike_id":"34035cb3-8ff9-4eb1-a981-e0964c96626b","system_id":"levelo_inurba_marseille","lat":43.23052,"lon":5.35496,"is_reserved":false,"is_disabled":false,"rental_uris":{"android":"levelo://app?vid=34035cb3-8ff9-4eb1-a981-e0964c96626b","ios":"levelo://app?vid=34035cb3-8ff9-4eb1-a981-e0964c96626b"},"vehicle_type_id":"4","last_reported":1727950137,"current_range_meters":34800,"station_id":"cpo3342slgdg3j2ifvpg","pricing_plan_id":"cebpf4jnsgd1na2vs0mg"},{"bike_id":"422a7c4b-04a2-4d7a-bb60-e21896c982e3","system_id":"levelo_inurba_marseille","lat":43.26676,"lon":5.38258,"is_reserved":false,"is_disabled":false,"rental_uris":{"android":"levelo://app?vid=422a7c4b-04a2-4d7a-bb60-e21896c982e3","ios":"levelo://app?vid=422a7c4b-04a2-4d7a-bb60-e21896c982e3"},"vehicle_type_id":"4","last_reported":1727950137,"current_range_meters":8800,"station_id":"ce4bhg92rcd13ifvqf90","pricing_plan_id":"cebpf4jnsgd1na2vs0mg"},{"bike_id":"5a0f938e-7252-4534-8bff-a4a5d62e0bce","system_id":"levelo_inurba_marseille","lat":43.32533,"lon":5.41432,"is_reserved":false,"is_disabled":false,"rental_uris":{"android":"levelo://app?vid=5a0f938e-7252-4534-8bff-a4a5d62e0bce","ios":"levelo://app?vid=5a0f938e-7252-4534-8bff-a4a5d62e0bce"},"vehicle_type_id":"4","last_reported":1727950137,"current_range_meters":33600,"station_id":"ce4bhq12rcd13ifvqhhg","pricing_plan_id":"cebpf4jnsgd1na2vs0mg"},{"bike_id":"085a7bee-7e09-4679-b1fc-007be1b2df7f","system_id":"levelo_inurba_marseille","lat":43.29619,"lon":5.37154,"is_reserved":false,"is_disabled":false,"rental_uris":{"android":"levelo://app?vid=085a7bee-7e09-4679-b1fc-007be1b2df7f","ios":"levelo://app?vid=085a7bee-7e09-4679-b1fc-007be1b2df7f"},"vehicle_type_id":"4","last_reported":1727950137,"current_range_meters":16800,"station_id":"ce4bgnh2rcd13ifvqc0g","pricing_plan_id":"cebpf4jnsgd1na2vs0mg"},{"bike_id":"90837b27-359b-403d-97f0-8265592e9511","system_id":"levelo_inurba_marseille","lat":43.25722,"lon":5.41103,"is_reserved":false,"is_disabled":false,"rental_uris":{"android":"levelo://app?vid=90837b27-359b-403d-97f0-8265592e9511","ios":"levelo://app?vid=90837b27-359b-403d-97f0-8265592e9511"},"vehicle_type_id":"4","last_reported":1727950137,"current_range_meters":13600,"station_id":"ce4bhkp2rcd13ifvqgd0","pricing_plan_id":"cebpf4jnsgd1na2vs0mg"},{"bike_id":"7884148c-fd60-430b-a8c0-0ab350feb810","system_id":"levelo_inurba_marseille","lat":43.27173,"lon":5.40996,"is_reserved":false,"is_disabled":false,"rental_uris":{"android":"levelo://app?vid=7884148c-fd60-430b-a8c0-0ab350feb810","ios":"levelo://app?vid=7884148c-fd60-430b-a8c0-0ab350feb810"},"vehicle_type_id":"4","last_reported":1727950137,"current_range_meters":22800,"station_id":"ce4bhl12rcd13ifvqgf0","pricing_plan_id":"cebpf4jnsgd1na2vs0mg"},{"bike_id":"99be9f83-4a9c-46cc-9a45-fda9573ca4b0","system_id":"levelo_inurba_marseille","lat":43.29968,"lon":5.38497,"is_reserved":false,"is_disabled":false,"rental_uris":{"android":"levelo://app?vid=99be9f83-4a9c-46cc-9a45-fda9573ca4b0","ios":"levelo://app?vid=99be9f83-4a9c-46cc-9a45-fda9573ca4b0"},"vehicle_type_id":"4","last_reported":1727950137,"current_range_meters":27200,"station_id":"ce4bgj92rcd13ifvqbd0","pricing_plan_id":"cebpf4jnsgd1na2vs0mg"},{"bike_id":"80e10b6b-b930-4216-a26e-cfd3b6068366","system_id":"levelo_inurba_marseille","lat":43.30553,"lon":5.36683,"is_reserved":false,"is_disabled":false,"rental_uris":{"android":"levelo://app?vid=80e10b6b-b930-4216-a26e-cfd3b6068366","ios":"levelo://app?vid=80e10b6b-b930-4216-a26e-cfd3b6068366"},"vehicle_type_id":"4","last_reported":1727950137,"current_range_meters":31200,"station_id":"ce4bgrp2rcd13ifvqc9g","pricing_plan_id":"cebpf4jnsgd1na2vs0mg"},{"bike_id":"a292cc6b-0b15-4b33-8f09-f41be692a4eb","system_id":"levelo_inurba_marseille","lat":43.24392,"lon":5.37058,"is_reserved":false,"is_disabled":false,"rental_uris":{"android":"levelo://app?vid=a292cc6b-0b15-4b33-8f09-f41be692a4eb","ios":"levelo://app?vid=a292cc6b-0b15-4b33-8f09-f41be692a4eb"},"vehicle_type_id":"4","last_reported":1727950137,"current_range_meters":38000,"station_id":"ce4bhhh2rcd13ifvqfk0","pricing_plan_id":"cebpf4jnsgd1na2vs0mg"},{"bike_id":"c8679ab1-cd72-42e5-b36f-50f88f373f48","system_id":"levelo_inurba_marseille","lat":43.33758,"lon":5.37436,"is_reserved":false,"is_disabled":false,"rental_uris":{"android":"levelo://app?vid=c8679ab1-cd72-42e5-b36f-50f88f373f48","ios":"levelo://app?vid=c8679ab1-cd72-42e5-b36f-50f88f373f48"},"vehicle_type_id":"4","last_reported":1727950137,"current_range_meters":36400,"station_id":"","pricing_plan_id":"cebpf4jnsgd1na2vs0mg"},{"bike_id":"12d219fd-45bf-4813-a2fd-3ba51244ef60","system_id":"levelo_inurba_marseille","lat":43.30272,"lon":5.37694,"is_reserved":false,"is_disabled":false,"rental_uris":{"android":"levelo://app?vid=12d219fd-45bf-4813-a2fd-3ba51244ef60","ios":"levelo://app?vid=12d219fd-45bf-4813-a2fd-3ba51244ef60"},"vehicle_type_id":"4","last_reported":1727950137,"current_range_meters":24800,"station_id":"ce4bguh2rcd13ifvqcj0","pricing_plan_id":"cebpf4jnsgd1na2vs0mg"},{"bike_id":"3cf74a3f-8222-4d03-b2e6-c9d25d38cf35","system_id":"levelo_inurba_marseille","lat":43.24998,"lon":5.38928,"is_reserved":false,"is_disabled":false,"rental_uris":{"android":"levelo://app?vid=3cf74a3f-8222-4d03-b2e6-c9d25d38cf35","ios":"levelo://app?vid=3cf74a3f-8222-4d03-b2e6-c9d25d38cf35"},"vehicle_type_id":"4","last_reported":1727950137,"current_range_meters":37600,"station_id":"ce4bhgp2rcd13ifvqfd0","pricing_plan_id":"cebpf4jnsgd1na2vs0mg"},{"bike_id":"df35103d-0afb-4a29-bcb0-3d33b933f0f7","system_id":"levelo_inurba_marseille","lat":43.3055,"lon":5.36696,"is_reserved":false,"is_disabled":false,"rental_uris":{"android":"levelo://app?vid=df35103d-0afb-4a29-bcb0-3d33b933f0f7","ios":"levelo://app?vid=df35103d-0afb-4a29-bcb0-3d33b933f0f7"},"vehicle_type_id":"4","last_reported":1727950137,"current_range_meters":37600,"station_id":"ce4bgrp2rcd13ifvqc9g","pricing_plan_id":"cebpf4jnsgd1na2vs0mg"},{"bike_id":"fc2906d0-db21-4fe8-851a-5aa5ec9b580a","system_id":"levelo_inurba_marseille","lat":43.33603,"lon":5.41028,"is_reserved":false,"is_disabled":false,"rental_uris":{"android":"levelo://app?vid=fc2906d0-db21-4fe8-851a-5aa5ec9b580a","ios":"levelo://app?vid=fc2906d0-db21-4fe8-851a-5aa5ec9b580a"},"vehicle_type_id":"4","last_reported":1727950137,"current_range_meters":22800,"station_id":"ce4bhqh2rcd13ifvqhmg","pricing_plan_id":"cebpf4jnsgd1na2vs0mg"},{"bike_id":"de302269-fdda-4ef3-9935-87f4834e17d5","system_id":"levelo_inurba_marseille","lat":43.25932,"lon":5.40908,"is_reserved":false,"is_disabled":false,"rental_uris":{"android":"levelo://app?vid=de302269-fdda-4ef3-9935-87f4834e17d5","ios":"levelo://app?vid=de302269-fdda-4ef3-9935-87f4834e17d5"},"vehicle_type_id":"4","last_reported":1727950137,"current_range_meters":9600,"station_id":"ce4bhm92rcd13ifvqglg","pricing_plan_id":"cebpf4jnsgd1na2vs0mg"},{"bike_id":"8dec27b6-f0e0-4185-8913-f0841b1de763","system_id":"levelo_inurba_marseille","lat":43.29783,"lon":5.39381,"is_reserved":false,"is_disabled":false,"rental_uris":{"android":"levelo://app?vid=8dec27b6-f0e0-4185-8913-f0841b1de763","ios":"levelo://app?vid=8dec27b6-f0e0-4185-8913-f0841b1de763"},"vehicle_type_id":"4","last_reported":1727950137,"current_range_meters":28400,"station_id":"chh1huq6cuj3fo74tm60","pricing_plan_id":"cebpf4jnsgd1na2vs0mg"},{"bike_id":"fbca8f14-1f5c-4ab4-933a-7af7fc9b4c2b","system_id":"levelo_inurba_marseille","lat":43.28035,"lon":5.36945,"is_reserved":false,"is_disabled":false,"rental_uris":{"android":"levelo://app?vid=fbca8f14-1f5c-4ab4-933a-7af7fc9b4c2b","ios":"levelo://app?vid=fbca8f14-1f5c-4ab4-933a-7af7fc9b4c2b"},"vehicle_type_id":"4","last_reported":1727950137,"current_range_meters":24400,"station_id":"ce4bha12rcd13ifvqef0","pricing_plan_id":"cebpf4jnsgd1na2vs0mg"},{"bike_id":"630e89cd-5630-4a2d-a80d-a7bf32d4bcf9","system_id":"levelo_inurba_marseille","lat":43.283737,"lon":5.349782,"is_reserved":false,"is_disabled":false,"rental_uris":{"android":"levelo://app?vid=630e89cd-5630-4a2d-a80d-a7bf32d4bcf9","ios":"levelo://app?vid=630e89cd-5630-4a2d-a80d-a7bf32d4bcf9"},"vehicle_type_id":"4","last_reported":1727950137,"current_range_meters":17200,"station_id":"ce4bhbh2rcd13ifvqepg","pricing_plan_id":"cebpf4jnsgd1na2vs0mg"},{"bike_id":"086469e0-3a4c-449b-823f-3ab025193336","system_id":"levelo_inurba_marseille","lat":43.30142,"lon":5.38104,"is_reserved":false,"is_disabled":false,"rental_uris":{"android":"levelo://app?vid=086469e0-3a4c-449b-823f-3ab025193336","ios":"levelo://app?vid=086469e0-3a4c-449b-823f-3ab025193336"},"vehicle_type_id":"4","last_reported":1727950137,"current_range_meters":28000,"station_id":"ce4bgjp2rcd13ifvqbh0","pricing_plan_id":"cebpf4jnsgd1na2vs0mg"},{"bike_id":"fde1a248-2072-4dff-9f45-162d1b347b92","system_id":"levelo_inurba_marseille","lat":43.33609,"lon":5.41021,"is_reserved":false,"is_disabled":false,"rental_uris":{"android":"levelo://app?vid=fde1a248-2072-4dff-9f45-162d1b347b92","ios":"levelo://app?vid=fde1a248-2072-4dff-9f45-162d1b347b92"},"vehicle_type_id":"4","last_reported":1727950137,"current_range_meters":25600,"station_id":"ce4bhqh2rcd13ifvqhmg","pricing_plan_id":"cebpf4jnsgd1na2vs0mg"},{"bike_id":"2b58fe52-cecf-4d77-847f-b40d2ae6cb7d","system_id":"levelo_inurba_marseille","lat":43.31355,"lon":5.36687,"is_reserved":false,"is_disabled":false,"rental_uris":{"android":"levelo://app?vid=2b58fe52-cecf-4d77-847f-b40d2ae6cb7d","ios":"levelo://app?vid=2b58fe52-cecf-4d77-847f-b40d2ae6cb7d"},"vehicle_type_id":"4","last_reported":1727950137,"current_range_meters":4800,"station_id":"ce4bgr92rcd13ifvqc6g","pricing_plan_id":"cebpf4jnsgd1na2vs0mg"},{"bike_id":"1815b4d6-3172-47a4-bdf3-7e813b4c1840","system_id":"levelo_inurba_marseille","lat":43.23147,"lon":5.43703,"is_reserved":false,"is_disabled":false,"rental_uris":{"android":"levelo://app?vid=1815b4d6-3172-47a4-bdf3-7e813b4c1840","ios":"levelo://app?vid=1815b4d6-3172-47a4-bdf3-7e813b4c1840"},"vehicle_type_id":"4","last_reported":1727950137,"current_range_meters":14800,"station_id":"ce4bhmp2rcd13ifvqgog","pricing_plan_id":"cebpf4jnsgd1na2vs0mg"},{"bike_id":"563810eb-a038-4837-9e82-0693fa5230ae","system_id":"levelo_inurba_marseille","lat":43.30551,"lon":5.36527,"is_reserved":false,"is_disabled":false,"rental_uris":{"android":"levelo://app?vid=563810eb-a038-4837-9e82-0693fa5230ae","ios":"levelo://app?vid=563810eb-a038-4837-9e82-0693fa5230ae"},"vehicle_type_id":"4","last_reported":1727950137,"current_range_meters":37600,"station_id":"ce4bgs12rcd13ifvqcag","pricing_plan_id":"cebpf4jnsgd1na2vs0mg"},{"bike_id":"88de6b48-0d11-43d4-9930-a46ba95631c3","system_id":"levelo_inurba_marseille","lat":43.29787,"lon":5.38083,"is_reserved":false,"is_disabled":false,"rental_uris":{"android":"levelo://app?vid=88de6b48-0d11-43d4-9930-a46ba95631c3","ios":"levelo://app?vid=88de6b48-0d11-43d4-9930-a46ba95631c3"},"vehicle_type_id":"4","last_reported":1727950137,"current_range_meters":35200,"station_id":"ce4bgip2rcd13ifvqbb0","pricing_plan_id":"cebpf4jnsgd1na2vs0mg"},{"bike_id":"fc03d24b-d917-4d5d-a01b-7980fdda8afa","system_id":"levelo_inurba_marseille","lat":43.27603,"lon":5.36114,"is_reserved":false,"is_disabled":false,"rental_uris":{"android":"levelo://app?vid=fc03d24b-d917-4d5d-a01b-7980fdda8afa","ios":"levelo://app?vid=fc03d24b-d917-4d5d-a01b-7980fdda8afa"},"vehicle_type_id":"4","last_reported":1727950137,"current_range_meters":28000,"station_id":"ce4bgj92rcd13ifvqbe0","pricing_plan_id":"cebpf4jnsgd1na2vs0mg"},{"bike_id":"137d56b1-cdc7-4f99-ba23-c424b109461a","system_id":"levelo_inurba_marseille","lat":43.30132,"lon":5.37409,"is_reserved":false,"is_disabled":false,"rental_uris":{"android":"levelo://app?vid=137d56b1-cdc7-4f99-ba23-c424b109461a","ios":"levelo://app?vid=137d56b1-cdc7-4f99-ba23-c424b109461a"},"vehicle_type_id":"4","last_reported":1727950137,"current_range_meters":22400,"station_id":"ce4bgs92rcd13ifvqcc0","pricing_plan_id":"cebpf4jnsgd1na2vs0mg"},{"bike_id":"7d1b0a18-26e3-4b52-8a52-5424e1b3a5de","system_id":"levelo_inurba_marseille","lat":43.27981,"lon":5.41665,"is_reserved":false,"is_disabled":false,"rental_uris":{"android":"levelo://app?vid=7d1b0a18-26e3-4b52-8a52-5424e1b3a5de","ios":"levelo://app?vid=7d1b0a18-26e3-4b52-8a52-5424e1b3a5de"},"vehicle_type_id":"4","last_reported":1727950137,"current_range_meters":27200,"station_id":"ce4bho12rcd13ifvqh1g","pricing_plan_id":"cebpf4jnsgd1na2vs0mg"},{"bike_id":"b482df99-7ee8-4eea-8d8b-1d22667db679","system_id":"levelo_inurba_marseille","lat":43.29352,"lon":5.42827,"is_reserved":false,"is_disabled":false,"rental_uris":{"android":"levelo://app?vid=b482df99-7ee8-4eea-8d8b-1d22667db679","ios":"levelo://app?vid=b482df99-7ee8-4eea-8d8b-1d22667db679"},"vehicle_type_id":"4","last_reported":1727950137,"current_range_meters":16800,"station_id":"","pricing_plan_id":"cebpf4jnsgd1na2vs0mg"},{"bike_id":"daf80234-31fb-470b-b52a-2e074c646063","system_id":"levelo_inurba_marseille","lat":43.2557,"lon":5.38231,"is_reserved":false,"is_disabled":false,"rental_uris":{"android":"levelo://app?vid=daf80234-31fb-470b-b52a-2e074c646063","ios":"levelo://app?vid=daf80234-31fb-470b-b52a-2e074c646063"},"vehicle_type_id":"4","last_reported":1727950137,"current_range_meters":34000,"station_id":"ce4bhih2rcd13ifvqfs0","pricing_plan_id":"cebpf4jnsgd1na2vs0mg"},{"bike_id":"a8b2aa6c-dd63-41a5-a80c-94a313a9fcac","system_id":"levelo_inurba_marseille","lat":43.29795,"lon":5.3808,"is_reserved":false,"is_disabled":false,"rental_uris":{"android":"levelo://app?vid=a8b2aa6c-dd63-41a5-a80c-94a313a9fcac","ios":"levelo://app?vid=a8b2aa6c-dd63-41a5-a80c-94a313a9fcac"},"vehicle_type_id":"4","last_reported":1727950137,"current_range_meters":33600,"station_id":"ce4bgip2rcd13ifvqbb0","pricing_plan_id":"cebpf4jnsgd1na2vs0mg"},{"bike_id":"2f3f3b72-0d8c-42ad-af2a-bf7c9e534880","system_id":"levelo_inurba_marseille","lat":43.28999,"lon":5.35615,"is_reserved":false,"is_disabled":false,"rental_uris":{"android":"levelo://app?vid=2f3f3b72-0d8c-42ad-af2a-bf7c9e534880","ios":"levelo://app?vid=2f3f3b72-0d8c-42ad-af2a-bf7c9e534880"},"vehicle_type_id":"4","last_reported":1727950137,"current_range_meters":26000,"station_id":"ce4bhb92rcd13ifvqen0","pricing_plan_id":"cebpf4jnsgd1na2vs0mg"},{"bike_id":"7e2c5630-b79c-4b21-bae5-6341647ed023","system_id":"levelo_inurba_marseille","lat":43.23147,"lon":5.43703,"is_reserved":false,"is_disabled":false,"rental_uris":{"android":"levelo://app?vid=7e2c5630-b79c-4b21-bae5-6341647ed023","ios":"levelo://app?vid=7e2c5630-b79c-4b21-bae5-6341647ed023"},"vehicle_type_id":"4","last_reported":1727950137,"current_range_meters":10000,"station_id":"ce4bhmp2rcd13ifvqgog","pricing_plan_id":"cebpf4jnsgd1na2vs0mg"},{"bike_id":"97f69b04-580a-47fc-86b4-124ed7d7731e","system_id":"levelo_inurba_marseille","lat":43.30782,"lon":5.37649,"is_reserved":false,"is_disabled":false,"rental_uris":{"android":"levelo://app?vid=97f69b04-580a-47fc-86b4-124ed7d7731e","ios":"levelo://app?vid=97f69b04-580a-47fc-86b4-124ed7d7731e"},"vehicle_type_id":"4","last_reported":1727950137,"current_range_meters":18000,"station_id":"ce4bgv92rcd13ifvqcq0","pricing_plan_id":"cebpf4jnsgd1na2vs0mg"},{"bike_id":"fc4827cf-1384-4474-9e81-eba80f8ad490","system_id":"levelo_inurba_marseille","lat":43.33757,"lon":5.37439,"is_reserved":false,"is_disabled":false,"rental_uris":{"android":"levelo://app?vid=fc4827cf-1384-4474-9e81-eba80f8ad490","ios":"levelo://app?vid=fc4827cf-1384-4474-9e81-eba80f8ad490"},"vehicle_type_id":"4","last_reported":1727950137,"current_range_meters":36800,"station_id":"","pricing_plan_id":"cebpf4jnsgd1na2vs0mg"},{"bike_id":"43215cd2-65e6-47b8-9f40-8388f8c8b262","system_id":"levelo_inurba_marseille","lat":43.25932,"lon":5.40905,"is_reserved":false,"is_disabled":false,"rental_uris":{"android":"levelo://app?vid=43215cd2-65e6-47b8-9f40-8388f8c8b262","ios":"levelo://app?vid=43215cd2-65e6-47b8-9f40-8388f8c8b262"},"vehicle_type_id":"4","last_reported":1727950137,"current_range_meters":24800,"station_id":"ce4bhm92rcd13ifvqglg","pricing_plan_id":"cebpf4jnsgd1na2vs0mg"},{"bike_id":"39b7eeeb-5a82-407d-96f2-0e17fc3d9cd2","system_id":"levelo_inurba_marseille","lat":43.3079,"lon":5.37647,"is_reserved":false,"is_disabled":false,"rental_uris":{"android":"levelo://app?vid=39b7eeeb-5a82-407d-96f2-0e17fc3d9cd2","ios":"levelo://app?vid=39b7eeeb-5a82-407d-96f2-0e17fc3d9cd2"},"vehicle_type_id":"4","last_reported":1727950137,"current_range_meters":18000,"station_id":"ce4bgv92rcd13ifvqcq0","pricing_plan_id":"cebpf4jnsgd1na2vs0mg"},{"bike_id":"53c6fe7a-c5f0-4c29-bdb6-08c6c7db5c71","system_id":"levelo_inurba_marseille","lat":43.32098,"lon":5.36775,"is_reserved":false,"is_disabled":false,"rental_uris":{"android":"levelo://app?vid=53c6fe7a-c5f0-4c29-bdb6-08c6c7db5c71","ios":"levelo://app?vid=53c6fe7a-c5f0-4c29-bdb6-08c6c7db5c71"},"vehicle_type_id":"4","last_reported":1727950137,"current_range_meters":10000,"station_id":"ce4bhrh2rcd13ifvqhug","pricing_plan_id":"cebpf4jnsgd1na2vs0mg"},{"bike_id":"8cd4967a-5c3b-494d-8d94-4caf3da84f74","system_id":"levelo_inurba_marseille","lat":43.25933,"lon":5.40911,"is_reserved":false,"is_disabled":false,"rental_uris":{"android":"levelo://app?vid=8cd4967a-5c3b-494d-8d94-4caf3da84f74","ios":"levelo://app?vid=8cd4967a-5c3b-494d-8d94-4caf3da84f74"},"vehicle_type_id":"4","last_reported":1727950137,"current_range_meters":8000,"station_id":"ce4bhm92rcd13ifvqglg","pricing_plan_id":"cebpf4jnsgd1na2vs0mg"},{"bike_id":"3bfeb359-d5a3-4e82-a8c1-2660f47a3245","system_id":"levelo_inurba_marseille","lat":43.30139,"lon":5.37407,"is_reserved":false,"is_disabled":false,"rental_uris":{"android":"levelo://app?vid=3bfeb359-d5a3-4e82-a8c1-2660f47a3245","ios":"levelo://app?vid=3bfeb359-d5a3-4e82-a8c1-2660f47a3245"},"vehicle_type_id":"4","last_reported":1727950137,"current_range_meters":20400,"station_id":"ce4bgs92rcd13ifvqcc0","pricing_plan_id":"cebpf4jnsgd1na2vs0mg"},{"bike_id":"6ce60676-3f86-4aaa-a5df-572436c32ad4","system_id":"levelo_inurba_marseille","lat":43.23193,"lon":5.35543,"is_reserved":false,"is_disabled":false,"rental_uris":{"android":"levelo://app?vid=6ce60676-3f86-4aaa-a5df-572436c32ad4","ios":"levelo://app?vid=6ce60676-3f86-4aaa-a5df-572436c32ad4"},"vehicle_type_id":"4","last_reported":1727950137,"current_range_meters":20400,"station_id":"ce4bhu92rcd13ifvqi70","pricing_plan_id":"cebpf4jnsgd1na2vs0mg"},{"bike_id":"5073b5ba-a375-4a4c-a709-0510ed11b353","system_id":"levelo_inurba_marseille","lat":43.29845,"lon":5.36272,"is_reserved":false,"is_disabled":false,"rental_uris":{"android":"levelo://app?vid=5073b5ba-a375-4a4c-a709-0510ed11b353","ios":"levelo://app?vid=5073b5ba-a375-4a4c-a709-0510ed11b353"},"vehicle_type_id":"4","last_reported":1727950137,"current_range_meters":30000,"station_id":"ce4bgpp2rcd13ifvqc3g","pricing_plan_id":"cebpf4jnsgd1na2vs0mg"},{"bike_id":"f1a6c662-1f2f-43d3-bba4-20a506ee3ee3","system_id":"levelo_inurba_marseille","lat":43.30133,"lon":5.37415,"is_reserved":false,"is_disabled":false,"rental_uris":{"android":"levelo://app?vid=f1a6c662-1f2f-43d3-bba4-20a506ee3ee3","ios":"levelo://app?vid=f1a6c662-1f2f-43d3-bba4-20a506ee3ee3"},"vehicle_type_id":"4","last_reported":1727950137,"current_range_meters":31200,"station_id":"ce4bgs92rcd13ifvqcc0","pricing_plan_id":"cebpf4jnsgd1na2vs0mg"},{"bike_id":"d0b73ff8-ea08-4c04-a243-12fcb1683ec3","system_id":"levelo_inurba_marseille","lat":43.25,"lon":5.38924,"is_reserved":false,"is_disabled":false,"rental_uris":{"android":"levelo://app?vid=d0b73ff8-ea08-4c04-a243-12fcb1683ec3","ios":"levelo://app?vid=d0b73ff8-ea08-4c04-a243-12fcb1683ec3"},"vehicle_type_id":"4","last_reported":1727950137,"current_range_meters":3600,"station_id":"ce4bhgp2rcd13ifvqfd0","pricing_plan_id":"cebpf4jnsgd1na2vs0mg"},{"bike_id":"3698a977-a7b5-4b94-af60-6886ee2a328a","system_id":"levelo_inurba_marseille","lat":43.2315,"lon":5.43716,"is_reserved":false,"is_disabled":false,"rental_uris":{"android":"levelo://app?vid=3698a977-a7b5-4b94-af60-6886ee2a328a","ios":"levelo://app?vid=3698a977-a7b5-4b94-af60-6886ee2a328a"},"vehicle_type_id":"4","last_reported":1727950137,"current_range_meters":19600,"station_id":"ce4bhmp2rcd13ifvqgog","pricing_plan_id":"cebpf4jnsgd1na2vs0mg"},{"bike_id":"c44517f6-e519-4b9a-af41-7bba70751b24","system_id":"levelo_inurba_marseille","lat":43.24179,"lon":5.39726,"is_reserved":false,"is_disabled":false,"rental_uris":{"android":"levelo://app?vid=c44517f6-e519-4b9a-af41-7bba70751b24","ios":"levelo://app?vid=c44517f6-e519-4b9a-af41-7bba70751b24"},"vehicle_type_id":"4","last_reported":1727950137,"current_range_meters":34800,"station_id":"ce4bhn12rcd13ifvqgpg","pricing_plan_id":"cebpf4jnsgd1na2vs0mg"},{"bike_id":"18546fdf-b8ba-4aec-a245-1c584b1703fb","system_id":"levelo_inurba_marseille","lat":43.30149,"lon":5.38081,"is_reserved":false,"is_disabled":false,"rental_uris":{"android":"levelo://app?vid=18546fdf-b8ba-4aec-a245-1c584b1703fb","ios":"levelo://app?vid=18546fdf-b8ba-4aec-a245-1c584b1703fb"},"vehicle_type_id":"4","last_reported":1727950137,"current_range_meters":36400,"station_id":"ce4bgjp2rcd13ifvqbh0","pricing_plan_id":"cebpf4jnsgd1na2vs0mg"},{"bike_id":"2bd41e8f-595a-48d8-87d1-c39e3b02765b","system_id":"levelo_inurba_marseille","lat":43.33746,"lon":5.37437,"is_reserved":false,"is_disabled":false,"rental_uris":{"android":"levelo://app?vid=2bd41e8f-595a-48d8-87d1-c39e3b02765b","ios":"levelo://app?vid=2bd41e8f-595a-48d8-87d1-c39e3b02765b"},"vehicle_type_id":"4","last_reported":1727950137,"current_range_meters":36000,"station_id":"","pricing_plan_id":"cebpf4jnsgd1na2vs0mg"},{"bike_id":"a5f09958-d5f7-434a-b440-c490259f983c","system_id":"levelo_inurba_marseille","lat":43.29607,"lon":5.3773,"is_reserved":false,"is_disabled":false,"rental_uris":{"android":"levelo://app?vid=a5f09958-d5f7-434a-b440-c490259f983c","ios":"levelo://app?vid=a5f09958-d5f7-434a-b440-c490259f983c"},"vehicle_type_id":"4","last_reported":1727950137,"current_range_meters":38000,"station_id":"ce4bgi92rcd13ifvqb90","pricing_plan_id":"cebpf4jnsgd1na2vs0mg"},{"bike_id":"8eb12a05-ad2f-417a-a40c-8e56843caf68","system_id":"levelo_inurba_marseille","lat":43.26785,"lon":5.39419,"is_reserved":false,"is_disabled":false,"rental_uris":{"android":"levelo://app?vid=8eb12a05-ad2f-417a-a40c-8e56843caf68","ios":"levelo://app?vid=8eb12a05-ad2f-417a-a40c-8e56843caf68"},"vehicle_type_id":"4","last_reported":1727950137,"current_range_meters":27200,"station_id":"ce4bhh12rcd13ifvqfg0","pricing_plan_id":"cebpf4jnsgd1na2vs0mg"},{"bike_id":"693aa078-f583-417b-a806-2589cdefdd66","system_id":"levelo_inurba_marseille","lat":43.29178,"lon":5.37145,"is_reserved":false,"is_disabled":false,"rental_uris":{"android":"levelo://app?vid=693aa078-f583-417b-a806-2589cdefdd66","ios":"levelo://app?vid=693aa078-f583-417b-a806-2589cdefdd66"},"vehicle_type_id":"4","last_reported":1727950137,"current_range_meters":24800,"station_id":"ce4bhbh2rcd13ifvqepg","pricing_plan_id":"cebpf4jnsgd1na2vs0mg"},{"bike_id":"626473b8-1234-4a02-b712-2c8ca9913b13","system_id":"levelo_inurba_marseille","lat":43.24995,"lon":5.38929,"is_reserved":false,"is_disabled":false,"rental_uris":{"android":"levelo://app?vid=626473b8-1234-4a02-b712-2c8ca9913b13","ios":"levelo://app?vid=626473b8-1234-4a02-b712-2c8ca9913b13"},"vehicle_type_id":"4","last_reported":1727950137,"current_range_meters":9200,"station_id":"ce4bhgp2rcd13ifvqfd0","pricing_plan_id":"cebpf4jnsgd1na2vs0mg"},{"bike_id":"9e0f3fae-960a-459e-9544-640ffabb4848","system_id":"levelo_inurba_marseille","lat":43.31995,"lon":5.38145,"is_reserved":false,"is_disabled":false,"rental_uris":{"android":"levelo://app?vid=9e0f3fae-960a-459e-9544-640ffabb4848","ios":"levelo://app?vid=9e0f3fae-960a-459e-9544-640ffabb4848"},"vehicle_type_id":"4","last_reported":1727950137,"current_range_meters":35200,"station_id":"ce4bhr12rcd13ifvqhpg","pricing_plan_id":"cebpf4jnsgd1na2vs0mg"},{"bike_id":"97b20220-b35b-4089-862f-38e0cf15f760","system_id":"levelo_inurba_marseille","lat":43.26772,"lon":5.39422,"is_reserved":false,"is_disabled":false,"rental_uris":{"android":"levelo://app?vid=97b20220-b35b-4089-862f-38e0cf15f760","ios":"levelo://app?vid=97b20220-b35b-4089-862f-38e0cf15f760"},"vehicle_type_id":"4","last_reported":1727950137,"current_range_meters":8800,"station_id":"ce4bhh12rcd13ifvqfg0","pricing_plan_id":"cebpf4jnsgd1na2vs0mg"},{"bike_id":"0066c6b0-1057-4400-85b9-4677ce2f8905","system_id":"levelo_inurba_marseille","lat":43.29842,"lon":5.36261,"is_reserved":false,"is_disabled":false,"rental_uris":{"android":"levelo://app?vid=0066c6b0-1057-4400-85b9-4677ce2f8905","ios":"levelo://app?vid=0066c6b0-1057-4400-85b9-4677ce2f8905"},"vehicle_type_id":"4","last_reported":1727950137,"current_range_meters":17200,"station_id":"ce4bgpp2rcd13ifvqc3g","pricing_plan_id":"cebpf4jnsgd1na2vs0mg"},{"bike_id":"abfa74ce-ac56-4bd7-af8d-9fbafd2dc3d5","system_id":"levelo_inurba_marseille","lat":43.2396,"lon":5.36636,"is_reserved":false,"is_disabled":false,"rental_uris":{"android":"levelo://app?vid=abfa74ce-ac56-4bd7-af8d-9fbafd2dc3d5","ios":"levelo://app?vid=abfa74ce-ac56-4bd7-af8d-9fbafd2dc3d5"},"vehicle_type_id":"4","last_reported":1727950137,"current_range_meters":26000,"station_id":"ce4bhi12rcd13ifvqfp0","pricing_plan_id":"cebpf4jnsgd1na2vs0mg"},{"bike_id":"e1a289e3-9a3b-48ca-8adb-3428ce215cfc","system_id":"levelo_inurba_marseille","lat":43.26204,"lon":5.37927,"is_reserved":false,"is_disabled":false,"rental_uris":{"android":"levelo://app?vid=e1a289e3-9a3b-48ca-8adb-3428ce215cfc","ios":"levelo://app?vid=e1a289e3-9a3b-48ca-8adb-3428ce215cfc"},"vehicle_type_id":"4","last_reported":1727950137,"current_range_meters":38000,"station_id":"ce4bhjp2rcd13ifvqg90","pricing_plan_id":"cebpf4jnsgd1na2vs0mg"},{"bike_id":"dd2136d0-9b5b-4b6a-a461-0b941d839dee","system_id":"levelo_inurba_marseille","lat":43.30246,"lon":5.40075,"is_reserved":false,"is_disabled":false,"rental_uris":{"android":"levelo://app?vid=dd2136d0-9b5b-4b6a-a461-0b941d839dee","ios":"levelo://app?vid=dd2136d0-9b5b-4b6a-a461-0b941d839dee"},"vehicle_type_id":"4","last_reported":1727950137,"current_range_meters":9600,"station_id":"ce4bgvh2rcd13ifvqcs0","pricing_plan_id":"cebpf4jnsgd1na2vs0mg"},{"bike_id":"7c4b1431-91b4-4236-acaa-b1a4245ffa92","system_id":"levelo_inurba_marseille","lat":43.29764,"lon":5.37126,"is_reserved":false,"is_disabled":false,"rental_uris":{"android":"levelo://app?vid=7c4b1431-91b4-4236-acaa-b1a4245ffa92","ios":"levelo://app?vid=7c4b1431-91b4-4236-acaa-b1a4245ffa92"},"vehicle_type_id":"4","last_reported":1727950137,"current_range_meters":26800,"station_id":"ce4bgop2rcd13ifvqc1g","pricing_plan_id":"cebpf4jnsgd1na2vs0mg"},{"bike_id":"eff113c7-59b9-441e-aff3-5dd68542a590","system_id":"levelo_inurba_marseille","lat":43.246717,"lon":5.38156,"is_reserved":false,"is_disabled":false,"rental_uris":{"android":"levelo://app?vid=eff113c7-59b9-441e-aff3-5dd68542a590","ios":"levelo://app?vid=eff113c7-59b9-441e-aff3-5dd68542a590"},"vehicle_type_id":"4","last_reported":1727950137,"current_range_meters":28000,"station_id":"ce4bhih2rcd13ifvqfr0","pricing_plan_id":"cebpf4jnsgd1na2vs0mg"},{"bike_id":"6c5a26eb-ee07-4d34-9b92-1ad63d0731a1","system_id":"levelo_inurba_marseille","lat":43.30292,"lon":5.37689,"is_reserved":false,"is_disabled":false,"rental_uris":{"android":"levelo://app?vid=6c5a26eb-ee07-4d34-9b92-1ad63d0731a1","ios":"levelo://app?vid=6c5a26eb-ee07-4d34-9b92-1ad63d0731a1"},"vehicle_type_id":"4","last_reported":1727950137,"current_range_meters":35200,"station_id":"ce4bguh2rcd13ifvqcj0","pricing_plan_id":"cebpf4jnsgd1na2vs0mg"},{"bike_id":"7222d66c-4074-45e2-8c20-6c648bc26aa7","system_id":"levelo_inurba_marseille","lat":43.28149,"lon":5.42627,"is_reserved":false,"is_disabled":false,"rental_uris":{"android":"levelo://app?vid=7222d66c-4074-45e2-8c20-6c648bc26aa7","ios":"levelo://app?vid=7222d66c-4074-45e2-8c20-6c648bc26aa7"},"vehicle_type_id":"4","last_reported":1727950137,"current_range_meters":36800,"station_id":"ce4bhnh2rcd13ifvqgug","pricing_plan_id":"cebpf4jnsgd1na2vs0mg"},{"bike_id":"dea2100c-9638-44c0-8cae-b9b09d5e7c8a","system_id":"levelo_inurba_marseille","lat":43.26781,"lon":5.39413,"is_reserved":false,"is_disabled":false,"rental_uris":{"android":"levelo://app?vid=dea2100c-9638-44c0-8cae-b9b09d5e7c8a","ios":"levelo://app?vid=dea2100c-9638-44c0-8cae-b9b09d5e7c8a"},"vehicle_type_id":"4","last_reported":1727950137,"current_range_meters":23200,"station_id":"ce4bhh12rcd13ifvqfg0","pricing_plan_id":"cebpf4jnsgd1na2vs0mg"},{"bike_id":"8c4ea1f5-cdf1-450a-831a-fc2c3671ec2d","system_id":"levelo_inurba_marseille","lat":43.25824,"lon":5.3943,"is_reserved":false,"is_disabled":false,"rental_uris":{"android":"levelo://app?vid=8c4ea1f5-cdf1-450a-831a-fc2c3671ec2d","ios":"levelo://app?vid=8c4ea1f5-cdf1-450a-831a-fc2c3671ec2d"},"vehicle_type_id":"4","last_reported":1727950137,"current_range_meters":6400,"station_id":"ce4bhip2rcd13ifvqft0","pricing_plan_id":"cebpf4jnsgd1na2vs0mg"},{"bike_id":"c8e4ff73-620c-4248-92f7-758d5098242c","system_id":"levelo_inurba_marseille","lat":43.22928,"lon":5.35376,"is_reserved":false,"is_disabled":false,"rental_uris":{"android":"levelo://app?vid=c8e4ff73-620c-4248-92f7-758d5098242c","ios":"levelo://app?vid=c8e4ff73-620c-4248-92f7-758d5098242c"},"vehicle_type_id":"4","last_reported":1727950137,"current_range_meters":28000,"station_id":"cpo3532slgdg3j2ikp40","pricing_plan_id":"cebpf4jnsgd1na2vs0mg"},{"bike_id":"2febd4d6-c0e7-4a8d-93bf-569651aa5ec5","system_id":"levelo_inurba_marseille","lat":43.29785,"lon":5.38089,"is_reserved":false,"is_disabled":false,"rental_uris":{"android":"levelo://app?vid=2febd4d6-c0e7-4a8d-93bf-569651aa5ec5","ios":"levelo://app?vid=2febd4d6-c0e7-4a8d-93bf-569651aa5ec5"},"vehicle_type_id":"4","last_reported":1727950137,"current_range_meters":32000,"station_id":"ce4bgip2rcd13ifvqbb0","pricing_plan_id":"cebpf4jnsgd1na2vs0mg"},{"bike_id":"5fd74767-be89-4d70-934d-0d640f37cdd6","system_id":"levelo_inurba_marseille","lat":43.23148,"lon":5.43706,"is_reserved":false,"is_disabled":false,"rental_uris":{"android":"levelo://app?vid=5fd74767-be89-4d70-934d-0d640f37cdd6","ios":"levelo://app?vid=5fd74767-be89-4d70-934d-0d640f37cdd6"},"vehicle_type_id":"4","last_reported":1727950137,"current_range_meters":18000,"station_id":"ce4bhmp2rcd13ifvqgog","pricing_plan_id":"cebpf4jnsgd1na2vs0mg"},{"bike_id":"8e46cc04-0d73-4d44-bfda-a7b9a5ee2297","system_id":"levelo_inurba_marseille","lat":43.31117,"lon":5.37766,"is_reserved":false,"is_disabled":false,"rental_uris":{"android":"levelo://app?vid=8e46cc04-0d73-4d44-bfda-a7b9a5ee2297","ios":"levelo://app?vid=8e46cc04-0d73-4d44-bfda-a7b9a5ee2297"},"vehicle_type_id":"4","last_reported":1727950137,"current_range_meters":33600,"station_id":"ce4bgt92rcd13ifvqcg0","pricing_plan_id":"cebpf4jnsgd1na2vs0mg"},{"bike_id":"2828d600-cada-4286-b851-a226d9ca67d5","system_id":"levelo_inurba_marseille","lat":43.32539,"lon":5.4145,"is_reserved":false,"is_disabled":false,"rental_uris":{"android":"levelo://app?vid=2828d600-cada-4286-b851-a226d9ca67d5","ios":"levelo://app?vid=2828d600-cada-4286-b851-a226d9ca67d5"},"vehicle_type_id":"4","last_reported":1727950137,"current_range_meters":26800,"station_id":"ce4bhq12rcd13ifvqhhg","pricing_plan_id":"cebpf4jnsgd1na2vs0mg"},{"bike_id":"6e343b3e-04b7-4bcf-a01e-b172349825df","system_id":"levelo_inurba_marseille","lat":43.32357,"lon":5.38888,"is_reserved":false,"is_disabled":false,"rental_uris":{"android":"levelo://app?vid=6e343b3e-04b7-4bcf-a01e-b172349825df","ios":"levelo://app?vid=6e343b3e-04b7-4bcf-a01e-b172349825df"},"vehicle_type_id":"4","last_reported":1727950137,"current_range_meters":8800,"station_id":"ce4bhqp2rcd13ifvqhog","pricing_plan_id":"cebpf4jnsgd1na2vs0mg"},{"bike_id":"dbf66c04-a155-49c8-884d-e33cb954e957","system_id":"levelo_inurba_marseille","lat":43.23152,"lon":5.43711,"is_reserved":false,"is_disabled":false,"rental_uris":{"android":"levelo://app?vid=dbf66c04-a155-49c8-884d-e33cb954e957","ios":"levelo://app?vid=dbf66c04-a155-49c8-884d-e33cb954e957"},"vehicle_type_id":"4","last_reported":1727950137,"current_range_meters":9600,"station_id":"ce4bhmp2rcd13ifvqgog","pricing_plan_id":"cebpf4jnsgd1na2vs0mg"},{"bike_id":"2f85508f-5d7e-495b-bc94-83a1fadc8cac","system_id":"levelo_inurba_marseille","lat":43.287354,"lon":5.400311,"is_reserved":false,"is_disabled":false,"rental_uris":{"android":"levelo://app?vid=2f85508f-5d7e-495b-bc94-83a1fadc8cac","ios":"levelo://app?vid=2f85508f-5d7e-495b-bc94-83a1fadc8cac"},"vehicle_type_id":"4","last_reported":1727950137,"current_range_meters":13600,"station_id":"ce4bho92rcd13ifvqh3g","pricing_plan_id":"cebpf4jnsgd1na2vs0mg"},{"bike_id":"d5b0d861-b4b1-493e-b705-5a0fb68b3b99","system_id":"levelo_inurba_marseille","lat":43.24804,"lon":5.37463,"is_reserved":false,"is_disabled":false,"rental_uris":{"android":"levelo://app?vid=d5b0d861-b4b1-493e-b705-5a0fb68b3b99","ios":"levelo://app?vid=d5b0d861-b4b1-493e-b705-5a0fb68b3b99"},"vehicle_type_id":"4","last_reported":1727950137,"current_range_meters":36400,"station_id":"ce4bhgh2rcd13ifvqfb0","pricing_plan_id":"cebpf4jnsgd1na2vs0mg"},{"bike_id":"279deea5-d960-4cac-a348-cfd072a8fdd8","system_id":"levelo_inurba_marseille","lat":43.30898,"lon":5.36861,"is_reserved":false,"is_disabled":false,"rental_uris":{"android":"levelo://app?vid=279deea5-d960-4cac-a348-cfd072a8fdd8","ios":"levelo://app?vid=279deea5-d960-4cac-a348-cfd072a8fdd8"},"vehicle_type_id":"4","last_reported":1727950137,"current_range_meters":30800,"station_id":"ce4bgn92rcd13ifvqbvg","pricing_plan_id":"cebpf4jnsgd1na2vs0mg"},{"bike_id":"745217f8-70f1-4044-8150-392040e02af5","system_id":"levelo_inurba_marseille","lat":43.23187,"lon":5.35556,"is_reserved":false,"is_disabled":false,"rental_uris":{"android":"levelo://app?vid=745217f8-70f1-4044-8150-392040e02af5","ios":"levelo://app?vid=745217f8-70f1-4044-8150-392040e02af5"},"vehicle_type_id":"4","last_reported":1727950137,"current_range_meters":28000,"station_id":"ce4bhu92rcd13ifvqi70","pricing_plan_id":"cebpf4jnsgd1na2vs0mg"},{"bike_id":"75b6d23c-8e6a-4f18-bb07-ff063c93e683","system_id":"levelo_inurba_marseille","lat":43.309,"lon":5.36849,"is_reserved":false,"is_disabled":false,"rental_uris":{"android":"levelo://app?vid=75b6d23c-8e6a-4f18-bb07-ff063c93e683","ios":"levelo://app?vid=75b6d23c-8e6a-4f18-bb07-ff063c93e683"},"vehicle_type_id":"4","last_reported":1727950137,"current_range_meters":38400,"station_id":"ce4bgn92rcd13ifvqbvg","pricing_plan_id":"cebpf4jnsgd1na2vs0mg"},{"bike_id":"b02e052a-761f-4ac4-8b08-349a22c0bd55","system_id":"levelo_inurba_marseille","lat":43.33022,"lon":5.39032,"is_reserved":false,"is_disabled":false,"rental_uris":{"android":"levelo://app?vid=b02e052a-761f-4ac4-8b08-349a22c0bd55","ios":"levelo://app?vid=b02e052a-761f-4ac4-8b08-349a22c0bd55"},"vehicle_type_id":"4","last_reported":1727950137,"current_range_meters":24800,"station_id":"ce4bhr92rcd13ifvqhrg","pricing_plan_id":"cebpf4jnsgd1na2vs0mg"},{"bike_id":"4a18e28e-9bad-4e5c-9538-59a77d5e7b0c","system_id":"levelo_inurba_marseille","lat":43.23147,"lon":5.43718,"is_reserved":false,"is_disabled":false,"rental_uris":{"android":"levelo://app?vid=4a18e28e-9bad-4e5c-9538-59a77d5e7b0c","ios":"levelo://app?vid=4a18e28e-9bad-4e5c-9538-59a77d5e7b0c"},"vehicle_type_id":"4","last_reported":1727950137,"current_range_meters":8400,"station_id":"ce4bhmp2rcd13ifvqgog","pricing_plan_id":"cebpf4jnsgd1na2vs0mg"},{"bike_id":"2b7b0848-4c2d-4d4e-ba86-9dcf7971875c","system_id":"levelo_inurba_marseille","lat":43.33756,"lon":5.3745,"is_reserved":false,"is_disabled":false,"rental_uris":{"android":"levelo://app?vid=2b7b0848-4c2d-4d4e-ba86-9dcf7971875c","ios":"levelo://app?vid=2b7b0848-4c2d-4d4e-ba86-9dcf7971875c"},"vehicle_type_id":"4","last_reported":1727950137,"current_range_meters":36800,"station_id":"","pricing_plan_id":"cebpf4jnsgd1na2vs0mg"},{"bike_id":"4f69c4e4-4aab-4ccb-88ff-64579ae1a72c","system_id":"levelo_inurba_marseille","lat":43.258448,"lon":5.394221,"is_reserved":false,"is_disabled":false,"rental_uris":{"android":"levelo://app?vid=4f69c4e4-4aab-4ccb-88ff-64579ae1a72c","ios":"levelo://app?vid=4f69c4e4-4aab-4ccb-88ff-64579ae1a72c"},"vehicle_type_id":"4","last_reported":1727950137,"current_range_meters":16000,"station_id":"ce4bhip2rcd13ifvqft0","pricing_plan_id":"cebpf4jnsgd1na2vs0mg"},{"bike_id":"181392b0-603b-4480-b63b-dacd7d83fe41","system_id":"levelo_inurba_marseille","lat":43.2827,"lon":5.35079,"is_reserved":false,"is_disabled":false,"rental_uris":{"android":"levelo://app?vid=181392b0-603b-4480-b63b-dacd7d83fe41","ios":"levelo://app?vid=181392b0-603b-4480-b63b-dacd7d83fe41"},"vehicle_type_id":"4","last_reported":1727950137,"current_range_meters":13600,"station_id":"ce4bhbp2rcd13ifvqerg","pricing_plan_id":"cebpf4jnsgd1na2vs0mg"},{"bike_id":"9fec9171-ecc3-4458-a490-f5c3b2300c5d","system_id":"levelo_inurba_marseille","lat":43.29255,"lon":5.40904,"is_reserved":false,"is_disabled":false,"rental_uris":{"android":"levelo://app?vid=9fec9171-ecc3-4458-a490-f5c3b2300c5d","ios":"levelo://app?vid=9fec9171-ecc3-4458-a490-f5c3b2300c5d"},"vehicle_type_id":"4","last_reported":1727950137,"current_range_meters":22400,"station_id":"ce4bh192rcd13ifvqdc0","pricing_plan_id":"cebpf4jnsgd1na2vs0mg"},{"bike_id":"81eda3eb-33d3-4cc5-8db3-507a0008778d","system_id":"levelo_inurba_marseille","lat":43.29987,"lon":5.38484,"is_reserved":false,"is_disabled":false,"rental_uris":{"android":"levelo://app?vid=81eda3eb-33d3-4cc5-8db3-507a0008778d","ios":"levelo://app?vid=81eda3eb-33d3-4cc5-8db3-507a0008778d"},"vehicle_type_id":"4","last_reported":1727950137,"current_range_meters":25600,"station_id":"ce4bgj92rcd13ifvqbd0","pricing_plan_id":"cebpf4jnsgd1na2vs0mg"},{"bike_id":"9005e603-eaee-4b75-8194-67715ec7fc55","system_id":"levelo_inurba_marseille","lat":43.3171,"lon":5.43702,"is_reserved":false,"is_disabled":false,"rental_uris":{"android":"levelo://app?vid=9005e603-eaee-4b75-8194-67715ec7fc55","ios":"levelo://app?vid=9005e603-eaee-4b75-8194-67715ec7fc55"},"vehicle_type_id":"4","last_reported":1727950137,"current_range_meters":30400,"station_id":"ce4bhp92rcd13ifvqhcg","pricing_plan_id":"cebpf4jnsgd1na2vs0mg"},{"bike_id":"b868d0a8-f18c-40e0-8a49-27f27af68cda","system_id":"levelo_inurba_marseille","lat":43.30138,"lon":5.37402,"is_reserved":false,"is_disabled":false,"rental_uris":{"android":"levelo://app?vid=b868d0a8-f18c-40e0-8a49-27f27af68cda","ios":"levelo://app?vid=b868d0a8-f18c-40e0-8a49-27f27af68cda"},"vehicle_type_id":"4","last_reported":1727950137,"current_range_meters":27600,"station_id":"ce4bgs92rcd13ifvqcc0","pricing_plan_id":"cebpf4jnsgd1na2vs0mg"},{"bike_id":"23fcd5dc-52e3-40b6-b601-8da82c35b64a","system_id":"levelo_inurba_marseille","lat":43.23192,"lon":5.35546,"is_reserved":false,"is_disabled":false,"rental_uris":{"android":"levelo://app?vid=23fcd5dc-52e3-40b6-b601-8da82c35b64a","ios":"levelo://app?vid=23fcd5dc-52e3-40b6-b601-8da82c35b64a"},"vehicle_type_id":"4","last_reported":1727950137,"current_range_meters":38000,"station_id":"ce4bhu92rcd13ifvqi70","pricing_plan_id":"cebpf4jnsgd1na2vs0mg"},{"bike_id":"4e96f5e5-51ad-40c7-a3fb-c7bccd283bdd","system_id":"levelo_inurba_marseille","lat":43.24549,"lon":5.39523,"is_reserved":false,"is_disabled":false,"rental_uris":{"android":"levelo://app?vid=4e96f5e5-51ad-40c7-a3fb-c7bccd283bdd","ios":"levelo://app?vid=4e96f5e5-51ad-40c7-a3fb-c7bccd283bdd"},"vehicle_type_id":"4","last_reported":1727950137,"current_range_meters":37600,"station_id":"ce4bhlp2rcd13ifvqgjg","pricing_plan_id":"cebpf4jnsgd1na2vs0mg"},{"bike_id":"f4d1402d-e441-432d-a09a-a111f1847214","system_id":"levelo_inurba_marseille","lat":43.31222,"lon":5.36844,"is_reserved":false,"is_disabled":false,"rental_uris":{"android":"levelo://app?vid=f4d1402d-e441-432d-a09a-a111f1847214","ios":"levelo://app?vid=f4d1402d-e441-432d-a09a-a111f1847214"},"vehicle_type_id":"4","last_reported":1727950137,"current_range_meters":26000,"station_id":"ce4bgl92rcd13ifvqbq0","pricing_plan_id":"cebpf4jnsgd1na2vs0mg"},{"bike_id":"de33b3e4-1844-4d26-aa67-54f7c50108a8","system_id":"levelo_inurba_marseille","lat":43.31161,"lon":5.38714,"is_reserved":false,"is_disabled":false,"rental_uris":{"android":"levelo://app?vid=de33b3e4-1844-4d26-aa67-54f7c50108a8","ios":"levelo://app?vid=de33b3e4-1844-4d26-aa67-54f7c50108a8"},"vehicle_type_id":"4","last_reported":1727950137,"current_range_meters":38000,"station_id":"ce4bgv12rcd13ifvqcp0","pricing_plan_id":"cebpf4jnsgd1na2vs0mg"},{"bike_id":"dcee63bc-8090-40c3-903a-1b85d5a4affd","system_id":"levelo_inurba_marseille","lat":43.29977,"lon":5.38494,"is_reserved":false,"is_disabled":false,"rental_uris":{"android":"levelo://app?vid=dcee63bc-8090-40c3-903a-1b85d5a4affd","ios":"levelo://app?vid=dcee63bc-8090-40c3-903a-1b85d5a4affd"},"vehicle_type_id":"4","last_reported":1727950137,"current_range_meters":38400,"station_id":"ce4bgj92rcd13ifvqbd0","pricing_plan_id":"cebpf4jnsgd1na2vs0mg"},{"bike_id":"c68bef59-90a1-4a73-a5bb-89bf003d66f4","system_id":"levelo_inurba_marseille","lat":43.30545,"lon":5.36699,"is_reserved":false,"is_disabled":false,"rental_uris":{"android":"levelo://app?vid=c68bef59-90a1-4a73-a5bb-89bf003d66f4","ios":"levelo://app?vid=c68bef59-90a1-4a73-a5bb-89bf003d66f4"},"vehicle_type_id":"4","last_reported":1727950137,"current_range_meters":33200,"station_id":"ce4bgrp2rcd13ifvqc9g","pricing_plan_id":"cebpf4jnsgd1na2vs0mg"},{"bike_id":"7d3e0c4d-ca7c-4de4-b417-1505937c7044","system_id":"levelo_inurba_marseille","lat":43.24391,"lon":5.37052,"is_reserved":false,"is_disabled":false,"rental_uris":{"android":"levelo://app?vid=7d3e0c4d-ca7c-4de4-b417-1505937c7044","ios":"levelo://app?vid=7d3e0c4d-ca7c-4de4-b417-1505937c7044"},"vehicle_type_id":"4","last_reported":1727950137,"current_range_meters":24000,"station_id":"ce4bhhh2rcd13ifvqfk0","pricing_plan_id":"cebpf4jnsgd1na2vs0mg"},{"bike_id":"f027679f-0392-4cbd-81e4-662400cc8a67","system_id":"levelo_inurba_marseille","lat":43.29842,"lon":5.36269,"is_reserved":false,"is_disabled":false,"rental_uris":{"android":"levelo://app?vid=f027679f-0392-4cbd-81e4-662400cc8a67","ios":"levelo://app?vid=f027679f-0392-4cbd-81e4-662400cc8a67"},"vehicle_type_id":"4","last_reported":1727950137,"current_range_meters":29600,"station_id":"ce4bgpp2rcd13ifvqc3g","pricing_plan_id":"cebpf4jnsgd1na2vs0mg"},{"bike_id":"5b8b92db-e28b-46a9-a824-fe98b60f18fd","system_id":"levelo_inurba_marseille","lat":43.337444,"lon":5.374475,"is_reserved":false,"is_disabled":false,"rental_uris":{"android":"levelo://app?vid=5b8b92db-e28b-46a9-a824-fe98b60f18fd","ios":"levelo://app?vid=5b8b92db-e28b-46a9-a824-fe98b60f18fd"},"vehicle_type_id":"4","last_reported":1727950137,"current_range_meters":33600,"station_id":"","pricing_plan_id":"cebpf4jnsgd1na2vs0mg"},{"bike_id":"97eb5edc-36e5-49cb-80b9-7628fc0c7cdd","system_id":"levelo_inurba_marseille","lat":43.23962,"lon":5.36626,"is_reserved":false,"is_disabled":false,"rental_uris":{"android":"levelo://app?vid=97eb5edc-36e5-49cb-80b9-7628fc0c7cdd","ios":"levelo://app?vid=97eb5edc-36e5-49cb-80b9-7628fc0c7cdd"},"vehicle_type_id":"4","last_reported":1727950137,"current_range_meters":24800,"station_id":"ce4bhi12rcd13ifvqfp0","pricing_plan_id":"cebpf4jnsgd1na2vs0mg"},{"bike_id":"53c0cac3-947b-4cb1-a27f-49a1b43a7af3","system_id":"levelo_inurba_marseille","lat":43.29971,"lon":5.38492,"is_reserved":false,"is_disabled":false,"rental_uris":{"android":"levelo://app?vid=53c0cac3-947b-4cb1-a27f-49a1b43a7af3","ios":"levelo://app?vid=53c0cac3-947b-4cb1-a27f-49a1b43a7af3"},"vehicle_type_id":"4","last_reported":1727950137,"current_range_meters":8800,"station_id":"ce4bgj92rcd13ifvqbd0","pricing_plan_id":"cebpf4jnsgd1na2vs0mg"},{"bike_id":"30d415ee-be3e-42bb-84cd-a10ade91329c","system_id":"levelo_inurba_marseille","lat":43.296417,"lon":5.381244,"is_reserved":false,"is_disabled":false,"rental_uris":{"android":"levelo://app?vid=30d415ee-be3e-42bb-84cd-a10ade91329c","ios":"levelo://app?vid=30d415ee-be3e-42bb-84cd-a10ade91329c"},"vehicle_type_id":"4","last_reported":1727950137,"current_range_meters":19200,"station_id":"ce4bgl12rcd13ifvqbo0","pricing_plan_id":"cebpf4jnsgd1na2vs0mg"},{"bike_id":"d9513a24-3235-43a7-b9a5-1c5cfe37603f","system_id":"levelo_inurba_marseille","lat":43.2305,"lon":5.35487,"is_reserved":false,"is_disabled":false,"rental_uris":{"android":"levelo://app?vid=d9513a24-3235-43a7-b9a5-1c5cfe37603f","ios":"levelo://app?vid=d9513a24-3235-43a7-b9a5-1c5cfe37603f"},"vehicle_type_id":"4","last_reported":1727950137,"current_range_meters":30400,"station_id":"cpo3342slgdg3j2ifvpg","pricing_plan_id":"cebpf4jnsgd1na2vs0mg"},{"bike_id":"36b3d9f8-8ec6-40af-9e44-a68d33a0801f","system_id":"levelo_inurba_marseille","lat":43.29804,"lon":5.40409,"is_reserved":false,"is_disabled":false,"rental_uris":{"android":"levelo://app?vid=36b3d9f8-8ec6-40af-9e44-a68d33a0801f","ios":"levelo://app?vid=36b3d9f8-8ec6-40af-9e44-a68d33a0801f"},"vehicle_type_id":"4","last_reported":1727950137,"current_range_meters":30400,"station_id":"ce4bh112rcd13ifvqd90","pricing_plan_id":"cebpf4jnsgd1na2vs0mg"},{"bike_id":"89f79560-9417-4d80-afea-9f3796d9baaf","system_id":"levelo_inurba_marseille","lat":43.337444,"lon":5.374475,"is_reserved":false,"is_disabled":false,"rental_uris":{"android":"levelo://app?vid=89f79560-9417-4d80-afea-9f3796d9baaf","ios":"levelo://app?vid=89f79560-9417-4d80-afea-9f3796d9baaf"},"vehicle_type_id":"4","last_reported":1727950137,"current_range_meters":10800,"station_id":"","pricing_plan_id":"cebpf4jnsgd1na2vs0mg"},{"bike_id":"5a42cfca-129a-4fb5-8bb6-c3493c928904","system_id":"levelo_inurba_marseille","lat":43.31364,"lon":5.38521,"is_reserved":false,"is_disabled":false,"rental_uris":{"android":"levelo://app?vid=5a42cfca-129a-4fb5-8bb6-c3493c928904","ios":"levelo://app?vid=5a42cfca-129a-4fb5-8bb6-c3493c928904"},"vehicle_type_id":"4","last_reported":1727950137,"current_range_meters":35200,"station_id":"ce4bgt92rcd13ifvqcf0","pricing_plan_id":"cebpf4jnsgd1na2vs0mg"},{"bike_id":"764c6c33-8c6d-4196-afca-b4f9d900a3fe","system_id":"levelo_inurba_marseille","lat":43.30139,"lon":5.37417,"is_reserved":false,"is_disabled":false,"rental_uris":{"android":"levelo://app?vid=764c6c33-8c6d-4196-afca-b4f9d900a3fe","ios":"levelo://app?vid=764c6c33-8c6d-4196-afca-b4f9d900a3fe"},"vehicle_type_id":"4","last_reported":1727950137,"current_range_meters":32400,"station_id":"ce4bgs92rcd13ifvqcc0","pricing_plan_id":"cebpf4jnsgd1na2vs0mg"},{"bike_id":"51d377b6-4d45-453e-a94b-945cc47df889","system_id":"levelo_inurba_marseille","lat":43.28371,"lon":5.38629,"is_reserved":false,"is_disabled":false,"rental_uris":{"android":"levelo://app?vid=51d377b6-4d45-453e-a94b-945cc47df889","ios":"levelo://app?vid=51d377b6-4d45-453e-a94b-945cc47df889"},"vehicle_type_id":"4","last_reported":1727950137,"current_range_meters":35600,"station_id":"ce4bh492rcd13ifvqdvg","pricing_plan_id":"cebpf4jnsgd1na2vs0mg"},{"bike_id":"9bf124ee-5cc5-4a86-aaf0-0555a3177f69","system_id":"levelo_inurba_marseille","lat":43.30551,"lon":5.36546,"is_reserved":false,"is_disabled":false,"rental_uris":{"android":"levelo://app?vid=9bf124ee-5cc5-4a86-aaf0-0555a3177f69","ios":"levelo://app?vid=9bf124ee-5cc5-4a86-aaf0-0555a3177f69"},"vehicle_type_id":"4","last_reported":1727950137,"current_range_meters":9600,"station_id":"ce4bgs12rcd13ifvqcag","pricing_plan_id":"cebpf4jnsgd1na2vs0mg"},{"bike_id":"4cd4ba35-fcc6-4b78-ba23-2f7989c45f8d","system_id":"levelo_inurba_marseille","lat":43.31117,"lon":5.37772,"is_reserved":false,"is_disabled":false,"rental_uris":{"android":"levelo://app?vid=4cd4ba35-fcc6-4b78-ba23-2f7989c45f8d","ios":"levelo://app?vid=4cd4ba35-fcc6-4b78-ba23-2f7989c45f8d"},"vehicle_type_id":"4","last_reported":1727950137,"current_range_meters":38400,"station_id":"ce4bgt92rcd13ifvqcg0","pricing_plan_id":"cebpf4jnsgd1na2vs0mg"},{"bike_id":"9deb6d45-eca8-4211-88df-c7207304ba3c","system_id":"levelo_inurba_marseille","lat":43.3043,"lon":5.38896,"is_reserved":false,"is_disabled":false,"rental_uris":{"android":"levelo://app?vid=9deb6d45-eca8-4211-88df-c7207304ba3c","ios":"levelo://app?vid=9deb6d45-eca8-4211-88df-c7207304ba3c"},"vehicle_type_id":"4","last_reported":1727950137,"current_range_meters":39200,"station_id":"ce4bgk12rcd13ifvqbi0","pricing_plan_id":"cebpf4jnsgd1na2vs0mg"},{"bike_id":"6d1ec5e5-e00d-49a1-93cd-d859011ec45f","system_id":"levelo_inurba_marseille","lat":43.320363,"lon":5.415581,"is_reserved":false,"is_disabled":false,"rental_uris":{"android":"levelo://app?vid=6d1ec5e5-e00d-49a1-93cd-d859011ec45f","ios":"levelo://app?vid=6d1ec5e5-e00d-49a1-93cd-d859011ec45f"},"vehicle_type_id":"4","last_reported":1727950137,"current_range_meters":10800,"station_id":"ce4bhq92rcd13ifvqhkg","pricing_plan_id":"cebpf4jnsgd1na2vs0mg"},{"bike_id":"c11e4bd0-e2c3-48ea-a4b3-91464161cb45","system_id":"levelo_inurba_marseille","lat":43.23956,"lon":5.3663,"is_reserved":false,"is_disabled":false,"rental_uris":{"android":"levelo://app?vid=c11e4bd0-e2c3-48ea-a4b3-91464161cb45","ios":"levelo://app?vid=c11e4bd0-e2c3-48ea-a4b3-91464161cb45"},"vehicle_type_id":"4","last_reported":1727950137,"current_range_meters":38400,"station_id":"ce4bhi12rcd13ifvqfp0","pricing_plan_id":"cebpf4jnsgd1na2vs0mg"},{"bike_id":"6969f528-4a62-42e3-84a6-9475bef01981","system_id":"levelo_inurba_marseille","lat":43.33603,"lon":5.41027,"is_reserved":false,"is_disabled":false,"rental_uris":{"android":"levelo://app?vid=6969f528-4a62-42e3-84a6-9475bef01981","ios":"levelo://app?vid=6969f528-4a62-42e3-84a6-9475bef01981"},"vehicle_type_id":"4","last_reported":1727950137,"current_range_meters":34000,"station_id":"ce4bhqh2rcd13ifvqhmg","pricing_plan_id":"cebpf4jnsgd1na2vs0mg"},{"bike_id":"1430add3-d4f9-4c53-8101-19290ecfc468","system_id":"levelo_inurba_marseille","lat":43.29837,"lon":5.36266,"is_reserved":false,"is_disabled":false,"rental_uris":{"android":"levelo://app?vid=1430add3-d4f9-4c53-8101-19290ecfc468","ios":"levelo://app?vid=1430add3-d4f9-4c53-8101-19290ecfc468"},"vehicle_type_id":"4","last_reported":1727950137,"current_range_meters":16400,"station_id":"ce4bgpp2rcd13ifvqc3g","pricing_plan_id":"cebpf4jnsgd1na2vs0mg"},{"bike_id":"c77732fc-6f69-43d9-b2d0-1630ada65ad7","system_id":"levelo_inurba_marseille","lat":43.24165,"lon":5.36399,"is_reserved":false,"is_disabled":false,"rental_uris":{"android":"levelo://app?vid=c77732fc-6f69-43d9-b2d0-1630ada65ad7","ios":"levelo://app?vid=c77732fc-6f69-43d9-b2d0-1630ada65ad7"},"vehicle_type_id":"4","last_reported":1727950137,"current_range_meters":36000,"station_id":"cpo36qri1sfpv3e86is0","pricing_plan_id":"cebpf4jnsgd1na2vs0mg"},{"bike_id":"f0b6fe14-46b3-49d2-9dfe-264b1f7e658f","system_id":"levelo_inurba_marseille","lat":43.29549,"lon":5.42286,"is_reserved":false,"is_disabled":false,"rental_uris":{"android":"levelo://app?vid=f0b6fe14-46b3-49d2-9dfe-264b1f7e658f","ios":"levelo://app?vid=f0b6fe14-46b3-49d2-9dfe-264b1f7e658f"},"vehicle_type_id":"4","last_reported":1727950137,"current_range_meters":38000,"station_id":"ce4bhph2rcd13ifvqhdg","pricing_plan_id":"cebpf4jnsgd1na2vs0mg"},{"bike_id":"b016761b-b09e-4ff1-99d9-5e688d837ab2","system_id":"levelo_inurba_marseille","lat":43.29522,"lon":5.37496,"is_reserved":false,"is_disabled":false,"rental_uris":{"android":"levelo://app?vid=b016761b-b09e-4ff1-99d9-5e688d837ab2","ios":"levelo://app?vid=b016761b-b09e-4ff1-99d9-5e688d837ab2"},"vehicle_type_id":"4","last_reported":1727950137,"current_range_meters":37600,"station_id":"ce4bgkp2rcd13ifvqbmg","pricing_plan_id":"cebpf4jnsgd1na2vs0mg"},{"bike_id":"a1024807-edac-4dbe-8ed6-be661bff2665","system_id":"levelo_inurba_marseille","lat":43.26208,"lon":5.37444,"is_reserved":false,"is_disabled":false,"rental_uris":{"android":"levelo://app?vid=a1024807-edac-4dbe-8ed6-be661bff2665","ios":"levelo://app?vid=a1024807-edac-4dbe-8ed6-be661bff2665"},"vehicle_type_id":"4","last_reported":1727950137,"current_range_meters":36800,"station_id":"ce4bhgp2rcd13ifvqfc0","pricing_plan_id":"cebpf4jnsgd1na2vs0mg"},{"bike_id":"04d8ea9f-d3c3-4482-bae3-fcfb0c99c7ad","system_id":"levelo_inurba_marseille","lat":43.26788,"lon":5.39412,"is_reserved":false,"is_disabled":false,"rental_uris":{"android":"levelo://app?vid=04d8ea9f-d3c3-4482-bae3-fcfb0c99c7ad","ios":"levelo://app?vid=04d8ea9f-d3c3-4482-bae3-fcfb0c99c7ad"},"vehicle_type_id":"4","last_reported":1727950137,"current_range_meters":34000,"station_id":"ce4bhh12rcd13ifvqfg0","pricing_plan_id":"cebpf4jnsgd1na2vs0mg"},{"bike_id":"60c8e277-f3bd-4b95-a3f2-9e6fab49f3f8","system_id":"levelo_inurba_marseille","lat":43.30548,"lon":5.38428,"is_reserved":false,"is_disabled":false,"rental_uris":{"android":"levelo://app?vid=60c8e277-f3bd-4b95-a3f2-9e6fab49f3f8","ios":"levelo://app?vid=60c8e277-f3bd-4b95-a3f2-9e6fab49f3f8"},"vehicle_type_id":"4","last_reported":1727950137,"current_range_meters":4800,"station_id":"ce4bgg92rcd13ifvqb30","pricing_plan_id":"cebpf4jnsgd1na2vs0mg"},{"bike_id":"393257c4-c7fb-41ab-8bba-65af5f58c868","system_id":"levelo_inurba_marseille","lat":43.31331,"lon":5.36703,"is_reserved":false,"is_disabled":false,"rental_uris":{"android":"levelo://app?vid=393257c4-c7fb-41ab-8bba-65af5f58c868","ios":"levelo://app?vid=393257c4-c7fb-41ab-8bba-65af5f58c868"},"vehicle_type_id":"4","last_reported":1727950137,"current_range_meters":4000,"station_id":"ce4bgr92rcd13ifvqc6g","pricing_plan_id":"cebpf4jnsgd1na2vs0mg"},{"bike_id":"9c348aa1-b116-410d-b615-bfe38f502c4f","system_id":"levelo_inurba_marseille","lat":43.30534,"lon":5.36539,"is_reserved":false,"is_disabled":false,"rental_uris":{"android":"levelo://app?vid=9c348aa1-b116-410d-b615-bfe38f502c4f","ios":"levelo://app?vid=9c348aa1-b116-410d-b615-bfe38f502c4f"},"vehicle_type_id":"4","last_reported":1727950137,"current_range_meters":29600,"station_id":"ce4bgs12rcd13ifvqcag","pricing_plan_id":"cebpf4jnsgd1na2vs0mg"},{"bike_id":"ed6f38f1-5998-49be-b389-8587af2aaa1d","system_id":"levelo_inurba_marseille","lat":43.29047,"lon":5.35909,"is_reserved":false,"is_disabled":false,"rental_uris":{"android":"levelo://app?vid=ed6f38f1-5998-49be-b389-8587af2aaa1d","ios":"levelo://app?vid=ed6f38f1-5998-49be-b389-8587af2aaa1d"},"vehicle_type_id":"4","last_reported":1727950137,"current_range_meters":39200,"station_id":"ce4bha92rcd13ifvqeg0","pricing_plan_id":"cebpf4jnsgd1na2vs0mg"},{"bike_id":"931af320-0ffc-47ac-9be4-9f92b3b441f5","system_id":"levelo_inurba_marseille","lat":43.33733,"lon":5.37453,"is_reserved":false,"is_disabled":false,"rental_uris":{"android":"levelo://app?vid=931af320-0ffc-47ac-9be4-9f92b3b441f5","ios":"levelo://app?vid=931af320-0ffc-47ac-9be4-9f92b3b441f5"},"vehicle_type_id":"4","last_reported":1727950137,"current_range_meters":22400,"station_id":"","pricing_plan_id":"cebpf4jnsgd1na2vs0mg"},{"bike_id":"6f239231-5594-45aa-abc9-aa64c98a50b0","system_id":"levelo_inurba_marseille","lat":43.23962,"lon":5.36631,"is_reserved":false,"is_disabled":false,"rental_uris":{"android":"levelo://app?vid=6f239231-5594-45aa-abc9-aa64c98a50b0","ios":"levelo://app?vid=6f239231-5594-45aa-abc9-aa64c98a50b0"},"vehicle_type_id":"4","last_reported":1727950137,"current_range_meters":37600,"station_id":"ce4bhi12rcd13ifvqfp0","pricing_plan_id":"cebpf4jnsgd1na2vs0mg"},{"bike_id":"26c63ea2-1eda-4aff-b7ac-06c56324e069","system_id":"levelo_inurba_marseille","lat":43.32532,"lon":5.41439,"is_reserved":false,"is_disabled":false,"rental_uris":{"android":"levelo://app?vid=26c63ea2-1eda-4aff-b7ac-06c56324e069","ios":"levelo://app?vid=26c63ea2-1eda-4aff-b7ac-06c56324e069"},"vehicle_type_id":"4","last_reported":1727950137,"current_range_meters":24400,"station_id":"ce4bhq12rcd13ifvqhhg","pricing_plan_id":"cebpf4jnsgd1na2vs0mg"},{"bike_id":"f7141c0d-8682-4aae-ae6b-1529592efa32","system_id":"levelo_inurba_marseille","lat":43.25819,"lon":5.39425,"is_reserved":false,"is_disabled":false,"rental_uris":{"android":"levelo://app?vid=f7141c0d-8682-4aae-ae6b-1529592efa32","ios":"levelo://app?vid=f7141c0d-8682-4aae-ae6b-1529592efa32"},"vehicle_type_id":"4","last_reported":1727950137,"current_range_meters":26000,"station_id":"ce4bhip2rcd13ifvqft0","pricing_plan_id":"cebpf4jnsgd1na2vs0mg"},{"bike_id":"a4503d94-f06d-4d0f-a784-fbcccf24d5aa","system_id":"levelo_inurba_marseille","lat":43.27836,"lon":5.39211,"is_reserved":false,"is_disabled":false,"rental_uris":{"android":"levelo://app?vid=a4503d94-f06d-4d0f-a784-fbcccf24d5aa","ios":"levelo://app?vid=a4503d94-f06d-4d0f-a784-fbcccf24d5aa"},"vehicle_type_id":"4","last_reported":1727950137,"current_range_meters":34000,"station_id":"ce4bhjp2rcd13ifvqga0","pricing_plan_id":"cebpf4jnsgd1na2vs0mg"},{"bike_id":"367afba5-d989-4dda-9379-a3eb094fb462","system_id":"levelo_inurba_marseille","lat":43.29977,"lon":5.38485,"is_reserved":false,"is_disabled":false,"rental_uris":{"android":"levelo://app?vid=367afba5-d989-4dda-9379-a3eb094fb462","ios":"levelo://app?vid=367afba5-d989-4dda-9379-a3eb094fb462"},"vehicle_type_id":"4","last_reported":1727950137,"current_range_meters":30400,"station_id":"ce4bgj92rcd13ifvqbd0","pricing_plan_id":"cebpf4jnsgd1na2vs0mg"},{"bike_id":"42cc1639-db84-447b-a15a-aef0bd9812c9","system_id":"levelo_inurba_marseille","lat":43.26678,"lon":5.38262,"is_reserved":false,"is_disabled":false,"rental_uris":{"android":"levelo://app?vid=42cc1639-db84-447b-a15a-aef0bd9812c9","ios":"levelo://app?vid=42cc1639-db84-447b-a15a-aef0bd9812c9"},"vehicle_type_id":"4","last_reported":1727950137,"current_range_meters":24000,"station_id":"ce4bhg92rcd13ifvqf90","pricing_plan_id":"cebpf4jnsgd1na2vs0mg"},{"bike_id":"9b05ca02-dd5b-4c5f-8ade-4a1bc1f3708c","system_id":"levelo_inurba_marseille","lat":43.23174,"lon":5.39989,"is_reserved":false,"is_disabled":false,"rental_uris":{"android":"levelo://app?vid=9b05ca02-dd5b-4c5f-8ade-4a1bc1f3708c","ios":"levelo://app?vid=9b05ca02-dd5b-4c5f-8ade-4a1bc1f3708c"},"vehicle_type_id":"4","last_reported":1727950137,"current_range_meters":14000,"station_id":"ce4bhn12rcd13ifvqgqg","pricing_plan_id":"cebpf4jnsgd1na2vs0mg"},{"bike_id":"0d71b32b-d6f5-4bb0-b03f-a3b7411ac4c1","system_id":"levelo_inurba_marseille","lat":43.24801,"lon":5.37452,"is_reserved":false,"is_disabled":false,"rental_uris":{"android":"levelo://app?vid=0d71b32b-d6f5-4bb0-b03f-a3b7411ac4c1","ios":"levelo://app?vid=0d71b32b-d6f5-4bb0-b03f-a3b7411ac4c1"},"vehicle_type_id":"4","last_reported":1727950137,"current_range_meters":37600,"station_id":"ce4bhgh2rcd13ifvqfb0","pricing_plan_id":"cebpf4jnsgd1na2vs0mg"},{"bike_id":"0d1a8df2-17cd-49e7-a7e3-62ed7164adf2","system_id":"levelo_inurba_marseille","lat":43.336086,"lon":5.410292,"is_reserved":false,"is_disabled":false,"rental_uris":{"android":"levelo://app?vid=0d1a8df2-17cd-49e7-a7e3-62ed7164adf2","ios":"levelo://app?vid=0d1a8df2-17cd-49e7-a7e3-62ed7164adf2"},"vehicle_type_id":"4","last_reported":1727950137,"current_range_meters":8400,"station_id":"ce4bhqh2rcd13ifvqhmg","pricing_plan_id":"cebpf4jnsgd1na2vs0mg"},{"bike_id":"5084d4e8-22d7-4248-aec8-4997331ff1e0","system_id":"levelo_inurba_marseille","lat":43.22926,"lon":5.35378,"is_reserved":false,"is_disabled":false,"rental_uris":{"android":"levelo://app?vid=5084d4e8-22d7-4248-aec8-4997331ff1e0","ios":"levelo://app?vid=5084d4e8-22d7-4248-aec8-4997331ff1e0"},"vehicle_type_id":"4","last_reported":1727950137,"current_range_meters":35600,"station_id":"cpo3532slgdg3j2ikp40","pricing_plan_id":"cebpf4jnsgd1na2vs0mg"},{"bike_id":"f8f88fe8-7496-4c94-ba33-982ac55343c8","system_id":"levelo_inurba_marseille","lat":43.27072,"lon":5.42278,"is_reserved":false,"is_disabled":false,"rental_uris":{"android":"levelo://app?vid=f8f88fe8-7496-4c94-ba33-982ac55343c8","ios":"levelo://app?vid=f8f88fe8-7496-4c94-ba33-982ac55343c8"},"vehicle_type_id":"4","last_reported":1727950137,"current_range_meters":21600,"station_id":"ce4bhk92rcd13ifvqgb0","pricing_plan_id":"cebpf4jnsgd1na2vs0mg"},{"bike_id":"0b582302-21c9-4f64-9b5b-4daef2f90d48","system_id":"levelo_inurba_marseille","lat":43.27204,"lon":5.39185,"is_reserved":false,"is_disabled":false,"rental_uris":{"android":"levelo://app?vid=0b582302-21c9-4f64-9b5b-4daef2f90d48","ios":"levelo://app?vid=0b582302-21c9-4f64-9b5b-4daef2f90d48"},"vehicle_type_id":"4","last_reported":1727950137,"current_range_meters":17200,"station_id":"ce4bhhp2rcd13ifvqfm0","pricing_plan_id":"cebpf4jnsgd1na2vs0mg"},{"bike_id":"a7c01ae4-430f-47b6-a7e7-00b9dff1ac61","system_id":"levelo_inurba_marseille","lat":43.29969,"lon":5.38516,"is_reserved":false,"is_disabled":false,"rental_uris":{"android":"levelo://app?vid=a7c01ae4-430f-47b6-a7e7-00b9dff1ac61","ios":"levelo://app?vid=a7c01ae4-430f-47b6-a7e7-00b9dff1ac61"},"vehicle_type_id":"4","last_reported":1727950137,"current_range_meters":37600,"station_id":"ce4bgj92rcd13ifvqbd0","pricing_plan_id":"cebpf4jnsgd1na2vs0mg"},{"bike_id":"cc071809-ed0e-473a-9152-6b066125722f","system_id":"levelo_inurba_marseille","lat":43.26217,"lon":5.3744,"is_reserved":false,"is_disabled":false,"rental_uris":{"android":"levelo://app?vid=cc071809-ed0e-473a-9152-6b066125722f","ios":"levelo://app?vid=cc071809-ed0e-473a-9152-6b066125722f"},"vehicle_type_id":"4","last_reported":1727950137,"current_range_meters":8800,"station_id":"ce4bhgp2rcd13ifvqfc0","pricing_plan_id":"cebpf4jnsgd1na2vs0mg"},{"bike_id":"b09f6138-3101-4867-b010-507644e25349","system_id":"levelo_inurba_marseille","lat":43.240601,"lon":5.377799,"is_reserved":false,"is_disabled":false,"rental_uris":{"android":"levelo://app?vid=b09f6138-3101-4867-b010-507644e25349","ios":"levelo://app?vid=b09f6138-3101-4867-b010-507644e25349"},"vehicle_type_id":"4","last_reported":1727950137,"current_range_meters":34000,"station_id":"ce4bhih2rcd13ifvqfr0","pricing_plan_id":"cebpf4jnsgd1na2vs0mg"},{"bike_id":"23a125b7-d34b-40cd-a7c2-292039aecf15","system_id":"levelo_inurba_marseille","lat":43.30148,"lon":5.38097,"is_reserved":false,"is_disabled":false,"rental_uris":{"android":"levelo://app?vid=23a125b7-d34b-40cd-a7c2-292039aecf15","ios":"levelo://app?vid=23a125b7-d34b-40cd-a7c2-292039aecf15"},"vehicle_type_id":"4","last_reported":1727950137,"current_range_meters":38800,"station_id":"ce4bgjp2rcd13ifvqbh0","pricing_plan_id":"cebpf4jnsgd1na2vs0mg"},{"bike_id":"72874289-d55b-4589-a58d-5439d0347367","system_id":"levelo_inurba_marseille","lat":43.29992,"lon":5.37168,"is_reserved":false,"is_disabled":false,"rental_uris":{"android":"levelo://app?vid=72874289-d55b-4589-a58d-5439d0347367","ios":"levelo://app?vid=72874289-d55b-4589-a58d-5439d0347367"},"vehicle_type_id":"4","last_reported":1727950137,"current_range_meters":38000,"station_id":"ce4bgr92rcd13ifvqc7g","pricing_plan_id":"cebpf4jnsgd1na2vs0mg"},{"bike_id":"bd25a2c1-a162-4449-89c5-5d04162aed82","system_id":"levelo_inurba_marseille","lat":43.33783,"lon":5.3745,"is_reserved":false,"is_disabled":false,"rental_uris":{"android":"levelo://app?vid=bd25a2c1-a162-4449-89c5-5d04162aed82","ios":"levelo://app?vid=bd25a2c1-a162-4449-89c5-5d04162aed82"},"vehicle_type_id":"4","last_reported":1727950137,"current_range_meters":38000,"station_id":"","pricing_plan_id":"cebpf4jnsgd1na2vs0mg"},{"bike_id":"3f0b1240-2b5c-41fe-ab72-a2f8e72ff862","system_id":"levelo_inurba_marseille","lat":43.25934,"lon":5.4091,"is_reserved":false,"is_disabled":false,"rental_uris":{"android":"levelo://app?vid=3f0b1240-2b5c-41fe-ab72-a2f8e72ff862","ios":"levelo://app?vid=3f0b1240-2b5c-41fe-ab72-a2f8e72ff862"},"vehicle_type_id":"4","last_reported":1727950137,"current_range_meters":28000,"station_id":"ce4bhm92rcd13ifvqglg","pricing_plan_id":"cebpf4jnsgd1na2vs0mg"},{"bike_id":"382e7a51-7169-4935-97cc-594645d4db93","system_id":"levelo_inurba_marseille","lat":43.309221,"lon":5.371935,"is_reserved":false,"is_disabled":false,"rental_uris":{"android":"levelo://app?vid=382e7a51-7169-4935-97cc-594645d4db93","ios":"levelo://app?vid=382e7a51-7169-4935-97cc-594645d4db93"},"vehicle_type_id":"4","last_reported":1727950137,"current_range_meters":8800,"station_id":"ce4bguh2rcd13ifvqckg","pricing_plan_id":"cebpf4jnsgd1na2vs0mg"},{"bike_id":"a97cec66-dea9-41c0-a6e8-3e814c243b1b","system_id":"levelo_inurba_marseille","lat":43.30088,"lon":5.39071,"is_reserved":false,"is_disabled":false,"rental_uris":{"android":"levelo://app?vid=a97cec66-dea9-41c0-a6e8-3e814c243b1b","ios":"levelo://app?vid=a97cec66-dea9-41c0-a6e8-3e814c243b1b"},"vehicle_type_id":"4","last_reported":1727950137,"current_range_meters":26800,"station_id":"ce4bh192rcd13ifvqdb0","pricing_plan_id":"cebpf4jnsgd1na2vs0mg"},