{"last_updated":1744272806,"ttl":60,"version":"2.2","data":{"bikes":[{"bike_id":"79b4a3fe-83b6-4a7e-b62d-fbe80c1f5666","system_id":"levelo_inurba_marseille","lat":43.21744,"lon":5.34611,"is_reserved":false,"is_disabled":false,"rental_uris":{"android":"levelo://app?vid=79b4a3fe-83b6-4a7e-b62d-fbe80c1f5666","ios":"levelo://app?vid=79b4a3fe-83b6-4a7e-b62d-fbe80c1f5666"},"vehicle_type_id":"4","last_reported":1744272806,"current_range_meters":2800,"station_id":"st_cvj6r9ubvosntc0bgbag","pricing_plan_id":"cebpf4jnsgd1na2vs0mg"},{"bike_id":"f0bf4e59-5178-4232-9b12-802037eba459","system_id":"levelo_inurba_marseille","lat":43.31357,"lon":5.36727,"is_reserved":false,"is_disabled":false,"rental_uris":{"android":"levelo://app?vid=f0bf4e59-5178-4232-9b12-802037eba459","ios":"levelo://app?vid=f0bf4e59-5178-4232-9b12-802037eba459"},"vehicle_type_id":"4","last_reported":1744272806,"current_range_meters":2800,"station_id":"ce4bgr92rcd13ifvqc6g","pricing_plan_id":"cebpf4jnsgd1na2vs0mg"},{"bike_id":"768e903f-f3e6-4581-9c8a-59e608429ee4","system_id":"levelo_inurba_marseille","lat":43.266772,"lon":5.382691,"is_reserved":false,"is_disabled":true,"rental_uris":{"android":"levelo://app?vid=768e903f-f3e6-4581-9c8a-59e608429ee4","ios":"levelo://app?vid=768e903f-f3e6-4581-9c8a-59e608429ee4"},"vehicle_type_id":"4","last_reported":1744272806,"current_range_meters":3200,"station_id":"ce4bhg92rcd13ifvqf90","pricing_plan_id":"cebpf4jnsgd1na2vs0mg"},{"bike_id":"c5c8e54b-74c8-4967-8411-fa31d9d294f8","system_id":"levelo_inurba_marseille","lat":43.32458,"lon":5.36589,"is_reserved":false,"is_disabled":false,"rental_uris":{"android":"levelo://app?vid=c5c8e54b-74c8-4967-8411-fa31d9d294f8","ios":"levelo://app?vid=c5c8e54b-74c8-4967-8411-fa31d9d294f8"},"vehicle_type_id":"4","last_reported":1744272806,"current_range_meters":2800,"station_id":"ce4bhs12rcd13ifvqhvg","pricing_plan_id":"cebpf4jnsgd1na2vs0mg"},{"bike_id":"cb31386d-524b-4f40-9cdc-37411ef5b243","system_id":"levelo_inurba_marseille","lat":43.235402,"lon":5.404263,"is_reserved":false,"is_disabled":false,"rental_uris":{"android":"levelo://app?vid=cb31386d-524b-4f40-9cdc-37411ef5b243","ios":"levelo://app?vid=cb31386d-524b-4f40-9cdc-37411ef5b243"},"vehicle_type_id":"4","last_reported":1744272806,"current_range_meters":3600,"station_id":"ce4bhn12rcd13ifvqgqg","pricing_plan_id":"cebpf4jnsgd1na2vs0mg"},{"bike_id":"03926bc9-f9d8-4451-80fc-eb49eedc74e1","system_id":"levelo_inurba_marseille","lat":43.278115,"lon":5.407016,"is_reserved":false,"is_disabled":false,"rental_uris":{"android":"levelo://app?vid=03926bc9-f9d8-4451-80fc-eb49eedc74e1","ios":"levelo://app?vid=03926bc9-f9d8-4451-80fc-eb49eedc74e1"},"vehicle_type_id":"4","last_reported":1744272806,"current_range_meters":3600,"station_id":"ce4bhnh2rcd13ifvqgtg","pricing_plan_id":"cebpf4jnsgd1na2vs0mg"},{"bike_id":"46156e5f-25cc-45da-83c4-da2aa986f209","system_id":"levelo_inurba_marseille","lat":43.24761,"lon":5.41233,"is_reserved":false,"is_disabled":false,"rental_uris":{"android":"levelo://app?vid=46156e5f-25cc-45da-83c4-da2aa986f209","ios":"levelo://app?vid=46156e5f-25cc-45da-83c4-da2aa986f209"},"vehicle_type_id":"4","last_reported":1744272806,"current_range_meters":3600,"station_id":"","pricing_plan_id":"cebpf4jnsgd1na2vs0mg"},{"bike_id":"9dad613b-fd85-481c-8b7c-456e1be1d564","system_id":"levelo_inurba_marseille","lat":43.261895,"lon":5.379295,"is_reserved":false,"is_disabled":false,"rental_uris":{"android":"levelo://app?vid=9dad613b-fd85-481c-8b7c-456e1be1d564","ios":"levelo://app?vid=9dad613b-fd85-481c-8b7c-456e1be1d564"},"vehicle_type_id":"4","last_reported":1744272806,"current_range_meters":3600,"station_id":"ce4bhjp2rcd13ifvqg90","pricing_plan_id":"cebpf4jnsgd1na2vs0mg"},{"bike_id":"68d1cc33-0218-451e-8e10-d32225c21263","system_id":"levelo_inurba_marseille","lat":43.23178,"lon":5.43678,"is_reserved":false,"is_disabled":true,"rental_uris":{"android":"levelo://app?vid=68d1cc33-0218-451e-8e10-d32225c21263","ios":"levelo://app?vid=68d1cc33-0218-451e-8e10-d32225c21263"},"vehicle_type_id":"4","last_reported":1744272806,"current_range_meters":3600,"station_id":"ce4bhmp2rcd13ifvqgog","pricing_plan_id":"cebpf4jnsgd1na2vs0mg"},{"bike_id":"3bfd792d-8024-4b3d-8c0a-4428de874fa2","system_id":"levelo_inurba_marseille","lat":43.32042,"lon":5.38592,"is_reserved":false,"is_disabled":true,"rental_uris":{"android":"levelo://app?vid=3bfd792d-8024-4b3d-8c0a-4428de874fa2","ios":"levelo://app?vid=3bfd792d-8024-4b3d-8c0a-4428de874fa2"},"vehicle_type_id":"4","last_reported":1744272806,"current_range_meters":4000,"station_id":"","pricing_plan_id":"cebpf4jnsgd1na2vs0mg"},{"bike_id":"951a075f-4063-499f-95ef-2ec50db6526c","system_id":"levelo_inurba_marseille","lat":43.22934,"lon":5.3538,"is_reserved":false,"is_disabled":true,"rental_uris":{"android":"levelo://app?vid=951a075f-4063-499f-95ef-2ec50db6526c","ios":"levelo://app?vid=951a075f-4063-499f-95ef-2ec50db6526c"},"vehicle_type_id":"4","last_reported":1744272806,"current_range_meters":4000,"station_id":"cpo3532slgdg3j2ikp40","pricing_plan_id":"cebpf4jnsgd1na2vs0mg"},{"bike_id":"c40a2e2c-2a66-4aa2-81cf-c4ae98211b54","system_id":"levelo_inurba_marseille","lat":43.217428,"lon":5.346205,"is_reserved":false,"is_disabled":false,"rental_uris":{"android":"levelo://app?vid=c40a2e2c-2a66-4aa2-81cf-c4ae98211b54","ios":"levelo://app?vid=c40a2e2c-2a66-4aa2-81cf-c4ae98211b54"},"vehicle_type_id":"4","last_reported":1744272806,"current_range_meters":4400,"station_id":"st_cvj6r9ubvosntc0bgbag","pricing_plan_id":"cebpf4jnsgd1na2vs0mg"},{"bike_id":"ad5ad6f0-7a98-43fb-94d0-77a9ac348cd1","system_id":"levelo_inurba_marseille","lat":43.27822,"lon":5.40717,"is_reserved":false,"is_disabled":false,"rental_uris":{"android":"levelo://app?vid=ad5ad6f0-7a98-43fb-94d0-77a9ac348cd1","ios":"levelo://app?vid=ad5ad6f0-7a98-43fb-94d0-77a9ac348cd1"},"vehicle_type_id":"4","last_reported":1744272806,"current_range_meters":4400,"station_id":"ce4bhnh2rcd13ifvqgtg","pricing_plan_id":"cebpf4jnsgd1na2vs0mg"},{"bike_id":"2ad9b96d-8327-4d2a-b686-8f646f0b7c77","system_id":"levelo_inurba_marseille","lat":43.26062,"lon":5.393993,"is_reserved":false,"is_disabled":false,"rental_uris":{"android":"levelo://app?vid=2ad9b96d-8327-4d2a-b686-8f646f0b7c77","ios":"levelo://app?vid=2ad9b96d-8327-4d2a-b686-8f646f0b7c77"},"vehicle_type_id":"4","last_reported":1744272806,"current_range_meters":4800,"station_id":"ce4bhh92rcd13ifvqfj0","pricing_plan_id":"cebpf4jnsgd1na2vs0mg"},{"bike_id":"83c23dd8-d315-428e-b915-6dfe0d42cef7","system_id":"levelo_inurba_marseille","lat":43.31343,"lon":5.36702,"is_reserved":false,"is_disabled":false,"rental_uris":{"android":"levelo://app?vid=83c23dd8-d315-428e-b915-6dfe0d42cef7","ios":"levelo://app?vid=83c23dd8-d315-428e-b915-6dfe0d42cef7"},"vehicle_type_id":"4","last_reported":1744272806,"current_range_meters":4800,"station_id":"ce4bgr92rcd13ifvqc6g","pricing_plan_id":"cebpf4jnsgd1na2vs0mg"},{"bike_id":"80663e12-6b64-446d-88c9-20255bde1a8a","system_id":"levelo_inurba_marseille","lat":43.30917,"lon":5.39646,"is_reserved":false,"is_disabled":true,"rental_uris":{"android":"levelo://app?vid=80663e12-6b64-446d-88c9-20255bde1a8a","ios":"levelo://app?vid=80663e12-6b64-446d-88c9-20255bde1a8a"},"vehicle_type_id":"4","last_reported":1744272806,"current_range_meters":5600,"station_id":"ce4bh012rcd13ifvqcv0","pricing_plan_id":"cebpf4jnsgd1na2vs0mg"},{"bike_id":"bf0c585e-5b41-4721-a51a-71274899cf15","system_id":"levelo_inurba_marseille","lat":43.29672,"lon":5.37884,"is_reserved":false,"is_disabled":false,"rental_uris":{"android":"levelo://app?vid=bf0c585e-5b41-4721-a51a-71274899cf15","ios":"levelo://app?vid=bf0c585e-5b41-4721-a51a-71274899cf15"},"vehicle_type_id":"4","last_reported":1744272806,"current_range_meters":5600,"station_id":"","pricing_plan_id":"cebpf4jnsgd1na2vs0mg"},{"bike_id":"feca3d9e-12e9-4a3a-8f8a-211aa953b3fa","system_id":"levelo_inurba_marseille","lat":43.293223,"lon":5.411627,"is_reserved":false,"is_disabled":false,"rental_uris":{"android":"levelo://app?vid=feca3d9e-12e9-4a3a-8f8a-211aa953b3fa","ios":"levelo://app?vid=feca3d9e-12e9-4a3a-8f8a-211aa953b3fa"},"vehicle_type_id":"4","last_reported":1744272806,"current_range_meters":5600,"station_id":"","pricing_plan_id":"cebpf4jnsgd1na2vs0mg"},{"bike_id":"8e3db607-961f-4786-9be2-1aa618df27a6","system_id":"levelo_inurba_marseille","lat":43.27361,"lon":5.36253,"is_reserved":false,"is_disabled":false,"rental_uris":{"android":"levelo://app?vid=8e3db607-961f-4786-9be2-1aa618df27a6","ios":"levelo://app?vid=8e3db607-961f-4786-9be2-1aa618df27a6"},"vehicle_type_id":"4","last_reported":1744272806,"current_range_meters":5600,"station_id":"ce4bhbh2rcd13ifvqeo0","pricing_plan_id":"cebpf4jnsgd1na2vs0mg"},{"bike_id":"c1152fc8-b7fb-4034-a3a1-a3a68f5df83c","system_id":"levelo_inurba_marseille","lat":43.23147,"lon":5.43708,"is_reserved":false,"is_disabled":false,"rental_uris":{"android":"levelo://app?vid=c1152fc8-b7fb-4034-a3a1-a3a68f5df83c","ios":"levelo://app?vid=c1152fc8-b7fb-4034-a3a1-a3a68f5df83c"},"vehicle_type_id":"4","last_reported":1744272806,"current_range_meters":6000,"station_id":"ce4bhmp2rcd13ifvqgog","pricing_plan_id":"cebpf4jnsgd1na2vs0mg"},{"bike_id":"e02eb391-7fb4-4685-a720-4a71b86c7c4e","system_id":"levelo_inurba_marseille","lat":43.29285,"lon":5.40119,"is_reserved":false,"is_disabled":false,"rental_uris":{"android":"levelo://app?vid=e02eb391-7fb4-4685-a720-4a71b86c7c4e","ios":"levelo://app?vid=e02eb391-7fb4-4685-a720-4a71b86c7c4e"},"vehicle_type_id":"4","last_reported":1744272806,"current_range_meters":6000,"station_id":"ce4bh312rcd13ifvqdk0","pricing_plan_id":"cebpf4jnsgd1na2vs0mg"},{"bike_id":"4a9a2a88-b7aa-410e-bfe8-10ac7056326d","system_id":"levelo_inurba_marseille","lat":43.28943,"lon":5.39636,"is_reserved":false,"is_disabled":false,"rental_uris":{"android":"levelo://app?vid=4a9a2a88-b7aa-410e-bfe8-10ac7056326d","ios":"levelo://app?vid=4a9a2a88-b7aa-410e-bfe8-10ac7056326d"},"vehicle_type_id":"4","last_reported":1744272806,"current_range_meters":6400,"station_id":"ce4bh3h2rcd13ifvqdn0","pricing_plan_id":"cebpf4jnsgd1na2vs0mg"},{"bike_id":"1adcfecd-7da9-485c-b40f-e62ffc130e51","system_id":"levelo_inurba_marseille","lat":43.21748,"lon":5.34614,"is_reserved":false,"is_disabled":false,"rental_uris":{"android":"levelo://app?vid=1adcfecd-7da9-485c-b40f-e62ffc130e51","ios":"levelo://app?vid=1adcfecd-7da9-485c-b40f-e62ffc130e51"},"vehicle_type_id":"4","last_reported":1744272806,"current_range_meters":6400,"station_id":"st_cvj6r9ubvosntc0bgbag","pricing_plan_id":"cebpf4jnsgd1na2vs0mg"},{"bike_id":"ec80396c-83b7-40dd-a7f1-669b581de951","system_id":"levelo_inurba_marseille","lat":43.25936,"lon":5.40908,"is_reserved":false,"is_disabled":false,"rental_uris":{"android":"levelo://app?vid=ec80396c-83b7-40dd-a7f1-669b581de951","ios":"levelo://app?vid=ec80396c-83b7-40dd-a7f1-669b581de951"},"vehicle_type_id":"4","last_reported":1744272806,"current_range_meters":6400,"station_id":"ce4bhm92rcd13ifvqglg","pricing_plan_id":"cebpf4jnsgd1na2vs0mg"},{"bike_id":"08f9c0c8-8b33-4578-8a03-20f44d582241","system_id":"levelo_inurba_marseille","lat":43.30548,"lon":5.36976,"is_reserved":false,"is_disabled":false,"rental_uris":{"android":"levelo://app?vid=08f9c0c8-8b33-4578-8a03-20f44d582241","ios":"levelo://app?vid=08f9c0c8-8b33-4578-8a03-20f44d582241"},"vehicle_type_id":"4","last_reported":1744272806,"current_range_meters":6400,"station_id":"","pricing_plan_id":"cebpf4jnsgd1na2vs0mg"},{"bike_id":"cf249a5f-af00-42a3-891f-2a32c7072ed3","system_id":"levelo_inurba_marseille","lat":43.26222,"lon":5.40464,"is_reserved":false,"is_disabled":false,"rental_uris":{"android":"levelo://app?vid=cf249a5f-af00-42a3-891f-2a32c7072ed3","ios":"levelo://app?vid=cf249a5f-af00-42a3-891f-2a32c7072ed3"},"vehicle_type_id":"4","last_reported":1744272806,"current_range_meters":6800,"station_id":"ce4bhmh2rcd13ifvqgmg","pricing_plan_id":"cebpf4jnsgd1na2vs0mg"},{"bike_id":"758e8708-ecd2-494d-80c8-3ff8f0fbc44b","system_id":"levelo_inurba_marseille","lat":43.29984,"lon":5.41313,"is_reserved":false,"is_disabled":false,"rental_uris":{"android":"levelo://app?vid=758e8708-ecd2-494d-80c8-3ff8f0fbc44b","ios":"levelo://app?vid=758e8708-ecd2-494d-80c8-3ff8f0fbc44b"},"vehicle_type_id":"4","last_reported":1744272806,"current_range_meters":6800,"station_id":"ce4bhp12rcd13ifvqh9g","pricing_plan_id":"cebpf4jnsgd1na2vs0mg"},{"bike_id":"1d2a2088-b356-435f-a3b2-dc76ce8ea38c","system_id":"levelo_inurba_marseille","lat":43.24675,"lon":5.38155,"is_reserved":false,"is_disabled":false,"rental_uris":{"android":"levelo://app?vid=1d2a2088-b356-435f-a3b2-dc76ce8ea38c","ios":"levelo://app?vid=1d2a2088-b356-435f-a3b2-dc76ce8ea38c"},"vehicle_type_id":"4","last_reported":1744272806,"current_range_meters":6800,"station_id":"ce4bhih2rcd13ifvqfr0","pricing_plan_id":"cebpf4jnsgd1na2vs0mg"},{"bike_id":"1fa302ad-1fd5-469a-8701-66e4dd74f0db","system_id":"levelo_inurba_marseille","lat":43.28416,"lon":5.37495,"is_reserved":false,"is_disabled":false,"rental_uris":{"android":"levelo://app?vid=1fa302ad-1fd5-469a-8701-66e4dd74f0db","ios":"levelo://app?vid=1fa302ad-1fd5-469a-8701-66e4dd74f0db"},"vehicle_type_id":"4","last_reported":1744272806,"current_range_meters":6800,"station_id":"ce4bh412rcd13ifvqds0","pricing_plan_id":"cebpf4jnsgd1na2vs0mg"},{"bike_id":"816ea41f-dd73-42de-af1c-dadd3921781e","system_id":"levelo_inurba_marseille","lat":43.27837,"lon":5.40709,"is_reserved":false,"is_disabled":false,"rental_uris":{"android":"levelo://app?vid=816ea41f-dd73-42de-af1c-dadd3921781e","ios":"levelo://app?vid=816ea41f-dd73-42de-af1c-dadd3921781e"},"vehicle_type_id":"4","last_reported":1744272806,"current_range_meters":6800,"station_id":"ce4bhnh2rcd13ifvqgtg","pricing_plan_id":"cebpf4jnsgd1na2vs0mg"},{"bike_id":"024d619a-f5f6-439a-aa16-a3c7dc2d879b","system_id":"levelo_inurba_marseille","lat":43.30941,"lon":5.39035,"is_reserved":false,"is_disabled":false,"rental_uris":{"android":"levelo://app?vid=024d619a-f5f6-439a-aa16-a3c7dc2d879b","ios":"levelo://app?vid=024d619a-f5f6-439a-aa16-a3c7dc2d879b"},"vehicle_type_id":"4","last_reported":1744272806,"current_range_meters":6800,"station_id":"ce4bgup2rcd13ifvqco0","pricing_plan_id":"cebpf4jnsgd1na2vs0mg"},{"bike_id":"ded977a2-4a2c-4a99-8fe7-189abf625fd7","system_id":"levelo_inurba_marseille","lat":43.30205,"lon":5.39463,"is_reserved":false,"is_disabled":false,"rental_uris":{"android":"levelo://app?vid=ded977a2-4a2c-4a99-8fe7-189abf625fd7","ios":"levelo://app?vid=ded977a2-4a2c-4a99-8fe7-189abf625fd7"},"vehicle_type_id":"4","last_reported":1744272806,"current_range_meters":6800,"station_id":"ce4bh0p2rcd13ifvqd70","pricing_plan_id":"cebpf4jnsgd1na2vs0mg"},{"bike_id":"8961feca-9826-4f93-ae3b-819b1eee44f6","system_id":"levelo_inurba_marseille","lat":43.30947,"lon":5.3904,"is_reserved":false,"is_disabled":false,"rental_uris":{"android":"levelo://app?vid=8961feca-9826-4f93-ae3b-819b1eee44f6","ios":"levelo://app?vid=8961feca-9826-4f93-ae3b-819b1eee44f6"},"vehicle_type_id":"4","last_reported":1744272806,"current_range_meters":6800,"station_id":"ce4bgup2rcd13ifvqco0","pricing_plan_id":"cebpf4jnsgd1na2vs0mg"},{"bike_id":"ac18df24-ac06-4d13-a6e4-365cd202fc3a","system_id":"levelo_inurba_marseille","lat":43.25909,"lon":5.40881,"is_reserved":false,"is_disabled":false,"rental_uris":{"android":"levelo://app?vid=ac18df24-ac06-4d13-a6e4-365cd202fc3a","ios":"levelo://app?vid=ac18df24-ac06-4d13-a6e4-365cd202fc3a"},"vehicle_type_id":"4","last_reported":1744272806,"current_range_meters":6800,"station_id":"ce4bhm92rcd13ifvqglg","pricing_plan_id":"cebpf4jnsgd1na2vs0mg"},{"bike_id":"10790b2b-c447-40cf-871b-6bee3f31059c","system_id":"levelo_inurba_marseille","lat":43.31705,"lon":5.43705,"is_reserved":false,"is_disabled":false,"rental_uris":{"android":"levelo://app?vid=10790b2b-c447-40cf-871b-6bee3f31059c","ios":"levelo://app?vid=10790b2b-c447-40cf-871b-6bee3f31059c"},"vehicle_type_id":"4","last_reported":1744272806,"current_range_meters":7200,"station_id":"ce4bhp92rcd13ifvqhcg","pricing_plan_id":"cebpf4jnsgd1na2vs0mg"},{"bike_id":"afcb3f87-e156-460e-82a1-d404336f23f9","system_id":"levelo_inurba_marseille","lat":43.27817,"lon":5.40713,"is_reserved":false,"is_disabled":false,"rental_uris":{"android":"levelo://app?vid=afcb3f87-e156-460e-82a1-d404336f23f9","ios":"levelo://app?vid=afcb3f87-e156-460e-82a1-d404336f23f9"},"vehicle_type_id":"4","last_reported":1744272806,"current_range_meters":7200,"station_id":"ce4bhnh2rcd13ifvqgtg","pricing_plan_id":"cebpf4jnsgd1na2vs0mg"},{"bike_id":"841cc48f-644f-4c42-a397-236e943da4b4","system_id":"levelo_inurba_marseille","lat":43.27087,"lon":5.4228,"is_reserved":false,"is_disabled":false,"rental_uris":{"android":"levelo://app?vid=841cc48f-644f-4c42-a397-236e943da4b4","ios":"levelo://app?vid=841cc48f-644f-4c42-a397-236e943da4b4"},"vehicle_type_id":"4","last_reported":1744272806,"current_range_meters":7200,"station_id":"ce4bhk92rcd13ifvqgb0","pricing_plan_id":"cebpf4jnsgd1na2vs0mg"},{"bike_id":"2e8461c1-2c88-4a7a-8373-5fa6006482d6","system_id":"levelo_inurba_marseille","lat":43.2656,"lon":5.39012,"is_reserved":false,"is_disabled":false,"rental_uris":{"android":"levelo://app?vid=2e8461c1-2c88-4a7a-8373-5fa6006482d6","ios":"levelo://app?vid=2e8461c1-2c88-4a7a-8373-5fa6006482d6"},"vehicle_type_id":"4","last_reported":1744272806,"current_range_meters":7200,"station_id":"ce4bhe12rcd13ifvqf30","pricing_plan_id":"cebpf4jnsgd1na2vs0mg"},{"bike_id":"f9fde33d-3e05-4f24-9670-2ad2d1cacdc1","system_id":"levelo_inurba_marseille","lat":43.28813,"lon":5.37282,"is_reserved":false,"is_disabled":false,"rental_uris":{"android":"levelo://app?vid=f9fde33d-3e05-4f24-9670-2ad2d1cacdc1","ios":"levelo://app?vid=f9fde33d-3e05-4f24-9670-2ad2d1cacdc1"},"vehicle_type_id":"4","last_reported":1744272806,"current_range_meters":7200,"station_id":"","pricing_plan_id":"cebpf4jnsgd1na2vs0mg"},{"bike_id":"d3a4196e-af63-440d-88b4-175f84acd438","system_id":"levelo_inurba_marseille","lat":43.25933,"lon":5.4091,"is_reserved":false,"is_disabled":false,"rental_uris":{"android":"levelo://app?vid=d3a4196e-af63-440d-88b4-175f84acd438","ios":"levelo://app?vid=d3a4196e-af63-440d-88b4-175f84acd438"},"vehicle_type_id":"4","last_reported":1744272806,"current_range_meters":8000,"station_id":"ce4bhm92rcd13ifvqglg","pricing_plan_id":"cebpf4jnsgd1na2vs0mg"},{"bike_id":"9f88194e-ae6a-4273-9cc2-e1057466f644","system_id":"levelo_inurba_marseille","lat":43.30555,"lon":5.36701,"is_reserved":false,"is_disabled":false,"rental_uris":{"android":"levelo://app?vid=9f88194e-ae6a-4273-9cc2-e1057466f644","ios":"levelo://app?vid=9f88194e-ae6a-4273-9cc2-e1057466f644"},"vehicle_type_id":"4","last_reported":1744272806,"current_range_meters":8000,"station_id":"ce4bgrp2rcd13ifvqc9g","pricing_plan_id":"cebpf4jnsgd1na2vs0mg"},{"bike_id":"8fa78f52-8834-4b2c-8a1d-e4f911c35cd4","system_id":"levelo_inurba_marseille","lat":43.25722,"lon":5.41114,"is_reserved":false,"is_disabled":true,"rental_uris":{"android":"levelo://app?vid=8fa78f52-8834-4b2c-8a1d-e4f911c35cd4","ios":"levelo://app?vid=8fa78f52-8834-4b2c-8a1d-e4f911c35cd4"},"vehicle_type_id":"4","last_reported":1744272806,"current_range_meters":8400,"station_id":"ce4bhkp2rcd13ifvqgd0","pricing_plan_id":"cebpf4jnsgd1na2vs0mg"},{"bike_id":"523f199e-c50d-4cd7-8cb0-ecd6da8f7fb1","system_id":"levelo_inurba_marseille","lat":43.3173,"lon":5.42406,"is_reserved":false,"is_disabled":false,"rental_uris":{"android":"levelo://app?vid=523f199e-c50d-4cd7-8cb0-ecd6da8f7fb1","ios":"levelo://app?vid=523f199e-c50d-4cd7-8cb0-ecd6da8f7fb1"},"vehicle_type_id":"4","last_reported":1744272806,"current_range_meters":8400,"station_id":"ce4bhp92rcd13ifvqhbg","pricing_plan_id":"cebpf4jnsgd1na2vs0mg"},{"bike_id":"0034db4b-efd6-4119-a358-80e858a45e83","system_id":"levelo_inurba_marseille","lat":43.31762,"lon":5.38911,"is_reserved":false,"is_disabled":false,"rental_uris":{"android":"levelo://app?vid=0034db4b-efd6-4119-a358-80e858a45e83","ios":"levelo://app?vid=0034db4b-efd6-4119-a358-80e858a45e83"},"vehicle_type_id":"4","last_reported":1744272806,"current_range_meters":8400,"station_id":"","pricing_plan_id":"cebpf4jnsgd1na2vs0mg"},{"bike_id":"a14f72ed-ad11-4871-a779-6f279cf67eeb","system_id":"levelo_inurba_marseille","lat":43.21751,"lon":5.34618,"is_reserved":false,"is_disabled":true,"rental_uris":{"android":"levelo://app?vid=a14f72ed-ad11-4871-a779-6f279cf67eeb","ios":"levelo://app?vid=a14f72ed-ad11-4871-a779-6f279cf67eeb"},"vehicle_type_id":"4","last_reported":1744272806,"current_range_meters":8400,"station_id":"ce4bhoh2rcd13ifvqh5g","pricing_plan_id":"cebpf4jnsgd1na2vs0mg"},{"bike_id":"7242f1ee-8035-4b11-9f38-261a4efc473f","system_id":"levelo_inurba_marseille","lat":43.31352,"lon":5.36707,"is_reserved":false,"is_disabled":false,"rental_uris":{"android":"levelo://app?vid=7242f1ee-8035-4b11-9f38-261a4efc473f","ios":"levelo://app?vid=7242f1ee-8035-4b11-9f38-261a4efc473f"},"vehicle_type_id":"4","last_reported":1744272806,"current_range_meters":8400,"station_id":"ce4bgr92rcd13ifvqc6g","pricing_plan_id":"cebpf4jnsgd1na2vs0mg"},{"bike_id":"88d998a5-ed03-47b8-a1b9-b40c1ef2f441","system_id":"levelo_inurba_marseille","lat":43.24167,"lon":5.36398,"is_reserved":false,"is_disabled":false,"rental_uris":{"android":"levelo://app?vid=88d998a5-ed03-47b8-a1b9-b40c1ef2f441","ios":"levelo://app?vid=88d998a5-ed03-47b8-a1b9-b40c1ef2f441"},"vehicle_type_id":"4","last_reported":1744272806,"current_range_meters":8800,"station_id":"cpo36qri1sfpv3e86is0","pricing_plan_id":"cebpf4jnsgd1na2vs0mg"},{"bike_id":"c66e0227-8dab-43f7-959d-ad39878fa71f","system_id":"levelo_inurba_marseille","lat":43.26672,"lon":5.38276,"is_reserved":false,"is_disabled":false,"rental_uris":{"android":"levelo://app?vid=c66e0227-8dab-43f7-959d-ad39878fa71f","ios":"levelo://app?vid=c66e0227-8dab-43f7-959d-ad39878fa71f"},"vehicle_type_id":"4","last_reported":1744272806,"current_range_meters":9200,"station_id":"ce4bhg92rcd13ifvqf90","pricing_plan_id":"cebpf4jnsgd1na2vs0mg"},{"bike_id":"731ab783-7108-4c3e-b37f-6c6bd8a6f1ac","system_id":"levelo_inurba_marseille","lat":43.25935,"lon":5.40902,"is_reserved":false,"is_disabled":false,"rental_uris":{"android":"levelo://app?vid=731ab783-7108-4c3e-b37f-6c6bd8a6f1ac","ios":"levelo://app?vid=731ab783-7108-4c3e-b37f-6c6bd8a6f1ac"},"vehicle_type_id":"4","last_reported":1744272806,"current_range_meters":9200,"station_id":"ce4bhm92rcd13ifvqglg","pricing_plan_id":"cebpf4jnsgd1na2vs0mg"},{"bike_id":"0378d55d-59a9-4563-89ab-6a3bbcce2d51","system_id":"levelo_inurba_marseille","lat":43.29028,"lon":5.39985,"is_reserved":false,"is_disabled":false,"rental_uris":{"android":"levelo://app?vid=0378d55d-59a9-4563-89ab-6a3bbcce2d51","ios":"levelo://app?vid=0378d55d-59a9-4563-89ab-6a3bbcce2d51"},"vehicle_type_id":"4","last_reported":1744272806,"current_range_meters":9200,"station_id":"ce4bh392rcd13ifvqdm0","pricing_plan_id":"cebpf4jnsgd1na2vs0mg"},{"bike_id":"17f4902e-c861-4806-a819-8e218247cad7","system_id":"levelo_inurba_marseille","lat":43.24669,"lon":5.3815,"is_reserved":false,"is_disabled":false,"rental_uris":{"android":"levelo://app?vid=17f4902e-c861-4806-a819-8e218247cad7","ios":"levelo://app?vid=17f4902e-c861-4806-a819-8e218247cad7"},"vehicle_type_id":"4","last_reported":1744272806,"current_range_meters":9200,"station_id":"ce4bhih2rcd13ifvqfr0","pricing_plan_id":"cebpf4jnsgd1na2vs0mg"},{"bike_id":"01e31f15-bc9b-4d18-bebd-edf19bcedef2","system_id":"levelo_inurba_marseille","lat":43.28721,"lon":5.37932,"is_reserved":false,"is_disabled":true,"rental_uris":{"android":"levelo://app?vid=01e31f15-bc9b-4d18-bebd-edf19bcedef2","ios":"levelo://app?vid=01e31f15-bc9b-4d18-bebd-edf19bcedef2"},"vehicle_type_id":"4","last_reported":1744272806,"current_range_meters":9200,"station_id":"ce4bh9p2rcd13ifvqec0","pricing_plan_id":"cebpf4jnsgd1na2vs0mg"},{"bike_id":"5f30a5a4-de9f-499e-b151-b811ebb3b43a","system_id":"levelo_inurba_marseille","lat":43.31062,"lon":5.38347,"is_reserved":false,"is_disabled":true,"rental_uris":{"android":"levelo://app?vid=5f30a5a4-de9f-499e-b151-b811ebb3b43a","ios":"levelo://app?vid=5f30a5a4-de9f-499e-b151-b811ebb3b43a"},"vehicle_type_id":"4","last_reported":1744272806,"current_range_meters":9200,"station_id":"ce4bgv92rcd13ifvqcr0","pricing_plan_id":"cebpf4jnsgd1na2vs0mg"},{"bike_id":"7c5e5016-e21a-4905-aa33-9df45efc7500","system_id":"levelo_inurba_marseille","lat":43.33593,"lon":5.4101,"is_reserved":false,"is_disabled":false,"rental_uris":{"android":"levelo://app?vid=7c5e5016-e21a-4905-aa33-9df45efc7500","ios":"levelo://app?vid=7c5e5016-e21a-4905-aa33-9df45efc7500"},"vehicle_type_id":"4","last_reported":1744272806,"current_range_meters":8800,"station_id":"ce4bhqh2rcd13ifvqhmg","pricing_plan_id":"cebpf4jnsgd1na2vs0mg"},{"bike_id":"5d039be0-b25d-4d1f-932f-9f388ac822dc","system_id":"levelo_inurba_marseille","lat":43.29021,"lon":5.38133,"is_reserved":false,"is_disabled":false,"rental_uris":{"android":"levelo://app?vid=5d039be0-b25d-4d1f-932f-9f388ac822dc","ios":"levelo://app?vid=5d039be0-b25d-4d1f-932f-9f388ac822dc"},"vehicle_type_id":"4","last_reported":1744272806,"current_range_meters":9200,"station_id":"ce4bh4p2rcd13ifvqe1g","pricing_plan_id":"cebpf4jnsgd1na2vs0mg"},{"bike_id":"b96be04a-adcd-4816-8c18-ee76dccce0e8","system_id":"levelo_inurba_marseille","lat":43.24164,"lon":5.36397,"is_reserved":false,"is_disabled":false,"rental_uris":{"android":"levelo://app?vid=b96be04a-adcd-4816-8c18-ee76dccce0e8","ios":"levelo://app?vid=b96be04a-adcd-4816-8c18-ee76dccce0e8"},"vehicle_type_id":"4","last_reported":1744272806,"current_range_meters":9600,"station_id":"cpo36qri1sfpv3e86is0","pricing_plan_id":"cebpf4jnsgd1na2vs0mg"},{"bike_id":"49e8836a-430d-4c2d-a967-ad7f667a5605","system_id":"levelo_inurba_marseille","lat":43.31283,"lon":5.3683,"is_reserved":false,"is_disabled":false,"rental_uris":{"android":"levelo://app?vid=49e8836a-430d-4c2d-a967-ad7f667a5605","ios":"levelo://app?vid=49e8836a-430d-4c2d-a967-ad7f667a5605"},"vehicle_type_id":"4","last_reported":1744272806,"current_range_meters":9600,"station_id":"","pricing_plan_id":"cebpf4jnsgd1na2vs0mg"},{"bike_id":"812cdfa1-c001-4dcc-b225-e504883a0df5","system_id":"levelo_inurba_marseille","lat":43.295166,"lon":5.375039,"is_reserved":false,"is_disabled":false,"rental_uris":{"android":"levelo://app?vid=812cdfa1-c001-4dcc-b225-e504883a0df5","ios":"levelo://app?vid=812cdfa1-c001-4dcc-b225-e504883a0df5"},"vehicle_type_id":"4","last_reported":1744272806,"current_range_meters":9600,"station_id":"ce4bgkp2rcd13ifvqbmg","pricing_plan_id":"cebpf4jnsgd1na2vs0mg"},{"bike_id":"c243072f-6bd2-4d94-ba83-04162cf2a05c","system_id":"levelo_inurba_marseille","lat":43.27219,"lon":5.40136,"is_reserved":false,"is_disabled":false,"rental_uris":{"android":"levelo://app?vid=c243072f-6bd2-4d94-ba83-04162cf2a05c","ios":"levelo://app?vid=c243072f-6bd2-4d94-ba83-04162cf2a05c"},"vehicle_type_id":"4","last_reported":1744272806,"current_range_meters":9600,"station_id":"","pricing_plan_id":"cebpf4jnsgd1na2vs0mg"},{"bike_id":"9fce7fb9-26b6-4832-9f96-ea1b75c489f0","system_id":"levelo_inurba_marseille","lat":43.21197,"lon":5.35087,"is_reserved":false,"is_disabled":false,"rental_uris":{"android":"levelo://app?vid=9fce7fb9-26b6-4832-9f96-ea1b75c489f0","ios":"levelo://app?vid=9fce7fb9-26b6-4832-9f96-ea1b75c489f0"},"vehicle_type_id":"4","last_reported":1744272806,"current_range_meters":10000,"station_id":"st_cvj6sg6p6f1abm77japg","pricing_plan_id":"cebpf4jnsgd1na2vs0mg"},{"bike_id":"b4b93a64-d083-4ab2-bbd0-53609c602fb5","system_id":"levelo_inurba_marseille","lat":43.30937,"lon":5.40149,"is_reserved":false,"is_disabled":true,"rental_uris":{"android":"levelo://app?vid=b4b93a64-d083-4ab2-bbd0-53609c602fb5","ios":"levelo://app?vid=b4b93a64-d083-4ab2-bbd0-53609c602fb5"},"vehicle_type_id":"4","last_reported":1744272806,"current_range_meters":10000,"station_id":"ce4bgvp2rcd13ifvqct0","pricing_plan_id":"cebpf4jnsgd1na2vs0mg"},{"bike_id":"3cfa414a-56ce-4678-b27b-88f21f1ddfeb","system_id":"levelo_inurba_marseille","lat":43.30305,"lon":5.37722,"is_reserved":false,"is_disabled":false,"rental_uris":{"android":"levelo://app?vid=3cfa414a-56ce-4678-b27b-88f21f1ddfeb","ios":"levelo://app?vid=3cfa414a-56ce-4678-b27b-88f21f1ddfeb"},"vehicle_type_id":"4","last_reported":1744272806,"current_range_meters":10000,"station_id":"ce4bguh2rcd13ifvqcj0","pricing_plan_id":"cebpf4jnsgd1na2vs0mg"},{"bike_id":"f2ddeead-c55a-49b3-90e5-4eec0e251056","system_id":"levelo_inurba_marseille","lat":43.31734,"lon":5.43692,"is_reserved":false,"is_disabled":false,"rental_uris":{"android":"levelo://app?vid=f2ddeead-c55a-49b3-90e5-4eec0e251056","ios":"levelo://app?vid=f2ddeead-c55a-49b3-90e5-4eec0e251056"},"vehicle_type_id":"4","last_reported":1744272806,"current_range_meters":10000,"station_id":"ce4bhp92rcd13ifvqhcg","pricing_plan_id":"cebpf4jnsgd1na2vs0mg"},{"bike_id":"122cdde6-9512-4fc1-b3dd-8da01087c3ed","system_id":"levelo_inurba_marseille","lat":43.21203,"lon":5.35069,"is_reserved":false,"is_disabled":false,"rental_uris":{"android":"levelo://app?vid=122cdde6-9512-4fc1-b3dd-8da01087c3ed","ios":"levelo://app?vid=122cdde6-9512-4fc1-b3dd-8da01087c3ed"},"vehicle_type_id":"4","last_reported":1744272806,"current_range_meters":10000,"station_id":"","pricing_plan_id":"cebpf4jnsgd1na2vs0mg"},{"bike_id":"3daf3483-c330-4563-ba63-4baa607346ed","system_id":"levelo_inurba_marseille","lat":43.30932,"lon":5.36833,"is_reserved":false,"is_disabled":false,"rental_uris":{"android":"levelo://app?vid=3daf3483-c330-4563-ba63-4baa607346ed","ios":"levelo://app?vid=3daf3483-c330-4563-ba63-4baa607346ed"},"vehicle_type_id":"4","last_reported":1744272806,"current_range_meters":10000,"station_id":"ce4bgn92rcd13ifvqbvg","pricing_plan_id":"cebpf4jnsgd1na2vs0mg"},{"bike_id":"664e5e3c-4dcd-40ae-9182-02be717b623a","system_id":"levelo_inurba_marseille","lat":43.3013,"lon":5.37426,"is_reserved":false,"is_disabled":false,"rental_uris":{"android":"levelo://app?vid=664e5e3c-4dcd-40ae-9182-02be717b623a","ios":"levelo://app?vid=664e5e3c-4dcd-40ae-9182-02be717b623a"},"vehicle_type_id":"4","last_reported":1744272806,"current_range_meters":10000,"station_id":"ce4bgs92rcd13ifvqcc0","pricing_plan_id":"cebpf4jnsgd1na2vs0mg"},{"bike_id":"db7766ae-ecd8-4eb1-afab-106a4c216130","system_id":"levelo_inurba_marseille","lat":43.30956,"lon":5.39037,"is_reserved":false,"is_disabled":false,"rental_uris":{"android":"levelo://app?vid=db7766ae-ecd8-4eb1-afab-106a4c216130","ios":"levelo://app?vid=db7766ae-ecd8-4eb1-afab-106a4c216130"},"vehicle_type_id":"4","last_reported":1744272806,"current_range_meters":9600,"station_id":"ce4bgup2rcd13ifvqco0","pricing_plan_id":"cebpf4jnsgd1na2vs0mg"},{"bike_id":"6b383df4-9571-4b6b-8882-b1538f985b7f","system_id":"levelo_inurba_marseille","lat":43.30535,"lon":5.36538,"is_reserved":false,"is_disabled":false,"rental_uris":{"android":"levelo://app?vid=6b383df4-9571-4b6b-8882-b1538f985b7f","ios":"levelo://app?vid=6b383df4-9571-4b6b-8882-b1538f985b7f"},"vehicle_type_id":"4","last_reported":1744272806,"current_range_meters":10000,"station_id":"ce4bgs12rcd13ifvqcag","pricing_plan_id":"cebpf4jnsgd1na2vs0mg"},{"bike_id":"e6b27e51-7a6f-4c87-9cdb-e0dbaf392783","system_id":"levelo_inurba_marseille","lat":43.30955,"lon":5.39678,"is_reserved":false,"is_disabled":false,"rental_uris":{"android":"levelo://app?vid=e6b27e51-7a6f-4c87-9cdb-e0dbaf392783","ios":"levelo://app?vid=e6b27e51-7a6f-4c87-9cdb-e0dbaf392783"},"vehicle_type_id":"4","last_reported":1744272806,"current_range_meters":10800,"station_id":"","pricing_plan_id":"cebpf4jnsgd1na2vs0mg"},{"bike_id":"089bcaec-101e-4296-b476-24c47c778712","system_id":"levelo_inurba_marseille","lat":43.29706,"lon":5.37707,"is_reserved":false,"is_disabled":false,"rental_uris":{"android":"levelo://app?vid=089bcaec-101e-4296-b476-24c47c778712","ios":"levelo://app?vid=089bcaec-101e-4296-b476-24c47c778712"},"vehicle_type_id":"4","last_reported":1744272806,"current_range_meters":10800,"station_id":"ce4bgkh2rcd13ifvqbl0","pricing_plan_id":"cebpf4jnsgd1na2vs0mg"},{"bike_id":"aeb5d532-a5df-474f-a469-24b81f00135c","system_id":"levelo_inurba_marseille","lat":43.30355,"lon":5.41867,"is_reserved":false,"is_disabled":true,"rental_uris":{"android":"levelo://app?vid=aeb5d532-a5df-474f-a469-24b81f00135c","ios":"levelo://app?vid=aeb5d532-a5df-474f-a469-24b81f00135c"},"vehicle_type_id":"4","last_reported":1744272806,"current_range_meters":11200,"station_id":"ce4bhop2rcd13ifvqh7g","pricing_plan_id":"cebpf4jnsgd1na2vs0mg"},{"bike_id":"b5a497b9-a79c-4434-bae5-ae0df984fca4","system_id":"levelo_inurba_marseille","lat":43.30906,"lon":5.36863,"is_reserved":false,"is_disabled":false,"rental_uris":{"android":"levelo://app?vid=b5a497b9-a79c-4434-bae5-ae0df984fca4","ios":"levelo://app?vid=b5a497b9-a79c-4434-bae5-ae0df984fca4"},"vehicle_type_id":"4","last_reported":1744272806,"current_range_meters":11200,"station_id":"ce4bgn92rcd13ifvqbvg","pricing_plan_id":"cebpf4jnsgd1na2vs0mg"},{"bike_id":"7d6c8092-c041-4ea9-a87f-12d8fdbbc2c4","system_id":"levelo_inurba_marseille","lat":43.302126,"lon":5.394618,"is_reserved":false,"is_disabled":false,"rental_uris":{"android":"levelo://app?vid=7d6c8092-c041-4ea9-a87f-12d8fdbbc2c4","ios":"levelo://app?vid=7d6c8092-c041-4ea9-a87f-12d8fdbbc2c4"},"vehicle_type_id":"4","last_reported":1744272806,"current_range_meters":11200,"station_id":"ce4bh0p2rcd13ifvqd70","pricing_plan_id":"cebpf4jnsgd1na2vs0mg"},{"bike_id":"d71a9edc-db45-4cb7-8e1b-712bf2f6374d","system_id":"levelo_inurba_marseille","lat":43.29272,"lon":5.40127,"is_reserved":false,"is_disabled":false,"rental_uris":{"android":"levelo://app?vid=d71a9edc-db45-4cb7-8e1b-712bf2f6374d","ios":"levelo://app?vid=d71a9edc-db45-4cb7-8e1b-712bf2f6374d"},"vehicle_type_id":"4","last_reported":1744272806,"current_range_meters":11600,"station_id":"ce4bh312rcd13ifvqdk0","pricing_plan_id":"cebpf4jnsgd1na2vs0mg"},{"bike_id":"5a0fa541-6fc2-4ae1-99ec-a2e2ec69a941","system_id":"levelo_inurba_marseille","lat":43.33016,"lon":5.4387,"is_reserved":false,"is_disabled":false,"rental_uris":{"android":"levelo://app?vid=5a0fa541-6fc2-4ae1-99ec-a2e2ec69a941","ios":"levelo://app?vid=5a0fa541-6fc2-4ae1-99ec-a2e2ec69a941"},"vehicle_type_id":"4","last_reported":1744272806,"current_range_meters":11600,"station_id":"","pricing_plan_id":"cebpf4jnsgd1na2vs0mg"},{"bike_id":"3b6c803f-a6b4-4741-95d3-98bd77a6a3b1","system_id":"levelo_inurba_marseille","lat":43.30424,"lon":5.397428,"is_reserved":false,"is_disabled":false,"rental_uris":{"android":"levelo://app?vid=3b6c803f-a6b4-4741-95d3-98bd77a6a3b1","ios":"levelo://app?vid=3b6c803f-a6b4-4741-95d3-98bd77a6a3b1"},"vehicle_type_id":"4","last_reported":1744272806,"current_range_meters":11600,"station_id":"ce4bh092rcd13ifvqd20","pricing_plan_id":"cebpf4jnsgd1na2vs0mg"},{"bike_id":"8c367ae0-423d-4e7e-8d7e-17eb1eb4a101","system_id":"levelo_inurba_marseille","lat":43.28272,"lon":5.35067,"is_reserved":false,"is_disabled":false,"rental_uris":{"android":"levelo://app?vid=8c367ae0-423d-4e7e-8d7e-17eb1eb4a101","ios":"levelo://app?vid=8c367ae0-423d-4e7e-8d7e-17eb1eb4a101"},"vehicle_type_id":"4","last_reported":1744272806,"current_range_meters":11200,"station_id":"ce4bhbp2rcd13ifvqerg","pricing_plan_id":"cebpf4jnsgd1na2vs0mg"},{"bike_id":"a2d4618a-a844-4331-9989-0832c1a0627c","system_id":"levelo_inurba_marseille","lat":43.29918,"lon":5.37459,"is_reserved":false,"is_disabled":false,"rental_uris":{"android":"levelo://app?vid=a2d4618a-a844-4331-9989-0832c1a0627c","ios":"levelo://app?vid=a2d4618a-a844-4331-9989-0832c1a0627c"},"vehicle_type_id":"4","last_reported":1744272806,"current_range_meters":11600,"station_id":"ce4bgjh2rcd13ifvqbg0","pricing_plan_id":"cebpf4jnsgd1na2vs0mg"},{"bike_id":"a4bec7fc-9991-48f2-a9cb-1716cd5a96a5","system_id":"levelo_inurba_marseille","lat":43.30965,"lon":5.3903,"is_reserved":false,"is_disabled":false,"rental_uris":{"android":"levelo://app?vid=a4bec7fc-9991-48f2-a9cb-1716cd5a96a5","ios":"levelo://app?vid=a4bec7fc-9991-48f2-a9cb-1716cd5a96a5"},"vehicle_type_id":"4","last_reported":1744272806,"current_range_meters":11600,"station_id":"ce4bgup2rcd13ifvqco0","pricing_plan_id":"cebpf4jnsgd1na2vs0mg"},{"bike_id":"d6cb6817-0053-4ce7-b5d5-42155f79a1e3","system_id":"levelo_inurba_marseille","lat":43.28424,"lon":5.34984,"is_reserved":false,"is_disabled":false,"rental_uris":{"android":"levelo://app?vid=d6cb6817-0053-4ce7-b5d5-42155f79a1e3","ios":"levelo://app?vid=d6cb6817-0053-4ce7-b5d5-42155f79a1e3"},"vehicle_type_id":"4","last_reported":1744272806,"current_range_meters":12000,"station_id":"ce4bhbh2rcd13ifvqepg","pricing_plan_id":"cebpf4jnsgd1na2vs0mg"},{"bike_id":"5d14c852-7d39-4daa-9337-9b008497a52a","system_id":"levelo_inurba_marseille","lat":43.294,"lon":5.3863,"is_reserved":false,"is_disabled":true,"rental_uris":{"android":"levelo://app?vid=5d14c852-7d39-4daa-9337-9b008497a52a","ios":"levelo://app?vid=5d14c852-7d39-4daa-9337-9b008497a52a"},"vehicle_type_id":"4","last_reported":1744272806,"current_range_meters":12000,"station_id":"ce4bh2h2rcd13ifvqdh0","pricing_plan_id":"cebpf4jnsgd1na2vs0mg"},{"bike_id":"5bf3f4a1-3271-4dad-9593-ab76c7ea5f4f","system_id":"levelo_inurba_marseille","lat":43.30556,"lon":5.36526,"is_reserved":false,"is_disabled":false,"rental_uris":{"android":"levelo://app?vid=5bf3f4a1-3271-4dad-9593-ab76c7ea5f4f","ios":"levelo://app?vid=5bf3f4a1-3271-4dad-9593-ab76c7ea5f4f"},"vehicle_type_id":"4","last_reported":1744272806,"current_range_meters":12000,"station_id":"ce4bgs12rcd13ifvqcag","pricing_plan_id":"cebpf4jnsgd1na2vs0mg"},{"bike_id":"42c1fdc6-38af-4ea1-a910-702e15d5a9b4","system_id":"levelo_inurba_marseille","lat":43.30945,"lon":5.40172,"is_reserved":false,"is_disabled":true,"rental_uris":{"android":"levelo://app?vid=42c1fdc6-38af-4ea1-a910-702e15d5a9b4","ios":"levelo://app?vid=42c1fdc6-38af-4ea1-a910-702e15d5a9b4"},"vehicle_type_id":"4","last_reported":1744272806,"current_range_meters":12000,"station_id":"ce4bgvp2rcd13ifvqct0","pricing_plan_id":"cebpf4jnsgd1na2vs0mg"},{"bike_id":"99260628-93ca-4816-84c2-7509aaf9aff8","system_id":"levelo_inurba_marseille","lat":43.31292,"lon":5.36853,"is_reserved":false,"is_disabled":false,"rental_uris":{"android":"levelo://app?vid=99260628-93ca-4816-84c2-7509aaf9aff8","ios":"levelo://app?vid=99260628-93ca-4816-84c2-7509aaf9aff8"},"vehicle_type_id":"4","last_reported":1744272806,"current_range_meters":12000,"station_id":"","pricing_plan_id":"cebpf4jnsgd1na2vs0mg"},{"bike_id":"89c3460a-aa5d-44a6-852d-b5ef36d2e9c1","system_id":"levelo_inurba_marseille","lat":43.241669,"lon":5.363932,"is_reserved":false,"is_disabled":false,"rental_uris":{"android":"levelo://app?vid=89c3460a-aa5d-44a6-852d-b5ef36d2e9c1","ios":"levelo://app?vid=89c3460a-aa5d-44a6-852d-b5ef36d2e9c1"},"vehicle_type_id":"4","last_reported":1744272806,"current_range_meters":12400,"station_id":"ce4bhmp2rcd13ifvqgog","pricing_plan_id":"cebpf4jnsgd1na2vs0mg"},{"bike_id":"1a3cd0ab-ec77-41b3-982c-74e5093499a8","system_id":"levelo_inurba_marseille","lat":43.30437,"lon":5.389,"is_reserved":false,"is_disabled":true,"rental_uris":{"android":"levelo://app?vid=1a3cd0ab-ec77-41b3-982c-74e5093499a8","ios":"levelo://app?vid=1a3cd0ab-ec77-41b3-982c-74e5093499a8"},"vehicle_type_id":"4","last_reported":1744272806,"current_range_meters":12400,"station_id":"ce4bgk12rcd13ifvqbi0","pricing_plan_id":"cebpf4jnsgd1na2vs0mg"},{"bike_id":"8e0893d6-a031-4a1a-b1f8-381348b84109","system_id":"levelo_inurba_marseille","lat":43.243845,"lon":5.370526,"is_reserved":false,"is_disabled":false,"rental_uris":{"android":"levelo://app?vid=8e0893d6-a031-4a1a-b1f8-381348b84109","ios":"levelo://app?vid=8e0893d6-a031-4a1a-b1f8-381348b84109"},"vehicle_type_id":"4","last_reported":1744272806,"current_range_meters":12400,"station_id":"ce4bhhh2rcd13ifvqfk0","pricing_plan_id":"cebpf4jnsgd1na2vs0mg"},{"bike_id":"8ef273ac-c689-4f24-a851-468efa4e0854","system_id":"levelo_inurba_marseille","lat":43.28975,"lon":5.36853,"is_reserved":false,"is_disabled":false,"rental_uris":{"android":"levelo://app?vid=8ef273ac-c689-4f24-a851-468efa4e0854","ios":"levelo://app?vid=8ef273ac-c689-4f24-a851-468efa4e0854"},"vehicle_type_id":"4","last_reported":1744272806,"current_range_meters":12400,"station_id":"","pricing_plan_id":"cebpf4jnsgd1na2vs0mg"},{"bike_id":"4ba41b5d-d8c6-44c0-9590-5f624994ddc0","system_id":"levelo_inurba_marseille","lat":43.28824,"lon":5.39264,"is_reserved":false,"is_disabled":false,"rental_uris":{"android":"levelo://app?vid=4ba41b5d-d8c6-44c0-9590-5f624994ddc0","ios":"levelo://app?vid=4ba41b5d-d8c6-44c0-9590-5f624994ddc0"},"vehicle_type_id":"4","last_reported":1744272806,"current_range_meters":12800,"station_id":"ce4bh2p2rcd13ifvqdi0","pricing_plan_id":"cebpf4jnsgd1na2vs0mg"},{"bike_id":"5047455d-c97a-4875-9440-a0dd56a0356d","system_id":"levelo_inurba_marseille","lat":43.32373,"lon":5.36738,"is_reserved":false,"is_disabled":false,"rental_uris":{"android":"levelo://app?vid=5047455d-c97a-4875-9440-a0dd56a0356d","ios":"levelo://app?vid=5047455d-c97a-4875-9440-a0dd56a0356d"},"vehicle_type_id":"4","last_reported":1744272806,"current_range_meters":12800,"station_id":"ce4bhsh2rcd13ifvqi2g","pricing_plan_id":"cebpf4jnsgd1na2vs0mg"},{"bike_id":"c1c7ca60-b5bb-4107-8f49-35ca01c60f71","system_id":"levelo_inurba_marseille","lat":43.29537,"lon":5.37499,"is_reserved":false,"is_disabled":false,"rental_uris":{"android":"levelo://app?vid=c1c7ca60-b5bb-4107-8f49-35ca01c60f71","ios":"levelo://app?vid=c1c7ca60-b5bb-4107-8f49-35ca01c60f71"},"vehicle_type_id":"4","last_reported":1744272806,"current_range_meters":13600,"station_id":"ce4bgkp2rcd13ifvqbmg","pricing_plan_id":"cebpf4jnsgd1na2vs0mg"},{"bike_id":"ae370e9e-a8c6-4623-b952-4b254f807bb4","system_id":"levelo_inurba_marseille","lat":43.26699,"lon":5.3825,"is_reserved":false,"is_disabled":false,"rental_uris":{"android":"levelo://app?vid=ae370e9e-a8c6-4623-b952-4b254f807bb4","ios":"levelo://app?vid=ae370e9e-a8c6-4623-b952-4b254f807bb4"},"vehicle_type_id":"4","last_reported":1744272806,"current_range_meters":12800,"station_id":"ce4bhg92rcd13ifvqf90","pricing_plan_id":"cebpf4jnsgd1na2vs0mg"},{"bike_id":"9ef78540-b87d-4a2f-af47-9f3057946b7e","system_id":"levelo_inurba_marseille","lat":43.29624,"lon":5.40598,"is_reserved":false,"is_disabled":false,"rental_uris":{"android":"levelo://app?vid=9ef78540-b87d-4a2f-af47-9f3057946b7e","ios":"levelo://app?vid=9ef78540-b87d-4a2f-af47-9f3057946b7e"},"vehicle_type_id":"4","last_reported":1744272806,"current_range_meters":14000,"station_id":"ce4bh0h2rcd13ifvqd60","pricing_plan_id":"cebpf4jnsgd1na2vs0mg"},{"bike_id":"ceb584a8-bfcf-4e68-96cb-97b2c09da309","system_id":"levelo_inurba_marseille","lat":43.30545,"lon":5.36703,"is_reserved":false,"is_disabled":false,"rental_uris":{"android":"levelo://app?vid=ceb584a8-bfcf-4e68-96cb-97b2c09da309","ios":"levelo://app?vid=ceb584a8-bfcf-4e68-96cb-97b2c09da309"},"vehicle_type_id":"4","last_reported":1744272806,"current_range_meters":14000,"station_id":"ce4bgrp2rcd13ifvqc9g","pricing_plan_id":"cebpf4jnsgd1na2vs0mg"},{"bike_id":"28cfefe7-a6c8-4416-bd7b-b3f5ff0fad2d","system_id":"levelo_inurba_marseille","lat":43.30933,"lon":5.39038,"is_reserved":false,"is_disabled":false,"rental_uris":{"android":"levelo://app?vid=28cfefe7-a6c8-4416-bd7b-b3f5ff0fad2d","ios":"levelo://app?vid=28cfefe7-a6c8-4416-bd7b-b3f5ff0fad2d"},"vehicle_type_id":"4","last_reported":1744272806,"current_range_meters":14000,"station_id":"ce4bgup2rcd13ifvqco0","pricing_plan_id":"cebpf4jnsgd1na2vs0mg"},{"bike_id":"ba26f743-2889-471f-a5a4-600162e807bf","system_id":"levelo_inurba_marseille","lat":43.25824,"lon":5.39432,"is_reserved":false,"is_disabled":false,"rental_uris":{"android":"levelo://app?vid=ba26f743-2889-471f-a5a4-600162e807bf","ios":"levelo://app?vid=ba26f743-2889-471f-a5a4-600162e807bf"},"vehicle_type_id":"4","last_reported":1744272806,"current_range_meters":14000,"station_id":"ce4bhip2rcd13ifvqft0","pricing_plan_id":"cebpf4jnsgd1na2vs0mg"},{"bike_id":"5ede176c-9f21-4714-8f9b-bca66a9a229f","system_id":"levelo_inurba_marseille","lat":43.243857,"lon":5.37062,"is_reserved":false,"is_disabled":false,"rental_uris":{"android":"levelo://app?vid=5ede176c-9f21-4714-8f9b-bca66a9a229f","ios":"levelo://app?vid=5ede176c-9f21-4714-8f9b-bca66a9a229f"},"vehicle_type_id":"4","last_reported":1744272806,"current_range_meters":14400,"station_id":"ce4bhhh2rcd13ifvqfk0","pricing_plan_id":"cebpf4jnsgd1na2vs0mg"},{"bike_id":"5695cb2e-dbd5-40eb-9413-b06715d5ee98","system_id":"levelo_inurba_marseille","lat":43.22932,"lon":5.35374,"is_reserved":false,"is_disabled":false,"rental_uris":{"android":"levelo://app?vid=5695cb2e-dbd5-40eb-9413-b06715d5ee98","ios":"levelo://app?vid=5695cb2e-dbd5-40eb-9413-b06715d5ee98"},"vehicle_type_id":"4","last_reported":1744272806,"current_range_meters":14400,"station_id":"cpo3532slgdg3j2ikp40","pricing_plan_id":"cebpf4jnsgd1na2vs0mg"},{"bike_id":"459bc253-387d-45df-930d-539d8d2b9124","system_id":"levelo_inurba_marseille","lat":43.24161,"lon":5.39733,"is_reserved":false,"is_disabled":false,"rental_uris":{"android":"levelo://app?vid=459bc253-387d-45df-930d-539d8d2b9124","ios":"levelo://app?vid=459bc253-387d-45df-930d-539d8d2b9124"},"vehicle_type_id":"4","last_reported":1744272806,"current_range_meters":14400,"station_id":"ce4bhn12rcd13ifvqgpg","pricing_plan_id":"cebpf4jnsgd1na2vs0mg"},{"bike_id":"58a06d5c-23f8-466b-a88d-449307d0c901","system_id":"levelo_inurba_marseille","lat":43.31539,"lon":5.36768,"is_reserved":false,"is_disabled":false,"rental_uris":{"android":"levelo://app?vid=58a06d5c-23f8-466b-a88d-449307d0c901","ios":"levelo://app?vid=58a06d5c-23f8-466b-a88d-449307d0c901"},"vehicle_type_id":"4","last_reported":1744272806,"current_range_meters":14400,"station_id":"","pricing_plan_id":"cebpf4jnsgd1na2vs0mg"},{"bike_id":"69453b73-2d1a-4d69-a56c-2a033ab4613a","system_id":"levelo_inurba_marseille","lat":43.30556,"lon":5.36554,"is_reserved":false,"is_disabled":false,"rental_uris":{"android":"levelo://app?vid=69453b73-2d1a-4d69-a56c-2a033ab4613a","ios":"levelo://app?vid=69453b73-2d1a-4d69-a56c-2a033ab4613a"},"vehicle_type_id":"4","last_reported":1744272806,"current_range_meters":14400,"station_id":"ce4bgs12rcd13ifvqcag","pricing_plan_id":"cebpf4jnsgd1na2vs0mg"},{"bike_id":"e3c3a051-8134-4ed3-913b-374aa217874c","system_id":"levelo_inurba_marseille","lat":43.2559,"lon":5.40455,"is_reserved":false,"is_disabled":false,"rental_uris":{"android":"levelo://app?vid=e3c3a051-8134-4ed3-913b-374aa217874c","ios":"levelo://app?vid=e3c3a051-8134-4ed3-913b-374aa217874c"},"vehicle_type_id":"4","last_reported":1744272806,"current_range_meters":14800,"station_id":"","pricing_plan_id":"cebpf4jnsgd1na2vs0mg"},{"bike_id":"f10eaa92-034b-466a-8ac9-20fcbdaff0ab","system_id":"levelo_inurba_marseille","lat":43.31323,"lon":5.36706,"is_reserved":false,"is_disabled":false,"rental_uris":{"android":"levelo://app?vid=f10eaa92-034b-466a-8ac9-20fcbdaff0ab","ios":"levelo://app?vid=f10eaa92-034b-466a-8ac9-20fcbdaff0ab"},"vehicle_type_id":"4","last_reported":1744272806,"current_range_meters":14800,"station_id":"ce4bgr92rcd13ifvqc6g","pricing_plan_id":"cebpf4jnsgd1na2vs0mg"},{"bike_id":"678b2156-23d8-4979-9a24-20656752f490","system_id":"levelo_inurba_marseille","lat":43.23189,"lon":5.35563,"is_reserved":false,"is_disabled":false,"rental_uris":{"android":"levelo://app?vid=678b2156-23d8-4979-9a24-20656752f490","ios":"levelo://app?vid=678b2156-23d8-4979-9a24-20656752f490"},"vehicle_type_id":"4","last_reported":1744272806,"current_range_meters":14400,"station_id":"ce4bhu92rcd13ifvqi70","pricing_plan_id":"cebpf4jnsgd1na2vs0mg"},{"bike_id":"6d76978a-2740-4f57-9972-fcce06d4c9a8","system_id":"levelo_inurba_marseille","lat":43.31299,"lon":5.36747,"is_reserved":false,"is_disabled":false,"rental_uris":{"android":"levelo://app?vid=6d76978a-2740-4f57-9972-fcce06d4c9a8","ios":"levelo://app?vid=6d76978a-2740-4f57-9972-fcce06d4c9a8"},"vehicle_type_id":"4","last_reported":1744272806,"current_range_meters":15200,"station_id":"ce4bgr92rcd13ifvqc6g","pricing_plan_id":"cebpf4jnsgd1na2vs0mg"},{"bike_id":"771e5c88-0894-4838-8ec4-4667279f7dd9","system_id":"levelo_inurba_marseille","lat":43.23149,"lon":5.43708,"is_reserved":false,"is_disabled":false,"rental_uris":{"android":"levelo://app?vid=771e5c88-0894-4838-8ec4-4667279f7dd9","ios":"levelo://app?vid=771e5c88-0894-4838-8ec4-4667279f7dd9"},"vehicle_type_id":"4","last_reported":1744272806,"current_range_meters":15200,"station_id":"ce4bhmp2rcd13ifvqgog","pricing_plan_id":"cebpf4jnsgd1na2vs0mg"},{"bike_id":"da67f075-1c53-44b7-9964-7e85862949bc","system_id":"levelo_inurba_marseille","lat":43.3168,"lon":5.40476,"is_reserved":false,"is_disabled":false,"rental_uris":{"android":"levelo://app?vid=da67f075-1c53-44b7-9964-7e85862949bc","ios":"levelo://app?vid=da67f075-1c53-44b7-9964-7e85862949bc"},"vehicle_type_id":"4","last_reported":1744272806,"current_range_meters":15200,"station_id":"ce4bh012rcd13ifvqd00","pricing_plan_id":"cebpf4jnsgd1na2vs0mg"},{"bike_id":"a67c7693-cd6a-428e-83d3-04417e92fae6","system_id":"levelo_inurba_marseille","lat":43.24385,"lon":5.37057,"is_reserved":false,"is_disabled":false,"rental_uris":{"android":"levelo://app?vid=a67c7693-cd6a-428e-83d3-04417e92fae6","ios":"levelo://app?vid=a67c7693-cd6a-428e-83d3-04417e92fae6"},"vehicle_type_id":"4","last_reported":1744272806,"current_range_meters":14800,"station_id":"ce4bhhh2rcd13ifvqfk0","pricing_plan_id":"cebpf4jnsgd1na2vs0mg"},{"bike_id":"cb986afa-0706-475e-8f3c-11ee95eb1194","system_id":"levelo_inurba_marseille","lat":43.23141,"lon":5.43728,"is_reserved":false,"is_disabled":false,"rental_uris":{"android":"levelo://app?vid=cb986afa-0706-475e-8f3c-11ee95eb1194","ios":"levelo://app?vid=cb986afa-0706-475e-8f3c-11ee95eb1194"},"vehicle_type_id":"4","last_reported":1744272806,"current_range_meters":15200,"station_id":"ce4bhmp2rcd13ifvqgog","pricing_plan_id":"cebpf4jnsgd1na2vs0mg"},{"bike_id":"d5c40fa2-8caf-4c7e-9d6c-472c31634ec1","system_id":"levelo_inurba_marseille","lat":43.25585,"lon":5.38235,"is_reserved":false,"is_disabled":false,"rental_uris":{"android":"levelo://app?vid=d5c40fa2-8caf-4c7e-9d6c-472c31634ec1","ios":"levelo://app?vid=d5c40fa2-8caf-4c7e-9d6c-472c31634ec1"},"vehicle_type_id":"4","last_reported":1744272806,"current_range_meters":15200,"station_id":"ce4bhih2rcd13ifvqfs0","pricing_plan_id":"cebpf4jnsgd1na2vs0mg"},{"bike_id":"bf8ac1a8-fd20-4984-b459-cc47b9bf01d3","system_id":"levelo_inurba_marseille","lat":43.30517,"lon":5.380592,"is_reserved":false,"is_disabled":false,"rental_uris":{"android":"levelo://app?vid=bf8ac1a8-fd20-4984-b459-cc47b9bf01d3","ios":"levelo://app?vid=bf8ac1a8-fd20-4984-b459-cc47b9bf01d3"},"vehicle_type_id":"4","last_reported":1744272806,"current_range_meters":15200,"station_id":"ce4bgup2rcd13ifvqcn0","pricing_plan_id":"cebpf4jnsgd1na2vs0mg"},{"bike_id":"8fc75a06-b383-4356-9ce0-507c4c1bc08f","system_id":"levelo_inurba_marseille","lat":43.27069,"lon":5.4228,"is_reserved":false,"is_disabled":false,"rental_uris":{"android":"levelo://app?vid=8fc75a06-b383-4356-9ce0-507c4c1bc08f","ios":"levelo://app?vid=8fc75a06-b383-4356-9ce0-507c4c1bc08f"},"vehicle_type_id":"4","last_reported":1744272806,"current_range_meters":15200,"station_id":"ce4bhk92rcd13ifvqgb0","pricing_plan_id":"cebpf4jnsgd1na2vs0mg"},{"bike_id":"d44ff2b9-417e-4368-bebb-1fc974db3122","system_id":"levelo_inurba_marseille","lat":43.336335,"lon":5.397568,"is_reserved":false,"is_disabled":false,"rental_uris":{"android":"levelo://app?vid=d44ff2b9-417e-4368-bebb-1fc974db3122","ios":"levelo://app?vid=d44ff2b9-417e-4368-bebb-1fc974db3122"},"vehicle_type_id":"4","last_reported":1744272806,"current_range_meters":15200,"station_id":"","pricing_plan_id":"cebpf4jnsgd1na2vs0mg"},{"bike_id":"d1f92f28-9609-4256-bd4a-880c7b09d4e8","system_id":"levelo_inurba_marseille","lat":43.29336,"lon":5.41146,"is_reserved":false,"is_disabled":false,"rental_uris":{"android":"levelo://app?vid=d1f92f28-9609-4256-bd4a-880c7b09d4e8","ios":"levelo://app?vid=d1f92f28-9609-4256-bd4a-880c7b09d4e8"},"vehicle_type_id":"4","last_reported":1744272806,"current_range_meters":15200,"station_id":"","pricing_plan_id":"cebpf4jnsgd1na2vs0mg"},{"bike_id":"f4c26825-bca7-4c9c-82a6-a5ca77bf5134","system_id":"levelo_inurba_marseille","lat":43.29593,"lon":5.37738,"is_reserved":false,"is_disabled":false,"rental_uris":{"android":"levelo://app?vid=f4c26825-bca7-4c9c-82a6-a5ca77bf5134","ios":"levelo://app?vid=f4c26825-bca7-4c9c-82a6-a5ca77bf5134"},"vehicle_type_id":"4","last_reported":1744272806,"current_range_meters":15200,"station_id":"ce4bgi92rcd13ifvqb90","pricing_plan_id":"cebpf4jnsgd1na2vs0mg"},{"bike_id":"39d569f2-804d-4c1f-93cb-ffdd8bba0563","system_id":"levelo_inurba_marseille","lat":43.3056,"lon":5.38421,"is_reserved":false,"is_disabled":true,"rental_uris":{"android":"levelo://app?vid=39d569f2-804d-4c1f-93cb-ffdd8bba0563","ios":"levelo://app?vid=39d569f2-804d-4c1f-93cb-ffdd8bba0563"},"vehicle_type_id":"4","last_reported":1744272806,"current_range_meters":16000,"station_id":"ce4bgg92rcd13ifvqb30","pricing_plan_id":"cebpf4jnsgd1na2vs0mg"},{"bike_id":"f78bf8a8-b506-43e9-9fc4-9ec4cb688e82","system_id":"levelo_inurba_marseille","lat":43.32119,"lon":5.36765,"is_reserved":false,"is_disabled":false,"rental_uris":{"android":"levelo://app?vid=f78bf8a8-b506-43e9-9fc4-9ec4cb688e82","ios":"levelo://app?vid=f78bf8a8-b506-43e9-9fc4-9ec4cb688e82"},"vehicle_type_id":"4","last_reported":1744272806,"current_range_meters":16000,"station_id":"ce4bhrh2rcd13ifvqhug","pricing_plan_id":"cebpf4jnsgd1na2vs0mg"},{"bike_id":"1a8fb86a-a16f-4372-9f9e-b82551d343c8","system_id":"levelo_inurba_marseille","lat":43.31334,"lon":5.36702,"is_reserved":false,"is_disabled":false,"rental_uris":{"android":"levelo://app?vid=1a8fb86a-a16f-4372-9f9e-b82551d343c8","ios":"levelo://app?vid=1a8fb86a-a16f-4372-9f9e-b82551d343c8"},"vehicle_type_id":"4","last_reported":1744272806,"current_range_meters":16000,"station_id":"ce4bgr92rcd13ifvqc6g","pricing_plan_id":"cebpf4jnsgd1na2vs0mg"},{"bike_id":"9550470e-ac84-422f-ae67-92ba2e50e7f7","system_id":"levelo_inurba_marseille","lat":43.25012,"lon":5.38923,"is_reserved":false,"is_disabled":false,"rental_uris":{"android":"levelo://app?vid=9550470e-ac84-422f-ae67-92ba2e50e7f7","ios":"levelo://app?vid=9550470e-ac84-422f-ae67-92ba2e50e7f7"},"vehicle_type_id":"4","last_reported":1744272806,"current_range_meters":16000,"station_id":"ce4bhgp2rcd13ifvqfd0","pricing_plan_id":"cebpf4jnsgd1na2vs0mg"},{"bike_id":"2d605846-4ec4-4fbf-bd99-e682335b1dee","system_id":"levelo_inurba_marseille","lat":43.30154,"lon":5.38771,"is_reserved":false,"is_disabled":true,"rental_uris":{"android":"levelo://app?vid=2d605846-4ec4-4fbf-bd99-e682335b1dee","ios":"levelo://app?vid=2d605846-4ec4-4fbf-bd99-e682335b1dee"},"vehicle_type_id":"4","last_reported":1744272806,"current_range_meters":16000,"station_id":"ce4bghh2rcd13ifvqb60","pricing_plan_id":"cebpf4jnsgd1na2vs0mg"},{"bike_id":"c74893b0-7990-42e1-81ba-6333fadd7f5e","system_id":"levelo_inurba_marseille","lat":43.30536,"lon":5.36531,"is_reserved":false,"is_disabled":false,"rental_uris":{"android":"levelo://app?vid=c74893b0-7990-42e1-81ba-6333fadd7f5e","ios":"levelo://app?vid=c74893b0-7990-42e1-81ba-6333fadd7f5e"},"vehicle_type_id":"4","last_reported":1744272806,"current_range_meters":16000,"station_id":"ce4bgs12rcd13ifvqcag","pricing_plan_id":"cebpf4jnsgd1na2vs0mg"},{"bike_id":"b0daa17d-bd88-40c5-b571-9bf15d3bf2c5","system_id":"levelo_inurba_marseille","lat":43.23149,"lon":5.43722,"is_reserved":false,"is_disabled":false,"rental_uris":{"android":"levelo://app?vid=b0daa17d-bd88-40c5-b571-9bf15d3bf2c5","ios":"levelo://app?vid=b0daa17d-bd88-40c5-b571-9bf15d3bf2c5"},"vehicle_type_id":"4","last_reported":1744272806,"current_range_meters":16000,"station_id":"ce4bhmp2rcd13ifvqgog","pricing_plan_id":"cebpf4jnsgd1na2vs0mg"},{"bike_id":"ef291804-1477-432e-b153-82ea15725418","system_id":"levelo_inurba_marseille","lat":43.33742,"lon":5.37463,"is_reserved":false,"is_disabled":false,"rental_uris":{"android":"levelo://app?vid=ef291804-1477-432e-b153-82ea15725418","ios":"levelo://app?vid=ef291804-1477-432e-b153-82ea15725418"},"vehicle_type_id":"4","last_reported":1744272806,"current_range_meters":16000,"station_id":"","pricing_plan_id":"cebpf4jnsgd1na2vs0mg"},{"bike_id":"165aa10c-de8e-420d-b6ec-8cfd7b996c4e","system_id":"levelo_inurba_marseille","lat":43.30531,"lon":5.36716,"is_reserved":false,"is_disabled":false,"rental_uris":{"android":"levelo://app?vid=165aa10c-de8e-420d-b6ec-8cfd7b996c4e","ios":"levelo://app?vid=165aa10c-de8e-420d-b6ec-8cfd7b996c4e"},"vehicle_type_id":"4","last_reported":1744272806,"current_range_meters":16000,"station_id":"ce4bgrp2rcd13ifvqc9g","pricing_plan_id":"cebpf4jnsgd1na2vs0mg"},{"bike_id":"53d2413a-de46-4967-b219-c3851c5e719c","system_id":"levelo_inurba_marseille","lat":43.25445,"lon":5.42067,"is_reserved":false,"is_disabled":false,"rental_uris":{"android":"levelo://app?vid=53d2413a-de46-4967-b219-c3851c5e719c","ios":"levelo://app?vid=53d2413a-de46-4967-b219-c3851c5e719c"},"vehicle_type_id":"4","last_reported":1744272806,"current_range_meters":16000,"station_id":"ce4bhm92rcd13ifvqglg","pricing_plan_id":"cebpf4jnsgd1na2vs0mg"},{"bike_id":"6aea74ed-ea0d-40c2-9455-d10b07283bfc","system_id":"levelo_inurba_marseille","lat":43.241728,"lon":5.397306,"is_reserved":false,"is_disabled":false,"rental_uris":{"android":"levelo://app?vid=6aea74ed-ea0d-40c2-9455-d10b07283bfc","ios":"levelo://app?vid=6aea74ed-ea0d-40c2-9455-d10b07283bfc"},"vehicle_type_id":"4","last_reported":1744272806,"current_range_meters":16000,"station_id":"ce4bhn12rcd13ifvqgpg","pricing_plan_id":"cebpf4jnsgd1na2vs0mg"},{"bike_id":"f3bd48ca-bcdf-496b-b5c9-45ffc70ad9a5","system_id":"levelo_inurba_marseille","lat":43.29274,"lon":5.36846,"is_reserved":false,"is_disabled":false,"rental_uris":{"android":"levelo://app?vid=f3bd48ca-bcdf-496b-b5c9-45ffc70ad9a5","ios":"levelo://app?vid=f3bd48ca-bcdf-496b-b5c9-45ffc70ad9a5"},"vehicle_type_id":"4","last_reported":1744272806,"current_range_meters":16000,"station_id":"ce4bhbp2rcd13ifvqesg","pricing_plan_id":"cebpf4jnsgd1na2vs0mg"},{"bike_id":"c7a0b639-1b85-44a3-b1ee-af4ecf90a377","system_id":"levelo_inurba_marseille","lat":43.31687,"lon":5.40466,"is_reserved":false,"is_disabled":false,"rental_uris":{"android":"levelo://app?vid=c7a0b639-1b85-44a3-b1ee-af4ecf90a377","ios":"levelo://app?vid=c7a0b639-1b85-44a3-b1ee-af4ecf90a377"},"vehicle_type_id":"4","last_reported":1744272806,"current_range_meters":16000,"station_id":"ce4bh012rcd13ifvqd00","pricing_plan_id":"cebpf4jnsgd1na2vs0mg"},{"bike_id":"740ed816-09b2-41bd-867d-52a35d1745f1","system_id":"levelo_inurba_marseille","lat":43.24663,"lon":5.38166,"is_reserved":false,"is_disabled":true,"rental_uris":{"android":"levelo://app?vid=740ed816-09b2-41bd-867d-52a35d1745f1","ios":"levelo://app?vid=740ed816-09b2-41bd-867d-52a35d1745f1"},"vehicle_type_id":"4","last_reported":1744272806,"current_range_meters":16400,"station_id":"ce4bhih2rcd13ifvqfr0","pricing_plan_id":"cebpf4jnsgd1na2vs0mg"},{"bike_id":"231aaa88-1e79-4a74-a543-651d8fd5a027","system_id":"levelo_inurba_marseille","lat":43.330786,"lon":5.405129,"is_reserved":false,"is_disabled":false,"rental_uris":{"android":"levelo://app?vid=231aaa88-1e79-4a74-a543-651d8fd5a027","ios":"levelo://app?vid=231aaa88-1e79-4a74-a543-651d8fd5a027"},"vehicle_type_id":"4","last_reported":1744272806,"current_range_meters":16400,"station_id":"","pricing_plan_id":"cebpf4jnsgd1na2vs0mg"},{"bike_id":"8ee9f686-4549-4aad-af30-9017baadcb23","system_id":"levelo_inurba_marseille","lat":43.31446,"lon":5.37576,"is_reserved":false,"is_disabled":false,"rental_uris":{"android":"levelo://app?vid=8ee9f686-4549-4aad-af30-9017baadcb23","ios":"levelo://app?vid=8ee9f686-4549-4aad-af30-9017baadcb23"},"vehicle_type_id":"4","last_reported":1744272806,"current_range_meters":16400,"station_id":"","pricing_plan_id":"cebpf4jnsgd1na2vs0mg"},{"bike_id":"74b26f4a-6d3d-4ac2-b681-1e6162ab2ff1","system_id":"levelo_inurba_marseille","lat":43.31369,"lon":5.36818,"is_reserved":false,"is_disabled":false,"rental_uris":{"android":"levelo://app?vid=74b26f4a-6d3d-4ac2-b681-1e6162ab2ff1","ios":"levelo://app?vid=74b26f4a-6d3d-4ac2-b681-1e6162ab2ff1"},"vehicle_type_id":"4","last_reported":1744272806,"current_range_meters":16400,"station_id":"","pricing_plan_id":"cebpf4jnsgd1na2vs0mg"},{"bike_id":"d1cd1b25-6432-4bde-87f0-3f927aac83c2","system_id":"levelo_inurba_marseille","lat":43.30536,"lon":5.3652,"is_reserved":false,"is_disabled":false,"rental_uris":{"android":"levelo://app?vid=d1cd1b25-6432-4bde-87f0-3f927aac83c2","ios":"levelo://app?vid=d1cd1b25-6432-4bde-87f0-3f927aac83c2"},"vehicle_type_id":"4","last_reported":1744272806,"current_range_meters":16400,"station_id":"ce4bgs12rcd13ifvqcag","pricing_plan_id":"cebpf4jnsgd1na2vs0mg"},{"bike_id":"7585b20f-9284-47df-b0a8-891136ba2771","system_id":"levelo_inurba_marseille","lat":43.28445,"lon":5.35889,"is_reserved":false,"is_disabled":false,"rental_uris":{"android":"levelo://app?vid=7585b20f-9284-47df-b0a8-891136ba2771","ios":"levelo://app?vid=7585b20f-9284-47df-b0a8-891136ba2771"},"vehicle_type_id":"4","last_reported":1744272806,"current_range_meters":16400,"station_id":"ce4bhah2rcd13ifvqei0","pricing_plan_id":"cebpf4jnsgd1na2vs0mg"},{"bike_id":"2167c314-edd6-4978-985c-adfd396c814c","system_id":"levelo_inurba_marseille","lat":43.30566,"lon":5.36531,"is_reserved":false,"is_disabled":false,"rental_uris":{"android":"levelo://app?vid=2167c314-edd6-4978-985c-adfd396c814c","ios":"levelo://app?vid=2167c314-edd6-4978-985c-adfd396c814c"},"vehicle_type_id":"4","last_reported":1744272806,"current_range_meters":16400,"station_id":"ce4bgs12rcd13ifvqcag","pricing_plan_id":"cebpf4jnsgd1na2vs0mg"},{"bike_id":"edcc2472-e7bf-4e0c-91d2-956f1c779ee1","system_id":"levelo_inurba_marseille","lat":43.24179,"lon":5.39738,"is_reserved":false,"is_disabled":false,"rental_uris":{"android":"levelo://app?vid=edcc2472-e7bf-4e0c-91d2-956f1c779ee1","ios":"levelo://app?vid=edcc2472-e7bf-4e0c-91d2-956f1c779ee1"},"vehicle_type_id":"4","last_reported":1744272806,"current_range_meters":16800,"station_id":"ce4bhn12rcd13ifvqgpg","pricing_plan_id":"cebpf4jnsgd1na2vs0mg"},{"bike_id":"8d3aff8e-2e22-4236-9604-73c879687816","system_id":"levelo_inurba_marseille","lat":43.24655,"lon":5.3889,"is_reserved":false,"is_disabled":false,"rental_uris":{"android":"levelo://app?vid=8d3aff8e-2e22-4236-9604-73c879687816","ios":"levelo://app?vid=8d3aff8e-2e22-4236-9604-73c879687816"},"vehicle_type_id":"4","last_reported":1744272806,"current_range_meters":16800,"station_id":"ce4bhg12rcd13ifvqf60","pricing_plan_id":"cebpf4jnsgd1na2vs0mg"},{"bike_id":"2b54a496-5bb2-42c4-bb01-6f1e5c2215a7","system_id":"levelo_inurba_marseille","lat":43.30785,"lon":5.37656,"is_reserved":false,"is_disabled":true,"rental_uris":{"android":"levelo://app?vid=2b54a496-5bb2-42c4-bb01-6f1e5c2215a7","ios":"levelo://app?vid=2b54a496-5bb2-42c4-bb01-6f1e5c2215a7"},"vehicle_type_id":"4","last_reported":1744272806,"current_range_meters":16800,"station_id":"ce4bgv92rcd13ifvqcq0","pricing_plan_id":"cebpf4jnsgd1na2vs0mg"},{"bike_id":"e41856af-8dbd-4d1b-86b2-f5c9ed894666","system_id":"levelo_inurba_marseille","lat":43.28845,"lon":5.39326,"is_reserved":false,"is_disabled":false,"rental_uris":{"android":"levelo://app?vid=e41856af-8dbd-4d1b-86b2-f5c9ed894666","ios":"levelo://app?vid=e41856af-8dbd-4d1b-86b2-f5c9ed894666"},"vehicle_type_id":"4","last_reported":1744272806,"current_range_meters":16800,"station_id":"ce4bh2p2rcd13ifvqdi0","pricing_plan_id":"cebpf4jnsgd1na2vs0mg"},{"bike_id":"eab6cbfa-cb8e-47d7-b0d6-226ab7facec7","system_id":"levelo_inurba_marseille","lat":43.31707,"lon":5.42392,"is_reserved":false,"is_disabled":true,"rental_uris":{"android":"levelo://app?vid=eab6cbfa-cb8e-47d7-b0d6-226ab7facec7","ios":"levelo://app?vid=eab6cbfa-cb8e-47d7-b0d6-226ab7facec7"},"vehicle_type_id":"4","last_reported":1744272806,"current_range_meters":16800,"station_id":"ce4bhp92rcd13ifvqhbg","pricing_plan_id":"cebpf4jnsgd1na2vs0mg"},{"bike_id":"24231488-5645-46fa-bdcb-cb0f61d4579c","system_id":"levelo_inurba_marseille","lat":43.29026,"lon":5.39983,"is_reserved":false,"is_disabled":false,"rental_uris":{"android":"levelo://app?vid=24231488-5645-46fa-bdcb-cb0f61d4579c","ios":"levelo://app?vid=24231488-5645-46fa-bdcb-cb0f61d4579c"},"vehicle_type_id":"4","last_reported":1744272806,"current_range_meters":16800,"station_id":"ce4bh392rcd13ifvqdm0","pricing_plan_id":"cebpf4jnsgd1na2vs0mg"},{"bike_id":"0922821c-4e1d-4817-9469-860e55f8f0d1","system_id":"levelo_inurba_marseille","lat":43.22504,"lon":5.34787,"is_reserved":false,"is_disabled":true,"rental_uris":{"android":"levelo://app?vid=0922821c-4e1d-4817-9469-860e55f8f0d1","ios":"levelo://app?vid=0922821c-4e1d-4817-9469-860e55f8f0d1"},"vehicle_type_id":"4","last_reported":1744272806,"current_range_meters":16800,"station_id":"st_cvj5dfep6f1abm77gieg","pricing_plan_id":"cebpf4jnsgd1na2vs0mg"},{"bike_id":"b12fd458-373a-4476-b4d7-5a2feee8acf1","system_id":"levelo_inurba_marseille","lat":43.29008,"lon":5.35608,"is_reserved":false,"is_disabled":false,"rental_uris":{"android":"levelo://app?vid=b12fd458-373a-4476-b4d7-5a2feee8acf1","ios":"levelo://app?vid=b12fd458-373a-4476-b4d7-5a2feee8acf1"},"vehicle_type_id":"4","last_reported":1744272806,"current_range_meters":17200,"station_id":"ce4bhb92rcd13ifvqen0","pricing_plan_id":"cebpf4jnsgd1na2vs0mg"},{"bike_id":"08bc4743-76fa-4a83-bf6e-e397d1786978","system_id":"levelo_inurba_marseille","lat":43.2841,"lon":5.37517,"is_reserved":false,"is_disabled":false,"rental_uris":{"android":"levelo://app?vid=08bc4743-76fa-4a83-bf6e-e397d1786978","ios":"levelo://app?vid=08bc4743-76fa-4a83-bf6e-e397d1786978"},"vehicle_type_id":"4","last_reported":1744272806,"current_range_meters":17200,"station_id":"ce4bh412rcd13ifvqds0","pricing_plan_id":"cebpf4jnsgd1na2vs0mg"},{"bike_id":"b6324d72-3b37-416f-ae63-e7ffa79a39f9","system_id":"levelo_inurba_marseille","lat":43.22934,"lon":5.35374,"is_reserved":false,"is_disabled":false,"rental_uris":{"android":"levelo://app?vid=b6324d72-3b37-416f-ae63-e7ffa79a39f9","ios":"levelo://app?vid=b6324d72-3b37-416f-ae63-e7ffa79a39f9"},"vehicle_type_id":"4","last_reported":1744272806,"current_range_meters":17200,"station_id":"cpo3532slgdg3j2ikp40","pricing_plan_id":"cebpf4jnsgd1na2vs0mg"},{"bike_id":"0d405c79-5a10-4290-a4e4-b7484430db5c","system_id":"levelo_inurba_marseille","lat":43.29314,"lon":5.37176,"is_reserved":false,"is_disabled":false,"rental_uris":{"android":"levelo://app?vid=0d405c79-5a10-4290-a4e4-b7484430db5c","ios":"levelo://app?vid=0d405c79-5a10-4290-a4e4-b7484430db5c"},"vehicle_type_id":"4","last_reported":1744272806,"current_range_meters":17200,"station_id":"ce4bgh92rcd13ifvqb40","pricing_plan_id":"cebpf4jnsgd1na2vs0mg"},{"bike_id":"95bd6457-3569-4593-a611-dc99f5164e00","system_id":"levelo_inurba_marseille","lat":43.28479,"lon":5.38419,"is_reserved":false,"is_disabled":false,"rental_uris":{"android":"levelo://app?vid=95bd6457-3569-4593-a611-dc99f5164e00","ios":"levelo://app?vid=95bd6457-3569-4593-a611-dc99f5164e00"},"vehicle_type_id":"4","last_reported":1744272806,"current_range_meters":17200,"station_id":"ce4bh512rcd13ifvqe3g","pricing_plan_id":"cebpf4jnsgd1na2vs0mg"},{"bike_id":"a1d49897-cbbc-49d4-91c7-b8fa7616204c","system_id":"levelo_inurba_marseille","lat":43.30594,"lon":5.37216,"is_reserved":false,"is_disabled":false,"rental_uris":{"android":"levelo://app?vid=a1d49897-cbbc-49d4-91c7-b8fa7616204c","ios":"levelo://app?vid=a1d49897-cbbc-49d4-91c7-b8fa7616204c"},"vehicle_type_id":"4","last_reported":1744272806,"current_range_meters":16800,"station_id":"ce4bgqh2rcd13ifvqc4g","pricing_plan_id":"cebpf4jnsgd1na2vs0mg"},{"bike_id":"a1578be6-bb9c-41cd-93da-f0ac4b575825","system_id":"levelo_inurba_marseille","lat":43.29038,"lon":5.39965,"is_reserved":false,"is_disabled":false,"rental_uris":{"android":"levelo://app?vid=a1578be6-bb9c-41cd-93da-f0ac4b575825","ios":"levelo://app?vid=a1578be6-bb9c-41cd-93da-f0ac4b575825"},"vehicle_type_id":"4","last_reported":1744272806,"current_range_meters":17200,"station_id":"ce4bh392rcd13ifvqdm0","pricing_plan_id":"cebpf4jnsgd1na2vs0mg"},{"bike_id":"16da8d2e-7378-43da-b820-4f7dd366830d","system_id":"levelo_inurba_marseille","lat":43.28099,"lon":5.37834,"is_reserved":false,"is_disabled":false,"rental_uris":{"android":"levelo://app?vid=16da8d2e-7378-43da-b820-4f7dd366830d","ios":"levelo://app?vid=16da8d2e-7378-43da-b820-4f7dd366830d"},"vehicle_type_id":"4","last_reported":1744272806,"current_range_meters":17200,"station_id":"ce4bha12rcd13ifvqee0","pricing_plan_id":"cebpf4jnsgd1na2vs0mg"},{"bike_id":"5829cd0d-c17e-4de3-b63f-9cd151926e69","system_id":"levelo_inurba_marseille","lat":43.29576,"lon":5.36748,"is_reserved":false,"is_disabled":false,"rental_uris":{"android":"levelo://app?vid=5829cd0d-c17e-4de3-b63f-9cd151926e69","ios":"levelo://app?vid=5829cd0d-c17e-4de3-b63f-9cd151926e69"},"vehicle_type_id":"4","last_reported":1744272806,"current_range_meters":17200,"station_id":"ce4bgph2rcd13ifvqc2g","pricing_plan_id":"cebpf4jnsgd1na2vs0mg"},{"bike_id":"23718e9a-5ce7-4d28-99a5-8f754f56e13c","system_id":"levelo_inurba_marseille","lat":43.22492,"lon":5.34808,"is_reserved":false,"is_disabled":false,"rental_uris":{"android":"levelo://app?vid=23718e9a-5ce7-4d28-99a5-8f754f56e13c","ios":"levelo://app?vid=23718e9a-5ce7-4d28-99a5-8f754f56e13c"},"vehicle_type_id":"4","last_reported":1744272806,"current_range_meters":17600,"station_id":"","pricing_plan_id":"cebpf4jnsgd1na2vs0mg"},{"bike_id":"f1e866a5-7c3e-45b7-ba42-0d6523e7a78c","system_id":"levelo_inurba_marseille","lat":43.27497,"lon":5.42471,"is_reserved":false,"is_disabled":true,"rental_uris":{"android":"levelo://app?vid=f1e866a5-7c3e-45b7-ba42-0d6523e7a78c","ios":"levelo://app?vid=f1e866a5-7c3e-45b7-ba42-0d6523e7a78c"},"vehicle_type_id":"4","last_reported":1744272806,"current_range_meters":17600,"station_id":"ce4bhn92rcd13ifvqgrg","pricing_plan_id":"cebpf4jnsgd1na2vs0mg"},{"bike_id":"686a5207-cd40-45e0-9295-98b36eae431e","system_id":"levelo_inurba_marseille","lat":43.24172,"lon":5.39724,"is_reserved":false,"is_disabled":false,"rental_uris":{"android":"levelo://app?vid=686a5207-cd40-45e0-9295-98b36eae431e","ios":"levelo://app?vid=686a5207-cd40-45e0-9295-98b36eae431e"},"vehicle_type_id":"4","last_reported":1744272806,"current_range_meters":17600,"station_id":"ce4bhn12rcd13ifvqgpg","pricing_plan_id":"cebpf4jnsgd1na2vs0mg"},{"bike_id":"0147c9ac-893f-4e76-948b-26b4f756cbcd","system_id":"levelo_inurba_marseille","lat":43.30952,"lon":5.39042,"is_reserved":false,"is_disabled":false,"rental_uris":{"android":"levelo://app?vid=0147c9ac-893f-4e76-948b-26b4f756cbcd","ios":"levelo://app?vid=0147c9ac-893f-4e76-948b-26b4f756cbcd"},"vehicle_type_id":"4","last_reported":1744272806,"current_range_meters":17600,"station_id":"ce4bgup2rcd13ifvqco0","pricing_plan_id":"cebpf4jnsgd1na2vs0mg"},{"bike_id":"8c656ac9-5cb4-4c35-a4c4-cb91941ae545","system_id":"levelo_inurba_marseille","lat":43.29593,"lon":5.38099,"is_reserved":false,"is_disabled":false,"rental_uris":{"android":"levelo://app?vid=8c656ac9-5cb4-4c35-a4c4-cb91941ae545","ios":"levelo://app?vid=8c656ac9-5cb4-4c35-a4c4-cb91941ae545"},"vehicle_type_id":"4","last_reported":1744272806,"current_range_meters":17600,"station_id":"ce4bgl12rcd13ifvqbo0","pricing_plan_id":"cebpf4jnsgd1na2vs0mg"},{"bike_id":"802cd4e7-1532-4be6-941e-5d40067fea63","system_id":"levelo_inurba_marseille","lat":43.29262,"lon":5.38432,"is_reserved":false,"is_disabled":true,"rental_uris":{"android":"levelo://app?vid=802cd4e7-1532-4be6-941e-5d40067fea63","ios":"levelo://app?vid=802cd4e7-1532-4be6-941e-5d40067fea63"},"vehicle_type_id":"4","last_reported":1744272806,"current_range_meters":17600,"station_id":"ce4bh692rcd13ifvqea0","pricing_plan_id":"cebpf4jnsgd1na2vs0mg"},{"bike_id":"9d3970bd-d684-4d01-b43a-5c4c13427742","system_id":"levelo_inurba_marseille","lat":43.29073,"lon":5.38104,"is_reserved":false,"is_disabled":true,"rental_uris":{"android":"levelo://app?vid=9d3970bd-d684-4d01-b43a-5c4c13427742","ios":"levelo://app?vid=9d3970bd-d684-4d01-b43a-5c4c13427742"},"vehicle_type_id":"4","last_reported":1744272806,"current_range_meters":17600,"station_id":"ce4bh512rcd13ifvqe2g","pricing_plan_id":"cebpf4jnsgd1na2vs0mg"},{"bike_id":"10e6aa2b-d325-48da-bfec-af9601ad5c3a","system_id":"levelo_inurba_marseille","lat":43.309068,"lon":5.402123,"is_reserved":false,"is_disabled":false,"rental_uris":{"android":"levelo://app?vid=10e6aa2b-d325-48da-bfec-af9601ad5c3a","ios":"levelo://app?vid=10e6aa2b-d325-48da-bfec-af9601ad5c3a"},"vehicle_type_id":"4","last_reported":1744272806,"current_range_meters":18000,"station_id":"ce4bgvp2rcd13ifvqct0","pricing_plan_id":"cebpf4jnsgd1na2vs0mg"},{"bike_id":"51a1d9bb-9e0a-4449-bcf4-76e6f0739c67","system_id":"levelo_inurba_marseille","lat":43.30145,"lon":5.37414,"is_reserved":false,"is_disabled":false,"rental_uris":{"android":"levelo://app?vid=51a1d9bb-9e0a-4449-bcf4-76e6f0739c67","ios":"levelo://app?vid=51a1d9bb-9e0a-4449-bcf4-76e6f0739c67"},"vehicle_type_id":"4","last_reported":1744272806,"current_range_meters":18000,"station_id":"ce4bgs92rcd13ifvqcc0","pricing_plan_id":"cebpf4jnsgd1na2vs0mg"},{"bike_id":"b5ca0173-860f-4e09-8ae0-f89867ca9dd6","system_id":"levelo_inurba_marseille","lat":43.31859,"lon":5.37309,"is_reserved":false,"is_disabled":false,"rental_uris":{"android":"levelo://app?vid=b5ca0173-860f-4e09-8ae0-f89867ca9dd6","ios":"levelo://app?vid=b5ca0173-860f-4e09-8ae0-f89867ca9dd6"},"vehicle_type_id":"4","last_reported":1744272806,"current_range_meters":18000,"station_id":"","pricing_plan_id":"cebpf4jnsgd1na2vs0mg"},{"bike_id":"221b5d38-61dc-40aa-b23e-5b0391fc47a1","system_id":"levelo_inurba_marseille","lat":43.26209,"lon":5.40493,"is_reserved":false,"is_disabled":false,"rental_uris":{"android":"levelo://app?vid=221b5d38-61dc-40aa-b23e-5b0391fc47a1","ios":"levelo://app?vid=221b5d38-61dc-40aa-b23e-5b0391fc47a1"},"vehicle_type_id":"4","last_reported":1744272806,"current_range_meters":18000,"station_id":"ce4bhmh2rcd13ifvqgmg","pricing_plan_id":"cebpf4jnsgd1na2vs0mg"},{"bike_id":"5e1809cb-bb64-43c7-8901-7a5c4a101a37","system_id":"levelo_inurba_marseille","lat":43.26668,"lon":5.38278,"is_reserved":false,"is_disabled":false,"rental_uris":{"android":"levelo://app?vid=5e1809cb-bb64-43c7-8901-7a5c4a101a37","ios":"levelo://app?vid=5e1809cb-bb64-43c7-8901-7a5c4a101a37"},"vehicle_type_id":"4","last_reported":1744272806,"current_range_meters":18000,"station_id":"ce4bhg92rcd13ifvqf90","pricing_plan_id":"cebpf4jnsgd1na2vs0mg"},{"bike_id":"550669c9-2c2c-44c1-a8a3-dd9756269d1e","system_id":"levelo_inurba_marseille","lat":43.32138,"lon":5.37968,"is_reserved":false,"is_disabled":false,"rental_uris":{"android":"levelo://app?vid=550669c9-2c2c-44c1-a8a3-dd9756269d1e","ios":"levelo://app?vid=550669c9-2c2c-44c1-a8a3-dd9756269d1e"},"vehicle_type_id":"4","last_reported":1744272806,"current_range_meters":18000,"station_id":"","pricing_plan_id":"cebpf4jnsgd1na2vs0mg"},{"bike_id":"94455896-0f19-4fae-bd72-9879f01fcd6e","system_id":"levelo_inurba_marseille","lat":43.2956,"lon":5.4229,"is_reserved":false,"is_disabled":true,"rental_uris":{"android":"levelo://app?vid=94455896-0f19-4fae-bd72-9879f01fcd6e","ios":"levelo://app?vid=94455896-0f19-4fae-bd72-9879f01fcd6e"},"vehicle_type_id":"4","last_reported":1744272806,"current_range_meters":18000,"station_id":"ce4bhph2rcd13ifvqhdg","pricing_plan_id":"cebpf4jnsgd1na2vs0mg"},{"bike_id":"5336beb7-2639-49ce-9068-8e72e61fc789","system_id":"levelo_inurba_marseille","lat":43.28692,"lon":5.40001,"is_reserved":false,"is_disabled":false,"rental_uris":{"android":"levelo://app?vid=5336beb7-2639-49ce-9068-8e72e61fc789","ios":"levelo://app?vid=5336beb7-2639-49ce-9068-8e72e61fc789"},"vehicle_type_id":"4","last_reported":1744272806,"current_range_meters":18000,"station_id":"ce4bho92rcd13ifvqh3g","pricing_plan_id":"cebpf4jnsgd1na2vs0mg"},{"bike_id":"761ab4c6-4800-4be8-a1fe-1b0640d4f959","system_id":"levelo_inurba_marseille","lat":43.32275,"lon":5.37656,"is_reserved":false,"is_disabled":false,"rental_uris":{"android":"levelo://app?vid=761ab4c6-4800-4be8-a1fe-1b0640d4f959","ios":"levelo://app?vid=761ab4c6-4800-4be8-a1fe-1b0640d4f959"},"vehicle_type_id":"4","last_reported":1744272806,"current_range_meters":18000,"station_id":"","pricing_plan_id":"cebpf4jnsgd1na2vs0mg"},{"bike_id":"a84134a9-407a-4074-ade7-7f98f245d2b5","system_id":"levelo_inurba_marseille","lat":43.25002,"lon":5.38932,"is_reserved":false,"is_disabled":false,"rental_uris":{"android":"levelo://app?vid=a84134a9-407a-4074-ade7-7f98f245d2b5","ios":"levelo://app?vid=a84134a9-407a-4074-ade7-7f98f245d2b5"},"vehicle_type_id":"4","last_reported":1744272806,"current_range_meters":18000,"station_id":"ce4bhgp2rcd13ifvqfd0","pricing_plan_id":"cebpf4jnsgd1na2vs0mg"},{"bike_id":"7e162cce-45fb-4756-a5d4-0d88fe0d397f","system_id":"levelo_inurba_marseille","lat":43.30143,"lon":5.37419,"is_reserved":false,"is_disabled":false,"rental_uris":{"android":"levelo://app?vid=7e162cce-45fb-4756-a5d4-0d88fe0d397f","ios":"levelo://app?vid=7e162cce-45fb-4756-a5d4-0d88fe0d397f"},"vehicle_type_id":"4","last_reported":1744272806,"current_range_meters":18000,"station_id":"ce4bgs92rcd13ifvqcc0","pricing_plan_id":"cebpf4jnsgd1na2vs0mg"},{"bike_id":"2158251e-dadc-48b3-a5af-ea98b09513fe","system_id":"levelo_inurba_marseille","lat":43.30301,"lon":5.39205,"is_reserved":false,"is_disabled":true,"rental_uris":{"android":"levelo://app?vid=2158251e-dadc-48b3-a5af-ea98b09513fe","ios":"levelo://app?vid=2158251e-dadc-48b3-a5af-ea98b09513fe"},"vehicle_type_id":"4","last_reported":1744272806,"current_range_meters":18000,"station_id":"ce4bgkh2rcd13ifvqbk0","pricing_plan_id":"cebpf4jnsgd1na2vs0mg"},{"bike_id":"42b302e7-38da-4b26-9871-413d9d9d6aaf","system_id":"levelo_inurba_marseille","lat":43.2916,"lon":5.37162,"is_reserved":false,"is_disabled":false,"rental_uris":{"android":"levelo://app?vid=42b302e7-38da-4b26-9871-413d9d9d6aaf","ios":"levelo://app?vid=42b302e7-38da-4b26-9871-413d9d9d6aaf"},"vehicle_type_id":"4","last_reported":1744272806,"current_range_meters":18000,"station_id":"ce4bha92rcd13ifvqeh0","pricing_plan_id":"cebpf4jnsgd1na2vs0mg"},{"bike_id":"204e4ebf-dbf2-49a6-9c7f-bede59e102a8","system_id":"levelo_inurba_marseille","lat":43.30357,"lon":5.41906,"is_reserved":false,"is_disabled":false,"rental_uris":{"android":"levelo://app?vid=204e4ebf-dbf2-49a6-9c7f-bede59e102a8","ios":"levelo://app?vid=204e4ebf-dbf2-49a6-9c7f-bede59e102a8"},"vehicle_type_id":"4","last_reported":1744272806,"current_range_meters":18800,"station_id":"ce4bhop2rcd13ifvqh7g","pricing_plan_id":"cebpf4jnsgd1na2vs0mg"},{"bike_id":"35b36e91-763a-4885-8944-e030c3a30dcf","system_id":"levelo_inurba_marseille","lat":43.31284,"lon":5.36846,"is_reserved":false,"is_disabled":false,"rental_uris":{"android":"levelo://app?vid=35b36e91-763a-4885-8944-e030c3a30dcf","ios":"levelo://app?vid=35b36e91-763a-4885-8944-e030c3a30dcf"},"vehicle_type_id":"4","last_reported":1744272806,"current_range_meters":18800,"station_id":"","pricing_plan_id":"cebpf4jnsgd1na2vs0mg"},{"bike_id":"799f3bdc-38c0-4b71-9a34-196020b0e68f","system_id":"levelo_inurba_marseille","lat":43.29264,"lon":5.36845,"is_reserved":false,"is_disabled":false,"rental_uris":{"android":"levelo://app?vid=799f3bdc-38c0-4b71-9a34-196020b0e68f","ios":"levelo://app?vid=799f3bdc-38c0-4b71-9a34-196020b0e68f"},"vehicle_type_id":"4","last_reported":1744272806,"current_range_meters":18800,"station_id":"ce4bhbp2rcd13ifvqesg","pricing_plan_id":"cebpf4jnsgd1na2vs0mg"},{"bike_id":"6f5a3fba-5124-42a7-b36e-1ce41590f370","system_id":"levelo_inurba_marseille","lat":43.32368,"lon":5.36759,"is_reserved":false,"is_disabled":false,"rental_uris":{"android":"levelo://app?vid=6f5a3fba-5124-42a7-b36e-1ce41590f370","ios":"levelo://app?vid=6f5a3fba-5124-42a7-b36e-1ce41590f370"},"vehicle_type_id":"4","last_reported":1744272806,"current_range_meters":18800,"station_id":"ce4bhsh2rcd13ifvqi2g","pricing_plan_id":"cebpf4jnsgd1na2vs0mg"},{"bike_id":"cce3de75-a560-47a2-9f32-4651abe4abb9","system_id":"levelo_inurba_marseille","lat":43.30602,"lon":5.37233,"is_reserved":false,"is_disabled":false,"rental_uris":{"android":"levelo://app?vid=cce3de75-a560-47a2-9f32-4651abe4abb9","ios":"levelo://app?vid=cce3de75-a560-47a2-9f32-4651abe4abb9"},"vehicle_type_id":"4","last_reported":1744272806,"current_range_meters":18800,"station_id":"ce4bgqh2rcd13ifvqc4g","pricing_plan_id":"cebpf4jnsgd1na2vs0mg"},{"bike_id":"13bd409b-2208-4241-b6c3-3db7227cda15","system_id":"levelo_inurba_marseille","lat":43.25828,"lon":5.39435,"is_reserved":false,"is_disabled":false,"rental_uris":{"android":"levelo://app?vid=13bd409b-2208-4241-b6c3-3db7227cda15","ios":"levelo://app?vid=13bd409b-2208-4241-b6c3-3db7227cda15"},"vehicle_type_id":"4","last_reported":1744272806,"current_range_meters":18800,"station_id":"ce4bhip2rcd13ifvqft0","pricing_plan_id":"cebpf4jnsgd1na2vs0mg"},{"bike_id":"182650a6-9433-4951-80ba-44b6e3878dab","system_id":"levelo_inurba_marseille","lat":43.30531,"lon":5.38425,"is_reserved":false,"is_disabled":true,"rental_uris":{"android":"levelo://app?vid=182650a6-9433-4951-80ba-44b6e3878dab","ios":"levelo://app?vid=182650a6-9433-4951-80ba-44b6e3878dab"},"vehicle_type_id":"4","last_reported":1744272806,"current_range_meters":18800,"station_id":"ce4bgg92rcd13ifvqb30","pricing_plan_id":"cebpf4jnsgd1na2vs0mg"},{"bike_id":"f1ba098e-abce-4afe-9f9b-84348efc3e8b","system_id":"levelo_inurba_marseille","lat":43.28474,"lon":5.3843,"is_reserved":false,"is_disabled":false,"rental_uris":{"android":"levelo://app?vid=f1ba098e-abce-4afe-9f9b-84348efc3e8b","ios":"levelo://app?vid=f1ba098e-abce-4afe-9f9b-84348efc3e8b"},"vehicle_type_id":"4","last_reported":1744272806,"current_range_meters":18800,"station_id":"ce4bh512rcd13ifvqe3g","pricing_plan_id":"cebpf4jnsgd1na2vs0mg"},{"bike_id":"704cef6b-6430-43f0-ba08-24e309361d79","system_id":"levelo_inurba_marseille","lat":43.29111,"lon":5.38111,"is_reserved":false,"is_disabled":false,"rental_uris":{"android":"levelo://app?vid=704cef6b-6430-43f0-ba08-24e309361d79","ios":"levelo://app?vid=704cef6b-6430-43f0-ba08-24e309361d79"},"vehicle_type_id":"4","last_reported":1744272806,"current_range_meters":18800,"station_id":"ce4bh512rcd13ifvqe2g","pricing_plan_id":"cebpf4jnsgd1na2vs0mg"},{"bike_id":"fd21b386-518d-4fea-ae8e-459e38dc9ebf","system_id":"levelo_inurba_marseille","lat":43.30553,"lon":5.36715,"is_reserved":false,"is_disabled":false,"rental_uris":{"android":"levelo://app?vid=fd21b386-518d-4fea-ae8e-459e38dc9ebf","ios":"levelo://app?vid=fd21b386-518d-4fea-ae8e-459e38dc9ebf"},"vehicle_type_id":"4","last_reported":1744272806,"current_range_meters":19200,"station_id":"","pricing_plan_id":"cebpf4jnsgd1na2vs0mg"},{"bike_id":"463b41fd-37bb-48c0-a6e4-12f737a3d7cf","system_id":"levelo_inurba_marseille","lat":43.26953,"lon":5.40352,"is_reserved":false,"is_disabled":true,"rental_uris":{"android":"levelo://app?vid=463b41fd-37bb-48c0-a6e4-12f737a3d7cf","ios":"levelo://app?vid=463b41fd-37bb-48c0-a6e4-12f737a3d7cf"},"vehicle_type_id":"4","last_reported":1744272806,"current_range_meters":19200,"station_id":"cjm6bp8fraef2m0cb0m0","pricing_plan_id":"cebpf4jnsgd1na2vs0mg"},{"bike_id":"aeb315f8-5663-4264-8421-f5acbb6ac33d","system_id":"levelo_inurba_marseille","lat":43.26226,"lon":5.40451,"is_reserved":false,"is_disabled":false,"rental_uris":{"android":"levelo://app?vid=aeb315f8-5663-4264-8421-f5acbb6ac33d","ios":"levelo://app?vid=aeb315f8-5663-4264-8421-f5acbb6ac33d"},"vehicle_type_id":"4","last_reported":1744272806,"current_range_meters":19200,"station_id":"ce4bhmh2rcd13ifvqgmg","pricing_plan_id":"cebpf4jnsgd1na2vs0mg"},{"bike_id":"f36ca3d8-7188-4931-9a39-385909a64d27","system_id":"levelo_inurba_marseille","lat":43.33098,"lon":5.40661,"is_reserved":false,"is_disabled":false,"rental_uris":{"android":"levelo://app?vid=f36ca3d8-7188-4931-9a39-385909a64d27","ios":"levelo://app?vid=f36ca3d8-7188-4931-9a39-385909a64d27"},"vehicle_type_id":"4","last_reported":1744272806,"current_range_meters":19200,"station_id":"","pricing_plan_id":"cebpf4jnsgd1na2vs0mg"},{"bike_id":"0b73b15a-9d08-4a64-a420-9110a325b597","system_id":"levelo_inurba_marseille","lat":43.231354,"lon":5.437487,"is_reserved":false,"is_disabled":false,"rental_uris":{"android":"levelo://app?vid=0b73b15a-9d08-4a64-a420-9110a325b597","ios":"levelo://app?vid=0b73b15a-9d08-4a64-a420-9110a325b597"},"vehicle_type_id":"4","last_reported":1744272806,"current_range_meters":19200,"station_id":"ce4bhmp2rcd13ifvqgog","pricing_plan_id":"cebpf4jnsgd1na2vs0mg"},{"bike_id":"e1b171d5-4690-4c56-88ea-3bc958a7511f","system_id":"levelo_inurba_marseille","lat":43.24129,"lon":5.3973,"is_reserved":false,"is_disabled":false,"rental_uris":{"android":"levelo://app?vid=e1b171d5-4690-4c56-88ea-3bc958a7511f","ios":"levelo://app?vid=e1b171d5-4690-4c56-88ea-3bc958a7511f"},"vehicle_type_id":"4","last_reported":1744272806,"current_range_meters":19200,"station_id":"ce4bhn12rcd13ifvqgpg","pricing_plan_id":"cebpf4jnsgd1na2vs0mg"},{"bike_id":"e82de6f7-a5c2-42d0-b614-add7a03043a0","system_id":"levelo_inurba_marseille","lat":43.29507,"lon":5.37519,"is_reserved":false,"is_disabled":false,"rental_uris":{"android":"levelo://app?vid=e82de6f7-a5c2-42d0-b614-add7a03043a0","ios":"levelo://app?vid=e82de6f7-a5c2-42d0-b614-add7a03043a0"},"vehicle_type_id":"4","last_reported":1744272806,"current_range_meters":19200,"station_id":"ce4bgkp2rcd13ifvqbmg","pricing_plan_id":"cebpf4jnsgd1na2vs0mg"},{"bike_id":"d324405a-0e22-4d8f-9e6a-87134e316705","system_id":"levelo_inurba_marseille","lat":43.23144,"lon":5.43728,"is_reserved":false,"is_disabled":false,"rental_uris":{"android":"levelo://app?vid=d324405a-0e22-4d8f-9e6a-87134e316705","ios":"levelo://app?vid=d324405a-0e22-4d8f-9e6a-87134e316705"},"vehicle_type_id":"4","last_reported":1744272806,"current_range_meters":19200,"station_id":"ce4bhmp2rcd13ifvqgog","pricing_plan_id":"cebpf4jnsgd1na2vs0mg"},{"bike_id":"2ee106dd-7d55-45ba-b797-a6053946699a","system_id":"levelo_inurba_marseille","lat":43.27075,"lon":5.4229,"is_reserved":false,"is_disabled":false,"rental_uris":{"android":"levelo://app?vid=2ee106dd-7d55-45ba-b797-a6053946699a","ios":"levelo://app?vid=2ee106dd-7d55-45ba-b797-a6053946699a"},"vehicle_type_id":"4","last_reported":1744272806,"current_range_meters":19600,"station_id":"ce4bhk92rcd13ifvqgb0","pricing_plan_id":"cebpf4jnsgd1na2vs0mg"},{"bike_id":"e1028f54-f2a6-4e30-a21d-1ef1d5b7da53","system_id":"levelo_inurba_marseille","lat":43.291694,"lon":5.399972,"is_reserved":false,"is_disabled":false,"rental_uris":{"android":"levelo://app?vid=e1028f54-f2a6-4e30-a21d-1ef1d5b7da53","ios":"levelo://app?vid=e1028f54-f2a6-4e30-a21d-1ef1d5b7da53"},"vehicle_type_id":"4","last_reported":1744272806,"current_range_meters":19600,"station_id":"ce4bh2p2rcd13ifvqdi0","pricing_plan_id":"cebpf4jnsgd1na2vs0mg"},{"bike_id":"593cc697-220e-4df3-9f2b-b1793070fa32","system_id":"levelo_inurba_marseille","lat":43.30555,"lon":5.36527,"is_reserved":false,"is_disabled":true,"rental_uris":{"android":"levelo://app?vid=593cc697-220e-4df3-9f2b-b1793070fa32","ios":"levelo://app?vid=593cc697-220e-4df3-9f2b-b1793070fa32"},"vehicle_type_id":"4","last_reported":1744272806,"current_range_meters":19600,"station_id":"ce4bgs12rcd13ifvqcag","pricing_plan_id":"cebpf4jnsgd1na2vs0mg"},{"bike_id":"56655ffb-4e43-4411-b9af-60510703f2b9","system_id":"levelo_inurba_marseille","lat":43.30144,"lon":5.37417,"is_reserved":false,"is_disabled":false,"rental_uris":{"android":"levelo://app?vid=56655ffb-4e43-4411-b9af-60510703f2b9","ios":"levelo://app?vid=56655ffb-4e43-4411-b9af-60510703f2b9"},"vehicle_type_id":"4","last_reported":1744272806,"current_range_meters":19600,"station_id":"ce4bgs92rcd13ifvqcc0","pricing_plan_id":"cebpf4jnsgd1na2vs0mg"},{"bike_id":"cc626ef0-766b-483c-a1c0-cd56da7a5ab8","system_id":"levelo_inurba_marseille","lat":43.286011,"lon":5.35086,"is_reserved":false,"is_disabled":false,"rental_uris":{"android":"levelo://app?vid=cc626ef0-766b-483c-a1c0-cd56da7a5ab8","ios":"levelo://app?vid=cc626ef0-766b-483c-a1c0-cd56da7a5ab8"},"vehicle_type_id":"4","last_reported":1744272806,"current_range_meters":19600,"station_id":"ce4bgr92rcd13ifvqc6g","pricing_plan_id":"cebpf4jnsgd1na2vs0mg"},{"bike_id":"89e18915-d30e-41cb-bb03-ba8ebbb23625","system_id":"levelo_inurba_marseille","lat":43.26691,"lon":5.38273,"is_reserved":false,"is_disabled":false,"rental_uris":{"android":"levelo://app?vid=89e18915-d30e-41cb-bb03-ba8ebbb23625","ios":"levelo://app?vid=89e18915-d30e-41cb-bb03-ba8ebbb23625"},"vehicle_type_id":"4","last_reported":1744272806,"current_range_meters":19600,"station_id":"ce4bhg92rcd13ifvqf90","pricing_plan_id":"cebpf4jnsgd1na2vs0mg"},{"bike_id":"70333d08-b89a-4e2b-ae7b-375ce248ec2b","system_id":"levelo_inurba_marseille","lat":43.29303,"lon":5.37472,"is_reserved":false,"is_disabled":true,"rental_uris":{"android":"levelo://app?vid=70333d08-b89a-4e2b-ae7b-375ce248ec2b","ios":"levelo://app?vid=70333d08-b89a-4e2b-ae7b-375ce248ec2b"},"vehicle_type_id":"4","last_reported":1744272806,"current_range_meters":19600,"station_id":"","pricing_plan_id":"cebpf4jnsgd1na2vs0mg"},{"bike_id":"59852b06-c5d3-4702-b90f-98eea8f96ee8","system_id":"levelo_inurba_marseille","lat":43.24166,"lon":5.36421,"is_reserved":false,"is_disabled":false,"rental_uris":{"android":"levelo://app?vid=59852b06-c5d3-4702-b90f-98eea8f96ee8","ios":"levelo://app?vid=59852b06-c5d3-4702-b90f-98eea8f96ee8"},"vehicle_type_id":"4","last_reported":1744272806,"current_range_meters":19600,"station_id":"cpo36qri1sfpv3e86is0","pricing_plan_id":"cebpf4jnsgd1na2vs0mg"},{"bike_id":"f32946f4-4ed1-4fe4-a80e-67277f6f30eb","system_id":"levelo_inurba_marseille","lat":43.29592,"lon":5.36741,"is_reserved":false,"is_disabled":false,"rental_uris":{"android":"levelo://app?vid=f32946f4-4ed1-4fe4-a80e-67277f6f30eb","ios":"levelo://app?vid=f32946f4-4ed1-4fe4-a80e-67277f6f30eb"},"vehicle_type_id":"4","last_reported":1744272806,"current_range_meters":19600,"station_id":"ce4bgph2rcd13ifvqc2g","pricing_plan_id":"cebpf4jnsgd1na2vs0mg"},{"bike_id":"34616fe2-474b-4998-95c1-a06976c9c13c","system_id":"levelo_inurba_marseille","lat":43.23145,"lon":5.43719,"is_reserved":false,"is_disabled":false,"rental_uris":{"android":"levelo://app?vid=34616fe2-474b-4998-95c1-a06976c9c13c","ios":"levelo://app?vid=34616fe2-474b-4998-95c1-a06976c9c13c"},"vehicle_type_id":"4","last_reported":1744272806,"current_range_meters":19600,"station_id":"ce4bhmp2rcd13ifvqgog","pricing_plan_id":"cebpf4jnsgd1na2vs0mg"},{"bike_id":"1f96790d-9c80-414b-8543-ad735c3c628a","system_id":"levelo_inurba_marseille","lat":43.274999,"lon":5.424516,"is_reserved":false,"is_disabled":false,"rental_uris":{"android":"levelo://app?vid=1f96790d-9c80-414b-8543-ad735c3c628a","ios":"levelo://app?vid=1f96790d-9c80-414b-8543-ad735c3c628a"},"vehicle_type_id":"4","last_reported":1744272806,"current_range_meters":20000,"station_id":"ce4bhn92rcd13ifvqgrg","pricing_plan_id":"cebpf4jnsgd1na2vs0mg"},{"bike_id":"94c7794a-6d48-406f-b5c8-69da2480bb40","system_id":"levelo_inurba_marseille","lat":43.31368,"lon":5.36705,"is_reserved":false,"is_disabled":false,"rental_uris":{"android":"levelo://app?vid=94c7794a-6d48-406f-b5c8-69da2480bb40","ios":"levelo://app?vid=94c7794a-6d48-406f-b5c8-69da2480bb40"},"vehicle_type_id":"4","last_reported":1744272806,"current_range_meters":20000,"station_id":"ce4bgr92rcd13ifvqc6g","pricing_plan_id":"cebpf4jnsgd1na2vs0mg"},{"bike_id":"f336b29b-8563-43e0-873b-ea8fc145a09c","system_id":"levelo_inurba_marseille","lat":43.30317,"lon":5.39678,"is_reserved":false,"is_disabled":false,"rental_uris":{"android":"levelo://app?vid=f336b29b-8563-43e0-873b-ea8fc145a09c","ios":"levelo://app?vid=f336b29b-8563-43e0-873b-ea8fc145a09c"},"vehicle_type_id":"4","last_reported":1744272806,"current_range_meters":20000,"station_id":"","pricing_plan_id":"cebpf4jnsgd1na2vs0mg"},{"bike_id":"b1ee2f60-4328-4282-bd37-761fb5f2d37b","system_id":"levelo_inurba_marseille","lat":43.31324,"lon":5.36779,"is_reserved":false,"is_disabled":false,"rental_uris":{"android":"levelo://app?vid=b1ee2f60-4328-4282-bd37-761fb5f2d37b","ios":"levelo://app?vid=b1ee2f60-4328-4282-bd37-761fb5f2d37b"},"vehicle_type_id":"4","last_reported":1744272806,"current_range_meters":20000,"station_id":"ce4bgr92rcd13ifvqc6g","pricing_plan_id":"cebpf4jnsgd1na2vs0mg"},{"bike_id":"96221e9e-f44a-4823-9bc9-2076cf40b61c","system_id":"levelo_inurba_marseille","lat":43.30958,"lon":5.39037,"is_reserved":false,"is_disabled":false,"rental_uris":{"android":"levelo://app?vid=96221e9e-f44a-4823-9bc9-2076cf40b61c","ios":"levelo://app?vid=96221e9e-f44a-4823-9bc9-2076cf40b61c"},"vehicle_type_id":"4","last_reported":1744272806,"current_range_meters":20000,"station_id":"ce4bgup2rcd13ifvqco0","pricing_plan_id":"cebpf4jnsgd1na2vs0mg"},{"bike_id":"112f4b23-8566-4981-9d4b-43f9b7813528","system_id":"levelo_inurba_marseille","lat":43.27213,"lon":5.39184,"is_reserved":false,"is_disabled":false,"rental_uris":{"android":"levelo://app?vid=112f4b23-8566-4981-9d4b-43f9b7813528","ios":"levelo://app?vid=112f4b23-8566-4981-9d4b-43f9b7813528"},"vehicle_type_id":"4","last_reported":1744272806,"current_range_meters":20000,"station_id":"ce4bhhp2rcd13ifvqfm0","pricing_plan_id":"cebpf4jnsgd1na2vs0mg"},{"bike_id":"9da2f7ea-0396-423a-9ec8-f99e529afe66","system_id":"levelo_inurba_marseille","lat":43.28487,"lon":5.38421,"is_reserved":false,"is_disabled":false,"rental_uris":{"android":"levelo://app?vid=9da2f7ea-0396-423a-9ec8-f99e529afe66","ios":"levelo://app?vid=9da2f7ea-0396-423a-9ec8-f99e529afe66"},"vehicle_type_id":"4","last_reported":1744272806,"current_range_meters":20000,"station_id":"ce4bh512rcd13ifvqe3g","pricing_plan_id":"cebpf4jnsgd1na2vs0mg"},{"bike_id":"ad8253a1-48f9-4a09-891a-2d7866351f65","system_id":"levelo_inurba_marseille","lat":43.29258,"lon":5.37628,"is_reserved":false,"is_disabled":false,"rental_uris":{"android":"levelo://app?vid=ad8253a1-48f9-4a09-891a-2d7866351f65","ios":"levelo://app?vid=ad8253a1-48f9-4a09-891a-2d7866351f65"},"vehicle_type_id":"4","last_reported":1744272806,"current_range_meters":20000,"station_id":"ce4bgi12rcd13ifvqb80","pricing_plan_id":"cebpf4jnsgd1na2vs0mg"},{"bike_id":"e61839bf-f681-4d70-a315-33f71f01e45f","system_id":"levelo_inurba_marseille","lat":43.305355,"lon":5.367097,"is_reserved":false,"is_disabled":false,"rental_uris":{"android":"levelo://app?vid=e61839bf-f681-4d70-a315-33f71f01e45f","ios":"levelo://app?vid=e61839bf-f681-4d70-a315-33f71f01e45f"},"vehicle_type_id":"4","last_reported":1744272806,"current_range_meters":20000,"station_id":"ce4bgrp2rcd13ifvqc9g","pricing_plan_id":"cebpf4jnsgd1na2vs0mg"},{"bike_id":"c7f0b511-5a1f-4924-a88f-af52ae1bd8f7","system_id":"levelo_inurba_marseille","lat":43.30271,"lon":5.37707,"is_reserved":false,"is_disabled":false,"rental_uris":{"android":"levelo://app?vid=c7f0b511-5a1f-4924-a88f-af52ae1bd8f7","ios":"levelo://app?vid=c7f0b511-5a1f-4924-a88f-af52ae1bd8f7"},"vehicle_type_id":"4","last_reported":1744272806,"current_range_meters":20400,"station_id":"ce4bguh2rcd13ifvqcj0","pricing_plan_id":"cebpf4jnsgd1na2vs0mg"},{"bike_id":"6c57ab5f-1a0c-4339-9050-ba3a5cfd0a27","system_id":"levelo_inurba_marseille","lat":43.29533,"lon":5.37499,"is_reserved":false,"is_disabled":false,"rental_uris":{"android":"levelo://app?vid=6c57ab5f-1a0c-4339-9050-ba3a5cfd0a27","ios":"levelo://app?vid=6c57ab5f-1a0c-4339-9050-ba3a5cfd0a27"},"vehicle_type_id":"4","last_reported":1744272806,"current_range_meters":20400,"station_id":"ce4bgkp2rcd13ifvqbmg","pricing_plan_id":"cebpf4jnsgd1na2vs0mg"},{"bike_id":"f169b888-9417-402f-bebe-bdd2a451ebc7","system_id":"levelo_inurba_marseille","lat":43.30131,"lon":5.3742,"is_reserved":false,"is_disabled":false,"rental_uris":{"android":"levelo://app?vid=f169b888-9417-402f-bebe-bdd2a451ebc7","ios":"levelo://app?vid=f169b888-9417-402f-bebe-bdd2a451ebc7"},"vehicle_type_id":"4","last_reported":1744272806,"current_range_meters":20400,"station_id":"ce4bgs92rcd13ifvqcc0","pricing_plan_id":"cebpf4jnsgd1na2vs0mg"},{"bike_id":"415f4ace-3cb1-443b-9ed2-0e1f034e9012","system_id":"levelo_inurba_marseille","lat":43.2315,"lon":5.43711,"is_reserved":false,"is_disabled":false,"rental_uris":{"android":"levelo://app?vid=415f4ace-3cb1-443b-9ed2-0e1f034e9012","ios":"levelo://app?vid=415f4ace-3cb1-443b-9ed2-0e1f034e9012"},"vehicle_type_id":"4","last_reported":1744272806,"current_range_meters":20400,"station_id":"ce4bhmp2rcd13ifvqgog","pricing_plan_id":"cebpf4jnsgd1na2vs0mg"},{"bike_id":"9e3ece18-7b11-4223-b391-b9afe168cdc3","system_id":"levelo_inurba_marseille","lat":43.29275,"lon":5.36845,"is_reserved":false,"is_disabled":false,"rental_uris":{"android":"levelo://app?vid=9e3ece18-7b11-4223-b391-b9afe168cdc3","ios":"levelo://app?vid=9e3ece18-7b11-4223-b391-b9afe168cdc3"},"vehicle_type_id":"4","last_reported":1744272806,"current_range_meters":20400,"station_id":"ce4bhbp2rcd13ifvqesg","pricing_plan_id":"cebpf4jnsgd1na2vs0mg"},{"bike_id":"ad4fc704-9b42-4ffc-93e0-dd62c6f07cca","system_id":"levelo_inurba_marseille","lat":43.2315,"lon":5.4371,"is_reserved":false,"is_disabled":false,"rental_uris":{"android":"levelo://app?vid=ad4fc704-9b42-4ffc-93e0-dd62c6f07cca","ios":"levelo://app?vid=ad4fc704-9b42-4ffc-93e0-dd62c6f07cca"},"vehicle_type_id":"4","last_reported":1744272806,"current_range_meters":20400,"station_id":"ce4bhmp2rcd13ifvqgog","pricing_plan_id":"cebpf4jnsgd1na2vs0mg"},{"bike_id":"d41ae61a-63da-4c5b-9ca3-0fc5a06df94c","system_id":"levelo_inurba_marseille","lat":43.31248,"lon":5.36868,"is_reserved":false,"is_disabled":false,"rental_uris":{"android":"levelo://app?vid=d41ae61a-63da-4c5b-9ca3-0fc5a06df94c","ios":"levelo://app?vid=d41ae61a-63da-4c5b-9ca3-0fc5a06df94c"},"vehicle_type_id":"4","last_reported":1744272806,"current_range_meters":20800,"station_id":"ce4bgl92rcd13ifvqbq0","pricing_plan_id":"cebpf4jnsgd1na2vs0mg"},{"bike_id":"9742bcfc-bde0-4922-83bb-1c20d0dc5487","system_id":"levelo_inurba_marseille","lat":43.28424,"lon":5.34983,"is_reserved":false,"is_disabled":false,"rental_uris":{"android":"levelo://app?vid=9742bcfc-bde0-4922-83bb-1c20d0dc5487","ios":"levelo://app?vid=9742bcfc-bde0-4922-83bb-1c20d0dc5487"},"vehicle_type_id":"4","last_reported":1744272806,"current_range_meters":20800,"station_id":"ce4bhbh2rcd13ifvqepg","pricing_plan_id":"cebpf4jnsgd1na2vs0mg"},{"bike_id":"81ca15e4-eef1-4362-92d0-2f18332945cb","system_id":"levelo_inurba_marseille","lat":43.24803,"lon":5.37452,"is_reserved":false,"is_disabled":false,"rental_uris":{"android":"levelo://app?vid=81ca15e4-eef1-4362-92d0-2f18332945cb","ios":"levelo://app?vid=81ca15e4-eef1-4362-92d0-2f18332945cb"},"vehicle_type_id":"4","last_reported":1744272806,"current_range_meters":20800,"station_id":"ce4bhgh2rcd13ifvqfb0","pricing_plan_id":"cebpf4jnsgd1na2vs0mg"},{"bike_id":"8c58f2fa-99e1-41f8-bf90-9c1648b679b1","system_id":"levelo_inurba_marseille","lat":43.27294,"lon":5.41443,"is_reserved":false,"is_disabled":false,"rental_uris":{"android":"levelo://app?vid=8c58f2fa-99e1-41f8-bf90-9c1648b679b1","ios":"levelo://app?vid=8c58f2fa-99e1-41f8-bf90-9c1648b679b1"},"vehicle_type_id":"4","last_reported":1744272806,"current_range_meters":20800,"station_id":"","pricing_plan_id":"cebpf4jnsgd1na2vs0mg"},{"bike_id":"d43b77db-9bd3-4428-badc-36b3eeadc6b1","system_id":"levelo_inurba_marseille","lat":43.31348,"lon":5.36729,"is_reserved":false,"is_disabled":false,"rental_uris":{"android":"levelo://app?vid=d43b77db-9bd3-4428-badc-36b3eeadc6b1","ios":"levelo://app?vid=d43b77db-9bd3-4428-badc-36b3eeadc6b1"},"vehicle_type_id":"4","last_reported":1744272806,"current_range_meters":20800,"station_id":"ce4bgr92rcd13ifvqc6g","pricing_plan_id":"cebpf4jnsgd1na2vs0mg"},{"bike_id":"4a43e792-aa4c-425f-9146-6dabaedecb87","system_id":"levelo_inurba_marseille","lat":43.26805,"lon":5.39407,"is_reserved":false,"is_disabled":false,"rental_uris":{"android":"levelo://app?vid=4a43e792-aa4c-425f-9146-6dabaedecb87","ios":"levelo://app?vid=4a43e792-aa4c-425f-9146-6dabaedecb87"},"vehicle_type_id":"4","last_reported":1744272806,"current_range_meters":20800,"station_id":"ce4bhh12rcd13ifvqfg0","pricing_plan_id":"cebpf4jnsgd1na2vs0mg"},{"bike_id":"34c3544d-095c-4913-bb53-aa7711cff64a","system_id":"levelo_inurba_marseille","lat":43.24387,"lon":5.37061,"is_reserved":false,"is_disabled":false,"rental_uris":{"android":"levelo://app?vid=34c3544d-095c-4913-bb53-aa7711cff64a","ios":"levelo://app?vid=34c3544d-095c-4913-bb53-aa7711cff64a"},"vehicle_type_id":"4","last_reported":1744272806,"current_range_meters":21600,"station_id":"ce4bhhh2rcd13ifvqfk0","pricing_plan_id":"cebpf4jnsgd1na2vs0mg"},