{"last_updated":1720627754,"ttl":30,"version":"2.2","data":{"bikes":[{"bike_id":"d4737ec1-f620-427b-85f2-9376cbd7ffea","system_id":"levelo_inurba_marseille","lat":43.31322,"lon":5.372613,"is_reserved":false,"is_disabled":false,"rental_uris":{"android":"levelo://app?vid=d4737ec1-f620-427b-85f2-9376cbd7ffea","ios":"levelo://app?vid=d4737ec1-f620-427b-85f2-9376cbd7ffea"},"vehicle_type_id":"4","last_reported":1720627754,"current_range_meters":5200,"station_id":"","pricing_plan_id":"cebpf4jnsgd1na2vs0mg"},{"bike_id":"24b20292-5e40-4f37-8898-30d72bc747cf","system_id":"levelo_inurba_marseille","lat":43.305712,"lon":5.365641,"is_reserved":false,"is_disabled":false,"rental_uris":{"android":"levelo://app?vid=24b20292-5e40-4f37-8898-30d72bc747cf","ios":"levelo://app?vid=24b20292-5e40-4f37-8898-30d72bc747cf"},"vehicle_type_id":"4","last_reported":1720627754,"current_range_meters":8400,"station_id":"ce4bgs12rcd13ifvqcag","pricing_plan_id":"cebpf4jnsgd1na2vs0mg"},{"bike_id":"fce34eb3-be65-4f14-b07d-2d7801538b78","system_id":"levelo_inurba_marseille","lat":43.305714,"lon":5.365633,"is_reserved":false,"is_disabled":false,"rental_uris":{"android":"levelo://app?vid=fce34eb3-be65-4f14-b07d-2d7801538b78","ios":"levelo://app?vid=fce34eb3-be65-4f14-b07d-2d7801538b78"},"vehicle_type_id":"4","last_reported":1720627754,"current_range_meters":1200,"station_id":"ce4bgs12rcd13ifvqcag","pricing_plan_id":"cebpf4jnsgd1na2vs0mg"},{"bike_id":"42e43801-ab44-4c81-accb-19369b351418","system_id":"levelo_inurba_marseille","lat":43.3055,"lon":5.36521,"is_reserved":false,"is_disabled":false,"rental_uris":{"android":"levelo://app?vid=42e43801-ab44-4c81-accb-19369b351418","ios":"levelo://app?vid=42e43801-ab44-4c81-accb-19369b351418"},"vehicle_type_id":"4","last_reported":1720627754,"current_range_meters":18800,"station_id":"ce4bgs12rcd13ifvqcag","pricing_plan_id":"cebpf4jnsgd1na2vs0mg"},{"bike_id":"bfbb8050-90ee-4bae-b39d-6a31d63e8db2","system_id":"levelo_inurba_marseille","lat":43.30537,"lon":5.367345,"is_reserved":false,"is_disabled":false,"rental_uris":{"android":"levelo://app?vid=bfbb8050-90ee-4bae-b39d-6a31d63e8db2","ios":"levelo://app?vid=bfbb8050-90ee-4bae-b39d-6a31d63e8db2"},"vehicle_type_id":"4","last_reported":1720627754,"current_range_meters":4000,"station_id":"ce4bgrp2rcd13ifvqc9g","pricing_plan_id":"cebpf4jnsgd1na2vs0mg"},{"bike_id":"33bf19f3-26ab-4ec3-b86b-63e4feb6c819","system_id":"levelo_inurba_marseille","lat":43.311131,"lon":5.377651,"is_reserved":false,"is_disabled":false,"rental_uris":{"android":"levelo://app?vid=33bf19f3-26ab-4ec3-b86b-63e4feb6c819","ios":"levelo://app?vid=33bf19f3-26ab-4ec3-b86b-63e4feb6c819"},"vehicle_type_id":"4","last_reported":1720627754,"current_range_meters":9200,"station_id":"ce4bgt92rcd13ifvqcg0","pricing_plan_id":"cebpf4jnsgd1na2vs0mg"},{"bike_id":"4bb66a20-7089-4456-bc2e-55f5c514fbc8","system_id":"levelo_inurba_marseille","lat":43.311131,"lon":5.377651,"is_reserved":false,"is_disabled":false,"rental_uris":{"android":"levelo://app?vid=4bb66a20-7089-4456-bc2e-55f5c514fbc8","ios":"levelo://app?vid=4bb66a20-7089-4456-bc2e-55f5c514fbc8"},"vehicle_type_id":"4","last_reported":1720627754,"current_range_meters":6400,"station_id":"ce4bgt92rcd13ifvqcg0","pricing_plan_id":"cebpf4jnsgd1na2vs0mg"},{"bike_id":"069ca937-e9e1-49de-a845-886240f774da","system_id":"levelo_inurba_marseille","lat":43.31153,"lon":5.38006,"is_reserved":false,"is_disabled":false,"rental_uris":{"android":"levelo://app?vid=069ca937-e9e1-49de-a845-886240f774da","ios":"levelo://app?vid=069ca937-e9e1-49de-a845-886240f774da"},"vehicle_type_id":"4","last_reported":1720627754,"current_range_meters":3200,"station_id":"","pricing_plan_id":"cebpf4jnsgd1na2vs0mg"},{"bike_id":"1d3ce130-e244-4140-91bc-fb28adcf1575","system_id":"levelo_inurba_marseille","lat":43.30419,"lon":5.37334,"is_reserved":false,"is_disabled":false,"rental_uris":{"android":"levelo://app?vid=1d3ce130-e244-4140-91bc-fb28adcf1575","ios":"levelo://app?vid=1d3ce130-e244-4140-91bc-fb28adcf1575"},"vehicle_type_id":"4","last_reported":1720627754,"current_range_meters":26000,"station_id":"","pricing_plan_id":"cebpf4jnsgd1na2vs0mg"},{"bike_id":"8f007fcd-826d-492a-b84a-d865fd565360","system_id":"levelo_inurba_marseille","lat":43.30306,"lon":5.36889,"is_reserved":false,"is_disabled":false,"rental_uris":{"android":"levelo://app?vid=8f007fcd-826d-492a-b84a-d865fd565360","ios":"levelo://app?vid=8f007fcd-826d-492a-b84a-d865fd565360"},"vehicle_type_id":"4","last_reported":1720627754,"current_range_meters":27200,"station_id":"ce4bgqh2rcd13ifvqc5g","pricing_plan_id":"cebpf4jnsgd1na2vs0mg"},{"bike_id":"9c425441-78ae-4eb1-8f00-b415f2533bfe","system_id":"levelo_inurba_marseille","lat":43.310729,"lon":5.381117,"is_reserved":false,"is_disabled":false,"rental_uris":{"android":"levelo://app?vid=9c425441-78ae-4eb1-8f00-b415f2533bfe","ios":"levelo://app?vid=9c425441-78ae-4eb1-8f00-b415f2533bfe"},"vehicle_type_id":"4","last_reported":1720627754,"current_range_meters":15200,"station_id":"","pricing_plan_id":"cebpf4jnsgd1na2vs0mg"},{"bike_id":"a26799f4-4e63-45a3-8edb-d69afe5fa768","system_id":"levelo_inurba_marseille","lat":43.301939,"lon":5.366286,"is_reserved":false,"is_disabled":false,"rental_uris":{"android":"levelo://app?vid=a26799f4-4e63-45a3-8edb-d69afe5fa768","ios":"levelo://app?vid=a26799f4-4e63-45a3-8edb-d69afe5fa768"},"vehicle_type_id":"4","last_reported":1720627754,"current_range_meters":23600,"station_id":"ce4bgrh2rcd13ifvqc8g","pricing_plan_id":"cebpf4jnsgd1na2vs0mg"},{"bike_id":"1c4179d1-9dce-4585-b7c2-11315b44a9c6","system_id":"levelo_inurba_marseille","lat":43.308012,"lon":5.381511,"is_reserved":false,"is_disabled":false,"rental_uris":{"android":"levelo://app?vid=1c4179d1-9dce-4585-b7c2-11315b44a9c6","ios":"levelo://app?vid=1c4179d1-9dce-4585-b7c2-11315b44a9c6"},"vehicle_type_id":"4","last_reported":1720627754,"current_range_meters":11200,"station_id":"ce4bgt12rcd13ifvqce0","pricing_plan_id":"cebpf4jnsgd1na2vs0mg"},{"bike_id":"ea652ff0-d0e3-41ca-90c0-1aeab6fd5e51","system_id":"levelo_inurba_marseille","lat":43.308072,"lon":5.381426,"is_reserved":false,"is_disabled":false,"rental_uris":{"android":"levelo://app?vid=ea652ff0-d0e3-41ca-90c0-1aeab6fd5e51","ios":"levelo://app?vid=ea652ff0-d0e3-41ca-90c0-1aeab6fd5e51"},"vehicle_type_id":"4","last_reported":1720627754,"current_range_meters":0,"station_id":"ce4bgt12rcd13ifvqce0","pricing_plan_id":"cebpf4jnsgd1na2vs0mg"},{"bike_id":"73210357-ca4d-43ff-80b3-c6fbf429a1e7","system_id":"levelo_inurba_marseille","lat":43.32478,"lon":5.36569,"is_reserved":false,"is_disabled":false,"rental_uris":{"android":"levelo://app?vid=73210357-ca4d-43ff-80b3-c6fbf429a1e7","ios":"levelo://app?vid=73210357-ca4d-43ff-80b3-c6fbf429a1e7"},"vehicle_type_id":"4","last_reported":1720627754,"current_range_meters":28000,"station_id":"ce4bhs12rcd13ifvqhvg","pricing_plan_id":"cebpf4jnsgd1na2vs0mg"},{"bike_id":"c58b9972-705e-4580-82ce-0494af9e6444","system_id":"levelo_inurba_marseille","lat":43.324789,"lon":5.365806,"is_reserved":false,"is_disabled":false,"rental_uris":{"android":"levelo://app?vid=c58b9972-705e-4580-82ce-0494af9e6444","ios":"levelo://app?vid=c58b9972-705e-4580-82ce-0494af9e6444"},"vehicle_type_id":"4","last_reported":1720627754,"current_range_meters":12000,"station_id":"ce4bhs12rcd13ifvqhvg","pricing_plan_id":"cebpf4jnsgd1na2vs0mg"},{"bike_id":"674e5263-b983-4fbf-b059-03a8a548635b","system_id":"levelo_inurba_marseille","lat":43.324781,"lon":5.365615,"is_reserved":false,"is_disabled":false,"rental_uris":{"android":"levelo://app?vid=674e5263-b983-4fbf-b059-03a8a548635b","ios":"levelo://app?vid=674e5263-b983-4fbf-b059-03a8a548635b"},"vehicle_type_id":"4","last_reported":1720627754,"current_range_meters":18400,"station_id":"ce4bhs12rcd13ifvqhvg","pricing_plan_id":"cebpf4jnsgd1na2vs0mg"},{"bike_id":"e9aaa764-2d4d-4429-91ea-b7708367b6b2","system_id":"levelo_inurba_marseille","lat":43.324795,"lon":5.365745,"is_reserved":false,"is_disabled":false,"rental_uris":{"android":"levelo://app?vid=e9aaa764-2d4d-4429-91ea-b7708367b6b2","ios":"levelo://app?vid=e9aaa764-2d4d-4429-91ea-b7708367b6b2"},"vehicle_type_id":"4","last_reported":1720627754,"current_range_meters":21200,"station_id":"ce4bhs12rcd13ifvqhvg","pricing_plan_id":"cebpf4jnsgd1na2vs0mg"},{"bike_id":"399bb279-3311-4e61-be15-23cbbde8a194","system_id":"levelo_inurba_marseille","lat":43.324771,"lon":5.36557,"is_reserved":false,"is_disabled":false,"rental_uris":{"android":"levelo://app?vid=399bb279-3311-4e61-be15-23cbbde8a194","ios":"levelo://app?vid=399bb279-3311-4e61-be15-23cbbde8a194"},"vehicle_type_id":"4","last_reported":1720627754,"current_range_meters":18800,"station_id":"ce4bhs12rcd13ifvqhvg","pricing_plan_id":"cebpf4jnsgd1na2vs0mg"},{"bike_id":"9fc033cb-884f-491a-9fb6-411a2c3215e9","system_id":"levelo_inurba_marseille","lat":43.3248,"lon":5.36562,"is_reserved":false,"is_disabled":false,"rental_uris":{"android":"levelo://app?vid=9fc033cb-884f-491a-9fb6-411a2c3215e9","ios":"levelo://app?vid=9fc033cb-884f-491a-9fb6-411a2c3215e9"},"vehicle_type_id":"4","last_reported":1720627754,"current_range_meters":29600,"station_id":"ce4bhs12rcd13ifvqhvg","pricing_plan_id":"cebpf4jnsgd1na2vs0mg"},{"bike_id":"cfc95ea4-70fe-46fd-bd2d-c0af804d2a19","system_id":"levelo_inurba_marseille","lat":43.32481,"lon":5.36578,"is_reserved":false,"is_disabled":false,"rental_uris":{"android":"levelo://app?vid=cfc95ea4-70fe-46fd-bd2d-c0af804d2a19","ios":"levelo://app?vid=cfc95ea4-70fe-46fd-bd2d-c0af804d2a19"},"vehicle_type_id":"4","last_reported":1720627754,"current_range_meters":2800,"station_id":"ce4bhs12rcd13ifvqhvg","pricing_plan_id":"cebpf4jnsgd1na2vs0mg"},{"bike_id":"637e9e7d-197c-4455-99bc-f2cb8552a987","system_id":"levelo_inurba_marseille","lat":43.324771,"lon":5.36557,"is_reserved":false,"is_disabled":false,"rental_uris":{"android":"levelo://app?vid=637e9e7d-197c-4455-99bc-f2cb8552a987","ios":"levelo://app?vid=637e9e7d-197c-4455-99bc-f2cb8552a987"},"vehicle_type_id":"4","last_reported":1720627754,"current_range_meters":20800,"station_id":"ce4bhs12rcd13ifvqhvg","pricing_plan_id":"cebpf4jnsgd1na2vs0mg"},{"bike_id":"cda51581-678f-49fe-a31d-316d946d7d99","system_id":"levelo_inurba_marseille","lat":43.32482,"lon":5.3659,"is_reserved":false,"is_disabled":false,"rental_uris":{"android":"levelo://app?vid=cda51581-678f-49fe-a31d-316d946d7d99","ios":"levelo://app?vid=cda51581-678f-49fe-a31d-316d946d7d99"},"vehicle_type_id":"4","last_reported":1720627754,"current_range_meters":11200,"station_id":"ce4bhs12rcd13ifvqhvg","pricing_plan_id":"cebpf4jnsgd1na2vs0mg"},{"bike_id":"c6856a0e-cfb7-4bbd-846b-f912b298551f","system_id":"levelo_inurba_marseille","lat":43.324802,"lon":5.365556,"is_reserved":false,"is_disabled":false,"rental_uris":{"android":"levelo://app?vid=c6856a0e-cfb7-4bbd-846b-f912b298551f","ios":"levelo://app?vid=c6856a0e-cfb7-4bbd-846b-f912b298551f"},"vehicle_type_id":"4","last_reported":1720627754,"current_range_meters":31200,"station_id":"ce4bhs12rcd13ifvqhvg","pricing_plan_id":"cebpf4jnsgd1na2vs0mg"},{"bike_id":"122627aa-5889-42de-b5ff-45cf3df1a29f","system_id":"levelo_inurba_marseille","lat":43.32482,"lon":5.36574,"is_reserved":false,"is_disabled":false,"rental_uris":{"android":"levelo://app?vid=122627aa-5889-42de-b5ff-45cf3df1a29f","ios":"levelo://app?vid=122627aa-5889-42de-b5ff-45cf3df1a29f"},"vehicle_type_id":"4","last_reported":1720627754,"current_range_meters":16000,"station_id":"ce4bhs12rcd13ifvqhvg","pricing_plan_id":"cebpf4jnsgd1na2vs0mg"},{"bike_id":"3beed82c-a180-4907-86be-101b2d2a76bc","system_id":"levelo_inurba_marseille","lat":43.324771,"lon":5.36557,"is_reserved":false,"is_disabled":false,"rental_uris":{"android":"levelo://app?vid=3beed82c-a180-4907-86be-101b2d2a76bc","ios":"levelo://app?vid=3beed82c-a180-4907-86be-101b2d2a76bc"},"vehicle_type_id":"4","last_reported":1720627754,"current_range_meters":31200,"station_id":"ce4bhs12rcd13ifvqhvg","pricing_plan_id":"cebpf4jnsgd1na2vs0mg"},{"bike_id":"043f4b1f-cf38-4021-8dda-72e86311f0b5","system_id":"levelo_inurba_marseille","lat":43.324771,"lon":5.36557,"is_reserved":false,"is_disabled":false,"rental_uris":{"android":"levelo://app?vid=043f4b1f-cf38-4021-8dda-72e86311f0b5","ios":"levelo://app?vid=043f4b1f-cf38-4021-8dda-72e86311f0b5"},"vehicle_type_id":"4","last_reported":1720627754,"current_range_meters":31200,"station_id":"ce4bhs12rcd13ifvqhvg","pricing_plan_id":"cebpf4jnsgd1na2vs0mg"},{"bike_id":"2bc6eb76-0001-473c-970e-22a6ade17640","system_id":"levelo_inurba_marseille","lat":43.324771,"lon":5.36557,"is_reserved":false,"is_disabled":false,"rental_uris":{"android":"levelo://app?vid=2bc6eb76-0001-473c-970e-22a6ade17640","ios":"levelo://app?vid=2bc6eb76-0001-473c-970e-22a6ade17640"},"vehicle_type_id":"4","last_reported":1720627754,"current_range_meters":31200,"station_id":"ce4bhs12rcd13ifvqhvg","pricing_plan_id":"cebpf4jnsgd1na2vs0mg"},{"bike_id":"72460baf-e7f3-4d52-9df2-6b810a7bc3f9","system_id":"levelo_inurba_marseille","lat":43.32485,"lon":5.36563,"is_reserved":false,"is_disabled":false,"rental_uris":{"android":"levelo://app?vid=72460baf-e7f3-4d52-9df2-6b810a7bc3f9","ios":"levelo://app?vid=72460baf-e7f3-4d52-9df2-6b810a7bc3f9"},"vehicle_type_id":"4","last_reported":1720627754,"current_range_meters":12400,"station_id":"ce4bhs12rcd13ifvqhvg","pricing_plan_id":"cebpf4jnsgd1na2vs0mg"},{"bike_id":"88e4e851-4b14-47ca-a292-f2ee816f3099","system_id":"levelo_inurba_marseille","lat":43.324871,"lon":5.365621,"is_reserved":false,"is_disabled":false,"rental_uris":{"android":"levelo://app?vid=88e4e851-4b14-47ca-a292-f2ee816f3099","ios":"levelo://app?vid=88e4e851-4b14-47ca-a292-f2ee816f3099"},"vehicle_type_id":"4","last_reported":1720627754,"current_range_meters":31200,"station_id":"ce4bhs12rcd13ifvqhvg","pricing_plan_id":"cebpf4jnsgd1na2vs0mg"},{"bike_id":"b1311939-3b8a-4a03-bcba-54cbbe636083","system_id":"levelo_inurba_marseille","lat":43.310804,"lon":5.38359,"is_reserved":false,"is_disabled":false,"rental_uris":{"android":"levelo://app?vid=b1311939-3b8a-4a03-bcba-54cbbe636083","ios":"levelo://app?vid=b1311939-3b8a-4a03-bcba-54cbbe636083"},"vehicle_type_id":"4","last_reported":1720627754,"current_range_meters":0,"station_id":"ce4bgv92rcd13ifvqcr0","pricing_plan_id":"cebpf4jnsgd1na2vs0mg"},{"bike_id":"1ffcf217-239f-4bd8-bca0-a05fc462a744","system_id":"levelo_inurba_marseille","lat":43.301429,"lon":5.37413,"is_reserved":false,"is_disabled":false,"rental_uris":{"android":"levelo://app?vid=1ffcf217-239f-4bd8-bca0-a05fc462a744","ios":"levelo://app?vid=1ffcf217-239f-4bd8-bca0-a05fc462a744"},"vehicle_type_id":"4","last_reported":1720627754,"current_range_meters":21600,"station_id":"ce4bgs92rcd13ifvqcc0","pricing_plan_id":"cebpf4jnsgd1na2vs0mg"},{"bike_id":"436e4355-9157-4bb3-8ccc-7d8e51b5dc6b","system_id":"levelo_inurba_marseille","lat":43.31108,"lon":5.38396,"is_reserved":false,"is_disabled":false,"rental_uris":{"android":"levelo://app?vid=436e4355-9157-4bb3-8ccc-7d8e51b5dc6b","ios":"levelo://app?vid=436e4355-9157-4bb3-8ccc-7d8e51b5dc6b"},"vehicle_type_id":"4","last_reported":1720627754,"current_range_meters":21600,"station_id":"","pricing_plan_id":"cebpf4jnsgd1na2vs0mg"},{"bike_id":"faae650a-e436-404b-9f51-5d1c0f4f3d8e","system_id":"levelo_inurba_marseille","lat":43.30595,"lon":5.38179,"is_reserved":false,"is_disabled":false,"rental_uris":{"android":"levelo://app?vid=faae650a-e436-404b-9f51-5d1c0f4f3d8e","ios":"levelo://app?vid=faae650a-e436-404b-9f51-5d1c0f4f3d8e"},"vehicle_type_id":"4","last_reported":1720627754,"current_range_meters":16400,"station_id":"","pricing_plan_id":"cebpf4jnsgd1na2vs0mg"},{"bike_id":"5170e5a4-a346-48b0-9cfa-e3b6cda1ad54","system_id":"levelo_inurba_marseille","lat":43.319935,"lon":5.381699,"is_reserved":false,"is_disabled":false,"rental_uris":{"android":"levelo://app?vid=5170e5a4-a346-48b0-9cfa-e3b6cda1ad54","ios":"levelo://app?vid=5170e5a4-a346-48b0-9cfa-e3b6cda1ad54"},"vehicle_type_id":"4","last_reported":1720627754,"current_range_meters":5600,"station_id":"ce4bhr12rcd13ifvqhpg","pricing_plan_id":"cebpf4jnsgd1na2vs0mg"},{"bike_id":"fc191e9d-0242-40bf-a079-cbf3839a3034","system_id":"levelo_inurba_marseille","lat":43.319935,"lon":5.381699,"is_reserved":false,"is_disabled":false,"rental_uris":{"android":"levelo://app?vid=fc191e9d-0242-40bf-a079-cbf3839a3034","ios":"levelo://app?vid=fc191e9d-0242-40bf-a079-cbf3839a3034"},"vehicle_type_id":"4","last_reported":1720627754,"current_range_meters":22000,"station_id":"ce4bhr12rcd13ifvqhpg","pricing_plan_id":"cebpf4jnsgd1na2vs0mg"},{"bike_id":"cca699bb-bf42-4643-a1fc-43112d702fcc","system_id":"levelo_inurba_marseille","lat":43.319935,"lon":5.381699,"is_reserved":false,"is_disabled":false,"rental_uris":{"android":"levelo://app?vid=cca699bb-bf42-4643-a1fc-43112d702fcc","ios":"levelo://app?vid=cca699bb-bf42-4643-a1fc-43112d702fcc"},"vehicle_type_id":"4","last_reported":1720627754,"current_range_meters":20400,"station_id":"ce4bhr12rcd13ifvqhpg","pricing_plan_id":"cebpf4jnsgd1na2vs0mg"},{"bike_id":"f78b9cf8-d064-4027-a30f-39a90e74ed83","system_id":"levelo_inurba_marseille","lat":43.299222,"lon":5.365554,"is_reserved":false,"is_disabled":false,"rental_uris":{"android":"levelo://app?vid=f78b9cf8-d064-4027-a30f-39a90e74ed83","ios":"levelo://app?vid=f78b9cf8-d064-4027-a30f-39a90e74ed83"},"vehicle_type_id":"4","last_reported":1720627754,"current_range_meters":0,"station_id":"ce4bgm92rcd13ifvqbr0","pricing_plan_id":"cebpf4jnsgd1na2vs0mg"},{"bike_id":"e8f47e21-b843-43c6-923a-6d6fc77eb07c","system_id":"levelo_inurba_marseille","lat":43.299724,"lon":5.371829,"is_reserved":false,"is_disabled":false,"rental_uris":{"android":"levelo://app?vid=e8f47e21-b843-43c6-923a-6d6fc77eb07c","ios":"levelo://app?vid=e8f47e21-b843-43c6-923a-6d6fc77eb07c"},"vehicle_type_id":"4","last_reported":1720627754,"current_range_meters":0,"station_id":"ce4bgr92rcd13ifvqc7g","pricing_plan_id":"cebpf4jnsgd1na2vs0mg"},{"bike_id":"6e6580b5-119c-453e-b379-84937577f4c7","system_id":"levelo_inurba_marseille","lat":43.299724,"lon":5.371829,"is_reserved":false,"is_disabled":false,"rental_uris":{"android":"levelo://app?vid=6e6580b5-119c-453e-b379-84937577f4c7","ios":"levelo://app?vid=6e6580b5-119c-453e-b379-84937577f4c7"},"vehicle_type_id":"4","last_reported":1720627754,"current_range_meters":0,"station_id":"ce4bgr92rcd13ifvqc7g","pricing_plan_id":"cebpf4jnsgd1na2vs0mg"},{"bike_id":"91ef0b13-db7b-4c84-93e6-d41a33b96e4f","system_id":"levelo_inurba_marseille","lat":43.298433,"lon":5.362774,"is_reserved":false,"is_disabled":false,"rental_uris":{"android":"levelo://app?vid=91ef0b13-db7b-4c84-93e6-d41a33b96e4f","ios":"levelo://app?vid=91ef0b13-db7b-4c84-93e6-d41a33b96e4f"},"vehicle_type_id":"4","last_reported":1720627754,"current_range_meters":0,"station_id":"ce4bgpp2rcd13ifvqc3g","pricing_plan_id":"cebpf4jnsgd1na2vs0mg"},{"bike_id":"3fa3e222-08e1-47fb-bcae-d310c43f9d91","system_id":"levelo_inurba_marseille","lat":43.311722,"lon":5.387247,"is_reserved":false,"is_disabled":false,"rental_uris":{"android":"levelo://app?vid=3fa3e222-08e1-47fb-bcae-d310c43f9d91","ios":"levelo://app?vid=3fa3e222-08e1-47fb-bcae-d310c43f9d91"},"vehicle_type_id":"4","last_reported":1720627754,"current_range_meters":16800,"station_id":"ce4bgv12rcd13ifvqcp0","pricing_plan_id":"cebpf4jnsgd1na2vs0mg"},{"bike_id":"3ac1a9f2-71aa-4a3e-ac7a-0fde06337044","system_id":"levelo_inurba_marseille","lat":43.311722,"lon":5.387247,"is_reserved":false,"is_disabled":false,"rental_uris":{"android":"levelo://app?vid=3ac1a9f2-71aa-4a3e-ac7a-0fde06337044","ios":"levelo://app?vid=3ac1a9f2-71aa-4a3e-ac7a-0fde06337044"},"vehicle_type_id":"4","last_reported":1720627754,"current_range_meters":2400,"station_id":"ce4bgv12rcd13ifvqcp0","pricing_plan_id":"cebpf4jnsgd1na2vs0mg"},{"bike_id":"82083023-80a7-4bc3-9740-537d46dd186e","system_id":"levelo_inurba_marseille","lat":43.311722,"lon":5.387247,"is_reserved":false,"is_disabled":false,"rental_uris":{"android":"levelo://app?vid=82083023-80a7-4bc3-9740-537d46dd186e","ios":"levelo://app?vid=82083023-80a7-4bc3-9740-537d46dd186e"},"vehicle_type_id":"4","last_reported":1720627754,"current_range_meters":0,"station_id":"ce4bgv12rcd13ifvqcp0","pricing_plan_id":"cebpf4jnsgd1na2vs0mg"},{"bike_id":"c9a5a74f-84f9-4eea-a3d2-967063f6ad01","system_id":"levelo_inurba_marseille","lat":43.311722,"lon":5.387247,"is_reserved":false,"is_disabled":false,"rental_uris":{"android":"levelo://app?vid=c9a5a74f-84f9-4eea-a3d2-967063f6ad01","ios":"levelo://app?vid=c9a5a74f-84f9-4eea-a3d2-967063f6ad01"},"vehicle_type_id":"4","last_reported":1720627754,"current_range_meters":0,"station_id":"ce4bgv12rcd13ifvqcp0","pricing_plan_id":"cebpf4jnsgd1na2vs0mg"},{"bike_id":"9701dd28-375d-4b03-ad11-c23255d46cca","system_id":"levelo_inurba_marseille","lat":43.311722,"lon":5.387247,"is_reserved":false,"is_disabled":false,"rental_uris":{"android":"levelo://app?vid=9701dd28-375d-4b03-ad11-c23255d46cca","ios":"levelo://app?vid=9701dd28-375d-4b03-ad11-c23255d46cca"},"vehicle_type_id":"4","last_reported":1720627754,"current_range_meters":1200,"station_id":"ce4bgv12rcd13ifvqcp0","pricing_plan_id":"cebpf4jnsgd1na2vs0mg"},{"bike_id":"9a1562f2-1cc9-452b-b681-d150da98b497","system_id":"levelo_inurba_marseille","lat":43.311722,"lon":5.387247,"is_reserved":false,"is_disabled":false,"rental_uris":{"android":"levelo://app?vid=9a1562f2-1cc9-452b-b681-d150da98b497","ios":"levelo://app?vid=9a1562f2-1cc9-452b-b681-d150da98b497"},"vehicle_type_id":"4","last_reported":1720627754,"current_range_meters":10800,"station_id":"ce4bgv12rcd13ifvqcp0","pricing_plan_id":"cebpf4jnsgd1na2vs0mg"},{"bike_id":"442950c0-1dd1-4ceb-8e04-e1e50c101c14","system_id":"levelo_inurba_marseille","lat":43.297794,"lon":5.370888,"is_reserved":false,"is_disabled":false,"rental_uris":{"android":"levelo://app?vid=442950c0-1dd1-4ceb-8e04-e1e50c101c14","ios":"levelo://app?vid=442950c0-1dd1-4ceb-8e04-e1e50c101c14"},"vehicle_type_id":"4","last_reported":1720627754,"current_range_meters":18800,"station_id":"ce4bgop2rcd13ifvqc1g","pricing_plan_id":"cebpf4jnsgd1na2vs0mg"},{"bike_id":"6726ad69-19f1-49c0-ba8f-a8fcd3441d35","system_id":"levelo_inurba_marseille","lat":43.297163,"lon":5.365866,"is_reserved":false,"is_disabled":false,"rental_uris":{"android":"levelo://app?vid=6726ad69-19f1-49c0-ba8f-a8fcd3441d35","ios":"levelo://app?vid=6726ad69-19f1-49c0-ba8f-a8fcd3441d35"},"vehicle_type_id":"4","last_reported":1720627754,"current_range_meters":5600,"station_id":"ce4bgn12rcd13ifvqbt0","pricing_plan_id":"cebpf4jnsgd1na2vs0mg"},{"bike_id":"5fab1974-3eb0-4b28-a984-ca0d23fd952b","system_id":"levelo_inurba_marseille","lat":43.29685,"lon":5.37289,"is_reserved":false,"is_disabled":false,"rental_uris":{"android":"levelo://app?vid=5fab1974-3eb0-4b28-a984-ca0d23fd952b","ios":"levelo://app?vid=5fab1974-3eb0-4b28-a984-ca0d23fd952b"},"vehicle_type_id":"4","last_reported":1720627754,"current_range_meters":0,"station_id":"ce4bgk12rcd13ifvqbj0","pricing_plan_id":"cebpf4jnsgd1na2vs0mg"},{"bike_id":"8974f07b-a3a2-4059-be51-93c5536ece04","system_id":"levelo_inurba_marseille","lat":43.2968,"lon":5.37291,"is_reserved":false,"is_disabled":false,"rental_uris":{"android":"levelo://app?vid=8974f07b-a3a2-4059-be51-93c5536ece04","ios":"levelo://app?vid=8974f07b-a3a2-4059-be51-93c5536ece04"},"vehicle_type_id":"4","last_reported":1720627754,"current_range_meters":16400,"station_id":"ce4bgk12rcd13ifvqbj0","pricing_plan_id":"cebpf4jnsgd1na2vs0mg"},{"bike_id":"6aad3952-b32a-436a-ae6b-87d5d781ece3","system_id":"levelo_inurba_marseille","lat":43.299028,"lon":5.381509,"is_reserved":false,"is_disabled":false,"rental_uris":{"android":"levelo://app?vid=6aad3952-b32a-436a-ae6b-87d5d781ece3","ios":"levelo://app?vid=6aad3952-b32a-436a-ae6b-87d5d781ece3"},"vehicle_type_id":"4","last_reported":1720627754,"current_range_meters":4000,"station_id":"ce4bgj12rcd13ifvqbc0","pricing_plan_id":"cebpf4jnsgd1na2vs0mg"},{"bike_id":"209c3c25-c4fd-4200-a0fc-70861ff79bd3","system_id":"levelo_inurba_marseille","lat":43.299028,"lon":5.381509,"is_reserved":false,"is_disabled":false,"rental_uris":{"android":"levelo://app?vid=209c3c25-c4fd-4200-a0fc-70861ff79bd3","ios":"levelo://app?vid=209c3c25-c4fd-4200-a0fc-70861ff79bd3"},"vehicle_type_id":"4","last_reported":1720627754,"current_range_meters":19200,"station_id":"ce4bgj12rcd13ifvqbc0","pricing_plan_id":"cebpf4jnsgd1na2vs0mg"},{"bike_id":"2b5a710d-aa87-4d24-813a-5f9059847fa4","system_id":"levelo_inurba_marseille","lat":43.29714,"lon":5.37699,"is_reserved":false,"is_disabled":false,"rental_uris":{"android":"levelo://app?vid=2b5a710d-aa87-4d24-813a-5f9059847fa4","ios":"levelo://app?vid=2b5a710d-aa87-4d24-813a-5f9059847fa4"},"vehicle_type_id":"4","last_reported":1720627754,"current_range_meters":0,"station_id":"ce4bgkh2rcd13ifvqbl0","pricing_plan_id":"cebpf4jnsgd1na2vs0mg"},{"bike_id":"fcdbdf9a-9ff8-4647-9526-73339138ae91","system_id":"levelo_inurba_marseille","lat":43.299028,"lon":5.381509,"is_reserved":false,"is_disabled":false,"rental_uris":{"android":"levelo://app?vid=fcdbdf9a-9ff8-4647-9526-73339138ae91","ios":"levelo://app?vid=fcdbdf9a-9ff8-4647-9526-73339138ae91"},"vehicle_type_id":"4","last_reported":1720627754,"current_range_meters":0,"station_id":"ce4bgj12rcd13ifvqbc0","pricing_plan_id":"cebpf4jnsgd1na2vs0mg"},{"bike_id":"78630525-925f-443c-bae5-0f6d0a5e89e8","system_id":"levelo_inurba_marseille","lat":43.309589,"lon":5.390258,"is_reserved":false,"is_disabled":false,"rental_uris":{"android":"levelo://app?vid=78630525-925f-443c-bae5-0f6d0a5e89e8","ios":"levelo://app?vid=78630525-925f-443c-bae5-0f6d0a5e89e8"},"vehicle_type_id":"4","last_reported":1720627754,"current_range_meters":9600,"station_id":"ce4bgup2rcd13ifvqco0","pricing_plan_id":"cebpf4jnsgd1na2vs0mg"},{"bike_id":"5f300c84-1a28-427a-b6f1-a7b3d61a2477","system_id":"levelo_inurba_marseille","lat":43.317557,"lon":5.390173,"is_reserved":false,"is_disabled":false,"rental_uris":{"android":"levelo://app?vid=5f300c84-1a28-427a-b6f1-a7b3d61a2477","ios":"levelo://app?vid=5f300c84-1a28-427a-b6f1-a7b3d61a2477"},"vehicle_type_id":"4","last_reported":1720627754,"current_range_meters":8400,"station_id":"ce4bhqp2rcd13ifvqhng","pricing_plan_id":"cebpf4jnsgd1na2vs0mg"},{"bike_id":"667d2552-97a0-4bd3-8e46-aad3d1ecf7e5","system_id":"levelo_inurba_marseille","lat":43.29712,"lon":5.37869,"is_reserved":false,"is_disabled":false,"rental_uris":{"android":"levelo://app?vid=667d2552-97a0-4bd3-8e46-aad3d1ecf7e5","ios":"levelo://app?vid=667d2552-97a0-4bd3-8e46-aad3d1ecf7e5"},"vehicle_type_id":"4","last_reported":1720627754,"current_range_meters":14000,"station_id":"","pricing_plan_id":"cebpf4jnsgd1na2vs0mg"},{"bike_id":"9f59e31f-e345-4dba-8095-f7db34f79410","system_id":"levelo_inurba_marseille","lat":43.304278,"lon":5.388868,"is_reserved":false,"is_disabled":false,"rental_uris":{"android":"levelo://app?vid=9f59e31f-e345-4dba-8095-f7db34f79410","ios":"levelo://app?vid=9f59e31f-e345-4dba-8095-f7db34f79410"},"vehicle_type_id":"4","last_reported":1720627754,"current_range_meters":400,"station_id":"ce4bgk12rcd13ifvqbi0","pricing_plan_id":"cebpf4jnsgd1na2vs0mg"},{"bike_id":"ddef2e25-cb3c-4608-ace8-aa758f0a5612","system_id":"levelo_inurba_marseille","lat":43.295748,"lon":5.37522,"is_reserved":false,"is_disabled":false,"rental_uris":{"android":"levelo://app?vid=ddef2e25-cb3c-4608-ace8-aa758f0a5612","ios":"levelo://app?vid=ddef2e25-cb3c-4608-ace8-aa758f0a5612"},"vehicle_type_id":"4","last_reported":1720627754,"current_range_meters":0,"station_id":"ce4bgh92rcd13ifvqb50","pricing_plan_id":"cebpf4jnsgd1na2vs0mg"},{"bike_id":"5ead3898-41e3-426d-bdd2-0e813c87680e","system_id":"levelo_inurba_marseille","lat":43.298037,"lon":5.381066,"is_reserved":false,"is_disabled":false,"rental_uris":{"android":"levelo://app?vid=5ead3898-41e3-426d-bdd2-0e813c87680e","ios":"levelo://app?vid=5ead3898-41e3-426d-bdd2-0e813c87680e"},"vehicle_type_id":"4","last_reported":1720627754,"current_range_meters":8400,"station_id":"ce4bgip2rcd13ifvqbb0","pricing_plan_id":"cebpf4jnsgd1na2vs0mg"},{"bike_id":"6bdea12d-fec8-4ca9-b1e2-1248324d872c","system_id":"levelo_inurba_marseille","lat":43.295748,"lon":5.37522,"is_reserved":false,"is_disabled":false,"rental_uris":{"android":"levelo://app?vid=6bdea12d-fec8-4ca9-b1e2-1248324d872c","ios":"levelo://app?vid=6bdea12d-fec8-4ca9-b1e2-1248324d872c"},"vehicle_type_id":"4","last_reported":1720627754,"current_range_meters":19200,"station_id":"ce4bgh92rcd13ifvqb50","pricing_plan_id":"cebpf4jnsgd1na2vs0mg"},{"bike_id":"6dbe75e3-fc96-47a4-a32e-44653fccb204","system_id":"levelo_inurba_marseille","lat":43.295279,"lon":5.375048,"is_reserved":false,"is_disabled":false,"rental_uris":{"android":"levelo://app?vid=6dbe75e3-fc96-47a4-a32e-44653fccb204","ios":"levelo://app?vid=6dbe75e3-fc96-47a4-a32e-44653fccb204"},"vehicle_type_id":"4","last_reported":1720627754,"current_range_meters":6000,"station_id":"ce4bgkp2rcd13ifvqbmg","pricing_plan_id":"cebpf4jnsgd1na2vs0mg"},{"bike_id":"e9969bfa-893f-4e16-a0db-7696a995364e","system_id":"levelo_inurba_marseille","lat":43.295279,"lon":5.375048,"is_reserved":false,"is_disabled":false,"rental_uris":{"android":"levelo://app?vid=e9969bfa-893f-4e16-a0db-7696a995364e","ios":"levelo://app?vid=e9969bfa-893f-4e16-a0db-7696a995364e"},"vehicle_type_id":"4","last_reported":1720627754,"current_range_meters":12400,"station_id":"ce4bgkp2rcd13ifvqbmg","pricing_plan_id":"cebpf4jnsgd1na2vs0mg"},{"bike_id":"3c835ad8-7629-4cc6-84cf-eaee533f752e","system_id":"levelo_inurba_marseille","lat":43.301396,"lon":5.387812,"is_reserved":false,"is_disabled":false,"rental_uris":{"android":"levelo://app?vid=3c835ad8-7629-4cc6-84cf-eaee533f752e","ios":"levelo://app?vid=3c835ad8-7629-4cc6-84cf-eaee533f752e"},"vehicle_type_id":"4","last_reported":1720627754,"current_range_meters":23200,"station_id":"ce4bghh2rcd13ifvqb60","pricing_plan_id":"cebpf4jnsgd1na2vs0mg"},{"bike_id":"e0c7e857-70d7-412d-9877-3689e69aa102","system_id":"levelo_inurba_marseille","lat":43.29602,"lon":5.381084,"is_reserved":false,"is_disabled":false,"rental_uris":{"android":"levelo://app?vid=e0c7e857-70d7-412d-9877-3689e69aa102","ios":"levelo://app?vid=e0c7e857-70d7-412d-9877-3689e69aa102"},"vehicle_type_id":"4","last_reported":1720627754,"current_range_meters":800,"station_id":"ce4bgl12rcd13ifvqbo0","pricing_plan_id":"cebpf4jnsgd1na2vs0mg"},{"bike_id":"aa32b85a-050f-40c0-914c-04fd9cc58da7","system_id":"levelo_inurba_marseille","lat":43.32367,"lon":5.388836,"is_reserved":false,"is_disabled":false,"rental_uris":{"android":"levelo://app?vid=aa32b85a-050f-40c0-914c-04fd9cc58da7","ios":"levelo://app?vid=aa32b85a-050f-40c0-914c-04fd9cc58da7"},"vehicle_type_id":"4","last_reported":1720627754,"current_range_meters":4800,"station_id":"ce4bhqp2rcd13ifvqhog","pricing_plan_id":"cebpf4jnsgd1na2vs0mg"},{"bike_id":"b27b8628-599e-4dd1-a5b5-54f4d91b1c50","system_id":"levelo_inurba_marseille","lat":43.2931,"lon":5.37185,"is_reserved":false,"is_disabled":false,"rental_uris":{"android":"levelo://app?vid=b27b8628-599e-4dd1-a5b5-54f4d91b1c50","ios":"levelo://app?vid=b27b8628-599e-4dd1-a5b5-54f4d91b1c50"},"vehicle_type_id":"4","last_reported":1720627754,"current_range_meters":0,"station_id":"ce4bgh92rcd13ifvqb40","pricing_plan_id":"cebpf4jnsgd1na2vs0mg"},{"bike_id":"d7fa9a57-cc21-4202-8bcd-40e4fdcaf706","system_id":"levelo_inurba_marseille","lat":43.296277,"lon":5.377108,"is_reserved":false,"is_disabled":false,"rental_uris":{"android":"levelo://app?vid=d7fa9a57-cc21-4202-8bcd-40e4fdcaf706","ios":"levelo://app?vid=d7fa9a57-cc21-4202-8bcd-40e4fdcaf706"},"vehicle_type_id":"4","last_reported":1720627754,"current_range_meters":20800,"station_id":"ce4bgi92rcd13ifvqb90","pricing_plan_id":"cebpf4jnsgd1na2vs0mg"},{"bike_id":"6fcf9819-b32e-4828-9d71-7e34d2ba851a","system_id":"levelo_inurba_marseille","lat":43.29298,"lon":5.37442,"is_reserved":false,"is_disabled":false,"rental_uris":{"android":"levelo://app?vid=6fcf9819-b32e-4828-9d71-7e34d2ba851a","ios":"levelo://app?vid=6fcf9819-b32e-4828-9d71-7e34d2ba851a"},"vehicle_type_id":"4","last_reported":1720627754,"current_range_meters":0,"station_id":"ce4bgi12rcd13ifvqb70","pricing_plan_id":"cebpf4jnsgd1na2vs0mg"},{"bike_id":"d9cf564f-c289-4157-b7dc-71aceb700ddb","system_id":"levelo_inurba_marseille","lat":43.293009,"lon":5.374584,"is_reserved":false,"is_disabled":false,"rental_uris":{"android":"levelo://app?vid=d9cf564f-c289-4157-b7dc-71aceb700ddb","ios":"levelo://app?vid=d9cf564f-c289-4157-b7dc-71aceb700ddb"},"vehicle_type_id":"4","last_reported":1720627754,"current_range_meters":0,"station_id":"ce4bgi12rcd13ifvqb70","pricing_plan_id":"cebpf4jnsgd1na2vs0mg"},{"bike_id":"442af068-eba7-475c-9163-70125b8df4ab","system_id":"levelo_inurba_marseille","lat":43.303002,"lon":5.392142,"is_reserved":false,"is_disabled":false,"rental_uris":{"android":"levelo://app?vid=442af068-eba7-475c-9163-70125b8df4ab","ios":"levelo://app?vid=442af068-eba7-475c-9163-70125b8df4ab"},"vehicle_type_id":"4","last_reported":1720627754,"current_range_meters":28400,"station_id":"ce4bgkh2rcd13ifvqbk0","pricing_plan_id":"cebpf4jnsgd1na2vs0mg"},{"bike_id":"6cf2b61d-2193-4586-8c2f-e8ad45e7d677","system_id":"levelo_inurba_marseille","lat":43.2936,"lon":5.37835,"is_reserved":false,"is_disabled":false,"rental_uris":{"android":"levelo://app?vid=6cf2b61d-2193-4586-8c2f-e8ad45e7d677","ios":"levelo://app?vid=6cf2b61d-2193-4586-8c2f-e8ad45e7d677"},"vehicle_type_id":"4","last_reported":1720627754,"current_range_meters":0,"station_id":"ce4bgjh2rcd13ifvqbf0","pricing_plan_id":"cebpf4jnsgd1na2vs0mg"},{"bike_id":"8ceb76f0-bdba-4836-abf3-82c0df52b62c","system_id":"levelo_inurba_marseille","lat":43.292311,"lon":5.360731,"is_reserved":false,"is_disabled":false,"rental_uris":{"android":"levelo://app?vid=8ceb76f0-bdba-4836-abf3-82c0df52b62c","ios":"levelo://app?vid=8ceb76f0-bdba-4836-abf3-82c0df52b62c"},"vehicle_type_id":"4","last_reported":1720627754,"current_range_meters":12000,"station_id":"ce4bhbh2rcd13ifvqeqg","pricing_plan_id":"cebpf4jnsgd1na2vs0mg"},{"bike_id":"ef0f0f34-2b25-4559-936b-c5707632fc1c","system_id":"levelo_inurba_marseille","lat":43.291675,"lon":5.371583,"is_reserved":false,"is_disabled":false,"rental_uris":{"android":"levelo://app?vid=ef0f0f34-2b25-4559-936b-c5707632fc1c","ios":"levelo://app?vid=ef0f0f34-2b25-4559-936b-c5707632fc1c"},"vehicle_type_id":"4","last_reported":1720627754,"current_range_meters":0,"station_id":"ce4bha92rcd13ifvqeh0","pricing_plan_id":"cebpf4jnsgd1na2vs0mg"},{"bike_id":"aa19d044-de47-45d4-b809-bed03b1215fd","system_id":"levelo_inurba_marseille","lat":43.292005,"lon":5.357875,"is_reserved":false,"is_disabled":false,"rental_uris":{"android":"levelo://app?vid=aa19d044-de47-45d4-b809-bed03b1215fd","ios":"levelo://app?vid=aa19d044-de47-45d4-b809-bed03b1215fd"},"vehicle_type_id":"4","last_reported":1720627754,"current_range_meters":7600,"station_id":"ce4bhb12rcd13ifvqel0","pricing_plan_id":"cebpf4jnsgd1na2vs0mg"},{"bike_id":"f5f5e934-fd37-406f-905a-faf08dd2e52e","system_id":"levelo_inurba_marseille","lat":43.30889,"lon":5.39648,"is_reserved":false,"is_disabled":false,"rental_uris":{"android":"levelo://app?vid=f5f5e934-fd37-406f-905a-faf08dd2e52e","ios":"levelo://app?vid=f5f5e934-fd37-406f-905a-faf08dd2e52e"},"vehicle_type_id":"4","last_reported":1720627754,"current_range_meters":0,"station_id":"ce4bh012rcd13ifvqcv0","pricing_plan_id":"cebpf4jnsgd1na2vs0mg"},{"bike_id":"bff56e0a-60cc-46da-ac93-cc37e6d1a65a","system_id":"levelo_inurba_marseille","lat":43.309038,"lon":5.396546,"is_reserved":false,"is_disabled":false,"rental_uris":{"android":"levelo://app?vid=bff56e0a-60cc-46da-ac93-cc37e6d1a65a","ios":"levelo://app?vid=bff56e0a-60cc-46da-ac93-cc37e6d1a65a"},"vehicle_type_id":"4","last_reported":1720627754,"current_range_meters":24000,"station_id":"ce4bh012rcd13ifvqcv0","pricing_plan_id":"cebpf4jnsgd1na2vs0mg"},{"bike_id":"b93d52dd-bee8-4c51-a472-39a07ad9c161","system_id":"levelo_inurba_marseille","lat":43.309038,"lon":5.396546,"is_reserved":false,"is_disabled":false,"rental_uris":{"android":"levelo://app?vid=b93d52dd-bee8-4c51-a472-39a07ad9c161","ios":"levelo://app?vid=b93d52dd-bee8-4c51-a472-39a07ad9c161"},"vehicle_type_id":"4","last_reported":1720627754,"current_range_meters":16000,"station_id":"ce4bh012rcd13ifvqcv0","pricing_plan_id":"cebpf4jnsgd1na2vs0mg"},{"bike_id":"6b177d36-c791-4c35-8244-74e525fbc4ce","system_id":"levelo_inurba_marseille","lat":43.29529,"lon":5.385581,"is_reserved":false,"is_disabled":false,"rental_uris":{"android":"levelo://app?vid=6b177d36-c791-4c35-8244-74e525fbc4ce","ios":"levelo://app?vid=6b177d36-c791-4c35-8244-74e525fbc4ce"},"vehicle_type_id":"4","last_reported":1720627754,"current_range_meters":0,"station_id":"ce4bgih2rcd13ifvqba0","pricing_plan_id":"cebpf4jnsgd1na2vs0mg"},{"bike_id":"e497fb9e-bc94-49fd-9199-882d566b73b9","system_id":"levelo_inurba_marseille","lat":43.302008,"lon":5.394694,"is_reserved":false,"is_disabled":false,"rental_uris":{"android":"levelo://app?vid=e497fb9e-bc94-49fd-9199-882d566b73b9","ios":"levelo://app?vid=e497fb9e-bc94-49fd-9199-882d566b73b9"},"vehicle_type_id":"4","last_reported":1720627754,"current_range_meters":4000,"station_id":"ce4bh0p2rcd13ifvqd70","pricing_plan_id":"cebpf4jnsgd1na2vs0mg"},{"bike_id":"6120bffa-e6a3-4613-a59f-ce139899b0ed","system_id":"levelo_inurba_marseille","lat":43.302008,"lon":5.394694,"is_reserved":false,"is_disabled":false,"rental_uris":{"android":"levelo://app?vid=6120bffa-e6a3-4613-a59f-ce139899b0ed","ios":"levelo://app?vid=6120bffa-e6a3-4613-a59f-ce139899b0ed"},"vehicle_type_id":"4","last_reported":1720627754,"current_range_meters":3600,"station_id":"ce4bh0p2rcd13ifvqd70","pricing_plan_id":"cebpf4jnsgd1na2vs0mg"},{"bike_id":"6b89d798-1160-4bc8-9d5d-9d7633f4ad89","system_id":"levelo_inurba_marseille","lat":43.2942,"lon":5.38622,"is_reserved":false,"is_disabled":false,"rental_uris":{"android":"levelo://app?vid=6b89d798-1160-4bc8-9d5d-9d7633f4ad89","ios":"levelo://app?vid=6b89d798-1160-4bc8-9d5d-9d7633f4ad89"},"vehicle_type_id":"4","last_reported":1720627754,"current_range_meters":0,"station_id":"ce4bh2h2rcd13ifvqdh0","pricing_plan_id":"cebpf4jnsgd1na2vs0mg"},{"bike_id":"8d8a43de-4601-4d4e-b619-c949044b9424","system_id":"levelo_inurba_marseille","lat":43.29033,"lon":5.37558,"is_reserved":false,"is_disabled":false,"rental_uris":{"android":"levelo://app?vid=8d8a43de-4601-4d4e-b619-c949044b9424","ios":"levelo://app?vid=8d8a43de-4601-4d4e-b619-c949044b9424"},"vehicle_type_id":"4","last_reported":1720627754,"current_range_meters":31200,"station_id":"ce4bh692rcd13ifvqe90","pricing_plan_id":"cebpf4jnsgd1na2vs0mg"},{"bike_id":"317dbd6c-d7f4-4a8b-8742-4269ca7d8d2d","system_id":"levelo_inurba_marseille","lat":43.28941,"lon":5.36639,"is_reserved":false,"is_disabled":false,"rental_uris":{"android":"levelo://app?vid=317dbd6c-d7f4-4a8b-8742-4269ca7d8d2d","ios":"levelo://app?vid=317dbd6c-d7f4-4a8b-8742-4269ca7d8d2d"},"vehicle_type_id":"4","last_reported":1720627754,"current_range_meters":8800,"station_id":"ce4bhap2rcd13ifvqek0","pricing_plan_id":"cebpf4jnsgd1na2vs0mg"},{"bike_id":"517a1b89-7034-4005-a18c-8e16a1aff898","system_id":"levelo_inurba_marseille","lat":43.289184,"lon":5.366408,"is_reserved":false,"is_disabled":false,"rental_uris":{"android":"levelo://app?vid=517a1b89-7034-4005-a18c-8e16a1aff898","ios":"levelo://app?vid=517a1b89-7034-4005-a18c-8e16a1aff898"},"vehicle_type_id":"4","last_reported":1720627754,"current_range_meters":13200,"station_id":"ce4bhap2rcd13ifvqek0","pricing_plan_id":"cebpf4jnsgd1na2vs0mg"},{"bike_id":"ac4748a0-cc02-4a35-8fce-1f04cfccd856","system_id":"levelo_inurba_marseille","lat":43.28934,"lon":5.36638,"is_reserved":false,"is_disabled":false,"rental_uris":{"android":"levelo://app?vid=ac4748a0-cc02-4a35-8fce-1f04cfccd856","ios":"levelo://app?vid=ac4748a0-cc02-4a35-8fce-1f04cfccd856"},"vehicle_type_id":"4","last_reported":1720627754,"current_range_meters":5200,"station_id":"ce4bhap2rcd13ifvqek0","pricing_plan_id":"cebpf4jnsgd1na2vs0mg"},{"bike_id":"9b43d248-5769-4b9f-9f3d-f9538bab87c8","system_id":"levelo_inurba_marseille","lat":43.289468,"lon":5.363719,"is_reserved":false,"is_disabled":false,"rental_uris":{"android":"levelo://app?vid=9b43d248-5769-4b9f-9f3d-f9538bab87c8","ios":"levelo://app?vid=9b43d248-5769-4b9f-9f3d-f9538bab87c8"},"vehicle_type_id":"4","last_reported":1720627754,"current_range_meters":23200,"station_id":"ce4bhc92rcd13ifvqetg","pricing_plan_id":"cebpf4jnsgd1na2vs0mg"},{"bike_id":"2fd765d7-4497-4748-aac9-6161f8ca1889","system_id":"levelo_inurba_marseille","lat":43.292644,"lon":5.384257,"is_reserved":false,"is_disabled":false,"rental_uris":{"android":"levelo://app?vid=2fd765d7-4497-4748-aac9-6161f8ca1889","ios":"levelo://app?vid=2fd765d7-4497-4748-aac9-6161f8ca1889"},"vehicle_type_id":"4","last_reported":1720627754,"current_range_meters":26800,"station_id":"ce4bh692rcd13ifvqea0","pricing_plan_id":"cebpf4jnsgd1na2vs0mg"},{"bike_id":"592939e9-cc67-4b94-a248-a5917248d4ab","system_id":"levelo_inurba_marseille","lat":43.29009,"lon":5.35607,"is_reserved":false,"is_disabled":false,"rental_uris":{"android":"levelo://app?vid=592939e9-cc67-4b94-a248-a5917248d4ab","ios":"levelo://app?vid=592939e9-cc67-4b94-a248-a5917248d4ab"},"vehicle_type_id":"4","last_reported":1720627754,"current_range_meters":0,"station_id":"ce4bhb92rcd13ifvqen0","pricing_plan_id":"cebpf4jnsgd1na2vs0mg"},{"bike_id":"d361adef-dbf4-4409-98f9-d55f5ad98b4b","system_id":"levelo_inurba_marseille","lat":43.290103,"lon":5.356114,"is_reserved":false,"is_disabled":false,"rental_uris":{"android":"levelo://app?vid=d361adef-dbf4-4409-98f9-d55f5ad98b4b","ios":"levelo://app?vid=d361adef-dbf4-4409-98f9-d55f5ad98b4b"},"vehicle_type_id":"4","last_reported":1720627754,"current_range_meters":18000,"station_id":"ce4bhb92rcd13ifvqen0","pricing_plan_id":"cebpf4jnsgd1na2vs0mg"},{"bike_id":"2c64fb8c-2a5f-4b72-b44b-10e5bf70211d","system_id":"levelo_inurba_marseille","lat":43.29005,"lon":5.35606,"is_reserved":false,"is_disabled":false,"rental_uris":{"android":"levelo://app?vid=2c64fb8c-2a5f-4b72-b44b-10e5bf70211d","ios":"levelo://app?vid=2c64fb8c-2a5f-4b72-b44b-10e5bf70211d"},"vehicle_type_id":"4","last_reported":1720627754,"current_range_meters":3600,"station_id":"","pricing_plan_id":"cebpf4jnsgd1na2vs0mg"},{"bike_id":"597025cf-9fff-430b-a408-a685a04ee006","system_id":"levelo_inurba_marseille","lat":43.290995,"lon":5.381361,"is_reserved":false,"is_disabled":false,"rental_uris":{"android":"levelo://app?vid=597025cf-9fff-430b-a408-a685a04ee006","ios":"levelo://app?vid=597025cf-9fff-430b-a408-a685a04ee006"},"vehicle_type_id":"4","last_reported":1720627754,"current_range_meters":20800,"station_id":"ce4bh512rcd13ifvqe2g","pricing_plan_id":"cebpf4jnsgd1na2vs0mg"},{"bike_id":"5c022710-3b94-4750-9245-decf5ca1d649","system_id":"levelo_inurba_marseille","lat":43.297815,"lon":5.393548,"is_reserved":false,"is_disabled":false,"rental_uris":{"android":"levelo://app?vid=5c022710-3b94-4750-9245-decf5ca1d649","ios":"levelo://app?vid=5c022710-3b94-4750-9245-decf5ca1d649"},"vehicle_type_id":"4","last_reported":1720627754,"current_range_meters":17600,"station_id":"chh1huq6cuj3fo74tm60","pricing_plan_id":"cebpf4jnsgd1na2vs0mg"},{"bike_id":"7156f625-4c92-42d0-93fc-8bc6b173e269","system_id":"levelo_inurba_marseille","lat":43.289743,"lon":5.378304,"is_reserved":false,"is_disabled":false,"rental_uris":{"android":"levelo://app?vid=7156f625-4c92-42d0-93fc-8bc6b173e269","ios":"levelo://app?vid=7156f625-4c92-42d0-93fc-8bc6b173e269"},"vehicle_type_id":"4","last_reported":1720627754,"current_range_meters":0,"station_id":"ce4bh9p2rcd13ifvqed0","pricing_plan_id":"cebpf4jnsgd1na2vs0mg"},{"bike_id":"e9207d4c-03d2-4604-82c8-7f79f33fc3b7","system_id":"levelo_inurba_marseille","lat":43.330442,"lon":5.389148,"is_reserved":false,"is_disabled":false,"rental_uris":{"android":"levelo://app?vid=e9207d4c-03d2-4604-82c8-7f79f33fc3b7","ios":"levelo://app?vid=e9207d4c-03d2-4604-82c8-7f79f33fc3b7"},"vehicle_type_id":"4","last_reported":1720627754,"current_range_meters":27200,"station_id":"ce4bhr92rcd13ifvqhrg","pricing_plan_id":"cebpf4jnsgd1na2vs0mg"},{"bike_id":"9490f0f4-7ee2-4277-b630-c34ff6bd3f23","system_id":"levelo_inurba_marseille","lat":43.330442,"lon":5.389148,"is_reserved":false,"is_disabled":false,"rental_uris":{"android":"levelo://app?vid=9490f0f4-7ee2-4277-b630-c34ff6bd3f23","ios":"levelo://app?vid=9490f0f4-7ee2-4277-b630-c34ff6bd3f23"},"vehicle_type_id":"4","last_reported":1720627754,"current_range_meters":800,"station_id":"ce4bhr92rcd13ifvqhrg","pricing_plan_id":"cebpf4jnsgd1na2vs0mg"},{"bike_id":"80de48d9-cc2e-45f1-9ad4-55651344ceed","system_id":"levelo_inurba_marseille","lat":43.33022,"lon":5.39043,"is_reserved":false,"is_disabled":false,"rental_uris":{"android":"levelo://app?vid=80de48d9-cc2e-45f1-9ad4-55651344ceed","ios":"levelo://app?vid=80de48d9-cc2e-45f1-9ad4-55651344ceed"},"vehicle_type_id":"4","last_reported":1720627754,"current_range_meters":0,"station_id":"ce4bhr92rcd13ifvqhrg","pricing_plan_id":"cebpf4jnsgd1na2vs0mg"},{"bike_id":"5b9a9b47-5956-42cf-8480-9b77e6e92898","system_id":"levelo_inurba_marseille","lat":43.33027,"lon":5.39042,"is_reserved":false,"is_disabled":false,"rental_uris":{"android":"levelo://app?vid=5b9a9b47-5956-42cf-8480-9b77e6e92898","ios":"levelo://app?vid=5b9a9b47-5956-42cf-8480-9b77e6e92898"},"vehicle_type_id":"4","last_reported":1720627754,"current_range_meters":20800,"station_id":"ce4bhr92rcd13ifvqhrg","pricing_plan_id":"cebpf4jnsgd1na2vs0mg"},{"bike_id":"e6f297d9-0fc8-4b01-b62a-0bab8e0bc7f3","system_id":"levelo_inurba_marseille","lat":43.29519,"lon":5.39042,"is_reserved":false,"is_disabled":false,"rental_uris":{"android":"levelo://app?vid=e6f297d9-0fc8-4b01-b62a-0bab8e0bc7f3","ios":"levelo://app?vid=e6f297d9-0fc8-4b01-b62a-0bab8e0bc7f3"},"vehicle_type_id":"4","last_reported":1720627754,"current_range_meters":0,"station_id":"ce4bh3p2rcd13ifvqdp0","pricing_plan_id":"cebpf4jnsgd1na2vs0mg"},{"bike_id":"eef750f1-f4b2-409d-bab3-5b7bd9d41569","system_id":"levelo_inurba_marseille","lat":43.295169,"lon":5.390426,"is_reserved":false,"is_disabled":false,"rental_uris":{"android":"levelo://app?vid=eef750f1-f4b2-409d-bab3-5b7bd9d41569","ios":"levelo://app?vid=eef750f1-f4b2-409d-bab3-5b7bd9d41569"},"vehicle_type_id":"4","last_reported":1720627754,"current_range_meters":15600,"station_id":"ce4bh3p2rcd13ifvqdp0","pricing_plan_id":"cebpf4jnsgd1na2vs0mg"},{"bike_id":"f98a81bc-c356-473d-b65b-66c728fa8435","system_id":"levelo_inurba_marseille","lat":43.2901,"lon":5.381269,"is_reserved":false,"is_disabled":false,"rental_uris":{"android":"levelo://app?vid=f98a81bc-c356-473d-b65b-66c728fa8435","ios":"levelo://app?vid=f98a81bc-c356-473d-b65b-66c728fa8435"},"vehicle_type_id":"4","last_reported":1720627754,"current_range_meters":0,"station_id":"ce4bh4p2rcd13ifvqe1g","pricing_plan_id":"cebpf4jnsgd1na2vs0mg"},{"bike_id":"4921a454-0874-4297-9e70-006d83e5c906","system_id":"levelo_inurba_marseille","lat":43.31072,"lon":5.40096,"is_reserved":false,"is_disabled":false,"rental_uris":{"android":"levelo://app?vid=4921a454-0874-4297-9e70-006d83e5c906","ios":"levelo://app?vid=4921a454-0874-4297-9e70-006d83e5c906"},"vehicle_type_id":"4","last_reported":1720627754,"current_range_meters":30400,"station_id":"","pricing_plan_id":"cebpf4jnsgd1na2vs0mg"},{"bike_id":"e741188d-efb8-46c2-a135-88ed3151e9b8","system_id":"levelo_inurba_marseille","lat":43.28856,"lon":5.358371,"is_reserved":false,"is_disabled":false,"rental_uris":{"android":"levelo://app?vid=e741188d-efb8-46c2-a135-88ed3151e9b8","ios":"levelo://app?vid=e741188d-efb8-46c2-a135-88ed3151e9b8"},"vehicle_type_id":"4","last_reported":1720627754,"current_range_meters":20400,"station_id":"ce4bhb12rcd13ifvqem0","pricing_plan_id":"cebpf4jnsgd1na2vs0mg"},{"bike_id":"b6954197-01d2-4d77-88d4-e5c3de2d118d","system_id":"levelo_inurba_marseille","lat":43.28856,"lon":5.358371,"is_reserved":false,"is_disabled":false,"rental_uris":{"android":"levelo://app?vid=b6954197-01d2-4d77-88d4-e5c3de2d118d","ios":"levelo://app?vid=b6954197-01d2-4d77-88d4-e5c3de2d118d"},"vehicle_type_id":"4","last_reported":1720627754,"current_range_meters":0,"station_id":"ce4bhb12rcd13ifvqem0","pricing_plan_id":"cebpf4jnsgd1na2vs0mg"},{"bike_id":"dff4acd0-39c3-489d-9803-198dd3936b32","system_id":"levelo_inurba_marseille","lat":43.312609,"lon":5.401662,"is_reserved":false,"is_disabled":false,"rental_uris":{"android":"levelo://app?vid=dff4acd0-39c3-489d-9803-198dd3936b32","ios":"levelo://app?vid=dff4acd0-39c3-489d-9803-198dd3936b32"},"vehicle_type_id":"4","last_reported":1720627754,"current_range_meters":6000,"station_id":"ce4bh092rcd13ifvqd30","pricing_plan_id":"cebpf4jnsgd1na2vs0mg"},{"bike_id":"882430bc-7dcf-4f6c-b066-c0aa0470d819","system_id":"levelo_inurba_marseille","lat":43.33745,"lon":5.37456,"is_reserved":false,"is_disabled":false,"rental_uris":{"android":"levelo://app?vid=882430bc-7dcf-4f6c-b066-c0aa0470d819","ios":"levelo://app?vid=882430bc-7dcf-4f6c-b066-c0aa0470d819"},"vehicle_type_id":"4","last_reported":1720627754,"current_range_meters":11200,"station_id":"","pricing_plan_id":"cebpf4jnsgd1na2vs0mg"},{"bike_id":"d75e0188-26d0-43e4-b616-6321688cb7bc","system_id":"levelo_inurba_marseille","lat":43.33756,"lon":5.37454,"is_reserved":false,"is_disabled":false,"rental_uris":{"android":"levelo://app?vid=d75e0188-26d0-43e4-b616-6321688cb7bc","ios":"levelo://app?vid=d75e0188-26d0-43e4-b616-6321688cb7bc"},"vehicle_type_id":"4","last_reported":1720627754,"current_range_meters":23200,"station_id":"","pricing_plan_id":"cebpf4jnsgd1na2vs0mg"},{"bike_id":"7f5e8b40-6f2f-4173-8f3b-49740d847f81","system_id":"levelo_inurba_marseille","lat":43.33762,"lon":5.37426,"is_reserved":false,"is_disabled":false,"rental_uris":{"android":"levelo://app?vid=7f5e8b40-6f2f-4173-8f3b-49740d847f81","ios":"levelo://app?vid=7f5e8b40-6f2f-4173-8f3b-49740d847f81"},"vehicle_type_id":"4","last_reported":1720627754,"current_range_meters":25600,"station_id":"","pricing_plan_id":"cebpf4jnsgd1na2vs0mg"},{"bike_id":"ff209a93-70fc-4906-b500-6ed1a9cde8f9","system_id":"levelo_inurba_marseille","lat":43.337645,"lon":5.374338,"is_reserved":false,"is_disabled":false,"rental_uris":{"android":"levelo://app?vid=ff209a93-70fc-4906-b500-6ed1a9cde8f9","ios":"levelo://app?vid=ff209a93-70fc-4906-b500-6ed1a9cde8f9"},"vehicle_type_id":"4","last_reported":1720627754,"current_range_meters":15600,"station_id":"","pricing_plan_id":"cebpf4jnsgd1na2vs0mg"},{"bike_id":"f49c94c6-ed46-45a7-9776-dc503065e2d7","system_id":"levelo_inurba_marseille","lat":43.301117,"lon":5.398795,"is_reserved":false,"is_disabled":false,"rental_uris":{"android":"levelo://app?vid=f49c94c6-ed46-45a7-9776-dc503065e2d7","ios":"levelo://app?vid=f49c94c6-ed46-45a7-9776-dc503065e2d7"},"vehicle_type_id":"4","last_reported":1720627754,"current_range_meters":0,"station_id":"ce4bh0h2rcd13ifvqd40","pricing_plan_id":"cebpf4jnsgd1na2vs0mg"},{"bike_id":"b9407e0a-b012-40bc-b69e-11468d71cf4c","system_id":"levelo_inurba_marseille","lat":43.28727,"lon":5.36078,"is_reserved":false,"is_disabled":false,"rental_uris":{"android":"levelo://app?vid=b9407e0a-b012-40bc-b69e-11468d71cf4c","ios":"levelo://app?vid=b9407e0a-b012-40bc-b69e-11468d71cf4c"},"vehicle_type_id":"4","last_reported":1720627754,"current_range_meters":20800,"station_id":"cki0cbj6b192h4jlfktg","pricing_plan_id":"cebpf4jnsgd1na2vs0mg"},{"bike_id":"13ddc323-4e04-4b1a-904f-0cd451eec177","system_id":"levelo_inurba_marseille","lat":43.286961,"lon":5.373785,"is_reserved":false,"is_disabled":false,"rental_uris":{"android":"levelo://app?vid=13ddc323-4e04-4b1a-904f-0cd451eec177","ios":"levelo://app?vid=13ddc323-4e04-4b1a-904f-0cd451eec177"},"vehicle_type_id":"4","last_reported":1720627754,"current_range_meters":0,"station_id":"ce4bh3p2rcd13ifvqdq0","pricing_plan_id":"cebpf4jnsgd1na2vs0mg"},{"bike_id":"4d3252f6-e875-414c-9d34-363ee575f073","system_id":"levelo_inurba_marseille","lat":43.28663,"lon":5.36349,"is_reserved":false,"is_disabled":false,"rental_uris":{"android":"levelo://app?vid=4d3252f6-e875-414c-9d34-363ee575f073","ios":"levelo://app?vid=4d3252f6-e875-414c-9d34-363ee575f073"},"vehicle_type_id":"4","last_reported":1720627754,"current_range_meters":0,"station_id":"ce4bhah2rcd13ifvqej0","pricing_plan_id":"cebpf4jnsgd1na2vs0mg"},{"bike_id":"881fa429-852e-4259-94c6-0049c4a1ef69","system_id":"levelo_inurba_marseille","lat":43.28658,"lon":5.36351,"is_reserved":false,"is_disabled":false,"rental_uris":{"android":"levelo://app?vid=881fa429-852e-4259-94c6-0049c4a1ef69","ios":"levelo://app?vid=881fa429-852e-4259-94c6-0049c4a1ef69"},"vehicle_type_id":"4","last_reported":1720627754,"current_range_meters":0,"station_id":"ce4bhah2rcd13ifvqej0","pricing_plan_id":"cebpf4jnsgd1na2vs0mg"},{"bike_id":"1ead5543-2bdc-4d4d-b60f-8b6a0c2ed174","system_id":"levelo_inurba_marseille","lat":43.290336,"lon":5.386425,"is_reserved":false,"is_disabled":false,"rental_uris":{"android":"levelo://app?vid=1ead5543-2bdc-4d4d-b60f-8b6a0c2ed174","ios":"levelo://app?vid=1ead5543-2bdc-4d4d-b60f-8b6a0c2ed174"},"vehicle_type_id":"4","last_reported":1720627754,"current_range_meters":6400,"station_id":"ce4bh4p2rcd13ifvqe0g","pricing_plan_id":"cebpf4jnsgd1na2vs0mg"},{"bike_id":"bb61be3a-f231-43da-b1f1-ce154a8c8594","system_id":"levelo_inurba_marseille","lat":43.302759,"lon":5.400793,"is_reserved":false,"is_disabled":false,"rental_uris":{"android":"levelo://app?vid=bb61be3a-f231-43da-b1f1-ce154a8c8594","ios":"levelo://app?vid=bb61be3a-f231-43da-b1f1-ce154a8c8594"},"vehicle_type_id":"4","last_reported":1720627754,"current_range_meters":3200,"station_id":"ce4bgvh2rcd13ifvqcs0","pricing_plan_id":"cebpf4jnsgd1na2vs0mg"},{"bike_id":"0d331fd0-c6ce-4607-828c-1d1d17587c25","system_id":"levelo_inurba_marseille","lat":43.289307,"lon":5.38406,"is_reserved":false,"is_disabled":false,"rental_uris":{"android":"levelo://app?vid=0d331fd0-c6ce-4607-828c-1d1d17587c25","ios":"levelo://app?vid=0d331fd0-c6ce-4607-828c-1d1d17587c25"},"vehicle_type_id":"4","last_reported":1720627754,"current_range_meters":12800,"station_id":"ce4bh612rcd13ifvqe6g","pricing_plan_id":"cebpf4jnsgd1na2vs0mg"},{"bike_id":"995733c1-9268-42f9-be5c-a8afc07fcb03","system_id":"levelo_inurba_marseille","lat":43.289223,"lon":5.383893,"is_reserved":false,"is_disabled":false,"rental_uris":{"android":"levelo://app?vid=995733c1-9268-42f9-be5c-a8afc07fcb03","ios":"levelo://app?vid=995733c1-9268-42f9-be5c-a8afc07fcb03"},"vehicle_type_id":"4","last_reported":1720627754,"current_range_meters":0,"station_id":"ce4bh612rcd13ifvqe6g","pricing_plan_id":"cebpf4jnsgd1na2vs0mg"},{"bike_id":"cd83f80e-61bb-4337-bd98-eca1bbf93ee9","system_id":"levelo_inurba_marseille","lat":43.302759,"lon":5.400793,"is_reserved":false,"is_disabled":false,"rental_uris":{"android":"levelo://app?vid=cd83f80e-61bb-4337-bd98-eca1bbf93ee9","ios":"levelo://app?vid=cd83f80e-61bb-4337-bd98-eca1bbf93ee9"},"vehicle_type_id":"4","last_reported":1720627754,"current_range_meters":26800,"station_id":"ce4bgvh2rcd13ifvqcs0","pricing_plan_id":"cebpf4jnsgd1na2vs0mg"},{"bike_id":"da548402-0ad1-4681-98dc-790d9f35dc21","system_id":"levelo_inurba_marseille","lat":43.302759,"lon":5.400793,"is_reserved":false,"is_disabled":false,"rental_uris":{"android":"levelo://app?vid=da548402-0ad1-4681-98dc-790d9f35dc21","ios":"levelo://app?vid=da548402-0ad1-4681-98dc-790d9f35dc21"},"vehicle_type_id":"4","last_reported":1720627754,"current_range_meters":4000,"station_id":"ce4bgvh2rcd13ifvqcs0","pricing_plan_id":"cebpf4jnsgd1na2vs0mg"},{"bike_id":"b11ef973-4bae-411a-a1c1-f304b20a88b6","system_id":"levelo_inurba_marseille","lat":43.302759,"lon":5.400793,"is_reserved":false,"is_disabled":false,"rental_uris":{"android":"levelo://app?vid=b11ef973-4bae-411a-a1c1-f304b20a88b6","ios":"levelo://app?vid=b11ef973-4bae-411a-a1c1-f304b20a88b6"},"vehicle_type_id":"4","last_reported":1720627754,"current_range_meters":3600,"station_id":"ce4bgvh2rcd13ifvqcs0","pricing_plan_id":"cebpf4jnsgd1na2vs0mg"},{"bike_id":"d7b6ca11-6fd3-41e4-b22f-4bee2cc311f2","system_id":"levelo_inurba_marseille","lat":43.312051,"lon":5.403579,"is_reserved":false,"is_disabled":false,"rental_uris":{"android":"levelo://app?vid=d7b6ca11-6fd3-41e4-b22f-4bee2cc311f2","ios":"levelo://app?vid=d7b6ca11-6fd3-41e4-b22f-4bee2cc311f2"},"vehicle_type_id":"4","last_reported":1720627754,"current_range_meters":0,"station_id":"","pricing_plan_id":"cebpf4jnsgd1na2vs0mg"},{"bike_id":"16d845af-5f73-424b-a972-73b1b69b01b0","system_id":"levelo_inurba_marseille","lat":43.295748,"lon":5.37522,"is_reserved":false,"is_disabled":false,"rental_uris":{"android":"levelo://app?vid=16d845af-5f73-424b-a972-73b1b69b01b0","ios":"levelo://app?vid=16d845af-5f73-424b-a972-73b1b69b01b0"},"vehicle_type_id":"4","last_reported":1720627754,"current_range_meters":26400,"station_id":"ce4bgh92rcd13ifvqb50","pricing_plan_id":"cebpf4jnsgd1na2vs0mg"},{"bike_id":"1e52f798-ab4e-46d4-ba4a-08ec92e713e1","system_id":"levelo_inurba_marseille","lat":43.31822,"lon":5.40381,"is_reserved":false,"is_disabled":false,"rental_uris":{"android":"levelo://app?vid=1e52f798-ab4e-46d4-ba4a-08ec92e713e1","ios":"levelo://app?vid=1e52f798-ab4e-46d4-ba4a-08ec92e713e1"},"vehicle_type_id":"4","last_reported":1720627754,"current_range_meters":16000,"station_id":"","pricing_plan_id":"cebpf4jnsgd1na2vs0mg"},{"bike_id":"beba6742-c313-420f-a3b7-019d6995b40c","system_id":"levelo_inurba_marseille","lat":43.316821,"lon":5.404737,"is_reserved":false,"is_disabled":false,"rental_uris":{"android":"levelo://app?vid=beba6742-c313-420f-a3b7-019d6995b40c","ios":"levelo://app?vid=beba6742-c313-420f-a3b7-019d6995b40c"},"vehicle_type_id":"4","last_reported":1720627754,"current_range_meters":24800,"station_id":"ce4bh012rcd13ifvqd00","pricing_plan_id":"cebpf4jnsgd1na2vs0mg"},{"bike_id":"50c23212-8fb1-4d02-a0ef-c7e61b896ea2","system_id":"levelo_inurba_marseille","lat":43.30794,"lon":5.405483,"is_reserved":false,"is_disabled":false,"rental_uris":{"android":"levelo://app?vid=50c23212-8fb1-4d02-a0ef-c7e61b896ea2","ios":"levelo://app?vid=50c23212-8fb1-4d02-a0ef-c7e61b896ea2"},"vehicle_type_id":"4","last_reported":1720627754,"current_range_meters":9600,"station_id":"","pricing_plan_id":"cebpf4jnsgd1na2vs0mg"},{"bike_id":"02422f8f-dbb2-4e78-a14c-14070c1e5aeb","system_id":"levelo_inurba_marseille","lat":43.284538,"lon":5.358657,"is_reserved":false,"is_disabled":false,"rental_uris":{"android":"levelo://app?vid=02422f8f-dbb2-4e78-a14c-14070c1e5aeb","ios":"levelo://app?vid=02422f8f-dbb2-4e78-a14c-14070c1e5aeb"},"vehicle_type_id":"4","last_reported":1720627754,"current_range_meters":23600,"station_id":"ce4bhah2rcd13ifvqei0","pricing_plan_id":"cebpf4jnsgd1na2vs0mg"},{"bike_id":"e6472375-33db-4736-b26f-2beca7931cbd","system_id":"levelo_inurba_marseille","lat":43.294314,"lon":5.397498,"is_reserved":false,"is_disabled":false,"rental_uris":{"android":"levelo://app?vid=e6472375-33db-4736-b26f-2beca7931cbd","ios":"levelo://app?vid=e6472375-33db-4736-b26f-2beca7931cbd"},"vehicle_type_id":"4","last_reported":1720627754,"current_range_meters":28000,"station_id":"ce4bh3h2rcd13ifvqdo0","pricing_plan_id":"cebpf4jnsgd1na2vs0mg"},{"bike_id":"9e42959c-2323-4062-8099-e971d460101f","system_id":"levelo_inurba_marseille","lat":43.2862,"lon":5.35109,"is_reserved":false,"is_disabled":false,"rental_uris":{"android":"levelo://app?vid=9e42959c-2323-4062-8099-e971d460101f","ios":"levelo://app?vid=9e42959c-2323-4062-8099-e971d460101f"},"vehicle_type_id":"4","last_reported":1720627754,"current_range_meters":3600,"station_id":"ce4bhch2rcd13ifvqeug","pricing_plan_id":"cebpf4jnsgd1na2vs0mg"},{"bike_id":"cfdc16eb-8615-47e9-bf53-5072085b7a4a","system_id":"levelo_inurba_marseille","lat":43.285856,"lon":5.350771,"is_reserved":false,"is_disabled":false,"rental_uris":{"android":"levelo://app?vid=cfdc16eb-8615-47e9-bf53-5072085b7a4a","ios":"levelo://app?vid=cfdc16eb-8615-47e9-bf53-5072085b7a4a"},"vehicle_type_id":"4","last_reported":1720627754,"current_range_meters":28400,"station_id":"ce4bhch2rcd13ifvqeug","pricing_plan_id":"cebpf4jnsgd1na2vs0mg"},{"bike_id":"3decf641-3a34-44af-aac1-a83f5b57338d","system_id":"levelo_inurba_marseille","lat":43.2862,"lon":5.35108,"is_reserved":false,"is_disabled":false,"rental_uris":{"android":"levelo://app?vid=3decf641-3a34-44af-aac1-a83f5b57338d","ios":"levelo://app?vid=3decf641-3a34-44af-aac1-a83f5b57338d"},"vehicle_type_id":"4","last_reported":1720627754,"current_range_meters":18000,"station_id":"ce4bhch2rcd13ifvqeug","pricing_plan_id":"cebpf4jnsgd1na2vs0mg"},{"bike_id":"50c4c553-197d-4087-8abb-90219cbf0244","system_id":"levelo_inurba_marseille","lat":43.28618,"lon":5.35111,"is_reserved":false,"is_disabled":false,"rental_uris":{"android":"levelo://app?vid=50c4c553-197d-4087-8abb-90219cbf0244","ios":"levelo://app?vid=50c4c553-197d-4087-8abb-90219cbf0244"},"vehicle_type_id":"4","last_reported":1720627754,"current_range_meters":31200,"station_id":"ce4bhch2rcd13ifvqeug","pricing_plan_id":"cebpf4jnsgd1na2vs0mg"},{"bike_id":"33b74aca-ab04-417d-8ad0-4fd4e00c8ea4","system_id":"levelo_inurba_marseille","lat":43.286196,"lon":5.351056,"is_reserved":false,"is_disabled":false,"rental_uris":{"android":"levelo://app?vid=33b74aca-ab04-417d-8ad0-4fd4e00c8ea4","ios":"levelo://app?vid=33b74aca-ab04-417d-8ad0-4fd4e00c8ea4"},"vehicle_type_id":"4","last_reported":1720627754,"current_range_meters":18000,"station_id":"ce4bhch2rcd13ifvqeug","pricing_plan_id":"cebpf4jnsgd1na2vs0mg"},{"bike_id":"2b375b9d-d5a8-4d6e-8b2c-bcd500665a18","system_id":"levelo_inurba_marseille","lat":43.28619,"lon":5.35104,"is_reserved":false,"is_disabled":false,"rental_uris":{"android":"levelo://app?vid=2b375b9d-d5a8-4d6e-8b2c-bcd500665a18","ios":"levelo://app?vid=2b375b9d-d5a8-4d6e-8b2c-bcd500665a18"},"vehicle_type_id":"4","last_reported":1720627754,"current_range_meters":0,"station_id":"ce4bhch2rcd13ifvqeug","pricing_plan_id":"cebpf4jnsgd1na2vs0mg"},{"bike_id":"ed678577-b506-4276-a27a-ed9ec0f95462","system_id":"levelo_inurba_marseille","lat":43.28616,"lon":5.35113,"is_reserved":false,"is_disabled":false,"rental_uris":{"android":"levelo://app?vid=ed678577-b506-4276-a27a-ed9ec0f95462","ios":"levelo://app?vid=ed678577-b506-4276-a27a-ed9ec0f95462"},"vehicle_type_id":"4","last_reported":1720627754,"current_range_meters":0,"station_id":"ce4bhch2rcd13ifvqeug","pricing_plan_id":"cebpf4jnsgd1na2vs0mg"},{"bike_id":"028d2665-d097-40c8-83d6-618b42cbb4ed","system_id":"levelo_inurba_marseille","lat":43.28617,"lon":5.35109,"is_reserved":false,"is_disabled":false,"rental_uris":{"android":"levelo://app?vid=028d2665-d097-40c8-83d6-618b42cbb4ed","ios":"levelo://app?vid=028d2665-d097-40c8-83d6-618b42cbb4ed"},"vehicle_type_id":"4","last_reported":1720627754,"current_range_meters":16000,"station_id":"ce4bhch2rcd13ifvqeug","pricing_plan_id":"cebpf4jnsgd1na2vs0mg"},{"bike_id":"d9935dd7-7866-4589-b3db-9f49417644a8","system_id":"levelo_inurba_marseille","lat":43.28616,"lon":5.35111,"is_reserved":false,"is_disabled":false,"rental_uris":{"android":"levelo://app?vid=d9935dd7-7866-4589-b3db-9f49417644a8","ios":"levelo://app?vid=d9935dd7-7866-4589-b3db-9f49417644a8"},"vehicle_type_id":"4","last_reported":1720627754,"current_range_meters":31200,"station_id":"ce4bhch2rcd13ifvqeug","pricing_plan_id":"cebpf4jnsgd1na2vs0mg"},{"bike_id":"23761f91-bc77-483d-9ed9-f652ff2624b7","system_id":"levelo_inurba_marseille","lat":43.285856,"lon":5.350771,"is_reserved":false,"is_disabled":false,"rental_uris":{"android":"levelo://app?vid=23761f91-bc77-483d-9ed9-f652ff2624b7","ios":"levelo://app?vid=23761f91-bc77-483d-9ed9-f652ff2624b7"},"vehicle_type_id":"4","last_reported":1720627754,"current_range_meters":28800,"station_id":"ce4bhch2rcd13ifvqeug","pricing_plan_id":"cebpf4jnsgd1na2vs0mg"},{"bike_id":"3ac62e30-4cef-458d-b106-5b33923e20fe","system_id":"levelo_inurba_marseille","lat":43.28617,"lon":5.35106,"is_reserved":false,"is_disabled":false,"rental_uris":{"android":"levelo://app?vid=3ac62e30-4cef-458d-b106-5b33923e20fe","ios":"levelo://app?vid=3ac62e30-4cef-458d-b106-5b33923e20fe"},"vehicle_type_id":"4","last_reported":1720627754,"current_range_meters":5200,"station_id":"ce4bhch2rcd13ifvqeug","pricing_plan_id":"cebpf4jnsgd1na2vs0mg"},{"bike_id":"61495b69-6822-454b-ad5c-b84d5c76dc54","system_id":"levelo_inurba_marseille","lat":43.28617,"lon":5.35106,"is_reserved":false,"is_disabled":false,"rental_uris":{"android":"levelo://app?vid=61495b69-6822-454b-ad5c-b84d5c76dc54","ios":"levelo://app?vid=61495b69-6822-454b-ad5c-b84d5c76dc54"},"vehicle_type_id":"4","last_reported":1720627754,"current_range_meters":9200,"station_id":"ce4bhch2rcd13ifvqeug","pricing_plan_id":"cebpf4jnsgd1na2vs0mg"},{"bike_id":"9e4387fe-e7b4-46dd-a65b-315e7402cb90","system_id":"levelo_inurba_marseille","lat":43.28616,"lon":5.35109,"is_reserved":false,"is_disabled":false,"rental_uris":{"android":"levelo://app?vid=9e4387fe-e7b4-46dd-a65b-315e7402cb90","ios":"levelo://app?vid=9e4387fe-e7b4-46dd-a65b-315e7402cb90"},"vehicle_type_id":"4","last_reported":1720627754,"current_range_meters":13600,"station_id":"ce4bhch2rcd13ifvqeug","pricing_plan_id":"cebpf4jnsgd1na2vs0mg"},{"bike_id":"2ba2296f-4ad3-478f-9b27-f20b2ac3945c","system_id":"levelo_inurba_marseille","lat":43.28616,"lon":5.35109,"is_reserved":false,"is_disabled":false,"rental_uris":{"android":"levelo://app?vid=2ba2296f-4ad3-478f-9b27-f20b2ac3945c","ios":"levelo://app?vid=2ba2296f-4ad3-478f-9b27-f20b2ac3945c"},"vehicle_type_id":"4","last_reported":1720627754,"current_range_meters":14000,"station_id":"ce4bhch2rcd13ifvqeug","pricing_plan_id":"cebpf4jnsgd1na2vs0mg"},{"bike_id":"4d4d3911-0b90-4afd-b4bf-406000c55e6a","system_id":"levelo_inurba_marseille","lat":43.28617,"lon":5.35105,"is_reserved":false,"is_disabled":false,"rental_uris":{"android":"levelo://app?vid=4d4d3911-0b90-4afd-b4bf-406000c55e6a","ios":"levelo://app?vid=4d4d3911-0b90-4afd-b4bf-406000c55e6a"},"vehicle_type_id":"4","last_reported":1720627754,"current_range_meters":22000,"station_id":"ce4bhch2rcd13ifvqeug","pricing_plan_id":"cebpf4jnsgd1na2vs0mg"},{"bike_id":"3d6427dd-ea9b-49d8-ab92-918fca496006","system_id":"levelo_inurba_marseille","lat":43.28615,"lon":5.3511,"is_reserved":false,"is_disabled":false,"rental_uris":{"android":"levelo://app?vid=3d6427dd-ea9b-49d8-ab92-918fca496006","ios":"levelo://app?vid=3d6427dd-ea9b-49d8-ab92-918fca496006"},"vehicle_type_id":"4","last_reported":1720627754,"current_range_meters":13200,"station_id":"ce4bhch2rcd13ifvqeug","pricing_plan_id":"cebpf4jnsgd1na2vs0mg"},{"bike_id":"0886bb1a-5977-4618-9411-29d9fa5570df","system_id":"levelo_inurba_marseille","lat":43.28615,"lon":5.3511,"is_reserved":false,"is_disabled":false,"rental_uris":{"android":"levelo://app?vid=0886bb1a-5977-4618-9411-29d9fa5570df","ios":"levelo://app?vid=0886bb1a-5977-4618-9411-29d9fa5570df"},"vehicle_type_id":"4","last_reported":1720627754,"current_range_meters":22000,"station_id":"ce4bhch2rcd13ifvqeug","pricing_plan_id":"cebpf4jnsgd1na2vs0mg"},{"bike_id":"fb89b981-659e-4e15-94aa-c338a31caa78","system_id":"levelo_inurba_marseille","lat":43.285856,"lon":5.350771,"is_reserved":false,"is_disabled":false,"rental_uris":{"android":"levelo://app?vid=fb89b981-659e-4e15-94aa-c338a31caa78","ios":"levelo://app?vid=fb89b981-659e-4e15-94aa-c338a31caa78"},"vehicle_type_id":"4","last_reported":1720627754,"current_range_meters":20800,"station_id":"ce4bhch2rcd13ifvqeug","pricing_plan_id":"cebpf4jnsgd1na2vs0mg"},{"bike_id":"bbce382d-4434-4acf-b07b-1ef9efa3d461","system_id":"levelo_inurba_marseille","lat":43.28614,"lon":5.35112,"is_reserved":false,"is_disabled":false,"rental_uris":{"android":"levelo://app?vid=bbce382d-4434-4acf-b07b-1ef9efa3d461","ios":"levelo://app?vid=bbce382d-4434-4acf-b07b-1ef9efa3d461"},"vehicle_type_id":"4","last_reported":1720627754,"current_range_meters":5200,"station_id":"ce4bhch2rcd13ifvqeug","pricing_plan_id":"cebpf4jnsgd1na2vs0mg"},{"bike_id":"227fda7e-ec6f-4dd5-8ebc-78c17f69c94c","system_id":"levelo_inurba_marseille","lat":43.28616,"lon":5.35105,"is_reserved":false,"is_disabled":false,"rental_uris":{"android":"levelo://app?vid=227fda7e-ec6f-4dd5-8ebc-78c17f69c94c","ios":"levelo://app?vid=227fda7e-ec6f-4dd5-8ebc-78c17f69c94c"},"vehicle_type_id":"4","last_reported":1720627754,"current_range_meters":24800,"station_id":"ce4bhch2rcd13ifvqeug","pricing_plan_id":"cebpf4jnsgd1na2vs0mg"},{"bike_id":"8133ca7d-de7d-4ca6-97e4-1a9a2c2d6318","system_id":"levelo_inurba_marseille","lat":43.285848,"lon":5.350787,"is_reserved":false,"is_disabled":false,"rental_uris":{"android":"levelo://app?vid=8133ca7d-de7d-4ca6-97e4-1a9a2c2d6318","ios":"levelo://app?vid=8133ca7d-de7d-4ca6-97e4-1a9a2c2d6318"},"vehicle_type_id":"4","last_reported":1720627754,"current_range_meters":19200,"station_id":"ce4bhch2rcd13ifvqeug","pricing_plan_id":"cebpf4jnsgd1na2vs0mg"},{"bike_id":"4b55d265-da06-4d68-8738-42dff83cef42","system_id":"levelo_inurba_marseille","lat":43.28614,"lon":5.35109,"is_reserved":false,"is_disabled":false,"rental_uris":{"android":"levelo://app?vid=4b55d265-da06-4d68-8738-42dff83cef42","ios":"levelo://app?vid=4b55d265-da06-4d68-8738-42dff83cef42"},"vehicle_type_id":"4","last_reported":1720627754,"current_range_meters":10800,"station_id":"ce4bhch2rcd13ifvqeug","pricing_plan_id":"cebpf4jnsgd1na2vs0mg"},{"bike_id":"3dd33773-6c3b-4b90-857a-4c57615e8107","system_id":"levelo_inurba_marseille","lat":43.28616,"lon":5.35102,"is_reserved":false,"is_disabled":false,"rental_uris":{"android":"levelo://app?vid=3dd33773-6c3b-4b90-857a-4c57615e8107","ios":"levelo://app?vid=3dd33773-6c3b-4b90-857a-4c57615e8107"},"vehicle_type_id":"4","last_reported":1720627754,"current_range_meters":26000,"station_id":"ce4bhch2rcd13ifvqeug","pricing_plan_id":"cebpf4jnsgd1na2vs0mg"},{"bike_id":"b1e3e0cf-f016-4029-aadc-968c0d0578fc","system_id":"levelo_inurba_marseille","lat":43.285848,"lon":5.350787,"is_reserved":false,"is_disabled":false,"rental_uris":{"android":"levelo://app?vid=b1e3e0cf-f016-4029-aadc-968c0d0578fc","ios":"levelo://app?vid=b1e3e0cf-f016-4029-aadc-968c0d0578fc"},"vehicle_type_id":"4","last_reported":1720627754,"current_range_meters":30400,"station_id":"ce4bhch2rcd13ifvqeug","pricing_plan_id":"cebpf4jnsgd1na2vs0mg"},{"bike_id":"510e900e-9563-4e22-9000-ec05de3c2ecc","system_id":"levelo_inurba_marseille","lat":43.28616,"lon":5.35101,"is_reserved":false,"is_disabled":false,"rental_uris":{"android":"levelo://app?vid=510e900e-9563-4e22-9000-ec05de3c2ecc","ios":"levelo://app?vid=510e900e-9563-4e22-9000-ec05de3c2ecc"},"vehicle_type_id":"4","last_reported":1720627754,"current_range_meters":18800,"station_id":"ce4bhch2rcd13ifvqeug","pricing_plan_id":"cebpf4jnsgd1na2vs0mg"},{"bike_id":"bcba933e-c74a-4e58-805a-b76bde5815cd","system_id":"levelo_inurba_marseille","lat":43.285848,"lon":5.350787,"is_reserved":false,"is_disabled":false,"rental_uris":{"android":"levelo://app?vid=bcba933e-c74a-4e58-805a-b76bde5815cd","ios":"levelo://app?vid=bcba933e-c74a-4e58-805a-b76bde5815cd"},"vehicle_type_id":"4","last_reported":1720627754,"current_range_meters":14800,"station_id":"ce4bhch2rcd13ifvqeug","pricing_plan_id":"cebpf4jnsgd1na2vs0mg"},{"bike_id":"71039486-d71d-40b5-b8d0-d0bcf1f51a1d","system_id":"levelo_inurba_marseille","lat":43.28615,"lon":5.35103,"is_reserved":false,"is_disabled":false,"rental_uris":{"android":"levelo://app?vid=71039486-d71d-40b5-b8d0-d0bcf1f51a1d","ios":"levelo://app?vid=71039486-d71d-40b5-b8d0-d0bcf1f51a1d"},"vehicle_type_id":"4","last_reported":1720627754,"current_range_meters":16000,"station_id":"ce4bhch2rcd13ifvqeug","pricing_plan_id":"cebpf4jnsgd1na2vs0mg"},{"bike_id":"4d4aebba-b411-4120-b0a6-d3ddc035c8b6","system_id":"levelo_inurba_marseille","lat":43.28616,"lon":5.35096,"is_reserved":false,"is_disabled":false,"rental_uris":{"android":"levelo://app?vid=4d4aebba-b411-4120-b0a6-d3ddc035c8b6","ios":"levelo://app?vid=4d4aebba-b411-4120-b0a6-d3ddc035c8b6"},"vehicle_type_id":"4","last_reported":1720627754,"current_range_meters":31200,"station_id":"ce4bhch2rcd13ifvqeug","pricing_plan_id":"cebpf4jnsgd1na2vs0mg"},{"bike_id":"a87e9d9d-4770-493f-9346-d1f836f57706","system_id":"levelo_inurba_marseille","lat":43.285856,"lon":5.350771,"is_reserved":false,"is_disabled":false,"rental_uris":{"android":"levelo://app?vid=a87e9d9d-4770-493f-9346-d1f836f57706","ios":"levelo://app?vid=a87e9d9d-4770-493f-9346-d1f836f57706"},"vehicle_type_id":"4","last_reported":1720627754,"current_range_meters":3200,"station_id":"ce4bhch2rcd13ifvqeug","pricing_plan_id":"cebpf4jnsgd1na2vs0mg"},{"bike_id":"93551547-c41a-4d2a-a211-fa05729ab293","system_id":"levelo_inurba_marseille","lat":43.28613,"lon":5.35102,"is_reserved":false,"is_disabled":false,"rental_uris":{"android":"levelo://app?vid=93551547-c41a-4d2a-a211-fa05729ab293","ios":"levelo://app?vid=93551547-c41a-4d2a-a211-fa05729ab293"},"vehicle_type_id":"4","last_reported":1720627754,"current_range_meters":15200,"station_id":"ce4bhch2rcd13ifvqeug","pricing_plan_id":"cebpf4jnsgd1na2vs0mg"},{"bike_id":"3b49e422-c2ec-4d7e-91da-a7f2bfbcb765","system_id":"levelo_inurba_marseille","lat":43.28612,"lon":5.35103,"is_reserved":false,"is_disabled":false,"rental_uris":{"android":"levelo://app?vid=3b49e422-c2ec-4d7e-91da-a7f2bfbcb765","ios":"levelo://app?vid=3b49e422-c2ec-4d7e-91da-a7f2bfbcb765"},"vehicle_type_id":"4","last_reported":1720627754,"current_range_meters":17600,"station_id":"ce4bhch2rcd13ifvqeug","pricing_plan_id":"cebpf4jnsgd1na2vs0mg"},{"bike_id":"bc1ee8ed-00bf-40e3-a98a-63045eb344de","system_id":"levelo_inurba_marseille","lat":43.28613,"lon":5.35097,"is_reserved":false,"is_disabled":false,"rental_uris":{"android":"levelo://app?vid=bc1ee8ed-00bf-40e3-a98a-63045eb344de","ios":"levelo://app?vid=bc1ee8ed-00bf-40e3-a98a-63045eb344de"},"vehicle_type_id":"4","last_reported":1720627754,"current_range_meters":2400,"station_id":"ce4bhch2rcd13ifvqeug","pricing_plan_id":"cebpf4jnsgd1na2vs0mg"},{"bike_id":"0a011e0d-d5b1-4e61-ae40-1abd1c0326eb","system_id":"levelo_inurba_marseille","lat":43.2861,"lon":5.35104,"is_reserved":false,"is_disabled":false,"rental_uris":{"android":"levelo://app?vid=0a011e0d-d5b1-4e61-ae40-1abd1c0326eb","ios":"levelo://app?vid=0a011e0d-d5b1-4e61-ae40-1abd1c0326eb"},"vehicle_type_id":"4","last_reported":1720627754,"current_range_meters":31200,"station_id":"ce4bhch2rcd13ifvqeug","pricing_plan_id":"cebpf4jnsgd1na2vs0mg"},{"bike_id":"95f1b3e7-f1d3-434f-a0b5-70e767a956ad","system_id":"levelo_inurba_marseille","lat":43.28607,"lon":5.35111,"is_reserved":false,"is_disabled":false,"rental_uris":{"android":"levelo://app?vid=95f1b3e7-f1d3-434f-a0b5-70e767a956ad","ios":"levelo://app?vid=95f1b3e7-f1d3-434f-a0b5-70e767a956ad"},"vehicle_type_id":"4","last_reported":1720627754,"current_range_meters":18400,"station_id":"ce4bhch2rcd13ifvqeug","pricing_plan_id":"cebpf4jnsgd1na2vs0mg"},{"bike_id":"d221ab95-7263-47e3-b723-ff0df104aae4","system_id":"levelo_inurba_marseille","lat":43.2861,"lon":5.35096,"is_reserved":false,"is_disabled":false,"rental_uris":{"android":"levelo://app?vid=d221ab95-7263-47e3-b723-ff0df104aae4","ios":"levelo://app?vid=d221ab95-7263-47e3-b723-ff0df104aae4"},"vehicle_type_id":"4","last_reported":1720627754,"current_range_meters":30800,"station_id":"ce4bhch2rcd13ifvqeug","pricing_plan_id":"cebpf4jnsgd1na2vs0mg"},{"bike_id":"fed48a51-58c2-4e4f-a822-d01070594043","system_id":"levelo_inurba_marseille","lat":43.283998,"lon":5.375062,"is_reserved":false,"is_disabled":false,"rental_uris":{"android":"levelo://app?vid=fed48a51-58c2-4e4f-a822-d01070594043","ios":"levelo://app?vid=fed48a51-58c2-4e4f-a822-d01070594043"},"vehicle_type_id":"4","last_reported":1720627754,"current_range_meters":3200,"station_id":"ce4bh412rcd13ifvqds0","pricing_plan_id":"cebpf4jnsgd1na2vs0mg"},{"bike_id":"82967faf-003d-40a8-84df-e02e5ab01833","system_id":"levelo_inurba_marseille","lat":43.295712,"lon":5.39962,"is_reserved":false,"is_disabled":false,"rental_uris":{"android":"levelo://app?vid=82967faf-003d-40a8-84df-e02e5ab01833","ios":"levelo://app?vid=82967faf-003d-40a8-84df-e02e5ab01833"},"vehicle_type_id":"4","last_reported":1720627754,"current_range_meters":0,"station_id":"ce4bh312rcd13ifvqdj0","pricing_plan_id":"cebpf4jnsgd1na2vs0mg"},{"bike_id":"98af6d1f-4049-4f0e-91a9-21dd46f41868","system_id":"levelo_inurba_marseille","lat":43.28408,"lon":5.37515,"is_reserved":false,"is_disabled":false,"rental_uris":{"android":"levelo://app?vid=98af6d1f-4049-4f0e-91a9-21dd46f41868","ios":"levelo://app?vid=98af6d1f-4049-4f0e-91a9-21dd46f41868"},"vehicle_type_id":"4","last_reported":1720627754,"current_range_meters":18000,"station_id":"ce4bh412rcd13ifvqds0","pricing_plan_id":"cebpf4jnsgd1na2vs0mg"},{"bike_id":"8281da45-851c-46c0-80a4-275b24d07482","system_id":"levelo_inurba_marseille","lat":43.286595,"lon":5.386795,"is_reserved":false,"is_disabled":false,"rental_uris":{"android":"levelo://app?vid=8281da45-851c-46c0-80a4-275b24d07482","ios":"levelo://app?vid=8281da45-851c-46c0-80a4-275b24d07482"},"vehicle_type_id":"4","last_reported":1720627754,"current_range_meters":0,"station_id":"ce4bh492rcd13ifvqdug","pricing_plan_id":"cebpf4jnsgd1na2vs0mg"},{"bike_id":"7e4f2dc1-a740-4319-91e0-90fba4ec1699","system_id":"levelo_inurba_marseille","lat":43.337168,"lon":5.391825,"is_reserved":false,"is_disabled":false,"rental_uris":{"android":"levelo://app?vid=7e4f2dc1-a740-4319-91e0-90fba4ec1699","ios":"levelo://app?vid=7e4f2dc1-a740-4319-91e0-90fba4ec1699"},"vehicle_type_id":"4","last_reported":1720627754,"current_range_meters":6000,"station_id":"ce4bhr92rcd13ifvqhsg","pricing_plan_id":"cebpf4jnsgd1na2vs0mg"},{"bike_id":"3d884595-35ce-456e-ab11-e24eca7b0d6d","system_id":"levelo_inurba_marseille","lat":43.284793,"lon":5.384119,"is_reserved":false,"is_disabled":false,"rental_uris":{"android":"levelo://app?vid=3d884595-35ce-456e-ab11-e24eca7b0d6d","ios":"levelo://app?vid=3d884595-35ce-456e-ab11-e24eca7b0d6d"},"vehicle_type_id":"4","last_reported":1720627754,"current_range_meters":27600,"station_id":"ce4bh512rcd13ifvqe3g","pricing_plan_id":"cebpf4jnsgd1na2vs0mg"},{"bike_id":"6c245a2a-0bbe-4c21-84cc-02a1165c90a4","system_id":"levelo_inurba_marseille","lat":43.29795,"lon":5.404086,"is_reserved":false,"is_disabled":false,"rental_uris":{"android":"levelo://app?vid=6c245a2a-0bbe-4c21-84cc-02a1165c90a4","ios":"levelo://app?vid=6c245a2a-0bbe-4c21-84cc-02a1165c90a4"},"vehicle_type_id":"4","last_reported":1720627754,"current_range_meters":22400,"station_id":"ce4bh112rcd13ifvqd90","pricing_plan_id":"cebpf4jnsgd1na2vs0mg"},{"bike_id":"807353ec-2ff1-44a1-8d19-2125f4821c82","system_id":"levelo_inurba_marseille","lat":43.288497,"lon":5.393089,"is_reserved":false,"is_disabled":false,"rental_uris":{"android":"levelo://app?vid=807353ec-2ff1-44a1-8d19-2125f4821c82","ios":"levelo://app?vid=807353ec-2ff1-44a1-8d19-2125f4821c82"},"vehicle_type_id":"4","last_reported":1720627754,"current_range_meters":18000,"station_id":"ce4bh2p2rcd13ifvqdi0","pricing_plan_id":"cebpf4jnsgd1na2vs0mg"},{"bike_id":"af2ecb0b-1bf1-4266-a211-4bdf4e194488","system_id":"levelo_inurba_marseille","lat":43.317493,"lon":5.408933,"is_reserved":false,"is_disabled":false,"rental_uris":{"android":"levelo://app?vid=af2ecb0b-1bf1-4266-a211-4bdf4e194488","ios":"levelo://app?vid=af2ecb0b-1bf1-4266-a211-4bdf4e194488"},"vehicle_type_id":"4","last_reported":1720627754,"current_range_meters":31200,"station_id":"","pricing_plan_id":"cebpf4jnsgd1na2vs0mg"},{"bike_id":"9da78a6b-5a70-46ea-b5ef-aeed6ba60158","system_id":"levelo_inurba_marseille","lat":43.28434,"lon":5.34977,"is_reserved":false,"is_disabled":false,"rental_uris":{"android":"levelo://app?vid=9da78a6b-5a70-46ea-b5ef-aeed6ba60158","ios":"levelo://app?vid=9da78a6b-5a70-46ea-b5ef-aeed6ba60158"},"vehicle_type_id":"4","last_reported":1720627754,"current_range_meters":18000,"station_id":"ce4bhbh2rcd13ifvqepg","pricing_plan_id":"cebpf4jnsgd1na2vs0mg"},{"bike_id":"45994e98-7059-43be-81be-e1e8cff107d3","system_id":"levelo_inurba_marseille","lat":43.284214,"lon":5.349706,"is_reserved":false,"is_disabled":false,"rental_uris":{"android":"levelo://app?vid=45994e98-7059-43be-81be-e1e8cff107d3","ios":"levelo://app?vid=45994e98-7059-43be-81be-e1e8cff107d3"},"vehicle_type_id":"4","last_reported":1720627754,"current_range_meters":15200,"station_id":"ce4bhbh2rcd13ifvqepg","pricing_plan_id":"cebpf4jnsgd1na2vs0mg"},{"bike_id":"e6c46b94-1eba-4e1a-a7ae-4a2f7bc81e43","system_id":"levelo_inurba_marseille","lat":43.28427,"lon":5.3499,"is_reserved":false,"is_disabled":false,"rental_uris":{"android":"levelo://app?vid=e6c46b94-1eba-4e1a-a7ae-4a2f7bc81e43","ios":"levelo://app?vid=e6c46b94-1eba-4e1a-a7ae-4a2f7bc81e43"},"vehicle_type_id":"4","last_reported":1720627754,"current_range_meters":31200,"station_id":"ce4bhbh2rcd13ifvqepg","pricing_plan_id":"cebpf4jnsgd1na2vs0mg"},{"bike_id":"d5900dc6-91ae-4195-bb67-d69b48425020","system_id":"levelo_inurba_marseille","lat":43.284251,"lon":5.349959,"is_reserved":false,"is_disabled":false,"rental_uris":{"android":"levelo://app?vid=d5900dc6-91ae-4195-bb67-d69b48425020","ios":"levelo://app?vid=d5900dc6-91ae-4195-bb67-d69b48425020"},"vehicle_type_id":"4","last_reported":1720627754,"current_range_meters":15200,"station_id":"ce4bhbh2rcd13ifvqepg","pricing_plan_id":"cebpf4jnsgd1na2vs0mg"},{"bike_id":"a24631bb-3bfe-47e0-9dd9-2ee545aeea94","system_id":"levelo_inurba_marseille","lat":43.284263,"lon":5.349917,"is_reserved":false,"is_disabled":false,"rental_uris":{"android":"levelo://app?vid=a24631bb-3bfe-47e0-9dd9-2ee545aeea94","ios":"levelo://app?vid=a24631bb-3bfe-47e0-9dd9-2ee545aeea94"},"vehicle_type_id":"4","last_reported":1720627754,"current_range_meters":30400,"station_id":"ce4bhbh2rcd13ifvqepg","pricing_plan_id":"cebpf4jnsgd1na2vs0mg"},{"bike_id":"c66283db-d7e8-4417-8c72-1b8884a699d9","system_id":"levelo_inurba_marseille","lat":43.28425,"lon":5.34993,"is_reserved":false,"is_disabled":false,"rental_uris":{"android":"levelo://app?vid=c66283db-d7e8-4417-8c72-1b8884a699d9","ios":"levelo://app?vid=c66283db-d7e8-4417-8c72-1b8884a699d9"},"vehicle_type_id":"4","last_reported":1720627754,"current_range_meters":22400,"station_id":"ce4bhbh2rcd13ifvqepg","pricing_plan_id":"cebpf4jnsgd1na2vs0mg"},{"bike_id":"4c649fef-0d92-44a6-bec3-551e1c4ec6be","system_id":"levelo_inurba_marseille","lat":43.284214,"lon":5.349706,"is_reserved":false,"is_disabled":false,"rental_uris":{"android":"levelo://app?vid=4c649fef-0d92-44a6-bec3-551e1c4ec6be","ios":"levelo://app?vid=4c649fef-0d92-44a6-bec3-551e1c4ec6be"},"vehicle_type_id":"4","last_reported":1720627754,"current_range_meters":31200,"station_id":"ce4bhbh2rcd13ifvqepg","pricing_plan_id":"cebpf4jnsgd1na2vs0mg"},{"bike_id":"ee6fa1b4-4939-49f6-b4eb-3e630986b1b2","system_id":"levelo_inurba_marseille","lat":43.28427,"lon":5.34985,"is_reserved":false,"is_disabled":false,"rental_uris":{"android":"levelo://app?vid=ee6fa1b4-4939-49f6-b4eb-3e630986b1b2","ios":"levelo://app?vid=ee6fa1b4-4939-49f6-b4eb-3e630986b1b2"},"vehicle_type_id":"4","last_reported":1720627754,"current_range_meters":20400,"station_id":"ce4bhbh2rcd13ifvqepg","pricing_plan_id":"cebpf4jnsgd1na2vs0mg"},{"bike_id":"f07e3473-1166-4464-8e75-5de4c3d088b6","system_id":"levelo_inurba_marseille","lat":43.284214,"lon":5.349706,"is_reserved":false,"is_disabled":false,"rental_uris":{"android":"levelo://app?vid=f07e3473-1166-4464-8e75-5de4c3d088b6","ios":"levelo://app?vid=f07e3473-1166-4464-8e75-5de4c3d088b6"},"vehicle_type_id":"4","last_reported":1720627754,"current_range_meters":26800,"station_id":"ce4bhbh2rcd13ifvqepg","pricing_plan_id":"cebpf4jnsgd1na2vs0mg"},{"bike_id":"58425e36-3797-4d42-bfe1-c720a14fdc77","system_id":"levelo_inurba_marseille","lat":43.284219,"lon":5.3497,"is_reserved":false,"is_disabled":false,"rental_uris":{"android":"levelo://app?vid=58425e36-3797-4d42-bfe1-c720a14fdc77","ios":"levelo://app?vid=58425e36-3797-4d42-bfe1-c720a14fdc77"},"vehicle_type_id":"4","last_reported":1720627754,"current_range_meters":31200,"station_id":"ce4bhbh2rcd13ifvqepg","pricing_plan_id":"cebpf4jnsgd1na2vs0mg"},{"bike_id":"5d44cc59-e949-40d5-8786-1335a69e3759","system_id":"levelo_inurba_marseille","lat":43.284259,"lon":5.349804,"is_reserved":false,"is_disabled":false,"rental_uris":{"android":"levelo://app?vid=5d44cc59-e949-40d5-8786-1335a69e3759","ios":"levelo://app?vid=5d44cc59-e949-40d5-8786-1335a69e3759"},"vehicle_type_id":"4","last_reported":1720627754,"current_range_meters":30800,"station_id":"ce4bhbh2rcd13ifvqepg","pricing_plan_id":"cebpf4jnsgd1na2vs0mg"},{"bike_id":"f74c812d-f0bb-479a-9259-e8cdfa9a5be9","system_id":"levelo_inurba_marseille","lat":43.284219,"lon":5.3497,"is_reserved":false,"is_disabled":false,"rental_uris":{"android":"levelo://app?vid=f74c812d-f0bb-479a-9259-e8cdfa9a5be9","ios":"levelo://app?vid=f74c812d-f0bb-479a-9259-e8cdfa9a5be9"},"vehicle_type_id":"4","last_reported":1720627754,"current_range_meters":23200,"station_id":"ce4bhbh2rcd13ifvqepg","pricing_plan_id":"cebpf4jnsgd1na2vs0mg"},{"bike_id":"4e5e1b7e-45f4-4ee6-9930-c74da8d2efdd","system_id":"levelo_inurba_marseille","lat":43.28422,"lon":5.34988,"is_reserved":false,"is_disabled":false,"rental_uris":{"android":"levelo://app?vid=4e5e1b7e-45f4-4ee6-9930-c74da8d2efdd","ios":"levelo://app?vid=4e5e1b7e-45f4-4ee6-9930-c74da8d2efdd"},"vehicle_type_id":"4","last_reported":1720627754,"current_range_meters":31200,"station_id":"ce4bhbh2rcd13ifvqepg","pricing_plan_id":"cebpf4jnsgd1na2vs0mg"},{"bike_id":"9d87edfa-868b-4849-9fe4-d276b9484292","system_id":"levelo_inurba_marseille","lat":43.2842,"lon":5.34994,"is_reserved":false,"is_disabled":false,"rental_uris":{"android":"levelo://app?vid=9d87edfa-868b-4849-9fe4-d276b9484292","ios":"levelo://app?vid=9d87edfa-868b-4849-9fe4-d276b9484292"},"vehicle_type_id":"4","last_reported":1720627754,"current_range_meters":23600,"station_id":"ce4bhbh2rcd13ifvqepg","pricing_plan_id":"cebpf4jnsgd1na2vs0mg"},{"bike_id":"04dad645-ce50-4c16-b127-19334630d62a","system_id":"levelo_inurba_marseille","lat":43.284214,"lon":5.349706,"is_reserved":false,"is_disabled":false,"rental_uris":{"android":"levelo://app?vid=04dad645-ce50-4c16-b127-19334630d62a","ios":"levelo://app?vid=04dad645-ce50-4c16-b127-19334630d62a"},"vehicle_type_id":"4","last_reported":1720627754,"current_range_meters":30000,"station_id":"ce4bhbh2rcd13ifvqepg","pricing_plan_id":"cebpf4jnsgd1na2vs0mg"},{"bike_id":"e52fd75d-4232-42da-a7c6-4dd20ee1fd24","system_id":"levelo_inurba_marseille","lat":43.2842,"lon":5.34992,"is_reserved":false,"is_disabled":false,"rental_uris":{"android":"levelo://app?vid=e52fd75d-4232-42da-a7c6-4dd20ee1fd24","ios":"levelo://app?vid=e52fd75d-4232-42da-a7c6-4dd20ee1fd24"},"vehicle_type_id":"4","last_reported":1720627754,"current_range_meters":19600,"station_id":"ce4bhbh2rcd13ifvqepg","pricing_plan_id":"cebpf4jnsgd1na2vs0mg"},{"bike_id":"3c2cb63f-74b6-4f7a-b7a1-54949d064ef4","system_id":"levelo_inurba_marseille","lat":43.284194,"lon":5.349918,"is_reserved":false,"is_disabled":false,"rental_uris":{"android":"levelo://app?vid=3c2cb63f-74b6-4f7a-b7a1-54949d064ef4","ios":"levelo://app?vid=3c2cb63f-74b6-4f7a-b7a1-54949d064ef4"},"vehicle_type_id":"4","last_reported":1720627754,"current_range_meters":21200,"station_id":"ce4bhbh2rcd13ifvqepg","pricing_plan_id":"cebpf4jnsgd1na2vs0mg"},{"bike_id":"06261994-3902-42d7-81ba-0883e33f5eea","system_id":"levelo_inurba_marseille","lat":43.28422,"lon":5.34982,"is_reserved":false,"is_disabled":false,"rental_uris":{"android":"levelo://app?vid=06261994-3902-42d7-81ba-0883e33f5eea","ios":"levelo://app?vid=06261994-3902-42d7-81ba-0883e33f5eea"},"vehicle_type_id":"4","last_reported":1720627754,"current_range_meters":8800,"station_id":"ce4bhbh2rcd13ifvqepg","pricing_plan_id":"cebpf4jnsgd1na2vs0mg"},{"bike_id":"d37dd71d-7d48-4a7d-8af3-c653fddc1878","system_id":"levelo_inurba_marseille","lat":43.284213,"lon":5.349812,"is_reserved":false,"is_disabled":false,"rental_uris":{"android":"levelo://app?vid=d37dd71d-7d48-4a7d-8af3-c653fddc1878","ios":"levelo://app?vid=d37dd71d-7d48-4a7d-8af3-c653fddc1878"},"vehicle_type_id":"4","last_reported":1720627754,"current_range_meters":26800,"station_id":"ce4bhbh2rcd13ifvqepg","pricing_plan_id":"cebpf4jnsgd1na2vs0mg"},{"bike_id":"8ef41767-80a3-476e-bb54-68cd416d7689","system_id":"levelo_inurba_marseille","lat":43.284219,"lon":5.3497,"is_reserved":false,"is_disabled":false,"rental_uris":{"android":"levelo://app?vid=8ef41767-80a3-476e-bb54-68cd416d7689","ios":"levelo://app?vid=8ef41767-80a3-476e-bb54-68cd416d7689"},"vehicle_type_id":"4","last_reported":1720627754,"current_range_meters":23200,"station_id":"ce4bhbh2rcd13ifvqepg","pricing_plan_id":"cebpf4jnsgd1na2vs0mg"},{"bike_id":"b33d8111-1138-4145-9f82-e2435023394f","system_id":"levelo_inurba_marseille","lat":43.28423,"lon":5.34974,"is_reserved":false,"is_disabled":false,"rental_uris":{"android":"levelo://app?vid=b33d8111-1138-4145-9f82-e2435023394f","ios":"levelo://app?vid=b33d8111-1138-4145-9f82-e2435023394f"},"vehicle_type_id":"4","last_reported":1720627754,"current_range_meters":28800,"station_id":"ce4bhbh2rcd13ifvqepg","pricing_plan_id":"cebpf4jnsgd1na2vs0mg"},{"bike_id":"8cf38db4-ff94-434d-8b5a-b377dcf4c9a1","system_id":"levelo_inurba_marseille","lat":43.284214,"lon":5.349706,"is_reserved":false,"is_disabled":false,"rental_uris":{"android":"levelo://app?vid=8cf38db4-ff94-434d-8b5a-b377dcf4c9a1","ios":"levelo://app?vid=8cf38db4-ff94-434d-8b5a-b377dcf4c9a1"},"vehicle_type_id":"4","last_reported":1720627754,"current_range_meters":28400,"station_id":"ce4bhbh2rcd13ifvqepg","pricing_plan_id":"cebpf4jnsgd1na2vs0mg"},{"bike_id":"e9017186-a11f-47e2-95c3-aba602331986","system_id":"levelo_inurba_marseille","lat":43.28418,"lon":5.34987,"is_reserved":false,"is_disabled":false,"rental_uris":{"android":"levelo://app?vid=e9017186-a11f-47e2-95c3-aba602331986","ios":"levelo://app?vid=e9017186-a11f-47e2-95c3-aba602331986"},"vehicle_type_id":"4","last_reported":1720627754,"current_range_meters":16000,"station_id":"ce4bhbh2rcd13ifvqepg","pricing_plan_id":"cebpf4jnsgd1na2vs0mg"},{"bike_id":"64c83263-3325-4f9e-a6ab-704c203c740e","system_id":"levelo_inurba_marseille","lat":43.284179,"lon":5.349838,"is_reserved":false,"is_disabled":false,"rental_uris":{"android":"levelo://app?vid=64c83263-3325-4f9e-a6ab-704c203c740e","ios":"levelo://app?vid=64c83263-3325-4f9e-a6ab-704c203c740e"},"vehicle_type_id":"4","last_reported":1720627754,"current_range_meters":26000,"station_id":"ce4bhbh2rcd13ifvqepg","pricing_plan_id":"cebpf4jnsgd1na2vs0mg"},{"bike_id":"abb3c03b-c753-4585-81ce-5b537e1ed8de","system_id":"levelo_inurba_marseille","lat":43.284179,"lon":5.349832,"is_reserved":false,"is_disabled":false,"rental_uris":{"android":"levelo://app?vid=abb3c03b-c753-4585-81ce-5b537e1ed8de","ios":"levelo://app?vid=abb3c03b-c753-4585-81ce-5b537e1ed8de"},"vehicle_type_id":"4","last_reported":1720627754,"current_range_meters":22800,"station_id":"ce4bhbh2rcd13ifvqepg","pricing_plan_id":"cebpf4jnsgd1na2vs0mg"},{"bike_id":"69e18902-73c8-4a0f-82a2-f006ded70a1f","system_id":"levelo_inurba_marseille","lat":43.284114,"lon":5.35003,"is_reserved":false,"is_disabled":false,"rental_uris":{"android":"levelo://app?vid=69e18902-73c8-4a0f-82a2-f006ded70a1f","ios":"levelo://app?vid=69e18902-73c8-4a0f-82a2-f006ded70a1f"},"vehicle_type_id":"4","last_reported":1720627754,"current_range_meters":9600,"station_id":"ce4bhbh2rcd13ifvqepg","pricing_plan_id":"cebpf4jnsgd1na2vs0mg"},{"bike_id":"d9fb3f13-9b84-4dfc-b413-e200b6fe0ca9","system_id":"levelo_inurba_marseille","lat":43.28418,"lon":5.34981,"is_reserved":false,"is_disabled":false,"rental_uris":{"android":"levelo://app?vid=d9fb3f13-9b84-4dfc-b413-e200b6fe0ca9","ios":"levelo://app?vid=d9fb3f13-9b84-4dfc-b413-e200b6fe0ca9"},"vehicle_type_id":"4","last_reported":1720627754,"current_range_meters":8800,"station_id":"ce4bhbh2rcd13ifvqepg","pricing_plan_id":"cebpf4jnsgd1na2vs0mg"},{"bike_id":"6ee91654-9e9a-4e54-8e87-6e2bf95146b6","system_id":"levelo_inurba_marseille","lat":43.28419,"lon":5.34977,"is_reserved":false,"is_disabled":false,"rental_uris":{"android":"levelo://app?vid=6ee91654-9e9a-4e54-8e87-6e2bf95146b6","ios":"levelo://app?vid=6ee91654-9e9a-4e54-8e87-6e2bf95146b6"},"vehicle_type_id":"4","last_reported":1720627754,"current_range_meters":22400,"station_id":"ce4bhbh2rcd13ifvqepg","pricing_plan_id":"cebpf4jnsgd1na2vs0mg"},{"bike_id":"c8572620-d452-4f33-b608-398cb54a2a25","system_id":"levelo_inurba_marseille","lat":43.28416,"lon":5.34986,"is_reserved":false,"is_disabled":false,"rental_uris":{"android":"levelo://app?vid=c8572620-d452-4f33-b608-398cb54a2a25","ios":"levelo://app?vid=c8572620-d452-4f33-b608-398cb54a2a25"},"vehicle_type_id":"4","last_reported":1720627754,"current_range_meters":8000,"station_id":"ce4bhbh2rcd13ifvqepg","pricing_plan_id":"cebpf4jnsgd1na2vs0mg"},{"bike_id":"bf0fbce3-32d2-4220-b76d-442dfd8e67a6","system_id":"levelo_inurba_marseille","lat":43.28416,"lon":5.34986,"is_reserved":false,"is_disabled":false,"rental_uris":{"android":"levelo://app?vid=bf0fbce3-32d2-4220-b76d-442dfd8e67a6","ios":"levelo://app?vid=bf0fbce3-32d2-4220-b76d-442dfd8e67a6"},"vehicle_type_id":"4","last_reported":1720627754,"current_range_meters":31200,"station_id":"ce4bhbh2rcd13ifvqepg","pricing_plan_id":"cebpf4jnsgd1na2vs0mg"},{"bike_id":"e0258181-d5fc-4826-8493-b101c67ceb9a","system_id":"levelo_inurba_marseille","lat":43.28416,"lon":5.34986,"is_reserved":false,"is_disabled":false,"rental_uris":{"android":"levelo://app?vid=e0258181-d5fc-4826-8493-b101c67ceb9a","ios":"levelo://app?vid=e0258181-d5fc-4826-8493-b101c67ceb9a"},"vehicle_type_id":"4","last_reported":1720627754,"current_range_meters":12000,"station_id":"ce4bhbh2rcd13ifvqepg","pricing_plan_id":"cebpf4jnsgd1na2vs0mg"},{"bike_id":"68d4c17b-3bbb-4c4c-a4dd-6615c2741956","system_id":"levelo_inurba_marseille","lat":43.28418,"lon":5.34979,"is_reserved":false,"is_disabled":false,"rental_uris":{"android":"levelo://app?vid=68d4c17b-3bbb-4c4c-a4dd-6615c2741956","ios":"levelo://app?vid=68d4c17b-3bbb-4c4c-a4dd-6615c2741956"},"vehicle_type_id":"4","last_reported":1720627754,"current_range_meters":27600,"station_id":"ce4bhbh2rcd13ifvqepg","pricing_plan_id":"cebpf4jnsgd1na2vs0mg"},{"bike_id":"7eeba599-9691-42bb-bdaa-4a6166961e22","system_id":"levelo_inurba_marseille","lat":43.28417,"lon":5.3498,"is_reserved":false,"is_disabled":false,"rental_uris":{"android":"levelo://app?vid=7eeba599-9691-42bb-bdaa-4a6166961e22","ios":"levelo://app?vid=7eeba599-9691-42bb-bdaa-4a6166961e22"},"vehicle_type_id":"4","last_reported":1720627754,"current_range_meters":12000,"station_id":"ce4bhbh2rcd13ifvqepg","pricing_plan_id":"cebpf4jnsgd1na2vs0mg"},{"bike_id":"04f947fc-301f-4abe-8330-062aa4ae8830","system_id":"levelo_inurba_marseille","lat":43.284175,"lon":5.34977,"is_reserved":false,"is_disabled":false,"rental_uris":{"android":"levelo://app?vid=04f947fc-301f-4abe-8330-062aa4ae8830","ios":"levelo://app?vid=04f947fc-301f-4abe-8330-062aa4ae8830"},"vehicle_type_id":"4","last_reported":1720627754,"current_range_meters":4800,"station_id":"ce4bhbh2rcd13ifvqepg","pricing_plan_id":"cebpf4jnsgd1na2vs0mg"},{"bike_id":"85ad4d62-8949-4180-99f1-a7595269e6e9","system_id":"levelo_inurba_marseille","lat":43.28413,"lon":5.3499,"is_reserved":false,"is_disabled":false,"rental_uris":{"android":"levelo://app?vid=85ad4d62-8949-4180-99f1-a7595269e6e9","ios":"levelo://app?vid=85ad4d62-8949-4180-99f1-a7595269e6e9"},"vehicle_type_id":"4","last_reported":1720627754,"current_range_meters":19600,"station_id":"","pricing_plan_id":"cebpf4jnsgd1na2vs0mg"},{"bike_id":"3f83dd58-fc30-462f-833f-a8a656d69b9b","system_id":"levelo_inurba_marseille","lat":43.28418,"lon":5.34974,"is_reserved":false,"is_disabled":false,"rental_uris":{"android":"levelo://app?vid=3f83dd58-fc30-462f-833f-a8a656d69b9b","ios":"levelo://app?vid=3f83dd58-fc30-462f-833f-a8a656d69b9b"},"vehicle_type_id":"4","last_reported":1720627754,"current_range_meters":12000,"station_id":"ce4bhbh2rcd13ifvqepg","pricing_plan_id":"cebpf4jnsgd1na2vs0mg"},{"bike_id":"fcf3a61d-435b-4836-bb0e-9ffe77bb4cdf","system_id":"levelo_inurba_marseille","lat":43.28417,"lon":5.34977,"is_reserved":false,"is_disabled":false,"rental_uris":{"android":"levelo://app?vid=fcf3a61d-435b-4836-bb0e-9ffe77bb4cdf","ios":"levelo://app?vid=fcf3a61d-435b-4836-bb0e-9ffe77bb4cdf"},"vehicle_type_id":"4","last_reported":1720627754,"current_range_meters":17600,"station_id":"ce4bhbh2rcd13ifvqepg","pricing_plan_id":"cebpf4jnsgd1na2vs0mg"},{"bike_id":"6b04f740-44d6-448f-9e62-cc03a2b51f82","system_id":"levelo_inurba_marseille","lat":43.284119,"lon":5.349923,"is_reserved":false,"is_disabled":false,"rental_uris":{"android":"levelo://app?vid=6b04f740-44d6-448f-9e62-cc03a2b51f82","ios":"levelo://app?vid=6b04f740-44d6-448f-9e62-cc03a2b51f82"},"vehicle_type_id":"4","last_reported":1720627754,"current_range_meters":16000,"station_id":"ce4bhbh2rcd13ifvqepg","pricing_plan_id":"cebpf4jnsgd1na2vs0mg"},{"bike_id":"46e5026d-e519-4e97-961d-b65af7f3d3a1","system_id":"levelo_inurba_marseille","lat":43.284143,"lon":5.349833,"is_reserved":false,"is_disabled":false,"rental_uris":{"android":"levelo://app?vid=46e5026d-e519-4e97-961d-b65af7f3d3a1","ios":"levelo://app?vid=46e5026d-e519-4e97-961d-b65af7f3d3a1"},"vehicle_type_id":"4","last_reported":1720627754,"current_range_meters":22800,"station_id":"ce4bhbh2rcd13ifvqepg","pricing_plan_id":"cebpf4jnsgd1na2vs0mg"},{"bike_id":"8b73e48c-aceb-4519-acfb-0b68b32719ef","system_id":"levelo_inurba_marseille","lat":43.284132,"lon":5.349867,"is_reserved":false,"is_disabled":false,"rental_uris":{"android":"levelo://app?vid=8b73e48c-aceb-4519-acfb-0b68b32719ef","ios":"levelo://app?vid=8b73e48c-aceb-4519-acfb-0b68b32719ef"},"vehicle_type_id":"4","last_reported":1720627754,"current_range_meters":31200,"station_id":"ce4bhbh2rcd13ifvqepg","pricing_plan_id":"cebpf4jnsgd1na2vs0mg"},{"bike_id":"7727051d-ae42-467b-bedf-a76fdfd705bd","system_id":"levelo_inurba_marseille","lat":43.28418,"lon":5.34969,"is_reserved":false,"is_disabled":false,"rental_uris":{"android":"levelo://app?vid=7727051d-ae42-467b-bedf-a76fdfd705bd","ios":"levelo://app?vid=7727051d-ae42-467b-bedf-a76fdfd705bd"},"vehicle_type_id":"4","last_reported":1720627754,"current_range_meters":0,"station_id":"ce4bhbh2rcd13ifvqepg","pricing_plan_id":"cebpf4jnsgd1na2vs0mg"},{"bike_id":"e295f4d3-74c2-4a4c-a569-6abf94d9c512","system_id":"levelo_inurba_marseille","lat":43.28413,"lon":5.34983,"is_reserved":false,"is_disabled":false,"rental_uris":{"android":"levelo://app?vid=e295f4d3-74c2-4a4c-a569-6abf94d9c512","ios":"levelo://app?vid=e295f4d3-74c2-4a4c-a569-6abf94d9c512"},"vehicle_type_id":"4","last_reported":1720627754,"current_range_meters":3600,"station_id":"ce4bhbh2rcd13ifvqepg","pricing_plan_id":"cebpf4jnsgd1na2vs0mg"},{"bike_id":"b8b71d55-8b1a-42be-948e-eb375905c885","system_id":"levelo_inurba_marseille","lat":43.28414,"lon":5.34979,"is_reserved":false,"is_disabled":false,"rental_uris":{"android":"levelo://app?vid=b8b71d55-8b1a-42be-948e-eb375905c885","ios":"levelo://app?vid=b8b71d55-8b1a-42be-948e-eb375905c885"},"vehicle_type_id":"4","last_reported":1720627754,"current_range_meters":31200,"station_id":"ce4bhbh2rcd13ifvqepg","pricing_plan_id":"cebpf4jnsgd1na2vs0mg"},{"bike_id":"238f920a-3208-4276-aeb2-d1d5fefcd4f1","system_id":"levelo_inurba_marseille","lat":43.28416,"lon":5.34971,"is_reserved":false,"is_disabled":false,"rental_uris":{"android":"levelo://app?vid=238f920a-3208-4276-aeb2-d1d5fefcd4f1","ios":"levelo://app?vid=238f920a-3208-4276-aeb2-d1d5fefcd4f1"},"vehicle_type_id":"4","last_reported":1720627754,"current_range_meters":16800,"station_id":"ce4bhbh2rcd13ifvqepg","pricing_plan_id":"cebpf4jnsgd1na2vs0mg"},{"bike_id":"a717d579-27ef-40a7-9f4a-a6946c34241e","system_id":"levelo_inurba_marseille","lat":43.28414,"lon":5.34977,"is_reserved":false,"is_disabled":false,"rental_uris":{"android":"levelo://app?vid=a717d579-27ef-40a7-9f4a-a6946c34241e","ios":"levelo://app?vid=a717d579-27ef-40a7-9f4a-a6946c34241e"},"vehicle_type_id":"4","last_reported":1720627754,"current_range_meters":3600,"station_id":"ce4bhbh2rcd13ifvqepg","pricing_plan_id":"cebpf4jnsgd1na2vs0mg"},{"bike_id":"ec279bd6-7e2b-4b64-85b6-fa27cfb473b5","system_id":"levelo_inurba_marseille","lat":43.28414,"lon":5.34976,"is_reserved":false,"is_disabled":false,"rental_uris":{"android":"levelo://app?vid=ec279bd6-7e2b-4b64-85b6-fa27cfb473b5","ios":"levelo://app?vid=ec279bd6-7e2b-4b64-85b6-fa27cfb473b5"},"vehicle_type_id":"4","last_reported":1720627754,"current_range_meters":20400,"station_id":"ce4bhbh2rcd13ifvqepg","pricing_plan_id":"cebpf4jnsgd1na2vs0mg"},