{"last_updated":1692122880,"ttl":30,"version":"2.2","data":{"bikes":[{"bike_id":"17fd764d-9ec1-46a2-a4cb-5bd979ff5847","system_id":"levelo_inurba_marseille","lat":43.309076,"lon":5.368465,"is_reserved":false,"is_disabled":false,"rental_uris":{"android":"levelo://app?vid=17fd764d-9ec1-46a2-a4cb-5bd979ff5847","ios":"levelo://app?vid=17fd764d-9ec1-46a2-a4cb-5bd979ff5847"},"vehicle_type_id":"4","last_reported":1692122880,"current_range_meters":0,"station_id":"ce4bgn92rcd13ifvqbvg","pricing_plan_id":"free"},{"bike_id":"37b8d7f7-106e-444e-ba36-edd9e21ef77b","system_id":"levelo_inurba_marseille","lat":43.314811,"lon":5.373104,"is_reserved":false,"is_disabled":false,"rental_uris":{"android":"levelo://app?vid=37b8d7f7-106e-444e-ba36-edd9e21ef77b","ios":"levelo://app?vid=37b8d7f7-106e-444e-ba36-edd9e21ef77b"},"vehicle_type_id":"4","last_reported":1692122880,"current_range_meters":10400,"station_id":"ce4bgt12rcd13ifvqcd0","pricing_plan_id":"free"},{"bike_id":"3d17acaa-4f4d-42ef-bf63-97285e2691ea","system_id":"levelo_inurba_marseille","lat":43.314811,"lon":5.373103,"is_reserved":false,"is_disabled":false,"rental_uris":{"android":"levelo://app?vid=3d17acaa-4f4d-42ef-bf63-97285e2691ea","ios":"levelo://app?vid=3d17acaa-4f4d-42ef-bf63-97285e2691ea"},"vehicle_type_id":"4","last_reported":1692122880,"current_range_meters":14000,"station_id":"ce4bgt12rcd13ifvqcd0","pricing_plan_id":"free"},{"bike_id":"254dd928-bdec-464d-85f2-a0dc274a5b6e","system_id":"levelo_inurba_marseille","lat":43.314811,"lon":5.373103,"is_reserved":false,"is_disabled":false,"rental_uris":{"android":"levelo://app?vid=254dd928-bdec-464d-85f2-a0dc274a5b6e","ios":"levelo://app?vid=254dd928-bdec-464d-85f2-a0dc274a5b6e"},"vehicle_type_id":"4","last_reported":1692122880,"current_range_meters":25200,"station_id":"ce4bgt12rcd13ifvqcd0","pricing_plan_id":"free"},{"bike_id":"e5c09ca2-6122-44a6-b983-6d59a79079f3","system_id":"levelo_inurba_marseille","lat":43.314811,"lon":5.373103,"is_reserved":false,"is_disabled":false,"rental_uris":{"android":"levelo://app?vid=e5c09ca2-6122-44a6-b983-6d59a79079f3","ios":"levelo://app?vid=e5c09ca2-6122-44a6-b983-6d59a79079f3"},"vehicle_type_id":"4","last_reported":1692122880,"current_range_meters":20800,"station_id":"ce4bgt12rcd13ifvqcd0","pricing_plan_id":"free"},{"bike_id":"60102b56-7cf6-469a-a6bb-7b1157bf5c06","system_id":"levelo_inurba_marseille","lat":43.30841,"lon":5.37033,"is_reserved":false,"is_disabled":false,"rental_uris":{"android":"levelo://app?vid=60102b56-7cf6-469a-a6bb-7b1157bf5c06","ios":"levelo://app?vid=60102b56-7cf6-469a-a6bb-7b1157bf5c06"},"vehicle_type_id":"4","last_reported":1692122880,"current_range_meters":31200,"station_id":"","pricing_plan_id":"free"},{"bike_id":"a0ff6ad8-c2a1-4ab9-b1a0-8964c9179dac","system_id":"levelo_inurba_marseille","lat":43.314811,"lon":5.373103,"is_reserved":false,"is_disabled":false,"rental_uris":{"android":"levelo://app?vid=a0ff6ad8-c2a1-4ab9-b1a0-8964c9179dac","ios":"levelo://app?vid=a0ff6ad8-c2a1-4ab9-b1a0-8964c9179dac"},"vehicle_type_id":"4","last_reported":1692122880,"current_range_meters":10800,"station_id":"ce4bgt12rcd13ifvqcd0","pricing_plan_id":"free"},{"bike_id":"fde78008-f2c3-4b75-8e69-f72b7d499bc3","system_id":"levelo_inurba_marseille","lat":43.314811,"lon":5.373103,"is_reserved":false,"is_disabled":false,"rental_uris":{"android":"levelo://app?vid=fde78008-f2c3-4b75-8e69-f72b7d499bc3","ios":"levelo://app?vid=fde78008-f2c3-4b75-8e69-f72b7d499bc3"},"vehicle_type_id":"4","last_reported":1692122880,"current_range_meters":3600,"station_id":"ce4bgt12rcd13ifvqcd0","pricing_plan_id":"free"},{"bike_id":"270019c4-ceed-43c5-9567-6e65410eee08","system_id":"levelo_inurba_marseille","lat":43.31496,"lon":5.37311,"is_reserved":false,"is_disabled":false,"rental_uris":{"android":"levelo://app?vid=270019c4-ceed-43c5-9567-6e65410eee08","ios":"levelo://app?vid=270019c4-ceed-43c5-9567-6e65410eee08"},"vehicle_type_id":"4","last_reported":1692122880,"current_range_meters":0,"station_id":"ce4bgt12rcd13ifvqcd0","pricing_plan_id":"free"},{"bike_id":"5a74db36-09fa-4b95-add9-746aff2858ef","system_id":"levelo_inurba_marseille","lat":43.309034,"lon":5.371783,"is_reserved":false,"is_disabled":false,"rental_uris":{"android":"levelo://app?vid=5a74db36-09fa-4b95-add9-746aff2858ef","ios":"levelo://app?vid=5a74db36-09fa-4b95-add9-746aff2858ef"},"vehicle_type_id":"4","last_reported":1692122880,"current_range_meters":12800,"station_id":"ce4bguh2rcd13ifvqckg","pricing_plan_id":"free"},{"bike_id":"9fbe6e18-d192-44c2-98b5-cafb68b41aa4","system_id":"levelo_inurba_marseille","lat":43.30533,"lon":5.36549,"is_reserved":false,"is_disabled":false,"rental_uris":{"android":"levelo://app?vid=9fbe6e18-d192-44c2-98b5-cafb68b41aa4","ios":"levelo://app?vid=9fbe6e18-d192-44c2-98b5-cafb68b41aa4"},"vehicle_type_id":"4","last_reported":1692122880,"current_range_meters":28800,"station_id":"ce4bgs12rcd13ifvqcag","pricing_plan_id":"free"},{"bike_id":"386ed8e3-b71e-4f68-86af-202c5b76503e","system_id":"levelo_inurba_marseille","lat":43.305989,"lon":5.37225,"is_reserved":false,"is_disabled":false,"rental_uris":{"android":"levelo://app?vid=386ed8e3-b71e-4f68-86af-202c5b76503e","ios":"levelo://app?vid=386ed8e3-b71e-4f68-86af-202c5b76503e"},"vehicle_type_id":"4","last_reported":1692122880,"current_range_meters":30400,"station_id":"ce4bgqh2rcd13ifvqc4g","pricing_plan_id":"free"},{"bike_id":"3c6e2d36-4b30-421b-90e6-04392e26023a","system_id":"levelo_inurba_marseille","lat":43.317075,"lon":5.377367,"is_reserved":false,"is_disabled":false,"rental_uris":{"android":"levelo://app?vid=3c6e2d36-4b30-421b-90e6-04392e26023a","ios":"levelo://app?vid=3c6e2d36-4b30-421b-90e6-04392e26023a"},"vehicle_type_id":"4","last_reported":1692122880,"current_range_meters":19600,"station_id":"ce4bgth2rcd13ifvqch0","pricing_plan_id":"free"},{"bike_id":"ccde4fab-a619-4b85-80d1-631ae22c1186","system_id":"levelo_inurba_marseille","lat":43.317075,"lon":5.377367,"is_reserved":false,"is_disabled":false,"rental_uris":{"android":"levelo://app?vid=ccde4fab-a619-4b85-80d1-631ae22c1186","ios":"levelo://app?vid=ccde4fab-a619-4b85-80d1-631ae22c1186"},"vehicle_type_id":"4","last_reported":1692122880,"current_range_meters":30800,"station_id":"ce4bgth2rcd13ifvqch0","pricing_plan_id":"free"},{"bike_id":"fe14487d-f2ac-4e13-902c-481721309875","system_id":"levelo_inurba_marseille","lat":43.315293,"lon":5.380349,"is_reserved":false,"is_disabled":false,"rental_uris":{"android":"levelo://app?vid=fe14487d-f2ac-4e13-902c-481721309875","ios":"levelo://app?vid=fe14487d-f2ac-4e13-902c-481721309875"},"vehicle_type_id":"4","last_reported":1692122880,"current_range_meters":30400,"station_id":"ce4bhsp2rcd13ifvqi50","pricing_plan_id":"free"},{"bike_id":"70bcb166-a106-466c-aa79-c06381803c3c","system_id":"levelo_inurba_marseille","lat":43.30801,"lon":5.38163,"is_reserved":false,"is_disabled":false,"rental_uris":{"android":"levelo://app?vid=70bcb166-a106-466c-aa79-c06381803c3c","ios":"levelo://app?vid=70bcb166-a106-466c-aa79-c06381803c3c"},"vehicle_type_id":"4","last_reported":1692122880,"current_range_meters":22400,"station_id":"ce4bgt12rcd13ifvqce0","pricing_plan_id":"free"},{"bike_id":"a62587a0-808b-4991-93ff-ae61f12d6e0e","system_id":"levelo_inurba_marseille","lat":43.30145,"lon":5.3741,"is_reserved":false,"is_disabled":false,"rental_uris":{"android":"levelo://app?vid=a62587a0-808b-4991-93ff-ae61f12d6e0e","ios":"levelo://app?vid=a62587a0-808b-4991-93ff-ae61f12d6e0e"},"vehicle_type_id":"4","last_reported":1692122880,"current_range_meters":0,"station_id":"ce4bgs92rcd13ifvqcc0","pricing_plan_id":"free"},{"bike_id":"10ace6ff-ef76-4b4d-a04f-2ec52dd81c45","system_id":"levelo_inurba_marseille","lat":43.31987,"lon":5.38138,"is_reserved":false,"is_disabled":false,"rental_uris":{"android":"levelo://app?vid=10ace6ff-ef76-4b4d-a04f-2ec52dd81c45","ios":"levelo://app?vid=10ace6ff-ef76-4b4d-a04f-2ec52dd81c45"},"vehicle_type_id":"4","last_reported":1692122880,"current_range_meters":18800,"station_id":"ce4bhr12rcd13ifvqhpg","pricing_plan_id":"free"},{"bike_id":"78abbae6-fb70-438b-804f-1c5ad07d176a","system_id":"levelo_inurba_marseille","lat":43.31989,"lon":5.3814,"is_reserved":false,"is_disabled":false,"rental_uris":{"android":"levelo://app?vid=78abbae6-fb70-438b-804f-1c5ad07d176a","ios":"levelo://app?vid=78abbae6-fb70-438b-804f-1c5ad07d176a"},"vehicle_type_id":"4","last_reported":1692122880,"current_range_meters":7200,"station_id":"ce4bhr12rcd13ifvqhpg","pricing_plan_id":"free"},{"bike_id":"8257b402-9e5d-4065-83c8-88f3934663dd","system_id":"levelo_inurba_marseille","lat":43.319935,"lon":5.381699,"is_reserved":false,"is_disabled":false,"rental_uris":{"android":"levelo://app?vid=8257b402-9e5d-4065-83c8-88f3934663dd","ios":"levelo://app?vid=8257b402-9e5d-4065-83c8-88f3934663dd"},"vehicle_type_id":"4","last_reported":1692122880,"current_range_meters":14800,"station_id":"ce4bhr12rcd13ifvqhpg","pricing_plan_id":"free"},{"bike_id":"c17c70c2-0b4d-4d13-87b6-0d4475584bb3","system_id":"levelo_inurba_marseille","lat":43.31991,"lon":5.38143,"is_reserved":false,"is_disabled":false,"rental_uris":{"android":"levelo://app?vid=c17c70c2-0b4d-4d13-87b6-0d4475584bb3","ios":"levelo://app?vid=c17c70c2-0b4d-4d13-87b6-0d4475584bb3"},"vehicle_type_id":"4","last_reported":1692122880,"current_range_meters":9200,"station_id":"ce4bhr12rcd13ifvqhpg","pricing_plan_id":"free"},{"bike_id":"f942aea9-b905-4405-929b-d7f7b203ebc0","system_id":"levelo_inurba_marseille","lat":43.319935,"lon":5.381699,"is_reserved":false,"is_disabled":false,"rental_uris":{"android":"levelo://app?vid=f942aea9-b905-4405-929b-d7f7b203ebc0","ios":"levelo://app?vid=f942aea9-b905-4405-929b-d7f7b203ebc0"},"vehicle_type_id":"4","last_reported":1692122880,"current_range_meters":14000,"station_id":"ce4bhr12rcd13ifvqhpg","pricing_plan_id":"free"},{"bike_id":"6f8ef17a-7233-480b-bf5c-0670e618535f","system_id":"levelo_inurba_marseille","lat":43.319935,"lon":5.381699,"is_reserved":false,"is_disabled":false,"rental_uris":{"android":"levelo://app?vid=6f8ef17a-7233-480b-bf5c-0670e618535f","ios":"levelo://app?vid=6f8ef17a-7233-480b-bf5c-0670e618535f"},"vehicle_type_id":"4","last_reported":1692122880,"current_range_meters":21200,"station_id":"ce4bhr12rcd13ifvqhpg","pricing_plan_id":"free"},{"bike_id":"6a62258e-28a8-4c03-b468-e7ee8977190a","system_id":"levelo_inurba_marseille","lat":43.319935,"lon":5.381699,"is_reserved":false,"is_disabled":false,"rental_uris":{"android":"levelo://app?vid=6a62258e-28a8-4c03-b468-e7ee8977190a","ios":"levelo://app?vid=6a62258e-28a8-4c03-b468-e7ee8977190a"},"vehicle_type_id":"4","last_reported":1692122880,"current_range_meters":28000,"station_id":"ce4bhr12rcd13ifvqhpg","pricing_plan_id":"free"},{"bike_id":"e9366c55-b9c0-4313-a23f-8dd2f4ed563c","system_id":"levelo_inurba_marseille","lat":43.29978,"lon":5.37185,"is_reserved":false,"is_disabled":false,"rental_uris":{"android":"levelo://app?vid=e9366c55-b9c0-4313-a23f-8dd2f4ed563c","ios":"levelo://app?vid=e9366c55-b9c0-4313-a23f-8dd2f4ed563c"},"vehicle_type_id":"4","last_reported":1692122880,"current_range_meters":0,"station_id":"ce4bgr92rcd13ifvqc7g","pricing_plan_id":"free"},{"bike_id":"deb09ac2-357f-4d3e-a218-8f076b9c1356","system_id":"levelo_inurba_marseille","lat":43.313877,"lon":5.385625,"is_reserved":false,"is_disabled":false,"rental_uris":{"android":"levelo://app?vid=deb09ac2-357f-4d3e-a218-8f076b9c1356","ios":"levelo://app?vid=deb09ac2-357f-4d3e-a218-8f076b9c1356"},"vehicle_type_id":"4","last_reported":1692122880,"current_range_meters":18000,"station_id":"","pricing_plan_id":"free"},{"bike_id":"d19ec836-ef20-4f26-883b-580da3007484","system_id":"levelo_inurba_marseille","lat":43.298433,"lon":5.362774,"is_reserved":false,"is_disabled":false,"rental_uris":{"android":"levelo://app?vid=d19ec836-ef20-4f26-883b-580da3007484","ios":"levelo://app?vid=d19ec836-ef20-4f26-883b-580da3007484"},"vehicle_type_id":"4","last_reported":1692122880,"current_range_meters":11200,"station_id":"ce4bgpp2rcd13ifvqc3g","pricing_plan_id":"free"},{"bike_id":"82c27e45-254e-4c85-8a1d-581f822f6b83","system_id":"levelo_inurba_marseille","lat":43.298433,"lon":5.362774,"is_reserved":false,"is_disabled":false,"rental_uris":{"android":"levelo://app?vid=82c27e45-254e-4c85-8a1d-581f822f6b83","ios":"levelo://app?vid=82c27e45-254e-4c85-8a1d-581f822f6b83"},"vehicle_type_id":"4","last_reported":1692122880,"current_range_meters":5600,"station_id":"ce4bgpp2rcd13ifvqc3g","pricing_plan_id":"free"},{"bike_id":"268ddd47-0b88-40a2-b56e-429fa2c2b272","system_id":"levelo_inurba_marseille","lat":43.298433,"lon":5.362774,"is_reserved":false,"is_disabled":false,"rental_uris":{"android":"levelo://app?vid=268ddd47-0b88-40a2-b56e-429fa2c2b272","ios":"levelo://app?vid=268ddd47-0b88-40a2-b56e-429fa2c2b272"},"vehicle_type_id":"4","last_reported":1692122880,"current_range_meters":10000,"station_id":"ce4bgpp2rcd13ifvqc3g","pricing_plan_id":"free"},{"bike_id":"03c1387b-537a-46e7-979a-afa0e84e3a11","system_id":"levelo_inurba_marseille","lat":43.311722,"lon":5.387247,"is_reserved":false,"is_disabled":false,"rental_uris":{"android":"levelo://app?vid=03c1387b-537a-46e7-979a-afa0e84e3a11","ios":"levelo://app?vid=03c1387b-537a-46e7-979a-afa0e84e3a11"},"vehicle_type_id":"4","last_reported":1692122880,"current_range_meters":0,"station_id":"ce4bgv12rcd13ifvqcp0","pricing_plan_id":"free"},{"bike_id":"72bd70a1-a7ed-4f44-8c47-40459e9dcf7b","system_id":"levelo_inurba_marseille","lat":43.29779,"lon":5.37108,"is_reserved":false,"is_disabled":false,"rental_uris":{"android":"levelo://app?vid=72bd70a1-a7ed-4f44-8c47-40459e9dcf7b","ios":"levelo://app?vid=72bd70a1-a7ed-4f44-8c47-40459e9dcf7b"},"vehicle_type_id":"4","last_reported":1692122880,"current_range_meters":0,"station_id":"ce4bgop2rcd13ifvqc1g","pricing_plan_id":"free"},{"bike_id":"a626abe5-6b9e-4219-ab4f-f8e62618053c","system_id":"levelo_inurba_marseille","lat":43.297774,"lon":5.370875,"is_reserved":false,"is_disabled":false,"rental_uris":{"android":"levelo://app?vid=a626abe5-6b9e-4219-ab4f-f8e62618053c","ios":"levelo://app?vid=a626abe5-6b9e-4219-ab4f-f8e62618053c"},"vehicle_type_id":"4","last_reported":1692122880,"current_range_meters":17600,"station_id":"ce4bgop2rcd13ifvqc1g","pricing_plan_id":"free"},{"bike_id":"be2dbf05-e75a-434c-8474-c4fc485123e4","system_id":"levelo_inurba_marseille","lat":43.32287,"lon":5.38265,"is_reserved":false,"is_disabled":false,"rental_uris":{"android":"levelo://app?vid=be2dbf05-e75a-434c-8474-c4fc485123e4","ios":"levelo://app?vid=be2dbf05-e75a-434c-8474-c4fc485123e4"},"vehicle_type_id":"4","last_reported":1692122880,"current_range_meters":9600,"station_id":"ce4bhr12rcd13ifvqhqg","pricing_plan_id":"free"},{"bike_id":"913ad8d8-ff4a-402b-845d-993d8ad47139","system_id":"levelo_inurba_marseille","lat":43.3229,"lon":5.38262,"is_reserved":false,"is_disabled":false,"rental_uris":{"android":"levelo://app?vid=913ad8d8-ff4a-402b-845d-993d8ad47139","ios":"levelo://app?vid=913ad8d8-ff4a-402b-845d-993d8ad47139"},"vehicle_type_id":"4","last_reported":1692122880,"current_range_meters":4800,"station_id":"ce4bhr12rcd13ifvqhqg","pricing_plan_id":"free"},{"bike_id":"0920391e-69e3-4df2-b622-a24af4e50927","system_id":"levelo_inurba_marseille","lat":43.3229,"lon":5.38263,"is_reserved":false,"is_disabled":false,"rental_uris":{"android":"levelo://app?vid=0920391e-69e3-4df2-b622-a24af4e50927","ios":"levelo://app?vid=0920391e-69e3-4df2-b622-a24af4e50927"},"vehicle_type_id":"4","last_reported":1692122880,"current_range_meters":11200,"station_id":"ce4bhr12rcd13ifvqhqg","pricing_plan_id":"free"},{"bike_id":"c6b539db-5b03-411d-8927-985ab9f2f17e","system_id":"levelo_inurba_marseille","lat":43.32291,"lon":5.38263,"is_reserved":false,"is_disabled":false,"rental_uris":{"android":"levelo://app?vid=c6b539db-5b03-411d-8927-985ab9f2f17e","ios":"levelo://app?vid=c6b539db-5b03-411d-8927-985ab9f2f17e"},"vehicle_type_id":"4","last_reported":1692122880,"current_range_meters":5600,"station_id":"ce4bhr12rcd13ifvqhqg","pricing_plan_id":"free"},{"bike_id":"40d61921-eefb-499e-ac11-2e37aa404bf1","system_id":"levelo_inurba_marseille","lat":43.32288,"lon":5.38267,"is_reserved":false,"is_disabled":false,"rental_uris":{"android":"levelo://app?vid=40d61921-eefb-499e-ac11-2e37aa404bf1","ios":"levelo://app?vid=40d61921-eefb-499e-ac11-2e37aa404bf1"},"vehicle_type_id":"4","last_reported":1692122880,"current_range_meters":9200,"station_id":"ce4bhr12rcd13ifvqhqg","pricing_plan_id":"free"},{"bike_id":"bded37d9-fa3d-4a53-adec-d8a907c4aaf0","system_id":"levelo_inurba_marseille","lat":43.32291,"lon":5.38267,"is_reserved":false,"is_disabled":false,"rental_uris":{"android":"levelo://app?vid=bded37d9-fa3d-4a53-adec-d8a907c4aaf0","ios":"levelo://app?vid=bded37d9-fa3d-4a53-adec-d8a907c4aaf0"},"vehicle_type_id":"4","last_reported":1692122880,"current_range_meters":29600,"station_id":"ce4bhr12rcd13ifvqhqg","pricing_plan_id":"free"},{"bike_id":"1bf667cf-3514-4a07-b0cc-6779ab8ce747","system_id":"levelo_inurba_marseille","lat":43.32293,"lon":5.38265,"is_reserved":false,"is_disabled":false,"rental_uris":{"android":"levelo://app?vid=1bf667cf-3514-4a07-b0cc-6779ab8ce747","ios":"levelo://app?vid=1bf667cf-3514-4a07-b0cc-6779ab8ce747"},"vehicle_type_id":"4","last_reported":1692122880,"current_range_meters":20000,"station_id":"ce4bhr12rcd13ifvqhqg","pricing_plan_id":"free"},{"bike_id":"63c7f395-d84e-4403-8b6b-575626818765","system_id":"levelo_inurba_marseille","lat":43.32291,"lon":5.38273,"is_reserved":false,"is_disabled":false,"rental_uris":{"android":"levelo://app?vid=63c7f395-d84e-4403-8b6b-575626818765","ios":"levelo://app?vid=63c7f395-d84e-4403-8b6b-575626818765"},"vehicle_type_id":"4","last_reported":1692122880,"current_range_meters":20800,"station_id":"ce4bhr12rcd13ifvqhqg","pricing_plan_id":"free"},{"bike_id":"4ed96fad-2e51-49a2-879d-e8c05ef80263","system_id":"levelo_inurba_marseille","lat":43.32823,"lon":5.36683,"is_reserved":false,"is_disabled":false,"rental_uris":{"android":"levelo://app?vid=4ed96fad-2e51-49a2-879d-e8c05ef80263","ios":"levelo://app?vid=4ed96fad-2e51-49a2-879d-e8c05ef80263"},"vehicle_type_id":"4","last_reported":1692122880,"current_range_meters":19600,"station_id":"ce4bhs92rcd13ifvqi0g","pricing_plan_id":"free"},{"bike_id":"d17cc417-6930-4c10-9030-de59f5591ed9","system_id":"levelo_inurba_marseille","lat":43.328371,"lon":5.366909,"is_reserved":false,"is_disabled":false,"rental_uris":{"android":"levelo://app?vid=d17cc417-6930-4c10-9030-de59f5591ed9","ios":"levelo://app?vid=d17cc417-6930-4c10-9030-de59f5591ed9"},"vehicle_type_id":"4","last_reported":1692122880,"current_range_meters":29600,"station_id":"ce4bhs92rcd13ifvqi0g","pricing_plan_id":"free"},{"bike_id":"d2511d9c-66f0-4f3a-8e27-f68c39f7e2cf","system_id":"levelo_inurba_marseille","lat":43.328371,"lon":5.366909,"is_reserved":false,"is_disabled":false,"rental_uris":{"android":"levelo://app?vid=d2511d9c-66f0-4f3a-8e27-f68c39f7e2cf","ios":"levelo://app?vid=d2511d9c-66f0-4f3a-8e27-f68c39f7e2cf"},"vehicle_type_id":"4","last_reported":1692122880,"current_range_meters":14000,"station_id":"ce4bhs92rcd13ifvqi0g","pricing_plan_id":"free"},{"bike_id":"df80a436-77c5-45a5-bc80-336a70ffbd1b","system_id":"levelo_inurba_marseille","lat":43.328371,"lon":5.366909,"is_reserved":false,"is_disabled":false,"rental_uris":{"android":"levelo://app?vid=df80a436-77c5-45a5-bc80-336a70ffbd1b","ios":"levelo://app?vid=df80a436-77c5-45a5-bc80-336a70ffbd1b"},"vehicle_type_id":"4","last_reported":1692122880,"current_range_meters":20000,"station_id":"ce4bhs92rcd13ifvqi0g","pricing_plan_id":"free"},{"bike_id":"de942de4-c292-4b7f-997c-e01a1a96ff12","system_id":"levelo_inurba_marseille","lat":43.32826,"lon":5.36674,"is_reserved":false,"is_disabled":false,"rental_uris":{"android":"levelo://app?vid=de942de4-c292-4b7f-997c-e01a1a96ff12","ios":"levelo://app?vid=de942de4-c292-4b7f-997c-e01a1a96ff12"},"vehicle_type_id":"4","last_reported":1692122880,"current_range_meters":2000,"station_id":"ce4bhs92rcd13ifvqi0g","pricing_plan_id":"free"},{"bike_id":"1736c7ba-8528-4e9d-b0b7-74e427fcc3c4","system_id":"levelo_inurba_marseille","lat":43.32827,"lon":5.3668,"is_reserved":false,"is_disabled":false,"rental_uris":{"android":"levelo://app?vid=1736c7ba-8528-4e9d-b0b7-74e427fcc3c4","ios":"levelo://app?vid=1736c7ba-8528-4e9d-b0b7-74e427fcc3c4"},"vehicle_type_id":"4","last_reported":1692122880,"current_range_meters":14400,"station_id":"ce4bhs92rcd13ifvqi0g","pricing_plan_id":"free"},{"bike_id":"7a379839-87fc-4106-aec0-245d7b5a467b","system_id":"levelo_inurba_marseille","lat":43.32827,"lon":5.36671,"is_reserved":false,"is_disabled":false,"rental_uris":{"android":"levelo://app?vid=7a379839-87fc-4106-aec0-245d7b5a467b","ios":"levelo://app?vid=7a379839-87fc-4106-aec0-245d7b5a467b"},"vehicle_type_id":"4","last_reported":1692122880,"current_range_meters":18800,"station_id":"ce4bhs92rcd13ifvqi0g","pricing_plan_id":"free"},{"bike_id":"8aca01a0-cd88-4920-bc96-f5154bec60ef","system_id":"levelo_inurba_marseille","lat":43.328371,"lon":5.366909,"is_reserved":false,"is_disabled":false,"rental_uris":{"android":"levelo://app?vid=8aca01a0-cd88-4920-bc96-f5154bec60ef","ios":"levelo://app?vid=8aca01a0-cd88-4920-bc96-f5154bec60ef"},"vehicle_type_id":"4","last_reported":1692122880,"current_range_meters":30000,"station_id":"ce4bhs92rcd13ifvqi0g","pricing_plan_id":"free"},{"bike_id":"dd789220-e7b5-42c1-b9dc-dc4243148021","system_id":"levelo_inurba_marseille","lat":43.297163,"lon":5.365866,"is_reserved":false,"is_disabled":false,"rental_uris":{"android":"levelo://app?vid=dd789220-e7b5-42c1-b9dc-dc4243148021","ios":"levelo://app?vid=dd789220-e7b5-42c1-b9dc-dc4243148021"},"vehicle_type_id":"4","last_reported":1692122880,"current_range_meters":31200,"station_id":"ce4bgn12rcd13ifvqbt0","pricing_plan_id":"free"},{"bike_id":"0c16fd08-1d8d-44ab-8fd3-7ffb6e7e61a0","system_id":"levelo_inurba_marseille","lat":43.29623,"lon":5.37151,"is_reserved":false,"is_disabled":false,"rental_uris":{"android":"levelo://app?vid=0c16fd08-1d8d-44ab-8fd3-7ffb6e7e61a0","ios":"levelo://app?vid=0c16fd08-1d8d-44ab-8fd3-7ffb6e7e61a0"},"vehicle_type_id":"4","last_reported":1692122880,"current_range_meters":31200,"station_id":"","pricing_plan_id":"free"},{"bike_id":"d1750793-f9f7-45a8-bbff-907ca2ef1883","system_id":"levelo_inurba_marseille","lat":43.2962,"lon":5.37157,"is_reserved":false,"is_disabled":false,"rental_uris":{"android":"levelo://app?vid=d1750793-f9f7-45a8-bbff-907ca2ef1883","ios":"levelo://app?vid=d1750793-f9f7-45a8-bbff-907ca2ef1883"},"vehicle_type_id":"4","last_reported":1692122880,"current_range_meters":10800,"station_id":"","pricing_plan_id":"free"},{"bike_id":"125f387a-5767-4784-8478-14793be54a31","system_id":"levelo_inurba_marseille","lat":43.296921,"lon":5.376579,"is_reserved":false,"is_disabled":false,"rental_uris":{"android":"levelo://app?vid=125f387a-5767-4784-8478-14793be54a31","ios":"levelo://app?vid=125f387a-5767-4784-8478-14793be54a31"},"vehicle_type_id":"4","last_reported":1692122880,"current_range_meters":19600,"station_id":"ce4bgkh2rcd13ifvqbl0","pricing_plan_id":"free"},{"bike_id":"9a261cc3-ce32-459b-be51-ef0c0eebe8b1","system_id":"levelo_inurba_marseille","lat":43.299028,"lon":5.381509,"is_reserved":false,"is_disabled":false,"rental_uris":{"android":"levelo://app?vid=9a261cc3-ce32-459b-be51-ef0c0eebe8b1","ios":"levelo://app?vid=9a261cc3-ce32-459b-be51-ef0c0eebe8b1"},"vehicle_type_id":"4","last_reported":1692122880,"current_range_meters":13200,"station_id":"ce4bgj12rcd13ifvqbc0","pricing_plan_id":"free"},{"bike_id":"95193720-60c4-44fc-9146-4ec4e2547400","system_id":"levelo_inurba_marseille","lat":43.309589,"lon":5.390258,"is_reserved":false,"is_disabled":false,"rental_uris":{"android":"levelo://app?vid=95193720-60c4-44fc-9146-4ec4e2547400","ios":"levelo://app?vid=95193720-60c4-44fc-9146-4ec4e2547400"},"vehicle_type_id":"4","last_reported":1692122880,"current_range_meters":14800,"station_id":"ce4bgup2rcd13ifvqco0","pricing_plan_id":"free"},{"bike_id":"465e53f9-d3da-4ef2-8722-b00ed87e97a9","system_id":"levelo_inurba_marseille","lat":43.309589,"lon":5.390258,"is_reserved":false,"is_disabled":false,"rental_uris":{"android":"levelo://app?vid=465e53f9-d3da-4ef2-8722-b00ed87e97a9","ios":"levelo://app?vid=465e53f9-d3da-4ef2-8722-b00ed87e97a9"},"vehicle_type_id":"4","last_reported":1692122880,"current_range_meters":8800,"station_id":"ce4bgup2rcd13ifvqco0","pricing_plan_id":"free"},{"bike_id":"7133c9d0-914f-4b06-80ed-adcf81509490","system_id":"levelo_inurba_marseille","lat":43.317557,"lon":5.390173,"is_reserved":false,"is_disabled":false,"rental_uris":{"android":"levelo://app?vid=7133c9d0-914f-4b06-80ed-adcf81509490","ios":"levelo://app?vid=7133c9d0-914f-4b06-80ed-adcf81509490"},"vehicle_type_id":"4","last_reported":1692122880,"current_range_meters":12000,"station_id":"ce4bhqp2rcd13ifvqhng","pricing_plan_id":"free"},{"bike_id":"b0ead0c8-e150-4318-90ca-d5fc79e7c286","system_id":"levelo_inurba_marseille","lat":43.29801,"lon":5.38098,"is_reserved":false,"is_disabled":false,"rental_uris":{"android":"levelo://app?vid=b0ead0c8-e150-4318-90ca-d5fc79e7c286","ios":"levelo://app?vid=b0ead0c8-e150-4318-90ca-d5fc79e7c286"},"vehicle_type_id":"4","last_reported":1692122880,"current_range_meters":0,"station_id":"ce4bgip2rcd13ifvqbb0","pricing_plan_id":"free"},{"bike_id":"169a4507-df4a-4e8b-8df1-2147aaaccb34","system_id":"levelo_inurba_marseille","lat":43.298037,"lon":5.381066,"is_reserved":false,"is_disabled":false,"rental_uris":{"android":"levelo://app?vid=169a4507-df4a-4e8b-8df1-2147aaaccb34","ios":"levelo://app?vid=169a4507-df4a-4e8b-8df1-2147aaaccb34"},"vehicle_type_id":"4","last_reported":1692122880,"current_range_meters":12800,"station_id":"ce4bgip2rcd13ifvqbb0","pricing_plan_id":"free"},{"bike_id":"a4df99ce-0488-49dd-a888-94686f562e88","system_id":"levelo_inurba_marseille","lat":43.295748,"lon":5.37522,"is_reserved":false,"is_disabled":false,"rental_uris":{"android":"levelo://app?vid=a4df99ce-0488-49dd-a888-94686f562e88","ios":"levelo://app?vid=a4df99ce-0488-49dd-a888-94686f562e88"},"vehicle_type_id":"4","last_reported":1692122880,"current_range_meters":31200,"station_id":"ce4bgh92rcd13ifvqb50","pricing_plan_id":"free"},{"bike_id":"ee53c42d-80a7-4ba5-94f7-a86bfa710b37","system_id":"levelo_inurba_marseille","lat":43.29619,"lon":5.37685,"is_reserved":false,"is_disabled":false,"rental_uris":{"android":"levelo://app?vid=ee53c42d-80a7-4ba5-94f7-a86bfa710b37","ios":"levelo://app?vid=ee53c42d-80a7-4ba5-94f7-a86bfa710b37"},"vehicle_type_id":"4","last_reported":1692122880,"current_range_meters":22400,"station_id":"ce4bgi92rcd13ifvqb90","pricing_plan_id":"free"},{"bike_id":"21c261cb-1863-45e4-a7bd-673b7d6fb1a0","system_id":"levelo_inurba_marseille","lat":43.296263,"lon":5.377094,"is_reserved":false,"is_disabled":false,"rental_uris":{"android":"levelo://app?vid=21c261cb-1863-45e4-a7bd-673b7d6fb1a0","ios":"levelo://app?vid=21c261cb-1863-45e4-a7bd-673b7d6fb1a0"},"vehicle_type_id":"4","last_reported":1692122880,"current_range_meters":2000,"station_id":"ce4bgi92rcd13ifvqb90","pricing_plan_id":"free"},{"bike_id":"bb2a5b7c-debf-46d7-9ab7-cd262f3c6a66","system_id":"levelo_inurba_marseille","lat":43.299707,"lon":5.384859,"is_reserved":false,"is_disabled":false,"rental_uris":{"android":"levelo://app?vid=bb2a5b7c-debf-46d7-9ab7-cd262f3c6a66","ios":"levelo://app?vid=bb2a5b7c-debf-46d7-9ab7-cd262f3c6a66"},"vehicle_type_id":"4","last_reported":1692122880,"current_range_meters":17600,"station_id":"ce4bgj92rcd13ifvqbd0","pricing_plan_id":"free"},{"bike_id":"8ebe6e09-c3ed-4f31-85c8-65c0996a1099","system_id":"levelo_inurba_marseille","lat":43.299707,"lon":5.384859,"is_reserved":false,"is_disabled":false,"rental_uris":{"android":"levelo://app?vid=8ebe6e09-c3ed-4f31-85c8-65c0996a1099","ios":"levelo://app?vid=8ebe6e09-c3ed-4f31-85c8-65c0996a1099"},"vehicle_type_id":"4","last_reported":1692122880,"current_range_meters":4000,"station_id":"ce4bgj92rcd13ifvqbd0","pricing_plan_id":"free"},{"bike_id":"9b4ebc45-629d-4510-8dfe-fe9182398cd3","system_id":"levelo_inurba_marseille","lat":43.299717,"lon":5.384845,"is_reserved":false,"is_disabled":false,"rental_uris":{"android":"levelo://app?vid=9b4ebc45-629d-4510-8dfe-fe9182398cd3","ios":"levelo://app?vid=9b4ebc45-629d-4510-8dfe-fe9182398cd3"},"vehicle_type_id":"4","last_reported":1692122880,"current_range_meters":29600,"station_id":"ce4bgj92rcd13ifvqbd0","pricing_plan_id":"free"},{"bike_id":"d16da385-4bc5-49dd-b0f9-9e0ba84fe599","system_id":"levelo_inurba_marseille","lat":43.295279,"lon":5.375048,"is_reserved":false,"is_disabled":false,"rental_uris":{"android":"levelo://app?vid=d16da385-4bc5-49dd-b0f9-9e0ba84fe599","ios":"levelo://app?vid=d16da385-4bc5-49dd-b0f9-9e0ba84fe599"},"vehicle_type_id":"4","last_reported":1692122880,"current_range_meters":1200,"station_id":"ce4bgkp2rcd13ifvqbmg","pricing_plan_id":"free"},{"bike_id":"222c88d4-2a12-4531-aa15-17c9c7f8f23b","system_id":"levelo_inurba_marseille","lat":43.32367,"lon":5.38883,"is_reserved":false,"is_disabled":false,"rental_uris":{"android":"levelo://app?vid=222c88d4-2a12-4531-aa15-17c9c7f8f23b","ios":"levelo://app?vid=222c88d4-2a12-4531-aa15-17c9c7f8f23b"},"vehicle_type_id":"4","last_reported":1692122880,"current_range_meters":22000,"station_id":"ce4bhqp2rcd13ifvqhog","pricing_plan_id":"free"},{"bike_id":"546161cf-f595-4102-8f19-738985585260","system_id":"levelo_inurba_marseille","lat":43.29602,"lon":5.381084,"is_reserved":false,"is_disabled":false,"rental_uris":{"android":"levelo://app?vid=546161cf-f595-4102-8f19-738985585260","ios":"levelo://app?vid=546161cf-f595-4102-8f19-738985585260"},"vehicle_type_id":"4","last_reported":1692122880,"current_range_meters":18800,"station_id":"ce4bgl12rcd13ifvqbo0","pricing_plan_id":"free"},{"bike_id":"0635b4f0-d073-427a-8b71-76c1c559f9a6","system_id":"levelo_inurba_marseille","lat":43.29601,"lon":5.381084,"is_reserved":false,"is_disabled":false,"rental_uris":{"android":"levelo://app?vid=0635b4f0-d073-427a-8b71-76c1c559f9a6","ios":"levelo://app?vid=0635b4f0-d073-427a-8b71-76c1c559f9a6"},"vehicle_type_id":"4","last_reported":1692122880,"current_range_meters":4400,"station_id":"ce4bgl12rcd13ifvqbo0","pricing_plan_id":"free"},{"bike_id":"046e8e4e-5574-4636-8cd3-abcb70ccdcd7","system_id":"levelo_inurba_marseille","lat":43.29602,"lon":5.381084,"is_reserved":false,"is_disabled":false,"rental_uris":{"android":"levelo://app?vid=046e8e4e-5574-4636-8cd3-abcb70ccdcd7","ios":"levelo://app?vid=046e8e4e-5574-4636-8cd3-abcb70ccdcd7"},"vehicle_type_id":"4","last_reported":1692122880,"current_range_meters":19600,"station_id":"ce4bgl12rcd13ifvqbo0","pricing_plan_id":"free"},{"bike_id":"ee6bd6f0-5f34-4516-b5e0-42ec79a07c53","system_id":"levelo_inurba_marseille","lat":43.29602,"lon":5.381084,"is_reserved":false,"is_disabled":false,"rental_uris":{"android":"levelo://app?vid=ee6bd6f0-5f34-4516-b5e0-42ec79a07c53","ios":"levelo://app?vid=ee6bd6f0-5f34-4516-b5e0-42ec79a07c53"},"vehicle_type_id":"4","last_reported":1692122880,"current_range_meters":0,"station_id":"ce4bgl12rcd13ifvqbo0","pricing_plan_id":"free"},{"bike_id":"fc69ca84-0bf3-475b-945b-750d3ab01ab2","system_id":"levelo_inurba_marseille","lat":43.29275,"lon":5.36852,"is_reserved":false,"is_disabled":false,"rental_uris":{"android":"levelo://app?vid=fc69ca84-0bf3-475b-945b-750d3ab01ab2","ios":"levelo://app?vid=fc69ca84-0bf3-475b-945b-750d3ab01ab2"},"vehicle_type_id":"4","last_reported":1692122880,"current_range_meters":14000,"station_id":"","pricing_plan_id":"free"},{"bike_id":"4430a47b-d515-4254-86fc-6feed2009fa9","system_id":"levelo_inurba_marseille","lat":43.292749,"lon":5.368398,"is_reserved":false,"is_disabled":false,"rental_uris":{"android":"levelo://app?vid=4430a47b-d515-4254-86fc-6feed2009fa9","ios":"levelo://app?vid=4430a47b-d515-4254-86fc-6feed2009fa9"},"vehicle_type_id":"4","last_reported":1692122880,"current_range_meters":18800,"station_id":"ce4bhbp2rcd13ifvqesg","pricing_plan_id":"free"},{"bike_id":"dbe406a0-e31d-4174-932b-0d8d584d17c2","system_id":"levelo_inurba_marseille","lat":43.292749,"lon":5.368398,"is_reserved":false,"is_disabled":false,"rental_uris":{"android":"levelo://app?vid=dbe406a0-e31d-4174-932b-0d8d584d17c2","ios":"levelo://app?vid=dbe406a0-e31d-4174-932b-0d8d584d17c2"},"vehicle_type_id":"4","last_reported":1692122880,"current_range_meters":30800,"station_id":"ce4bhbp2rcd13ifvqesg","pricing_plan_id":"free"},{"bike_id":"142b79c5-23bd-46eb-8c70-daf95a3caf01","system_id":"levelo_inurba_marseille","lat":43.305994,"lon":5.393687,"is_reserved":false,"is_disabled":false,"rental_uris":{"android":"levelo://app?vid=142b79c5-23bd-46eb-8c70-daf95a3caf01","ios":"levelo://app?vid=142b79c5-23bd-46eb-8c70-daf95a3caf01"},"vehicle_type_id":"4","last_reported":1692122880,"current_range_meters":8000,"station_id":"ce4bh0p2rcd13ifvqd80","pricing_plan_id":"free"},{"bike_id":"ee5f7d23-2996-40eb-a14c-a251c13a1e58","system_id":"levelo_inurba_marseille","lat":43.293009,"lon":5.374584,"is_reserved":false,"is_disabled":false,"rental_uris":{"android":"levelo://app?vid=ee5f7d23-2996-40eb-a14c-a251c13a1e58","ios":"levelo://app?vid=ee5f7d23-2996-40eb-a14c-a251c13a1e58"},"vehicle_type_id":"4","last_reported":1692122880,"current_range_meters":2400,"station_id":"ce4bgi12rcd13ifvqb70","pricing_plan_id":"free"},{"bike_id":"caf56143-3832-4e10-a380-abf02b198650","system_id":"levelo_inurba_marseille","lat":43.305994,"lon":5.393687,"is_reserved":false,"is_disabled":false,"rental_uris":{"android":"levelo://app?vid=caf56143-3832-4e10-a380-abf02b198650","ios":"levelo://app?vid=caf56143-3832-4e10-a380-abf02b198650"},"vehicle_type_id":"4","last_reported":1692122880,"current_range_meters":10800,"station_id":"ce4bh0p2rcd13ifvqd80","pricing_plan_id":"free"},{"bike_id":"eb0a9dab-b3ef-405b-ae10-e86f058040d1","system_id":"levelo_inurba_marseille","lat":43.305994,"lon":5.393687,"is_reserved":false,"is_disabled":false,"rental_uris":{"android":"levelo://app?vid=eb0a9dab-b3ef-405b-ae10-e86f058040d1","ios":"levelo://app?vid=eb0a9dab-b3ef-405b-ae10-e86f058040d1"},"vehicle_type_id":"4","last_reported":1692122880,"current_range_meters":4000,"station_id":"ce4bh0p2rcd13ifvqd80","pricing_plan_id":"free"},{"bike_id":"f6cdfd70-43e9-4500-94b1-82682b2179cc","system_id":"levelo_inurba_marseille","lat":43.2936,"lon":5.37835,"is_reserved":false,"is_disabled":false,"rental_uris":{"android":"levelo://app?vid=f6cdfd70-43e9-4500-94b1-82682b2179cc","ios":"levelo://app?vid=f6cdfd70-43e9-4500-94b1-82682b2179cc"},"vehicle_type_id":"4","last_reported":1692122880,"current_range_meters":24800,"station_id":"ce4bgjh2rcd13ifvqbf0","pricing_plan_id":"free"},{"bike_id":"e0638678-2570-415a-819a-df3619088f80","system_id":"levelo_inurba_marseille","lat":43.2936,"lon":5.37835,"is_reserved":false,"is_disabled":false,"rental_uris":{"android":"levelo://app?vid=e0638678-2570-415a-819a-df3619088f80","ios":"levelo://app?vid=e0638678-2570-415a-819a-df3619088f80"},"vehicle_type_id":"4","last_reported":1692122880,"current_range_meters":23200,"station_id":"ce4bgjh2rcd13ifvqbf0","pricing_plan_id":"free"},{"bike_id":"88136eef-06aa-45cd-9b21-a7961a0ffe41","system_id":"levelo_inurba_marseille","lat":43.2936,"lon":5.37835,"is_reserved":false,"is_disabled":false,"rental_uris":{"android":"levelo://app?vid=88136eef-06aa-45cd-9b21-a7961a0ffe41","ios":"levelo://app?vid=88136eef-06aa-45cd-9b21-a7961a0ffe41"},"vehicle_type_id":"4","last_reported":1692122880,"current_range_meters":7600,"station_id":"ce4bgjh2rcd13ifvqbf0","pricing_plan_id":"free"},{"bike_id":"6812f81d-b147-4a16-8854-9f9db4756249","system_id":"levelo_inurba_marseille","lat":43.2936,"lon":5.37835,"is_reserved":false,"is_disabled":false,"rental_uris":{"android":"levelo://app?vid=6812f81d-b147-4a16-8854-9f9db4756249","ios":"levelo://app?vid=6812f81d-b147-4a16-8854-9f9db4756249"},"vehicle_type_id":"4","last_reported":1692122880,"current_range_meters":400,"station_id":"ce4bgjh2rcd13ifvqbf0","pricing_plan_id":"free"},{"bike_id":"7da742fc-20d4-4739-bdfa-09eb737bf13c","system_id":"levelo_inurba_marseille","lat":43.292311,"lon":5.360731,"is_reserved":false,"is_disabled":false,"rental_uris":{"android":"levelo://app?vid=7da742fc-20d4-4739-bdfa-09eb737bf13c","ios":"levelo://app?vid=7da742fc-20d4-4739-bdfa-09eb737bf13c"},"vehicle_type_id":"4","last_reported":1692122880,"current_range_meters":4400,"station_id":"ce4bhbh2rcd13ifvqeqg","pricing_plan_id":"free"},{"bike_id":"695db0ca-d61c-4acb-8ee6-45d2275b5309","system_id":"levelo_inurba_marseille","lat":43.298764,"lon":5.388973,"is_reserved":false,"is_disabled":false,"rental_uris":{"android":"levelo://app?vid=695db0ca-d61c-4acb-8ee6-45d2275b5309","ios":"levelo://app?vid=695db0ca-d61c-4acb-8ee6-45d2275b5309"},"vehicle_type_id":"4","last_reported":1692122880,"current_range_meters":10400,"station_id":"ce4bh392rcd13ifvqdl0","pricing_plan_id":"free"},{"bike_id":"3bad2e96-d3b4-42d1-ac4b-9899d6ec1a51","system_id":"levelo_inurba_marseille","lat":43.298764,"lon":5.388973,"is_reserved":false,"is_disabled":false,"rental_uris":{"android":"levelo://app?vid=3bad2e96-d3b4-42d1-ac4b-9899d6ec1a51","ios":"levelo://app?vid=3bad2e96-d3b4-42d1-ac4b-9899d6ec1a51"},"vehicle_type_id":"4","last_reported":1692122880,"current_range_meters":3200,"station_id":"ce4bh392rcd13ifvqdl0","pricing_plan_id":"free"},{"bike_id":"b21a9417-3acc-42f7-8be4-00234be8fc1c","system_id":"levelo_inurba_marseille","lat":43.291675,"lon":5.371583,"is_reserved":false,"is_disabled":false,"rental_uris":{"android":"levelo://app?vid=b21a9417-3acc-42f7-8be4-00234be8fc1c","ios":"levelo://app?vid=b21a9417-3acc-42f7-8be4-00234be8fc1c"},"vehicle_type_id":"4","last_reported":1692122880,"current_range_meters":25600,"station_id":"ce4bha92rcd13ifvqeh0","pricing_plan_id":"free"},{"bike_id":"e391f43f-c767-4863-b7e9-2aa9eea5ba79","system_id":"levelo_inurba_marseille","lat":43.291675,"lon":5.371583,"is_reserved":false,"is_disabled":false,"rental_uris":{"android":"levelo://app?vid=e391f43f-c767-4863-b7e9-2aa9eea5ba79","ios":"levelo://app?vid=e391f43f-c767-4863-b7e9-2aa9eea5ba79"},"vehicle_type_id":"4","last_reported":1692122880,"current_range_meters":0,"station_id":"ce4bha92rcd13ifvqeh0","pricing_plan_id":"free"},{"bike_id":"121e9093-d9db-4940-a802-d1410928c550","system_id":"levelo_inurba_marseille","lat":43.292663,"lon":5.376389,"is_reserved":false,"is_disabled":false,"rental_uris":{"android":"levelo://app?vid=121e9093-d9db-4940-a802-d1410928c550","ios":"levelo://app?vid=121e9093-d9db-4940-a802-d1410928c550"},"vehicle_type_id":"4","last_reported":1692122880,"current_range_meters":30000,"station_id":"ce4bgi12rcd13ifvqb80","pricing_plan_id":"free"},{"bike_id":"413ef0fc-6e6c-419a-86d5-eab593573b33","system_id":"levelo_inurba_marseille","lat":43.313291,"lon":5.396838,"is_reserved":false,"is_disabled":false,"rental_uris":{"android":"levelo://app?vid=413ef0fc-6e6c-419a-86d5-eab593573b33","ios":"levelo://app?vid=413ef0fc-6e6c-419a-86d5-eab593573b33"},"vehicle_type_id":"4","last_reported":1692122880,"current_range_meters":20400,"station_id":"ce4bgvp2rcd13ifvqcu0","pricing_plan_id":"free"},{"bike_id":"ebc4d716-11fb-4274-bf89-2c120bdd199c","system_id":"levelo_inurba_marseille","lat":43.309038,"lon":5.396546,"is_reserved":false,"is_disabled":false,"rental_uris":{"android":"levelo://app?vid=ebc4d716-11fb-4274-bf89-2c120bdd199c","ios":"levelo://app?vid=ebc4d716-11fb-4274-bf89-2c120bdd199c"},"vehicle_type_id":"4","last_reported":1692122880,"current_range_meters":25200,"station_id":"ce4bh012rcd13ifvqcv0","pricing_plan_id":"free"},{"bike_id":"5c1611e9-3c42-48cb-9079-fcceb6f44cf2","system_id":"levelo_inurba_marseille","lat":43.29529,"lon":5.385581,"is_reserved":false,"is_disabled":false,"rental_uris":{"android":"levelo://app?vid=5c1611e9-3c42-48cb-9079-fcceb6f44cf2","ios":"levelo://app?vid=5c1611e9-3c42-48cb-9079-fcceb6f44cf2"},"vehicle_type_id":"4","last_reported":1692122880,"current_range_meters":26400,"station_id":"ce4bgih2rcd13ifvqba0","pricing_plan_id":"free"},{"bike_id":"2bf92be6-93ab-44df-89ed-c97003231fa8","system_id":"levelo_inurba_marseille","lat":43.29529,"lon":5.385581,"is_reserved":false,"is_disabled":false,"rental_uris":{"android":"levelo://app?vid=2bf92be6-93ab-44df-89ed-c97003231fa8","ios":"levelo://app?vid=2bf92be6-93ab-44df-89ed-c97003231fa8"},"vehicle_type_id":"4","last_reported":1692122880,"current_range_meters":11600,"station_id":"ce4bgih2rcd13ifvqba0","pricing_plan_id":"free"},{"bike_id":"6716a512-f0a3-4bb6-9743-12742537f182","system_id":"levelo_inurba_marseille","lat":43.29532,"lon":5.3854,"is_reserved":false,"is_disabled":false,"rental_uris":{"android":"levelo://app?vid=6716a512-f0a3-4bb6-9743-12742537f182","ios":"levelo://app?vid=6716a512-f0a3-4bb6-9743-12742537f182"},"vehicle_type_id":"4","last_reported":1692122880,"current_range_meters":4800,"station_id":"ce4bgih2rcd13ifvqba0","pricing_plan_id":"free"},{"bike_id":"563352f7-2052-4cc6-ba76-693f5299e7e2","system_id":"levelo_inurba_marseille","lat":43.29533,"lon":5.38542,"is_reserved":false,"is_disabled":false,"rental_uris":{"android":"levelo://app?vid=563352f7-2052-4cc6-ba76-693f5299e7e2","ios":"levelo://app?vid=563352f7-2052-4cc6-ba76-693f5299e7e2"},"vehicle_type_id":"4","last_reported":1692122880,"current_range_meters":27600,"station_id":"ce4bgih2rcd13ifvqba0","pricing_plan_id":"free"},{"bike_id":"bf76f2c4-47f6-4242-bbb0-7b8295bcd61b","system_id":"levelo_inurba_marseille","lat":43.302008,"lon":5.394694,"is_reserved":false,"is_disabled":false,"rental_uris":{"android":"levelo://app?vid=bf76f2c4-47f6-4242-bbb0-7b8295bcd61b","ios":"levelo://app?vid=bf76f2c4-47f6-4242-bbb0-7b8295bcd61b"},"vehicle_type_id":"4","last_reported":1692122880,"current_range_meters":26800,"station_id":"ce4bh0p2rcd13ifvqd70","pricing_plan_id":"free"},{"bike_id":"4a510aa8-2fee-4c23-9fae-8e7903ad7d49","system_id":"levelo_inurba_marseille","lat":43.289184,"lon":5.366408,"is_reserved":false,"is_disabled":false,"rental_uris":{"android":"levelo://app?vid=4a510aa8-2fee-4c23-9fae-8e7903ad7d49","ios":"levelo://app?vid=4a510aa8-2fee-4c23-9fae-8e7903ad7d49"},"vehicle_type_id":"4","last_reported":1692122880,"current_range_meters":7200,"station_id":"ce4bhap2rcd13ifvqek0","pricing_plan_id":"free"},{"bike_id":"ccdc539e-c518-466d-8111-478998772b24","system_id":"levelo_inurba_marseille","lat":43.28938,"lon":5.36628,"is_reserved":false,"is_disabled":false,"rental_uris":{"android":"levelo://app?vid=ccdc539e-c518-466d-8111-478998772b24","ios":"levelo://app?vid=ccdc539e-c518-466d-8111-478998772b24"},"vehicle_type_id":"4","last_reported":1692122880,"current_range_meters":4800,"station_id":"ce4bhap2rcd13ifvqek0","pricing_plan_id":"free"},{"bike_id":"14f9ebe8-0554-42e7-8f2a-1d25e6f6ba03","system_id":"levelo_inurba_marseille","lat":43.289468,"lon":5.363719,"is_reserved":false,"is_disabled":false,"rental_uris":{"android":"levelo://app?vid=14f9ebe8-0554-42e7-8f2a-1d25e6f6ba03","ios":"levelo://app?vid=14f9ebe8-0554-42e7-8f2a-1d25e6f6ba03"},"vehicle_type_id":"4","last_reported":1692122880,"current_range_meters":19600,"station_id":"ce4bhc92rcd13ifvqetg","pricing_plan_id":"free"},{"bike_id":"47ee80f6-d07a-4c07-859e-c737e7ef7a58","system_id":"levelo_inurba_marseille","lat":43.289184,"lon":5.366408,"is_reserved":false,"is_disabled":false,"rental_uris":{"android":"levelo://app?vid=47ee80f6-d07a-4c07-859e-c737e7ef7a58","ios":"levelo://app?vid=47ee80f6-d07a-4c07-859e-c737e7ef7a58"},"vehicle_type_id":"4","last_reported":1692122880,"current_range_meters":24000,"station_id":"ce4bhap2rcd13ifvqek0","pricing_plan_id":"free"},{"bike_id":"3af64aac-7fc9-4d73-9b9e-678aeca7b3e2","system_id":"levelo_inurba_marseille","lat":43.292644,"lon":5.384257,"is_reserved":false,"is_disabled":false,"rental_uris":{"android":"levelo://app?vid=3af64aac-7fc9-4d73-9b9e-678aeca7b3e2","ios":"levelo://app?vid=3af64aac-7fc9-4d73-9b9e-678aeca7b3e2"},"vehicle_type_id":"4","last_reported":1692122880,"current_range_meters":800,"station_id":"ce4bh692rcd13ifvqea0","pricing_plan_id":"free"},{"bike_id":"f10c9d3b-5d07-4bed-aeb8-dad19078794e","system_id":"levelo_inurba_marseille","lat":43.292642,"lon":5.384254,"is_reserved":false,"is_disabled":false,"rental_uris":{"android":"levelo://app?vid=f10c9d3b-5d07-4bed-aeb8-dad19078794e","ios":"levelo://app?vid=f10c9d3b-5d07-4bed-aeb8-dad19078794e"},"vehicle_type_id":"4","last_reported":1692122880,"current_range_meters":16800,"station_id":"ce4bh692rcd13ifvqea0","pricing_plan_id":"free"},{"bike_id":"69c23820-b8c4-4b33-a6c2-28beb4ed1d2a","system_id":"levelo_inurba_marseille","lat":43.330357,"lon":5.38912,"is_reserved":false,"is_disabled":false,"rental_uris":{"android":"levelo://app?vid=69c23820-b8c4-4b33-a6c2-28beb4ed1d2a","ios":"levelo://app?vid=69c23820-b8c4-4b33-a6c2-28beb4ed1d2a"},"vehicle_type_id":"4","last_reported":1692122880,"current_range_meters":1200,"station_id":"","pricing_plan_id":"free"},{"bike_id":"01bb66e8-6fc1-4982-b9b2-af4dae23e37f","system_id":"levelo_inurba_marseille","lat":43.33035,"lon":5.38915,"is_reserved":false,"is_disabled":false,"rental_uris":{"android":"levelo://app?vid=01bb66e8-6fc1-4982-b9b2-af4dae23e37f","ios":"levelo://app?vid=01bb66e8-6fc1-4982-b9b2-af4dae23e37f"},"vehicle_type_id":"4","last_reported":1692122880,"current_range_meters":28000,"station_id":"ce4bhr92rcd13ifvqhrg","pricing_plan_id":"free"},{"bike_id":"96ead541-9c33-4112-927f-93c74ea92183","system_id":"levelo_inurba_marseille","lat":43.33035,"lon":5.38915,"is_reserved":false,"is_disabled":false,"rental_uris":{"android":"levelo://app?vid=96ead541-9c33-4112-927f-93c74ea92183","ios":"levelo://app?vid=96ead541-9c33-4112-927f-93c74ea92183"},"vehicle_type_id":"4","last_reported":1692122880,"current_range_meters":12000,"station_id":"ce4bhr92rcd13ifvqhrg","pricing_plan_id":"free"},{"bike_id":"be005e4f-d207-40fd-bd99-241d744b2797","system_id":"levelo_inurba_marseille","lat":43.33041,"lon":5.3891,"is_reserved":false,"is_disabled":false,"rental_uris":{"android":"levelo://app?vid=be005e4f-d207-40fd-bd99-241d744b2797","ios":"levelo://app?vid=be005e4f-d207-40fd-bd99-241d744b2797"},"vehicle_type_id":"4","last_reported":1692122880,"current_range_meters":20000,"station_id":"ce4bhr92rcd13ifvqhrg","pricing_plan_id":"free"},{"bike_id":"8ae0ce58-4162-4719-947c-e47cc63be26c","system_id":"levelo_inurba_marseille","lat":43.3304,"lon":5.38917,"is_reserved":false,"is_disabled":false,"rental_uris":{"android":"levelo://app?vid=8ae0ce58-4162-4719-947c-e47cc63be26c","ios":"levelo://app?vid=8ae0ce58-4162-4719-947c-e47cc63be26c"},"vehicle_type_id":"4","last_reported":1692122880,"current_range_meters":15600,"station_id":"ce4bhr92rcd13ifvqhrg","pricing_plan_id":"free"},{"bike_id":"e184d9f0-8163-4a17-b3ea-e9518599abc7","system_id":"levelo_inurba_marseille","lat":43.33042,"lon":5.38917,"is_reserved":false,"is_disabled":false,"rental_uris":{"android":"levelo://app?vid=e184d9f0-8163-4a17-b3ea-e9518599abc7","ios":"levelo://app?vid=e184d9f0-8163-4a17-b3ea-e9518599abc7"},"vehicle_type_id":"4","last_reported":1692122880,"current_range_meters":30000,"station_id":"ce4bhr92rcd13ifvqhrg","pricing_plan_id":"free"},{"bike_id":"859ece1b-eaf2-4429-915d-1d151e169e7f","system_id":"levelo_inurba_marseille","lat":43.33038,"lon":5.38923,"is_reserved":false,"is_disabled":false,"rental_uris":{"android":"levelo://app?vid=859ece1b-eaf2-4429-915d-1d151e169e7f","ios":"levelo://app?vid=859ece1b-eaf2-4429-915d-1d151e169e7f"},"vehicle_type_id":"4","last_reported":1692122880,"current_range_meters":23200,"station_id":"ce4bhr92rcd13ifvqhrg","pricing_plan_id":"free"},{"bike_id":"e77b24cb-b125-4747-a456-3f996451e289","system_id":"levelo_inurba_marseille","lat":43.33044,"lon":5.38915,"is_reserved":false,"is_disabled":false,"rental_uris":{"android":"levelo://app?vid=e77b24cb-b125-4747-a456-3f996451e289","ios":"levelo://app?vid=e77b24cb-b125-4747-a456-3f996451e289"},"vehicle_type_id":"4","last_reported":1692122880,"current_range_meters":30000,"station_id":"ce4bhr92rcd13ifvqhrg","pricing_plan_id":"free"},{"bike_id":"569fb482-04ac-449f-b013-337617dfb7a0","system_id":"levelo_inurba_marseille","lat":43.33044,"lon":5.3892,"is_reserved":false,"is_disabled":false,"rental_uris":{"android":"levelo://app?vid=569fb482-04ac-449f-b013-337617dfb7a0","ios":"levelo://app?vid=569fb482-04ac-449f-b013-337617dfb7a0"},"vehicle_type_id":"4","last_reported":1692122880,"current_range_meters":25600,"station_id":"ce4bhr92rcd13ifvqhrg","pricing_plan_id":"free"},{"bike_id":"d5578a77-3302-4d8a-ae9c-7edceb0f071e","system_id":"levelo_inurba_marseille","lat":43.33042,"lon":5.38924,"is_reserved":false,"is_disabled":false,"rental_uris":{"android":"levelo://app?vid=d5578a77-3302-4d8a-ae9c-7edceb0f071e","ios":"levelo://app?vid=d5578a77-3302-4d8a-ae9c-7edceb0f071e"},"vehicle_type_id":"4","last_reported":1692122880,"current_range_meters":30000,"station_id":"ce4bhr92rcd13ifvqhrg","pricing_plan_id":"free"},{"bike_id":"c123ede0-1f04-4c8e-a764-ac045a7f5179","system_id":"levelo_inurba_marseille","lat":43.290104,"lon":5.356111,"is_reserved":false,"is_disabled":false,"rental_uris":{"android":"levelo://app?vid=c123ede0-1f04-4c8e-a764-ac045a7f5179","ios":"levelo://app?vid=c123ede0-1f04-4c8e-a764-ac045a7f5179"},"vehicle_type_id":"4","last_reported":1692122880,"current_range_meters":14800,"station_id":"ce4bhb92rcd13ifvqen0","pricing_plan_id":"free"},{"bike_id":"78f1a325-e5b4-4a72-bb0e-b29d3285ba24","system_id":"levelo_inurba_marseille","lat":43.290103,"lon":5.356114,"is_reserved":false,"is_disabled":false,"rental_uris":{"android":"levelo://app?vid=78f1a325-e5b4-4a72-bb0e-b29d3285ba24","ios":"levelo://app?vid=78f1a325-e5b4-4a72-bb0e-b29d3285ba24"},"vehicle_type_id":"4","last_reported":1692122880,"current_range_meters":31600,"station_id":"ce4bhb92rcd13ifvqen0","pricing_plan_id":"free"},{"bike_id":"91f6cdb5-dd10-40a6-b249-14ec27296424","system_id":"levelo_inurba_marseille","lat":43.297815,"lon":5.393548,"is_reserved":false,"is_disabled":false,"rental_uris":{"android":"levelo://app?vid=91f6cdb5-dd10-40a6-b249-14ec27296424","ios":"levelo://app?vid=91f6cdb5-dd10-40a6-b249-14ec27296424"},"vehicle_type_id":"4","last_reported":1692122880,"current_range_meters":18800,"station_id":"chh1huq6cuj3fo74tm60","pricing_plan_id":"free"},{"bike_id":"a71e4459-1579-4061-82d0-d757a4a1c7e0","system_id":"levelo_inurba_marseille","lat":43.28856,"lon":5.358371,"is_reserved":false,"is_disabled":false,"rental_uris":{"android":"levelo://app?vid=a71e4459-1579-4061-82d0-d757a4a1c7e0","ios":"levelo://app?vid=a71e4459-1579-4061-82d0-d757a4a1c7e0"},"vehicle_type_id":"4","last_reported":1692122880,"current_range_meters":14800,"station_id":"ce4bhb12rcd13ifvqem0","pricing_plan_id":"free"},{"bike_id":"9eda0669-542e-4be1-a0f3-ca7d20cbc24f","system_id":"levelo_inurba_marseille","lat":43.30934,"lon":5.40146,"is_reserved":false,"is_disabled":false,"rental_uris":{"android":"levelo://app?vid=9eda0669-542e-4be1-a0f3-ca7d20cbc24f","ios":"levelo://app?vid=9eda0669-542e-4be1-a0f3-ca7d20cbc24f"},"vehicle_type_id":"4","last_reported":1692122880,"current_range_meters":11200,"station_id":"ce4bgvp2rcd13ifvqct0","pricing_plan_id":"free"},{"bike_id":"75199276-b705-4ad7-b6a9-49aeaa84628a","system_id":"levelo_inurba_marseille","lat":43.286591,"lon":5.363346,"is_reserved":false,"is_disabled":false,"rental_uris":{"android":"levelo://app?vid=75199276-b705-4ad7-b6a9-49aeaa84628a","ios":"levelo://app?vid=75199276-b705-4ad7-b6a9-49aeaa84628a"},"vehicle_type_id":"4","last_reported":1692122880,"current_range_meters":31600,"station_id":"ce4bhah2rcd13ifvqej0","pricing_plan_id":"free"},{"bike_id":"67a360ad-460d-4977-ab5e-67219b0285f7","system_id":"levelo_inurba_marseille","lat":43.28703,"lon":5.37387,"is_reserved":false,"is_disabled":false,"rental_uris":{"android":"levelo://app?vid=67a360ad-460d-4977-ab5e-67219b0285f7","ios":"levelo://app?vid=67a360ad-460d-4977-ab5e-67219b0285f7"},"vehicle_type_id":"4","last_reported":1692122880,"current_range_meters":12800,"station_id":"ce4bh3p2rcd13ifvqdq0","pricing_plan_id":"free"},{"bike_id":"efe7ccd6-97c9-4054-862e-a88caed356bb","system_id":"levelo_inurba_marseille","lat":43.298681,"lon":5.397225,"is_reserved":false,"is_disabled":false,"rental_uris":{"android":"levelo://app?vid=efe7ccd6-97c9-4054-862e-a88caed356bb","ios":"levelo://app?vid=efe7ccd6-97c9-4054-862e-a88caed356bb"},"vehicle_type_id":"4","last_reported":1692122880,"current_range_meters":4400,"station_id":"ce4bh0h2rcd13ifvqd50","pricing_plan_id":"free"},{"bike_id":"eafb4e5c-b6fb-4ac3-b993-b3e822b631ed","system_id":"levelo_inurba_marseille","lat":43.295196,"lon":5.39397,"is_reserved":false,"is_disabled":false,"rental_uris":{"android":"levelo://app?vid=eafb4e5c-b6fb-4ac3-b993-b3e822b631ed","ios":"levelo://app?vid=eafb4e5c-b6fb-4ac3-b993-b3e822b631ed"},"vehicle_type_id":"4","last_reported":1692122880,"current_range_meters":18000,"station_id":"ce4bh292rcd13ifvqdf0","pricing_plan_id":"free"},{"bike_id":"c1f67b63-efde-42d1-a9aa-58b50a9daa40","system_id":"levelo_inurba_marseille","lat":43.287,"lon":5.37393,"is_reserved":false,"is_disabled":false,"rental_uris":{"android":"levelo://app?vid=c1f67b63-efde-42d1-a9aa-58b50a9daa40","ios":"levelo://app?vid=c1f67b63-efde-42d1-a9aa-58b50a9daa40"},"vehicle_type_id":"4","last_reported":1692122880,"current_range_meters":25600,"station_id":"ce4bh3p2rcd13ifvqdq0","pricing_plan_id":"free"},{"bike_id":"fa4acbb8-a443-4be8-b4f9-ab1425e1a5b7","system_id":"levelo_inurba_marseille","lat":43.302759,"lon":5.400793,"is_reserved":false,"is_disabled":false,"rental_uris":{"android":"levelo://app?vid=fa4acbb8-a443-4be8-b4f9-ab1425e1a5b7","ios":"levelo://app?vid=fa4acbb8-a443-4be8-b4f9-ab1425e1a5b7"},"vehicle_type_id":"4","last_reported":1692122880,"current_range_meters":22000,"station_id":"ce4bgvh2rcd13ifvqcs0","pricing_plan_id":"free"},{"bike_id":"e8c266f3-7c67-4aaa-826c-90644abcc465","system_id":"levelo_inurba_marseille","lat":43.290345,"lon":5.38646,"is_reserved":false,"is_disabled":false,"rental_uris":{"android":"levelo://app?vid=e8c266f3-7c67-4aaa-826c-90644abcc465","ios":"levelo://app?vid=e8c266f3-7c67-4aaa-826c-90644abcc465"},"vehicle_type_id":"4","last_reported":1692122880,"current_range_meters":20000,"station_id":"ce4bh4p2rcd13ifvqe0g","pricing_plan_id":"free"},{"bike_id":"378a2161-2cf7-49bf-93d3-7c87d48940a3","system_id":"levelo_inurba_marseille","lat":43.290336,"lon":5.386425,"is_reserved":false,"is_disabled":false,"rental_uris":{"android":"levelo://app?vid=378a2161-2cf7-49bf-93d3-7c87d48940a3","ios":"levelo://app?vid=378a2161-2cf7-49bf-93d3-7c87d48940a3"},"vehicle_type_id":"4","last_reported":1692122880,"current_range_meters":18800,"station_id":"ce4bh4p2rcd13ifvqe0g","pricing_plan_id":"free"},{"bike_id":"ece4c91a-cf3e-4d7e-a66d-04d4a4f3aca8","system_id":"levelo_inurba_marseille","lat":43.290336,"lon":5.386425,"is_reserved":false,"is_disabled":false,"rental_uris":{"android":"levelo://app?vid=ece4c91a-cf3e-4d7e-a66d-04d4a4f3aca8","ios":"levelo://app?vid=ece4c91a-cf3e-4d7e-a66d-04d4a4f3aca8"},"vehicle_type_id":"4","last_reported":1692122880,"current_range_meters":2800,"station_id":"ce4bh4p2rcd13ifvqe0g","pricing_plan_id":"free"},{"bike_id":"c0e3c542-6d2f-4ad1-8a2b-1a73967d668e","system_id":"levelo_inurba_marseille","lat":43.33061,"lon":5.39443,"is_reserved":false,"is_disabled":false,"rental_uris":{"android":"levelo://app?vid=c0e3c542-6d2f-4ad1-8a2b-1a73967d668e","ios":"levelo://app?vid=c0e3c542-6d2f-4ad1-8a2b-1a73967d668e"},"vehicle_type_id":"4","last_reported":1692122880,"current_range_meters":26400,"station_id":"","pricing_plan_id":"free"},{"bike_id":"4aebdf6a-5176-46ca-9ddf-24582a418c25","system_id":"levelo_inurba_marseille","lat":43.3024,"lon":5.40132,"is_reserved":false,"is_disabled":false,"rental_uris":{"android":"levelo://app?vid=4aebdf6a-5176-46ca-9ddf-24582a418c25","ios":"levelo://app?vid=4aebdf6a-5176-46ca-9ddf-24582a418c25"},"vehicle_type_id":"4","last_reported":1692122880,"current_range_meters":5200,"station_id":"","pricing_plan_id":"free"},{"bike_id":"74220d3c-4cd6-4230-be8a-c26c4d78ecbf","system_id":"levelo_inurba_marseille","lat":43.31643,"lon":5.40436,"is_reserved":false,"is_disabled":false,"rental_uris":{"android":"levelo://app?vid=74220d3c-4cd6-4230-be8a-c26c4d78ecbf","ios":"levelo://app?vid=74220d3c-4cd6-4230-be8a-c26c4d78ecbf"},"vehicle_type_id":"4","last_reported":1692122880,"current_range_meters":19200,"station_id":"ce4bh012rcd13ifvqd00","pricing_plan_id":"free"},{"bike_id":"025ec750-4620-44db-b8b7-fec2f8d3a3d9","system_id":"levelo_inurba_marseille","lat":43.284655,"lon":5.358899,"is_reserved":false,"is_disabled":false,"rental_uris":{"android":"levelo://app?vid=025ec750-4620-44db-b8b7-fec2f8d3a3d9","ios":"levelo://app?vid=025ec750-4620-44db-b8b7-fec2f8d3a3d9"},"vehicle_type_id":"4","last_reported":1692122880,"current_range_meters":20400,"station_id":"","pricing_plan_id":"free"},{"bike_id":"cc09dc41-1bde-424c-a75c-e7fc56fe535e","system_id":"levelo_inurba_marseille","lat":43.284538,"lon":5.358657,"is_reserved":false,"is_disabled":false,"rental_uris":{"android":"levelo://app?vid=cc09dc41-1bde-424c-a75c-e7fc56fe535e","ios":"levelo://app?vid=cc09dc41-1bde-424c-a75c-e7fc56fe535e"},"vehicle_type_id":"4","last_reported":1692122880,"current_range_meters":9600,"station_id":"ce4bhah2rcd13ifvqei0","pricing_plan_id":"free"},{"bike_id":"2721edaf-798e-4569-8929-22c484317781","system_id":"levelo_inurba_marseille","lat":43.284538,"lon":5.358657,"is_reserved":false,"is_disabled":false,"rental_uris":{"android":"levelo://app?vid=2721edaf-798e-4569-8929-22c484317781","ios":"levelo://app?vid=2721edaf-798e-4569-8929-22c484317781"},"vehicle_type_id":"4","last_reported":1692122880,"current_range_meters":10800,"station_id":"ce4bhah2rcd13ifvqei0","pricing_plan_id":"free"},{"bike_id":"2d95c958-ce6b-4caa-bf8b-637afa906238","system_id":"levelo_inurba_marseille","lat":43.284538,"lon":5.358657,"is_reserved":false,"is_disabled":false,"rental_uris":{"android":"levelo://app?vid=2d95c958-ce6b-4caa-bf8b-637afa906238","ios":"levelo://app?vid=2d95c958-ce6b-4caa-bf8b-637afa906238"},"vehicle_type_id":"4","last_reported":1692122880,"current_range_meters":22400,"station_id":"ce4bhah2rcd13ifvqei0","pricing_plan_id":"free"},{"bike_id":"7969872c-87a9-4614-aadc-8316958bc227","system_id":"levelo_inurba_marseille","lat":43.284538,"lon":5.358657,"is_reserved":false,"is_disabled":false,"rental_uris":{"android":"levelo://app?vid=7969872c-87a9-4614-aadc-8316958bc227","ios":"levelo://app?vid=7969872c-87a9-4614-aadc-8316958bc227"},"vehicle_type_id":"4","last_reported":1692122880,"current_range_meters":7200,"station_id":"ce4bhah2rcd13ifvqei0","pricing_plan_id":"free"},{"bike_id":"819cff9e-1db7-412a-8262-df0bc2ee6966","system_id":"levelo_inurba_marseille","lat":43.284534,"lon":5.358662,"is_reserved":false,"is_disabled":false,"rental_uris":{"android":"levelo://app?vid=819cff9e-1db7-412a-8262-df0bc2ee6966","ios":"levelo://app?vid=819cff9e-1db7-412a-8262-df0bc2ee6966"},"vehicle_type_id":"4","last_reported":1692122880,"current_range_meters":20000,"station_id":"ce4bhah2rcd13ifvqei0","pricing_plan_id":"free"},{"bike_id":"bfd82d73-2630-453d-9888-226b0e052ba0","system_id":"levelo_inurba_marseille","lat":43.286595,"lon":5.386795,"is_reserved":false,"is_disabled":false,"rental_uris":{"android":"levelo://app?vid=bfd82d73-2630-453d-9888-226b0e052ba0","ios":"levelo://app?vid=bfd82d73-2630-453d-9888-226b0e052ba0"},"vehicle_type_id":"4","last_reported":1692122880,"current_range_meters":14800,"station_id":"ce4bh492rcd13ifvqdug","pricing_plan_id":"free"},{"bike_id":"6ed2964b-5392-406b-b9af-45404a2ee5fa","system_id":"levelo_inurba_marseille","lat":43.3372,"lon":5.39173,"is_reserved":false,"is_disabled":false,"rental_uris":{"android":"levelo://app?vid=6ed2964b-5392-406b-b9af-45404a2ee5fa","ios":"levelo://app?vid=6ed2964b-5392-406b-b9af-45404a2ee5fa"},"vehicle_type_id":"4","last_reported":1692122880,"current_range_meters":30000,"station_id":"ce4bhr92rcd13ifvqhsg","pricing_plan_id":"free"},{"bike_id":"d1191578-a5a1-4fd7-ac86-032e8fdf04c0","system_id":"levelo_inurba_marseille","lat":43.3372,"lon":5.39173,"is_reserved":false,"is_disabled":false,"rental_uris":{"android":"levelo://app?vid=d1191578-a5a1-4fd7-ac86-032e8fdf04c0","ios":"levelo://app?vid=d1191578-a5a1-4fd7-ac86-032e8fdf04c0"},"vehicle_type_id":"4","last_reported":1692122880,"current_range_meters":27200,"station_id":"ce4bhr92rcd13ifvqhsg","pricing_plan_id":"free"},{"bike_id":"c7f55b38-f91b-41fb-a480-21b4dec7e541","system_id":"levelo_inurba_marseille","lat":43.33716,"lon":5.39186,"is_reserved":false,"is_disabled":false,"rental_uris":{"android":"levelo://app?vid=c7f55b38-f91b-41fb-a480-21b4dec7e541","ios":"levelo://app?vid=c7f55b38-f91b-41fb-a480-21b4dec7e541"},"vehicle_type_id":"4","last_reported":1692122880,"current_range_meters":24000,"station_id":"ce4bhr92rcd13ifvqhsg","pricing_plan_id":"free"},{"bike_id":"f0b3e4a8-c149-42b1-9c5e-b4e2f8c56804","system_id":"levelo_inurba_marseille","lat":43.33717,"lon":5.391857,"is_reserved":false,"is_disabled":false,"rental_uris":{"android":"levelo://app?vid=f0b3e4a8-c149-42b1-9c5e-b4e2f8c56804","ios":"levelo://app?vid=f0b3e4a8-c149-42b1-9c5e-b4e2f8c56804"},"vehicle_type_id":"4","last_reported":1692122880,"current_range_meters":30400,"station_id":"ce4bhr92rcd13ifvqhsg","pricing_plan_id":"free"},{"bike_id":"5998f81c-1eca-456a-a4d5-b95c154b11b7","system_id":"levelo_inurba_marseille","lat":43.33724,"lon":5.39177,"is_reserved":false,"is_disabled":false,"rental_uris":{"android":"levelo://app?vid=5998f81c-1eca-456a-a4d5-b95c154b11b7","ios":"levelo://app?vid=5998f81c-1eca-456a-a4d5-b95c154b11b7"},"vehicle_type_id":"4","last_reported":1692122880,"current_range_meters":28400,"station_id":"ce4bhr92rcd13ifvqhsg","pricing_plan_id":"free"},{"bike_id":"50ff99fb-43af-4912-a992-826715877a21","system_id":"levelo_inurba_marseille","lat":43.33717,"lon":5.391857,"is_reserved":false,"is_disabled":false,"rental_uris":{"android":"levelo://app?vid=50ff99fb-43af-4912-a992-826715877a21","ios":"levelo://app?vid=50ff99fb-43af-4912-a992-826715877a21"},"vehicle_type_id":"4","last_reported":1692122880,"current_range_meters":17600,"station_id":"ce4bhr92rcd13ifvqhsg","pricing_plan_id":"free"},{"bike_id":"7d990ca5-f420-4945-a4a1-a0288a5b26c7","system_id":"levelo_inurba_marseille","lat":43.337168,"lon":5.391825,"is_reserved":false,"is_disabled":false,"rental_uris":{"android":"levelo://app?vid=7d990ca5-f420-4945-a4a1-a0288a5b26c7","ios":"levelo://app?vid=7d990ca5-f420-4945-a4a1-a0288a5b26c7"},"vehicle_type_id":"4","last_reported":1692122880,"current_range_meters":12000,"station_id":"ce4bhr92rcd13ifvqhsg","pricing_plan_id":"free"},{"bike_id":"6a16d4f0-1bee-4a48-8250-841c97df9d59","system_id":"levelo_inurba_marseille","lat":43.33728,"lon":5.3918,"is_reserved":false,"is_disabled":false,"rental_uris":{"android":"levelo://app?vid=6a16d4f0-1bee-4a48-8250-841c97df9d59","ios":"levelo://app?vid=6a16d4f0-1bee-4a48-8250-841c97df9d59"},"vehicle_type_id":"4","last_reported":1692122880,"current_range_meters":27600,"station_id":"ce4bhr92rcd13ifvqhsg","pricing_plan_id":"free"},{"bike_id":"3418df2e-6699-4bed-91a2-b25e9f32f724","system_id":"levelo_inurba_marseille","lat":43.33727,"lon":5.39182,"is_reserved":false,"is_disabled":false,"rental_uris":{"android":"levelo://app?vid=3418df2e-6699-4bed-91a2-b25e9f32f724","ios":"levelo://app?vid=3418df2e-6699-4bed-91a2-b25e9f32f724"},"vehicle_type_id":"4","last_reported":1692122880,"current_range_meters":22000,"station_id":"ce4bhr92rcd13ifvqhsg","pricing_plan_id":"free"},{"bike_id":"23f5f11c-1631-4826-9b70-90ab56e6e026","system_id":"levelo_inurba_marseille","lat":43.32351,"lon":5.40623,"is_reserved":false,"is_disabled":false,"rental_uris":{"android":"levelo://app?vid=23f5f11c-1631-4826-9b70-90ab56e6e026","ios":"levelo://app?vid=23f5f11c-1631-4826-9b70-90ab56e6e026"},"vehicle_type_id":"4","last_reported":1692122880,"current_range_meters":20800,"station_id":"ce4bhq92rcd13ifvqhjg","pricing_plan_id":"free"},{"bike_id":"2297773c-2a3c-486c-a67e-11af2bfee329","system_id":"levelo_inurba_marseille","lat":43.2848,"lon":5.3842,"is_reserved":false,"is_disabled":false,"rental_uris":{"android":"levelo://app?vid=2297773c-2a3c-486c-a67e-11af2bfee329","ios":"levelo://app?vid=2297773c-2a3c-486c-a67e-11af2bfee329"},"vehicle_type_id":"4","last_reported":1692122880,"current_range_meters":21600,"station_id":"ce4bh512rcd13ifvqe3g","pricing_plan_id":"free"},{"bike_id":"731871ff-d849-4754-b04a-968ce9f531d3","system_id":"levelo_inurba_marseille","lat":43.28479,"lon":5.38425,"is_reserved":false,"is_disabled":false,"rental_uris":{"android":"levelo://app?vid=731871ff-d849-4754-b04a-968ce9f531d3","ios":"levelo://app?vid=731871ff-d849-4754-b04a-968ce9f531d3"},"vehicle_type_id":"4","last_reported":1692122880,"current_range_meters":14400,"station_id":"ce4bh512rcd13ifvqe3g","pricing_plan_id":"free"},{"bike_id":"7371e8a2-b239-495c-aa66-6d8c193ab1be","system_id":"levelo_inurba_marseille","lat":43.288501,"lon":5.393087,"is_reserved":false,"is_disabled":false,"rental_uris":{"android":"levelo://app?vid=7371e8a2-b239-495c-aa66-6d8c193ab1be","ios":"levelo://app?vid=7371e8a2-b239-495c-aa66-6d8c193ab1be"},"vehicle_type_id":"4","last_reported":1692122880,"current_range_meters":22400,"station_id":"ce4bh2p2rcd13ifvqdi0","pricing_plan_id":"free"},{"bike_id":"0b6e39e1-615c-4c8a-ab0a-2b1f943338f3","system_id":"levelo_inurba_marseille","lat":43.288501,"lon":5.393087,"is_reserved":false,"is_disabled":false,"rental_uris":{"android":"levelo://app?vid=0b6e39e1-615c-4c8a-ab0a-2b1f943338f3","ios":"levelo://app?vid=0b6e39e1-615c-4c8a-ab0a-2b1f943338f3"},"vehicle_type_id":"4","last_reported":1692122880,"current_range_meters":7600,"station_id":"ce4bh2p2rcd13ifvqdi0","pricing_plan_id":"free"},{"bike_id":"14af47c1-d83d-4f96-b625-1a1b2ec4488f","system_id":"levelo_inurba_marseille","lat":43.28347,"lon":5.38101,"is_reserved":false,"is_disabled":false,"rental_uris":{"android":"levelo://app?vid=14af47c1-d83d-4f96-b625-1a1b2ec4488f","ios":"levelo://app?vid=14af47c1-d83d-4f96-b625-1a1b2ec4488f"},"vehicle_type_id":"4","last_reported":1692122880,"current_range_meters":7600,"station_id":"","pricing_plan_id":"free"},{"bike_id":"c7e571e9-d9c7-4e7d-885c-df3ba213020a","system_id":"levelo_inurba_marseille","lat":43.28195,"lon":5.374165,"is_reserved":false,"is_disabled":false,"rental_uris":{"android":"levelo://app?vid=c7e571e9-d9c7-4e7d-885c-df3ba213020a","ios":"levelo://app?vid=c7e571e9-d9c7-4e7d-885c-df3ba213020a"},"vehicle_type_id":"4","last_reported":1692122880,"current_range_meters":26800,"station_id":"","pricing_plan_id":"free"},{"bike_id":"5cec26ac-344f-432b-af34-450b75305b9b","system_id":"levelo_inurba_marseille","lat":43.292724,"lon":5.401131,"is_reserved":false,"is_disabled":false,"rental_uris":{"android":"levelo://app?vid=5cec26ac-344f-432b-af34-450b75305b9b","ios":"levelo://app?vid=5cec26ac-344f-432b-af34-450b75305b9b"},"vehicle_type_id":"4","last_reported":1692122880,"current_range_meters":31200,"station_id":"ce4bh312rcd13ifvqdk0","pricing_plan_id":"free"},{"bike_id":"b88fdd10-d64e-4eed-a98c-6138e3e1b7fe","system_id":"levelo_inurba_marseille","lat":43.283502,"lon":5.386471,"is_reserved":false,"is_disabled":false,"rental_uris":{"android":"levelo://app?vid=b88fdd10-d64e-4eed-a98c-6138e3e1b7fe","ios":"levelo://app?vid=b88fdd10-d64e-4eed-a98c-6138e3e1b7fe"},"vehicle_type_id":"4","last_reported":1692122880,"current_range_meters":19600,"station_id":"ce4bh492rcd13ifvqdvg","pricing_plan_id":"free"},{"bike_id":"dbba22cf-6799-4eb2-8c8f-d72d2ce09c0e","system_id":"levelo_inurba_marseille","lat":43.282754,"lon":5.350519,"is_reserved":false,"is_disabled":false,"rental_uris":{"android":"levelo://app?vid=dbba22cf-6799-4eb2-8c8f-d72d2ce09c0e","ios":"levelo://app?vid=dbba22cf-6799-4eb2-8c8f-d72d2ce09c0e"},"vehicle_type_id":"4","last_reported":1692122880,"current_range_meters":0,"station_id":"ce4bhbp2rcd13ifvqerg","pricing_plan_id":"free"},{"bike_id":"7b19bc7c-a2e7-4ff5-9f37-3c14b9db0605","system_id":"levelo_inurba_marseille","lat":43.282754,"lon":5.350519,"is_reserved":false,"is_disabled":false,"rental_uris":{"android":"levelo://app?vid=7b19bc7c-a2e7-4ff5-9f37-3c14b9db0605","ios":"levelo://app?vid=7b19bc7c-a2e7-4ff5-9f37-3c14b9db0605"},"vehicle_type_id":"4","last_reported":1692122880,"current_range_meters":24000,"station_id":"ce4bhbp2rcd13ifvqerg","pricing_plan_id":"free"},{"bike_id":"7675a0ab-63da-4883-9989-ce3b200f3c1e","system_id":"levelo_inurba_marseille","lat":43.298037,"lon":5.381066,"is_reserved":false,"is_disabled":false,"rental_uris":{"android":"levelo://app?vid=7675a0ab-63da-4883-9989-ce3b200f3c1e","ios":"levelo://app?vid=7675a0ab-63da-4883-9989-ce3b200f3c1e"},"vehicle_type_id":"4","last_reported":1692122880,"current_range_meters":0,"station_id":"ce4bgip2rcd13ifvqbb0","pricing_plan_id":"free"},{"bike_id":"d182c4c4-6d75-472d-9429-5751e5c05a74","system_id":"levelo_inurba_marseille","lat":43.28041,"lon":5.36938,"is_reserved":false,"is_disabled":false,"rental_uris":{"android":"levelo://app?vid=d182c4c4-6d75-472d-9429-5751e5c05a74","ios":"levelo://app?vid=d182c4c4-6d75-472d-9429-5751e5c05a74"},"vehicle_type_id":"4","last_reported":1692122880,"current_range_meters":29600,"station_id":"ce4bha12rcd13ifvqef0","pricing_plan_id":"free"},{"bike_id":"88940920-727e-47f8-bee6-24feedff1167","system_id":"levelo_inurba_marseille","lat":43.282744,"lon":5.350533,"is_reserved":false,"is_disabled":false,"rental_uris":{"android":"levelo://app?vid=88940920-727e-47f8-bee6-24feedff1167","ios":"levelo://app?vid=88940920-727e-47f8-bee6-24feedff1167"},"vehicle_type_id":"4","last_reported":1692122880,"current_range_meters":31200,"station_id":"ce4bhbp2rcd13ifvqerg","pricing_plan_id":"free"},{"bike_id":"eb8e4c4f-5fc5-4007-ab2b-231fad0dc17c","system_id":"levelo_inurba_marseille","lat":43.290412,"lon":5.399633,"is_reserved":false,"is_disabled":false,"rental_uris":{"android":"levelo://app?vid=eb8e4c4f-5fc5-4007-ab2b-231fad0dc17c","ios":"levelo://app?vid=eb8e4c4f-5fc5-4007-ab2b-231fad0dc17c"},"vehicle_type_id":"4","last_reported":1692122880,"current_range_meters":31600,"station_id":"ce4bh392rcd13ifvqdm0","pricing_plan_id":"free"},{"bike_id":"e6ff2f61-c2dc-4928-ac7d-c2841d476c4c","system_id":"levelo_inurba_marseille","lat":43.290461,"lon":5.399602,"is_reserved":false,"is_disabled":false,"rental_uris":{"android":"levelo://app?vid=e6ff2f61-c2dc-4928-ac7d-c2841d476c4c","ios":"levelo://app?vid=e6ff2f61-c2dc-4928-ac7d-c2841d476c4c"},"vehicle_type_id":"4","last_reported":1692122880,"current_range_meters":3200,"station_id":"ce4bh392rcd13ifvqdm0","pricing_plan_id":"free"},{"bike_id":"12b8470f-2736-4a7e-a0f5-70bc8538c649","system_id":"levelo_inurba_marseille","lat":43.284462,"lon":5.392121,"is_reserved":false,"is_disabled":false,"rental_uris":{"android":"levelo://app?vid=12b8470f-2736-4a7e-a0f5-70bc8538c649","ios":"levelo://app?vid=12b8470f-2736-4a7e-a0f5-70bc8538c649"},"vehicle_type_id":"4","last_reported":1692122880,"current_range_meters":16800,"station_id":"ce4bhoh2rcd13ifvqh5g","pricing_plan_id":"free"},{"bike_id":"c83d6b70-69ef-4b1a-8229-3a3344ac379e","system_id":"levelo_inurba_marseille","lat":43.284462,"lon":5.392121,"is_reserved":false,"is_disabled":false,"rental_uris":{"android":"levelo://app?vid=c83d6b70-69ef-4b1a-8229-3a3344ac379e","ios":"levelo://app?vid=c83d6b70-69ef-4b1a-8229-3a3344ac379e"},"vehicle_type_id":"4","last_reported":1692122880,"current_range_meters":22800,"station_id":"ce4bhoh2rcd13ifvqh5g","pricing_plan_id":"free"},{"bike_id":"af2baa02-1faa-4063-8250-9a6a45d0265c","system_id":"levelo_inurba_marseille","lat":43.284462,"lon":5.392121,"is_reserved":false,"is_disabled":false,"rental_uris":{"android":"levelo://app?vid=af2baa02-1faa-4063-8250-9a6a45d0265c","ios":"levelo://app?vid=af2baa02-1faa-4063-8250-9a6a45d0265c"},"vehicle_type_id":"4","last_reported":1692122880,"current_range_meters":16000,"station_id":"ce4bhoh2rcd13ifvqh5g","pricing_plan_id":"free"},{"bike_id":"b526256a-170d-4693-8cc7-60269c8fe122","system_id":"levelo_inurba_marseille","lat":43.284462,"lon":5.392121,"is_reserved":false,"is_disabled":false,"rental_uris":{"android":"levelo://app?vid=b526256a-170d-4693-8cc7-60269c8fe122","ios":"levelo://app?vid=b526256a-170d-4693-8cc7-60269c8fe122"},"vehicle_type_id":"4","last_reported":1692122880,"current_range_meters":6000,"station_id":"ce4bhoh2rcd13ifvqh5g","pricing_plan_id":"free"},{"bike_id":"9ea2dcfb-23b5-4e4c-98af-6603a61c9ebc","system_id":"levelo_inurba_marseille","lat":43.284462,"lon":5.392121,"is_reserved":false,"is_disabled":false,"rental_uris":{"android":"levelo://app?vid=9ea2dcfb-23b5-4e4c-98af-6603a61c9ebc","ios":"levelo://app?vid=9ea2dcfb-23b5-4e4c-98af-6603a61c9ebc"},"vehicle_type_id":"4","last_reported":1692122880,"current_range_meters":18800,"station_id":"ce4bhoh2rcd13ifvqh5g","pricing_plan_id":"free"},{"bike_id":"a0f258ed-ced3-412c-a3a0-592502c28464","system_id":"levelo_inurba_marseille","lat":43.32661,"lon":5.40929,"is_reserved":false,"is_disabled":false,"rental_uris":{"android":"levelo://app?vid=a0f258ed-ced3-412c-a3a0-592502c28464","ios":"levelo://app?vid=a0f258ed-ced3-412c-a3a0-592502c28464"},"vehicle_type_id":"4","last_reported":1692122880,"current_range_meters":3200,"station_id":"","pricing_plan_id":"free"},{"bike_id":"4b776695-f734-4587-863d-2e7681066bd3","system_id":"levelo_inurba_marseille","lat":43.28573,"lon":5.394992,"is_reserved":false,"is_disabled":false,"rental_uris":{"android":"levelo://app?vid=4b776695-f734-4587-863d-2e7681066bd3","ios":"levelo://app?vid=4b776695-f734-4587-863d-2e7681066bd3"},"vehicle_type_id":"4","last_reported":1692122880,"current_range_meters":23200,"station_id":"ce4bh292rcd13ifvqdg0","pricing_plan_id":"free"},{"bike_id":"d68a3d10-7a1a-42f2-ad06-c5a3d62819fe","system_id":"levelo_inurba_marseille","lat":43.285742,"lon":5.395004,"is_reserved":false,"is_disabled":false,"rental_uris":{"android":"levelo://app?vid=d68a3d10-7a1a-42f2-ad06-c5a3d62819fe","ios":"levelo://app?vid=d68a3d10-7a1a-42f2-ad06-c5a3d62819fe"},"vehicle_type_id":"4","last_reported":1692122880,"current_range_meters":22400,"station_id":"ce4bh292rcd13ifvqdg0","pricing_plan_id":"free"},{"bike_id":"269c37ea-578a-4ad1-b83b-695cba211bce","system_id":"levelo_inurba_marseille","lat":43.28573,"lon":5.394992,"is_reserved":false,"is_disabled":false,"rental_uris":{"android":"levelo://app?vid=269c37ea-578a-4ad1-b83b-695cba211bce","ios":"levelo://app?vid=269c37ea-578a-4ad1-b83b-695cba211bce"},"vehicle_type_id":"4","last_reported":1692122880,"current_range_meters":30400,"station_id":"ce4bh292rcd13ifvqdg0","pricing_plan_id":"free"},{"bike_id":"738d5aa5-659a-4edf-9ae9-f3f148a17f92","system_id":"levelo_inurba_marseille","lat":43.32656,"lon":5.40957,"is_reserved":false,"is_disabled":false,"rental_uris":{"android":"levelo://app?vid=738d5aa5-659a-4edf-9ae9-f3f148a17f92","ios":"levelo://app?vid=738d5aa5-659a-4edf-9ae9-f3f148a17f92"},"vehicle_type_id":"4","last_reported":1692122880,"current_range_meters":8800,"station_id":"ce4bhpp2rcd13ifvqhgg","pricing_plan_id":"free"},{"bike_id":"bbfd7829-ac19-4240-b429-f3874ec053a7","system_id":"levelo_inurba_marseille","lat":43.304188,"lon":5.412904,"is_reserved":false,"is_disabled":false,"rental_uris":{"android":"levelo://app?vid=bbfd7829-ac19-4240-b429-f3874ec053a7","ios":"levelo://app?vid=bbfd7829-ac19-4240-b429-f3874ec053a7"},"vehicle_type_id":"4","last_reported":1692122880,"current_range_meters":12800,"station_id":"ce4bhop2rcd13ifvqh8g","pricing_plan_id":"free"},{"bike_id":"bb379d1b-7300-4bcf-8f42-22aa3e90ff54","system_id":"levelo_inurba_marseille","lat":43.279087,"lon":5.380114,"is_reserved":false,"is_disabled":false,"rental_uris":{"android":"levelo://app?vid=bb379d1b-7300-4bcf-8f42-22aa3e90ff54","ios":"levelo://app?vid=bb379d1b-7300-4bcf-8f42-22aa3e90ff54"},"vehicle_type_id":"4","last_reported":1692122880,"current_range_meters":25600,"station_id":"ce4bhf92rcd13ifvqf50","pricing_plan_id":"free"},{"bike_id":"d2ce74f7-4c86-4154-8f14-745f94db6351","system_id":"levelo_inurba_marseille","lat":43.287154,"lon":5.399979,"is_reserved":false,"is_disabled":false,"rental_uris":{"android":"levelo://app?vid=d2ce74f7-4c86-4154-8f14-745f94db6351","ios":"levelo://app?vid=d2ce74f7-4c86-4154-8f14-745f94db6351"},"vehicle_type_id":"4","last_reported":1692122880,"current_range_meters":8000,"station_id":"ce4bho92rcd13ifvqh3g","pricing_plan_id":"free"},{"bike_id":"f460e78a-859c-4be1-af7b-36ec068c08a3","system_id":"levelo_inurba_marseille","lat":43.320045,"lon":5.415048,"is_reserved":false,"is_disabled":false,"rental_uris":{"android":"levelo://app?vid=f460e78a-859c-4be1-af7b-36ec068c08a3","ios":"levelo://app?vid=f460e78a-859c-4be1-af7b-36ec068c08a3"},"vehicle_type_id":"4","last_reported":1692122880,"current_range_meters":6000,"station_id":"ce4bhq92rcd13ifvqhkg","pricing_plan_id":"free"},{"bike_id":"506ddd08-fde7-4b7d-a329-bb75c4de85aa","system_id":"levelo_inurba_marseille","lat":43.320045,"lon":5.415046,"is_reserved":false,"is_disabled":false,"rental_uris":{"android":"levelo://app?vid=506ddd08-fde7-4b7d-a329-bb75c4de85aa","ios":"levelo://app?vid=506ddd08-fde7-4b7d-a329-bb75c4de85aa"},"vehicle_type_id":"4","last_reported":1692122880,"current_range_meters":29600,"station_id":"ce4bhq92rcd13ifvqhkg","pricing_plan_id":"free"},{"bike_id":"18aa97f2-ac5f-4102-9cc7-e2376f4f7eef","system_id":"levelo_inurba_marseille","lat":43.320045,"lon":5.415048,"is_reserved":false,"is_disabled":false,"rental_uris":{"android":"levelo://app?vid=18aa97f2-ac5f-4102-9cc7-e2376f4f7eef","ios":"levelo://app?vid=18aa97f2-ac5f-4102-9cc7-e2376f4f7eef"},"vehicle_type_id":"4","last_reported":1692122880,"current_range_meters":28000,"station_id":"ce4bhq92rcd13ifvqhkg","pricing_plan_id":"free"},{"bike_id":"36abedd8-b1e3-42d2-98fc-51335c669fe6","system_id":"levelo_inurba_marseille","lat":43.320045,"lon":5.415048,"is_reserved":false,"is_disabled":false,"rental_uris":{"android":"levelo://app?vid=36abedd8-b1e3-42d2-98fc-51335c669fe6","ios":"levelo://app?vid=36abedd8-b1e3-42d2-98fc-51335c669fe6"},"vehicle_type_id":"4","last_reported":1692122880,"current_range_meters":19600,"station_id":"ce4bhq92rcd13ifvqhkg","pricing_plan_id":"free"},{"bike_id":"c327718a-8fe6-4791-a349-aba0f8f94e82","system_id":"levelo_inurba_marseille","lat":43.279742,"lon":5.38744,"is_reserved":false,"is_disabled":false,"rental_uris":{"android":"levelo://app?vid=c327718a-8fe6-4791-a349-aba0f8f94e82","ios":"levelo://app?vid=c327718a-8fe6-4791-a349-aba0f8f94e82"},"vehicle_type_id":"4","last_reported":1692122880,"current_range_meters":26800,"station_id":"ce4bhg12rcd13ifvqf80","pricing_plan_id":"free"},{"bike_id":"a3f6d9bc-8b47-4c63-bea1-4c2556785f27","system_id":"levelo_inurba_marseille","lat":43.27617,"lon":5.36101,"is_reserved":false,"is_disabled":false,"rental_uris":{"android":"levelo://app?vid=a3f6d9bc-8b47-4c63-bea1-4c2556785f27","ios":"levelo://app?vid=a3f6d9bc-8b47-4c63-bea1-4c2556785f27"},"vehicle_type_id":"4","last_reported":1692122880,"current_range_meters":8000,"station_id":"ce4bgj92rcd13ifvqbe0","pricing_plan_id":"free"},{"bike_id":"aa526d45-13b8-4884-b915-a3ef5827dd89","system_id":"levelo_inurba_marseille","lat":43.280784,"lon":5.396622,"is_reserved":false,"is_disabled":false,"rental_uris":{"android":"levelo://app?vid=aa526d45-13b8-4884-b915-a3ef5827dd89","ios":"levelo://app?vid=aa526d45-13b8-4884-b915-a3ef5827dd89"},"vehicle_type_id":"4","last_reported":1692122880,"current_range_meters":6400,"station_id":"ce4bho12rcd13ifvqh2g","pricing_plan_id":"free"},{"bike_id":"8cd56a56-b94d-427a-870f-63e7a8d95516","system_id":"levelo_inurba_marseille","lat":43.280784,"lon":5.396622,"is_reserved":false,"is_disabled":false,"rental_uris":{"android":"levelo://app?vid=8cd56a56-b94d-427a-870f-63e7a8d95516","ios":"levelo://app?vid=8cd56a56-b94d-427a-870f-63e7a8d95516"},"vehicle_type_id":"4","last_reported":1692122880,"current_range_meters":16800,"station_id":"ce4bho12rcd13ifvqh2g","pricing_plan_id":"free"},{"bike_id":"56fa9c2a-3f22-4b39-9e8b-d18bf569bb3b","system_id":"levelo_inurba_marseille","lat":43.28085,"lon":5.39661,"is_reserved":false,"is_disabled":false,"rental_uris":{"android":"levelo://app?vid=56fa9c2a-3f22-4b39-9e8b-d18bf569bb3b","ios":"levelo://app?vid=56fa9c2a-3f22-4b39-9e8b-d18bf569bb3b"},"vehicle_type_id":"4","last_reported":1692122880,"current_range_meters":27200,"station_id":"ce4bho12rcd13ifvqh2g","pricing_plan_id":"free"},{"bike_id":"c5a106b8-29b4-46fb-a9a7-a57fe31fa4cb","system_id":"levelo_inurba_marseille","lat":43.280784,"lon":5.396622,"is_reserved":false,"is_disabled":false,"rental_uris":{"android":"levelo://app?vid=c5a106b8-29b4-46fb-a9a7-a57fe31fa4cb","ios":"levelo://app?vid=c5a106b8-29b4-46fb-a9a7-a57fe31fa4cb"},"vehicle_type_id":"4","last_reported":1692122880,"current_range_meters":14000,"station_id":"ce4bho12rcd13ifvqh2g","pricing_plan_id":"free"},{"bike_id":"a7148325-e1f6-4428-ae23-0b269796e0a8","system_id":"levelo_inurba_marseille","lat":43.280784,"lon":5.396622,"is_reserved":false,"is_disabled":false,"rental_uris":{"android":"levelo://app?vid=a7148325-e1f6-4428-ae23-0b269796e0a8","ios":"levelo://app?vid=a7148325-e1f6-4428-ae23-0b269796e0a8"},"vehicle_type_id":"4","last_reported":1692122880,"current_range_meters":22000,"station_id":"ce4bho12rcd13ifvqh2g","pricing_plan_id":"free"},{"bike_id":"300ff8da-3db3-4425-bbc6-d085a489e94a","system_id":"levelo_inurba_marseille","lat":43.33612,"lon":5.410321,"is_reserved":false,"is_disabled":false,"rental_uris":{"android":"levelo://app?vid=300ff8da-3db3-4425-bbc6-d085a489e94a","ios":"levelo://app?vid=300ff8da-3db3-4425-bbc6-d085a489e94a"},"vehicle_type_id":"4","last_reported":1692122880,"current_range_meters":400,"station_id":"ce4bhqh2rcd13ifvqhmg","pricing_plan_id":"free"},{"bike_id":"747e7ea3-0e88-4f02-95fe-afa4f47a34a4","system_id":"levelo_inurba_marseille","lat":43.278401,"lon":5.392152,"is_reserved":false,"is_disabled":false,"rental_uris":{"android":"levelo://app?vid=747e7ea3-0e88-4f02-95fe-afa4f47a34a4","ios":"levelo://app?vid=747e7ea3-0e88-4f02-95fe-afa4f47a34a4"},"vehicle_type_id":"4","last_reported":1692122880,"current_range_meters":18400,"station_id":"ce4bhjp2rcd13ifvqga0","pricing_plan_id":"free"},{"bike_id":"820f9fcb-b4c4-4d5d-8857-a3e1f58b0fe6","system_id":"levelo_inurba_marseille","lat":43.278401,"lon":5.392152,"is_reserved":false,"is_disabled":false,"rental_uris":{"android":"levelo://app?vid=820f9fcb-b4c4-4d5d-8857-a3e1f58b0fe6","ios":"levelo://app?vid=820f9fcb-b4c4-4d5d-8857-a3e1f58b0fe6"},"vehicle_type_id":"4","last_reported":1692122880,"current_range_meters":4400,"station_id":"ce4bhjp2rcd13ifvqga0","pricing_plan_id":"free"},{"bike_id":"63b37e1d-1a9c-45c8-b9f0-cf076a2990cc","system_id":"levelo_inurba_marseille","lat":43.278401,"lon":5.392152,"is_reserved":false,"is_disabled":false,"rental_uris":{"android":"levelo://app?vid=63b37e1d-1a9c-45c8-b9f0-cf076a2990cc","ios":"levelo://app?vid=63b37e1d-1a9c-45c8-b9f0-cf076a2990cc"},"vehicle_type_id":"4","last_reported":1692122880,"current_range_meters":13600,"station_id":"ce4bhjp2rcd13ifvqga0","pricing_plan_id":"free"},{"bike_id":"3a411de1-bcf1-40d1-8b82-8049391c7cbd","system_id":"levelo_inurba_marseille","lat":43.275625,"lon":5.384392,"is_reserved":false,"is_disabled":false,"rental_uris":{"android":"levelo://app?vid=3a411de1-bcf1-40d1-8b82-8049391c7cbd","ios":"levelo://app?vid=3a411de1-bcf1-40d1-8b82-8049391c7cbd"},"vehicle_type_id":"4","last_reported":1692122880,"current_range_meters":17600,"station_id":"ce4bhh92rcd13ifvqfi0","pricing_plan_id":"free"},{"bike_id":"8c471772-3346-45c0-adbb-6231f5c787ce","system_id":"levelo_inurba_marseille","lat":43.27566,"lon":5.38403,"is_reserved":false,"is_disabled":false,"rental_uris":{"android":"levelo://app?vid=8c471772-3346-45c0-adbb-6231f5c787ce","ios":"levelo://app?vid=8c471772-3346-45c0-adbb-6231f5c787ce"},"vehicle_type_id":"4","last_reported":1692122880,"current_range_meters":31200,"station_id":"ce4bhh92rcd13ifvqfi0","pricing_plan_id":"free"},{"bike_id":"01371662-b7b1-4eee-81a1-59b364fd59c4","system_id":"levelo_inurba_marseille","lat":43.275625,"lon":5.384392,"is_reserved":false,"is_disabled":false,"rental_uris":{"android":"levelo://app?vid=01371662-b7b1-4eee-81a1-59b364fd59c4","ios":"levelo://app?vid=01371662-b7b1-4eee-81a1-59b364fd59c4"},"vehicle_type_id":"4","last_reported":1692122880,"current_range_meters":29600,"station_id":"ce4bhh92rcd13ifvqfi0","pricing_plan_id":"free"},{"bike_id":"28c96643-3b91-41a4-9655-deb6c724baad","system_id":"levelo_inurba_marseille","lat":43.275663,"lon":5.384135,"is_reserved":false,"is_disabled":false,"rental_uris":{"android":"levelo://app?vid=28c96643-3b91-41a4-9655-deb6c724baad","ios":"levelo://app?vid=28c96643-3b91-41a4-9655-deb6c724baad"},"vehicle_type_id":"4","last_reported":1692122880,"current_range_meters":31200,"station_id":"ce4bhh92rcd13ifvqfi0","pricing_plan_id":"free"},{"bike_id":"a5187b78-960e-45ce-8eeb-30362bc8974d","system_id":"levelo_inurba_marseille","lat":43.275625,"lon":5.384392,"is_reserved":false,"is_disabled":false,"rental_uris":{"android":"levelo://app?vid=a5187b78-960e-45ce-8eeb-30362bc8974d","ios":"levelo://app?vid=a5187b78-960e-45ce-8eeb-30362bc8974d"},"vehicle_type_id":"4","last_reported":1692122880,"current_range_meters":31600,"station_id":"ce4bhh92rcd13ifvqfi0","pricing_plan_id":"free"},{"bike_id":"6df379b2-ee62-4a26-bf9c-cfc24a6d6fbc","system_id":"levelo_inurba_marseille","lat":43.275625,"lon":5.384392,"is_reserved":false,"is_disabled":false,"rental_uris":{"android":"levelo://app?vid=6df379b2-ee62-4a26-bf9c-cfc24a6d6fbc","ios":"levelo://app?vid=6df379b2-ee62-4a26-bf9c-cfc24a6d6fbc"},"vehicle_type_id":"4","last_reported":1692122880,"current_range_meters":19200,"station_id":"ce4bhh92rcd13ifvqfi0","pricing_plan_id":"free"},{"bike_id":"90e76974-441b-4f92-8aa0-15ad055c7ec0","system_id":"levelo_inurba_marseille","lat":43.275625,"lon":5.384392,"is_reserved":false,"is_disabled":false,"rental_uris":{"android":"levelo://app?vid=90e76974-441b-4f92-8aa0-15ad055c7ec0","ios":"levelo://app?vid=90e76974-441b-4f92-8aa0-15ad055c7ec0"},"vehicle_type_id":"4","last_reported":1692122880,"current_range_meters":28800,"station_id":"ce4bhh92rcd13ifvqfi0","pricing_plan_id":"free"},{"bike_id":"5f4712ae-fc00-44fb-ac8e-7cc34512422f","system_id":"levelo_inurba_marseille","lat":43.275625,"lon":5.384392,"is_reserved":false,"is_disabled":false,"rental_uris":{"android":"levelo://app?vid=5f4712ae-fc00-44fb-ac8e-7cc34512422f","ios":"levelo://app?vid=5f4712ae-fc00-44fb-ac8e-7cc34512422f"},"vehicle_type_id":"4","last_reported":1692122880,"current_range_meters":31600,"station_id":"ce4bhh92rcd13ifvqfi0","pricing_plan_id":"free"},{"bike_id":"23e9f104-db81-4ee0-ad7d-66f9a64cf807","system_id":"levelo_inurba_marseille","lat":43.33607,"lon":5.41028,"is_reserved":false,"is_disabled":false,"rental_uris":{"android":"levelo://app?vid=23e9f104-db81-4ee0-ad7d-66f9a64cf807","ios":"levelo://app?vid=23e9f104-db81-4ee0-ad7d-66f9a64cf807"},"vehicle_type_id":"4","last_reported":1692122880,"current_range_meters":24400,"station_id":"ce4bhqh2rcd13ifvqhmg","pricing_plan_id":"free"},{"bike_id":"ad6ffb81-003d-442f-ae70-ee16c0dd18be","system_id":"levelo_inurba_marseille","lat":43.275625,"lon":5.384392,"is_reserved":false,"is_disabled":false,"rental_uris":{"android":"levelo://app?vid=ad6ffb81-003d-442f-ae70-ee16c0dd18be","ios":"levelo://app?vid=ad6ffb81-003d-442f-ae70-ee16c0dd18be"},"vehicle_type_id":"4","last_reported":1692122880,"current_range_meters":15600,"station_id":"ce4bhh92rcd13ifvqfi0","pricing_plan_id":"free"},{"bike_id":"9c1f30cc-4ee0-4694-a2d0-ff505789b146","system_id":"levelo_inurba_marseille","lat":43.275625,"lon":5.384392,"is_reserved":false,"is_disabled":false,"rental_uris":{"android":"levelo://app?vid=9c1f30cc-4ee0-4694-a2d0-ff505789b146","ios":"levelo://app?vid=9c1f30cc-4ee0-4694-a2d0-ff505789b146"},"vehicle_type_id":"4","last_reported":1692122880,"current_range_meters":27200,"station_id":"ce4bhh92rcd13ifvqfi0","pricing_plan_id":"free"},{"bike_id":"144536db-9679-4726-aa21-f665aee7edbb","system_id":"levelo_inurba_marseille","lat":43.336134,"lon":5.410341,"is_reserved":false,"is_disabled":false,"rental_uris":{"android":"levelo://app?vid=144536db-9679-4726-aa21-f665aee7edbb","ios":"levelo://app?vid=144536db-9679-4726-aa21-f665aee7edbb"},"vehicle_type_id":"4","last_reported":1692122880,"current_range_meters":31600,"station_id":"ce4bhqh2rcd13ifvqhmg","pricing_plan_id":"free"},{"bike_id":"5d705d02-5926-477f-9f3b-851a28284495","system_id":"levelo_inurba_marseille","lat":43.276769,"lon":5.388787,"is_reserved":false,"is_disabled":false,"rental_uris":{"android":"levelo://app?vid=5d705d02-5926-477f-9f3b-851a28284495","ios":"levelo://app?vid=5d705d02-5926-477f-9f3b-851a28284495"},"vehicle_type_id":"4","last_reported":1692122880,"current_range_meters":28000,"station_id":"ce4bhi12rcd13ifvqfo0","pricing_plan_id":"free"},{"bike_id":"2c002134-e4d2-41d1-b436-28e8e2ea24ca","system_id":"levelo_inurba_marseille","lat":43.276769,"lon":5.388787,"is_reserved":false,"is_disabled":false,"rental_uris":{"android":"levelo://app?vid=2c002134-e4d2-41d1-b436-28e8e2ea24ca","ios":"levelo://app?vid=2c002134-e4d2-41d1-b436-28e8e2ea24ca"},"vehicle_type_id":"4","last_reported":1692122880,"current_range_meters":31200,"station_id":"ce4bhi12rcd13ifvqfo0","pricing_plan_id":"free"},{"bike_id":"d50856f7-633a-4751-83ac-96d8cca1c96b","system_id":"levelo_inurba_marseille","lat":43.276771,"lon":5.388799,"is_reserved":false,"is_disabled":false,"rental_uris":{"android":"levelo://app?vid=d50856f7-633a-4751-83ac-96d8cca1c96b","ios":"levelo://app?vid=d50856f7-633a-4751-83ac-96d8cca1c96b"},"vehicle_type_id":"4","last_reported":1692122880,"current_range_meters":5200,"station_id":"ce4bhi12rcd13ifvqfo0","pricing_plan_id":"free"},{"bike_id":"98bcd0b4-60cb-4216-8411-e72e651ae7e8","system_id":"levelo_inurba_marseille","lat":43.276771,"lon":5.388799,"is_reserved":false,"is_disabled":false,"rental_uris":{"android":"levelo://app?vid=98bcd0b4-60cb-4216-8411-e72e651ae7e8","ios":"levelo://app?vid=98bcd0b4-60cb-4216-8411-e72e651ae7e8"},"vehicle_type_id":"4","last_reported":1692122880,"current_range_meters":19600,"station_id":"ce4bhi12rcd13ifvqfo0","pricing_plan_id":"free"},{"bike_id":"54afe85a-f98b-4099-81b8-308d86958c3f","system_id":"levelo_inurba_marseille","lat":43.276771,"lon":5.388799,"is_reserved":false,"is_disabled":false,"rental_uris":{"android":"levelo://app?vid=54afe85a-f98b-4099-81b8-308d86958c3f","ios":"levelo://app?vid=54afe85a-f98b-4099-81b8-308d86958c3f"},"vehicle_type_id":"4","last_reported":1692122880,"current_range_meters":9600,"station_id":"ce4bhi12rcd13ifvqfo0","pricing_plan_id":"free"},{"bike_id":"9241b22a-deb3-4e40-a80d-43c8cc870ac4","system_id":"levelo_inurba_marseille","lat":43.3414,"lon":5.40896,"is_reserved":false,"is_disabled":false,"rental_uris":{"android":"levelo://app?vid=9241b22a-deb3-4e40-a80d-43c8cc870ac4","ios":"levelo://app?vid=9241b22a-deb3-4e40-a80d-43c8cc870ac4"},"vehicle_type_id":"4","last_reported":1692122880,"current_range_meters":16800,"station_id":"ce4bhqh2rcd13ifvqhlg","pricing_plan_id":"free"},{"bike_id":"2d8346a6-7f0c-45d4-9d3b-857e656c609a","system_id":"levelo_inurba_marseille","lat":43.340804,"lon":5.410219,"is_reserved":false,"is_disabled":false,"rental_uris":{"android":"levelo://app?vid=2d8346a6-7f0c-45d4-9d3b-857e656c609a","ios":"levelo://app?vid=2d8346a6-7f0c-45d4-9d3b-857e656c609a"},"vehicle_type_id":"4","last_reported":1692122880,"current_range_meters":27200,"station_id":"ce4bhqh2rcd13ifvqhlg","pricing_plan_id":"free"},{"bike_id":"47ce54ab-84fa-4f95-8b5a-6599448f3a8c","system_id":"levelo_inurba_marseille","lat":43.340804,"lon":5.410219,"is_reserved":false,"is_disabled":false,"rental_uris":{"android":"levelo://app?vid=47ce54ab-84fa-4f95-8b5a-6599448f3a8c","ios":"levelo://app?vid=47ce54ab-84fa-4f95-8b5a-6599448f3a8c"},"vehicle_type_id":"4","last_reported":1692122880,"current_range_meters":30400,"station_id":"ce4bhqh2rcd13ifvqhlg","pricing_plan_id":"free"},{"bike_id":"f41fc991-ddab-451d-ae3b-bb6a9c0b5d87","system_id":"levelo_inurba_marseille","lat":43.34141,"lon":5.40899,"is_reserved":false,"is_disabled":false,"rental_uris":{"android":"levelo://app?vid=f41fc991-ddab-451d-ae3b-bb6a9c0b5d87","ios":"levelo://app?vid=f41fc991-ddab-451d-ae3b-bb6a9c0b5d87"},"vehicle_type_id":"4","last_reported":1692122880,"current_range_meters":13600,"station_id":"ce4bhqh2rcd13ifvqhlg","pricing_plan_id":"free"},{"bike_id":"2d634f48-4618-4769-baad-2acd886e7d45","system_id":"levelo_inurba_marseille","lat":43.340804,"lon":5.410219,"is_reserved":false,"is_disabled":false,"rental_uris":{"android":"levelo://app?vid=2d634f48-4618-4769-baad-2acd886e7d45","ios":"levelo://app?vid=2d634f48-4618-4769-baad-2acd886e7d45"},"vehicle_type_id":"4","last_reported":1692122880,"current_range_meters":22800,"station_id":"ce4bhqh2rcd13ifvqhlg","pricing_plan_id":"free"},{"bike_id":"63de9e5d-7779-4328-9f90-868143bff4b5","system_id":"levelo_inurba_marseille","lat":43.34147,"lon":5.40897,"is_reserved":false,"is_disabled":false,"rental_uris":{"android":"levelo://app?vid=63de9e5d-7779-4328-9f90-868143bff4b5","ios":"levelo://app?vid=63de9e5d-7779-4328-9f90-868143bff4b5"},"vehicle_type_id":"4","last_reported":1692122880,"current_range_meters":23600,"station_id":"ce4bhqh2rcd13ifvqhlg","pricing_plan_id":"free"},{"bike_id":"0a27bf8c-df73-4bdf-ba47-2f7f7f4fee38","system_id":"levelo_inurba_marseille","lat":43.34143,"lon":5.40903,"is_reserved":false,"is_disabled":false,"rental_uris":{"android":"levelo://app?vid=0a27bf8c-df73-4bdf-ba47-2f7f7f4fee38","ios":"levelo://app?vid=0a27bf8c-df73-4bdf-ba47-2f7f7f4fee38"},"vehicle_type_id":"4","last_reported":1692122880,"current_range_meters":30000,"station_id":"ce4bhqh2rcd13ifvqhlg","pricing_plan_id":"free"},{"bike_id":"cb9a30c6-24ae-4252-bfa4-817817353992","system_id":"levelo_inurba_marseille","lat":43.341439,"lon":5.409267,"is_reserved":false,"is_disabled":false,"rental_uris":{"android":"levelo://app?vid=cb9a30c6-24ae-4252-bfa4-817817353992","ios":"levelo://app?vid=cb9a30c6-24ae-4252-bfa4-817817353992"},"vehicle_type_id":"4","last_reported":1692122880,"current_range_meters":2800,"station_id":"ce4bhqh2rcd13ifvqhlg","pricing_plan_id":"free"},{"bike_id":"9ddc54d4-bdf8-4aa3-95c0-0823e3257d94","system_id":"levelo_inurba_marseille","lat":43.27322,"lon":5.39071,"is_reserved":false,"is_disabled":false,"rental_uris":{"android":"levelo://app?vid=9ddc54d4-bdf8-4aa3-95c0-0823e3257d94","ios":"levelo://app?vid=9ddc54d4-bdf8-4aa3-95c0-0823e3257d94"},"vehicle_type_id":"4","last_reported":1692122880,"current_range_meters":12000,"station_id":"ce4bhgp2rcd13ifvqfe0","pricing_plan_id":"free"},{"bike_id":"9feabacd-3216-49bb-b95e-1ce50711b606","system_id":"levelo_inurba_marseille","lat":43.27321,"lon":5.39071,"is_reserved":false,"is_disabled":false,"rental_uris":{"android":"levelo://app?vid=9feabacd-3216-49bb-b95e-1ce50711b606","ios":"levelo://app?vid=9feabacd-3216-49bb-b95e-1ce50711b606"},"vehicle_type_id":"4","last_reported":1692122880,"current_range_meters":0,"station_id":"ce4bhgp2rcd13ifvqfe0","pricing_plan_id":"free"},{"bike_id":"2bce15f4-20e1-4981-8541-68f2a96170dc","system_id":"levelo_inurba_marseille","lat":43.27322,"lon":5.39076,"is_reserved":false,"is_disabled":false,"rental_uris":{"android":"levelo://app?vid=2bce15f4-20e1-4981-8541-68f2a96170dc","ios":"levelo://app?vid=2bce15f4-20e1-4981-8541-68f2a96170dc"},"vehicle_type_id":"4","last_reported":1692122880,"current_range_meters":0,"station_id":"ce4bhgp2rcd13ifvqfe0","pricing_plan_id":"free"},{"bike_id":"60be04ce-e94a-4cdc-9b7f-9150b927e7cc","system_id":"levelo_inurba_marseille","lat":43.27319,"lon":5.39069,"is_reserved":false,"is_disabled":false,"rental_uris":{"android":"levelo://app?vid=60be04ce-e94a-4cdc-9b7f-9150b927e7cc","ios":"levelo://app?vid=60be04ce-e94a-4cdc-9b7f-9150b927e7cc"},"vehicle_type_id":"4","last_reported":1692122880,"current_range_meters":9200,"station_id":"ce4bhgp2rcd13ifvqfe0","pricing_plan_id":"free"},{"bike_id":"96a77cf0-c431-4bc2-bf8d-c2a78ac484b3","system_id":"levelo_inurba_marseille","lat":43.273125,"lon":5.390731,"is_reserved":false,"is_disabled":false,"rental_uris":{"android":"levelo://app?vid=96a77cf0-c431-4bc2-bf8d-c2a78ac484b3","ios":"levelo://app?vid=96a77cf0-c431-4bc2-bf8d-c2a78ac484b3"},"vehicle_type_id":"4","last_reported":1692122880,"current_range_meters":24800,"station_id":"ce4bhgp2rcd13ifvqfe0","pricing_plan_id":"free"},{"bike_id":"c4c46635-a920-4dea-937c-bbb9d86a8d46","system_id":"levelo_inurba_marseille","lat":43.27321,"lon":5.39083,"is_reserved":false,"is_disabled":false,"rental_uris":{"android":"levelo://app?vid=c4c46635-a920-4dea-937c-bbb9d86a8d46","ios":"levelo://app?vid=c4c46635-a920-4dea-937c-bbb9d86a8d46"},"vehicle_type_id":"4","last_reported":1692122880,"current_range_meters":17200,"station_id":"ce4bhgp2rcd13ifvqfe0","pricing_plan_id":"free"},{"bike_id":"e45bb746-1c33-47ed-a7d0-ff51e44bb6a8","system_id":"levelo_inurba_marseille","lat":43.273125,"lon":5.390731,"is_reserved":false,"is_disabled":false,"rental_uris":{"android":"levelo://app?vid=e45bb746-1c33-47ed-a7d0-ff51e44bb6a8","ios":"levelo://app?vid=e45bb746-1c33-47ed-a7d0-ff51e44bb6a8"},"vehicle_type_id":"4","last_reported":1692122880,"current_range_meters":4800,"station_id":"ce4bhgp2rcd13ifvqfe0","pricing_plan_id":"free"},{"bike_id":"3db0919d-a66b-4e4f-8618-27048dfd3ddd","system_id":"levelo_inurba_marseille","lat":43.27316,"lon":5.39072,"is_reserved":false,"is_disabled":false,"rental_uris":{"android":"levelo://app?vid=3db0919d-a66b-4e4f-8618-27048dfd3ddd","ios":"levelo://app?vid=3db0919d-a66b-4e4f-8618-27048dfd3ddd"},"vehicle_type_id":"4","last_reported":1692122880,"current_range_meters":25600,"station_id":"ce4bhgp2rcd13ifvqfe0","pricing_plan_id":"free"},{"bike_id":"4eb07462-20fa-4c19-91e2-bfb697423785","system_id":"levelo_inurba_marseille","lat":43.2732,"lon":5.39087,"is_reserved":false,"is_disabled":false,"rental_uris":{"android":"levelo://app?vid=4eb07462-20fa-4c19-91e2-bfb697423785","ios":"levelo://app?vid=4eb07462-20fa-4c19-91e2-bfb697423785"},"vehicle_type_id":"4","last_reported":1692122880,"current_range_meters":5200,"station_id":"ce4bhgp2rcd13ifvqfe0","pricing_plan_id":"free"},{"bike_id":"2fb2cd88-2702-49ac-a02c-c8c677c35846","system_id":"levelo_inurba_marseille","lat":43.273125,"lon":5.390731,"is_reserved":false,"is_disabled":false,"rental_uris":{"android":"levelo://app?vid=2fb2cd88-2702-49ac-a02c-c8c677c35846","ios":"levelo://app?vid=2fb2cd88-2702-49ac-a02c-c8c677c35846"},"vehicle_type_id":"4","last_reported":1692122880,"current_range_meters":28400,"station_id":"ce4bhgp2rcd13ifvqfe0","pricing_plan_id":"free"},{"bike_id":"110e590d-42ab-4f0f-b8dc-4d7430159573","system_id":"levelo_inurba_marseille","lat":43.27318,"lon":5.39083,"is_reserved":false,"is_disabled":false,"rental_uris":{"android":"levelo://app?vid=110e590d-42ab-4f0f-b8dc-4d7430159573","ios":"levelo://app?vid=110e590d-42ab-4f0f-b8dc-4d7430159573"},"vehicle_type_id":"4","last_reported":1692122880,"current_range_meters":0,"station_id":"ce4bhgp2rcd13ifvqfe0","pricing_plan_id":"free"},{"bike_id":"404b3cbb-662b-4dd6-ac5b-f755051511b1","system_id":"levelo_inurba_marseille","lat":43.27314,"lon":5.390712,"is_reserved":false,"is_disabled":false,"rental_uris":{"android":"levelo://app?vid=404b3cbb-662b-4dd6-ac5b-f755051511b1","ios":"levelo://app?vid=404b3cbb-662b-4dd6-ac5b-f755051511b1"},"vehicle_type_id":"4","last_reported":1692122880,"current_range_meters":10800,"station_id":"ce4bhgp2rcd13ifvqfe0","pricing_plan_id":"free"},{"bike_id":"6e4bb6bc-2e92-46fc-a65c-befd3ad29f39","system_id":"levelo_inurba_marseille","lat":43.273125,"lon":5.390731,"is_reserved":false,"is_disabled":false,"rental_uris":{"android":"levelo://app?vid=6e4bb6bc-2e92-46fc-a65c-befd3ad29f39","ios":"levelo://app?vid=6e4bb6bc-2e92-46fc-a65c-befd3ad29f39"},"vehicle_type_id":"4","last_reported":1692122880,"current_range_meters":11200,"station_id":"ce4bhgp2rcd13ifvqfe0","pricing_plan_id":"free"},{"bike_id":"6dca6d26-4d19-4250-b55a-98e3a9967c27","system_id":"levelo_inurba_marseille","lat":43.273125,"lon":5.390731,"is_reserved":false,"is_disabled":false,"rental_uris":{"android":"levelo://app?vid=6dca6d26-4d19-4250-b55a-98e3a9967c27","ios":"levelo://app?vid=6dca6d26-4d19-4250-b55a-98e3a9967c27"},"vehicle_type_id":"4","last_reported":1692122880,"current_range_meters":13600,"station_id":"ce4bhgp2rcd13ifvqfe0","pricing_plan_id":"free"},{"bike_id":"2c634eff-cc8f-4737-831c-d7c9cf7cdd09","system_id":"levelo_inurba_marseille","lat":43.273125,"lon":5.390731,"is_reserved":false,"is_disabled":false,"rental_uris":{"android":"levelo://app?vid=2c634eff-cc8f-4737-831c-d7c9cf7cdd09","ios":"levelo://app?vid=2c634eff-cc8f-4737-831c-d7c9cf7cdd09"},