{"last_updated":1729249649,"ttl":60,"version":"2.2","data":{"bikes":[{"bike_id":"7c215bb1-a727-4569-986d-c8f6cf1e676e","system_id":"levelo_inurba_marseille","lat":43.31715,"lon":5.43706,"is_reserved":false,"is_disabled":false,"rental_uris":{"android":"levelo://app?vid=7c215bb1-a727-4569-986d-c8f6cf1e676e","ios":"levelo://app?vid=7c215bb1-a727-4569-986d-c8f6cf1e676e"},"vehicle_type_id":"4","last_reported":1729249650,"current_range_meters":30000,"station_id":"ce4bhp92rcd13ifvqhcg","pricing_plan_id":"cebpf4jnsgd1na2vs0mg"},{"bike_id":"0bd29515-40d3-4b3d-a1be-6c5884ab24e6","system_id":"levelo_inurba_marseille","lat":43.32286,"lon":5.38257,"is_reserved":false,"is_disabled":false,"rental_uris":{"android":"levelo://app?vid=0bd29515-40d3-4b3d-a1be-6c5884ab24e6","ios":"levelo://app?vid=0bd29515-40d3-4b3d-a1be-6c5884ab24e6"},"vehicle_type_id":"4","last_reported":1729249650,"current_range_meters":22800,"station_id":"ce4bhr12rcd13ifvqhqg","pricing_plan_id":"cebpf4jnsgd1na2vs0mg"},{"bike_id":"676ec6c4-6b42-43e0-81fe-327782965da5","system_id":"levelo_inurba_marseille","lat":43.33765,"lon":5.37484,"is_reserved":false,"is_disabled":false,"rental_uris":{"android":"levelo://app?vid=676ec6c4-6b42-43e0-81fe-327782965da5","ios":"levelo://app?vid=676ec6c4-6b42-43e0-81fe-327782965da5"},"vehicle_type_id":"4","last_reported":1729249650,"current_range_meters":18800,"station_id":"","pricing_plan_id":"cebpf4jnsgd1na2vs0mg"},{"bike_id":"254e442c-dbf1-45c7-9135-48327eed63e2","system_id":"levelo_inurba_marseille","lat":43.27813,"lon":5.40715,"is_reserved":false,"is_disabled":false,"rental_uris":{"android":"levelo://app?vid=254e442c-dbf1-45c7-9135-48327eed63e2","ios":"levelo://app?vid=254e442c-dbf1-45c7-9135-48327eed63e2"},"vehicle_type_id":"4","last_reported":1729249650,"current_range_meters":16800,"station_id":"ce4bhnh2rcd13ifvqgtg","pricing_plan_id":"cebpf4jnsgd1na2vs0mg"},{"bike_id":"25e8905a-ddda-425d-bdee-9e0c1b0dcc9c","system_id":"levelo_inurba_marseille","lat":43.27975,"lon":5.38741,"is_reserved":false,"is_disabled":false,"rental_uris":{"android":"levelo://app?vid=25e8905a-ddda-425d-bdee-9e0c1b0dcc9c","ios":"levelo://app?vid=25e8905a-ddda-425d-bdee-9e0c1b0dcc9c"},"vehicle_type_id":"4","last_reported":1729249650,"current_range_meters":38000,"station_id":"ce4bhg12rcd13ifvqf80","pricing_plan_id":"cebpf4jnsgd1na2vs0mg"},{"bike_id":"162965fa-e29b-4930-888d-3a7566a3d26c","system_id":"levelo_inurba_marseille","lat":43.29624,"lon":5.3715,"is_reserved":false,"is_disabled":false,"rental_uris":{"android":"levelo://app?vid=162965fa-e29b-4930-888d-3a7566a3d26c","ios":"levelo://app?vid=162965fa-e29b-4930-888d-3a7566a3d26c"},"vehicle_type_id":"4","last_reported":1729249650,"current_range_meters":14800,"station_id":"ce4bgnh2rcd13ifvqc0g","pricing_plan_id":"cebpf4jnsgd1na2vs0mg"},{"bike_id":"a075feca-a333-4a77-b977-0737c152a551","system_id":"levelo_inurba_marseille","lat":43.29519,"lon":5.37511,"is_reserved":false,"is_disabled":false,"rental_uris":{"android":"levelo://app?vid=a075feca-a333-4a77-b977-0737c152a551","ios":"levelo://app?vid=a075feca-a333-4a77-b977-0737c152a551"},"vehicle_type_id":"4","last_reported":1729249650,"current_range_meters":20800,"station_id":"ce4bgkp2rcd13ifvqbmg","pricing_plan_id":"cebpf4jnsgd1na2vs0mg"},{"bike_id":"bed2eb76-1216-4229-b578-636debe13029","system_id":"levelo_inurba_marseille","lat":43.30148,"lon":5.3808,"is_reserved":false,"is_disabled":false,"rental_uris":{"android":"levelo://app?vid=bed2eb76-1216-4229-b578-636debe13029","ios":"levelo://app?vid=bed2eb76-1216-4229-b578-636debe13029"},"vehicle_type_id":"4","last_reported":1729249650,"current_range_meters":36800,"station_id":"ce4bgjp2rcd13ifvqbh0","pricing_plan_id":"cebpf4jnsgd1na2vs0mg"},{"bike_id":"c27cf383-7e73-4c9d-bbe8-221b8bc0a31c","system_id":"levelo_inurba_marseille","lat":43.27062,"lon":5.40255,"is_reserved":false,"is_disabled":false,"rental_uris":{"android":"levelo://app?vid=c27cf383-7e73-4c9d-bbe8-221b8bc0a31c","ios":"levelo://app?vid=c27cf383-7e73-4c9d-bbe8-221b8bc0a31c"},"vehicle_type_id":"4","last_reported":1729249650,"current_range_meters":16000,"station_id":"ce4bhk92rcd13ifvqgc0","pricing_plan_id":"cebpf4jnsgd1na2vs0mg"},{"bike_id":"9663387a-cdb6-487d-8504-280d6689cb4f","system_id":"levelo_inurba_marseille","lat":43.30302,"lon":5.39201,"is_reserved":false,"is_disabled":false,"rental_uris":{"android":"levelo://app?vid=9663387a-cdb6-487d-8504-280d6689cb4f","ios":"levelo://app?vid=9663387a-cdb6-487d-8504-280d6689cb4f"},"vehicle_type_id":"4","last_reported":1729249650,"current_range_meters":9200,"station_id":"ce4bgkh2rcd13ifvqbk0","pricing_plan_id":"cebpf4jnsgd1na2vs0mg"},{"bike_id":"5d6110e9-03ab-4d11-ba92-acc0e091e564","system_id":"levelo_inurba_marseille","lat":43.23961,"lon":5.36629,"is_reserved":false,"is_disabled":false,"rental_uris":{"android":"levelo://app?vid=5d6110e9-03ab-4d11-ba92-acc0e091e564","ios":"levelo://app?vid=5d6110e9-03ab-4d11-ba92-acc0e091e564"},"vehicle_type_id":"4","last_reported":1729249650,"current_range_meters":18800,"station_id":"ce4bhi12rcd13ifvqfp0","pricing_plan_id":"cebpf4jnsgd1na2vs0mg"},{"bike_id":"25668d1a-6b94-4045-a721-d94eb38e1ae7","system_id":"levelo_inurba_marseille","lat":43.27372,"lon":5.3625,"is_reserved":false,"is_disabled":false,"rental_uris":{"android":"levelo://app?vid=25668d1a-6b94-4045-a721-d94eb38e1ae7","ios":"levelo://app?vid=25668d1a-6b94-4045-a721-d94eb38e1ae7"},"vehicle_type_id":"4","last_reported":1729249650,"current_range_meters":38800,"station_id":"ce4bhbh2rcd13ifvqeo0","pricing_plan_id":"cebpf4jnsgd1na2vs0mg"},{"bike_id":"dccf0f04-4e67-4c53-a7b2-6636b5a9de32","system_id":"levelo_inurba_marseille","lat":43.28137,"lon":5.42635,"is_reserved":false,"is_disabled":false,"rental_uris":{"android":"levelo://app?vid=dccf0f04-4e67-4c53-a7b2-6636b5a9de32","ios":"levelo://app?vid=dccf0f04-4e67-4c53-a7b2-6636b5a9de32"},"vehicle_type_id":"4","last_reported":1729249650,"current_range_meters":12800,"station_id":"ce4bhnh2rcd13ifvqgug","pricing_plan_id":"cebpf4jnsgd1na2vs0mg"},{"bike_id":"0e9ad9af-e89b-412e-a7df-344fe8f113f7","system_id":"levelo_inurba_marseille","lat":43.25006,"lon":5.38925,"is_reserved":false,"is_disabled":false,"rental_uris":{"android":"levelo://app?vid=0e9ad9af-e89b-412e-a7df-344fe8f113f7","ios":"levelo://app?vid=0e9ad9af-e89b-412e-a7df-344fe8f113f7"},"vehicle_type_id":"4","last_reported":1729249650,"current_range_meters":38800,"station_id":"ce4bhgp2rcd13ifvqfd0","pricing_plan_id":"cebpf4jnsgd1na2vs0mg"},{"bike_id":"91ac8fa7-b7c8-4143-be6d-e2ffbaedc096","system_id":"levelo_inurba_marseille","lat":43.270651,"lon":5.422693,"is_reserved":false,"is_disabled":false,"rental_uris":{"android":"levelo://app?vid=91ac8fa7-b7c8-4143-be6d-e2ffbaedc096","ios":"levelo://app?vid=91ac8fa7-b7c8-4143-be6d-e2ffbaedc096"},"vehicle_type_id":"4","last_reported":1729249650,"current_range_meters":34800,"station_id":"ce4bhk92rcd13ifvqgb0","pricing_plan_id":"cebpf4jnsgd1na2vs0mg"},{"bike_id":"032c1c76-6af9-4641-a6f3-fbdf609f37b1","system_id":"levelo_inurba_marseille","lat":43.31275,"lon":5.40157,"is_reserved":false,"is_disabled":false,"rental_uris":{"android":"levelo://app?vid=032c1c76-6af9-4641-a6f3-fbdf609f37b1","ios":"levelo://app?vid=032c1c76-6af9-4641-a6f3-fbdf609f37b1"},"vehicle_type_id":"4","last_reported":1729249650,"current_range_meters":4000,"station_id":"ce4bh092rcd13ifvqd30","pricing_plan_id":"cebpf4jnsgd1na2vs0mg"},{"bike_id":"ef00c94a-e76e-4e00-bfec-e40b8a260288","system_id":"levelo_inurba_marseille","lat":43.25498,"lon":5.37644,"is_reserved":false,"is_disabled":false,"rental_uris":{"android":"levelo://app?vid=ef00c94a-e76e-4e00-bfec-e40b8a260288","ios":"levelo://app?vid=ef00c94a-e76e-4e00-bfec-e40b8a260288"},"vehicle_type_id":"4","last_reported":1729249650,"current_range_meters":39200,"station_id":"ce4bhh12rcd13ifvqff0","pricing_plan_id":"cebpf4jnsgd1na2vs0mg"},{"bike_id":"a71414de-d2ee-4a17-94ea-50f620ba8558","system_id":"levelo_inurba_marseille","lat":43.28422,"lon":5.34988,"is_reserved":false,"is_disabled":false,"rental_uris":{"android":"levelo://app?vid=a71414de-d2ee-4a17-94ea-50f620ba8558","ios":"levelo://app?vid=a71414de-d2ee-4a17-94ea-50f620ba8558"},"vehicle_type_id":"4","last_reported":1729249650,"current_range_meters":39200,"station_id":"ce4bhbh2rcd13ifvqepg","pricing_plan_id":"cebpf4jnsgd1na2vs0mg"},{"bike_id":"b68db7eb-3f6e-47b8-8f8f-039c933dde7d","system_id":"levelo_inurba_marseille","lat":43.25583,"lon":5.38234,"is_reserved":false,"is_disabled":false,"rental_uris":{"android":"levelo://app?vid=b68db7eb-3f6e-47b8-8f8f-039c933dde7d","ios":"levelo://app?vid=b68db7eb-3f6e-47b8-8f8f-039c933dde7d"},"vehicle_type_id":"4","last_reported":1729249650,"current_range_meters":19200,"station_id":"ce4bhih2rcd13ifvqfs0","pricing_plan_id":"cebpf4jnsgd1na2vs0mg"},{"bike_id":"88ed0f9f-e90c-4cb7-aed8-4122cf81bf11","system_id":"levelo_inurba_marseille","lat":43.26033,"lon":5.37553,"is_reserved":false,"is_disabled":false,"rental_uris":{"android":"levelo://app?vid=88ed0f9f-e90c-4cb7-aed8-4122cf81bf11","ios":"levelo://app?vid=88ed0f9f-e90c-4cb7-aed8-4122cf81bf11"},"vehicle_type_id":"4","last_reported":1729249650,"current_range_meters":39200,"station_id":"ce4bhgh2rcd13ifvqfa0","pricing_plan_id":"cebpf4jnsgd1na2vs0mg"},{"bike_id":"4ae2c184-8c50-452d-87fb-8f7bf4f540f3","system_id":"levelo_inurba_marseille","lat":43.2465,"lon":5.38896,"is_reserved":false,"is_disabled":false,"rental_uris":{"android":"levelo://app?vid=4ae2c184-8c50-452d-87fb-8f7bf4f540f3","ios":"levelo://app?vid=4ae2c184-8c50-452d-87fb-8f7bf4f540f3"},"vehicle_type_id":"4","last_reported":1729249650,"current_range_meters":39200,"station_id":"ce4bhg12rcd13ifvqf60","pricing_plan_id":"cebpf4jnsgd1na2vs0mg"},{"bike_id":"9bca2bd1-45ca-489e-a8a3-4e36469c8a46","system_id":"levelo_inurba_marseille","lat":43.32473,"lon":5.365583,"is_reserved":false,"is_disabled":false,"rental_uris":{"android":"levelo://app?vid=9bca2bd1-45ca-489e-a8a3-4e36469c8a46","ios":"levelo://app?vid=9bca2bd1-45ca-489e-a8a3-4e36469c8a46"},"vehicle_type_id":"4","last_reported":1729249650,"current_range_meters":28000,"station_id":"ce4bgop2rcd13ifvqc1g","pricing_plan_id":"cebpf4jnsgd1na2vs0mg"},{"bike_id":"d0fae496-82f2-4fb9-80de-d49c86b5fd33","system_id":"levelo_inurba_marseille","lat":43.24546,"lon":5.3952,"is_reserved":false,"is_disabled":false,"rental_uris":{"android":"levelo://app?vid=d0fae496-82f2-4fb9-80de-d49c86b5fd33","ios":"levelo://app?vid=d0fae496-82f2-4fb9-80de-d49c86b5fd33"},"vehicle_type_id":"4","last_reported":1729249650,"current_range_meters":25600,"station_id":"ce4bhlp2rcd13ifvqgjg","pricing_plan_id":"cebpf4jnsgd1na2vs0mg"},{"bike_id":"d1512530-2810-4f96-a4f7-cd6458c75e50","system_id":"levelo_inurba_marseille","lat":43.26951,"lon":5.38629,"is_reserved":false,"is_disabled":false,"rental_uris":{"android":"levelo://app?vid=d1512530-2810-4f96-a4f7-cd6458c75e50","ios":"levelo://app?vid=d1512530-2810-4f96-a4f7-cd6458c75e50"},"vehicle_type_id":"4","last_reported":1729249650,"current_range_meters":38800,"station_id":"ce4bhh92rcd13ifvqfh0","pricing_plan_id":"cebpf4jnsgd1na2vs0mg"},{"bike_id":"2f4d40f2-8a71-42ab-b06b-27e39fde1509","system_id":"levelo_inurba_marseille","lat":43.25584,"lon":5.38218,"is_reserved":false,"is_disabled":false,"rental_uris":{"android":"levelo://app?vid=2f4d40f2-8a71-42ab-b06b-27e39fde1509","ios":"levelo://app?vid=2f4d40f2-8a71-42ab-b06b-27e39fde1509"},"vehicle_type_id":"4","last_reported":1729249650,"current_range_meters":8000,"station_id":"ce4bhih2rcd13ifvqfs0","pricing_plan_id":"cebpf4jnsgd1na2vs0mg"},{"bike_id":"5bdd134b-7ea6-40ee-aae3-e29fd0f285d7","system_id":"levelo_inurba_marseille","lat":43.24393,"lon":5.37055,"is_reserved":false,"is_disabled":false,"rental_uris":{"android":"levelo://app?vid=5bdd134b-7ea6-40ee-aae3-e29fd0f285d7","ios":"levelo://app?vid=5bdd134b-7ea6-40ee-aae3-e29fd0f285d7"},"vehicle_type_id":"4","last_reported":1729249650,"current_range_meters":32400,"station_id":"ce4bhhh2rcd13ifvqfk0","pricing_plan_id":"cebpf4jnsgd1na2vs0mg"},{"bike_id":"33e4d755-04c5-47d0-8cfe-6fa9eca597d2","system_id":"levelo_inurba_marseille","lat":43.28466,"lon":5.35895,"is_reserved":false,"is_disabled":false,"rental_uris":{"android":"levelo://app?vid=33e4d755-04c5-47d0-8cfe-6fa9eca597d2","ios":"levelo://app?vid=33e4d755-04c5-47d0-8cfe-6fa9eca597d2"},"vehicle_type_id":"4","last_reported":1729249650,"current_range_meters":2800,"station_id":"ce4bhah2rcd13ifvqei0","pricing_plan_id":"cebpf4jnsgd1na2vs0mg"},{"bike_id":"d5d87b96-496a-454b-9e81-b0e5a09c72cf","system_id":"levelo_inurba_marseille","lat":43.28613,"lon":5.37061,"is_reserved":false,"is_disabled":false,"rental_uris":{"android":"levelo://app?vid=d5d87b96-496a-454b-9e81-b0e5a09c72cf","ios":"levelo://app?vid=d5d87b96-496a-454b-9e81-b0e5a09c72cf"},"vehicle_type_id":"4","last_reported":1729249650,"current_range_meters":37600,"station_id":"ce4bht12rcd13ifvqi60","pricing_plan_id":"cebpf4jnsgd1na2vs0mg"},{"bike_id":"d0216588-2c90-4902-b323-8d42653d2c00","system_id":"levelo_inurba_marseille","lat":43.29895,"lon":0,"is_reserved":false,"is_disabled":false,"rental_uris":{"android":"levelo://app?vid=d0216588-2c90-4902-b323-8d42653d2c00","ios":"levelo://app?vid=d0216588-2c90-4902-b323-8d42653d2c00"},"vehicle_type_id":"4","last_reported":1729249650,"current_range_meters":5600,"station_id":"ce4bhpp2rcd13ifvqhfg","pricing_plan_id":"cebpf4jnsgd1na2vs0mg"},{"bike_id":"c664c061-e4f3-4e88-a3b3-53b8afa76dc4","system_id":"levelo_inurba_marseille","lat":43.32487,"lon":5.36557,"is_reserved":false,"is_disabled":false,"rental_uris":{"android":"levelo://app?vid=c664c061-e4f3-4e88-a3b3-53b8afa76dc4","ios":"levelo://app?vid=c664c061-e4f3-4e88-a3b3-53b8afa76dc4"},"vehicle_type_id":"4","last_reported":1729249650,"current_range_meters":11600,"station_id":"ce4bhs12rcd13ifvqhvg","pricing_plan_id":"cebpf4jnsgd1na2vs0mg"},{"bike_id":"14bc89c2-4375-4488-91e8-1027b3555b6b","system_id":"levelo_inurba_marseille","lat":43.24549,"lon":5.39519,"is_reserved":false,"is_disabled":false,"rental_uris":{"android":"levelo://app?vid=14bc89c2-4375-4488-91e8-1027b3555b6b","ios":"levelo://app?vid=14bc89c2-4375-4488-91e8-1027b3555b6b"},"vehicle_type_id":"4","last_reported":1729249650,"current_range_meters":38800,"station_id":"ce4bhlp2rcd13ifvqgjg","pricing_plan_id":"cebpf4jnsgd1na2vs0mg"},{"bike_id":"a120e35e-15c5-4fcf-854d-b93721c916bb","system_id":"levelo_inurba_marseille","lat":43.30464,"lon":5.37905,"is_reserved":false,"is_disabled":false,"rental_uris":{"android":"levelo://app?vid=a120e35e-15c5-4fcf-854d-b93721c916bb","ios":"levelo://app?vid=a120e35e-15c5-4fcf-854d-b93721c916bb"},"vehicle_type_id":"4","last_reported":1729249650,"current_range_meters":37600,"station_id":"ce4bgup2rcd13ifvqcn0","pricing_plan_id":"cebpf4jnsgd1na2vs0mg"},{"bike_id":"c746da30-0175-4c63-8cc4-f4d0284e8127","system_id":"levelo_inurba_marseille","lat":43.23962,"lon":5.36635,"is_reserved":false,"is_disabled":false,"rental_uris":{"android":"levelo://app?vid=c746da30-0175-4c63-8cc4-f4d0284e8127","ios":"levelo://app?vid=c746da30-0175-4c63-8cc4-f4d0284e8127"},"vehicle_type_id":"4","last_reported":1729249650,"current_range_meters":22800,"station_id":"ce4bhi12rcd13ifvqfp0","pricing_plan_id":"cebpf4jnsgd1na2vs0mg"},{"bike_id":"c0dbf1a3-a16b-47cc-b294-315090b8ba5b","system_id":"levelo_inurba_marseille","lat":43.25501,"lon":5.37648,"is_reserved":false,"is_disabled":false,"rental_uris":{"android":"levelo://app?vid=c0dbf1a3-a16b-47cc-b294-315090b8ba5b","ios":"levelo://app?vid=c0dbf1a3-a16b-47cc-b294-315090b8ba5b"},"vehicle_type_id":"4","last_reported":1729249650,"current_range_meters":31200,"station_id":"ce4bhh12rcd13ifvqff0","pricing_plan_id":"cebpf4jnsgd1na2vs0mg"},{"bike_id":"cb052e30-4048-456a-82c7-7f94208f896b","system_id":"levelo_inurba_marseille","lat":43.31709,"lon":5.37745,"is_reserved":false,"is_disabled":false,"rental_uris":{"android":"levelo://app?vid=cb052e30-4048-456a-82c7-7f94208f896b","ios":"levelo://app?vid=cb052e30-4048-456a-82c7-7f94208f896b"},"vehicle_type_id":"4","last_reported":1729249650,"current_range_meters":4000,"station_id":"ce4bgth2rcd13ifvqch0","pricing_plan_id":"cebpf4jnsgd1na2vs0mg"},{"bike_id":"a30ba6e9-23ef-41c4-b5e6-bf55ee4fe6c5","system_id":"levelo_inurba_marseille","lat":43.30132,"lon":5.37424,"is_reserved":false,"is_disabled":false,"rental_uris":{"android":"levelo://app?vid=a30ba6e9-23ef-41c4-b5e6-bf55ee4fe6c5","ios":"levelo://app?vid=a30ba6e9-23ef-41c4-b5e6-bf55ee4fe6c5"},"vehicle_type_id":"4","last_reported":1729249650,"current_range_meters":28800,"station_id":"ce4bgs92rcd13ifvqcc0","pricing_plan_id":"cebpf4jnsgd1na2vs0mg"},{"bike_id":"889b9bb3-8963-4f08-8cc0-fd064c95f10f","system_id":"levelo_inurba_marseille","lat":43.2781,"lon":5.40712,"is_reserved":false,"is_disabled":false,"rental_uris":{"android":"levelo://app?vid=889b9bb3-8963-4f08-8cc0-fd064c95f10f","ios":"levelo://app?vid=889b9bb3-8963-4f08-8cc0-fd064c95f10f"},"vehicle_type_id":"4","last_reported":1729249650,"current_range_meters":10000,"station_id":"ce4bhnh2rcd13ifvqgtg","pricing_plan_id":"cebpf4jnsgd1na2vs0mg"},{"bike_id":"ed078362-42fc-4c79-9dd9-752630de6df4","system_id":"levelo_inurba_marseille","lat":43.28277,"lon":5.35066,"is_reserved":false,"is_disabled":false,"rental_uris":{"android":"levelo://app?vid=ed078362-42fc-4c79-9dd9-752630de6df4","ios":"levelo://app?vid=ed078362-42fc-4c79-9dd9-752630de6df4"},"vehicle_type_id":"4","last_reported":1729249650,"current_range_meters":37600,"station_id":"ce4bhbp2rcd13ifvqerg","pricing_plan_id":"cebpf4jnsgd1na2vs0mg"},{"bike_id":"3cc9ca15-d23c-4891-9216-c134fa816eb8","system_id":"levelo_inurba_marseille","lat":43.2418,"lon":5.39721,"is_reserved":false,"is_disabled":false,"rental_uris":{"android":"levelo://app?vid=3cc9ca15-d23c-4891-9216-c134fa816eb8","ios":"levelo://app?vid=3cc9ca15-d23c-4891-9216-c134fa816eb8"},"vehicle_type_id":"4","last_reported":1729249650,"current_range_meters":28000,"station_id":"ce4bhn12rcd13ifvqgpg","pricing_plan_id":"cebpf4jnsgd1na2vs0mg"},{"bike_id":"606d6138-fa6e-4398-9d9c-85ba2000f729","system_id":"levelo_inurba_marseille","lat":43.286532,"lon":5.363359,"is_reserved":false,"is_disabled":false,"rental_uris":{"android":"levelo://app?vid=606d6138-fa6e-4398-9d9c-85ba2000f729","ios":"levelo://app?vid=606d6138-fa6e-4398-9d9c-85ba2000f729"},"vehicle_type_id":"4","last_reported":1729249650,"current_range_meters":29600,"station_id":"ce4bhah2rcd13ifvqej0","pricing_plan_id":"cebpf4jnsgd1na2vs0mg"},{"bike_id":"6e45345c-18a8-463c-9b4b-3edb1842bcbb","system_id":"levelo_inurba_marseille","lat":43.317135,"lon":5.377461,"is_reserved":false,"is_disabled":false,"rental_uris":{"android":"levelo://app?vid=6e45345c-18a8-463c-9b4b-3edb1842bcbb","ios":"levelo://app?vid=6e45345c-18a8-463c-9b4b-3edb1842bcbb"},"vehicle_type_id":"4","last_reported":1729249650,"current_range_meters":25200,"station_id":"ce4bgth2rcd13ifvqch0","pricing_plan_id":"cebpf4jnsgd1na2vs0mg"},{"bike_id":"d5516215-d1c2-4a14-a62f-e75f326b8427","system_id":"levelo_inurba_marseille","lat":43.279464,"lon":5.410604,"is_reserved":false,"is_disabled":false,"rental_uris":{"android":"levelo://app?vid=d5516215-d1c2-4a14-a62f-e75f326b8427","ios":"levelo://app?vid=d5516215-d1c2-4a14-a62f-e75f326b8427"},"vehicle_type_id":"4","last_reported":1729249650,"current_range_meters":38800,"station_id":"ce4bhnp2rcd13ifvqh0g","pricing_plan_id":"cebpf4jnsgd1na2vs0mg"},{"bike_id":"5a71258d-15df-4a4e-bb61-67cfd14fba4a","system_id":"levelo_inurba_marseille","lat":43.29235,"lon":5.36059,"is_reserved":false,"is_disabled":false,"rental_uris":{"android":"levelo://app?vid=5a71258d-15df-4a4e-bb61-67cfd14fba4a","ios":"levelo://app?vid=5a71258d-15df-4a4e-bb61-67cfd14fba4a"},"vehicle_type_id":"4","last_reported":1729249650,"current_range_meters":38800,"station_id":"ce4bhbh2rcd13ifvqeqg","pricing_plan_id":"cebpf4jnsgd1na2vs0mg"},{"bike_id":"4ef2b927-7441-462b-89df-ab9139926bcd","system_id":"levelo_inurba_marseille","lat":43.26958,"lon":5.38637,"is_reserved":false,"is_disabled":false,"rental_uris":{"android":"levelo://app?vid=4ef2b927-7441-462b-89df-ab9139926bcd","ios":"levelo://app?vid=4ef2b927-7441-462b-89df-ab9139926bcd"},"vehicle_type_id":"4","last_reported":1729249650,"current_range_meters":36000,"station_id":"ce4bhh92rcd13ifvqfh0","pricing_plan_id":"cebpf4jnsgd1na2vs0mg"},{"bike_id":"3d7546d0-4dba-4212-88c9-dfe9a2032237","system_id":"levelo_inurba_marseille","lat":43.24169,"lon":5.36388,"is_reserved":false,"is_disabled":false,"rental_uris":{"android":"levelo://app?vid=3d7546d0-4dba-4212-88c9-dfe9a2032237","ios":"levelo://app?vid=3d7546d0-4dba-4212-88c9-dfe9a2032237"},"vehicle_type_id":"4","last_reported":1729249650,"current_range_meters":38000,"station_id":"cpo36qri1sfpv3e86is0","pricing_plan_id":"cebpf4jnsgd1na2vs0mg"},{"bike_id":"007f1dfd-0d2c-426c-a157-0f8331696688","system_id":"levelo_inurba_marseille","lat":43.23192,"lon":5.35547,"is_reserved":false,"is_disabled":false,"rental_uris":{"android":"levelo://app?vid=007f1dfd-0d2c-426c-a157-0f8331696688","ios":"levelo://app?vid=007f1dfd-0d2c-426c-a157-0f8331696688"},"vehicle_type_id":"4","last_reported":1729249650,"current_range_meters":8400,"station_id":"ce4bhu92rcd13ifvqi70","pricing_plan_id":"cebpf4jnsgd1na2vs0mg"},{"bike_id":"53bf2ce6-5a85-49bb-996a-3964771633e0","system_id":"levelo_inurba_marseille","lat":43.33025,"lon":5.39038,"is_reserved":false,"is_disabled":false,"rental_uris":{"android":"levelo://app?vid=53bf2ce6-5a85-49bb-996a-3964771633e0","ios":"levelo://app?vid=53bf2ce6-5a85-49bb-996a-3964771633e0"},"vehicle_type_id":"4","last_reported":1729249650,"current_range_meters":28800,"station_id":"ce4bhr92rcd13ifvqhrg","pricing_plan_id":"cebpf4jnsgd1na2vs0mg"},{"bike_id":"f7be57a7-9bd5-4ffc-bc29-8c3f81f2126b","system_id":"levelo_inurba_marseille","lat":43.301821,"lon":5.36621,"is_reserved":false,"is_disabled":false,"rental_uris":{"android":"levelo://app?vid=f7be57a7-9bd5-4ffc-bc29-8c3f81f2126b","ios":"levelo://app?vid=f7be57a7-9bd5-4ffc-bc29-8c3f81f2126b"},"vehicle_type_id":"4","last_reported":1729249650,"current_range_meters":26800,"station_id":"ce4bgrh2rcd13ifvqc8g","pricing_plan_id":"cebpf4jnsgd1na2vs0mg"},{"bike_id":"25573e2f-a445-4919-a85f-8daef7637352","system_id":"levelo_inurba_marseille","lat":43.30801,"lon":5.43512,"is_reserved":false,"is_disabled":false,"rental_uris":{"android":"levelo://app?vid=25573e2f-a445-4919-a85f-8daef7637352","ios":"levelo://app?vid=25573e2f-a445-4919-a85f-8daef7637352"},"vehicle_type_id":"4","last_reported":1729249650,"current_range_meters":33600,"station_id":"ce4bhph2rcd13ifvqheg","pricing_plan_id":"cebpf4jnsgd1na2vs0mg"},{"bike_id":"ceba77e4-817d-4911-8717-9b4015e9cd05","system_id":"levelo_inurba_marseille","lat":43.23146,"lon":5.43723,"is_reserved":false,"is_disabled":false,"rental_uris":{"android":"levelo://app?vid=ceba77e4-817d-4911-8717-9b4015e9cd05","ios":"levelo://app?vid=ceba77e4-817d-4911-8717-9b4015e9cd05"},"vehicle_type_id":"4","last_reported":1729249650,"current_range_meters":25200,"station_id":"ce4bhmp2rcd13ifvqgog","pricing_plan_id":"cebpf4jnsgd1na2vs0mg"},{"bike_id":"feb87083-88a6-400d-8a09-479ef98b2ee2","system_id":"levelo_inurba_marseille","lat":43.29097,"lon":5.38134,"is_reserved":false,"is_disabled":false,"rental_uris":{"android":"levelo://app?vid=feb87083-88a6-400d-8a09-479ef98b2ee2","ios":"levelo://app?vid=feb87083-88a6-400d-8a09-479ef98b2ee2"},"vehicle_type_id":"4","last_reported":1729249650,"current_range_meters":9200,"station_id":"ce4bh512rcd13ifvqe2g","pricing_plan_id":"cebpf4jnsgd1na2vs0mg"},{"bike_id":"90b7df2b-2805-4913-a745-07d80216980c","system_id":"levelo_inurba_marseille","lat":43.30801,"lon":5.43519,"is_reserved":false,"is_disabled":false,"rental_uris":{"android":"levelo://app?vid=90b7df2b-2805-4913-a745-07d80216980c","ios":"levelo://app?vid=90b7df2b-2805-4913-a745-07d80216980c"},"vehicle_type_id":"4","last_reported":1729249650,"current_range_meters":12000,"station_id":"ce4bhph2rcd13ifvqheg","pricing_plan_id":"cebpf4jnsgd1na2vs0mg"},{"bike_id":"32ce68a3-3fc7-4257-974f-ab657619c295","system_id":"levelo_inurba_marseille","lat":43.33752,"lon":5.37448,"is_reserved":false,"is_disabled":false,"rental_uris":{"android":"levelo://app?vid=32ce68a3-3fc7-4257-974f-ab657619c295","ios":"levelo://app?vid=32ce68a3-3fc7-4257-974f-ab657619c295"},"vehicle_type_id":"4","last_reported":1729249650,"current_range_meters":22000,"station_id":"","pricing_plan_id":"cebpf4jnsgd1na2vs0mg"},{"bike_id":"e16104e8-1c66-49d2-85a0-75e556dae417","system_id":"levelo_inurba_marseille","lat":43.25497,"lon":5.37645,"is_reserved":false,"is_disabled":false,"rental_uris":{"android":"levelo://app?vid=e16104e8-1c66-49d2-85a0-75e556dae417","ios":"levelo://app?vid=e16104e8-1c66-49d2-85a0-75e556dae417"},"vehicle_type_id":"4","last_reported":1729249650,"current_range_meters":30000,"station_id":"ce4bhh12rcd13ifvqff0","pricing_plan_id":"cebpf4jnsgd1na2vs0mg"},{"bike_id":"7ea5446a-8ed0-45d3-b0d8-26d20e51ce39","system_id":"levelo_inurba_marseille","lat":43.28493,"lon":5.38424,"is_reserved":false,"is_disabled":false,"rental_uris":{"android":"levelo://app?vid=7ea5446a-8ed0-45d3-b0d8-26d20e51ce39","ios":"levelo://app?vid=7ea5446a-8ed0-45d3-b0d8-26d20e51ce39"},"vehicle_type_id":"4","last_reported":1729249650,"current_range_meters":6800,"station_id":"ce4bh512rcd13ifvqe3g","pricing_plan_id":"cebpf4jnsgd1na2vs0mg"},{"bike_id":"555ff3cf-777b-4ff4-b149-9575fc002950","system_id":"levelo_inurba_marseille","lat":43.24176,"lon":5.3973,"is_reserved":false,"is_disabled":false,"rental_uris":{"android":"levelo://app?vid=555ff3cf-777b-4ff4-b149-9575fc002950","ios":"levelo://app?vid=555ff3cf-777b-4ff4-b149-9575fc002950"},"vehicle_type_id":"4","last_reported":1729249650,"current_range_meters":32400,"station_id":"ce4bhn12rcd13ifvqgpg","pricing_plan_id":"cebpf4jnsgd1na2vs0mg"},{"bike_id":"b64362e2-b043-4f67-8e42-f68524e828ed","system_id":"levelo_inurba_marseille","lat":43.24176,"lon":5.39708,"is_reserved":false,"is_disabled":false,"rental_uris":{"android":"levelo://app?vid=b64362e2-b043-4f67-8e42-f68524e828ed","ios":"levelo://app?vid=b64362e2-b043-4f67-8e42-f68524e828ed"},"vehicle_type_id":"4","last_reported":1729249650,"current_range_meters":25600,"station_id":"ce4bhn12rcd13ifvqgpg","pricing_plan_id":"cebpf4jnsgd1na2vs0mg"},{"bike_id":"fa7bbdc9-afbe-404d-8676-647037cc76a9","system_id":"levelo_inurba_marseille","lat":43.23189,"lon":5.35545,"is_reserved":false,"is_disabled":false,"rental_uris":{"android":"levelo://app?vid=fa7bbdc9-afbe-404d-8676-647037cc76a9","ios":"levelo://app?vid=fa7bbdc9-afbe-404d-8676-647037cc76a9"},"vehicle_type_id":"4","last_reported":1729249650,"current_range_meters":29600,"station_id":"ce4bhu92rcd13ifvqi70","pricing_plan_id":"cebpf4jnsgd1na2vs0mg"},{"bike_id":"cbdbc0e8-6c64-4503-ba2f-cf30943ace70","system_id":"levelo_inurba_marseille","lat":43.33021,"lon":5.39041,"is_reserved":false,"is_disabled":false,"rental_uris":{"android":"levelo://app?vid=cbdbc0e8-6c64-4503-ba2f-cf30943ace70","ios":"levelo://app?vid=cbdbc0e8-6c64-4503-ba2f-cf30943ace70"},"vehicle_type_id":"4","last_reported":1729249650,"current_range_meters":18800,"station_id":"ce4bhr92rcd13ifvqhrg","pricing_plan_id":"cebpf4jnsgd1na2vs0mg"},{"bike_id":"9c5c28a1-f91b-4a31-a081-7760d2214cc3","system_id":"levelo_inurba_marseille","lat":43.33023,"lon":5.39039,"is_reserved":false,"is_disabled":false,"rental_uris":{"android":"levelo://app?vid=9c5c28a1-f91b-4a31-a081-7760d2214cc3","ios":"levelo://app?vid=9c5c28a1-f91b-4a31-a081-7760d2214cc3"},"vehicle_type_id":"4","last_reported":1729249650,"current_range_meters":38000,"station_id":"ce4bhr92rcd13ifvqhrg","pricing_plan_id":"cebpf4jnsgd1na2vs0mg"},{"bike_id":"f8d2e239-573b-4f9d-8955-e6720aa9663e","system_id":"levelo_inurba_marseille","lat":43.24649,"lon":5.38885,"is_reserved":false,"is_disabled":false,"rental_uris":{"android":"levelo://app?vid=f8d2e239-573b-4f9d-8955-e6720aa9663e","ios":"levelo://app?vid=f8d2e239-573b-4f9d-8955-e6720aa9663e"},"vehicle_type_id":"4","last_reported":1729249650,"current_range_meters":32000,"station_id":"ce4bhg12rcd13ifvqf60","pricing_plan_id":"cebpf4jnsgd1na2vs0mg"},{"bike_id":"d434096b-a0ae-4374-8922-6d49bab951c8","system_id":"levelo_inurba_marseille","lat":43.317546,"lon":5.39021,"is_reserved":false,"is_disabled":false,"rental_uris":{"android":"levelo://app?vid=d434096b-a0ae-4374-8922-6d49bab951c8","ios":"levelo://app?vid=d434096b-a0ae-4374-8922-6d49bab951c8"},"vehicle_type_id":"4","last_reported":1729249650,"current_range_meters":22800,"station_id":"ce4bhqp2rcd13ifvqhng","pricing_plan_id":"cebpf4jnsgd1na2vs0mg"},{"bike_id":"be9fa79f-7d21-48b2-bf62-0284836a1d04","system_id":"levelo_inurba_marseille","lat":43.33022,"lon":5.3904,"is_reserved":false,"is_disabled":false,"rental_uris":{"android":"levelo://app?vid=be9fa79f-7d21-48b2-bf62-0284836a1d04","ios":"levelo://app?vid=be9fa79f-7d21-48b2-bf62-0284836a1d04"},"vehicle_type_id":"4","last_reported":1729249650,"current_range_meters":32000,"station_id":"ce4bhr92rcd13ifvqhrg","pricing_plan_id":"cebpf4jnsgd1na2vs0mg"},{"bike_id":"8c1ec6cb-2291-4814-837b-be8625c706f3","system_id":"levelo_inurba_marseille","lat":43.23196,"lon":5.35543,"is_reserved":false,"is_disabled":false,"rental_uris":{"android":"levelo://app?vid=8c1ec6cb-2291-4814-837b-be8625c706f3","ios":"levelo://app?vid=8c1ec6cb-2291-4814-837b-be8625c706f3"},"vehicle_type_id":"4","last_reported":1729249650,"current_range_meters":33200,"station_id":"ce4bhu92rcd13ifvqi70","pricing_plan_id":"cebpf4jnsgd1na2vs0mg"},{"bike_id":"e05a8545-65f7-4cf3-8739-ba534517b4f3","system_id":"levelo_inurba_marseille","lat":43.27365,"lon":5.36248,"is_reserved":false,"is_disabled":false,"rental_uris":{"android":"levelo://app?vid=e05a8545-65f7-4cf3-8739-ba534517b4f3","ios":"levelo://app?vid=e05a8545-65f7-4cf3-8739-ba534517b4f3"},"vehicle_type_id":"4","last_reported":1729249650,"current_range_meters":29600,"station_id":"","pricing_plan_id":"cebpf4jnsgd1na2vs0mg"},{"bike_id":"08616ef1-ff91-4f1f-99b8-79f36dd906f4","system_id":"levelo_inurba_marseille","lat":43.32541,"lon":5.4143,"is_reserved":false,"is_disabled":false,"rental_uris":{"android":"levelo://app?vid=08616ef1-ff91-4f1f-99b8-79f36dd906f4","ios":"levelo://app?vid=08616ef1-ff91-4f1f-99b8-79f36dd906f4"},"vehicle_type_id":"4","last_reported":1729249650,"current_range_meters":22800,"station_id":"ce4bhq12rcd13ifvqhhg","pricing_plan_id":"cebpf4jnsgd1na2vs0mg"},{"bike_id":"c89c2319-61a9-47ef-9229-e31c9eaab143","system_id":"levelo_inurba_marseille","lat":43.23201,"lon":5.35544,"is_reserved":false,"is_disabled":false,"rental_uris":{"android":"levelo://app?vid=c89c2319-61a9-47ef-9229-e31c9eaab143","ios":"levelo://app?vid=c89c2319-61a9-47ef-9229-e31c9eaab143"},"vehicle_type_id":"4","last_reported":1729249650,"current_range_meters":36800,"station_id":"ce4bhu92rcd13ifvqi70","pricing_plan_id":"cebpf4jnsgd1na2vs0mg"},{"bike_id":"ba9bd7c4-d1e3-4f57-8f18-78d353422ae9","system_id":"levelo_inurba_marseille","lat":43.23069,"lon":5.35486,"is_reserved":false,"is_disabled":false,"rental_uris":{"android":"levelo://app?vid=ba9bd7c4-d1e3-4f57-8f18-78d353422ae9","ios":"levelo://app?vid=ba9bd7c4-d1e3-4f57-8f18-78d353422ae9"},"vehicle_type_id":"4","last_reported":1729249650,"current_range_meters":32000,"station_id":"cpo3342slgdg3j2ifvpg","pricing_plan_id":"cebpf4jnsgd1na2vs0mg"},{"bike_id":"08cf7bd2-4b1c-4563-9044-5bfbb0366f66","system_id":"levelo_inurba_marseille","lat":43.27818,"lon":5.40709,"is_reserved":false,"is_disabled":false,"rental_uris":{"android":"levelo://app?vid=08cf7bd2-4b1c-4563-9044-5bfbb0366f66","ios":"levelo://app?vid=08cf7bd2-4b1c-4563-9044-5bfbb0366f66"},"vehicle_type_id":"4","last_reported":1729249650,"current_range_meters":20400,"station_id":"ce4bhnh2rcd13ifvqgtg","pricing_plan_id":"cebpf4jnsgd1na2vs0mg"},{"bike_id":"3d931c30-8cac-41c4-950a-650bd246ca8c","system_id":"levelo_inurba_marseille","lat":43.284521,"lon":5.358821,"is_reserved":false,"is_disabled":false,"rental_uris":{"android":"levelo://app?vid=3d931c30-8cac-41c4-950a-650bd246ca8c","ios":"levelo://app?vid=3d931c30-8cac-41c4-950a-650bd246ca8c"},"vehicle_type_id":"4","last_reported":1729249650,"current_range_meters":21600,"station_id":"ce4bhah2rcd13ifvqei0","pricing_plan_id":"cebpf4jnsgd1na2vs0mg"},{"bike_id":"734e2ae6-dfa5-4428-9756-0c5d3146e6bd","system_id":"levelo_inurba_marseille","lat":43.25818,"lon":5.39431,"is_reserved":false,"is_disabled":false,"rental_uris":{"android":"levelo://app?vid=734e2ae6-dfa5-4428-9756-0c5d3146e6bd","ios":"levelo://app?vid=734e2ae6-dfa5-4428-9756-0c5d3146e6bd"},"vehicle_type_id":"4","last_reported":1729249650,"current_range_meters":6400,"station_id":"ce4bhip2rcd13ifvqft0","pricing_plan_id":"cebpf4jnsgd1na2vs0mg"},{"bike_id":"47896433-1caa-406d-b0b0-0fef88a016af","system_id":"levelo_inurba_marseille","lat":43.2407,"lon":5.37748,"is_reserved":false,"is_disabled":false,"rental_uris":{"android":"levelo://app?vid=47896433-1caa-406d-b0b0-0fef88a016af","ios":"levelo://app?vid=47896433-1caa-406d-b0b0-0fef88a016af"},"vehicle_type_id":"4","last_reported":1729249650,"current_range_meters":5600,"station_id":"ce4bhnp2rcd13ifvqgvg","pricing_plan_id":"cebpf4jnsgd1na2vs0mg"},{"bike_id":"97961042-a571-44f0-a535-9a4dbe07ea4d","system_id":"levelo_inurba_marseille","lat":43.27815,"lon":5.40711,"is_reserved":false,"is_disabled":false,"rental_uris":{"android":"levelo://app?vid=97961042-a571-44f0-a535-9a4dbe07ea4d","ios":"levelo://app?vid=97961042-a571-44f0-a535-9a4dbe07ea4d"},"vehicle_type_id":"4","last_reported":1729249650,"current_range_meters":8400,"station_id":"ce4bhnh2rcd13ifvqgtg","pricing_plan_id":"cebpf4jnsgd1na2vs0mg"},{"bike_id":"a14cfc8d-fbbd-40b0-aa99-e624d97946a6","system_id":"levelo_inurba_marseille","lat":43.30799,"lon":5.43521,"is_reserved":false,"is_disabled":false,"rental_uris":{"android":"levelo://app?vid=a14cfc8d-fbbd-40b0-aa99-e624d97946a6","ios":"levelo://app?vid=a14cfc8d-fbbd-40b0-aa99-e624d97946a6"},"vehicle_type_id":"4","last_reported":1729249650,"current_range_meters":28400,"station_id":"ce4bhph2rcd13ifvqheg","pricing_plan_id":"cebpf4jnsgd1na2vs0mg"},{"bike_id":"cc5a9128-a914-4531-9565-acaa6902579c","system_id":"levelo_inurba_marseille","lat":43.2827,"lon":5.3506,"is_reserved":false,"is_disabled":false,"rental_uris":{"android":"levelo://app?vid=cc5a9128-a914-4531-9565-acaa6902579c","ios":"levelo://app?vid=cc5a9128-a914-4531-9565-acaa6902579c"},"vehicle_type_id":"4","last_reported":1729249650,"current_range_meters":14800,"station_id":"ce4bhbp2rcd13ifvqerg","pricing_plan_id":"cebpf4jnsgd1na2vs0mg"},{"bike_id":"3128e9c5-e39e-4d57-ab13-75c211453798","system_id":"levelo_inurba_marseille","lat":43.337444,"lon":5.374475,"is_reserved":false,"is_disabled":false,"rental_uris":{"android":"levelo://app?vid=3128e9c5-e39e-4d57-ab13-75c211453798","ios":"levelo://app?vid=3128e9c5-e39e-4d57-ab13-75c211453798"},"vehicle_type_id":"4","last_reported":1729249650,"current_range_meters":32000,"station_id":"","pricing_plan_id":"cebpf4jnsgd1na2vs0mg"},{"bike_id":"3dec1a04-d85f-4286-a346-691ec7b29846","system_id":"levelo_inurba_marseille","lat":43.30605,"lon":5.39369,"is_reserved":false,"is_disabled":false,"rental_uris":{"android":"levelo://app?vid=3dec1a04-d85f-4286-a346-691ec7b29846","ios":"levelo://app?vid=3dec1a04-d85f-4286-a346-691ec7b29846"},"vehicle_type_id":"4","last_reported":1729249650,"current_range_meters":14000,"station_id":"ce4bh0p2rcd13ifvqd80","pricing_plan_id":"cebpf4jnsgd1na2vs0mg"},{"bike_id":"f6787f13-6244-4097-9077-265b78e703c4","system_id":"levelo_inurba_marseille","lat":43.29907,"lon":5.38141,"is_reserved":false,"is_disabled":false,"rental_uris":{"android":"levelo://app?vid=f6787f13-6244-4097-9077-265b78e703c4","ios":"levelo://app?vid=f6787f13-6244-4097-9077-265b78e703c4"},"vehicle_type_id":"4","last_reported":1729249650,"current_range_meters":10800,"station_id":"ce4bgj12rcd13ifvqbc0","pricing_plan_id":"cebpf4jnsgd1na2vs0mg"},{"bike_id":"874494de-7452-4f47-9fec-c5ec79478035","system_id":"levelo_inurba_marseille","lat":43.23971,"lon":5.36612,"is_reserved":false,"is_disabled":false,"rental_uris":{"android":"levelo://app?vid=874494de-7452-4f47-9fec-c5ec79478035","ios":"levelo://app?vid=874494de-7452-4f47-9fec-c5ec79478035"},"vehicle_type_id":"4","last_reported":1729249650,"current_range_meters":24400,"station_id":"ce4bhi12rcd13ifvqfp0","pricing_plan_id":"cebpf4jnsgd1na2vs0mg"},{"bike_id":"8b33911e-5d42-46bd-b00d-c1d5ce72f577","system_id":"levelo_inurba_marseille","lat":43.2319,"lon":5.39977,"is_reserved":false,"is_disabled":false,"rental_uris":{"android":"levelo://app?vid=8b33911e-5d42-46bd-b00d-c1d5ce72f577","ios":"levelo://app?vid=8b33911e-5d42-46bd-b00d-c1d5ce72f577"},"vehicle_type_id":"4","last_reported":1729249650,"current_range_meters":38800,"station_id":"ce4bhn12rcd13ifvqgqg","pricing_plan_id":"cebpf4jnsgd1na2vs0mg"},{"bike_id":"d5c5eaf0-cb99-4443-8e2c-e713dc27c8f5","system_id":"levelo_inurba_marseille","lat":43.2968,"lon":5.37304,"is_reserved":false,"is_disabled":false,"rental_uris":{"android":"levelo://app?vid=d5c5eaf0-cb99-4443-8e2c-e713dc27c8f5","ios":"levelo://app?vid=d5c5eaf0-cb99-4443-8e2c-e713dc27c8f5"},"vehicle_type_id":"4","last_reported":1729249650,"current_range_meters":24800,"station_id":"ce4bgk12rcd13ifvqbj0","pricing_plan_id":"cebpf4jnsgd1na2vs0mg"},{"bike_id":"d9c07db0-9dc4-4069-8810-a5a2e02151cc","system_id":"levelo_inurba_marseille","lat":43.2695,"lon":5.38626,"is_reserved":false,"is_disabled":false,"rental_uris":{"android":"levelo://app?vid=d9c07db0-9dc4-4069-8810-a5a2e02151cc","ios":"levelo://app?vid=d9c07db0-9dc4-4069-8810-a5a2e02151cc"},"vehicle_type_id":"4","last_reported":1729249650,"current_range_meters":24000,"station_id":"ce4bhh92rcd13ifvqfh0","pricing_plan_id":"cebpf4jnsgd1na2vs0mg"},{"bike_id":"0994d7f0-fa2e-480f-b967-2b1e1b476b78","system_id":"levelo_inurba_marseille","lat":43.23186,"lon":5.3555,"is_reserved":false,"is_disabled":false,"rental_uris":{"android":"levelo://app?vid=0994d7f0-fa2e-480f-b967-2b1e1b476b78","ios":"levelo://app?vid=0994d7f0-fa2e-480f-b967-2b1e1b476b78"},"vehicle_type_id":"4","last_reported":1729249650,"current_range_meters":9200,"station_id":"ce4bhu92rcd13ifvqi70","pricing_plan_id":"cebpf4jnsgd1na2vs0mg"},{"bike_id":"1f0232ad-412a-46b7-bc7f-993767f349cd","system_id":"levelo_inurba_marseille","lat":43.27946,"lon":5.41046,"is_reserved":false,"is_disabled":false,"rental_uris":{"android":"levelo://app?vid=1f0232ad-412a-46b7-bc7f-993767f349cd","ios":"levelo://app?vid=1f0232ad-412a-46b7-bc7f-993767f349cd"},"vehicle_type_id":"4","last_reported":1729249650,"current_range_meters":33600,"station_id":"ce4bhnp2rcd13ifvqh0g","pricing_plan_id":"cebpf4jnsgd1na2vs0mg"},{"bike_id":"dff4ec33-f060-4455-98f1-8e7b5d10fb38","system_id":"levelo_inurba_marseille","lat":43.30459,"lon":5.379,"is_reserved":false,"is_disabled":false,"rental_uris":{"android":"levelo://app?vid=dff4ec33-f060-4455-98f1-8e7b5d10fb38","ios":"levelo://app?vid=dff4ec33-f060-4455-98f1-8e7b5d10fb38"},"vehicle_type_id":"4","last_reported":1729249650,"current_range_meters":26000,"station_id":"ce4bgup2rcd13ifvqcn0","pricing_plan_id":"cebpf4jnsgd1na2vs0mg"},{"bike_id":"66ccc46d-618e-4760-b09c-27382152bdab","system_id":"levelo_inurba_marseille","lat":43.23195,"lon":5.35537,"is_reserved":false,"is_disabled":false,"rental_uris":{"android":"levelo://app?vid=66ccc46d-618e-4760-b09c-27382152bdab","ios":"levelo://app?vid=66ccc46d-618e-4760-b09c-27382152bdab"},"vehicle_type_id":"4","last_reported":1729249650,"current_range_meters":28400,"station_id":"ce4bhu92rcd13ifvqi70","pricing_plan_id":"cebpf4jnsgd1na2vs0mg"},{"bike_id":"af5ff28d-5a35-4f8c-9fc0-e6233fbc3f13","system_id":"levelo_inurba_marseille","lat":43.28285,"lon":5.35077,"is_reserved":false,"is_disabled":false,"rental_uris":{"android":"levelo://app?vid=af5ff28d-5a35-4f8c-9fc0-e6233fbc3f13","ios":"levelo://app?vid=af5ff28d-5a35-4f8c-9fc0-e6233fbc3f13"},"vehicle_type_id":"4","last_reported":1729249650,"current_range_meters":36800,"station_id":"ce4bhbp2rcd13ifvqerg","pricing_plan_id":"cebpf4jnsgd1na2vs0mg"},{"bike_id":"f91cf948-fd7e-4a54-ab18-5f338b9efcf2","system_id":"levelo_inurba_marseille","lat":43.33027,"lon":5.39038,"is_reserved":false,"is_disabled":false,"rental_uris":{"android":"levelo://app?vid=f91cf948-fd7e-4a54-ab18-5f338b9efcf2","ios":"levelo://app?vid=f91cf948-fd7e-4a54-ab18-5f338b9efcf2"},"vehicle_type_id":"4","last_reported":1729249650,"current_range_meters":8800,"station_id":"ce4bhr92rcd13ifvqhrg","pricing_plan_id":"cebpf4jnsgd1na2vs0mg"},{"bike_id":"8d481af8-b62c-4acc-a2e6-1539cd665ab7","system_id":"levelo_inurba_marseille","lat":43.27815,"lon":5.40711,"is_reserved":false,"is_disabled":false,"rental_uris":{"android":"levelo://app?vid=8d481af8-b62c-4acc-a2e6-1539cd665ab7","ios":"levelo://app?vid=8d481af8-b62c-4acc-a2e6-1539cd665ab7"},"vehicle_type_id":"4","last_reported":1729249650,"current_range_meters":23200,"station_id":"ce4bhnh2rcd13ifvqgtg","pricing_plan_id":"cebpf4jnsgd1na2vs0mg"},{"bike_id":"fc262b45-2b88-4d3d-8020-e7c946d1fec3","system_id":"levelo_inurba_marseille","lat":43.32112,"lon":5.36767,"is_reserved":false,"is_disabled":false,"rental_uris":{"android":"levelo://app?vid=fc262b45-2b88-4d3d-8020-e7c946d1fec3","ios":"levelo://app?vid=fc262b45-2b88-4d3d-8020-e7c946d1fec3"},"vehicle_type_id":"4","last_reported":1729249650,"current_range_meters":38000,"station_id":"ce4bhrh2rcd13ifvqhug","pricing_plan_id":"cebpf4jnsgd1na2vs0mg"},{"bike_id":"2a8d8e0d-09f4-4ada-9e2b-a6718972e982","system_id":"levelo_inurba_marseille","lat":43.2315,"lon":5.43698,"is_reserved":false,"is_disabled":false,"rental_uris":{"android":"levelo://app?vid=2a8d8e0d-09f4-4ada-9e2b-a6718972e982","ios":"levelo://app?vid=2a8d8e0d-09f4-4ada-9e2b-a6718972e982"},"vehicle_type_id":"4","last_reported":1729249650,"current_range_meters":19600,"station_id":"ce4bhmp2rcd13ifvqgog","pricing_plan_id":"cebpf4jnsgd1na2vs0mg"},{"bike_id":"5819797e-c23e-4e0c-af82-f3829296b406","system_id":"levelo_inurba_marseille","lat":43.279865,"lon":5.387615,"is_reserved":false,"is_disabled":false,"rental_uris":{"android":"levelo://app?vid=5819797e-c23e-4e0c-af82-f3829296b406","ios":"levelo://app?vid=5819797e-c23e-4e0c-af82-f3829296b406"},"vehicle_type_id":"4","last_reported":1729249650,"current_range_meters":38800,"station_id":"ce4bhg12rcd13ifvqf80","pricing_plan_id":"cebpf4jnsgd1na2vs0mg"},{"bike_id":"907d90e2-7e08-4846-bbc2-01977b54a9bd","system_id":"levelo_inurba_marseille","lat":43.24168,"lon":5.36379,"is_reserved":false,"is_disabled":false,"rental_uris":{"android":"levelo://app?vid=907d90e2-7e08-4846-bbc2-01977b54a9bd","ios":"levelo://app?vid=907d90e2-7e08-4846-bbc2-01977b54a9bd"},"vehicle_type_id":"4","last_reported":1729249650,"current_range_meters":18000,"station_id":"cpo36qri1sfpv3e86is0","pricing_plan_id":"cebpf4jnsgd1na2vs0mg"},{"bike_id":"f9b543e5-c836-44f9-aa57-d6c58d4fca82","system_id":"levelo_inurba_marseille","lat":43.31348,"lon":5.36716,"is_reserved":false,"is_disabled":false,"rental_uris":{"android":"levelo://app?vid=f9b543e5-c836-44f9-aa57-d6c58d4fca82","ios":"levelo://app?vid=f9b543e5-c836-44f9-aa57-d6c58d4fca82"},"vehicle_type_id":"4","last_reported":1729249650,"current_range_meters":24000,"station_id":"ce4bgr92rcd13ifvqc6g","pricing_plan_id":"cebpf4jnsgd1na2vs0mg"},{"bike_id":"c75548c7-4009-4549-ad48-9eedc2b82052","system_id":"levelo_inurba_marseille","lat":43.26949,"lon":5.38623,"is_reserved":false,"is_disabled":false,"rental_uris":{"android":"levelo://app?vid=c75548c7-4009-4549-ad48-9eedc2b82052","ios":"levelo://app?vid=c75548c7-4009-4549-ad48-9eedc2b82052"},"vehicle_type_id":"4","last_reported":1729249650,"current_range_meters":22000,"station_id":"ce4bhh92rcd13ifvqfh0","pricing_plan_id":"cebpf4jnsgd1na2vs0mg"},{"bike_id":"46b9d997-f8a2-4011-9958-a986ffb43361","system_id":"levelo_inurba_marseille","lat":43.3211,"lon":5.36764,"is_reserved":false,"is_disabled":false,"rental_uris":{"android":"levelo://app?vid=46b9d997-f8a2-4011-9958-a986ffb43361","ios":"levelo://app?vid=46b9d997-f8a2-4011-9958-a986ffb43361"},"vehicle_type_id":"4","last_reported":1729249650,"current_range_meters":25600,"station_id":"ce4bhrh2rcd13ifvqhug","pricing_plan_id":"cebpf4jnsgd1na2vs0mg"},{"bike_id":"97a9b4a8-4731-4181-af58-4a53298f7230","system_id":"levelo_inurba_marseille","lat":43.29577,"lon":5.36735,"is_reserved":false,"is_disabled":false,"rental_uris":{"android":"levelo://app?vid=97a9b4a8-4731-4181-af58-4a53298f7230","ios":"levelo://app?vid=97a9b4a8-4731-4181-af58-4a53298f7230"},"vehicle_type_id":"4","last_reported":1729249650,"current_range_meters":36000,"station_id":"ce4bgph2rcd13ifvqc2g","pricing_plan_id":"cebpf4jnsgd1na2vs0mg"},{"bike_id":"d5453104-4e26-49cc-8e26-384ccaaff964","system_id":"levelo_inurba_marseille","lat":43.26564,"lon":5.37284,"is_reserved":false,"is_disabled":false,"rental_uris":{"android":"levelo://app?vid=d5453104-4e26-49cc-8e26-384ccaaff964","ios":"levelo://app?vid=d5453104-4e26-49cc-8e26-384ccaaff964"},"vehicle_type_id":"4","last_reported":1729249650,"current_range_meters":30800,"station_id":"ce4bhg12rcd13ifvqf70","pricing_plan_id":"cebpf4jnsgd1na2vs0mg"},{"bike_id":"0f565f06-660b-4dd9-a24c-2bf0a0b9001b","system_id":"levelo_inurba_marseille","lat":43.3059,"lon":5.39349,"is_reserved":false,"is_disabled":false,"rental_uris":{"android":"levelo://app?vid=0f565f06-660b-4dd9-a24c-2bf0a0b9001b","ios":"levelo://app?vid=0f565f06-660b-4dd9-a24c-2bf0a0b9001b"},"vehicle_type_id":"4","last_reported":1729249650,"current_range_meters":36800,"station_id":"ce4bh0p2rcd13ifvqd80","pricing_plan_id":"cebpf4jnsgd1na2vs0mg"},{"bike_id":"944e2bb0-4607-411f-9364-8bb6f04a2a7f","system_id":"levelo_inurba_marseille","lat":43.26794,"lon":5.39408,"is_reserved":false,"is_disabled":false,"rental_uris":{"android":"levelo://app?vid=944e2bb0-4607-411f-9364-8bb6f04a2a7f","ios":"levelo://app?vid=944e2bb0-4607-411f-9364-8bb6f04a2a7f"},"vehicle_type_id":"4","last_reported":1729249650,"current_range_meters":24800,"station_id":"ce4bhh12rcd13ifvqfg0","pricing_plan_id":"cebpf4jnsgd1na2vs0mg"},{"bike_id":"646e2cf2-8282-4589-a194-12e4d373c2b1","system_id":"levelo_inurba_marseille","lat":43.23192,"lon":5.35551,"is_reserved":false,"is_disabled":false,"rental_uris":{"android":"levelo://app?vid=646e2cf2-8282-4589-a194-12e4d373c2b1","ios":"levelo://app?vid=646e2cf2-8282-4589-a194-12e4d373c2b1"},"vehicle_type_id":"4","last_reported":1729249650,"current_range_meters":38800,"station_id":"ce4bhu92rcd13ifvqi70","pricing_plan_id":"cebpf4jnsgd1na2vs0mg"},{"bike_id":"22b3fa45-7931-489c-b82f-b8dc262cbc1c","system_id":"levelo_inurba_marseille","lat":43.284691,"lon":5.384136,"is_reserved":false,"is_disabled":false,"rental_uris":{"android":"levelo://app?vid=22b3fa45-7931-489c-b82f-b8dc262cbc1c","ios":"levelo://app?vid=22b3fa45-7931-489c-b82f-b8dc262cbc1c"},"vehicle_type_id":"4","last_reported":1729249650,"current_range_meters":31200,"station_id":"ce4bh512rcd13ifvqe3g","pricing_plan_id":"cebpf4jnsgd1na2vs0mg"},{"bike_id":"8e23c297-3167-40ad-a346-3127dba1f666","system_id":"levelo_inurba_marseille","lat":43.29619,"lon":5.37155,"is_reserved":false,"is_disabled":false,"rental_uris":{"android":"levelo://app?vid=8e23c297-3167-40ad-a346-3127dba1f666","ios":"levelo://app?vid=8e23c297-3167-40ad-a346-3127dba1f666"},"vehicle_type_id":"4","last_reported":1729249650,"current_range_meters":38400,"station_id":"ce4bgnh2rcd13ifvqc0g","pricing_plan_id":"cebpf4jnsgd1na2vs0mg"},{"bike_id":"94dad7f8-6585-4b37-b691-74420d23ef13","system_id":"levelo_inurba_marseille","lat":43.30794,"lon":5.43516,"is_reserved":false,"is_disabled":false,"rental_uris":{"android":"levelo://app?vid=94dad7f8-6585-4b37-b691-74420d23ef13","ios":"levelo://app?vid=94dad7f8-6585-4b37-b691-74420d23ef13"},"vehicle_type_id":"4","last_reported":1729249650,"current_range_meters":36400,"station_id":"ce4bhph2rcd13ifvqheg","pricing_plan_id":"cebpf4jnsgd1na2vs0mg"},{"bike_id":"b5d4c69d-6d44-49a5-943a-595d61804931","system_id":"levelo_inurba_marseille","lat":43.302734,"lon":5.377215,"is_reserved":false,"is_disabled":false,"rental_uris":{"android":"levelo://app?vid=b5d4c69d-6d44-49a5-943a-595d61804931","ios":"levelo://app?vid=b5d4c69d-6d44-49a5-943a-595d61804931"},"vehicle_type_id":"4","last_reported":1729249650,"current_range_meters":6000,"station_id":"ce4bguh2rcd13ifvqcj0","pricing_plan_id":"cebpf4jnsgd1na2vs0mg"},{"bike_id":"4562e9bb-7c1e-4e0e-95e1-858d0f8d86d1","system_id":"levelo_inurba_marseille","lat":43.23193,"lon":5.35553,"is_reserved":false,"is_disabled":false,"rental_uris":{"android":"levelo://app?vid=4562e9bb-7c1e-4e0e-95e1-858d0f8d86d1","ios":"levelo://app?vid=4562e9bb-7c1e-4e0e-95e1-858d0f8d86d1"},"vehicle_type_id":"4","last_reported":1729249650,"current_range_meters":35600,"station_id":"ce4bhu92rcd13ifvqi70","pricing_plan_id":"cebpf4jnsgd1na2vs0mg"},{"bike_id":"6837ac97-30a8-4145-8047-b6d6df61ac48","system_id":"levelo_inurba_marseille","lat":43.23185,"lon":5.39993,"is_reserved":false,"is_disabled":false,"rental_uris":{"android":"levelo://app?vid=6837ac97-30a8-4145-8047-b6d6df61ac48","ios":"levelo://app?vid=6837ac97-30a8-4145-8047-b6d6df61ac48"},"vehicle_type_id":"4","last_reported":1729249650,"current_range_meters":38800,"station_id":"ce4bhn12rcd13ifvqgqg","pricing_plan_id":"cebpf4jnsgd1na2vs0mg"},{"bike_id":"2140b6a3-5118-4150-823e-9225aeb56201","system_id":"levelo_inurba_marseille","lat":43.231983,"lon":5.355476,"is_reserved":false,"is_disabled":false,"rental_uris":{"android":"levelo://app?vid=2140b6a3-5118-4150-823e-9225aeb56201","ios":"levelo://app?vid=2140b6a3-5118-4150-823e-9225aeb56201"},"vehicle_type_id":"4","last_reported":1729249650,"current_range_meters":32000,"station_id":"ce4bhu92rcd13ifvqi70","pricing_plan_id":"cebpf4jnsgd1na2vs0mg"},{"bike_id":"2d26828d-d90f-4409-8e3f-2bdaa5ca0cb2","system_id":"levelo_inurba_marseille","lat":43.23186,"lon":5.39979,"is_reserved":false,"is_disabled":false,"rental_uris":{"android":"levelo://app?vid=2d26828d-d90f-4409-8e3f-2bdaa5ca0cb2","ios":"levelo://app?vid=2d26828d-d90f-4409-8e3f-2bdaa5ca0cb2"},"vehicle_type_id":"4","last_reported":1729249650,"current_range_meters":33200,"station_id":"ce4bhn12rcd13ifvqgqg","pricing_plan_id":"cebpf4jnsgd1na2vs0mg"},{"bike_id":"c2be6559-daaf-4410-a6c1-e64885bbd8d7","system_id":"levelo_inurba_marseille","lat":43.29034,"lon":5.38634,"is_reserved":false,"is_disabled":false,"rental_uris":{"android":"levelo://app?vid=c2be6559-daaf-4410-a6c1-e64885bbd8d7","ios":"levelo://app?vid=c2be6559-daaf-4410-a6c1-e64885bbd8d7"},"vehicle_type_id":"4","last_reported":1729249650,"current_range_meters":36400,"station_id":"ce4bh4p2rcd13ifvqe0g","pricing_plan_id":"cebpf4jnsgd1na2vs0mg"},{"bike_id":"97c4c9ee-f754-494d-8f98-2247ad2949d7","system_id":"levelo_inurba_marseille","lat":43.25089,"lon":5.39521,"is_reserved":false,"is_disabled":false,"rental_uris":{"android":"levelo://app?vid=97c4c9ee-f754-494d-8f98-2247ad2949d7","ios":"levelo://app?vid=97c4c9ee-f754-494d-8f98-2247ad2949d7"},"vehicle_type_id":"4","last_reported":1729249650,"current_range_meters":20800,"station_id":"ce4bhm12rcd13ifvqgkg","pricing_plan_id":"cebpf4jnsgd1na2vs0mg"},{"bike_id":"4c049c34-a214-4e14-9e5d-7ce44156633d","system_id":"levelo_inurba_marseille","lat":43.30468,"lon":5.37907,"is_reserved":false,"is_disabled":false,"rental_uris":{"android":"levelo://app?vid=4c049c34-a214-4e14-9e5d-7ce44156633d","ios":"levelo://app?vid=4c049c34-a214-4e14-9e5d-7ce44156633d"},"vehicle_type_id":"4","last_reported":1729249650,"current_range_meters":38000,"station_id":"ce4bgup2rcd13ifvqcn0","pricing_plan_id":"cebpf4jnsgd1na2vs0mg"},{"bike_id":"38e27b30-a6f6-4a8d-84d6-515994ecd10e","system_id":"levelo_inurba_marseille","lat":43.27063,"lon":5.42272,"is_reserved":false,"is_disabled":false,"rental_uris":{"android":"levelo://app?vid=38e27b30-a6f6-4a8d-84d6-515994ecd10e","ios":"levelo://app?vid=38e27b30-a6f6-4a8d-84d6-515994ecd10e"},"vehicle_type_id":"4","last_reported":1729249650,"current_range_meters":10800,"station_id":"ce4bhk92rcd13ifvqgb0","pricing_plan_id":"cebpf4jnsgd1na2vs0mg"},{"bike_id":"73571360-6624-497e-ae84-61a3fbd766b0","system_id":"levelo_inurba_marseille","lat":43.255,"lon":5.37653,"is_reserved":false,"is_disabled":false,"rental_uris":{"android":"levelo://app?vid=73571360-6624-497e-ae84-61a3fbd766b0","ios":"levelo://app?vid=73571360-6624-497e-ae84-61a3fbd766b0"},"vehicle_type_id":"4","last_reported":1729249650,"current_range_meters":39200,"station_id":"ce4bhh12rcd13ifvqff0","pricing_plan_id":"cebpf4jnsgd1na2vs0mg"},{"bike_id":"fa9433b4-083f-47af-bd7b-c30153b643c4","system_id":"levelo_inurba_marseille","lat":43.28075,"lon":5.39663,"is_reserved":false,"is_disabled":false,"rental_uris":{"android":"levelo://app?vid=fa9433b4-083f-47af-bd7b-c30153b643c4","ios":"levelo://app?vid=fa9433b4-083f-47af-bd7b-c30153b643c4"},"vehicle_type_id":"4","last_reported":1729249650,"current_range_meters":25600,"station_id":"ce4bho12rcd13ifvqh2g","pricing_plan_id":"cebpf4jnsgd1na2vs0mg"},{"bike_id":"db3cbd93-ad23-49a6-8c18-53219b7198d7","system_id":"levelo_inurba_marseille","lat":43.30295,"lon":5.39202,"is_reserved":false,"is_disabled":false,"rental_uris":{"android":"levelo://app?vid=db3cbd93-ad23-49a6-8c18-53219b7198d7","ios":"levelo://app?vid=db3cbd93-ad23-49a6-8c18-53219b7198d7"},"vehicle_type_id":"4","last_reported":1729249650,"current_range_meters":38000,"station_id":"ce4bgkh2rcd13ifvqbk0","pricing_plan_id":"cebpf4jnsgd1na2vs0mg"},{"bike_id":"b28259c9-f26a-4f3e-b59e-62bb97d851c1","system_id":"levelo_inurba_marseille","lat":43.26031,"lon":5.37546,"is_reserved":false,"is_disabled":false,"rental_uris":{"android":"levelo://app?vid=b28259c9-f26a-4f3e-b59e-62bb97d851c1","ios":"levelo://app?vid=b28259c9-f26a-4f3e-b59e-62bb97d851c1"},"vehicle_type_id":"4","last_reported":1729249650,"current_range_meters":26800,"station_id":"ce4bhgh2rcd13ifvqfa0","pricing_plan_id":"cebpf4jnsgd1na2vs0mg"},{"bike_id":"175755d7-0c67-48b4-8af6-3d11fd590c37","system_id":"levelo_inurba_marseille","lat":43.23959,"lon":5.3663,"is_reserved":false,"is_disabled":false,"rental_uris":{"android":"levelo://app?vid=175755d7-0c67-48b4-8af6-3d11fd590c37","ios":"levelo://app?vid=175755d7-0c67-48b4-8af6-3d11fd590c37"},"vehicle_type_id":"4","last_reported":1729249650,"current_range_meters":33200,"station_id":"ce4bhi12rcd13ifvqfp0","pricing_plan_id":"cebpf4jnsgd1na2vs0mg"},{"bike_id":"4049765c-cffc-4dad-a376-325cc263b361","system_id":"levelo_inurba_marseille","lat":43.30148,"lon":5.38067,"is_reserved":false,"is_disabled":false,"rental_uris":{"android":"levelo://app?vid=4049765c-cffc-4dad-a376-325cc263b361","ios":"levelo://app?vid=4049765c-cffc-4dad-a376-325cc263b361"},"vehicle_type_id":"4","last_reported":1729249650,"current_range_meters":28400,"station_id":"ce4bgjp2rcd13ifvqbh0","pricing_plan_id":"cebpf4jnsgd1na2vs0mg"},{"bike_id":"7772d39f-5e28-445c-af91-069b0cf63793","system_id":"levelo_inurba_marseille","lat":43.33765,"lon":5.37438,"is_reserved":false,"is_disabled":false,"rental_uris":{"android":"levelo://app?vid=7772d39f-5e28-445c-af91-069b0cf63793","ios":"levelo://app?vid=7772d39f-5e28-445c-af91-069b0cf63793"},"vehicle_type_id":"4","last_reported":1729249650,"current_range_meters":14000,"station_id":"","pricing_plan_id":"cebpf4jnsgd1na2vs0mg"},{"bike_id":"f7aeb384-465e-47ff-a33b-e62320c46af9","system_id":"levelo_inurba_marseille","lat":43.26956,"lon":5.3862,"is_reserved":false,"is_disabled":false,"rental_uris":{"android":"levelo://app?vid=f7aeb384-465e-47ff-a33b-e62320c46af9","ios":"levelo://app?vid=f7aeb384-465e-47ff-a33b-e62320c46af9"},"vehicle_type_id":"4","last_reported":1729249650,"current_range_meters":10800,"station_id":"ce4bhh92rcd13ifvqfh0","pricing_plan_id":"cebpf4jnsgd1na2vs0mg"},{"bike_id":"e0ab6bb6-c6b9-4385-b41c-27bea5d9c0cb","system_id":"levelo_inurba_marseille","lat":43.33028,"lon":5.39036,"is_reserved":false,"is_disabled":false,"rental_uris":{"android":"levelo://app?vid=e0ab6bb6-c6b9-4385-b41c-27bea5d9c0cb","ios":"levelo://app?vid=e0ab6bb6-c6b9-4385-b41c-27bea5d9c0cb"},"vehicle_type_id":"4","last_reported":1729249650,"current_range_meters":24000,"station_id":"ce4bhr92rcd13ifvqhrg","pricing_plan_id":"cebpf4jnsgd1na2vs0mg"},{"bike_id":"4ef6f5b0-7cd1-44d6-be09-65327a7c29ac","system_id":"levelo_inurba_marseille","lat":43.34144,"lon":5.40898,"is_reserved":false,"is_disabled":false,"rental_uris":{"android":"levelo://app?vid=4ef6f5b0-7cd1-44d6-be09-65327a7c29ac","ios":"levelo://app?vid=4ef6f5b0-7cd1-44d6-be09-65327a7c29ac"},"vehicle_type_id":"4","last_reported":1729249650,"current_range_meters":36800,"station_id":"ce4bhqh2rcd13ifvqhlg","pricing_plan_id":"cebpf4jnsgd1na2vs0mg"},{"bike_id":"3213665e-989c-4d22-9f5a-31c8522597dd","system_id":"levelo_inurba_marseille","lat":43.296,"lon":5.36142,"is_reserved":false,"is_disabled":false,"rental_uris":{"android":"levelo://app?vid=3213665e-989c-4d22-9f5a-31c8522597dd","ios":"levelo://app?vid=3213665e-989c-4d22-9f5a-31c8522597dd"},"vehicle_type_id":"4","last_reported":1729249650,"current_range_meters":24400,"station_id":"","pricing_plan_id":"cebpf4jnsgd1na2vs0mg"},{"bike_id":"cddb2538-acdb-46a5-bc95-6e0a8d74ef0c","system_id":"levelo_inurba_marseille","lat":43.30798,"lon":5.43526,"is_reserved":false,"is_disabled":false,"rental_uris":{"android":"levelo://app?vid=cddb2538-acdb-46a5-bc95-6e0a8d74ef0c","ios":"levelo://app?vid=cddb2538-acdb-46a5-bc95-6e0a8d74ef0c"},"vehicle_type_id":"4","last_reported":1729249650,"current_range_meters":32000,"station_id":"ce4bhph2rcd13ifvqheg","pricing_plan_id":"cebpf4jnsgd1na2vs0mg"},{"bike_id":"70dce366-f9c7-40a3-ae14-89a345e4870f","system_id":"levelo_inurba_marseille","lat":43.28347,"lon":5.38101,"is_reserved":false,"is_disabled":false,"rental_uris":{"android":"levelo://app?vid=70dce366-f9c7-40a3-ae14-89a345e4870f","ios":"levelo://app?vid=70dce366-f9c7-40a3-ae14-89a345e4870f"},"vehicle_type_id":"4","last_reported":1729249650,"current_range_meters":38800,"station_id":"ce4bh412rcd13ifvqdr0","pricing_plan_id":"cebpf4jnsgd1na2vs0mg"},{"bike_id":"5f50933a-822a-4388-8612-62a3f233b7b7","system_id":"levelo_inurba_marseille","lat":43.23155,"lon":5.43718,"is_reserved":false,"is_disabled":false,"rental_uris":{"android":"levelo://app?vid=5f50933a-822a-4388-8612-62a3f233b7b7","ios":"levelo://app?vid=5f50933a-822a-4388-8612-62a3f233b7b7"},"vehicle_type_id":"4","last_reported":1729249650,"current_range_meters":27600,"station_id":"ce4bhmp2rcd13ifvqgog","pricing_plan_id":"cebpf4jnsgd1na2vs0mg"},{"bike_id":"90efa0ff-4a37-4367-a258-95b077861c47","system_id":"levelo_inurba_marseille","lat":43.22937,"lon":5.35383,"is_reserved":false,"is_disabled":false,"rental_uris":{"android":"levelo://app?vid=90efa0ff-4a37-4367-a258-95b077861c47","ios":"levelo://app?vid=90efa0ff-4a37-4367-a258-95b077861c47"},"vehicle_type_id":"4","last_reported":1729249650,"current_range_meters":33600,"station_id":"cpo3532slgdg3j2ikp40","pricing_plan_id":"cebpf4jnsgd1na2vs0mg"},{"bike_id":"1641b826-604a-4181-8231-dca386f637a6","system_id":"levelo_inurba_marseille","lat":43.23194,"lon":5.35549,"is_reserved":false,"is_disabled":false,"rental_uris":{"android":"levelo://app?vid=1641b826-604a-4181-8231-dca386f637a6","ios":"levelo://app?vid=1641b826-604a-4181-8231-dca386f637a6"},"vehicle_type_id":"4","last_reported":1729249650,"current_range_meters":29600,"station_id":"ce4bhu92rcd13ifvqi70","pricing_plan_id":"cebpf4jnsgd1na2vs0mg"},{"bike_id":"89211ee2-076f-4df3-92bd-cd8885f2e76d","system_id":"levelo_inurba_marseille","lat":43.23194,"lon":5.35556,"is_reserved":false,"is_disabled":false,"rental_uris":{"android":"levelo://app?vid=89211ee2-076f-4df3-92bd-cd8885f2e76d","ios":"levelo://app?vid=89211ee2-076f-4df3-92bd-cd8885f2e76d"},"vehicle_type_id":"4","last_reported":1729249650,"current_range_meters":28400,"station_id":"ce4bhu92rcd13ifvqi70","pricing_plan_id":"cebpf4jnsgd1na2vs0mg"},{"bike_id":"ad7b4d6b-0664-4d0e-891e-2962f31c57b3","system_id":"levelo_inurba_marseille","lat":43.23149,"lon":5.43706,"is_reserved":false,"is_disabled":false,"rental_uris":{"android":"levelo://app?vid=ad7b4d6b-0664-4d0e-891e-2962f31c57b3","ios":"levelo://app?vid=ad7b4d6b-0664-4d0e-891e-2962f31c57b3"},"vehicle_type_id":"4","last_reported":1729249650,"current_range_meters":24000,"station_id":"ce4bhmp2rcd13ifvqgog","pricing_plan_id":"cebpf4jnsgd1na2vs0mg"},{"bike_id":"be1e7819-405e-4896-9104-aec4a30ad2bd","system_id":"levelo_inurba_marseille","lat":43.28938,"lon":5.36633,"is_reserved":false,"is_disabled":false,"rental_uris":{"android":"levelo://app?vid=be1e7819-405e-4896-9104-aec4a30ad2bd","ios":"levelo://app?vid=be1e7819-405e-4896-9104-aec4a30ad2bd"},"vehicle_type_id":"4","last_reported":1729249650,"current_range_meters":8800,"station_id":"ce4bhap2rcd13ifvqek0","pricing_plan_id":"cebpf4jnsgd1na2vs0mg"},{"bike_id":"63570bc5-1c67-413d-9b7f-ac94075d2d3d","system_id":"levelo_inurba_marseille","lat":43.29573,"lon":5.399797,"is_reserved":false,"is_disabled":false,"rental_uris":{"android":"levelo://app?vid=63570bc5-1c67-413d-9b7f-ac94075d2d3d","ios":"levelo://app?vid=63570bc5-1c67-413d-9b7f-ac94075d2d3d"},"vehicle_type_id":"4","last_reported":1729249650,"current_range_meters":12000,"station_id":"ce4bh312rcd13ifvqdj0","pricing_plan_id":"cebpf4jnsgd1na2vs0mg"},{"bike_id":"5e71651e-3f89-45a8-aa11-bf64ca86ed10","system_id":"levelo_inurba_marseille","lat":43.24388,"lon":5.3706,"is_reserved":false,"is_disabled":false,"rental_uris":{"android":"levelo://app?vid=5e71651e-3f89-45a8-aa11-bf64ca86ed10","ios":"levelo://app?vid=5e71651e-3f89-45a8-aa11-bf64ca86ed10"},"vehicle_type_id":"4","last_reported":1729249650,"current_range_meters":12400,"station_id":"ce4bhhh2rcd13ifvqfk0","pricing_plan_id":"cebpf4jnsgd1na2vs0mg"},{"bike_id":"48a23542-ce7a-4741-b0e4-0517a31831e0","system_id":"levelo_inurba_marseille","lat":43.30466,"lon":5.37903,"is_reserved":false,"is_disabled":false,"rental_uris":{"android":"levelo://app?vid=48a23542-ce7a-4741-b0e4-0517a31831e0","ios":"levelo://app?vid=48a23542-ce7a-4741-b0e4-0517a31831e0"},"vehicle_type_id":"4","last_reported":1729249650,"current_range_meters":27200,"station_id":"ce4bgup2rcd13ifvqcn0","pricing_plan_id":"cebpf4jnsgd1na2vs0mg"},{"bike_id":"5f8af4c9-8ff7-4bde-8f61-8c771fe0d93a","system_id":"levelo_inurba_marseille","lat":43.25821,"lon":5.39432,"is_reserved":false,"is_disabled":false,"rental_uris":{"android":"levelo://app?vid=5f8af4c9-8ff7-4bde-8f61-8c771fe0d93a","ios":"levelo://app?vid=5f8af4c9-8ff7-4bde-8f61-8c771fe0d93a"},"vehicle_type_id":"4","last_reported":1729249650,"current_range_meters":14400,"station_id":"ce4bhip2rcd13ifvqft0","pricing_plan_id":"cebpf4jnsgd1na2vs0mg"},{"bike_id":"422d485a-ee3c-4fc3-b2c4-fc8dab31d119","system_id":"levelo_inurba_marseille","lat":43.23964,"lon":5.36625,"is_reserved":false,"is_disabled":false,"rental_uris":{"android":"levelo://app?vid=422d485a-ee3c-4fc3-b2c4-fc8dab31d119","ios":"levelo://app?vid=422d485a-ee3c-4fc3-b2c4-fc8dab31d119"},"vehicle_type_id":"4","last_reported":1729249650,"current_range_meters":15200,"station_id":"ce4bhi12rcd13ifvqfp0","pricing_plan_id":"cebpf4jnsgd1na2vs0mg"},{"bike_id":"d16a593a-39f3-4b22-8ca4-7db647432a9d","system_id":"levelo_inurba_marseille","lat":43.29524,"lon":5.37497,"is_reserved":false,"is_disabled":false,"rental_uris":{"android":"levelo://app?vid=d16a593a-39f3-4b22-8ca4-7db647432a9d","ios":"levelo://app?vid=d16a593a-39f3-4b22-8ca4-7db647432a9d"},"vehicle_type_id":"4","last_reported":1729249650,"current_range_meters":36000,"station_id":"ce4bgkp2rcd13ifvqbmg","pricing_plan_id":"cebpf4jnsgd1na2vs0mg"},{"bike_id":"a50e2869-4c31-4174-8528-6206e4c46a23","system_id":"levelo_inurba_marseille","lat":43.25826,"lon":5.39435,"is_reserved":false,"is_disabled":false,"rental_uris":{"android":"levelo://app?vid=a50e2869-4c31-4174-8528-6206e4c46a23","ios":"levelo://app?vid=a50e2869-4c31-4174-8528-6206e4c46a23"},"vehicle_type_id":"4","last_reported":1729249650,"current_range_meters":38800,"station_id":"ce4bhip2rcd13ifvqft0","pricing_plan_id":"cebpf4jnsgd1na2vs0mg"},{"bike_id":"87440bd7-4730-412f-b52f-03b263c3d6ba","system_id":"levelo_inurba_marseille","lat":43.23191,"lon":5.35551,"is_reserved":false,"is_disabled":false,"rental_uris":{"android":"levelo://app?vid=87440bd7-4730-412f-b52f-03b263c3d6ba","ios":"levelo://app?vid=87440bd7-4730-412f-b52f-03b263c3d6ba"},"vehicle_type_id":"4","last_reported":1729249650,"current_range_meters":13600,"station_id":"ce4bhu92rcd13ifvqi70","pricing_plan_id":"cebpf4jnsgd1na2vs0mg"},{"bike_id":"5c491128-d2de-4b00-8c90-6abc31a462e1","system_id":"levelo_inurba_marseille","lat":43.22938,"lon":5.35376,"is_reserved":false,"is_disabled":false,"rental_uris":{"android":"levelo://app?vid=5c491128-d2de-4b00-8c90-6abc31a462e1","ios":"levelo://app?vid=5c491128-d2de-4b00-8c90-6abc31a462e1"},"vehicle_type_id":"4","last_reported":1729249650,"current_range_meters":12400,"station_id":"cpo3532slgdg3j2ikp40","pricing_plan_id":"cebpf4jnsgd1na2vs0mg"},{"bike_id":"ef4dd203-fcc5-4759-ae60-6c03f2e0543e","system_id":"levelo_inurba_marseille","lat":43.30906,"lon":5.3685,"is_reserved":false,"is_disabled":false,"rental_uris":{"android":"levelo://app?vid=ef4dd203-fcc5-4759-ae60-6c03f2e0543e","ios":"levelo://app?vid=ef4dd203-fcc5-4759-ae60-6c03f2e0543e"},"vehicle_type_id":"4","last_reported":1729249650,"current_range_meters":39200,"station_id":"ce4bgn92rcd13ifvqbvg","pricing_plan_id":"cebpf4jnsgd1na2vs0mg"},{"bike_id":"760b2352-6cee-42a3-9fdd-e0789b02a76a","system_id":"levelo_inurba_marseille","lat":43.26561,"lon":5.38987,"is_reserved":false,"is_disabled":false,"rental_uris":{"android":"levelo://app?vid=760b2352-6cee-42a3-9fdd-e0789b02a76a","ios":"levelo://app?vid=760b2352-6cee-42a3-9fdd-e0789b02a76a"},"vehicle_type_id":"4","last_reported":1729249650,"current_range_meters":16800,"station_id":"ce4bhe12rcd13ifvqf30","pricing_plan_id":"cebpf4jnsgd1na2vs0mg"},{"bike_id":"3d403af9-9e45-4778-9acb-65067e91c2a5","system_id":"levelo_inurba_marseille","lat":43.26555,"lon":5.37283,"is_reserved":false,"is_disabled":false,"rental_uris":{"android":"levelo://app?vid=3d403af9-9e45-4778-9acb-65067e91c2a5","ios":"levelo://app?vid=3d403af9-9e45-4778-9acb-65067e91c2a5"},"vehicle_type_id":"4","last_reported":1729249650,"current_range_meters":30800,"station_id":"ce4bhg12rcd13ifvqf70","pricing_plan_id":"cebpf4jnsgd1na2vs0mg"},{"bike_id":"a7d7af2e-9506-4bf3-afb7-e478ab735d42","system_id":"levelo_inurba_marseille","lat":43.2971,"lon":5.37692,"is_reserved":false,"is_disabled":false,"rental_uris":{"android":"levelo://app?vid=a7d7af2e-9506-4bf3-afb7-e478ab735d42","ios":"levelo://app?vid=a7d7af2e-9506-4bf3-afb7-e478ab735d42"},"vehicle_type_id":"4","last_reported":1729249650,"current_range_meters":38000,"station_id":"ce4bgkh2rcd13ifvqbl0","pricing_plan_id":"cebpf4jnsgd1na2vs0mg"},{"bike_id":"f2e0eb79-06d2-4284-9540-1e16fe68288c","system_id":"levelo_inurba_marseille","lat":43.27815,"lon":5.40713,"is_reserved":false,"is_disabled":false,"rental_uris":{"android":"levelo://app?vid=f2e0eb79-06d2-4284-9540-1e16fe68288c","ios":"levelo://app?vid=f2e0eb79-06d2-4284-9540-1e16fe68288c"},"vehicle_type_id":"4","last_reported":1729249650,"current_range_meters":32800,"station_id":"ce4bhnh2rcd13ifvqgtg","pricing_plan_id":"cebpf4jnsgd1na2vs0mg"},{"bike_id":"ff694671-a575-4cd1-8733-b01f8a4fd5d6","system_id":"levelo_inurba_marseille","lat":43.28357,"lon":5.381,"is_reserved":false,"is_disabled":false,"rental_uris":{"android":"levelo://app?vid=ff694671-a575-4cd1-8733-b01f8a4fd5d6","ios":"levelo://app?vid=ff694671-a575-4cd1-8733-b01f8a4fd5d6"},"vehicle_type_id":"4","last_reported":1729249650,"current_range_meters":14800,"station_id":"ce4bh412rcd13ifvqdr0","pricing_plan_id":"cebpf4jnsgd1na2vs0mg"},{"bike_id":"696dc541-0cb3-45d5-a0c3-deab34e54a6a","system_id":"levelo_inurba_marseille","lat":43.24079,"lon":5.37754,"is_reserved":false,"is_disabled":false,"rental_uris":{"android":"levelo://app?vid=696dc541-0cb3-45d5-a0c3-deab34e54a6a","ios":"levelo://app?vid=696dc541-0cb3-45d5-a0c3-deab34e54a6a"},"vehicle_type_id":"4","last_reported":1729249650,"current_range_meters":22400,"station_id":"ce4bhnp2rcd13ifvqgvg","pricing_plan_id":"cebpf4jnsgd1na2vs0mg"},{"bike_id":"fdf55f92-6d57-40b0-901c-47021d3ca4ef","system_id":"levelo_inurba_marseille","lat":43.29196,"lon":5.39316,"is_reserved":false,"is_disabled":false,"rental_uris":{"android":"levelo://app?vid=fdf55f92-6d57-40b0-901c-47021d3ca4ef","ios":"levelo://app?vid=fdf55f92-6d57-40b0-901c-47021d3ca4ef"},"vehicle_type_id":"4","last_reported":1729249650,"current_range_meters":30800,"station_id":"ce4bh192rcd13ifvqdd0","pricing_plan_id":"cebpf4jnsgd1na2vs0mg"},{"bike_id":"13c694b9-aa69-40dd-8e72-34cc2e3789a3","system_id":"levelo_inurba_marseille","lat":43.2797,"lon":5.38734,"is_reserved":false,"is_disabled":false,"rental_uris":{"android":"levelo://app?vid=13c694b9-aa69-40dd-8e72-34cc2e3789a3","ios":"levelo://app?vid=13c694b9-aa69-40dd-8e72-34cc2e3789a3"},"vehicle_type_id":"4","last_reported":1729249650,"current_range_meters":24400,"station_id":"ce4bhg12rcd13ifvqf80","pricing_plan_id":"cebpf4jnsgd1na2vs0mg"},{"bike_id":"4df9ba42-3018-479c-bd6d-d296f414f0ce","system_id":"levelo_inurba_marseille","lat":43.28157,"lon":5.42638,"is_reserved":false,"is_disabled":false,"rental_uris":{"android":"levelo://app?vid=4df9ba42-3018-479c-bd6d-d296f414f0ce","ios":"levelo://app?vid=4df9ba42-3018-479c-bd6d-d296f414f0ce"},"vehicle_type_id":"4","last_reported":1729249650,"current_range_meters":25200,"station_id":"ce4bhnh2rcd13ifvqgug","pricing_plan_id":"cebpf4jnsgd1na2vs0mg"},{"bike_id":"5dea50a4-1d92-4427-a32b-1890395130ff","system_id":"levelo_inurba_marseille","lat":43.2736,"lon":5.36239,"is_reserved":false,"is_disabled":false,"rental_uris":{"android":"levelo://app?vid=5dea50a4-1d92-4427-a32b-1890395130ff","ios":"levelo://app?vid=5dea50a4-1d92-4427-a32b-1890395130ff"},"vehicle_type_id":"4","last_reported":1729249650,"current_range_meters":37600,"station_id":"ce4bhbh2rcd13ifvqeo0","pricing_plan_id":"cebpf4jnsgd1na2vs0mg"},{"bike_id":"068b8794-0282-432d-942a-4cec4b35c8af","system_id":"levelo_inurba_marseille","lat":43.251145,"lon":5.403145,"is_reserved":false,"is_disabled":false,"rental_uris":{"android":"levelo://app?vid=068b8794-0282-432d-942a-4cec4b35c8af","ios":"levelo://app?vid=068b8794-0282-432d-942a-4cec4b35c8af"},"vehicle_type_id":"4","last_reported":1729249650,"current_range_meters":27200,"station_id":"ce4bhlh2rcd13ifvqgig","pricing_plan_id":"cebpf4jnsgd1na2vs0mg"},{"bike_id":"12eb7c25-2837-4428-9baf-9b5273dc9452","system_id":"levelo_inurba_marseille","lat":43.22932,"lon":5.35375,"is_reserved":false,"is_disabled":false,"rental_uris":{"android":"levelo://app?vid=12eb7c25-2837-4428-9baf-9b5273dc9452","ios":"levelo://app?vid=12eb7c25-2837-4428-9baf-9b5273dc9452"},"vehicle_type_id":"4","last_reported":1729249650,"current_range_meters":33600,"station_id":"cpo3532slgdg3j2ikp40","pricing_plan_id":"cebpf4jnsgd1na2vs0mg"},{"bike_id":"28bc7625-6c23-49c5-b0f5-3a8e653ebf7e","system_id":"levelo_inurba_marseille","lat":43.30434,"lon":5.38883,"is_reserved":false,"is_disabled":false,"rental_uris":{"android":"levelo://app?vid=28bc7625-6c23-49c5-b0f5-3a8e653ebf7e","ios":"levelo://app?vid=28bc7625-6c23-49c5-b0f5-3a8e653ebf7e"},"vehicle_type_id":"4","last_reported":1729249650,"current_range_meters":27200,"station_id":"ce4bgk12rcd13ifvqbi0","pricing_plan_id":"cebpf4jnsgd1na2vs0mg"},{"bike_id":"a2c08d1e-562f-495a-b4cc-b40635dbaa11","system_id":"levelo_inurba_marseille","lat":43.284546,"lon":5.349732,"is_reserved":false,"is_disabled":false,"rental_uris":{"android":"levelo://app?vid=a2c08d1e-562f-495a-b4cc-b40635dbaa11","ios":"levelo://app?vid=a2c08d1e-562f-495a-b4cc-b40635dbaa11"},"vehicle_type_id":"4","last_reported":1729249650,"current_range_meters":20400,"station_id":"ce4bhbh2rcd13ifvqepg","pricing_plan_id":"cebpf4jnsgd1na2vs0mg"},{"bike_id":"4b17fddc-619e-4497-95dd-12b91287d3cf","system_id":"levelo_inurba_marseille","lat":43.29418,"lon":5.38618,"is_reserved":false,"is_disabled":false,"rental_uris":{"android":"levelo://app?vid=4b17fddc-619e-4497-95dd-12b91287d3cf","ios":"levelo://app?vid=4b17fddc-619e-4497-95dd-12b91287d3cf"},"vehicle_type_id":"4","last_reported":1729249650,"current_range_meters":24400,"station_id":"ce4bh4p2rcd13ifvqe1g","pricing_plan_id":"cebpf4jnsgd1na2vs0mg"},{"bike_id":"a0d1f48f-4d8d-4385-8400-04795ef1f250","system_id":"levelo_inurba_marseille","lat":43.26559,"lon":5.37285,"is_reserved":false,"is_disabled":false,"rental_uris":{"android":"levelo://app?vid=a0d1f48f-4d8d-4385-8400-04795ef1f250","ios":"levelo://app?vid=a0d1f48f-4d8d-4385-8400-04795ef1f250"},"vehicle_type_id":"4","last_reported":1729249650,"current_range_meters":38800,"station_id":"ce4bhg12rcd13ifvqf70","pricing_plan_id":"cebpf4jnsgd1na2vs0mg"},{"bike_id":"915d8fda-eaef-4a60-9d36-992c88c1e042","system_id":"levelo_inurba_marseille","lat":43.25004,"lon":5.38926,"is_reserved":false,"is_disabled":false,"rental_uris":{"android":"levelo://app?vid=915d8fda-eaef-4a60-9d36-992c88c1e042","ios":"levelo://app?vid=915d8fda-eaef-4a60-9d36-992c88c1e042"},"vehicle_type_id":"4","last_reported":1729249650,"current_range_meters":38800,"station_id":"ce4bhgp2rcd13ifvqfd0","pricing_plan_id":"cebpf4jnsgd1na2vs0mg"},{"bike_id":"5d714e3a-385f-4f14-b3bf-54335e3261e0","system_id":"levelo_inurba_marseille","lat":43.30548,"lon":5.36519,"is_reserved":false,"is_disabled":false,"rental_uris":{"android":"levelo://app?vid=5d714e3a-385f-4f14-b3bf-54335e3261e0","ios":"levelo://app?vid=5d714e3a-385f-4f14-b3bf-54335e3261e0"},"vehicle_type_id":"4","last_reported":1729249650,"current_range_meters":36800,"station_id":"ce4bgs12rcd13ifvqcag","pricing_plan_id":"cebpf4jnsgd1na2vs0mg"},{"bike_id":"a9295dde-ceb4-4ca6-940b-7dd28fc752be","system_id":"levelo_inurba_marseille","lat":43.32487,"lon":5.36548,"is_reserved":false,"is_disabled":false,"rental_uris":{"android":"levelo://app?vid=a9295dde-ceb4-4ca6-940b-7dd28fc752be","ios":"levelo://app?vid=a9295dde-ceb4-4ca6-940b-7dd28fc752be"},"vehicle_type_id":"4","last_reported":1729249650,"current_range_meters":23200,"station_id":"ce4bhs12rcd13ifvqhvg","pricing_plan_id":"cebpf4jnsgd1na2vs0mg"},{"bike_id":"9217c477-c508-4527-8d8d-f4b42982126a","system_id":"levelo_inurba_marseille","lat":43.2315,"lon":5.43701,"is_reserved":false,"is_disabled":false,"rental_uris":{"android":"levelo://app?vid=9217c477-c508-4527-8d8d-f4b42982126a","ios":"levelo://app?vid=9217c477-c508-4527-8d8d-f4b42982126a"},"vehicle_type_id":"4","last_reported":1729249650,"current_range_meters":8400,"station_id":"ce4bhmp2rcd13ifvqgog","pricing_plan_id":"cebpf4jnsgd1na2vs0mg"},{"bike_id":"6805634c-6374-41b6-b2d6-4225901e051c","system_id":"levelo_inurba_marseille","lat":43.25494,"lon":5.37648,"is_reserved":false,"is_disabled":false,"rental_uris":{"android":"levelo://app?vid=6805634c-6374-41b6-b2d6-4225901e051c","ios":"levelo://app?vid=6805634c-6374-41b6-b2d6-4225901e051c"},"vehicle_type_id":"4","last_reported":1729249650,"current_range_meters":19600,"station_id":"ce4bhh12rcd13ifvqff0","pricing_plan_id":"cebpf4jnsgd1na2vs0mg"},{"bike_id":"292b9425-1372-40d4-bf0a-fe57aa779a41","system_id":"levelo_inurba_marseille","lat":43.23058,"lon":5.35496,"is_reserved":false,"is_disabled":false,"rental_uris":{"android":"levelo://app?vid=292b9425-1372-40d4-bf0a-fe57aa779a41","ios":"levelo://app?vid=292b9425-1372-40d4-bf0a-fe57aa779a41"},"vehicle_type_id":"4","last_reported":1729249650,"current_range_meters":18000,"station_id":"cpo3342slgdg3j2ifvpg","pricing_plan_id":"cebpf4jnsgd1na2vs0mg"},{"bike_id":"3ed38786-470d-411a-80d4-a7d4d45bb2a0","system_id":"levelo_inurba_marseille","lat":43.26555,"lon":5.37285,"is_reserved":false,"is_disabled":false,"rental_uris":{"android":"levelo://app?vid=3ed38786-470d-411a-80d4-a7d4d45bb2a0","ios":"levelo://app?vid=3ed38786-470d-411a-80d4-a7d4d45bb2a0"},"vehicle_type_id":"4","last_reported":1729249650,"current_range_meters":34000,"station_id":"ce4bhg12rcd13ifvqf70","pricing_plan_id":"cebpf4jnsgd1na2vs0mg"},{"bike_id":"bbca995d-e97d-4772-8ab9-80dff7d90747","system_id":"levelo_inurba_marseille","lat":43.309377,"lon":5.40145,"is_reserved":false,"is_disabled":false,"rental_uris":{"android":"levelo://app?vid=bbca995d-e97d-4772-8ab9-80dff7d90747","ios":"levelo://app?vid=bbca995d-e97d-4772-8ab9-80dff7d90747"},"vehicle_type_id":"4","last_reported":1729249650,"current_range_meters":18000,"station_id":"ce4bgvp2rcd13ifvqct0","pricing_plan_id":"cebpf4jnsgd1na2vs0mg"},{"bike_id":"a5c9600e-0f0c-45f8-9425-80e04d71cbec","system_id":"levelo_inurba_marseille","lat":43.23145,"lon":5.43699,"is_reserved":false,"is_disabled":false,"rental_uris":{"android":"levelo://app?vid=a5c9600e-0f0c-45f8-9425-80e04d71cbec","ios":"levelo://app?vid=a5c9600e-0f0c-45f8-9425-80e04d71cbec"},"vehicle_type_id":"4","last_reported":1729249650,"current_range_meters":37600,"station_id":"ce4bhmp2rcd13ifvqgog","pricing_plan_id":"cebpf4jnsgd1na2vs0mg"},{"bike_id":"ce69f5a3-381f-4fe0-85a4-5e734388eafa","system_id":"levelo_inurba_marseille","lat":43.27812,"lon":5.40705,"is_reserved":false,"is_disabled":false,"rental_uris":{"android":"levelo://app?vid=ce69f5a3-381f-4fe0-85a4-5e734388eafa","ios":"levelo://app?vid=ce69f5a3-381f-4fe0-85a4-5e734388eafa"},"vehicle_type_id":"4","last_reported":1729249650,"current_range_meters":30400,"station_id":"ce4bhnh2rcd13ifvqgtg","pricing_plan_id":"cebpf4jnsgd1na2vs0mg"},{"bike_id":"3242b4ae-497d-41b4-9e53-f8b502151aa9","system_id":"levelo_inurba_marseille","lat":43.30131,"lon":5.37423,"is_reserved":false,"is_disabled":false,"rental_uris":{"android":"levelo://app?vid=3242b4ae-497d-41b4-9e53-f8b502151aa9","ios":"levelo://app?vid=3242b4ae-497d-41b4-9e53-f8b502151aa9"},"vehicle_type_id":"4","last_reported":1729249650,"current_range_meters":39200,"station_id":"ce4bgs92rcd13ifvqcc0","pricing_plan_id":"cebpf4jnsgd1na2vs0mg"},{"bike_id":"9f579b93-9579-4e74-ab28-c3e5da661f1d","system_id":"levelo_inurba_marseille","lat":43.29229,"lon":5.36065,"is_reserved":false,"is_disabled":false,"rental_uris":{"android":"levelo://app?vid=9f579b93-9579-4e74-ab28-c3e5da661f1d","ios":"levelo://app?vid=9f579b93-9579-4e74-ab28-c3e5da661f1d"},"vehicle_type_id":"4","last_reported":1729249650,"current_range_meters":38800,"station_id":"ce4bhbh2rcd13ifvqeqg","pricing_plan_id":"cebpf4jnsgd1na2vs0mg"},{"bike_id":"b930c546-2181-4082-b616-72daa0962436","system_id":"levelo_inurba_marseille","lat":43.23153,"lon":5.43706,"is_reserved":false,"is_disabled":false,"rental_uris":{"android":"levelo://app?vid=b930c546-2181-4082-b616-72daa0962436","ios":"levelo://app?vid=b930c546-2181-4082-b616-72daa0962436"},"vehicle_type_id":"4","last_reported":1729249650,"current_range_meters":8800,"station_id":"ce4bhmp2rcd13ifvqgog","pricing_plan_id":"cebpf4jnsgd1na2vs0mg"},{"bike_id":"9f78eb85-a0ca-4c34-a831-3353f945a5c8","system_id":"levelo_inurba_marseille","lat":43.23062,"lon":5.35488,"is_reserved":false,"is_disabled":false,"rental_uris":{"android":"levelo://app?vid=9f78eb85-a0ca-4c34-a831-3353f945a5c8","ios":"levelo://app?vid=9f78eb85-a0ca-4c34-a831-3353f945a5c8"},"vehicle_type_id":"4","last_reported":1729249650,"current_range_meters":32400,"station_id":"cpo3342slgdg3j2ifvpg","pricing_plan_id":"cebpf4jnsgd1na2vs0mg"},{"bike_id":"436f829e-cb80-4195-b8dc-b6b9c1cc2b8e","system_id":"levelo_inurba_marseille","lat":43.28718,"lon":5.3795,"is_reserved":false,"is_disabled":false,"rental_uris":{"android":"levelo://app?vid=436f829e-cb80-4195-b8dc-b6b9c1cc2b8e","ios":"levelo://app?vid=436f829e-cb80-4195-b8dc-b6b9c1cc2b8e"},"vehicle_type_id":"4","last_reported":1729249650,"current_range_meters":32400,"station_id":"ce4bh9p2rcd13ifvqec0","pricing_plan_id":"cebpf4jnsgd1na2vs0mg"},{"bike_id":"8b95870b-796a-4962-9150-cea28d6bc2d7","system_id":"levelo_inurba_marseille","lat":43.29263,"lon":5.3683,"is_reserved":false,"is_disabled":false,"rental_uris":{"android":"levelo://app?vid=8b95870b-796a-4962-9150-cea28d6bc2d7","ios":"levelo://app?vid=8b95870b-796a-4962-9150-cea28d6bc2d7"},"vehicle_type_id":"4","last_reported":1729249650,"current_range_meters":38800,"station_id":"ce4bhbp2rcd13ifvqesg","pricing_plan_id":"cebpf4jnsgd1na2vs0mg"},{"bike_id":"05aa312e-5877-4af5-b963-6c5cd1758428","system_id":"levelo_inurba_marseille","lat":43.2707,"lon":5.42273,"is_reserved":false,"is_disabled":false,"rental_uris":{"android":"levelo://app?vid=05aa312e-5877-4af5-b963-6c5cd1758428","ios":"levelo://app?vid=05aa312e-5877-4af5-b963-6c5cd1758428"},"vehicle_type_id":"4","last_reported":1729249650,"current_range_meters":24400,"station_id":"ce4bhk92rcd13ifvqgb0","pricing_plan_id":"cebpf4jnsgd1na2vs0mg"},{"bike_id":"79f68484-b5ed-4a06-9662-fdeb677e7ab9","system_id":"levelo_inurba_marseille","lat":43.28159,"lon":5.4265,"is_reserved":false,"is_disabled":false,"rental_uris":{"android":"levelo://app?vid=79f68484-b5ed-4a06-9662-fdeb677e7ab9","ios":"levelo://app?vid=79f68484-b5ed-4a06-9662-fdeb677e7ab9"},"vehicle_type_id":"4","last_reported":1729249650,"current_range_meters":23200,"station_id":"ce4bhnh2rcd13ifvqgug","pricing_plan_id":"cebpf4jnsgd1na2vs0mg"},{"bike_id":"e3ca7803-aaa7-4ddf-8937-86afb5d1cee8","system_id":"levelo_inurba_marseille","lat":43.3171,"lon":5.437,"is_reserved":false,"is_disabled":false,"rental_uris":{"android":"levelo://app?vid=e3ca7803-aaa7-4ddf-8937-86afb5d1cee8","ios":"levelo://app?vid=e3ca7803-aaa7-4ddf-8937-86afb5d1cee8"},"vehicle_type_id":"4","last_reported":1729249650,"current_range_meters":38800,"station_id":"ce4bhp92rcd13ifvqhcg","pricing_plan_id":"cebpf4jnsgd1na2vs0mg"},{"bike_id":"c3d341cb-b075-4a76-8ce6-a19c6a141e8c","system_id":"levelo_inurba_marseille","lat":43.23149,"lon":5.43719,"is_reserved":false,"is_disabled":false,"rental_uris":{"android":"levelo://app?vid=c3d341cb-b075-4a76-8ce6-a19c6a141e8c","ios":"levelo://app?vid=c3d341cb-b075-4a76-8ce6-a19c6a141e8c"},"vehicle_type_id":"4","last_reported":1729249650,"current_range_meters":38800,"station_id":"ce4bhmp2rcd13ifvqgog","pricing_plan_id":"cebpf4jnsgd1na2vs0mg"},{"bike_id":"bf3e6368-fc14-4ca7-88ad-b4c73454d93d","system_id":"levelo_inurba_marseille","lat":43.30595,"lon":5.39357,"is_reserved":false,"is_disabled":false,"rental_uris":{"android":"levelo://app?vid=bf3e6368-fc14-4ca7-88ad-b4c73454d93d","ios":"levelo://app?vid=bf3e6368-fc14-4ca7-88ad-b4c73454d93d"},"vehicle_type_id":"4","last_reported":1729249650,"current_range_meters":19600,"station_id":"ce4bh0p2rcd13ifvqd80","pricing_plan_id":"cebpf4jnsgd1na2vs0mg"},{"bike_id":"19389fe6-838b-410a-886d-e2d15f6134b7","system_id":"levelo_inurba_marseille","lat":43.27371,"lon":5.36261,"is_reserved":false,"is_disabled":false,"rental_uris":{"android":"levelo://app?vid=19389fe6-838b-410a-886d-e2d15f6134b7","ios":"levelo://app?vid=19389fe6-838b-410a-886d-e2d15f6134b7"},"vehicle_type_id":"4","last_reported":1729249650,"current_range_meters":11200,"station_id":"","pricing_plan_id":"cebpf4jnsgd1na2vs0mg"},{"bike_id":"3664398f-378f-46f2-bd12-30042ad8db9d","system_id":"levelo_inurba_marseille","lat":43.23185,"lon":5.39975,"is_reserved":false,"is_disabled":false,"rental_uris":{"android":"levelo://app?vid=3664398f-378f-46f2-bd12-30042ad8db9d","ios":"levelo://app?vid=3664398f-378f-46f2-bd12-30042ad8db9d"},"vehicle_type_id":"4","last_reported":1729249650,"current_range_meters":30000,"station_id":"ce4bhn12rcd13ifvqgqg","pricing_plan_id":"cebpf4jnsgd1na2vs0mg"},{"bike_id":"a9d80141-cb04-4f88-bcc5-9763572e3517","system_id":"levelo_inurba_marseille","lat":43.23194,"lon":5.35546,"is_reserved":false,"is_disabled":false,"rental_uris":{"android":"levelo://app?vid=a9d80141-cb04-4f88-bcc5-9763572e3517","ios":"levelo://app?vid=a9d80141-cb04-4f88-bcc5-9763572e3517"},"vehicle_type_id":"4","last_reported":1729249650,"current_range_meters":28400,"station_id":"ce4bhu92rcd13ifvqi70","pricing_plan_id":"cebpf4jnsgd1na2vs0mg"},{"bike_id":"3ab31a18-af13-40ac-ae62-308000937349","system_id":"levelo_inurba_marseille","lat":43.25493,"lon":5.37643,"is_reserved":false,"is_disabled":false,"rental_uris":{"android":"levelo://app?vid=3ab31a18-af13-40ac-ae62-308000937349","ios":"levelo://app?vid=3ab31a18-af13-40ac-ae62-308000937349"},"vehicle_type_id":"4","last_reported":1729249650,"current_range_meters":32800,"station_id":"ce4bhh12rcd13ifvqff0","pricing_plan_id":"cebpf4jnsgd1na2vs0mg"},{"bike_id":"25342841-4b61-4c91-bc87-adc2d22848c2","system_id":"levelo_inurba_marseille","lat":43.28272,"lon":5.35059,"is_reserved":false,"is_disabled":false,"rental_uris":{"android":"levelo://app?vid=25342841-4b61-4c91-bc87-adc2d22848c2","ios":"levelo://app?vid=25342841-4b61-4c91-bc87-adc2d22848c2"},"vehicle_type_id":"4","last_reported":1729249650,"current_range_meters":29600,"station_id":"ce4bhbp2rcd13ifvqerg","pricing_plan_id":"cebpf4jnsgd1na2vs0mg"},{"bike_id":"c1b5d10f-83ba-42f0-ad10-95bcb79a5977","system_id":"levelo_inurba_marseille","lat":43.30085,"lon":5.39079,"is_reserved":false,"is_disabled":false,"rental_uris":{"android":"levelo://app?vid=c1b5d10f-83ba-42f0-ad10-95bcb79a5977","ios":"levelo://app?vid=c1b5d10f-83ba-42f0-ad10-95bcb79a5977"},"vehicle_type_id":"4","last_reported":1729249650,"current_range_meters":38800,"station_id":"ce4bh192rcd13ifvqdb0","pricing_plan_id":"cebpf4jnsgd1na2vs0mg"},{"bike_id":"af52aa78-d0b5-4bff-b51e-229383967bb3","system_id":"levelo_inurba_marseille","lat":43.23151,"lon":5.43715,"is_reserved":false,"is_disabled":false,"rental_uris":{"android":"levelo://app?vid=af52aa78-d0b5-4bff-b51e-229383967bb3","ios":"levelo://app?vid=af52aa78-d0b5-4bff-b51e-229383967bb3"},"vehicle_type_id":"4","last_reported":1729249650,"current_range_meters":20000,"station_id":"ce4bhmp2rcd13ifvqgog","pricing_plan_id":"cebpf4jnsgd1na2vs0mg"},{"bike_id":"c798b80e-3ae2-4f8a-bbd5-2af5710d367d","system_id":"levelo_inurba_marseille","lat":43.28077,"lon":5.39659,"is_reserved":false,"is_disabled":false,"rental_uris":{"android":"levelo://app?vid=c798b80e-3ae2-4f8a-bbd5-2af5710d367d","ios":"levelo://app?vid=c798b80e-3ae2-4f8a-bbd5-2af5710d367d"},"vehicle_type_id":"4","last_reported":1729249650,"current_range_meters":18800,"station_id":"ce4bho12rcd13ifvqh2g","pricing_plan_id":"cebpf4jnsgd1na2vs0mg"},{"bike_id":"fd495570-0604-40fb-9f36-3e2dfe8010cf","system_id":"levelo_inurba_marseille","lat":43.25498,"lon":5.3765,"is_reserved":false,"is_disabled":false,"rental_uris":{"android":"levelo://app?vid=fd495570-0604-40fb-9f36-3e2dfe8010cf","ios":"levelo://app?vid=fd495570-0604-40fb-9f36-3e2dfe8010cf"},"vehicle_type_id":"4","last_reported":1729249650,"current_range_meters":39200,"station_id":"ce4bhh12rcd13ifvqff0","pricing_plan_id":"cebpf4jnsgd1na2vs0mg"},{"bike_id":"06a9598f-5eeb-4f27-b19e-e2bddaec9e67","system_id":"levelo_inurba_marseille","lat":43.30312,"lon":5.36904,"is_reserved":false,"is_disabled":false,"rental_uris":{"android":"levelo://app?vid=06a9598f-5eeb-4f27-b19e-e2bddaec9e67","ios":"levelo://app?vid=06a9598f-5eeb-4f27-b19e-e2bddaec9e67"},"vehicle_type_id":"4","last_reported":1729249650,"current_range_meters":29600,"station_id":"ce4bgqh2rcd13ifvqc5g","pricing_plan_id":"cebpf4jnsgd1na2vs0mg"},{"bike_id":"c9bf4f2f-c395-4348-a61a-af22ef7e335a","system_id":"levelo_inurba_marseille","lat":43.28618,"lon":5.35097,"is_reserved":false,"is_disabled":false,"rental_uris":{"android":"levelo://app?vid=c9bf4f2f-c395-4348-a61a-af22ef7e335a","ios":"levelo://app?vid=c9bf4f2f-c395-4348-a61a-af22ef7e335a"},"vehicle_type_id":"4","last_reported":1729249650,"current_range_meters":20000,"station_id":"ce4bhch2rcd13ifvqeug","pricing_plan_id":"cebpf4jnsgd1na2vs0mg"},{"bike_id":"f5bad1df-68a4-42a0-8ba4-f8bd0211eb2d","system_id":"levelo_inurba_marseille","lat":43.33724,"lon":5.39183,"is_reserved":false,"is_disabled":false,"rental_uris":{"android":"levelo://app?vid=f5bad1df-68a4-42a0-8ba4-f8bd0211eb2d","ios":"levelo://app?vid=f5bad1df-68a4-42a0-8ba4-f8bd0211eb2d"},"vehicle_type_id":"4","last_reported":1729249650,"current_range_meters":3600,"station_id":"ce4bhr92rcd13ifvqhsg","pricing_plan_id":"cebpf4jnsgd1na2vs0mg"},{"bike_id":"c3557c43-7fe7-4f0a-a460-8c34ad64fc17","system_id":"levelo_inurba_marseille","lat":43.32798,"lon":5.41017,"is_reserved":false,"is_disabled":false,"rental_uris":{"android":"levelo://app?vid=c3557c43-7fe7-4f0a-a460-8c34ad64fc17","ios":"levelo://app?vid=c3557c43-7fe7-4f0a-a460-8c34ad64fc17"},"vehicle_type_id":"4","last_reported":1729249650,"current_range_meters":16000,"station_id":"","pricing_plan_id":"cebpf4jnsgd1na2vs0mg"},{"bike_id":"d41309ab-1a1f-4395-acaa-455483c3f8e1","system_id":"levelo_inurba_marseille","lat":43.2319,"lon":5.35553,"is_reserved":false,"is_disabled":false,"rental_uris":{"android":"levelo://app?vid=d41309ab-1a1f-4395-acaa-455483c3f8e1","ios":"levelo://app?vid=d41309ab-1a1f-4395-acaa-455483c3f8e1"},"vehicle_type_id":"4","last_reported":1729249650,"current_range_meters":31200,"station_id":"ce4bhu92rcd13ifvqi70","pricing_plan_id":"cebpf4jnsgd1na2vs0mg"},{"bike_id":"1d581705-0cae-4f83-9663-a88f9c85eaf4","system_id":"levelo_inurba_marseille","lat":43.29231,"lon":5.36058,"is_reserved":false,"is_disabled":false,"rental_uris":{"android":"levelo://app?vid=1d581705-0cae-4f83-9663-a88f9c85eaf4","ios":"levelo://app?vid=1d581705-0cae-4f83-9663-a88f9c85eaf4"},"vehicle_type_id":"4","last_reported":1729249650,"current_range_meters":36800,"station_id":"ce4bhbh2rcd13ifvqeqg","pricing_plan_id":"cebpf4jnsgd1na2vs0mg"},{"bike_id":"b5aff8d7-ba3a-4f86-93cd-a66ab415c01a","system_id":"levelo_inurba_marseille","lat":43.31696,"lon":5.40472,"is_reserved":false,"is_disabled":false,"rental_uris":{"android":"levelo://app?vid=b5aff8d7-ba3a-4f86-93cd-a66ab415c01a","ios":"levelo://app?vid=b5aff8d7-ba3a-4f86-93cd-a66ab415c01a"},"vehicle_type_id":"4","last_reported":1729249650,"current_range_meters":37600,"station_id":"ce4bh012rcd13ifvqd00","pricing_plan_id":"cebpf4jnsgd1na2vs0mg"},{"bike_id":"53fb3b62-236a-4b16-b3ae-3e015b7cfbdd","system_id":"levelo_inurba_marseille","lat":43.30461,"lon":5.37911,"is_reserved":false,"is_disabled":false,"rental_uris":{"android":"levelo://app?vid=53fb3b62-236a-4b16-b3ae-3e015b7cfbdd","ios":"levelo://app?vid=53fb3b62-236a-4b16-b3ae-3e015b7cfbdd"},"vehicle_type_id":"4","last_reported":1729249650,"current_range_meters":24000,"station_id":"ce4bgup2rcd13ifvqcn0","pricing_plan_id":"cebpf4jnsgd1na2vs0mg"},{"bike_id":"f953e4c9-0ee0-4602-b712-970c5519159e","system_id":"levelo_inurba_marseille","lat":43.27304,"lon":5.39128,"is_reserved":false,"is_disabled":false,"rental_uris":{"android":"levelo://app?vid=f953e4c9-0ee0-4602-b712-970c5519159e","ios":"levelo://app?vid=f953e4c9-0ee0-4602-b712-970c5519159e"},"vehicle_type_id":"4","last_reported":1729249650,"current_range_meters":26800,"station_id":"ce4bhgp2rcd13ifvqfe0","pricing_plan_id":"cebpf4jnsgd1na2vs0mg"},{"bike_id":"34b33da9-cbb5-428b-84d8-cf962d47390a","system_id":"levelo_inurba_marseille","lat":43.29896,"lon":5.43668,"is_reserved":false,"is_disabled":false,"rental_uris":{"android":"levelo://app?vid=34b33da9-cbb5-428b-84d8-cf962d47390a","ios":"levelo://app?vid=34b33da9-cbb5-428b-84d8-cf962d47390a"},"vehicle_type_id":"4","last_reported":1729249650,"current_range_meters":13600,"station_id":"ce4bhpp2rcd13ifvqhfg","pricing_plan_id":"cebpf4jnsgd1na2vs0mg"},{"bike_id":"77ce44e9-c1ae-4068-800d-299c8cf59d8f","system_id":"levelo_inurba_marseille","lat":43.236851,"lon":5.437327,"is_reserved":false,"is_disabled":false,"rental_uris":{"android":"levelo://app?vid=77ce44e9-c1ae-4068-800d-299c8cf59d8f","ios":"levelo://app?vid=77ce44e9-c1ae-4068-800d-299c8cf59d8f"},"vehicle_type_id":"4","last_reported":1729249650,"current_range_meters":24000,"station_id":"ce4bhmp2rcd13ifvqgog","pricing_plan_id":"cebpf4jnsgd1na2vs0mg"},{"bike_id":"bb279de8-d61a-4ec0-a54a-784dc0880589","system_id":"levelo_inurba_marseille","lat":43.31219,"lon":5.36859,"is_reserved":false,"is_disabled":false,"rental_uris":{"android":"levelo://app?vid=bb279de8-d61a-4ec0-a54a-784dc0880589","ios":"levelo://app?vid=bb279de8-d61a-4ec0-a54a-784dc0880589"},"vehicle_type_id":"4","last_reported":1729249650,"current_range_meters":38800,"station_id":"ce4bgl92rcd13ifvqbq0","pricing_plan_id":"cebpf4jnsgd1na2vs0mg"},{"bike_id":"40c8fa2c-d6e9-40dd-a8db-147daeadb16c","system_id":"levelo_inurba_marseille","lat":43.29625,"lon":5.37166,"is_reserved":false,"is_disabled":false,"rental_uris":{"android":"levelo://app?vid=40c8fa2c-d6e9-40dd-a8db-147daeadb16c","ios":"levelo://app?vid=40c8fa2c-d6e9-40dd-a8db-147daeadb16c"},"vehicle_type_id":"4","last_reported":1729249650,"current_range_meters":35600,"station_id":"ce4bgnh2rcd13ifvqc0g","pricing_plan_id":"cebpf4jnsgd1na2vs0mg"},{"bike_id":"6268a5e4-2a1a-454f-bae8-b8643b76f337","system_id":"levelo_inurba_marseille","lat":43.30465,"lon":5.37902,"is_reserved":false,"is_disabled":false,"rental_uris":{"android":"levelo://app?vid=6268a5e4-2a1a-454f-bae8-b8643b76f337","ios":"levelo://app?vid=6268a5e4-2a1a-454f-bae8-b8643b76f337"},"vehicle_type_id":"4","last_reported":1729249650,"current_range_meters":28800,"station_id":"ce4bgup2rcd13ifvqcn0","pricing_plan_id":"cebpf4jnsgd1na2vs0mg"},{"bike_id":"b0a3ba2e-0340-4197-9f07-f1dfc745f1c5","system_id":"levelo_inurba_marseille","lat":43.239647,"lon":5.366321,"is_reserved":false,"is_disabled":false,"rental_uris":{"android":"levelo://app?vid=b0a3ba2e-0340-4197-9f07-f1dfc745f1c5","ios":"levelo://app?vid=b0a3ba2e-0340-4197-9f07-f1dfc745f1c5"},"vehicle_type_id":"4","last_reported":1729249650,"current_range_meters":23200,"station_id":"ce4bhi12rcd13ifvqfp0","pricing_plan_id":"cebpf4jnsgd1na2vs0mg"},{"bike_id":"77d7377d-ef6f-44a6-91fa-808bf79a8c0e","system_id":"levelo_inurba_marseille","lat":43.30207,"lon":5.39456,"is_reserved":false,"is_disabled":false,"rental_uris":{"android":"levelo://app?vid=77d7377d-ef6f-44a6-91fa-808bf79a8c0e","ios":"levelo://app?vid=77d7377d-ef6f-44a6-91fa-808bf79a8c0e"},"vehicle_type_id":"4","last_reported":1729249650,"current_range_meters":28800,"station_id":"ce4bh0p2rcd13ifvqd70","pricing_plan_id":"cebpf4jnsgd1na2vs0mg"},{"bike_id":"a08e0b6c-2b85-4d6b-b0f5-a948fa4286de","system_id":"levelo_inurba_marseille","lat":43.23153,"lon":5.43704,"is_reserved":false,"is_disabled":false,"rental_uris":{"android":"levelo://app?vid=a08e0b6c-2b85-4d6b-b0f5-a948fa4286de","ios":"levelo://app?vid=a08e0b6c-2b85-4d6b-b0f5-a948fa4286de"},"vehicle_type_id":"4","last_reported":1729249650,"current_range_meters":7200,"station_id":"ce4bhmp2rcd13ifvqgog","pricing_plan_id":"cebpf4jnsgd1na2vs0mg"},{"bike_id":"04e61d15-d72b-4bbb-a45b-3cd677c5756c","system_id":"levelo_inurba_marseille","lat":43.25004,"lon":5.38937,"is_reserved":false,"is_disabled":false,"rental_uris":{"android":"levelo://app?vid=04e61d15-d72b-4bbb-a45b-3cd677c5756c","ios":"levelo://app?vid=04e61d15-d72b-4bbb-a45b-3cd677c5756c"},"vehicle_type_id":"4","last_reported":1729249650,"current_range_meters":22400,"station_id":"ce4bhgp2rcd13ifvqfd0","pricing_plan_id":"cebpf4jnsgd1na2vs0mg"},{"bike_id":"f93454e1-a669-4c63-a4ca-b572042c7971","system_id":"levelo_inurba_marseille","lat":43.23194,"lon":5.35554,"is_reserved":false,"is_disabled":false,"rental_uris":{"android":"levelo://app?vid=f93454e1-a669-4c63-a4ca-b572042c7971","ios":"levelo://app?vid=f93454e1-a669-4c63-a4ca-b572042c7971"},"vehicle_type_id":"4","last_reported":1729249650,"current_range_meters":8800,"station_id":"ce4bhu92rcd13ifvqi70","pricing_plan_id":"cebpf4jnsgd1na2vs0mg"},{"bike_id":"9feebf6a-cf06-4283-9475-cface9a88761","system_id":"levelo_inurba_marseille","lat":43.308,"lon":5.43516,"is_reserved":false,"is_disabled":false,"rental_uris":{"android":"levelo://app?vid=9feebf6a-cf06-4283-9475-cface9a88761","ios":"levelo://app?vid=9feebf6a-cf06-4283-9475-cface9a88761"},"vehicle_type_id":"4","last_reported":1729249650,"current_range_meters":33600,"station_id":"ce4bhph2rcd13ifvqheg","pricing_plan_id":"cebpf4jnsgd1na2vs0mg"},{"bike_id":"b1e38fa3-bc04-46dc-9334-d58520cc8bec","system_id":"levelo_inurba_marseille","lat":43.25493,"lon":5.37639,"is_reserved":false,"is_disabled":false,"rental_uris":{"android":"levelo://app?vid=b1e38fa3-bc04-46dc-9334-d58520cc8bec","ios":"levelo://app?vid=b1e38fa3-bc04-46dc-9334-d58520cc8bec"},"vehicle_type_id":"4","last_reported":1729249650,"current_range_meters":32400,"station_id":"","pricing_plan_id":"cebpf4jnsgd1na2vs0mg"},{"bike_id":"22b37876-70ac-4ba0-9001-79de88a5c4f9","system_id":"levelo_inurba_marseille","lat":43.33763,"lon":5.37432,"is_reserved":false,"is_disabled":false,"rental_uris":{"android":"levelo://app?vid=22b37876-70ac-4ba0-9001-79de88a5c4f9","ios":"levelo://app?vid=22b37876-70ac-4ba0-9001-79de88a5c4f9"},"vehicle_type_id":"4","last_reported":1729249650,"current_range_meters":35600,"station_id":"","pricing_plan_id":"cebpf4jnsgd1na2vs0mg"},{"bike_id":"6d5fbda5-dd8a-49d7-8a44-0c07b2fc8fc4","system_id":"levelo_inurba_marseille","lat":43.29834,"lon":5.36255,"is_reserved":false,"is_disabled":false,"rental_uris":{"android":"levelo://app?vid=6d5fbda5-dd8a-49d7-8a44-0c07b2fc8fc4","ios":"levelo://app?vid=6d5fbda5-dd8a-49d7-8a44-0c07b2fc8fc4"},"vehicle_type_id":"4","last_reported":1729249650,"current_range_meters":35600,"station_id":"ce4bgpp2rcd13ifvqc3g","pricing_plan_id":"cebpf4jnsgd1na2vs0mg"},{"bike_id":"c60f5dd2-715f-46fd-953d-c1d22173c26b","system_id":"levelo_inurba_marseille","lat":43.25581,"lon":5.38239,"is_reserved":false,"is_disabled":false,"rental_uris":{"android":"levelo://app?vid=c60f5dd2-715f-46fd-953d-c1d22173c26b","ios":"levelo://app?vid=c60f5dd2-715f-46fd-953d-c1d22173c26b"},"vehicle_type_id":"4","last_reported":1729249650,"current_range_meters":37600,"station_id":"ce4bhih2rcd13ifvqfs0","pricing_plan_id":"cebpf4jnsgd1na2vs0mg"},{"bike_id":"4edd6ae5-bc31-4204-b3fb-e7f2a1bf93a9","system_id":"levelo_inurba_marseille","lat":43.29278,"lon":5.40116,"is_reserved":false,"is_disabled":false,"rental_uris":{"android":"levelo://app?vid=4edd6ae5-bc31-4204-b3fb-e7f2a1bf93a9","ios":"levelo://app?vid=4edd6ae5-bc31-4204-b3fb-e7f2a1bf93a9"},"vehicle_type_id":"4","last_reported":1729249650,"current_range_meters":30000,"station_id":"ce4bh312rcd13ifvqdk0","pricing_plan_id":"cebpf4jnsgd1na2vs0mg"},{"bike_id":"85aaddb7-8132-47e1-8363-a156fb28c6e9","system_id":"levelo_inurba_marseille","lat":43.2963,"lon":5.37154,"is_reserved":false,"is_disabled":false,"rental_uris":{"android":"levelo://app?vid=85aaddb7-8132-47e1-8363-a156fb28c6e9","ios":"levelo://app?vid=85aaddb7-8132-47e1-8363-a156fb28c6e9"},"vehicle_type_id":"4","last_reported":1729249650,"current_range_meters":38800,"station_id":"ce4bgnh2rcd13ifvqc0g","pricing_plan_id":"cebpf4jnsgd1na2vs0mg"},{"bike_id":"b2698594-5069-4182-ac48-fd135ed5ca62","system_id":"levelo_inurba_marseille","lat":43.28451,"lon":5.39204,"is_reserved":false,"is_disabled":false,"rental_uris":{"android":"levelo://app?vid=b2698594-5069-4182-ac48-fd135ed5ca62","ios":"levelo://app?vid=b2698594-5069-4182-ac48-fd135ed5ca62"},"vehicle_type_id":"4","last_reported":1729249650,"current_range_meters":27200,"station_id":"ce4bhoh2rcd13ifvqh5g","pricing_plan_id":"cebpf4jnsgd1na2vs0mg"},{"bike_id":"8e5ef156-7f4e-4a30-a4e5-807883c9daee","system_id":"levelo_inurba_marseille","lat":43.30438,"lon":5.38876,"is_reserved":false,"is_disabled":false,"rental_uris":{"android":"levelo://app?vid=8e5ef156-7f4e-4a30-a4e5-807883c9daee","ios":"levelo://app?vid=8e5ef156-7f4e-4a30-a4e5-807883c9daee"},"vehicle_type_id":"4","last_reported":1729249650,"current_range_meters":21600,"station_id":"ce4bgk12rcd13ifvqbi0","pricing_plan_id":"cebpf4jnsgd1na2vs0mg"},{"bike_id":"73f4d2b5-de06-434f-8a5c-f0f86f7778e2","system_id":"levelo_inurba_marseille","lat":43.32367,"lon":5.38884,"is_reserved":false,"is_disabled":false,"rental_uris":{"android":"levelo://app?vid=73f4d2b5-de06-434f-8a5c-f0f86f7778e2","ios":"levelo://app?vid=73f4d2b5-de06-434f-8a5c-f0f86f7778e2"},"vehicle_type_id":"4","last_reported":1729249650,"current_range_meters":4800,"station_id":"ce4bhqp2rcd13ifvqhog","pricing_plan_id":"cebpf4jnsgd1na2vs0mg"},{"bike_id":"ac14cfa9-17a3-4490-8b14-29871e4e988a","system_id":"levelo_inurba_marseille","lat":43.31712,"lon":5.42385,"is_reserved":false,"is_disabled":false,"rental_uris":{"android":"levelo://app?vid=ac14cfa9-17a3-4490-8b14-29871e4e988a","ios":"levelo://app?vid=ac14cfa9-17a3-4490-8b14-29871e4e988a"},"vehicle_type_id":"4","last_reported":1729249650,"current_range_meters":33600,"station_id":"ce4bhp92rcd13ifvqhbg","pricing_plan_id":"cebpf4jnsgd1na2vs0mg"},{"bike_id":"0efb87e6-e6db-4887-8631-8d7539cd2cd9","system_id":"levelo_inurba_marseille","lat":43.26548,"lon":5.37274,"is_reserved":false,"is_disabled":false,"rental_uris":{"android":"levelo://app?vid=0efb87e6-e6db-4887-8631-8d7539cd2cd9","ios":"levelo://app?vid=0efb87e6-e6db-4887-8631-8d7539cd2cd9"},"vehicle_type_id":"4","last_reported":1729249650,"current_range_meters":32800,"station_id":"ce4bhg12rcd13ifvqf70","pricing_plan_id":"cebpf4jnsgd1na2vs0mg"},