{"last_updated":1716124019,"ttl":30,"version":"2.2","data":{"bikes":[{"bike_id":"1f4698c9-642f-4725-bc2a-bf02000088a4","system_id":"levelo_inurba_marseille","lat":43.31341,"lon":5.367098,"is_reserved":false,"is_disabled":false,"rental_uris":{"android":"levelo://app?vid=1f4698c9-642f-4725-bc2a-bf02000088a4","ios":"levelo://app?vid=1f4698c9-642f-4725-bc2a-bf02000088a4"},"vehicle_type_id":"4","last_reported":1716124019,"current_range_meters":24000,"station_id":"ce4bgr92rcd13ifvqc6g","pricing_plan_id":"cebpf4jnsgd1na2vs0mg"},{"bike_id":"63ba3871-db01-4a84-acda-f1346c7e0917","system_id":"levelo_inurba_marseille","lat":43.3122,"lon":5.36853,"is_reserved":false,"is_disabled":false,"rental_uris":{"android":"levelo://app?vid=63ba3871-db01-4a84-acda-f1346c7e0917","ios":"levelo://app?vid=63ba3871-db01-4a84-acda-f1346c7e0917"},"vehicle_type_id":"4","last_reported":1716124019,"current_range_meters":0,"station_id":"ce4bgl92rcd13ifvqbq0","pricing_plan_id":"cebpf4jnsgd1na2vs0mg"},{"bike_id":"061f9307-6eb3-4ae4-bd88-654582b7506e","system_id":"levelo_inurba_marseille","lat":43.312239,"lon":5.368562,"is_reserved":false,"is_disabled":false,"rental_uris":{"android":"levelo://app?vid=061f9307-6eb3-4ae4-bd88-654582b7506e","ios":"levelo://app?vid=061f9307-6eb3-4ae4-bd88-654582b7506e"},"vehicle_type_id":"4","last_reported":1716124019,"current_range_meters":7200,"station_id":"ce4bgl92rcd13ifvqbq0","pricing_plan_id":"cebpf4jnsgd1na2vs0mg"},{"bike_id":"afab2cc5-130e-4bbc-976b-ed8f91749591","system_id":"levelo_inurba_marseille","lat":43.308467,"lon":5.368403,"is_reserved":false,"is_disabled":false,"rental_uris":{"android":"levelo://app?vid=afab2cc5-130e-4bbc-976b-ed8f91749591","ios":"levelo://app?vid=afab2cc5-130e-4bbc-976b-ed8f91749591"},"vehicle_type_id":"4","last_reported":1716124019,"current_range_meters":15600,"station_id":"ce4bgn92rcd13ifvqbvg","pricing_plan_id":"cebpf4jnsgd1na2vs0mg"},{"bike_id":"bd5069e4-2069-4dac-830d-aed896eb52ae","system_id":"levelo_inurba_marseille","lat":43.314811,"lon":5.373103,"is_reserved":false,"is_disabled":false,"rental_uris":{"android":"levelo://app?vid=bd5069e4-2069-4dac-830d-aed896eb52ae","ios":"levelo://app?vid=bd5069e4-2069-4dac-830d-aed896eb52ae"},"vehicle_type_id":"4","last_reported":1716124019,"current_range_meters":3600,"station_id":"ce4bgt12rcd13ifvqcd0","pricing_plan_id":"cebpf4jnsgd1na2vs0mg"},{"bike_id":"afe1dc96-cdab-4ebc-a51b-ff3ef2f2f932","system_id":"levelo_inurba_marseille","lat":43.314811,"lon":5.373103,"is_reserved":false,"is_disabled":false,"rental_uris":{"android":"levelo://app?vid=afe1dc96-cdab-4ebc-a51b-ff3ef2f2f932","ios":"levelo://app?vid=afe1dc96-cdab-4ebc-a51b-ff3ef2f2f932"},"vehicle_type_id":"4","last_reported":1716124019,"current_range_meters":21600,"station_id":"ce4bgt12rcd13ifvqcd0","pricing_plan_id":"cebpf4jnsgd1na2vs0mg"},{"bike_id":"0c4178f6-5c23-4299-bdbf-ffd2b567bdf9","system_id":"levelo_inurba_marseille","lat":43.314811,"lon":5.373103,"is_reserved":false,"is_disabled":false,"rental_uris":{"android":"levelo://app?vid=0c4178f6-5c23-4299-bdbf-ffd2b567bdf9","ios":"levelo://app?vid=0c4178f6-5c23-4299-bdbf-ffd2b567bdf9"},"vehicle_type_id":"4","last_reported":1716124019,"current_range_meters":24800,"station_id":"ce4bgt12rcd13ifvqcd0","pricing_plan_id":"cebpf4jnsgd1na2vs0mg"},{"bike_id":"722bb741-43b9-46d8-ad2a-84208cea22f6","system_id":"levelo_inurba_marseille","lat":43.314811,"lon":5.373103,"is_reserved":false,"is_disabled":false,"rental_uris":{"android":"levelo://app?vid=722bb741-43b9-46d8-ad2a-84208cea22f6","ios":"levelo://app?vid=722bb741-43b9-46d8-ad2a-84208cea22f6"},"vehicle_type_id":"4","last_reported":1716124019,"current_range_meters":20000,"station_id":"ce4bgt12rcd13ifvqcd0","pricing_plan_id":"cebpf4jnsgd1na2vs0mg"},{"bike_id":"d35de61b-7502-42fc-b088-2a1967dfc33a","system_id":"levelo_inurba_marseille","lat":43.31492,"lon":5.37307,"is_reserved":false,"is_disabled":false,"rental_uris":{"android":"levelo://app?vid=d35de61b-7502-42fc-b088-2a1967dfc33a","ios":"levelo://app?vid=d35de61b-7502-42fc-b088-2a1967dfc33a"},"vehicle_type_id":"4","last_reported":1716124019,"current_range_meters":2800,"station_id":"ce4bgt12rcd13ifvqcd0","pricing_plan_id":"cebpf4jnsgd1na2vs0mg"},{"bike_id":"f128b6fd-7b22-4ebb-895f-c4601a655c6b","system_id":"levelo_inurba_marseille","lat":43.31495,"lon":5.37308,"is_reserved":false,"is_disabled":false,"rental_uris":{"android":"levelo://app?vid=f128b6fd-7b22-4ebb-895f-c4601a655c6b","ios":"levelo://app?vid=f128b6fd-7b22-4ebb-895f-c4601a655c6b"},"vehicle_type_id":"4","last_reported":1716124019,"current_range_meters":21600,"station_id":"ce4bgt12rcd13ifvqcd0","pricing_plan_id":"cebpf4jnsgd1na2vs0mg"},{"bike_id":"d170ba0d-45e7-40fa-8c28-104d467b82d3","system_id":"levelo_inurba_marseille","lat":43.31672,"lon":5.3722,"is_reserved":false,"is_disabled":false,"rental_uris":{"android":"levelo://app?vid=d170ba0d-45e7-40fa-8c28-104d467b82d3","ios":"levelo://app?vid=d170ba0d-45e7-40fa-8c28-104d467b82d3"},"vehicle_type_id":"4","last_reported":1716124019,"current_range_meters":22400,"station_id":"","pricing_plan_id":"cebpf4jnsgd1na2vs0mg"},{"bike_id":"b5e037de-ca58-4465-bf0d-34700378b09a","system_id":"levelo_inurba_marseille","lat":43.305712,"lon":5.365641,"is_reserved":false,"is_disabled":false,"rental_uris":{"android":"levelo://app?vid=b5e037de-ca58-4465-bf0d-34700378b09a","ios":"levelo://app?vid=b5e037de-ca58-4465-bf0d-34700378b09a"},"vehicle_type_id":"4","last_reported":1716124019,"current_range_meters":31200,"station_id":"ce4bgs12rcd13ifvqcag","pricing_plan_id":"cebpf4jnsgd1na2vs0mg"},{"bike_id":"281fecd4-b987-49dd-b1fc-f11b3d38575c","system_id":"levelo_inurba_marseille","lat":43.305714,"lon":5.365633,"is_reserved":false,"is_disabled":false,"rental_uris":{"android":"levelo://app?vid=281fecd4-b987-49dd-b1fc-f11b3d38575c","ios":"levelo://app?vid=281fecd4-b987-49dd-b1fc-f11b3d38575c"},"vehicle_type_id":"4","last_reported":1716124019,"current_range_meters":24400,"station_id":"ce4bgs12rcd13ifvqcag","pricing_plan_id":"cebpf4jnsgd1na2vs0mg"},{"bike_id":"a24cf7f5-25b4-43f1-803f-3a8d5a58e544","system_id":"levelo_inurba_marseille","lat":43.305712,"lon":5.365641,"is_reserved":false,"is_disabled":false,"rental_uris":{"android":"levelo://app?vid=a24cf7f5-25b4-43f1-803f-3a8d5a58e544","ios":"levelo://app?vid=a24cf7f5-25b4-43f1-803f-3a8d5a58e544"},"vehicle_type_id":"4","last_reported":1716124019,"current_range_meters":15200,"station_id":"ce4bgs12rcd13ifvqcag","pricing_plan_id":"cebpf4jnsgd1na2vs0mg"},{"bike_id":"aa9d3dfe-012a-424c-8e2c-8bd31df12c93","system_id":"levelo_inurba_marseille","lat":43.30526,"lon":5.3657,"is_reserved":false,"is_disabled":false,"rental_uris":{"android":"levelo://app?vid=aa9d3dfe-012a-424c-8e2c-8bd31df12c93","ios":"levelo://app?vid=aa9d3dfe-012a-424c-8e2c-8bd31df12c93"},"vehicle_type_id":"4","last_reported":1716124019,"current_range_meters":30800,"station_id":"","pricing_plan_id":"cebpf4jnsgd1na2vs0mg"},{"bike_id":"9aaed5a7-2bf8-4fc9-9e94-182ca7b069c9","system_id":"levelo_inurba_marseille","lat":43.305706,"lon":5.365654,"is_reserved":false,"is_disabled":false,"rental_uris":{"android":"levelo://app?vid=9aaed5a7-2bf8-4fc9-9e94-182ca7b069c9","ios":"levelo://app?vid=9aaed5a7-2bf8-4fc9-9e94-182ca7b069c9"},"vehicle_type_id":"4","last_reported":1716124019,"current_range_meters":800,"station_id":"ce4bgs12rcd13ifvqcag","pricing_plan_id":"cebpf4jnsgd1na2vs0mg"},{"bike_id":"902e1f56-edb8-4f2b-8897-364b28ebcd99","system_id":"levelo_inurba_marseille","lat":43.305706,"lon":5.365654,"is_reserved":false,"is_disabled":false,"rental_uris":{"android":"levelo://app?vid=902e1f56-edb8-4f2b-8897-364b28ebcd99","ios":"levelo://app?vid=902e1f56-edb8-4f2b-8897-364b28ebcd99"},"vehicle_type_id":"4","last_reported":1716124019,"current_range_meters":30000,"station_id":"ce4bgs12rcd13ifvqcag","pricing_plan_id":"cebpf4jnsgd1na2vs0mg"},{"bike_id":"3c6973a1-d2cb-4068-9dda-24b4c50c535e","system_id":"levelo_inurba_marseille","lat":43.30788,"lon":5.3765,"is_reserved":false,"is_disabled":false,"rental_uris":{"android":"levelo://app?vid=3c6973a1-d2cb-4068-9dda-24b4c50c535e","ios":"levelo://app?vid=3c6973a1-d2cb-4068-9dda-24b4c50c535e"},"vehicle_type_id":"4","last_reported":1716124019,"current_range_meters":8000,"station_id":"ce4bgv92rcd13ifvqcq0","pricing_plan_id":"cebpf4jnsgd1na2vs0mg"},{"bike_id":"e9d0f482-bd90-4a65-a48a-2ebc232ba3b8","system_id":"levelo_inurba_marseille","lat":43.317075,"lon":5.377367,"is_reserved":false,"is_disabled":false,"rental_uris":{"android":"levelo://app?vid=e9d0f482-bd90-4a65-a48a-2ebc232ba3b8","ios":"levelo://app?vid=e9d0f482-bd90-4a65-a48a-2ebc232ba3b8"},"vehicle_type_id":"4","last_reported":1716124019,"current_range_meters":8400,"station_id":"ce4bgth2rcd13ifvqch0","pricing_plan_id":"cebpf4jnsgd1na2vs0mg"},{"bike_id":"d263f169-e18b-4f84-b5e0-4b4bcd4cd98a","system_id":"levelo_inurba_marseille","lat":43.317075,"lon":5.377367,"is_reserved":false,"is_disabled":false,"rental_uris":{"android":"levelo://app?vid=d263f169-e18b-4f84-b5e0-4b4bcd4cd98a","ios":"levelo://app?vid=d263f169-e18b-4f84-b5e0-4b4bcd4cd98a"},"vehicle_type_id":"4","last_reported":1716124019,"current_range_meters":0,"station_id":"ce4bgth2rcd13ifvqch0","pricing_plan_id":"cebpf4jnsgd1na2vs0mg"},{"bike_id":"9844f5ff-bf2a-4446-8a0b-8517d3dfc07d","system_id":"levelo_inurba_marseille","lat":43.303046,"lon":5.368981,"is_reserved":false,"is_disabled":false,"rental_uris":{"android":"levelo://app?vid=9844f5ff-bf2a-4446-8a0b-8517d3dfc07d","ios":"levelo://app?vid=9844f5ff-bf2a-4446-8a0b-8517d3dfc07d"},"vehicle_type_id":"4","last_reported":1716124019,"current_range_meters":5600,"station_id":"ce4bgqh2rcd13ifvqc5g","pricing_plan_id":"cebpf4jnsgd1na2vs0mg"},{"bike_id":"296bd490-31e5-46ce-aaa7-9aaecf8742bb","system_id":"levelo_inurba_marseille","lat":43.30304,"lon":5.368987,"is_reserved":false,"is_disabled":false,"rental_uris":{"android":"levelo://app?vid=296bd490-31e5-46ce-aaa7-9aaecf8742bb","ios":"levelo://app?vid=296bd490-31e5-46ce-aaa7-9aaecf8742bb"},"vehicle_type_id":"4","last_reported":1716124019,"current_range_meters":0,"station_id":"ce4bgqh2rcd13ifvqc5g","pricing_plan_id":"cebpf4jnsgd1na2vs0mg"},{"bike_id":"cdb1a98c-d412-4e3f-9565-acb168174e29","system_id":"levelo_inurba_marseille","lat":43.315293,"lon":5.380349,"is_reserved":false,"is_disabled":false,"rental_uris":{"android":"levelo://app?vid=cdb1a98c-d412-4e3f-9565-acb168174e29","ios":"levelo://app?vid=cdb1a98c-d412-4e3f-9565-acb168174e29"},"vehicle_type_id":"4","last_reported":1716124019,"current_range_meters":5600,"station_id":"ce4bhsp2rcd13ifvqi50","pricing_plan_id":"cebpf4jnsgd1na2vs0mg"},{"bike_id":"0209a4a3-1008-423f-a36b-bebf868bd2c0","system_id":"levelo_inurba_marseille","lat":43.308012,"lon":5.381511,"is_reserved":false,"is_disabled":false,"rental_uris":{"android":"levelo://app?vid=0209a4a3-1008-423f-a36b-bebf868bd2c0","ios":"levelo://app?vid=0209a4a3-1008-423f-a36b-bebf868bd2c0"},"vehicle_type_id":"4","last_reported":1716124019,"current_range_meters":2800,"station_id":"ce4bgt12rcd13ifvqce0","pricing_plan_id":"cebpf4jnsgd1na2vs0mg"},{"bike_id":"6ce15c61-22e9-4f3f-ae14-b9610c1a40d6","system_id":"levelo_inurba_marseille","lat":43.30462,"lon":5.37901,"is_reserved":false,"is_disabled":false,"rental_uris":{"android":"levelo://app?vid=6ce15c61-22e9-4f3f-ae14-b9610c1a40d6","ios":"levelo://app?vid=6ce15c61-22e9-4f3f-ae14-b9610c1a40d6"},"vehicle_type_id":"4","last_reported":1716124019,"current_range_meters":0,"station_id":"ce4bgup2rcd13ifvqcn0","pricing_plan_id":"cebpf4jnsgd1na2vs0mg"},{"bike_id":"00d698e7-ecfb-4c87-be33-308fed4d86e2","system_id":"levelo_inurba_marseille","lat":43.324771,"lon":5.36557,"is_reserved":false,"is_disabled":false,"rental_uris":{"android":"levelo://app?vid=00d698e7-ecfb-4c87-be33-308fed4d86e2","ios":"levelo://app?vid=00d698e7-ecfb-4c87-be33-308fed4d86e2"},"vehicle_type_id":"4","last_reported":1716124019,"current_range_meters":30800,"station_id":"ce4bhs12rcd13ifvqhvg","pricing_plan_id":"cebpf4jnsgd1na2vs0mg"},{"bike_id":"e4f64341-361f-41e8-840a-7c495fff1a91","system_id":"levelo_inurba_marseille","lat":43.324771,"lon":5.36557,"is_reserved":false,"is_disabled":false,"rental_uris":{"android":"levelo://app?vid=e4f64341-361f-41e8-840a-7c495fff1a91","ios":"levelo://app?vid=e4f64341-361f-41e8-840a-7c495fff1a91"},"vehicle_type_id":"4","last_reported":1716124019,"current_range_meters":14000,"station_id":"ce4bhs12rcd13ifvqhvg","pricing_plan_id":"cebpf4jnsgd1na2vs0mg"},{"bike_id":"c75ab610-ef1a-4c0d-aa72-03b02fb84993","system_id":"levelo_inurba_marseille","lat":43.32481,"lon":5.36564,"is_reserved":false,"is_disabled":false,"rental_uris":{"android":"levelo://app?vid=c75ab610-ef1a-4c0d-aa72-03b02fb84993","ios":"levelo://app?vid=c75ab610-ef1a-4c0d-aa72-03b02fb84993"},"vehicle_type_id":"4","last_reported":1716124019,"current_range_meters":29200,"station_id":"ce4bhs12rcd13ifvqhvg","pricing_plan_id":"cebpf4jnsgd1na2vs0mg"},{"bike_id":"e2c798d6-0783-401b-b632-e4a3e6db8597","system_id":"levelo_inurba_marseille","lat":43.324771,"lon":5.36557,"is_reserved":false,"is_disabled":false,"rental_uris":{"android":"levelo://app?vid=e2c798d6-0783-401b-b632-e4a3e6db8597","ios":"levelo://app?vid=e2c798d6-0783-401b-b632-e4a3e6db8597"},"vehicle_type_id":"4","last_reported":1716124019,"current_range_meters":26400,"station_id":"ce4bhs12rcd13ifvqhvg","pricing_plan_id":"cebpf4jnsgd1na2vs0mg"},{"bike_id":"40266c2b-4098-4692-93ab-aef7287c18ae","system_id":"levelo_inurba_marseille","lat":43.310804,"lon":5.38359,"is_reserved":false,"is_disabled":false,"rental_uris":{"android":"levelo://app?vid=40266c2b-4098-4692-93ab-aef7287c18ae","ios":"levelo://app?vid=40266c2b-4098-4692-93ab-aef7287c18ae"},"vehicle_type_id":"4","last_reported":1716124019,"current_range_meters":21200,"station_id":"ce4bgv92rcd13ifvqcr0","pricing_plan_id":"cebpf4jnsgd1na2vs0mg"},{"bike_id":"7b74aa25-1760-4dab-b160-8e5afb6ed2b4","system_id":"levelo_inurba_marseille","lat":43.301429,"lon":5.37413,"is_reserved":false,"is_disabled":false,"rental_uris":{"android":"levelo://app?vid=7b74aa25-1760-4dab-b160-8e5afb6ed2b4","ios":"levelo://app?vid=7b74aa25-1760-4dab-b160-8e5afb6ed2b4"},"vehicle_type_id":"4","last_reported":1716124019,"current_range_meters":15200,"station_id":"ce4bgs92rcd13ifvqcc0","pricing_plan_id":"cebpf4jnsgd1na2vs0mg"},{"bike_id":"3bd009a4-82e3-4728-b984-dbfb46a11ee4","system_id":"levelo_inurba_marseille","lat":43.319935,"lon":5.381699,"is_reserved":false,"is_disabled":false,"rental_uris":{"android":"levelo://app?vid=3bd009a4-82e3-4728-b984-dbfb46a11ee4","ios":"levelo://app?vid=3bd009a4-82e3-4728-b984-dbfb46a11ee4"},"vehicle_type_id":"4","last_reported":1716124019,"current_range_meters":30400,"station_id":"ce4bhr12rcd13ifvqhpg","pricing_plan_id":"cebpf4jnsgd1na2vs0mg"},{"bike_id":"9add5509-f510-454b-a00b-cfedac868c43","system_id":"levelo_inurba_marseille","lat":43.319935,"lon":5.381699,"is_reserved":false,"is_disabled":false,"rental_uris":{"android":"levelo://app?vid=9add5509-f510-454b-a00b-cfedac868c43","ios":"levelo://app?vid=9add5509-f510-454b-a00b-cfedac868c43"},"vehicle_type_id":"4","last_reported":1716124019,"current_range_meters":27600,"station_id":"ce4bhr12rcd13ifvqhpg","pricing_plan_id":"cebpf4jnsgd1na2vs0mg"},{"bike_id":"8f5c5c22-3194-4339-9a9a-5249b75cef31","system_id":"levelo_inurba_marseille","lat":43.319935,"lon":5.381699,"is_reserved":false,"is_disabled":false,"rental_uris":{"android":"levelo://app?vid=8f5c5c22-3194-4339-9a9a-5249b75cef31","ios":"levelo://app?vid=8f5c5c22-3194-4339-9a9a-5249b75cef31"},"vehicle_type_id":"4","last_reported":1716124019,"current_range_meters":27200,"station_id":"ce4bhr12rcd13ifvqhpg","pricing_plan_id":"cebpf4jnsgd1na2vs0mg"},{"bike_id":"f4084352-e8bf-4462-8167-6cbb5da9ffe4","system_id":"levelo_inurba_marseille","lat":43.319935,"lon":5.381699,"is_reserved":false,"is_disabled":false,"rental_uris":{"android":"levelo://app?vid=f4084352-e8bf-4462-8167-6cbb5da9ffe4","ios":"levelo://app?vid=f4084352-e8bf-4462-8167-6cbb5da9ffe4"},"vehicle_type_id":"4","last_reported":1716124019,"current_range_meters":1600,"station_id":"ce4bhr12rcd13ifvqhpg","pricing_plan_id":"cebpf4jnsgd1na2vs0mg"},{"bike_id":"70a32d8e-a20f-4949-bd39-ff113ec9e3e2","system_id":"levelo_inurba_marseille","lat":43.319935,"lon":5.381699,"is_reserved":false,"is_disabled":false,"rental_uris":{"android":"levelo://app?vid=70a32d8e-a20f-4949-bd39-ff113ec9e3e2","ios":"levelo://app?vid=70a32d8e-a20f-4949-bd39-ff113ec9e3e2"},"vehicle_type_id":"4","last_reported":1716124019,"current_range_meters":30800,"station_id":"ce4bhr12rcd13ifvqhpg","pricing_plan_id":"cebpf4jnsgd1na2vs0mg"},{"bike_id":"38a94c5c-a5a1-43b4-b480-575517bdab8b","system_id":"levelo_inurba_marseille","lat":43.319935,"lon":5.381699,"is_reserved":false,"is_disabled":false,"rental_uris":{"android":"levelo://app?vid=38a94c5c-a5a1-43b4-b480-575517bdab8b","ios":"levelo://app?vid=38a94c5c-a5a1-43b4-b480-575517bdab8b"},"vehicle_type_id":"4","last_reported":1716124019,"current_range_meters":19600,"station_id":"ce4bhr12rcd13ifvqhpg","pricing_plan_id":"cebpf4jnsgd1na2vs0mg"},{"bike_id":"3c423356-b094-45ea-a3b4-c2f9dff351ee","system_id":"levelo_inurba_marseille","lat":43.313571,"lon":5.384829,"is_reserved":false,"is_disabled":false,"rental_uris":{"android":"levelo://app?vid=3c423356-b094-45ea-a3b4-c2f9dff351ee","ios":"levelo://app?vid=3c423356-b094-45ea-a3b4-c2f9dff351ee"},"vehicle_type_id":"4","last_reported":1716124019,"current_range_meters":24400,"station_id":"ce4bgt92rcd13ifvqcf0","pricing_plan_id":"cebpf4jnsgd1na2vs0mg"},{"bike_id":"f704b525-ce20-4003-a92d-beba5a58a4de","system_id":"levelo_inurba_marseille","lat":43.313571,"lon":5.384829,"is_reserved":false,"is_disabled":false,"rental_uris":{"android":"levelo://app?vid=f704b525-ce20-4003-a92d-beba5a58a4de","ios":"levelo://app?vid=f704b525-ce20-4003-a92d-beba5a58a4de"},"vehicle_type_id":"4","last_reported":1716124019,"current_range_meters":14400,"station_id":"ce4bgt92rcd13ifvqcf0","pricing_plan_id":"cebpf4jnsgd1na2vs0mg"},{"bike_id":"8a207ec3-16bf-4d9e-8e76-507b297b4d0b","system_id":"levelo_inurba_marseille","lat":43.299222,"lon":5.365554,"is_reserved":false,"is_disabled":false,"rental_uris":{"android":"levelo://app?vid=8a207ec3-16bf-4d9e-8e76-507b297b4d0b","ios":"levelo://app?vid=8a207ec3-16bf-4d9e-8e76-507b297b4d0b"},"vehicle_type_id":"4","last_reported":1716124019,"current_range_meters":0,"station_id":"ce4bgm92rcd13ifvqbr0","pricing_plan_id":"cebpf4jnsgd1na2vs0mg"},{"bike_id":"2afa8ff2-f50c-4719-9e97-3c480fdefb75","system_id":"levelo_inurba_marseille","lat":43.29853,"lon":5.36286,"is_reserved":false,"is_disabled":false,"rental_uris":{"android":"levelo://app?vid=2afa8ff2-f50c-4719-9e97-3c480fdefb75","ios":"levelo://app?vid=2afa8ff2-f50c-4719-9e97-3c480fdefb75"},"vehicle_type_id":"4","last_reported":1716124019,"current_range_meters":0,"station_id":"ce4bgpp2rcd13ifvqc3g","pricing_plan_id":"cebpf4jnsgd1na2vs0mg"},{"bike_id":"dc8b35c9-c033-4f66-b15c-9e0370a84ded","system_id":"levelo_inurba_marseille","lat":43.30258,"lon":5.38136,"is_reserved":false,"is_disabled":false,"rental_uris":{"android":"levelo://app?vid=dc8b35c9-c033-4f66-b15c-9e0370a84ded","ios":"levelo://app?vid=dc8b35c9-c033-4f66-b15c-9e0370a84ded"},"vehicle_type_id":"4","last_reported":1716124019,"current_range_meters":17200,"station_id":"","pricing_plan_id":"cebpf4jnsgd1na2vs0mg"},{"bike_id":"68ef3adb-bb26-4f12-9a91-da1eb17addfc","system_id":"levelo_inurba_marseille","lat":43.302592,"lon":5.38138,"is_reserved":false,"is_disabled":false,"rental_uris":{"android":"levelo://app?vid=68ef3adb-bb26-4f12-9a91-da1eb17addfc","ios":"levelo://app?vid=68ef3adb-bb26-4f12-9a91-da1eb17addfc"},"vehicle_type_id":"4","last_reported":1716124019,"current_range_meters":8800,"station_id":"","pricing_plan_id":"cebpf4jnsgd1na2vs0mg"},{"bike_id":"781e6637-fe4f-4a41-97ed-df9d5f57d354","system_id":"levelo_inurba_marseille","lat":43.30258,"lon":5.38137,"is_reserved":false,"is_disabled":false,"rental_uris":{"android":"levelo://app?vid=781e6637-fe4f-4a41-97ed-df9d5f57d354","ios":"levelo://app?vid=781e6637-fe4f-4a41-97ed-df9d5f57d354"},"vehicle_type_id":"4","last_reported":1716124019,"current_range_meters":18000,"station_id":"","pricing_plan_id":"cebpf4jnsgd1na2vs0mg"},{"bike_id":"3e08a4f9-95bf-4361-a550-ffbb09a1d5a5","system_id":"levelo_inurba_marseille","lat":43.311827,"lon":5.387063,"is_reserved":false,"is_disabled":false,"rental_uris":{"android":"levelo://app?vid=3e08a4f9-95bf-4361-a550-ffbb09a1d5a5","ios":"levelo://app?vid=3e08a4f9-95bf-4361-a550-ffbb09a1d5a5"},"vehicle_type_id":"4","last_reported":1716124019,"current_range_meters":0,"station_id":"ce4bgv12rcd13ifvqcp0","pricing_plan_id":"cebpf4jnsgd1na2vs0mg"},{"bike_id":"61d56cdb-cd6b-4b3a-8534-d61dd7fc9a8f","system_id":"levelo_inurba_marseille","lat":43.30252,"lon":5.38158,"is_reserved":false,"is_disabled":false,"rental_uris":{"android":"levelo://app?vid=61d56cdb-cd6b-4b3a-8534-d61dd7fc9a8f","ios":"levelo://app?vid=61d56cdb-cd6b-4b3a-8534-d61dd7fc9a8f"},"vehicle_type_id":"4","last_reported":1716124019,"current_range_meters":4800,"station_id":"","pricing_plan_id":"cebpf4jnsgd1na2vs0mg"},{"bike_id":"606f8b43-6510-48b6-88b9-5dbbe1c44b2c","system_id":"levelo_inurba_marseille","lat":43.30218,"lon":5.38162,"is_reserved":false,"is_disabled":false,"rental_uris":{"android":"levelo://app?vid=606f8b43-6510-48b6-88b9-5dbbe1c44b2c","ios":"levelo://app?vid=606f8b43-6510-48b6-88b9-5dbbe1c44b2c"},"vehicle_type_id":"4","last_reported":1716124019,"current_range_meters":17200,"station_id":"","pricing_plan_id":"cebpf4jnsgd1na2vs0mg"},{"bike_id":"a78c0371-18a7-4609-8a16-1a99a180568a","system_id":"levelo_inurba_marseille","lat":43.29787,"lon":5.37097,"is_reserved":false,"is_disabled":false,"rental_uris":{"android":"levelo://app?vid=a78c0371-18a7-4609-8a16-1a99a180568a","ios":"levelo://app?vid=a78c0371-18a7-4609-8a16-1a99a180568a"},"vehicle_type_id":"4","last_reported":1716124019,"current_range_meters":29600,"station_id":"ce4bgop2rcd13ifvqc1g","pricing_plan_id":"cebpf4jnsgd1na2vs0mg"},{"bike_id":"49bcf57f-cc4c-43f2-ba0f-303de55d40dc","system_id":"levelo_inurba_marseille","lat":43.322854,"lon":5.382579,"is_reserved":false,"is_disabled":false,"rental_uris":{"android":"levelo://app?vid=49bcf57f-cc4c-43f2-ba0f-303de55d40dc","ios":"levelo://app?vid=49bcf57f-cc4c-43f2-ba0f-303de55d40dc"},"vehicle_type_id":"4","last_reported":1716124019,"current_range_meters":11600,"station_id":"ce4bhr12rcd13ifvqhqg","pricing_plan_id":"cebpf4jnsgd1na2vs0mg"},{"bike_id":"b22379ec-8777-4dcd-8c0e-9642bdad8cfd","system_id":"levelo_inurba_marseille","lat":43.297774,"lon":5.370875,"is_reserved":false,"is_disabled":false,"rental_uris":{"android":"levelo://app?vid=b22379ec-8777-4dcd-8c0e-9642bdad8cfd","ios":"levelo://app?vid=b22379ec-8777-4dcd-8c0e-9642bdad8cfd"},"vehicle_type_id":"4","last_reported":1716124019,"current_range_meters":30400,"station_id":"ce4bgop2rcd13ifvqc1g","pricing_plan_id":"cebpf4jnsgd1na2vs0mg"},{"bike_id":"9ea84c07-2433-41de-b2ab-0e0cc2368335","system_id":"levelo_inurba_marseille","lat":43.322872,"lon":5.382756,"is_reserved":false,"is_disabled":false,"rental_uris":{"android":"levelo://app?vid=9ea84c07-2433-41de-b2ab-0e0cc2368335","ios":"levelo://app?vid=9ea84c07-2433-41de-b2ab-0e0cc2368335"},"vehicle_type_id":"4","last_reported":1716124019,"current_range_meters":26000,"station_id":"ce4bhr12rcd13ifvqhqg","pricing_plan_id":"cebpf4jnsgd1na2vs0mg"},{"bike_id":"a0832526-408d-4d81-b3fd-c55242f8a03a","system_id":"levelo_inurba_marseille","lat":43.322872,"lon":5.382756,"is_reserved":false,"is_disabled":false,"rental_uris":{"android":"levelo://app?vid=a0832526-408d-4d81-b3fd-c55242f8a03a","ios":"levelo://app?vid=a0832526-408d-4d81-b3fd-c55242f8a03a"},"vehicle_type_id":"4","last_reported":1716124019,"current_range_meters":23200,"station_id":"ce4bhr12rcd13ifvqhqg","pricing_plan_id":"cebpf4jnsgd1na2vs0mg"},{"bike_id":"f9b21518-354d-493a-b0c6-3b22079d4f52","system_id":"levelo_inurba_marseille","lat":43.322872,"lon":5.382756,"is_reserved":false,"is_disabled":false,"rental_uris":{"android":"levelo://app?vid=f9b21518-354d-493a-b0c6-3b22079d4f52","ios":"levelo://app?vid=f9b21518-354d-493a-b0c6-3b22079d4f52"},"vehicle_type_id":"4","last_reported":1716124019,"current_range_meters":12800,"station_id":"ce4bhr12rcd13ifvqhqg","pricing_plan_id":"cebpf4jnsgd1na2vs0mg"},{"bike_id":"7f53dd92-127b-4b5e-b28d-ee5769e92317","system_id":"levelo_inurba_marseille","lat":43.322872,"lon":5.382756,"is_reserved":false,"is_disabled":false,"rental_uris":{"android":"levelo://app?vid=7f53dd92-127b-4b5e-b28d-ee5769e92317","ios":"levelo://app?vid=7f53dd92-127b-4b5e-b28d-ee5769e92317"},"vehicle_type_id":"4","last_reported":1716124019,"current_range_meters":26400,"station_id":"ce4bhr12rcd13ifvqhqg","pricing_plan_id":"cebpf4jnsgd1na2vs0mg"},{"bike_id":"a7f35a7d-2ccc-4417-aaac-83f8effdc9f8","system_id":"levelo_inurba_marseille","lat":43.322872,"lon":5.382756,"is_reserved":false,"is_disabled":false,"rental_uris":{"android":"levelo://app?vid=a7f35a7d-2ccc-4417-aaac-83f8effdc9f8","ios":"levelo://app?vid=a7f35a7d-2ccc-4417-aaac-83f8effdc9f8"},"vehicle_type_id":"4","last_reported":1716124019,"current_range_meters":3600,"station_id":"ce4bhr12rcd13ifvqhqg","pricing_plan_id":"cebpf4jnsgd1na2vs0mg"},{"bike_id":"9dbe7572-c7d5-498e-bd4f-7f756ac786d2","system_id":"levelo_inurba_marseille","lat":43.322872,"lon":5.382756,"is_reserved":false,"is_disabled":false,"rental_uris":{"android":"levelo://app?vid=9dbe7572-c7d5-498e-bd4f-7f756ac786d2","ios":"levelo://app?vid=9dbe7572-c7d5-498e-bd4f-7f756ac786d2"},"vehicle_type_id":"4","last_reported":1716124019,"current_range_meters":7600,"station_id":"ce4bhr12rcd13ifvqhqg","pricing_plan_id":"cebpf4jnsgd1na2vs0mg"},{"bike_id":"9385d173-06b2-4fde-8d3d-ba7b1bec39da","system_id":"levelo_inurba_marseille","lat":43.322836,"lon":5.382832,"is_reserved":false,"is_disabled":false,"rental_uris":{"android":"levelo://app?vid=9385d173-06b2-4fde-8d3d-ba7b1bec39da","ios":"levelo://app?vid=9385d173-06b2-4fde-8d3d-ba7b1bec39da"},"vehicle_type_id":"4","last_reported":1716124019,"current_range_meters":0,"station_id":"ce4bhr12rcd13ifvqhqg","pricing_plan_id":"cebpf4jnsgd1na2vs0mg"},{"bike_id":"da0458cc-f9b4-4911-8bb7-fabef2e72a80","system_id":"levelo_inurba_marseille","lat":43.305364,"lon":5.384119,"is_reserved":false,"is_disabled":false,"rental_uris":{"android":"levelo://app?vid=da0458cc-f9b4-4911-8bb7-fabef2e72a80","ios":"levelo://app?vid=da0458cc-f9b4-4911-8bb7-fabef2e72a80"},"vehicle_type_id":"4","last_reported":1716124019,"current_range_meters":14800,"station_id":"ce4bgg92rcd13ifvqb30","pricing_plan_id":"cebpf4jnsgd1na2vs0mg"},{"bike_id":"d17037fb-22cd-4ed2-93e5-2fd0ba39234b","system_id":"levelo_inurba_marseille","lat":43.296129,"lon":5.370777,"is_reserved":false,"is_disabled":false,"rental_uris":{"android":"levelo://app?vid=d17037fb-22cd-4ed2-93e5-2fd0ba39234b","ios":"levelo://app?vid=d17037fb-22cd-4ed2-93e5-2fd0ba39234b"},"vehicle_type_id":"4","last_reported":1716124019,"current_range_meters":3600,"station_id":"ce4bgnh2rcd13ifvqc0g","pricing_plan_id":"cebpf4jnsgd1na2vs0mg"},{"bike_id":"cab92b06-d19c-4b33-bf23-609a6b043b19","system_id":"levelo_inurba_marseille","lat":43.296129,"lon":5.370777,"is_reserved":false,"is_disabled":false,"rental_uris":{"android":"levelo://app?vid=cab92b06-d19c-4b33-bf23-609a6b043b19","ios":"levelo://app?vid=cab92b06-d19c-4b33-bf23-609a6b043b19"},"vehicle_type_id":"4","last_reported":1716124019,"current_range_meters":6400,"station_id":"ce4bgnh2rcd13ifvqc0g","pricing_plan_id":"cebpf4jnsgd1na2vs0mg"},{"bike_id":"c0b498e0-13a8-4048-9ad1-239a98ef44f9","system_id":"levelo_inurba_marseille","lat":43.298767,"lon":5.380027,"is_reserved":false,"is_disabled":false,"rental_uris":{"android":"levelo://app?vid=c0b498e0-13a8-4048-9ad1-239a98ef44f9","ios":"levelo://app?vid=c0b498e0-13a8-4048-9ad1-239a98ef44f9"},"vehicle_type_id":"4","last_reported":1716124019,"current_range_meters":14800,"station_id":"","pricing_plan_id":"cebpf4jnsgd1na2vs0mg"},{"bike_id":"1c59ef0c-3191-4759-ac8f-7b79f3b56891","system_id":"levelo_inurba_marseille","lat":43.296131,"lon":5.370773,"is_reserved":false,"is_disabled":false,"rental_uris":{"android":"levelo://app?vid=1c59ef0c-3191-4759-ac8f-7b79f3b56891","ios":"levelo://app?vid=1c59ef0c-3191-4759-ac8f-7b79f3b56891"},"vehicle_type_id":"4","last_reported":1716124019,"current_range_meters":3200,"station_id":"ce4bgnh2rcd13ifvqc0g","pricing_plan_id":"cebpf4jnsgd1na2vs0mg"},{"bike_id":"f368d2b4-15a8-4de5-91d8-3a1b00d446ce","system_id":"levelo_inurba_marseille","lat":43.30963,"lon":5.39021,"is_reserved":false,"is_disabled":false,"rental_uris":{"android":"levelo://app?vid=f368d2b4-15a8-4de5-91d8-3a1b00d446ce","ios":"levelo://app?vid=f368d2b4-15a8-4de5-91d8-3a1b00d446ce"},"vehicle_type_id":"4","last_reported":1716124019,"current_range_meters":31200,"station_id":"ce4bgup2rcd13ifvqco0","pricing_plan_id":"cebpf4jnsgd1na2vs0mg"},{"bike_id":"f4d2f944-5a4c-4297-a19f-9c68f360710d","system_id":"levelo_inurba_marseille","lat":43.29614,"lon":5.37391,"is_reserved":false,"is_disabled":false,"rental_uris":{"android":"levelo://app?vid=f4d2f944-5a4c-4297-a19f-9c68f360710d","ios":"levelo://app?vid=f4d2f944-5a4c-4297-a19f-9c68f360710d"},"vehicle_type_id":"4","last_reported":1716124019,"current_range_meters":0,"station_id":"","pricing_plan_id":"cebpf4jnsgd1na2vs0mg"},{"bike_id":"7f8d9d5d-cac9-442c-b80e-6960191be1fa","system_id":"levelo_inurba_marseille","lat":43.317557,"lon":5.390173,"is_reserved":false,"is_disabled":false,"rental_uris":{"android":"levelo://app?vid=7f8d9d5d-cac9-442c-b80e-6960191be1fa","ios":"levelo://app?vid=7f8d9d5d-cac9-442c-b80e-6960191be1fa"},"vehicle_type_id":"4","last_reported":1716124019,"current_range_meters":10000,"station_id":"ce4bhqp2rcd13ifvqhng","pricing_plan_id":"cebpf4jnsgd1na2vs0mg"},{"bike_id":"3c4dbb12-02bc-413f-b2a1-b6d5f607c804","system_id":"levelo_inurba_marseille","lat":43.295748,"lon":5.37522,"is_reserved":false,"is_disabled":false,"rental_uris":{"android":"levelo://app?vid=3c4dbb12-02bc-413f-b2a1-b6d5f607c804","ios":"levelo://app?vid=3c4dbb12-02bc-413f-b2a1-b6d5f607c804"},"vehicle_type_id":"4","last_reported":1716124019,"current_range_meters":10000,"station_id":"ce4bgh92rcd13ifvqb50","pricing_plan_id":"cebpf4jnsgd1na2vs0mg"},{"bike_id":"5cdfa8aa-6d2f-47b8-9a99-4134e86a355c","system_id":"levelo_inurba_marseille","lat":43.296263,"lon":5.377094,"is_reserved":false,"is_disabled":false,"rental_uris":{"android":"levelo://app?vid=5cdfa8aa-6d2f-47b8-9a99-4134e86a355c","ios":"levelo://app?vid=5cdfa8aa-6d2f-47b8-9a99-4134e86a355c"},"vehicle_type_id":"4","last_reported":1716124019,"current_range_meters":0,"station_id":"ce4bgi92rcd13ifvqb90","pricing_plan_id":"cebpf4jnsgd1na2vs0mg"},{"bike_id":"99e944f8-d7ba-4d75-9bd9-ff0ac04592ca","system_id":"levelo_inurba_marseille","lat":43.299717,"lon":5.384845,"is_reserved":false,"is_disabled":false,"rental_uris":{"android":"levelo://app?vid=99e944f8-d7ba-4d75-9bd9-ff0ac04592ca","ios":"levelo://app?vid=99e944f8-d7ba-4d75-9bd9-ff0ac04592ca"},"vehicle_type_id":"4","last_reported":1716124019,"current_range_meters":0,"station_id":"ce4bgj92rcd13ifvqbd0","pricing_plan_id":"cebpf4jnsgd1na2vs0mg"},{"bike_id":"139c5c91-dd8e-46c3-b26c-7e2207bda2bb","system_id":"levelo_inurba_marseille","lat":43.30089,"lon":5.38729,"is_reserved":false,"is_disabled":false,"rental_uris":{"android":"levelo://app?vid=139c5c91-dd8e-46c3-b26c-7e2207bda2bb","ios":"levelo://app?vid=139c5c91-dd8e-46c3-b26c-7e2207bda2bb"},"vehicle_type_id":"4","last_reported":1716124019,"current_range_meters":23600,"station_id":"","pricing_plan_id":"cebpf4jnsgd1na2vs0mg"},{"bike_id":"d5d2eea5-1adb-4a93-8baa-386795011fc2","system_id":"levelo_inurba_marseille","lat":43.325594,"lon":5.386439,"is_reserved":false,"is_disabled":false,"rental_uris":{"android":"levelo://app?vid=d5d2eea5-1adb-4a93-8baa-386795011fc2","ios":"levelo://app?vid=d5d2eea5-1adb-4a93-8baa-386795011fc2"},"vehicle_type_id":"4","last_reported":1716124019,"current_range_meters":0,"station_id":"","pricing_plan_id":"cebpf4jnsgd1na2vs0mg"},{"bike_id":"23af5e6d-c194-49c4-9d29-1cc1e10f4945","system_id":"levelo_inurba_marseille","lat":43.32367,"lon":5.388836,"is_reserved":false,"is_disabled":false,"rental_uris":{"android":"levelo://app?vid=23af5e6d-c194-49c4-9d29-1cc1e10f4945","ios":"levelo://app?vid=23af5e6d-c194-49c4-9d29-1cc1e10f4945"},"vehicle_type_id":"4","last_reported":1716124019,"current_range_meters":17600,"station_id":"ce4bhqp2rcd13ifvqhog","pricing_plan_id":"cebpf4jnsgd1na2vs0mg"},{"bike_id":"41be1559-97df-4703-a123-6f932fd83d47","system_id":"levelo_inurba_marseille","lat":43.32367,"lon":5.388836,"is_reserved":false,"is_disabled":false,"rental_uris":{"android":"levelo://app?vid=41be1559-97df-4703-a123-6f932fd83d47","ios":"levelo://app?vid=41be1559-97df-4703-a123-6f932fd83d47"},"vehicle_type_id":"4","last_reported":1716124019,"current_range_meters":25200,"station_id":"ce4bhqp2rcd13ifvqhog","pricing_plan_id":"cebpf4jnsgd1na2vs0mg"},{"bike_id":"a9bcf3fd-51b3-4feb-a63d-2dd5cc9d966c","system_id":"levelo_inurba_marseille","lat":43.32367,"lon":5.388836,"is_reserved":false,"is_disabled":false,"rental_uris":{"android":"levelo://app?vid=a9bcf3fd-51b3-4feb-a63d-2dd5cc9d966c","ios":"levelo://app?vid=a9bcf3fd-51b3-4feb-a63d-2dd5cc9d966c"},"vehicle_type_id":"4","last_reported":1716124019,"current_range_meters":17600,"station_id":"ce4bhqp2rcd13ifvqhog","pricing_plan_id":"cebpf4jnsgd1na2vs0mg"},{"bike_id":"d3c299a2-d6d5-4c33-aaf0-3b95dadee8b7","system_id":"levelo_inurba_marseille","lat":43.293259,"lon":5.371586,"is_reserved":false,"is_disabled":false,"rental_uris":{"android":"levelo://app?vid=d3c299a2-d6d5-4c33-aaf0-3b95dadee8b7","ios":"levelo://app?vid=d3c299a2-d6d5-4c33-aaf0-3b95dadee8b7"},"vehicle_type_id":"4","last_reported":1716124019,"current_range_meters":2400,"station_id":"ce4bgh92rcd13ifvqb40","pricing_plan_id":"cebpf4jnsgd1na2vs0mg"},{"bike_id":"0fed35f0-66a5-4aa4-b66e-1c38a87599f3","system_id":"levelo_inurba_marseille","lat":43.29279,"lon":5.36847,"is_reserved":false,"is_disabled":false,"rental_uris":{"android":"levelo://app?vid=0fed35f0-66a5-4aa4-b66e-1c38a87599f3","ios":"levelo://app?vid=0fed35f0-66a5-4aa4-b66e-1c38a87599f3"},"vehicle_type_id":"4","last_reported":1716124019,"current_range_meters":15200,"station_id":"ce4bhbp2rcd13ifvqesg","pricing_plan_id":"cebpf4jnsgd1na2vs0mg"},{"bike_id":"3c276f0c-4917-4c83-80e4-95a4f6295343","system_id":"levelo_inurba_marseille","lat":43.293259,"lon":5.371586,"is_reserved":false,"is_disabled":false,"rental_uris":{"android":"levelo://app?vid=3c276f0c-4917-4c83-80e4-95a4f6295343","ios":"levelo://app?vid=3c276f0c-4917-4c83-80e4-95a4f6295343"},"vehicle_type_id":"4","last_reported":1716124019,"current_range_meters":800,"station_id":"ce4bgh92rcd13ifvqb40","pricing_plan_id":"cebpf4jnsgd1na2vs0mg"},{"bike_id":"d5d58b10-fa5e-45db-bd63-2e366cd7e81a","system_id":"levelo_inurba_marseille","lat":43.293009,"lon":5.374584,"is_reserved":false,"is_disabled":false,"rental_uris":{"android":"levelo://app?vid=d5d58b10-fa5e-45db-bd63-2e366cd7e81a","ios":"levelo://app?vid=d5d58b10-fa5e-45db-bd63-2e366cd7e81a"},"vehicle_type_id":"4","last_reported":1716124019,"current_range_meters":15600,"station_id":"ce4bgi12rcd13ifvqb70","pricing_plan_id":"cebpf4jnsgd1na2vs0mg"},{"bike_id":"abd5d076-8cc1-4a2f-b21b-aa7787fadda6","system_id":"levelo_inurba_marseille","lat":43.305994,"lon":5.393687,"is_reserved":false,"is_disabled":false,"rental_uris":{"android":"levelo://app?vid=abd5d076-8cc1-4a2f-b21b-aa7787fadda6","ios":"levelo://app?vid=abd5d076-8cc1-4a2f-b21b-aa7787fadda6"},"vehicle_type_id":"4","last_reported":1716124019,"current_range_meters":1200,"station_id":"ce4bh0p2rcd13ifvqd80","pricing_plan_id":"cebpf4jnsgd1na2vs0mg"},{"bike_id":"aa2924a7-08c8-45cc-ab3e-d30c48e076db","system_id":"levelo_inurba_marseille","lat":43.293009,"lon":5.374584,"is_reserved":false,"is_disabled":false,"rental_uris":{"android":"levelo://app?vid=aa2924a7-08c8-45cc-ab3e-d30c48e076db","ios":"levelo://app?vid=aa2924a7-08c8-45cc-ab3e-d30c48e076db"},"vehicle_type_id":"4","last_reported":1716124019,"current_range_meters":14800,"station_id":"ce4bgi12rcd13ifvqb70","pricing_plan_id":"cebpf4jnsgd1na2vs0mg"},{"bike_id":"89a97010-6eec-4977-8f45-1cc29e93116a","system_id":"levelo_inurba_marseille","lat":43.29384,"lon":5.37851,"is_reserved":false,"is_disabled":false,"rental_uris":{"android":"levelo://app?vid=89a97010-6eec-4977-8f45-1cc29e93116a","ios":"levelo://app?vid=89a97010-6eec-4977-8f45-1cc29e93116a"},"vehicle_type_id":"4","last_reported":1716124019,"current_range_meters":0,"station_id":"ce4bgjh2rcd13ifvqbf0","pricing_plan_id":"cebpf4jnsgd1na2vs0mg"},{"bike_id":"9804fd67-0d06-4bbb-840f-b0f3f08591c1","system_id":"levelo_inurba_marseille","lat":43.292311,"lon":5.360731,"is_reserved":false,"is_disabled":false,"rental_uris":{"android":"levelo://app?vid=9804fd67-0d06-4bbb-840f-b0f3f08591c1","ios":"levelo://app?vid=9804fd67-0d06-4bbb-840f-b0f3f08591c1"},"vehicle_type_id":"4","last_reported":1716124019,"current_range_meters":15200,"station_id":"ce4bhbh2rcd13ifvqeqg","pricing_plan_id":"cebpf4jnsgd1na2vs0mg"},{"bike_id":"d81ea719-215e-4aa5-9bd0-fa6731aa4510","system_id":"levelo_inurba_marseille","lat":43.292311,"lon":5.360731,"is_reserved":false,"is_disabled":false,"rental_uris":{"android":"levelo://app?vid=d81ea719-215e-4aa5-9bd0-fa6731aa4510","ios":"levelo://app?vid=d81ea719-215e-4aa5-9bd0-fa6731aa4510"},"vehicle_type_id":"4","last_reported":1716124019,"current_range_meters":19200,"station_id":"ce4bhbh2rcd13ifvqeqg","pricing_plan_id":"cebpf4jnsgd1na2vs0mg"},{"bike_id":"e835b15b-cff9-45d5-9618-268c1fa34916","system_id":"levelo_inurba_marseille","lat":43.292311,"lon":5.360731,"is_reserved":false,"is_disabled":false,"rental_uris":{"android":"levelo://app?vid=e835b15b-cff9-45d5-9618-268c1fa34916","ios":"levelo://app?vid=e835b15b-cff9-45d5-9618-268c1fa34916"},"vehicle_type_id":"4","last_reported":1716124019,"current_range_meters":12800,"station_id":"ce4bhbh2rcd13ifvqeqg","pricing_plan_id":"cebpf4jnsgd1na2vs0mg"},{"bike_id":"720e0964-cc1f-4820-a6c4-5483081bc579","system_id":"levelo_inurba_marseille","lat":43.293009,"lon":5.374584,"is_reserved":false,"is_disabled":false,"rental_uris":{"android":"levelo://app?vid=720e0964-cc1f-4820-a6c4-5483081bc579","ios":"levelo://app?vid=720e0964-cc1f-4820-a6c4-5483081bc579"},"vehicle_type_id":"4","last_reported":1716124019,"current_range_meters":26000,"station_id":"ce4bgi12rcd13ifvqb70","pricing_plan_id":"cebpf4jnsgd1na2vs0mg"},{"bike_id":"1f3e7094-272b-4556-8d17-ae3505035d12","system_id":"levelo_inurba_marseille","lat":43.293009,"lon":5.374584,"is_reserved":false,"is_disabled":false,"rental_uris":{"android":"levelo://app?vid=1f3e7094-272b-4556-8d17-ae3505035d12","ios":"levelo://app?vid=1f3e7094-272b-4556-8d17-ae3505035d12"},"vehicle_type_id":"4","last_reported":1716124019,"current_range_meters":800,"station_id":"ce4bgi12rcd13ifvqb70","pricing_plan_id":"cebpf4jnsgd1na2vs0mg"},{"bike_id":"62a46d84-5954-4768-9dc7-6840988e9081","system_id":"levelo_inurba_marseille","lat":43.298764,"lon":5.388973,"is_reserved":false,"is_disabled":false,"rental_uris":{"android":"levelo://app?vid=62a46d84-5954-4768-9dc7-6840988e9081","ios":"levelo://app?vid=62a46d84-5954-4768-9dc7-6840988e9081"},"vehicle_type_id":"4","last_reported":1716124019,"current_range_meters":1200,"station_id":"ce4bh392rcd13ifvqdl0","pricing_plan_id":"cebpf4jnsgd1na2vs0mg"},{"bike_id":"8f8cf1b4-fb2b-48ad-bd9b-bc96ed83e264","system_id":"levelo_inurba_marseille","lat":43.291994,"lon":5.357886,"is_reserved":false,"is_disabled":false,"rental_uris":{"android":"levelo://app?vid=8f8cf1b4-fb2b-48ad-bd9b-bc96ed83e264","ios":"levelo://app?vid=8f8cf1b4-fb2b-48ad-bd9b-bc96ed83e264"},"vehicle_type_id":"4","last_reported":1716124019,"current_range_meters":4800,"station_id":"ce4bhb12rcd13ifvqel0","pricing_plan_id":"cebpf4jnsgd1na2vs0mg"},{"bike_id":"8ef4a0fd-b390-4121-af91-bf6b7cdea790","system_id":"levelo_inurba_marseille","lat":43.291994,"lon":5.357886,"is_reserved":false,"is_disabled":false,"rental_uris":{"android":"levelo://app?vid=8ef4a0fd-b390-4121-af91-bf6b7cdea790","ios":"levelo://app?vid=8ef4a0fd-b390-4121-af91-bf6b7cdea790"},"vehicle_type_id":"4","last_reported":1716124019,"current_range_meters":26800,"station_id":"ce4bhb12rcd13ifvqel0","pricing_plan_id":"cebpf4jnsgd1na2vs0mg"},{"bike_id":"be488931-e68c-4d98-bd77-87fe2de41753","system_id":"levelo_inurba_marseille","lat":43.29194,"lon":5.35797,"is_reserved":false,"is_disabled":false,"rental_uris":{"android":"levelo://app?vid=be488931-e68c-4d98-bd77-87fe2de41753","ios":"levelo://app?vid=be488931-e68c-4d98-bd77-87fe2de41753"},"vehicle_type_id":"4","last_reported":1716124019,"current_range_meters":21600,"station_id":"ce4bhb12rcd13ifvqel0","pricing_plan_id":"cebpf4jnsgd1na2vs0mg"},{"bike_id":"89b5c133-dd2f-466e-b9aa-55db7403a976","system_id":"levelo_inurba_marseille","lat":43.29192,"lon":5.35801,"is_reserved":false,"is_disabled":false,"rental_uris":{"android":"levelo://app?vid=89b5c133-dd2f-466e-b9aa-55db7403a976","ios":"levelo://app?vid=89b5c133-dd2f-466e-b9aa-55db7403a976"},"vehicle_type_id":"4","last_reported":1716124019,"current_range_meters":29600,"station_id":"ce4bhb12rcd13ifvqel0","pricing_plan_id":"cebpf4jnsgd1na2vs0mg"},{"bike_id":"4b64853c-d44c-49f8-aac9-4c5e186817f7","system_id":"levelo_inurba_marseille","lat":43.313291,"lon":5.396838,"is_reserved":false,"is_disabled":false,"rental_uris":{"android":"levelo://app?vid=4b64853c-d44c-49f8-aac9-4c5e186817f7","ios":"levelo://app?vid=4b64853c-d44c-49f8-aac9-4c5e186817f7"},"vehicle_type_id":"4","last_reported":1716124019,"current_range_meters":0,"station_id":"ce4bgvp2rcd13ifvqcu0","pricing_plan_id":"cebpf4jnsgd1na2vs0mg"},{"bike_id":"47625bf2-386c-46d9-a431-23f5512ba7b6","system_id":"levelo_inurba_marseille","lat":43.29189,"lon":5.358,"is_reserved":false,"is_disabled":false,"rental_uris":{"android":"levelo://app?vid=47625bf2-386c-46d9-a431-23f5512ba7b6","ios":"levelo://app?vid=47625bf2-386c-46d9-a431-23f5512ba7b6"},"vehicle_type_id":"4","last_reported":1716124019,"current_range_meters":21600,"station_id":"ce4bhb12rcd13ifvqel0","pricing_plan_id":"cebpf4jnsgd1na2vs0mg"},{"bike_id":"1c151b78-1826-40dc-81dc-639f940b8397","system_id":"levelo_inurba_marseille","lat":43.30877,"lon":5.39644,"is_reserved":false,"is_disabled":false,"rental_uris":{"android":"levelo://app?vid=1c151b78-1826-40dc-81dc-639f940b8397","ios":"levelo://app?vid=1c151b78-1826-40dc-81dc-639f940b8397"},"vehicle_type_id":"4","last_reported":1716124019,"current_range_meters":0,"station_id":"ce4bh012rcd13ifvqcv0","pricing_plan_id":"cebpf4jnsgd1na2vs0mg"},{"bike_id":"dabee0ca-6844-4fb2-bcb0-ccbe3e639e30","system_id":"levelo_inurba_marseille","lat":43.29191,"lon":5.3579,"is_reserved":false,"is_disabled":false,"rental_uris":{"android":"levelo://app?vid=dabee0ca-6844-4fb2-bcb0-ccbe3e639e30","ios":"levelo://app?vid=dabee0ca-6844-4fb2-bcb0-ccbe3e639e30"},"vehicle_type_id":"4","last_reported":1716124019,"current_range_meters":18000,"station_id":"ce4bhb12rcd13ifvqel0","pricing_plan_id":"cebpf4jnsgd1na2vs0mg"},{"bike_id":"2a0e4e6e-e6af-4d0d-ba6f-65243f3645ff","system_id":"levelo_inurba_marseille","lat":43.290779,"lon":5.371482,"is_reserved":false,"is_disabled":false,"rental_uris":{"android":"levelo://app?vid=2a0e4e6e-e6af-4d0d-ba6f-65243f3645ff","ios":"levelo://app?vid=2a0e4e6e-e6af-4d0d-ba6f-65243f3645ff"},"vehicle_type_id":"4","last_reported":1716124019,"current_range_meters":5600,"station_id":"ce4bh5p2rcd13ifvqe4g","pricing_plan_id":"cebpf4jnsgd1na2vs0mg"},{"bike_id":"61cfd702-139c-4ef8-a37d-cad36787f95f","system_id":"levelo_inurba_marseille","lat":43.294162,"lon":5.386292,"is_reserved":false,"is_disabled":false,"rental_uris":{"android":"levelo://app?vid=61cfd702-139c-4ef8-a37d-cad36787f95f","ios":"levelo://app?vid=61cfd702-139c-4ef8-a37d-cad36787f95f"},"vehicle_type_id":"4","last_reported":1716124019,"current_range_meters":2800,"station_id":"ce4bh2h2rcd13ifvqdh0","pricing_plan_id":"cebpf4jnsgd1na2vs0mg"},{"bike_id":"de31ddcf-4cb2-4b4e-ba0a-8ac41cb488b3","system_id":"levelo_inurba_marseille","lat":43.29033,"lon":5.35913,"is_reserved":false,"is_disabled":false,"rental_uris":{"android":"levelo://app?vid=de31ddcf-4cb2-4b4e-ba0a-8ac41cb488b3","ios":"levelo://app?vid=de31ddcf-4cb2-4b4e-ba0a-8ac41cb488b3"},"vehicle_type_id":"4","last_reported":1716124019,"current_range_meters":0,"station_id":"ce4bha92rcd13ifvqeg0","pricing_plan_id":"cebpf4jnsgd1na2vs0mg"},{"bike_id":"0a8b926f-2dda-43b3-9e2a-5d68a0fb7930","system_id":"levelo_inurba_marseille","lat":43.294162,"lon":5.386292,"is_reserved":false,"is_disabled":false,"rental_uris":{"android":"levelo://app?vid=0a8b926f-2dda-43b3-9e2a-5d68a0fb7930","ios":"levelo://app?vid=0a8b926f-2dda-43b3-9e2a-5d68a0fb7930"},"vehicle_type_id":"4","last_reported":1716124019,"current_range_meters":4400,"station_id":"ce4bh2h2rcd13ifvqdh0","pricing_plan_id":"cebpf4jnsgd1na2vs0mg"},{"bike_id":"74db1499-ffec-4e6f-b2fe-cdba8be62849","system_id":"levelo_inurba_marseille","lat":43.28954,"lon":5.36406,"is_reserved":false,"is_disabled":false,"rental_uris":{"android":"levelo://app?vid=74db1499-ffec-4e6f-b2fe-cdba8be62849","ios":"levelo://app?vid=74db1499-ffec-4e6f-b2fe-cdba8be62849"},"vehicle_type_id":"4","last_reported":1716124019,"current_range_meters":8400,"station_id":"ce4bhc92rcd13ifvqetg","pricing_plan_id":"cebpf4jnsgd1na2vs0mg"},{"bike_id":"1cdd68b9-6e7d-4947-8eb5-f5b13de4e93f","system_id":"levelo_inurba_marseille","lat":43.28949,"lon":5.36401,"is_reserved":false,"is_disabled":false,"rental_uris":{"android":"levelo://app?vid=1cdd68b9-6e7d-4947-8eb5-f5b13de4e93f","ios":"levelo://app?vid=1cdd68b9-6e7d-4947-8eb5-f5b13de4e93f"},"vehicle_type_id":"4","last_reported":1716124019,"current_range_meters":0,"station_id":"ce4bhc92rcd13ifvqetg","pricing_plan_id":"cebpf4jnsgd1na2vs0mg"},{"bike_id":"46db7ec1-49b2-473c-98dc-774471d9d298","system_id":"levelo_inurba_marseille","lat":43.289184,"lon":5.366408,"is_reserved":false,"is_disabled":false,"rental_uris":{"android":"levelo://app?vid=46db7ec1-49b2-473c-98dc-774471d9d298","ios":"levelo://app?vid=46db7ec1-49b2-473c-98dc-774471d9d298"},"vehicle_type_id":"4","last_reported":1716124019,"current_range_meters":0,"station_id":"ce4bhap2rcd13ifvqek0","pricing_plan_id":"cebpf4jnsgd1na2vs0mg"},{"bike_id":"b0aa0086-c1ac-4ffe-b2c9-a83d902c10b1","system_id":"levelo_inurba_marseille","lat":43.289468,"lon":5.363719,"is_reserved":false,"is_disabled":false,"rental_uris":{"android":"levelo://app?vid=b0aa0086-c1ac-4ffe-b2c9-a83d902c10b1","ios":"levelo://app?vid=b0aa0086-c1ac-4ffe-b2c9-a83d902c10b1"},"vehicle_type_id":"4","last_reported":1716124019,"current_range_meters":19200,"station_id":"ce4bhc92rcd13ifvqetg","pricing_plan_id":"cebpf4jnsgd1na2vs0mg"},{"bike_id":"7171ea8d-c5b7-4e2b-834b-fff7e808cce6","system_id":"levelo_inurba_marseille","lat":43.289394,"lon":5.363978,"is_reserved":false,"is_disabled":false,"rental_uris":{"android":"levelo://app?vid=7171ea8d-c5b7-4e2b-834b-fff7e808cce6","ios":"levelo://app?vid=7171ea8d-c5b7-4e2b-834b-fff7e808cce6"},"vehicle_type_id":"4","last_reported":1716124019,"current_range_meters":22800,"station_id":"ce4bhc92rcd13ifvqetg","pricing_plan_id":"cebpf4jnsgd1na2vs0mg"},{"bike_id":"8f75c6a9-fe9d-48a8-b52d-810118b9b811","system_id":"levelo_inurba_marseille","lat":43.290104,"lon":5.356111,"is_reserved":false,"is_disabled":false,"rental_uris":{"android":"levelo://app?vid=8f75c6a9-fe9d-48a8-b52d-810118b9b811","ios":"levelo://app?vid=8f75c6a9-fe9d-48a8-b52d-810118b9b811"},"vehicle_type_id":"4","last_reported":1716124019,"current_range_meters":0,"station_id":"ce4bhb92rcd13ifvqen0","pricing_plan_id":"cebpf4jnsgd1na2vs0mg"},{"bike_id":"9710d7e3-8500-49cc-b701-3fc99fa76ff2","system_id":"levelo_inurba_marseille","lat":43.29005,"lon":5.35615,"is_reserved":false,"is_disabled":false,"rental_uris":{"android":"levelo://app?vid=9710d7e3-8500-49cc-b701-3fc99fa76ff2","ios":"levelo://app?vid=9710d7e3-8500-49cc-b701-3fc99fa76ff2"},"vehicle_type_id":"4","last_reported":1716124019,"current_range_meters":1200,"station_id":"ce4bhb92rcd13ifvqen0","pricing_plan_id":"cebpf4jnsgd1na2vs0mg"},{"bike_id":"53d2a157-e25a-437e-8c51-8720556860df","system_id":"levelo_inurba_marseille","lat":43.29,"lon":5.35629,"is_reserved":false,"is_disabled":false,"rental_uris":{"android":"levelo://app?vid=53d2a157-e25a-437e-8c51-8720556860df","ios":"levelo://app?vid=53d2a157-e25a-437e-8c51-8720556860df"},"vehicle_type_id":"4","last_reported":1716124019,"current_range_meters":8000,"station_id":"ce4bhb92rcd13ifvqen0","pricing_plan_id":"cebpf4jnsgd1na2vs0mg"},{"bike_id":"65c75d39-c6f4-4130-9eb3-28eb4c758430","system_id":"levelo_inurba_marseille","lat":43.28983,"lon":5.37836,"is_reserved":false,"is_disabled":false,"rental_uris":{"android":"levelo://app?vid=65c75d39-c6f4-4130-9eb3-28eb4c758430","ios":"levelo://app?vid=65c75d39-c6f4-4130-9eb3-28eb4c758430"},"vehicle_type_id":"4","last_reported":1716124019,"current_range_meters":0,"station_id":"ce4bh9p2rcd13ifvqed0","pricing_plan_id":"cebpf4jnsgd1na2vs0mg"},{"bike_id":"fc32ecd8-bc04-4113-8415-cf1d92d81be4","system_id":"levelo_inurba_marseille","lat":43.330442,"lon":5.389148,"is_reserved":false,"is_disabled":false,"rental_uris":{"android":"levelo://app?vid=fc32ecd8-bc04-4113-8415-cf1d92d81be4","ios":"levelo://app?vid=fc32ecd8-bc04-4113-8415-cf1d92d81be4"},"vehicle_type_id":"4","last_reported":1716124019,"current_range_meters":15600,"station_id":"ce4bhr92rcd13ifvqhrg","pricing_plan_id":"cebpf4jnsgd1na2vs0mg"},{"bike_id":"bec71886-bcce-4bff-bb48-ea04100bd6a7","system_id":"levelo_inurba_marseille","lat":43.295169,"lon":5.390426,"is_reserved":false,"is_disabled":false,"rental_uris":{"android":"levelo://app?vid=bec71886-bcce-4bff-bb48-ea04100bd6a7","ios":"levelo://app?vid=bec71886-bcce-4bff-bb48-ea04100bd6a7"},"vehicle_type_id":"4","last_reported":1716124019,"current_range_meters":0,"station_id":"ce4bh3p2rcd13ifvqdp0","pricing_plan_id":"cebpf4jnsgd1na2vs0mg"},{"bike_id":"7b14507e-6242-4105-9de4-019d7bd5ae9e","system_id":"levelo_inurba_marseille","lat":43.330442,"lon":5.389148,"is_reserved":false,"is_disabled":false,"rental_uris":{"android":"levelo://app?vid=7b14507e-6242-4105-9de4-019d7bd5ae9e","ios":"levelo://app?vid=7b14507e-6242-4105-9de4-019d7bd5ae9e"},"vehicle_type_id":"4","last_reported":1716124019,"current_range_meters":17200,"station_id":"ce4bhr92rcd13ifvqhrg","pricing_plan_id":"cebpf4jnsgd1na2vs0mg"},{"bike_id":"5d91b310-7da9-41ca-aa49-923814963248","system_id":"levelo_inurba_marseille","lat":43.30644,"lon":5.40056,"is_reserved":false,"is_disabled":false,"rental_uris":{"android":"levelo://app?vid=5d91b310-7da9-41ca-aa49-923814963248","ios":"levelo://app?vid=5d91b310-7da9-41ca-aa49-923814963248"},"vehicle_type_id":"4","last_reported":1716124019,"current_range_meters":800,"station_id":"ce4bh112rcd13ifvqda0","pricing_plan_id":"cebpf4jnsgd1na2vs0mg"},{"bike_id":"8fcfae47-e99b-4670-902d-052061e2eec5","system_id":"levelo_inurba_marseille","lat":43.309371,"lon":5.401449,"is_reserved":false,"is_disabled":false,"rental_uris":{"android":"levelo://app?vid=8fcfae47-e99b-4670-902d-052061e2eec5","ios":"levelo://app?vid=8fcfae47-e99b-4670-902d-052061e2eec5"},"vehicle_type_id":"4","last_reported":1716124019,"current_range_meters":28400,"station_id":"ce4bgvp2rcd13ifvqct0","pricing_plan_id":"cebpf4jnsgd1na2vs0mg"},{"bike_id":"4fa81c91-a39d-4160-93d7-b314e9fd0ee8","system_id":"levelo_inurba_marseille","lat":43.33745,"lon":5.37453,"is_reserved":false,"is_disabled":false,"rental_uris":{"android":"levelo://app?vid=4fa81c91-a39d-4160-93d7-b314e9fd0ee8","ios":"levelo://app?vid=4fa81c91-a39d-4160-93d7-b314e9fd0ee8"},"vehicle_type_id":"4","last_reported":1716124019,"current_range_meters":10000,"station_id":"","pricing_plan_id":"cebpf4jnsgd1na2vs0mg"},{"bike_id":"1621223e-32f3-4e24-be8c-fd7941073829","system_id":"levelo_inurba_marseille","lat":43.309371,"lon":5.401449,"is_reserved":false,"is_disabled":false,"rental_uris":{"android":"levelo://app?vid=1621223e-32f3-4e24-be8c-fd7941073829","ios":"levelo://app?vid=1621223e-32f3-4e24-be8c-fd7941073829"},"vehicle_type_id":"4","last_reported":1716124019,"current_range_meters":28800,"station_id":"ce4bgvp2rcd13ifvqct0","pricing_plan_id":"cebpf4jnsgd1na2vs0mg"},{"bike_id":"d5b179b2-77b1-4d3f-889b-8dd08c31eb07","system_id":"levelo_inurba_marseille","lat":43.309371,"lon":5.401449,"is_reserved":false,"is_disabled":false,"rental_uris":{"android":"levelo://app?vid=d5b179b2-77b1-4d3f-889b-8dd08c31eb07","ios":"levelo://app?vid=d5b179b2-77b1-4d3f-889b-8dd08c31eb07"},"vehicle_type_id":"4","last_reported":1716124019,"current_range_meters":2800,"station_id":"ce4bgvp2rcd13ifvqct0","pricing_plan_id":"cebpf4jnsgd1na2vs0mg"},{"bike_id":"91ca811e-1723-431d-bc25-0a648886abe2","system_id":"levelo_inurba_marseille","lat":43.309371,"lon":5.401449,"is_reserved":false,"is_disabled":false,"rental_uris":{"android":"levelo://app?vid=91ca811e-1723-431d-bc25-0a648886abe2","ios":"levelo://app?vid=91ca811e-1723-431d-bc25-0a648886abe2"},"vehicle_type_id":"4","last_reported":1716124019,"current_range_meters":23200,"station_id":"ce4bgvp2rcd13ifvqct0","pricing_plan_id":"cebpf4jnsgd1na2vs0mg"},{"bike_id":"1646b8e9-49eb-42ee-b445-0f5861ea1a1b","system_id":"levelo_inurba_marseille","lat":43.312609,"lon":5.401662,"is_reserved":false,"is_disabled":false,"rental_uris":{"android":"levelo://app?vid=1646b8e9-49eb-42ee-b445-0f5861ea1a1b","ios":"levelo://app?vid=1646b8e9-49eb-42ee-b445-0f5861ea1a1b"},"vehicle_type_id":"4","last_reported":1716124019,"current_range_meters":22400,"station_id":"ce4bh092rcd13ifvqd30","pricing_plan_id":"cebpf4jnsgd1na2vs0mg"},{"bike_id":"c62fad42-e876-4762-8228-ad16403a4131","system_id":"levelo_inurba_marseille","lat":43.309371,"lon":5.401449,"is_reserved":false,"is_disabled":false,"rental_uris":{"android":"levelo://app?vid=c62fad42-e876-4762-8228-ad16403a4131","ios":"levelo://app?vid=c62fad42-e876-4762-8228-ad16403a4131"},"vehicle_type_id":"4","last_reported":1716124019,"current_range_meters":31200,"station_id":"ce4bgvp2rcd13ifvqct0","pricing_plan_id":"cebpf4jnsgd1na2vs0mg"},{"bike_id":"f8695c59-e28c-4a73-9af5-1fa831a814d4","system_id":"levelo_inurba_marseille","lat":43.312609,"lon":5.401662,"is_reserved":false,"is_disabled":false,"rental_uris":{"android":"levelo://app?vid=f8695c59-e28c-4a73-9af5-1fa831a814d4","ios":"levelo://app?vid=f8695c59-e28c-4a73-9af5-1fa831a814d4"},"vehicle_type_id":"4","last_reported":1716124019,"current_range_meters":29200,"station_id":"ce4bh092rcd13ifvqd30","pricing_plan_id":"cebpf4jnsgd1na2vs0mg"},{"bike_id":"8fc6ebe8-68ab-4991-9aa7-185ef6592e71","system_id":"levelo_inurba_marseille","lat":43.337568,"lon":5.37449,"is_reserved":false,"is_disabled":false,"rental_uris":{"android":"levelo://app?vid=8fc6ebe8-68ab-4991-9aa7-185ef6592e71","ios":"levelo://app?vid=8fc6ebe8-68ab-4991-9aa7-185ef6592e71"},"vehicle_type_id":"4","last_reported":1716124019,"current_range_meters":8000,"station_id":"","pricing_plan_id":"cebpf4jnsgd1na2vs0mg"},{"bike_id":"91d9714b-b35f-47ce-8f34-022bf351236f","system_id":"levelo_inurba_marseille","lat":43.337642,"lon":5.374393,"is_reserved":false,"is_disabled":false,"rental_uris":{"android":"levelo://app?vid=91d9714b-b35f-47ce-8f34-022bf351236f","ios":"levelo://app?vid=91d9714b-b35f-47ce-8f34-022bf351236f"},"vehicle_type_id":"4","last_reported":1716124019,"current_range_meters":17200,"station_id":"","pricing_plan_id":"cebpf4jnsgd1na2vs0mg"},{"bike_id":"6fd4d7d5-dde7-4d26-ba60-94f5dd9d9b96","system_id":"levelo_inurba_marseille","lat":43.306412,"lon":5.401035,"is_reserved":false,"is_disabled":false,"rental_uris":{"android":"levelo://app?vid=6fd4d7d5-dde7-4d26-ba60-94f5dd9d9b96","ios":"levelo://app?vid=6fd4d7d5-dde7-4d26-ba60-94f5dd9d9b96"},"vehicle_type_id":"4","last_reported":1716124019,"current_range_meters":29600,"station_id":"ce4bh112rcd13ifvqda0","pricing_plan_id":"cebpf4jnsgd1na2vs0mg"},{"bike_id":"a028b7f4-400f-4486-9532-3732f9b8b13b","system_id":"levelo_inurba_marseille","lat":43.301117,"lon":5.398795,"is_reserved":false,"is_disabled":false,"rental_uris":{"android":"levelo://app?vid=a028b7f4-400f-4486-9532-3732f9b8b13b","ios":"levelo://app?vid=a028b7f4-400f-4486-9532-3732f9b8b13b"},"vehicle_type_id":"4","last_reported":1716124019,"current_range_meters":2400,"station_id":"ce4bh0h2rcd13ifvqd40","pricing_plan_id":"cebpf4jnsgd1na2vs0mg"},{"bike_id":"652014e1-0e9f-4e4a-8725-9502bbf73a40","system_id":"levelo_inurba_marseille","lat":43.28727,"lon":5.36078,"is_reserved":false,"is_disabled":false,"rental_uris":{"android":"levelo://app?vid=652014e1-0e9f-4e4a-8725-9502bbf73a40","ios":"levelo://app?vid=652014e1-0e9f-4e4a-8725-9502bbf73a40"},"vehicle_type_id":"4","last_reported":1716124019,"current_range_meters":400,"station_id":"cki0cbj6b192h4jlfktg","pricing_plan_id":"cebpf4jnsgd1na2vs0mg"},{"bike_id":"837a1dd5-68bc-43a8-b766-905b83a87146","system_id":"levelo_inurba_marseille","lat":43.28727,"lon":5.36078,"is_reserved":false,"is_disabled":false,"rental_uris":{"android":"levelo://app?vid=837a1dd5-68bc-43a8-b766-905b83a87146","ios":"levelo://app?vid=837a1dd5-68bc-43a8-b766-905b83a87146"},"vehicle_type_id":"4","last_reported":1716124019,"current_range_meters":10800,"station_id":"cki0cbj6b192h4jlfktg","pricing_plan_id":"cebpf4jnsgd1na2vs0mg"},{"bike_id":"039490f4-9e91-49fa-9706-e75f9357d4db","system_id":"levelo_inurba_marseille","lat":43.286961,"lon":5.373785,"is_reserved":false,"is_disabled":false,"rental_uris":{"android":"levelo://app?vid=039490f4-9e91-49fa-9706-e75f9357d4db","ios":"levelo://app?vid=039490f4-9e91-49fa-9706-e75f9357d4db"},"vehicle_type_id":"4","last_reported":1716124019,"current_range_meters":3200,"station_id":"ce4bh3p2rcd13ifvqdq0","pricing_plan_id":"cebpf4jnsgd1na2vs0mg"},{"bike_id":"ad89747e-1f6e-4e7a-8db9-cbe1334ca476","system_id":"levelo_inurba_marseille","lat":43.286961,"lon":5.373785,"is_reserved":false,"is_disabled":false,"rental_uris":{"android":"levelo://app?vid=ad89747e-1f6e-4e7a-8db9-cbe1334ca476","ios":"levelo://app?vid=ad89747e-1f6e-4e7a-8db9-cbe1334ca476"},"vehicle_type_id":"4","last_reported":1716124019,"current_range_meters":22400,"station_id":"ce4bh3p2rcd13ifvqdq0","pricing_plan_id":"cebpf4jnsgd1na2vs0mg"},{"bike_id":"7f3732aa-8123-45dc-935f-ead59cd42bf0","system_id":"levelo_inurba_marseille","lat":43.286039,"lon":5.370679,"is_reserved":false,"is_disabled":false,"rental_uris":{"android":"levelo://app?vid=7f3732aa-8123-45dc-935f-ead59cd42bf0","ios":"levelo://app?vid=7f3732aa-8123-45dc-935f-ead59cd42bf0"},"vehicle_type_id":"4","last_reported":1716124019,"current_range_meters":17200,"station_id":"ce4bht12rcd13ifvqi60","pricing_plan_id":"cebpf4jnsgd1na2vs0mg"},{"bike_id":"5c02309e-03cd-4523-bdd3-6a8769186bf8","system_id":"levelo_inurba_marseille","lat":43.287184,"lon":5.37937,"is_reserved":false,"is_disabled":false,"rental_uris":{"android":"levelo://app?vid=5c02309e-03cd-4523-bdd3-6a8769186bf8","ios":"levelo://app?vid=5c02309e-03cd-4523-bdd3-6a8769186bf8"},"vehicle_type_id":"4","last_reported":1716124019,"current_range_meters":0,"station_id":"ce4bh9p2rcd13ifvqec0","pricing_plan_id":"cebpf4jnsgd1na2vs0mg"},{"bike_id":"ba1a48c6-5a8c-432e-a0a0-54723be58e36","system_id":"levelo_inurba_marseille","lat":43.316828,"lon":5.404723,"is_reserved":false,"is_disabled":false,"rental_uris":{"android":"levelo://app?vid=ba1a48c6-5a8c-432e-a0a0-54723be58e36","ios":"levelo://app?vid=ba1a48c6-5a8c-432e-a0a0-54723be58e36"},"vehicle_type_id":"4","last_reported":1716124019,"current_range_meters":2400,"station_id":"ce4bh012rcd13ifvqd00","pricing_plan_id":"cebpf4jnsgd1na2vs0mg"},{"bike_id":"4ccf7a0e-51d3-43cb-ad2e-69d8ce7bebb8","system_id":"levelo_inurba_marseille","lat":43.31687,"lon":5.40471,"is_reserved":false,"is_disabled":false,"rental_uris":{"android":"levelo://app?vid=4ccf7a0e-51d3-43cb-ad2e-69d8ce7bebb8","ios":"levelo://app?vid=4ccf7a0e-51d3-43cb-ad2e-69d8ce7bebb8"},"vehicle_type_id":"4","last_reported":1716124019,"current_range_meters":6400,"station_id":"ce4bh012rcd13ifvqd00","pricing_plan_id":"cebpf4jnsgd1na2vs0mg"},{"bike_id":"ed17bbf5-7c1b-424d-8b06-6398b99a5dd2","system_id":"levelo_inurba_marseille","lat":43.317,"lon":5.4047,"is_reserved":false,"is_disabled":false,"rental_uris":{"android":"levelo://app?vid=ed17bbf5-7c1b-424d-8b06-6398b99a5dd2","ios":"levelo://app?vid=ed17bbf5-7c1b-424d-8b06-6398b99a5dd2"},"vehicle_type_id":"4","last_reported":1716124019,"current_range_meters":23200,"station_id":"ce4bh012rcd13ifvqd00","pricing_plan_id":"cebpf4jnsgd1na2vs0mg"},{"bike_id":"aef1b405-40b7-4213-a235-a5b25b57ef0d","system_id":"levelo_inurba_marseille","lat":43.303253,"lon":5.404017,"is_reserved":false,"is_disabled":false,"rental_uris":{"android":"levelo://app?vid=aef1b405-40b7-4213-a235-a5b25b57ef0d","ios":"levelo://app?vid=aef1b405-40b7-4213-a235-a5b25b57ef0d"},"vehicle_type_id":"4","last_reported":1716124019,"current_range_meters":4800,"station_id":"","pricing_plan_id":"cebpf4jnsgd1na2vs0mg"},{"bike_id":"8860d23b-fb3d-4efa-ab68-22fbc75c6b4e","system_id":"levelo_inurba_marseille","lat":43.285856,"lon":5.350771,"is_reserved":false,"is_disabled":false,"rental_uris":{"android":"levelo://app?vid=8860d23b-fb3d-4efa-ab68-22fbc75c6b4e","ios":"levelo://app?vid=8860d23b-fb3d-4efa-ab68-22fbc75c6b4e"},"vehicle_type_id":"4","last_reported":1716124019,"current_range_meters":3200,"station_id":"ce4bhch2rcd13ifvqeug","pricing_plan_id":"cebpf4jnsgd1na2vs0mg"},{"bike_id":"bd8f3af7-7014-4e6f-98ba-494382c07044","system_id":"levelo_inurba_marseille","lat":43.285856,"lon":5.350771,"is_reserved":false,"is_disabled":false,"rental_uris":{"android":"levelo://app?vid=bd8f3af7-7014-4e6f-98ba-494382c07044","ios":"levelo://app?vid=bd8f3af7-7014-4e6f-98ba-494382c07044"},"vehicle_type_id":"4","last_reported":1716124019,"current_range_meters":6800,"station_id":"ce4bhch2rcd13ifvqeug","pricing_plan_id":"cebpf4jnsgd1na2vs0mg"},{"bike_id":"53c07afe-7735-4a83-94f6-146241681546","system_id":"levelo_inurba_marseille","lat":43.285856,"lon":5.350771,"is_reserved":false,"is_disabled":false,"rental_uris":{"android":"levelo://app?vid=53c07afe-7735-4a83-94f6-146241681546","ios":"levelo://app?vid=53c07afe-7735-4a83-94f6-146241681546"},"vehicle_type_id":"4","last_reported":1716124019,"current_range_meters":0,"station_id":"ce4bhch2rcd13ifvqeug","pricing_plan_id":"cebpf4jnsgd1na2vs0mg"},{"bike_id":"de3d8993-61a5-483e-9cc5-eb7c4d6fc76c","system_id":"levelo_inurba_marseille","lat":43.285856,"lon":5.350771,"is_reserved":false,"is_disabled":false,"rental_uris":{"android":"levelo://app?vid=de3d8993-61a5-483e-9cc5-eb7c4d6fc76c","ios":"levelo://app?vid=de3d8993-61a5-483e-9cc5-eb7c4d6fc76c"},"vehicle_type_id":"4","last_reported":1716124019,"current_range_meters":0,"station_id":"ce4bhch2rcd13ifvqeug","pricing_plan_id":"cebpf4jnsgd1na2vs0mg"},{"bike_id":"43fad8cd-a5c4-452b-976d-2eba3b54820b","system_id":"levelo_inurba_marseille","lat":43.285856,"lon":5.350771,"is_reserved":false,"is_disabled":false,"rental_uris":{"android":"levelo://app?vid=43fad8cd-a5c4-452b-976d-2eba3b54820b","ios":"levelo://app?vid=43fad8cd-a5c4-452b-976d-2eba3b54820b"},"vehicle_type_id":"4","last_reported":1716124019,"current_range_meters":23200,"station_id":"ce4bhch2rcd13ifvqeug","pricing_plan_id":"cebpf4jnsgd1na2vs0mg"},{"bike_id":"ecc88823-8df9-4714-93e3-4e75113b8194","system_id":"levelo_inurba_marseille","lat":43.285856,"lon":5.350771,"is_reserved":false,"is_disabled":false,"rental_uris":{"android":"levelo://app?vid=ecc88823-8df9-4714-93e3-4e75113b8194","ios":"levelo://app?vid=ecc88823-8df9-4714-93e3-4e75113b8194"},"vehicle_type_id":"4","last_reported":1716124019,"current_range_meters":16400,"station_id":"ce4bhch2rcd13ifvqeug","pricing_plan_id":"cebpf4jnsgd1na2vs0mg"},{"bike_id":"f97cae3e-03b3-488d-9a6f-70101747b07b","system_id":"levelo_inurba_marseille","lat":43.28615,"lon":5.35096,"is_reserved":false,"is_disabled":false,"rental_uris":{"android":"levelo://app?vid=f97cae3e-03b3-488d-9a6f-70101747b07b","ios":"levelo://app?vid=f97cae3e-03b3-488d-9a6f-70101747b07b"},"vehicle_type_id":"4","last_reported":1716124019,"current_range_meters":21200,"station_id":"","pricing_plan_id":"cebpf4jnsgd1na2vs0mg"},{"bike_id":"1f4cb1cc-0a05-4756-a2e4-c4558a932825","system_id":"levelo_inurba_marseille","lat":43.285856,"lon":5.350771,"is_reserved":false,"is_disabled":false,"rental_uris":{"android":"levelo://app?vid=1f4cb1cc-0a05-4756-a2e4-c4558a932825","ios":"levelo://app?vid=1f4cb1cc-0a05-4756-a2e4-c4558a932825"},"vehicle_type_id":"4","last_reported":1716124019,"current_range_meters":15600,"station_id":"ce4bhch2rcd13ifvqeug","pricing_plan_id":"cebpf4jnsgd1na2vs0mg"},{"bike_id":"e62df1ad-1a85-4450-b91a-efdcc91bb3c0","system_id":"levelo_inurba_marseille","lat":43.285856,"lon":5.350771,"is_reserved":false,"is_disabled":false,"rental_uris":{"android":"levelo://app?vid=e62df1ad-1a85-4450-b91a-efdcc91bb3c0","ios":"levelo://app?vid=e62df1ad-1a85-4450-b91a-efdcc91bb3c0"},"vehicle_type_id":"4","last_reported":1716124019,"current_range_meters":26800,"station_id":"ce4bhch2rcd13ifvqeug","pricing_plan_id":"cebpf4jnsgd1na2vs0mg"},{"bike_id":"850457e5-5a16-4898-82b7-ae9730381a18","system_id":"levelo_inurba_marseille","lat":43.286595,"lon":5.386795,"is_reserved":false,"is_disabled":false,"rental_uris":{"android":"levelo://app?vid=850457e5-5a16-4898-82b7-ae9730381a18","ios":"levelo://app?vid=850457e5-5a16-4898-82b7-ae9730381a18"},"vehicle_type_id":"4","last_reported":1716124019,"current_range_meters":4800,"station_id":"ce4bh492rcd13ifvqdug","pricing_plan_id":"cebpf4jnsgd1na2vs0mg"},{"bike_id":"e45027b9-783f-4ee6-861d-16641f4e7735","system_id":"levelo_inurba_marseille","lat":43.286595,"lon":5.386795,"is_reserved":false,"is_disabled":false,"rental_uris":{"android":"levelo://app?vid=e45027b9-783f-4ee6-861d-16641f4e7735","ios":"levelo://app?vid=e45027b9-783f-4ee6-861d-16641f4e7735"},"vehicle_type_id":"4","last_reported":1716124019,"current_range_meters":9200,"station_id":"ce4bh492rcd13ifvqdug","pricing_plan_id":"cebpf4jnsgd1na2vs0mg"},{"bike_id":"47820319-20b4-425b-9654-ce5f48aa0e59","system_id":"levelo_inurba_marseille","lat":43.3188,"lon":5.40739,"is_reserved":false,"is_disabled":false,"rental_uris":{"android":"levelo://app?vid=47820319-20b4-425b-9654-ce5f48aa0e59","ios":"levelo://app?vid=47820319-20b4-425b-9654-ce5f48aa0e59"},"vehicle_type_id":"4","last_reported":1716124019,"current_range_meters":3200,"station_id":"ce4bhq12rcd13ifvqhig","pricing_plan_id":"cebpf4jnsgd1na2vs0mg"},{"bike_id":"d17f242e-6cde-4ac0-8520-337d341d1389","system_id":"levelo_inurba_marseille","lat":43.323464,"lon":5.406297,"is_reserved":false,"is_disabled":false,"rental_uris":{"android":"levelo://app?vid=d17f242e-6cde-4ac0-8520-337d341d1389","ios":"levelo://app?vid=d17f242e-6cde-4ac0-8520-337d341d1389"},"vehicle_type_id":"4","last_reported":1716124019,"current_range_meters":29200,"station_id":"ce4bhq92rcd13ifvqhjg","pricing_plan_id":"cebpf4jnsgd1na2vs0mg"},{"bike_id":"b24aea1e-f417-43ff-8447-3dfa4af24c29","system_id":"levelo_inurba_marseille","lat":43.337168,"lon":5.391825,"is_reserved":false,"is_disabled":false,"rental_uris":{"android":"levelo://app?vid=b24aea1e-f417-43ff-8447-3dfa4af24c29","ios":"levelo://app?vid=b24aea1e-f417-43ff-8447-3dfa4af24c29"},"vehicle_type_id":"4","last_reported":1716124019,"current_range_meters":31600,"station_id":"ce4bhr92rcd13ifvqhsg","pricing_plan_id":"cebpf4jnsgd1na2vs0mg"},{"bike_id":"6b4b2bbf-b7fb-477f-89a7-fa751b252e39","system_id":"levelo_inurba_marseille","lat":43.32336,"lon":5.40621,"is_reserved":false,"is_disabled":false,"rental_uris":{"android":"levelo://app?vid=6b4b2bbf-b7fb-477f-89a7-fa751b252e39","ios":"levelo://app?vid=6b4b2bbf-b7fb-477f-89a7-fa751b252e39"},"vehicle_type_id":"4","last_reported":1716124019,"current_range_meters":0,"station_id":"ce4bhq92rcd13ifvqhjg","pricing_plan_id":"cebpf4jnsgd1na2vs0mg"},{"bike_id":"030df6ed-d25a-4a11-bce2-371aa6dec38b","system_id":"levelo_inurba_marseille","lat":43.323464,"lon":5.406297,"is_reserved":false,"is_disabled":false,"rental_uris":{"android":"levelo://app?vid=030df6ed-d25a-4a11-bce2-371aa6dec38b","ios":"levelo://app?vid=030df6ed-d25a-4a11-bce2-371aa6dec38b"},"vehicle_type_id":"4","last_reported":1716124019,"current_range_meters":29200,"station_id":"ce4bhq92rcd13ifvqhjg","pricing_plan_id":"cebpf4jnsgd1na2vs0mg"},{"bike_id":"3e0064bf-46b2-47f8-8198-d3413fe1e554","system_id":"levelo_inurba_marseille","lat":43.337257,"lon":5.391887,"is_reserved":false,"is_disabled":false,"rental_uris":{"android":"levelo://app?vid=3e0064bf-46b2-47f8-8198-d3413fe1e554","ios":"levelo://app?vid=3e0064bf-46b2-47f8-8198-d3413fe1e554"},"vehicle_type_id":"4","last_reported":1716124019,"current_range_meters":0,"station_id":"ce4bhr92rcd13ifvqhsg","pricing_plan_id":"cebpf4jnsgd1na2vs0mg"},{"bike_id":"9b7f82fd-3fa0-42f8-a9b7-feab44c21ae5","system_id":"levelo_inurba_marseille","lat":43.323464,"lon":5.406297,"is_reserved":false,"is_disabled":false,"rental_uris":{"android":"levelo://app?vid=9b7f82fd-3fa0-42f8-a9b7-feab44c21ae5","ios":"levelo://app?vid=9b7f82fd-3fa0-42f8-a9b7-feab44c21ae5"},"vehicle_type_id":"4","last_reported":1716124019,"current_range_meters":12000,"station_id":"ce4bhq92rcd13ifvqhjg","pricing_plan_id":"cebpf4jnsgd1na2vs0mg"},{"bike_id":"1c47809c-7db7-4988-8570-dd325ced6c5e","system_id":"levelo_inurba_marseille","lat":43.337168,"lon":5.391825,"is_reserved":false,"is_disabled":false,"rental_uris":{"android":"levelo://app?vid=1c47809c-7db7-4988-8570-dd325ced6c5e","ios":"levelo://app?vid=1c47809c-7db7-4988-8570-dd325ced6c5e"},"vehicle_type_id":"4","last_reported":1716124019,"current_range_meters":16800,"station_id":"ce4bhr92rcd13ifvqhsg","pricing_plan_id":"cebpf4jnsgd1na2vs0mg"},{"bike_id":"cde5fce9-f1d0-41b2-bf86-4ee66d5e88bf","system_id":"levelo_inurba_marseille","lat":43.323464,"lon":5.406297,"is_reserved":false,"is_disabled":false,"rental_uris":{"android":"levelo://app?vid=cde5fce9-f1d0-41b2-bf86-4ee66d5e88bf","ios":"levelo://app?vid=cde5fce9-f1d0-41b2-bf86-4ee66d5e88bf"},"vehicle_type_id":"4","last_reported":1716124019,"current_range_meters":1600,"station_id":"ce4bhq92rcd13ifvqhjg","pricing_plan_id":"cebpf4jnsgd1na2vs0mg"},{"bike_id":"324963ec-598e-43e6-b6dc-def0940a2be6","system_id":"levelo_inurba_marseille","lat":43.323464,"lon":5.406297,"is_reserved":false,"is_disabled":false,"rental_uris":{"android":"levelo://app?vid=324963ec-598e-43e6-b6dc-def0940a2be6","ios":"levelo://app?vid=324963ec-598e-43e6-b6dc-def0940a2be6"},"vehicle_type_id":"4","last_reported":1716124019,"current_range_meters":15600,"station_id":"ce4bhq92rcd13ifvqhjg","pricing_plan_id":"cebpf4jnsgd1na2vs0mg"},{"bike_id":"04ef84c7-3280-437c-a97e-3cc07edd2a54","system_id":"levelo_inurba_marseille","lat":43.297566,"lon":5.403468,"is_reserved":false,"is_disabled":false,"rental_uris":{"android":"levelo://app?vid=04ef84c7-3280-437c-a97e-3cc07edd2a54","ios":"levelo://app?vid=04ef84c7-3280-437c-a97e-3cc07edd2a54"},"vehicle_type_id":"4","last_reported":1716124019,"current_range_meters":17200,"station_id":"","pricing_plan_id":"cebpf4jnsgd1na2vs0mg"},{"bike_id":"230f5f8f-a821-469b-84a8-4913525e943d","system_id":"levelo_inurba_marseille","lat":43.28424,"lon":5.34993,"is_reserved":false,"is_disabled":false,"rental_uris":{"android":"levelo://app?vid=230f5f8f-a821-469b-84a8-4913525e943d","ios":"levelo://app?vid=230f5f8f-a821-469b-84a8-4913525e943d"},"vehicle_type_id":"4","last_reported":1716124019,"current_range_meters":14400,"station_id":"ce4bhbh2rcd13ifvqepg","pricing_plan_id":"cebpf4jnsgd1na2vs0mg"},{"bike_id":"3f922d88-8eab-45f3-93f8-79a28efc56b2","system_id":"levelo_inurba_marseille","lat":43.284219,"lon":5.3497,"is_reserved":false,"is_disabled":false,"rental_uris":{"android":"levelo://app?vid=3f922d88-8eab-45f3-93f8-79a28efc56b2","ios":"levelo://app?vid=3f922d88-8eab-45f3-93f8-79a28efc56b2"},"vehicle_type_id":"4","last_reported":1716124019,"current_range_meters":25600,"station_id":"ce4bhbh2rcd13ifvqepg","pricing_plan_id":"cebpf4jnsgd1na2vs0mg"},{"bike_id":"6152e0bd-f31e-4377-b81a-51bbe1f88fd3","system_id":"levelo_inurba_marseille","lat":43.284239,"lon":5.349854,"is_reserved":false,"is_disabled":false,"rental_uris":{"android":"levelo://app?vid=6152e0bd-f31e-4377-b81a-51bbe1f88fd3","ios":"levelo://app?vid=6152e0bd-f31e-4377-b81a-51bbe1f88fd3"},"vehicle_type_id":"4","last_reported":1716124019,"current_range_meters":16000,"station_id":"ce4bhbh2rcd13ifvqepg","pricing_plan_id":"cebpf4jnsgd1na2vs0mg"},{"bike_id":"8caa2500-65a4-4220-a28c-81bd8a2e40a6","system_id":"levelo_inurba_marseille","lat":43.284219,"lon":5.3497,"is_reserved":false,"is_disabled":false,"rental_uris":{"android":"levelo://app?vid=8caa2500-65a4-4220-a28c-81bd8a2e40a6","ios":"levelo://app?vid=8caa2500-65a4-4220-a28c-81bd8a2e40a6"},"vehicle_type_id":"4","last_reported":1716124019,"current_range_meters":17600,"station_id":"ce4bhbh2rcd13ifvqepg","pricing_plan_id":"cebpf4jnsgd1na2vs0mg"},{"bike_id":"6b91ee64-469c-42df-85d6-39e65d2fbc76","system_id":"levelo_inurba_marseille","lat":43.28421,"lon":5.34989,"is_reserved":false,"is_disabled":false,"rental_uris":{"android":"levelo://app?vid=6b91ee64-469c-42df-85d6-39e65d2fbc76","ios":"levelo://app?vid=6b91ee64-469c-42df-85d6-39e65d2fbc76"},"vehicle_type_id":"4","last_reported":1716124019,"current_range_meters":19200,"station_id":"ce4bhbh2rcd13ifvqepg","pricing_plan_id":"cebpf4jnsgd1na2vs0mg"},{"bike_id":"97c1637f-5b01-4d05-bc46-7244de7afaf5","system_id":"levelo_inurba_marseille","lat":43.284238,"lon":5.349797,"is_reserved":false,"is_disabled":false,"rental_uris":{"android":"levelo://app?vid=97c1637f-5b01-4d05-bc46-7244de7afaf5","ios":"levelo://app?vid=97c1637f-5b01-4d05-bc46-7244de7afaf5"},"vehicle_type_id":"4","last_reported":1716124019,"current_range_meters":0,"station_id":"ce4bhbh2rcd13ifvqepg","pricing_plan_id":"cebpf4jnsgd1na2vs0mg"},{"bike_id":"ba8475cc-08ac-4e90-83b4-6655fff94745","system_id":"levelo_inurba_marseille","lat":43.28424,"lon":5.34978,"is_reserved":false,"is_disabled":false,"rental_uris":{"android":"levelo://app?vid=ba8475cc-08ac-4e90-83b4-6655fff94745","ios":"levelo://app?vid=ba8475cc-08ac-4e90-83b4-6655fff94745"},"vehicle_type_id":"4","last_reported":1716124019,"current_range_meters":1600,"station_id":"ce4bhbh2rcd13ifvqepg","pricing_plan_id":"cebpf4jnsgd1na2vs0mg"},{"bike_id":"b6b9148e-db3c-46f6-9730-efad05531916","system_id":"levelo_inurba_marseille","lat":43.284214,"lon":5.349706,"is_reserved":false,"is_disabled":false,"rental_uris":{"android":"levelo://app?vid=b6b9148e-db3c-46f6-9730-efad05531916","ios":"levelo://app?vid=b6b9148e-db3c-46f6-9730-efad05531916"},"vehicle_type_id":"4","last_reported":1716124019,"current_range_meters":19200,"station_id":"ce4bhbh2rcd13ifvqepg","pricing_plan_id":"cebpf4jnsgd1na2vs0mg"},{"bike_id":"3cdf73ca-4ba8-4430-809a-a3ff92b93285","system_id":"levelo_inurba_marseille","lat":43.284218,"lon":5.34983,"is_reserved":false,"is_disabled":false,"rental_uris":{"android":"levelo://app?vid=3cdf73ca-4ba8-4430-809a-a3ff92b93285","ios":"levelo://app?vid=3cdf73ca-4ba8-4430-809a-a3ff92b93285"},"vehicle_type_id":"4","last_reported":1716124019,"current_range_meters":16800,"station_id":"ce4bhbh2rcd13ifvqepg","pricing_plan_id":"cebpf4jnsgd1na2vs0mg"},{"bike_id":"b8c91c96-d942-44a5-adf1-222cd25e89ef","system_id":"levelo_inurba_marseille","lat":43.284219,"lon":5.3497,"is_reserved":false,"is_disabled":false,"rental_uris":{"android":"levelo://app?vid=b8c91c96-d942-44a5-adf1-222cd25e89ef","ios":"levelo://app?vid=b8c91c96-d942-44a5-adf1-222cd25e89ef"},"vehicle_type_id":"4","last_reported":1716124019,"current_range_meters":21600,"station_id":"ce4bhbh2rcd13ifvqepg","pricing_plan_id":"cebpf4jnsgd1na2vs0mg"},{"bike_id":"ff77d0c9-5e1b-43f7-856d-523c571fe564","system_id":"levelo_inurba_marseille","lat":43.2842,"lon":5.34984,"is_reserved":false,"is_disabled":false,"rental_uris":{"android":"levelo://app?vid=ff77d0c9-5e1b-43f7-856d-523c571fe564","ios":"levelo://app?vid=ff77d0c9-5e1b-43f7-856d-523c571fe564"},"vehicle_type_id":"4","last_reported":1716124019,"current_range_meters":11200,"station_id":"ce4bhbh2rcd13ifvqepg","pricing_plan_id":"cebpf4jnsgd1na2vs0mg"},{"bike_id":"95482fd8-6b5a-416a-a37f-8b92eb864954","system_id":"levelo_inurba_marseille","lat":43.284214,"lon":5.349706,"is_reserved":false,"is_disabled":false,"rental_uris":{"android":"levelo://app?vid=95482fd8-6b5a-416a-a37f-8b92eb864954","ios":"levelo://app?vid=95482fd8-6b5a-416a-a37f-8b92eb864954"},"vehicle_type_id":"4","last_reported":1716124019,"current_range_meters":20800,"station_id":"ce4bhbh2rcd13ifvqepg","pricing_plan_id":"cebpf4jnsgd1na2vs0mg"},{"bike_id":"00ac9133-0c4f-4ca6-9d6a-22ce37089ef5","system_id":"levelo_inurba_marseille","lat":43.28422,"lon":5.34977,"is_reserved":false,"is_disabled":false,"rental_uris":{"android":"levelo://app?vid=00ac9133-0c4f-4ca6-9d6a-22ce37089ef5","ios":"levelo://app?vid=00ac9133-0c4f-4ca6-9d6a-22ce37089ef5"},"vehicle_type_id":"4","last_reported":1716124019,"current_range_meters":17200,"station_id":"ce4bhbh2rcd13ifvqepg","pricing_plan_id":"cebpf4jnsgd1na2vs0mg"},{"bike_id":"1934cc4f-591c-410b-9b47-9e378007d485","system_id":"levelo_inurba_marseille","lat":43.28421,"lon":5.3498,"is_reserved":false,"is_disabled":false,"rental_uris":{"android":"levelo://app?vid=1934cc4f-591c-410b-9b47-9e378007d485","ios":"levelo://app?vid=1934cc4f-591c-410b-9b47-9e378007d485"},"vehicle_type_id":"4","last_reported":1716124019,"current_range_meters":23200,"station_id":"ce4bhbh2rcd13ifvqepg","pricing_plan_id":"cebpf4jnsgd1na2vs0mg"},{"bike_id":"0a950479-ffba-4249-99b7-8132d1698b1d","system_id":"levelo_inurba_marseille","lat":43.28423,"lon":5.34973,"is_reserved":false,"is_disabled":false,"rental_uris":{"android":"levelo://app?vid=0a950479-ffba-4249-99b7-8132d1698b1d","ios":"levelo://app?vid=0a950479-ffba-4249-99b7-8132d1698b1d"},"vehicle_type_id":"4","last_reported":1716124019,"current_range_meters":12800,"station_id":"ce4bhbh2rcd13ifvqepg","pricing_plan_id":"cebpf4jnsgd1na2vs0mg"},{"bike_id":"84cbad19-a181-4793-8737-8afbbc31cc1e","system_id":"levelo_inurba_marseille","lat":43.284219,"lon":5.3497,"is_reserved":false,"is_disabled":false,"rental_uris":{"android":"levelo://app?vid=84cbad19-a181-4793-8737-8afbbc31cc1e","ios":"levelo://app?vid=84cbad19-a181-4793-8737-8afbbc31cc1e"},"vehicle_type_id":"4","last_reported":1716124019,"current_range_meters":18400,"station_id":"ce4bhbh2rcd13ifvqepg","pricing_plan_id":"cebpf4jnsgd1na2vs0mg"},{"bike_id":"4d839b9a-e674-4666-9b41-91c3caa576d3","system_id":"levelo_inurba_marseille","lat":43.2842,"lon":5.3498,"is_reserved":false,"is_disabled":false,"rental_uris":{"android":"levelo://app?vid=4d839b9a-e674-4666-9b41-91c3caa576d3","ios":"levelo://app?vid=4d839b9a-e674-4666-9b41-91c3caa576d3"},"vehicle_type_id":"4","last_reported":1716124019,"current_range_meters":5600,"station_id":"ce4bhbh2rcd13ifvqepg","pricing_plan_id":"cebpf4jnsgd1na2vs0mg"},{"bike_id":"a0e4a82a-8820-46d2-94a5-fadd4bd5088e","system_id":"levelo_inurba_marseille","lat":43.284152,"lon":5.34995,"is_reserved":false,"is_disabled":false,"rental_uris":{"android":"levelo://app?vid=a0e4a82a-8820-46d2-94a5-fadd4bd5088e","ios":"levelo://app?vid=a0e4a82a-8820-46d2-94a5-fadd4bd5088e"},"vehicle_type_id":"4","last_reported":1716124019,"current_range_meters":18400,"station_id":"ce4bhbh2rcd13ifvqepg","pricing_plan_id":"cebpf4jnsgd1na2vs0mg"},{"bike_id":"8ee96f92-be3b-4a05-8554-d54d1a6d4cd3","system_id":"levelo_inurba_marseille","lat":43.284217,"lon":5.349697,"is_reserved":false,"is_disabled":false,"rental_uris":{"android":"levelo://app?vid=8ee96f92-be3b-4a05-8554-d54d1a6d4cd3","ios":"levelo://app?vid=8ee96f92-be3b-4a05-8554-d54d1a6d4cd3"},"vehicle_type_id":"4","last_reported":1716124019,"current_range_meters":13200,"station_id":"ce4bhbh2rcd13ifvqepg","pricing_plan_id":"cebpf4jnsgd1na2vs0mg"},{"bike_id":"e0638707-7ea7-4a20-81ea-102d82ceed02","system_id":"levelo_inurba_marseille","lat":43.284194,"lon":5.349797,"is_reserved":false,"is_disabled":false,"rental_uris":{"android":"levelo://app?vid=e0638707-7ea7-4a20-81ea-102d82ceed02","ios":"levelo://app?vid=e0638707-7ea7-4a20-81ea-102d82ceed02"},"vehicle_type_id":"4","last_reported":1716124019,"current_range_meters":21600,"station_id":"ce4bhbh2rcd13ifvqepg","pricing_plan_id":"cebpf4jnsgd1na2vs0mg"},{"bike_id":"ce274695-f1e8-4114-a93f-7da10b755893","system_id":"levelo_inurba_marseille","lat":43.28421,"lon":5.34974,"is_reserved":false,"is_disabled":false,"rental_uris":{"android":"levelo://app?vid=ce274695-f1e8-4114-a93f-7da10b755893","ios":"levelo://app?vid=ce274695-f1e8-4114-a93f-7da10b755893"},"vehicle_type_id":"4","last_reported":1716124019,"current_range_meters":0,"station_id":"ce4bhbh2rcd13ifvqepg","pricing_plan_id":"cebpf4jnsgd1na2vs0mg"},{"bike_id":"92f9de07-e02f-44a5-a12f-614f060b6dd9","system_id":"levelo_inurba_marseille","lat":43.28417,"lon":5.34979,"is_reserved":false,"is_disabled":false,"rental_uris":{"android":"levelo://app?vid=92f9de07-e02f-44a5-a12f-614f060b6dd9","ios":"levelo://app?vid=92f9de07-e02f-44a5-a12f-614f060b6dd9"},"vehicle_type_id":"4","last_reported":1716124019,"current_range_meters":26000,"station_id":"ce4bhbh2rcd13ifvqepg","pricing_plan_id":"cebpf4jnsgd1na2vs0mg"},{"bike_id":"2ec35f2a-6c20-43dc-bca3-0358eabf0b29","system_id":"levelo_inurba_marseille","lat":43.28414,"lon":5.34988,"is_reserved":false,"is_disabled":false,"rental_uris":{"android":"levelo://app?vid=2ec35f2a-6c20-43dc-bca3-0358eabf0b29","ios":"levelo://app?vid=2ec35f2a-6c20-43dc-bca3-0358eabf0b29"},"vehicle_type_id":"4","last_reported":1716124019,"current_range_meters":29600,"station_id":"ce4bhbh2rcd13ifvqepg","pricing_plan_id":"cebpf4jnsgd1na2vs0mg"},{"bike_id":"01d599fc-c0f6-4f69-b020-4c03b449a0ab","system_id":"levelo_inurba_marseille","lat":43.28413,"lon":5.34991,"is_reserved":false,"is_disabled":false,"rental_uris":{"android":"levelo://app?vid=01d599fc-c0f6-4f69-b020-4c03b449a0ab","ios":"levelo://app?vid=01d599fc-c0f6-4f69-b020-4c03b449a0ab"},"vehicle_type_id":"4","last_reported":1716124019,"current_range_meters":0,"station_id":"ce4bhbh2rcd13ifvqepg","pricing_plan_id":"cebpf4jnsgd1na2vs0mg"},{"bike_id":"d24f7628-5d73-47ee-a997-c03a690a1405","system_id":"levelo_inurba_marseille","lat":43.284145,"lon":5.349853,"is_reserved":false,"is_disabled":false,"rental_uris":{"android":"levelo://app?vid=d24f7628-5d73-47ee-a997-c03a690a1405","ios":"levelo://app?vid=d24f7628-5d73-47ee-a997-c03a690a1405"},"vehicle_type_id":"4","last_reported":1716124019,"current_range_meters":31200,"station_id":"ce4bhbh2rcd13ifvqepg","pricing_plan_id":"cebpf4jnsgd1na2vs0mg"},{"bike_id":"9ec72623-c7e3-4dd6-b7cd-8e58dcda80ea","system_id":"levelo_inurba_marseille","lat":43.284214,"lon":5.349706,"is_reserved":false,"is_disabled":false,"rental_uris":{"android":"levelo://app?vid=9ec72623-c7e3-4dd6-b7cd-8e58dcda80ea","ios":"levelo://app?vid=9ec72623-c7e3-4dd6-b7cd-8e58dcda80ea"},"vehicle_type_id":"4","last_reported":1716124019,"current_range_meters":31200,"station_id":"ce4bhbh2rcd13ifvqepg","pricing_plan_id":"cebpf4jnsgd1na2vs0mg"},{"bike_id":"d87e4ce9-39f1-4d4f-ad80-8939f0139eef","system_id":"levelo_inurba_marseille","lat":43.28413,"lon":5.34989,"is_reserved":false,"is_disabled":false,"rental_uris":{"android":"levelo://app?vid=d87e4ce9-39f1-4d4f-ad80-8939f0139eef","ios":"levelo://app?vid=d87e4ce9-39f1-4d4f-ad80-8939f0139eef"},"vehicle_type_id":"4","last_reported":1716124019,"current_range_meters":13600,"station_id":"ce4bhbh2rcd13ifvqepg","pricing_plan_id":"cebpf4jnsgd1na2vs0mg"},{"bike_id":"d0641dbc-c77d-4b4c-b365-95036ea7052f","system_id":"levelo_inurba_marseille","lat":43.28416,"lon":5.34979,"is_reserved":false,"is_disabled":false,"rental_uris":{"android":"levelo://app?vid=d0641dbc-c77d-4b4c-b365-95036ea7052f","ios":"levelo://app?vid=d0641dbc-c77d-4b4c-b365-95036ea7052f"},"vehicle_type_id":"4","last_reported":1716124019,"current_range_meters":20800,"station_id":"ce4bhbh2rcd13ifvqepg","pricing_plan_id":"cebpf4jnsgd1na2vs0mg"},{"bike_id":"797a97b2-d1ab-465d-aa18-2720edab5c6e","system_id":"levelo_inurba_marseille","lat":43.28412,"lon":5.34991,"is_reserved":false,"is_disabled":false,"rental_uris":{"android":"levelo://app?vid=797a97b2-d1ab-465d-aa18-2720edab5c6e","ios":"levelo://app?vid=797a97b2-d1ab-465d-aa18-2720edab5c6e"},"vehicle_type_id":"4","last_reported":1716124019,"current_range_meters":21600,"station_id":"ce4bhbh2rcd13ifvqepg","pricing_plan_id":"cebpf4jnsgd1na2vs0mg"},{"bike_id":"3a46a01f-fba6-4cf1-a393-af33a4c7682b","system_id":"levelo_inurba_marseille","lat":43.284173,"lon":5.349742,"is_reserved":false,"is_disabled":false,"rental_uris":{"android":"levelo://app?vid=3a46a01f-fba6-4cf1-a393-af33a4c7682b","ios":"levelo://app?vid=3a46a01f-fba6-4cf1-a393-af33a4c7682b"},"vehicle_type_id":"4","last_reported":1716124019,"current_range_meters":8400,"station_id":"ce4bhbh2rcd13ifvqepg","pricing_plan_id":"cebpf4jnsgd1na2vs0mg"},{"bike_id":"cdb85bd2-99f5-49f2-b24c-be4d4161c5c3","system_id":"levelo_inurba_marseille","lat":43.28411,"lon":5.34992,"is_reserved":false,"is_disabled":false,"rental_uris":{"android":"levelo://app?vid=cdb85bd2-99f5-49f2-b24c-be4d4161c5c3","ios":"levelo://app?vid=cdb85bd2-99f5-49f2-b24c-be4d4161c5c3"},"vehicle_type_id":"4","last_reported":1716124019,"current_range_meters":20000,"station_id":"ce4bhbh2rcd13ifvqepg","pricing_plan_id":"cebpf4jnsgd1na2vs0mg"},{"bike_id":"3139048e-bef7-4139-af0f-b2177fe8726a","system_id":"levelo_inurba_marseille","lat":43.28414,"lon":5.34982,"is_reserved":false,"is_disabled":false,"rental_uris":{"android":"levelo://app?vid=3139048e-bef7-4139-af0f-b2177fe8726a","ios":"levelo://app?vid=3139048e-bef7-4139-af0f-b2177fe8726a"},"vehicle_type_id":"4","last_reported":1716124019,"current_range_meters":10800,"station_id":"ce4bhbh2rcd13ifvqepg","pricing_plan_id":"cebpf4jnsgd1na2vs0mg"},{"bike_id":"5900f79e-d3b2-4932-ab89-be2c04f3a58f","system_id":"levelo_inurba_marseille","lat":43.28414,"lon":5.3498,"is_reserved":false,"is_disabled":false,"rental_uris":{"android":"levelo://app?vid=5900f79e-d3b2-4932-ab89-be2c04f3a58f","ios":"levelo://app?vid=5900f79e-d3b2-4932-ab89-be2c04f3a58f"},"vehicle_type_id":"4","last_reported":1716124019,"current_range_meters":0,"station_id":"ce4bhbh2rcd13ifvqepg","pricing_plan_id":"cebpf4jnsgd1na2vs0mg"},{"bike_id":"f953492c-2950-4bd8-b476-abd6e69a4afd","system_id":"levelo_inurba_marseille","lat":43.284123,"lon":5.349819,"is_reserved":false,"is_disabled":false,"rental_uris":{"android":"levelo://app?vid=f953492c-2950-4bd8-b476-abd6e69a4afd","ios":"levelo://app?vid=f953492c-2950-4bd8-b476-abd6e69a4afd"},"vehicle_type_id":"4","last_reported":1716124019,"current_range_meters":0,"station_id":"ce4bhb12rcd13ifvqem0","pricing_plan_id":"cebpf4jnsgd1na2vs0mg"},{"bike_id":"7f4936cd-19d8-4523-a002-5e0b13071efd","system_id":"levelo_inurba_marseille","lat":43.284214,"lon":5.349706,"is_reserved":false,"is_disabled":false,"rental_uris":{"android":"levelo://app?vid=7f4936cd-19d8-4523-a002-5e0b13071efd","ios":"levelo://app?vid=7f4936cd-19d8-4523-a002-5e0b13071efd"},"vehicle_type_id":"4","last_reported":1716124019,"current_range_meters":8800,"station_id":"ce4bhbh2rcd13ifvqepg","pricing_plan_id":"cebpf4jnsgd1na2vs0mg"},{"bike_id":"64e8dc7e-8e41-4ed2-a94f-350eb645a14f","system_id":"levelo_inurba_marseille","lat":43.2841,"lon":5.34985,"is_reserved":false,"is_disabled":false,"rental_uris":{"android":"levelo://app?vid=64e8dc7e-8e41-4ed2-a94f-350eb645a14f","ios":"levelo://app?vid=64e8dc7e-8e41-4ed2-a94f-350eb645a14f"},"vehicle_type_id":"4","last_reported":1716124019,"current_range_meters":4800,"station_id":"ce4bhbh2rcd13ifvqepg","pricing_plan_id":"cebpf4jnsgd1na2vs0mg"},{"bike_id":"1d897259-a91c-4956-b973-f8b63e4d0bc6","system_id":"levelo_inurba_marseille","lat":43.284214,"lon":5.349706,"is_reserved":false,"is_disabled":false,"rental_uris":{"android":"levelo://app?vid=1d897259-a91c-4956-b973-f8b63e4d0bc6","ios":"levelo://app?vid=1d897259-a91c-4956-b973-f8b63e4d0bc6"},"vehicle_type_id":"4","last_reported":1716124019,"current_range_meters":17200,"station_id":"ce4bhbh2rcd13ifvqepg","pricing_plan_id":"cebpf4jnsgd1na2vs0mg"},{"bike_id":"b051df75-caa2-45fa-b1eb-3ed4fc4e7456","system_id":"levelo_inurba_marseille","lat":43.28406,"lon":5.34994,"is_reserved":false,"is_disabled":false,"rental_uris":{"android":"levelo://app?vid=b051df75-caa2-45fa-b1eb-3ed4fc4e7456","ios":"levelo://app?vid=b051df75-caa2-45fa-b1eb-3ed4fc4e7456"},"vehicle_type_id":"4","last_reported":1716124019,"current_range_meters":2800,"station_id":"ce4bhbh2rcd13ifvqepg","pricing_plan_id":"cebpf4jnsgd1na2vs0mg"},{"bike_id":"cdb547a7-0948-44e7-a1fa-a734739edf85","system_id":"levelo_inurba_marseille","lat":43.28411,"lon":5.34976,"is_reserved":false,"is_disabled":false,"rental_uris":{"android":"levelo://app?vid=cdb547a7-0948-44e7-a1fa-a734739edf85","ios":"levelo://app?vid=cdb547a7-0948-44e7-a1fa-a734739edf85"},"vehicle_type_id":"4","last_reported":1716124019,"current_range_meters":7200,"station_id":"ce4bhbh2rcd13ifvqepg","pricing_plan_id":"cebpf4jnsgd1na2vs0mg"},{"bike_id":"2817272c-64c2-418a-be5c-0eae158e52c1","system_id":"levelo_inurba_marseille","lat":43.284214,"lon":5.349706,"is_reserved":false,"is_disabled":false,"rental_uris":{"android":"levelo://app?vid=2817272c-64c2-418a-be5c-0eae158e52c1","ios":"levelo://app?vid=2817272c-64c2-418a-be5c-0eae158e52c1"},"vehicle_type_id":"4","last_reported":1716124019,"current_range_meters":1200,"station_id":"ce4bhbh2rcd13ifvqepg","pricing_plan_id":"cebpf4jnsgd1na2vs0mg"},{"bike_id":"54bb617b-4422-4b4e-bf98-078be28f8244","system_id":"levelo_inurba_marseille","lat":43.284214,"lon":5.349706,"is_reserved":false,"is_disabled":false,"rental_uris":{"android":"levelo://app?vid=54bb617b-4422-4b4e-bf98-078be28f8244","ios":"levelo://app?vid=54bb617b-4422-4b4e-bf98-078be28f8244"},"vehicle_type_id":"4","last_reported":1716124019,"current_range_meters":2400,"station_id":"ce4bhbh2rcd13ifvqepg","pricing_plan_id":"cebpf4jnsgd1na2vs0mg"},{"bike_id":"6a9740ed-0253-46ef-bf54-f7718eccc2b9","system_id":"levelo_inurba_marseille","lat":43.284103,"lon":5.349723,"is_reserved":false,"is_disabled":false,"rental_uris":{"android":"levelo://app?vid=6a9740ed-0253-46ef-bf54-f7718eccc2b9","ios":"levelo://app?vid=6a9740ed-0253-46ef-bf54-f7718eccc2b9"},"vehicle_type_id":"4","last_reported":1716124019,"current_range_meters":18800,"station_id":"ce4bhbh2rcd13ifvqepg","pricing_plan_id":"cebpf4jnsgd1na2vs0mg"},{"bike_id":"ff1a3843-5486-4d61-8866-cd37b89a068a","system_id":"levelo_inurba_marseille","lat":43.28407,"lon":5.34982,"is_reserved":false,"is_disabled":false,"rental_uris":{"android":"levelo://app?vid=ff1a3843-5486-4d61-8866-cd37b89a068a","ios":"levelo://app?vid=ff1a3843-5486-4d61-8866-cd37b89a068a"},"vehicle_type_id":"4","last_reported":1716124019,"current_range_meters":29600,"station_id":"ce4bhbh2rcd13ifvqepg","pricing_plan_id":"cebpf4jnsgd1na2vs0mg"},{"bike_id":"117195b8-90c3-4933-b170-387c4c61ee01","system_id":"levelo_inurba_marseille","lat":43.28409,"lon":5.3497,"is_reserved":false,"is_disabled":false,"rental_uris":{"android":"levelo://app?vid=117195b8-90c3-4933-b170-387c4c61ee01","ios":"levelo://app?vid=117195b8-90c3-4933-b170-387c4c61ee01"},"vehicle_type_id":"4","last_reported":1716124019,"current_range_meters":24400,"station_id":"ce4bhbh2rcd13ifvqepg","pricing_plan_id":"cebpf4jnsgd1na2vs0mg"},{"bike_id":"edc0fd00-12ec-4472-8897-d3397f4814d3","system_id":"levelo_inurba_marseille","lat":43.28404,"lon":5.34982,"is_reserved":false,"is_disabled":false,"rental_uris":{"android":"levelo://app?vid=edc0fd00-12ec-4472-8897-d3397f4814d3","ios":"levelo://app?vid=edc0fd00-12ec-4472-8897-d3397f4814d3"},"vehicle_type_id":"4","last_reported":1716124019,"current_range_meters":31200,"station_id":"ce4bhbh2rcd13ifvqepg","pricing_plan_id":"cebpf4jnsgd1na2vs0mg"},{"bike_id":"25e13b83-4a4a-40dc-b038-f9105a57bb8d","system_id":"levelo_inurba_marseille","lat":43.292724,"lon":5.401131,"is_reserved":false,"is_disabled":false,"rental_uris":{"android":"levelo://app?vid=25e13b83-4a4a-40dc-b038-f9105a57bb8d","ios":"levelo://app?vid=25e13b83-4a4a-40dc-b038-f9105a57bb8d"},"vehicle_type_id":"4","last_reported":1716124019,"current_range_meters":18000,"station_id":"ce4bh312rcd13ifvqdk0","pricing_plan_id":"cebpf4jnsgd1na2vs0mg"},{"bike_id":"ac157183-a0a2-4dc3-aebb-f473ce3d3087","system_id":"levelo_inurba_marseille","lat":43.28278,"lon":5.3508,"is_reserved":false,"is_disabled":false,"rental_uris":{"android":"levelo://app?vid=ac157183-a0a2-4dc3-aebb-f473ce3d3087","ios":"levelo://app?vid=ac157183-a0a2-4dc3-aebb-f473ce3d3087"},"vehicle_type_id":"4","last_reported":1716124019,"current_range_meters":18400,"station_id":"ce4bhbp2rcd13ifvqerg","pricing_plan_id":"cebpf4jnsgd1na2vs0mg"},{"bike_id":"045fd4ef-98f4-479c-a204-ed5c9df2cf70","system_id":"levelo_inurba_marseille","lat":43.282717,"lon":5.350863,"is_reserved":false,"is_disabled":false,"rental_uris":{"android":"levelo://app?vid=045fd4ef-98f4-479c-a204-ed5c9df2cf70","ios":"levelo://app?vid=045fd4ef-98f4-479c-a204-ed5c9df2cf70"},"vehicle_type_id":"4","last_reported":1716124019,"current_range_meters":18000,"station_id":"ce4bhbp2rcd13ifvqerg","pricing_plan_id":"cebpf4jnsgd1na2vs0mg"},{"bike_id":"47893ed3-cbf2-49cb-87ff-3cb1e269cd18","system_id":"levelo_inurba_marseille","lat":43.28272,"lon":5.35085,"is_reserved":false,"is_disabled":false,"rental_uris":{"android":"levelo://app?vid=47893ed3-cbf2-49cb-87ff-3cb1e269cd18","ios":"levelo://app?vid=47893ed3-cbf2-49cb-87ff-3cb1e269cd18"},"vehicle_type_id":"4","last_reported":1716124019,"current_range_meters":27200,"station_id":"ce4bhbp2rcd13ifvqerg","pricing_plan_id":"cebpf4jnsgd1na2vs0mg"},{"bike_id":"d2db513b-0b24-4fc4-b16b-fc20b50167ea","system_id":"levelo_inurba_marseille","lat":43.282744,"lon":5.350533,"is_reserved":false,"is_disabled":false,"rental_uris":{"android":"levelo://app?vid=d2db513b-0b24-4fc4-b16b-fc20b50167ea","ios":"levelo://app?vid=d2db513b-0b24-4fc4-b16b-fc20b50167ea"},"vehicle_type_id":"4","last_reported":1716124019,"current_range_meters":15600,"station_id":"ce4bhbp2rcd13ifvqerg","pricing_plan_id":"cebpf4jnsgd1na2vs0mg"},{"bike_id":"7f418cde-512e-43dc-9415-68536a0f3cf5","system_id":"levelo_inurba_marseille","lat":43.282744,"lon":5.350533,"is_reserved":false,"is_disabled":false,"rental_uris":{"android":"levelo://app?vid=7f418cde-512e-43dc-9415-68536a0f3cf5","ios":"levelo://app?vid=7f418cde-512e-43dc-9415-68536a0f3cf5"},"vehicle_type_id":"4","last_reported":1716124019,"current_range_meters":10800,"station_id":"ce4bhbp2rcd13ifvqerg","pricing_plan_id":"cebpf4jnsgd1na2vs0mg"},{"bike_id":"b65bb510-9ed9-4890-85e2-edbc019ef0ed","system_id":"levelo_inurba_marseille","lat":43.282713,"lon":5.350707,"is_reserved":false,"is_disabled":false,"rental_uris":{"android":"levelo://app?vid=b65bb510-9ed9-4890-85e2-edbc019ef0ed","ios":"levelo://app?vid=b65bb510-9ed9-4890-85e2-edbc019ef0ed"},"vehicle_type_id":"4","last_reported":1716124019,"current_range_meters":19200,"station_id":"ce4bhbp2rcd13ifvqerg","pricing_plan_id":"cebpf4jnsgd1na2vs0mg"},{"bike_id":"a43a6e51-271d-4f72-b6f5-bf714ccfdb16","system_id":"levelo_inurba_marseille","lat":43.282744,"lon":5.350533,"is_reserved":false,"is_disabled":false,"rental_uris":{"android":"levelo://app?vid=a43a6e51-271d-4f72-b6f5-bf714ccfdb16","ios":"levelo://app?vid=a43a6e51-271d-4f72-b6f5-bf714ccfdb16"},"vehicle_type_id":"4","last_reported":1716124019,"current_range_meters":21600,"station_id":"ce4bhbp2rcd13ifvqerg","pricing_plan_id":"cebpf4jnsgd1na2vs0mg"},{"bike_id":"829be5f1-1200-4463-afd8-dbd1e9acbd85","system_id":"levelo_inurba_marseille","lat":43.282744,"lon":5.350533,"is_reserved":false,"is_disabled":false,"rental_uris":{"android":"levelo://app?vid=829be5f1-1200-4463-afd8-dbd1e9acbd85","ios":"levelo://app?vid=829be5f1-1200-4463-afd8-dbd1e9acbd85"},"vehicle_type_id":"4","last_reported":1716124019,"current_range_meters":15600,"station_id":"ce4bhbp2rcd13ifvqerg","pricing_plan_id":"cebpf4jnsgd1na2vs0mg"},{"bike_id":"8f7b3406-0a6c-484d-88dd-788ad167084d","system_id":"levelo_inurba_marseille","lat":43.2827,"lon":5.350702,"is_reserved":false,"is_disabled":false,"rental_uris":{"android":"levelo://app?vid=8f7b3406-0a6c-484d-88dd-788ad167084d","ios":"levelo://app?vid=8f7b3406-0a6c-484d-88dd-788ad167084d"},"vehicle_type_id":"4","last_reported":1716124019,"current_range_meters":9600,"station_id":"ce4bhbp2rcd13ifvqerg","pricing_plan_id":"cebpf4jnsgd1na2vs0mg"},{"bike_id":"a6eecb75-38e2-41ea-8950-3962092889d6","system_id":"levelo_inurba_marseille","lat":43.282744,"lon":5.350533,"is_reserved":false,"is_disabled":false,"rental_uris":{"android":"levelo://app?vid=a6eecb75-38e2-41ea-8950-3962092889d6","ios":"levelo://app?vid=a6eecb75-38e2-41ea-8950-3962092889d6"},"vehicle_type_id":"4","last_reported":1716124019,"current_range_meters":22800,"station_id":"ce4bhbp2rcd13ifvqerg","pricing_plan_id":"cebpf4jnsgd1na2vs0mg"},{"bike_id":"2e1e1a88-1941-4251-923e-f2d63b0a77a7","system_id":"levelo_inurba_marseille","lat":43.282744,"lon":5.350533,"is_reserved":false,"is_disabled":false,"rental_uris":{"android":"levelo://app?vid=2e1e1a88-1941-4251-923e-f2d63b0a77a7","ios":"levelo://app?vid=2e1e1a88-1941-4251-923e-f2d63b0a77a7"},"vehicle_type_id":"4","last_reported":1716124019,"current_range_meters":1600,"station_id":"ce4bhbp2rcd13ifvqerg","pricing_plan_id":"cebpf4jnsgd1na2vs0mg"},{"bike_id":"a5b99c9f-8430-429f-a525-1b516bc2db60","system_id":"levelo_inurba_marseille","lat":43.282744,"lon":5.350533,"is_reserved":false,"is_disabled":false,"rental_uris":{"android":"levelo://app?vid=a5b99c9f-8430-429f-a525-1b516bc2db60","ios":"levelo://app?vid=a5b99c9f-8430-429f-a525-1b516bc2db60"},"vehicle_type_id":"4","last_reported":1716124019,"current_range_meters":0,"station_id":"ce4bhbp2rcd13ifvqerg","pricing_plan_id":"cebpf4jnsgd1na2vs0mg"},{"bike_id":"5b7f678e-db4a-4f73-b062-c36fcdbdfa7b","system_id":"levelo_inurba_marseille","lat":43.28268,"lon":5.350734,"is_reserved":false,"is_disabled":false,"rental_uris":{"android":"levelo://app?vid=5b7f678e-db4a-4f73-b062-c36fcdbdfa7b","ios":"levelo://app?vid=5b7f678e-db4a-4f73-b062-c36fcdbdfa7b"},"vehicle_type_id":"4","last_reported":1716124019,"current_range_meters":23200,"station_id":"ce4bhbp2rcd13ifvqerg","pricing_plan_id":"cebpf4jnsgd1na2vs0mg"},{"bike_id":"837f7df7-8530-4564-8680-408f11248d8e","system_id":"levelo_inurba_marseille","lat":43.28271,"lon":5.35062,"is_reserved":false,"is_disabled":false,"rental_uris":{"android":"levelo://app?vid=837f7df7-8530-4564-8680-408f11248d8e","ios":"levelo://app?vid=837f7df7-8530-4564-8680-408f11248d8e"},"vehicle_type_id":"4","last_reported":1716124019,"current_range_meters":23200,"station_id":"ce4bhbp2rcd13ifvqerg","pricing_plan_id":"cebpf4jnsgd1na2vs0mg"},{"bike_id":"d51766fe-fff8-4c8c-94cd-76ac7ebc0e93","system_id":"levelo_inurba_marseille","lat":43.282744,"lon":5.350533,"is_reserved":false,"is_disabled":false,"rental_uris":{"android":"levelo://app?vid=d51766fe-fff8-4c8c-94cd-76ac7ebc0e93","ios":"levelo://app?vid=d51766fe-fff8-4c8c-94cd-76ac7ebc0e93"},"vehicle_type_id":"4","last_reported":1716124019,"current_range_meters":16400,"station_id":"ce4bhbp2rcd13ifvqerg","pricing_plan_id":"cebpf4jnsgd1na2vs0mg"},{"bike_id":"4682b22f-dd1f-418f-834a-2469e77c49cd","system_id":"levelo_inurba_marseille","lat":43.282676,"lon":5.350736,"is_reserved":false,"is_disabled":false,"rental_uris":{"android":"levelo://app?vid=4682b22f-dd1f-418f-834a-2469e77c49cd","ios":"levelo://app?vid=4682b22f-dd1f-418f-834a-2469e77c49cd"},"vehicle_type_id":"4","last_reported":1716124019,"current_range_meters":12400,"station_id":"ce4bhbp2rcd13ifvqerg","pricing_plan_id":"cebpf4jnsgd1na2vs0mg"},{"bike_id":"e2493e69-b109-44f2-8bc6-79e8f6332bed","system_id":"levelo_inurba_marseille","lat":43.282691,"lon":5.35068,"is_reserved":false,"is_disabled":false,"rental_uris":{"android":"levelo://app?vid=e2493e69-b109-44f2-8bc6-79e8f6332bed","ios":"levelo://app?vid=e2493e69-b109-44f2-8bc6-79e8f6332bed"},"vehicle_type_id":"4","last_reported":1716124019,"current_range_meters":26000,"station_id":"ce4bhbp2rcd13ifvqerg","pricing_plan_id":"cebpf4jnsgd1na2vs0mg"},{"bike_id":"429fdbc7-e5d5-46f1-a0a1-cb43034372df","system_id":"levelo_inurba_marseille","lat":43.28268,"lon":5.350707,"is_reserved":false,"is_disabled":false,"rental_uris":{"android":"levelo://app?vid=429fdbc7-e5d5-46f1-a0a1-cb43034372df","ios":"levelo://app?vid=429fdbc7-e5d5-46f1-a0a1-cb43034372df"},"vehicle_type_id":"4","last_reported":1716124019,"current_range_meters":27200,"station_id":"ce4bhbp2rcd13ifvqerg","pricing_plan_id":"cebpf4jnsgd1na2vs0mg"},