{"last_updated":1724350266,"ttl":30,"version":"2.2","data":{"bikes":[{"bike_id":"2968a35c-24c1-4adc-a1af-66483cb6e81b","system_id":"levelo_inurba_marseille","lat":43.312239,"lon":5.368562,"is_reserved":false,"is_disabled":false,"rental_uris":{"android":"levelo://app?vid=2968a35c-24c1-4adc-a1af-66483cb6e81b","ios":"levelo://app?vid=2968a35c-24c1-4adc-a1af-66483cb6e81b"},"vehicle_type_id":"4","last_reported":1724350267,"current_range_meters":0,"station_id":"ce4bgl92rcd13ifvqbq0","pricing_plan_id":"cebpf4jnsgd1na2vs0mg"},{"bike_id":"7610d1e3-28a7-4eff-8066-a72ecf8c9218","system_id":"levelo_inurba_marseille","lat":43.314811,"lon":5.373103,"is_reserved":false,"is_disabled":false,"rental_uris":{"android":"levelo://app?vid=7610d1e3-28a7-4eff-8066-a72ecf8c9218","ios":"levelo://app?vid=7610d1e3-28a7-4eff-8066-a72ecf8c9218"},"vehicle_type_id":"4","last_reported":1724350267,"current_range_meters":28400,"station_id":"ce4bgt12rcd13ifvqcd0","pricing_plan_id":"cebpf4jnsgd1na2vs0mg"},{"bike_id":"b463510f-5faa-46fd-abec-8f3597b208da","system_id":"levelo_inurba_marseille","lat":43.3149,"lon":5.37306,"is_reserved":false,"is_disabled":false,"rental_uris":{"android":"levelo://app?vid=b463510f-5faa-46fd-abec-8f3597b208da","ios":"levelo://app?vid=b463510f-5faa-46fd-abec-8f3597b208da"},"vehicle_type_id":"4","last_reported":1724350267,"current_range_meters":0,"station_id":"ce4bgt12rcd13ifvqcd0","pricing_plan_id":"cebpf4jnsgd1na2vs0mg"},{"bike_id":"705126a4-4aa5-4c93-b900-e970a26a7852","system_id":"levelo_inurba_marseille","lat":43.309039,"lon":5.371797,"is_reserved":false,"is_disabled":false,"rental_uris":{"android":"levelo://app?vid=705126a4-4aa5-4c93-b900-e970a26a7852","ios":"levelo://app?vid=705126a4-4aa5-4c93-b900-e970a26a7852"},"vehicle_type_id":"4","last_reported":1724350267,"current_range_meters":2800,"station_id":"ce4bguh2rcd13ifvqckg","pricing_plan_id":"cebpf4jnsgd1na2vs0mg"},{"bike_id":"907b1499-90cc-49d1-86cb-1dcefb194d0d","system_id":"levelo_inurba_marseille","lat":43.309039,"lon":5.371797,"is_reserved":false,"is_disabled":false,"rental_uris":{"android":"levelo://app?vid=907b1499-90cc-49d1-86cb-1dcefb194d0d","ios":"levelo://app?vid=907b1499-90cc-49d1-86cb-1dcefb194d0d"},"vehicle_type_id":"4","last_reported":1724350267,"current_range_meters":0,"station_id":"ce4bguh2rcd13ifvqckg","pricing_plan_id":"cebpf4jnsgd1na2vs0mg"},{"bike_id":"11952d02-89ce-4cb1-aef5-5f72dbc8f5ae","system_id":"levelo_inurba_marseille","lat":43.30537,"lon":5.367345,"is_reserved":false,"is_disabled":false,"rental_uris":{"android":"levelo://app?vid=11952d02-89ce-4cb1-aef5-5f72dbc8f5ae","ios":"levelo://app?vid=11952d02-89ce-4cb1-aef5-5f72dbc8f5ae"},"vehicle_type_id":"4","last_reported":1724350267,"current_range_meters":10400,"station_id":"ce4bgrp2rcd13ifvqc9g","pricing_plan_id":"cebpf4jnsgd1na2vs0mg"},{"bike_id":"88562831-96a4-405e-b928-430e1d8f8843","system_id":"levelo_inurba_marseille","lat":43.305989,"lon":5.37225,"is_reserved":false,"is_disabled":false,"rental_uris":{"android":"levelo://app?vid=88562831-96a4-405e-b928-430e1d8f8843","ios":"levelo://app?vid=88562831-96a4-405e-b928-430e1d8f8843"},"vehicle_type_id":"4","last_reported":1724350267,"current_range_meters":3600,"station_id":"ce4bgqh2rcd13ifvqc4g","pricing_plan_id":"cebpf4jnsgd1na2vs0mg"},{"bike_id":"eaf680df-a8a1-4e24-adde-d47606a43228","system_id":"levelo_inurba_marseille","lat":43.311131,"lon":5.377651,"is_reserved":false,"is_disabled":false,"rental_uris":{"android":"levelo://app?vid=eaf680df-a8a1-4e24-adde-d47606a43228","ios":"levelo://app?vid=eaf680df-a8a1-4e24-adde-d47606a43228"},"vehicle_type_id":"4","last_reported":1724350267,"current_range_meters":0,"station_id":"ce4bgt92rcd13ifvqcg0","pricing_plan_id":"cebpf4jnsgd1na2vs0mg"},{"bike_id":"bcdc611c-9e34-4072-80b3-821c87fe15e8","system_id":"levelo_inurba_marseille","lat":43.311131,"lon":5.377651,"is_reserved":false,"is_disabled":false,"rental_uris":{"android":"levelo://app?vid=bcdc611c-9e34-4072-80b3-821c87fe15e8","ios":"levelo://app?vid=bcdc611c-9e34-4072-80b3-821c87fe15e8"},"vehicle_type_id":"4","last_reported":1724350267,"current_range_meters":400,"station_id":"ce4bgt92rcd13ifvqcg0","pricing_plan_id":"cebpf4jnsgd1na2vs0mg"},{"bike_id":"1b03c8da-8ace-43ab-9e19-e32cef461b4a","system_id":"levelo_inurba_marseille","lat":43.307945,"lon":5.376487,"is_reserved":false,"is_disabled":false,"rental_uris":{"android":"levelo://app?vid=1b03c8da-8ace-43ab-9e19-e32cef461b4a","ios":"levelo://app?vid=1b03c8da-8ace-43ab-9e19-e32cef461b4a"},"vehicle_type_id":"4","last_reported":1724350267,"current_range_meters":10800,"station_id":"ce4bgv92rcd13ifvqcq0","pricing_plan_id":"cebpf4jnsgd1na2vs0mg"},{"bike_id":"436664bd-dd06-4800-b14e-812ac6b300d5","system_id":"levelo_inurba_marseille","lat":43.307945,"lon":5.376487,"is_reserved":false,"is_disabled":false,"rental_uris":{"android":"levelo://app?vid=436664bd-dd06-4800-b14e-812ac6b300d5","ios":"levelo://app?vid=436664bd-dd06-4800-b14e-812ac6b300d5"},"vehicle_type_id":"4","last_reported":1724350267,"current_range_meters":12000,"station_id":"ce4bgv92rcd13ifvqcq0","pricing_plan_id":"cebpf4jnsgd1na2vs0mg"},{"bike_id":"edd3512e-49a8-48ab-95f4-5ba433ef3ca5","system_id":"levelo_inurba_marseille","lat":43.317075,"lon":5.377367,"is_reserved":false,"is_disabled":false,"rental_uris":{"android":"levelo://app?vid=edd3512e-49a8-48ab-95f4-5ba433ef3ca5","ios":"levelo://app?vid=edd3512e-49a8-48ab-95f4-5ba433ef3ca5"},"vehicle_type_id":"4","last_reported":1724350267,"current_range_meters":15200,"station_id":"ce4bgth2rcd13ifvqch0","pricing_plan_id":"cebpf4jnsgd1na2vs0mg"},{"bike_id":"fcd2c9ef-f7eb-48d4-8d9a-4321d6e6d1ac","system_id":"levelo_inurba_marseille","lat":43.30724,"lon":5.37747,"is_reserved":false,"is_disabled":false,"rental_uris":{"android":"levelo://app?vid=fcd2c9ef-f7eb-48d4-8d9a-4321d6e6d1ac","ios":"levelo://app?vid=fcd2c9ef-f7eb-48d4-8d9a-4321d6e6d1ac"},"vehicle_type_id":"4","last_reported":1724350267,"current_range_meters":16400,"station_id":"","pricing_plan_id":"cebpf4jnsgd1na2vs0mg"},{"bike_id":"79b34194-ade0-441f-afaf-d03ea8cc1e52","system_id":"levelo_inurba_marseille","lat":43.311472,"lon":5.379796,"is_reserved":false,"is_disabled":false,"rental_uris":{"android":"levelo://app?vid=79b34194-ade0-441f-afaf-d03ea8cc1e52","ios":"levelo://app?vid=79b34194-ade0-441f-afaf-d03ea8cc1e52"},"vehicle_type_id":"4","last_reported":1724350267,"current_range_meters":13600,"station_id":"","pricing_plan_id":"cebpf4jnsgd1na2vs0mg"},{"bike_id":"43421262-a9f8-44d1-9388-f65c498e3cc5","system_id":"levelo_inurba_marseille","lat":43.30304,"lon":5.368987,"is_reserved":false,"is_disabled":false,"rental_uris":{"android":"levelo://app?vid=43421262-a9f8-44d1-9388-f65c498e3cc5","ios":"levelo://app?vid=43421262-a9f8-44d1-9388-f65c498e3cc5"},"vehicle_type_id":"4","last_reported":1724350267,"current_range_meters":30800,"station_id":"ce4bgqh2rcd13ifvqc5g","pricing_plan_id":"cebpf4jnsgd1na2vs0mg"},{"bike_id":"4d7922c6-224a-4fee-933e-fe53585c4ac7","system_id":"levelo_inurba_marseille","lat":43.315289,"lon":5.380349,"is_reserved":false,"is_disabled":false,"rental_uris":{"android":"levelo://app?vid=4d7922c6-224a-4fee-933e-fe53585c4ac7","ios":"levelo://app?vid=4d7922c6-224a-4fee-933e-fe53585c4ac7"},"vehicle_type_id":"4","last_reported":1724350267,"current_range_meters":27200,"station_id":"ce4bhsp2rcd13ifvqi50","pricing_plan_id":"cebpf4jnsgd1na2vs0mg"},{"bike_id":"3890aa45-be94-4c84-81ff-7c546a5f9d78","system_id":"levelo_inurba_marseille","lat":43.31527,"lon":5.38036,"is_reserved":false,"is_disabled":false,"rental_uris":{"android":"levelo://app?vid=3890aa45-be94-4c84-81ff-7c546a5f9d78","ios":"levelo://app?vid=3890aa45-be94-4c84-81ff-7c546a5f9d78"},"vehicle_type_id":"4","last_reported":1724350267,"current_range_meters":17200,"station_id":"ce4bhsp2rcd13ifvqi50","pricing_plan_id":"cebpf4jnsgd1na2vs0mg"},{"bike_id":"e953c591-3cea-469b-9aee-9207eb8da58d","system_id":"levelo_inurba_marseille","lat":43.30513,"lon":5.37616,"is_reserved":false,"is_disabled":false,"rental_uris":{"android":"levelo://app?vid=e953c591-3cea-469b-9aee-9207eb8da58d","ios":"levelo://app?vid=e953c591-3cea-469b-9aee-9207eb8da58d"},"vehicle_type_id":"4","last_reported":1724350267,"current_range_meters":0,"station_id":"","pricing_plan_id":"cebpf4jnsgd1na2vs0mg"},{"bike_id":"8c6dc6d3-82ca-47cc-9a34-47d7131e5023","system_id":"levelo_inurba_marseille","lat":43.308012,"lon":5.381511,"is_reserved":false,"is_disabled":false,"rental_uris":{"android":"levelo://app?vid=8c6dc6d3-82ca-47cc-9a34-47d7131e5023","ios":"levelo://app?vid=8c6dc6d3-82ca-47cc-9a34-47d7131e5023"},"vehicle_type_id":"4","last_reported":1724350267,"current_range_meters":4000,"station_id":"ce4bgt12rcd13ifvqce0","pricing_plan_id":"cebpf4jnsgd1na2vs0mg"},{"bike_id":"4cef54c0-5a42-4605-b5ec-18f6b93cac95","system_id":"levelo_inurba_marseille","lat":43.308012,"lon":5.381511,"is_reserved":false,"is_disabled":false,"rental_uris":{"android":"levelo://app?vid=4cef54c0-5a42-4605-b5ec-18f6b93cac95","ios":"levelo://app?vid=4cef54c0-5a42-4605-b5ec-18f6b93cac95"},"vehicle_type_id":"4","last_reported":1724350267,"current_range_meters":1200,"station_id":"ce4bgt12rcd13ifvqce0","pricing_plan_id":"cebpf4jnsgd1na2vs0mg"},{"bike_id":"fe6c88b1-9200-48b9-a84a-c89c2c25a0c6","system_id":"levelo_inurba_marseille","lat":43.308012,"lon":5.381511,"is_reserved":false,"is_disabled":false,"rental_uris":{"android":"levelo://app?vid=fe6c88b1-9200-48b9-a84a-c89c2c25a0c6","ios":"levelo://app?vid=fe6c88b1-9200-48b9-a84a-c89c2c25a0c6"},"vehicle_type_id":"4","last_reported":1724350267,"current_range_meters":0,"station_id":"ce4bgt12rcd13ifvqce0","pricing_plan_id":"cebpf4jnsgd1na2vs0mg"},{"bike_id":"5288a860-a85f-4ec8-88af-d94ca2b2121a","system_id":"levelo_inurba_marseille","lat":43.30803,"lon":5.38149,"is_reserved":false,"is_disabled":false,"rental_uris":{"android":"levelo://app?vid=5288a860-a85f-4ec8-88af-d94ca2b2121a","ios":"levelo://app?vid=5288a860-a85f-4ec8-88af-d94ca2b2121a"},"vehicle_type_id":"4","last_reported":1724350267,"current_range_meters":5600,"station_id":"ce4bgg92rcd13ifvqb30","pricing_plan_id":"cebpf4jnsgd1na2vs0mg"},{"bike_id":"348e349d-6e7f-45d7-b546-6c7c893ac065","system_id":"levelo_inurba_marseille","lat":43.308012,"lon":5.381511,"is_reserved":false,"is_disabled":false,"rental_uris":{"android":"levelo://app?vid=348e349d-6e7f-45d7-b546-6c7c893ac065","ios":"levelo://app?vid=348e349d-6e7f-45d7-b546-6c7c893ac065"},"vehicle_type_id":"4","last_reported":1724350267,"current_range_meters":0,"station_id":"ce4bgt12rcd13ifvqce0","pricing_plan_id":"cebpf4jnsgd1na2vs0mg"},{"bike_id":"fa0b032d-190e-4b9e-9978-4cdb54ba9e15","system_id":"levelo_inurba_marseille","lat":43.324771,"lon":5.36557,"is_reserved":false,"is_disabled":false,"rental_uris":{"android":"levelo://app?vid=fa0b032d-190e-4b9e-9978-4cdb54ba9e15","ios":"levelo://app?vid=fa0b032d-190e-4b9e-9978-4cdb54ba9e15"},"vehicle_type_id":"4","last_reported":1724350267,"current_range_meters":27600,"station_id":"ce4bhs12rcd13ifvqhvg","pricing_plan_id":"cebpf4jnsgd1na2vs0mg"},{"bike_id":"cece115d-85e2-4f86-bf16-6cb396f8a350","system_id":"levelo_inurba_marseille","lat":43.32486,"lon":5.36573,"is_reserved":false,"is_disabled":false,"rental_uris":{"android":"levelo://app?vid=cece115d-85e2-4f86-bf16-6cb396f8a350","ios":"levelo://app?vid=cece115d-85e2-4f86-bf16-6cb396f8a350"},"vehicle_type_id":"4","last_reported":1724350267,"current_range_meters":22800,"station_id":"ce4bhs12rcd13ifvqhvg","pricing_plan_id":"cebpf4jnsgd1na2vs0mg"},{"bike_id":"4b068ad2-1221-4476-9487-2b7eb5619d8a","system_id":"levelo_inurba_marseille","lat":43.31366,"lon":5.38364,"is_reserved":false,"is_disabled":false,"rental_uris":{"android":"levelo://app?vid=4b068ad2-1221-4476-9487-2b7eb5619d8a","ios":"levelo://app?vid=4b068ad2-1221-4476-9487-2b7eb5619d8a"},"vehicle_type_id":"4","last_reported":1724350267,"current_range_meters":13600,"station_id":"","pricing_plan_id":"cebpf4jnsgd1na2vs0mg"},{"bike_id":"acc85d97-550e-4fe2-a59a-64512b6aa784","system_id":"levelo_inurba_marseille","lat":43.310804,"lon":5.38359,"is_reserved":false,"is_disabled":false,"rental_uris":{"android":"levelo://app?vid=acc85d97-550e-4fe2-a59a-64512b6aa784","ios":"levelo://app?vid=acc85d97-550e-4fe2-a59a-64512b6aa784"},"vehicle_type_id":"4","last_reported":1724350267,"current_range_meters":400,"station_id":"ce4bgv92rcd13ifvqcr0","pricing_plan_id":"cebpf4jnsgd1na2vs0mg"},{"bike_id":"5c3e96b9-6fd8-4805-aff6-a7d50b4bd200","system_id":"levelo_inurba_marseille","lat":43.310804,"lon":5.38359,"is_reserved":false,"is_disabled":false,"rental_uris":{"android":"levelo://app?vid=5c3e96b9-6fd8-4805-aff6-a7d50b4bd200","ios":"levelo://app?vid=5c3e96b9-6fd8-4805-aff6-a7d50b4bd200"},"vehicle_type_id":"4","last_reported":1724350267,"current_range_meters":6800,"station_id":"ce4bgv92rcd13ifvqcr0","pricing_plan_id":"cebpf4jnsgd1na2vs0mg"},{"bike_id":"698fc22e-21d7-4a84-beb1-38aa1e243de7","system_id":"levelo_inurba_marseille","lat":43.302784,"lon":5.377158,"is_reserved":false,"is_disabled":false,"rental_uris":{"android":"levelo://app?vid=698fc22e-21d7-4a84-beb1-38aa1e243de7","ios":"levelo://app?vid=698fc22e-21d7-4a84-beb1-38aa1e243de7"},"vehicle_type_id":"4","last_reported":1724350267,"current_range_meters":400,"station_id":"ce4bguh2rcd13ifvqcj0","pricing_plan_id":"cebpf4jnsgd1na2vs0mg"},{"bike_id":"ea57259a-be62-4cd6-bf1d-12467d4a99b3","system_id":"levelo_inurba_marseille","lat":43.301429,"lon":5.37413,"is_reserved":false,"is_disabled":false,"rental_uris":{"android":"levelo://app?vid=ea57259a-be62-4cd6-bf1d-12467d4a99b3","ios":"levelo://app?vid=ea57259a-be62-4cd6-bf1d-12467d4a99b3"},"vehicle_type_id":"4","last_reported":1724350267,"current_range_meters":16400,"station_id":"ce4bgs92rcd13ifvqcc0","pricing_plan_id":"cebpf4jnsgd1na2vs0mg"},{"bike_id":"dcde4260-5021-4467-a72e-de696946a0bf","system_id":"levelo_inurba_marseille","lat":43.31995,"lon":5.38146,"is_reserved":false,"is_disabled":false,"rental_uris":{"android":"levelo://app?vid=dcde4260-5021-4467-a72e-de696946a0bf","ios":"levelo://app?vid=dcde4260-5021-4467-a72e-de696946a0bf"},"vehicle_type_id":"4","last_reported":1724350267,"current_range_meters":31200,"station_id":"ce4bhr12rcd13ifvqhpg","pricing_plan_id":"cebpf4jnsgd1na2vs0mg"},{"bike_id":"b52d43b4-5b1e-4c42-a19b-f68dca8c3ef6","system_id":"levelo_inurba_marseille","lat":43.31998,"lon":5.38159,"is_reserved":false,"is_disabled":false,"rental_uris":{"android":"levelo://app?vid=b52d43b4-5b1e-4c42-a19b-f68dca8c3ef6","ios":"levelo://app?vid=b52d43b4-5b1e-4c42-a19b-f68dca8c3ef6"},"vehicle_type_id":"4","last_reported":1724350267,"current_range_meters":5200,"station_id":"ce4bhr12rcd13ifvqhpg","pricing_plan_id":"cebpf4jnsgd1na2vs0mg"},{"bike_id":"74e7bc1e-5b4c-4ae5-90cd-f98efc54a0c7","system_id":"levelo_inurba_marseille","lat":43.319935,"lon":5.381699,"is_reserved":false,"is_disabled":false,"rental_uris":{"android":"levelo://app?vid=74e7bc1e-5b4c-4ae5-90cd-f98efc54a0c7","ios":"levelo://app?vid=74e7bc1e-5b4c-4ae5-90cd-f98efc54a0c7"},"vehicle_type_id":"4","last_reported":1724350267,"current_range_meters":14800,"station_id":"ce4bhr12rcd13ifvqhpg","pricing_plan_id":"cebpf4jnsgd1na2vs0mg"},{"bike_id":"45ed40b5-f41e-4dc6-86e3-cb409aa29120","system_id":"levelo_inurba_marseille","lat":43.313571,"lon":5.384829,"is_reserved":false,"is_disabled":false,"rental_uris":{"android":"levelo://app?vid=45ed40b5-f41e-4dc6-86e3-cb409aa29120","ios":"levelo://app?vid=45ed40b5-f41e-4dc6-86e3-cb409aa29120"},"vehicle_type_id":"4","last_reported":1724350267,"current_range_meters":18400,"station_id":"ce4bgt92rcd13ifvqcf0","pricing_plan_id":"cebpf4jnsgd1na2vs0mg"},{"bike_id":"ed86402e-0232-4f5c-a523-4c6694d3d5f0","system_id":"levelo_inurba_marseille","lat":43.313571,"lon":5.384829,"is_reserved":false,"is_disabled":false,"rental_uris":{"android":"levelo://app?vid=ed86402e-0232-4f5c-a523-4c6694d3d5f0","ios":"levelo://app?vid=ed86402e-0232-4f5c-a523-4c6694d3d5f0"},"vehicle_type_id":"4","last_reported":1724350267,"current_range_meters":0,"station_id":"ce4bgt92rcd13ifvqcf0","pricing_plan_id":"cebpf4jnsgd1na2vs0mg"},{"bike_id":"ac993d24-e741-4d00-a2e3-d7b232870ead","system_id":"levelo_inurba_marseille","lat":43.29886,"lon":5.36316,"is_reserved":false,"is_disabled":false,"rental_uris":{"android":"levelo://app?vid=ac993d24-e741-4d00-a2e3-d7b232870ead","ios":"levelo://app?vid=ac993d24-e741-4d00-a2e3-d7b232870ead"},"vehicle_type_id":"4","last_reported":1724350267,"current_range_meters":7200,"station_id":"","pricing_plan_id":"cebpf4jnsgd1na2vs0mg"},{"bike_id":"ae11d89a-9606-44c0-8aae-1d23f4ac50de","system_id":"levelo_inurba_marseille","lat":43.298433,"lon":5.362774,"is_reserved":false,"is_disabled":false,"rental_uris":{"android":"levelo://app?vid=ae11d89a-9606-44c0-8aae-1d23f4ac50de","ios":"levelo://app?vid=ae11d89a-9606-44c0-8aae-1d23f4ac50de"},"vehicle_type_id":"4","last_reported":1724350267,"current_range_meters":14000,"station_id":"ce4bgpp2rcd13ifvqc3g","pricing_plan_id":"cebpf4jnsgd1na2vs0mg"},{"bike_id":"aa724f00-ece9-4904-b518-5744731ec14c","system_id":"levelo_inurba_marseille","lat":43.298433,"lon":5.362774,"is_reserved":false,"is_disabled":false,"rental_uris":{"android":"levelo://app?vid=aa724f00-ece9-4904-b518-5744731ec14c","ios":"levelo://app?vid=aa724f00-ece9-4904-b518-5744731ec14c"},"vehicle_type_id":"4","last_reported":1724350267,"current_range_meters":2800,"station_id":"ce4bgpp2rcd13ifvqc3g","pricing_plan_id":"cebpf4jnsgd1na2vs0mg"},{"bike_id":"33579863-c524-47ae-aad7-e8e0a27fcc4a","system_id":"levelo_inurba_marseille","lat":43.299243,"lon":5.37481,"is_reserved":false,"is_disabled":false,"rental_uris":{"android":"levelo://app?vid=33579863-c524-47ae-aad7-e8e0a27fcc4a","ios":"levelo://app?vid=33579863-c524-47ae-aad7-e8e0a27fcc4a"},"vehicle_type_id":"4","last_reported":1724350267,"current_range_meters":0,"station_id":"ce4bgjh2rcd13ifvqbg0","pricing_plan_id":"cebpf4jnsgd1na2vs0mg"},{"bike_id":"330510ba-12e9-4783-be8e-cc320ae26fc7","system_id":"levelo_inurba_marseille","lat":43.31171,"lon":5.38706,"is_reserved":false,"is_disabled":false,"rental_uris":{"android":"levelo://app?vid=330510ba-12e9-4783-be8e-cc320ae26fc7","ios":"levelo://app?vid=330510ba-12e9-4783-be8e-cc320ae26fc7"},"vehicle_type_id":"4","last_reported":1724350267,"current_range_meters":0,"station_id":"ce4bgv12rcd13ifvqcp0","pricing_plan_id":"cebpf4jnsgd1na2vs0mg"},{"bike_id":"1dc00191-2e13-47d1-b206-4755de60dc92","system_id":"levelo_inurba_marseille","lat":43.299243,"lon":5.374807,"is_reserved":false,"is_disabled":false,"rental_uris":{"android":"levelo://app?vid=1dc00191-2e13-47d1-b206-4755de60dc92","ios":"levelo://app?vid=1dc00191-2e13-47d1-b206-4755de60dc92"},"vehicle_type_id":"4","last_reported":1724350267,"current_range_meters":26400,"station_id":"ce4bgjh2rcd13ifvqbg0","pricing_plan_id":"cebpf4jnsgd1na2vs0mg"},{"bike_id":"e60b6b36-7621-4dbf-8267-3bd64753a1b9","system_id":"levelo_inurba_marseille","lat":43.31178,"lon":5.38711,"is_reserved":false,"is_disabled":false,"rental_uris":{"android":"levelo://app?vid=e60b6b36-7621-4dbf-8267-3bd64753a1b9","ios":"levelo://app?vid=e60b6b36-7621-4dbf-8267-3bd64753a1b9"},"vehicle_type_id":"4","last_reported":1724350267,"current_range_meters":30400,"station_id":"ce4bgv12rcd13ifvqcp0","pricing_plan_id":"cebpf4jnsgd1na2vs0mg"},{"bike_id":"c8fcb8de-7864-4231-b451-d1f9b95705b8","system_id":"levelo_inurba_marseille","lat":43.311722,"lon":5.387247,"is_reserved":false,"is_disabled":false,"rental_uris":{"android":"levelo://app?vid=c8fcb8de-7864-4231-b451-d1f9b95705b8","ios":"levelo://app?vid=c8fcb8de-7864-4231-b451-d1f9b95705b8"},"vehicle_type_id":"4","last_reported":1724350267,"current_range_meters":400,"station_id":"ce4bgv12rcd13ifvqcp0","pricing_plan_id":"cebpf4jnsgd1na2vs0mg"},{"bike_id":"47ce7d4f-5b1f-4e76-93da-e6b46e1bdd5b","system_id":"levelo_inurba_marseille","lat":43.311722,"lon":5.387247,"is_reserved":false,"is_disabled":false,"rental_uris":{"android":"levelo://app?vid=47ce7d4f-5b1f-4e76-93da-e6b46e1bdd5b","ios":"levelo://app?vid=47ce7d4f-5b1f-4e76-93da-e6b46e1bdd5b"},"vehicle_type_id":"4","last_reported":1724350267,"current_range_meters":2400,"station_id":"ce4bgv12rcd13ifvqcp0","pricing_plan_id":"cebpf4jnsgd1na2vs0mg"},{"bike_id":"33038608-d2cb-4ae0-880d-9890c3c47ed6","system_id":"levelo_inurba_marseille","lat":43.311722,"lon":5.387247,"is_reserved":false,"is_disabled":false,"rental_uris":{"android":"levelo://app?vid=33038608-d2cb-4ae0-880d-9890c3c47ed6","ios":"levelo://app?vid=33038608-d2cb-4ae0-880d-9890c3c47ed6"},"vehicle_type_id":"4","last_reported":1724350267,"current_range_meters":18000,"station_id":"ce4bgv12rcd13ifvqcp0","pricing_plan_id":"cebpf4jnsgd1na2vs0mg"},{"bike_id":"ce736845-d6ee-487a-8143-80849eaa4c86","system_id":"levelo_inurba_marseille","lat":43.311722,"lon":5.387247,"is_reserved":false,"is_disabled":false,"rental_uris":{"android":"levelo://app?vid=ce736845-d6ee-487a-8143-80849eaa4c86","ios":"levelo://app?vid=ce736845-d6ee-487a-8143-80849eaa4c86"},"vehicle_type_id":"4","last_reported":1724350267,"current_range_meters":19600,"station_id":"ce4bgv12rcd13ifvqcp0","pricing_plan_id":"cebpf4jnsgd1na2vs0mg"},{"bike_id":"8941111e-860e-4de9-a7c5-0efd9ec532a0","system_id":"levelo_inurba_marseille","lat":43.311722,"lon":5.387247,"is_reserved":false,"is_disabled":false,"rental_uris":{"android":"levelo://app?vid=8941111e-860e-4de9-a7c5-0efd9ec532a0","ios":"levelo://app?vid=8941111e-860e-4de9-a7c5-0efd9ec532a0"},"vehicle_type_id":"4","last_reported":1724350267,"current_range_meters":2000,"station_id":"ce4bgv12rcd13ifvqcp0","pricing_plan_id":"cebpf4jnsgd1na2vs0mg"},{"bike_id":"9530f31d-d6c3-4e36-a4f7-7515462d1876","system_id":"levelo_inurba_marseille","lat":43.311722,"lon":5.387247,"is_reserved":false,"is_disabled":false,"rental_uris":{"android":"levelo://app?vid=9530f31d-d6c3-4e36-a4f7-7515462d1876","ios":"levelo://app?vid=9530f31d-d6c3-4e36-a4f7-7515462d1876"},"vehicle_type_id":"4","last_reported":1724350267,"current_range_meters":10000,"station_id":"ce4bgv12rcd13ifvqcp0","pricing_plan_id":"cebpf4jnsgd1na2vs0mg"},{"bike_id":"737ab547-e750-40e0-bd6e-36d520c64df0","system_id":"levelo_inurba_marseille","lat":43.311722,"lon":5.387247,"is_reserved":false,"is_disabled":false,"rental_uris":{"android":"levelo://app?vid=737ab547-e750-40e0-bd6e-36d520c64df0","ios":"levelo://app?vid=737ab547-e750-40e0-bd6e-36d520c64df0"},"vehicle_type_id":"4","last_reported":1724350267,"current_range_meters":30400,"station_id":"ce4bgv12rcd13ifvqcp0","pricing_plan_id":"cebpf4jnsgd1na2vs0mg"},{"bike_id":"7598c9a2-cdbe-4d0c-830a-6cfc55507e53","system_id":"levelo_inurba_marseille","lat":43.30158,"lon":5.38076,"is_reserved":false,"is_disabled":false,"rental_uris":{"android":"levelo://app?vid=7598c9a2-cdbe-4d0c-830a-6cfc55507e53","ios":"levelo://app?vid=7598c9a2-cdbe-4d0c-830a-6cfc55507e53"},"vehicle_type_id":"4","last_reported":1724350267,"current_range_meters":31200,"station_id":"ce4bgjp2rcd13ifvqbh0","pricing_plan_id":"cebpf4jnsgd1na2vs0mg"},{"bike_id":"6ffe45a6-e1a4-49bd-9207-31394b13b175","system_id":"levelo_inurba_marseille","lat":43.30159,"lon":5.38081,"is_reserved":false,"is_disabled":false,"rental_uris":{"android":"levelo://app?vid=6ffe45a6-e1a4-49bd-9207-31394b13b175","ios":"levelo://app?vid=6ffe45a6-e1a4-49bd-9207-31394b13b175"},"vehicle_type_id":"4","last_reported":1724350267,"current_range_meters":24000,"station_id":"ce4bgjp2rcd13ifvqbh0","pricing_plan_id":"cebpf4jnsgd1na2vs0mg"},{"bike_id":"6c3e80ce-ff1b-4a50-96aa-fe4800cf6abb","system_id":"levelo_inurba_marseille","lat":43.30152,"lon":5.38079,"is_reserved":false,"is_disabled":false,"rental_uris":{"android":"levelo://app?vid=6c3e80ce-ff1b-4a50-96aa-fe4800cf6abb","ios":"levelo://app?vid=6c3e80ce-ff1b-4a50-96aa-fe4800cf6abb"},"vehicle_type_id":"4","last_reported":1724350267,"current_range_meters":31200,"station_id":"ce4bgjp2rcd13ifvqbh0","pricing_plan_id":"cebpf4jnsgd1na2vs0mg"},{"bike_id":"9d481313-b476-4d7d-9b5b-3aa7551a0541","system_id":"levelo_inurba_marseille","lat":43.30151,"lon":5.3808,"is_reserved":false,"is_disabled":false,"rental_uris":{"android":"levelo://app?vid=9d481313-b476-4d7d-9b5b-3aa7551a0541","ios":"levelo://app?vid=9d481313-b476-4d7d-9b5b-3aa7551a0541"},"vehicle_type_id":"4","last_reported":1724350267,"current_range_meters":29600,"station_id":"ce4bgjp2rcd13ifvqbh0","pricing_plan_id":"cebpf4jnsgd1na2vs0mg"},{"bike_id":"2e6af7bd-e955-4ef0-9770-02b05041cae4","system_id":"levelo_inurba_marseille","lat":43.30146,"lon":5.38075,"is_reserved":false,"is_disabled":false,"rental_uris":{"android":"levelo://app?vid=2e6af7bd-e955-4ef0-9770-02b05041cae4","ios":"levelo://app?vid=2e6af7bd-e955-4ef0-9770-02b05041cae4"},"vehicle_type_id":"4","last_reported":1724350267,"current_range_meters":8800,"station_id":"ce4bgjp2rcd13ifvqbh0","pricing_plan_id":"cebpf4jnsgd1na2vs0mg"},{"bike_id":"ef4da715-f384-4ced-b910-35e36201bbfc","system_id":"levelo_inurba_marseille","lat":43.301417,"lon":5.3809,"is_reserved":false,"is_disabled":false,"rental_uris":{"android":"levelo://app?vid=ef4da715-f384-4ced-b910-35e36201bbfc","ios":"levelo://app?vid=ef4da715-f384-4ced-b910-35e36201bbfc"},"vehicle_type_id":"4","last_reported":1724350267,"current_range_meters":26800,"station_id":"ce4bgjp2rcd13ifvqbh0","pricing_plan_id":"cebpf4jnsgd1na2vs0mg"},{"bike_id":"af442c2e-dc9d-491f-8d8e-5bd8dc66a3de","system_id":"levelo_inurba_marseille","lat":43.301417,"lon":5.3809,"is_reserved":false,"is_disabled":false,"rental_uris":{"android":"levelo://app?vid=af442c2e-dc9d-491f-8d8e-5bd8dc66a3de","ios":"levelo://app?vid=af442c2e-dc9d-491f-8d8e-5bd8dc66a3de"},"vehicle_type_id":"4","last_reported":1724350267,"current_range_meters":31200,"station_id":"ce4bgjp2rcd13ifvqbh0","pricing_plan_id":"cebpf4jnsgd1na2vs0mg"},{"bike_id":"765edfa6-e6dd-40c7-9166-85ea272dcc1c","system_id":"levelo_inurba_marseille","lat":43.32291,"lon":5.38255,"is_reserved":false,"is_disabled":false,"rental_uris":{"android":"levelo://app?vid=765edfa6-e6dd-40c7-9166-85ea272dcc1c","ios":"levelo://app?vid=765edfa6-e6dd-40c7-9166-85ea272dcc1c"},"vehicle_type_id":"4","last_reported":1724350267,"current_range_meters":0,"station_id":"ce4bhr12rcd13ifvqhqg","pricing_plan_id":"cebpf4jnsgd1na2vs0mg"},{"bike_id":"7a53181c-02c8-4158-bfb8-adea54c097b9","system_id":"levelo_inurba_marseille","lat":43.322872,"lon":5.382756,"is_reserved":false,"is_disabled":false,"rental_uris":{"android":"levelo://app?vid=7a53181c-02c8-4158-bfb8-adea54c097b9","ios":"levelo://app?vid=7a53181c-02c8-4158-bfb8-adea54c097b9"},"vehicle_type_id":"4","last_reported":1724350267,"current_range_meters":19600,"station_id":"ce4bhr12rcd13ifvqhqg","pricing_plan_id":"cebpf4jnsgd1na2vs0mg"},{"bike_id":"388a8f10-f009-4793-945b-6c39c001978b","system_id":"levelo_inurba_marseille","lat":43.322872,"lon":5.382756,"is_reserved":false,"is_disabled":false,"rental_uris":{"android":"levelo://app?vid=388a8f10-f009-4793-945b-6c39c001978b","ios":"levelo://app?vid=388a8f10-f009-4793-945b-6c39c001978b"},"vehicle_type_id":"4","last_reported":1724350267,"current_range_meters":27600,"station_id":"ce4bhr12rcd13ifvqhqg","pricing_plan_id":"cebpf4jnsgd1na2vs0mg"},{"bike_id":"369b1ced-adf5-40f3-9ae0-8c3ca8caf9f6","system_id":"levelo_inurba_marseille","lat":43.322872,"lon":5.382756,"is_reserved":false,"is_disabled":false,"rental_uris":{"android":"levelo://app?vid=369b1ced-adf5-40f3-9ae0-8c3ca8caf9f6","ios":"levelo://app?vid=369b1ced-adf5-40f3-9ae0-8c3ca8caf9f6"},"vehicle_type_id":"4","last_reported":1724350267,"current_range_meters":29200,"station_id":"ce4bhr12rcd13ifvqhqg","pricing_plan_id":"cebpf4jnsgd1na2vs0mg"},{"bike_id":"4388b6c4-6c26-4e61-8d74-95af9915e57f","system_id":"levelo_inurba_marseille","lat":43.322872,"lon":5.382756,"is_reserved":false,"is_disabled":false,"rental_uris":{"android":"levelo://app?vid=4388b6c4-6c26-4e61-8d74-95af9915e57f","ios":"levelo://app?vid=4388b6c4-6c26-4e61-8d74-95af9915e57f"},"vehicle_type_id":"4","last_reported":1724350267,"current_range_meters":14400,"station_id":"ce4bhr12rcd13ifvqhqg","pricing_plan_id":"cebpf4jnsgd1na2vs0mg"},{"bike_id":"d0467d54-5029-4cb0-b96f-dbc7c195710b","system_id":"levelo_inurba_marseille","lat":43.322872,"lon":5.382756,"is_reserved":false,"is_disabled":false,"rental_uris":{"android":"levelo://app?vid=d0467d54-5029-4cb0-b96f-dbc7c195710b","ios":"levelo://app?vid=d0467d54-5029-4cb0-b96f-dbc7c195710b"},"vehicle_type_id":"4","last_reported":1724350267,"current_range_meters":4000,"station_id":"ce4bhr12rcd13ifvqhqg","pricing_plan_id":"cebpf4jnsgd1na2vs0mg"},{"bike_id":"a61aa05d-32b1-452c-9bb4-8f18c805dd8f","system_id":"levelo_inurba_marseille","lat":43.322872,"lon":5.382756,"is_reserved":false,"is_disabled":false,"rental_uris":{"android":"levelo://app?vid=a61aa05d-32b1-452c-9bb4-8f18c805dd8f","ios":"levelo://app?vid=a61aa05d-32b1-452c-9bb4-8f18c805dd8f"},"vehicle_type_id":"4","last_reported":1724350267,"current_range_meters":16000,"station_id":"ce4bhr12rcd13ifvqhqg","pricing_plan_id":"cebpf4jnsgd1na2vs0mg"},{"bike_id":"352d072c-c4dd-46ba-b620-470ed7481a71","system_id":"levelo_inurba_marseille","lat":43.322872,"lon":5.382756,"is_reserved":false,"is_disabled":false,"rental_uris":{"android":"levelo://app?vid=352d072c-c4dd-46ba-b620-470ed7481a71","ios":"levelo://app?vid=352d072c-c4dd-46ba-b620-470ed7481a71"},"vehicle_type_id":"4","last_reported":1724350267,"current_range_meters":0,"station_id":"ce4bhr12rcd13ifvqhqg","pricing_plan_id":"cebpf4jnsgd1na2vs0mg"},{"bike_id":"752ce4ad-c466-411d-885b-d064df18546f","system_id":"levelo_inurba_marseille","lat":43.322872,"lon":5.382756,"is_reserved":false,"is_disabled":false,"rental_uris":{"android":"levelo://app?vid=752ce4ad-c466-411d-885b-d064df18546f","ios":"levelo://app?vid=752ce4ad-c466-411d-885b-d064df18546f"},"vehicle_type_id":"4","last_reported":1724350267,"current_range_meters":13200,"station_id":"ce4bhr12rcd13ifvqhqg","pricing_plan_id":"cebpf4jnsgd1na2vs0mg"},{"bike_id":"016b0bd6-ebcc-4861-b398-c7d7148455fd","system_id":"levelo_inurba_marseille","lat":43.322872,"lon":5.382756,"is_reserved":false,"is_disabled":false,"rental_uris":{"android":"levelo://app?vid=016b0bd6-ebcc-4861-b398-c7d7148455fd","ios":"levelo://app?vid=016b0bd6-ebcc-4861-b398-c7d7148455fd"},"vehicle_type_id":"4","last_reported":1724350267,"current_range_meters":32000,"station_id":"ce4bhr12rcd13ifvqhqg","pricing_plan_id":"cebpf4jnsgd1na2vs0mg"},{"bike_id":"e93a915e-5961-4ac4-bbb2-5a3c5f51ebd5","system_id":"levelo_inurba_marseille","lat":43.297163,"lon":5.365866,"is_reserved":false,"is_disabled":false,"rental_uris":{"android":"levelo://app?vid=e93a915e-5961-4ac4-bbb2-5a3c5f51ebd5","ios":"levelo://app?vid=e93a915e-5961-4ac4-bbb2-5a3c5f51ebd5"},"vehicle_type_id":"4","last_reported":1724350267,"current_range_meters":13200,"station_id":"ce4bgn12rcd13ifvqbt0","pricing_plan_id":"cebpf4jnsgd1na2vs0mg"},{"bike_id":"382eb7df-d86c-4aac-84e3-6bff731c6f7c","system_id":"levelo_inurba_marseille","lat":43.297163,"lon":5.365866,"is_reserved":false,"is_disabled":false,"rental_uris":{"android":"levelo://app?vid=382eb7df-d86c-4aac-84e3-6bff731c6f7c","ios":"levelo://app?vid=382eb7df-d86c-4aac-84e3-6bff731c6f7c"},"vehicle_type_id":"4","last_reported":1724350267,"current_range_meters":1600,"station_id":"ce4bgn12rcd13ifvqbt0","pricing_plan_id":"cebpf4jnsgd1na2vs0mg"},{"bike_id":"455b745e-b639-4540-a39c-b3f6a6f63657","system_id":"levelo_inurba_marseille","lat":43.29699,"lon":5.37292,"is_reserved":false,"is_disabled":false,"rental_uris":{"android":"levelo://app?vid=455b745e-b639-4540-a39c-b3f6a6f63657","ios":"levelo://app?vid=455b745e-b639-4540-a39c-b3f6a6f63657"},"vehicle_type_id":"4","last_reported":1724350267,"current_range_meters":0,"station_id":"ce4bgk12rcd13ifvqbj0","pricing_plan_id":"cebpf4jnsgd1na2vs0mg"},{"bike_id":"e4e0b2bb-c032-4951-90e5-d23422a38dbc","system_id":"levelo_inurba_marseille","lat":43.2968,"lon":5.37291,"is_reserved":false,"is_disabled":false,"rental_uris":{"android":"levelo://app?vid=e4e0b2bb-c032-4951-90e5-d23422a38dbc","ios":"levelo://app?vid=e4e0b2bb-c032-4951-90e5-d23422a38dbc"},"vehicle_type_id":"4","last_reported":1724350267,"current_range_meters":15200,"station_id":"ce4bgk12rcd13ifvqbj0","pricing_plan_id":"cebpf4jnsgd1na2vs0mg"},{"bike_id":"9f864eb1-62c4-498d-9749-4ac6a3e0b261","system_id":"levelo_inurba_marseille","lat":43.30281,"lon":5.385,"is_reserved":false,"is_disabled":false,"rental_uris":{"android":"levelo://app?vid=9f864eb1-62c4-498d-9749-4ac6a3e0b261","ios":"levelo://app?vid=9f864eb1-62c4-498d-9749-4ac6a3e0b261"},"vehicle_type_id":"4","last_reported":1724350267,"current_range_meters":0,"station_id":"","pricing_plan_id":"cebpf4jnsgd1na2vs0mg"},{"bike_id":"88b5ed6b-5ebf-410c-aebd-805b8a0f182d","system_id":"levelo_inurba_marseille","lat":43.296131,"lon":5.370791,"is_reserved":false,"is_disabled":false,"rental_uris":{"android":"levelo://app?vid=88b5ed6b-5ebf-410c-aebd-805b8a0f182d","ios":"levelo://app?vid=88b5ed6b-5ebf-410c-aebd-805b8a0f182d"},"vehicle_type_id":"4","last_reported":1724350267,"current_range_meters":0,"station_id":"ce4bgnh2rcd13ifvqc0g","pricing_plan_id":"cebpf4jnsgd1na2vs0mg"},{"bike_id":"6a939b6e-7664-46be-86a1-9d2e1c3d5956","system_id":"levelo_inurba_marseille","lat":43.296131,"lon":5.370773,"is_reserved":false,"is_disabled":false,"rental_uris":{"android":"levelo://app?vid=6a939b6e-7664-46be-86a1-9d2e1c3d5956","ios":"levelo://app?vid=6a939b6e-7664-46be-86a1-9d2e1c3d5956"},"vehicle_type_id":"4","last_reported":1724350267,"current_range_meters":27600,"station_id":"ce4bgnh2rcd13ifvqc0g","pricing_plan_id":"cebpf4jnsgd1na2vs0mg"},{"bike_id":"a2d711f2-bda9-41ef-ba45-3b50fad86850","system_id":"levelo_inurba_marseille","lat":43.296131,"lon":5.370791,"is_reserved":false,"is_disabled":false,"rental_uris":{"android":"levelo://app?vid=a2d711f2-bda9-41ef-ba45-3b50fad86850","ios":"levelo://app?vid=a2d711f2-bda9-41ef-ba45-3b50fad86850"},"vehicle_type_id":"4","last_reported":1724350267,"current_range_meters":0,"station_id":"ce4bgnh2rcd13ifvqc0g","pricing_plan_id":"cebpf4jnsgd1na2vs0mg"},{"bike_id":"bed355a1-0120-4734-b566-ce238acf626d","system_id":"levelo_inurba_marseille","lat":43.309589,"lon":5.390258,"is_reserved":false,"is_disabled":false,"rental_uris":{"android":"levelo://app?vid=bed355a1-0120-4734-b566-ce238acf626d","ios":"levelo://app?vid=bed355a1-0120-4734-b566-ce238acf626d"},"vehicle_type_id":"4","last_reported":1724350267,"current_range_meters":24000,"station_id":"ce4bgup2rcd13ifvqco0","pricing_plan_id":"cebpf4jnsgd1na2vs0mg"},{"bike_id":"43613979-40c4-4d9f-976a-ba1c3a3dcb77","system_id":"levelo_inurba_marseille","lat":43.309589,"lon":5.390258,"is_reserved":false,"is_disabled":false,"rental_uris":{"android":"levelo://app?vid=43613979-40c4-4d9f-976a-ba1c3a3dcb77","ios":"levelo://app?vid=43613979-40c4-4d9f-976a-ba1c3a3dcb77"},"vehicle_type_id":"4","last_reported":1724350267,"current_range_meters":5600,"station_id":"ce4bgup2rcd13ifvqco0","pricing_plan_id":"cebpf4jnsgd1na2vs0mg"},{"bike_id":"9d9f8236-211d-4208-b009-4f627596121d","system_id":"levelo_inurba_marseille","lat":43.309589,"lon":5.390258,"is_reserved":false,"is_disabled":false,"rental_uris":{"android":"levelo://app?vid=9d9f8236-211d-4208-b009-4f627596121d","ios":"levelo://app?vid=9d9f8236-211d-4208-b009-4f627596121d"},"vehicle_type_id":"4","last_reported":1724350267,"current_range_meters":4000,"station_id":"ce4bgup2rcd13ifvqco0","pricing_plan_id":"cebpf4jnsgd1na2vs0mg"},{"bike_id":"b3e8cfed-897b-48dd-a656-1621ac6e61d4","system_id":"levelo_inurba_marseille","lat":43.309589,"lon":5.390258,"is_reserved":false,"is_disabled":false,"rental_uris":{"android":"levelo://app?vid=b3e8cfed-897b-48dd-a656-1621ac6e61d4","ios":"levelo://app?vid=b3e8cfed-897b-48dd-a656-1621ac6e61d4"},"vehicle_type_id":"4","last_reported":1724350267,"current_range_meters":7600,"station_id":"ce4bgup2rcd13ifvqco0","pricing_plan_id":"cebpf4jnsgd1na2vs0mg"},{"bike_id":"8cbf9875-3731-4a78-a9ef-904ab2ffc23d","system_id":"levelo_inurba_marseille","lat":43.309589,"lon":5.390258,"is_reserved":false,"is_disabled":false,"rental_uris":{"android":"levelo://app?vid=8cbf9875-3731-4a78-a9ef-904ab2ffc23d","ios":"levelo://app?vid=8cbf9875-3731-4a78-a9ef-904ab2ffc23d"},"vehicle_type_id":"4","last_reported":1724350267,"current_range_meters":14800,"station_id":"ce4bgup2rcd13ifvqco0","pricing_plan_id":"cebpf4jnsgd1na2vs0mg"},{"bike_id":"4f355838-2534-4704-a3fd-f9a077c9b1f7","system_id":"levelo_inurba_marseille","lat":43.309589,"lon":5.390258,"is_reserved":false,"is_disabled":false,"rental_uris":{"android":"levelo://app?vid=4f355838-2534-4704-a3fd-f9a077c9b1f7","ios":"levelo://app?vid=4f355838-2534-4704-a3fd-f9a077c9b1f7"},"vehicle_type_id":"4","last_reported":1724350267,"current_range_meters":22800,"station_id":"ce4bgup2rcd13ifvqco0","pricing_plan_id":"cebpf4jnsgd1na2vs0mg"},{"bike_id":"6e75ee43-522c-4638-9279-83e9ed8e221b","system_id":"levelo_inurba_marseille","lat":43.317557,"lon":5.390173,"is_reserved":false,"is_disabled":false,"rental_uris":{"android":"levelo://app?vid=6e75ee43-522c-4638-9279-83e9ed8e221b","ios":"levelo://app?vid=6e75ee43-522c-4638-9279-83e9ed8e221b"},"vehicle_type_id":"4","last_reported":1724350267,"current_range_meters":28000,"station_id":"ce4bhqp2rcd13ifvqhng","pricing_plan_id":"cebpf4jnsgd1na2vs0mg"},{"bike_id":"248382fb-9bca-4eeb-8add-e3bf4660644f","system_id":"levelo_inurba_marseille","lat":43.31755,"lon":5.39012,"is_reserved":false,"is_disabled":false,"rental_uris":{"android":"levelo://app?vid=248382fb-9bca-4eeb-8add-e3bf4660644f","ios":"levelo://app?vid=248382fb-9bca-4eeb-8add-e3bf4660644f"},"vehicle_type_id":"4","last_reported":1724350267,"current_range_meters":12800,"station_id":"ce4bhqp2rcd13ifvqhng","pricing_plan_id":"cebpf4jnsgd1na2vs0mg"},{"bike_id":"5a120341-21d2-4ca8-99b9-7a87f51c8e12","system_id":"levelo_inurba_marseille","lat":43.31757,"lon":5.39014,"is_reserved":false,"is_disabled":false,"rental_uris":{"android":"levelo://app?vid=5a120341-21d2-4ca8-99b9-7a87f51c8e12","ios":"levelo://app?vid=5a120341-21d2-4ca8-99b9-7a87f51c8e12"},"vehicle_type_id":"4","last_reported":1724350267,"current_range_meters":0,"station_id":"ce4bhqp2rcd13ifvqhng","pricing_plan_id":"cebpf4jnsgd1na2vs0mg"},{"bike_id":"7a328019-70fa-4010-acbc-f976e792a345","system_id":"levelo_inurba_marseille","lat":43.31496,"lon":5.39123,"is_reserved":false,"is_disabled":false,"rental_uris":{"android":"levelo://app?vid=7a328019-70fa-4010-acbc-f976e792a345","ios":"levelo://app?vid=7a328019-70fa-4010-acbc-f976e792a345"},"vehicle_type_id":"4","last_reported":1724350267,"current_range_meters":4000,"station_id":"","pricing_plan_id":"cebpf4jnsgd1na2vs0mg"},{"bike_id":"de9dd656-5493-4198-a2f0-ecf12015d776","system_id":"levelo_inurba_marseille","lat":43.295748,"lon":5.37522,"is_reserved":false,"is_disabled":false,"rental_uris":{"android":"levelo://app?vid=de9dd656-5493-4198-a2f0-ecf12015d776","ios":"levelo://app?vid=de9dd656-5493-4198-a2f0-ecf12015d776"},"vehicle_type_id":"4","last_reported":1724350267,"current_range_meters":11200,"station_id":"ce4bgh92rcd13ifvqb50","pricing_plan_id":"cebpf4jnsgd1na2vs0mg"},{"bike_id":"fd6b696d-f5cd-44d4-917e-6041eeff47b2","system_id":"levelo_inurba_marseille","lat":43.29581,"lon":5.37511,"is_reserved":false,"is_disabled":false,"rental_uris":{"android":"levelo://app?vid=fd6b696d-f5cd-44d4-917e-6041eeff47b2","ios":"levelo://app?vid=fd6b696d-f5cd-44d4-917e-6041eeff47b2"},"vehicle_type_id":"4","last_reported":1724350267,"current_range_meters":1600,"station_id":"ce4bgh92rcd13ifvqb50","pricing_plan_id":"cebpf4jnsgd1na2vs0mg"},{"bike_id":"cf8c1b51-0ddf-4e7c-a9f8-cd4b16f5f633","system_id":"levelo_inurba_marseille","lat":43.298037,"lon":5.381066,"is_reserved":false,"is_disabled":false,"rental_uris":{"android":"levelo://app?vid=cf8c1b51-0ddf-4e7c-a9f8-cd4b16f5f633","ios":"levelo://app?vid=cf8c1b51-0ddf-4e7c-a9f8-cd4b16f5f633"},"vehicle_type_id":"4","last_reported":1724350267,"current_range_meters":21200,"station_id":"ce4bgip2rcd13ifvqbb0","pricing_plan_id":"cebpf4jnsgd1na2vs0mg"},{"bike_id":"00bd5be5-afca-4341-a95c-2fc4733ff1c0","system_id":"levelo_inurba_marseille","lat":43.298037,"lon":5.381066,"is_reserved":false,"is_disabled":false,"rental_uris":{"android":"levelo://app?vid=00bd5be5-afca-4341-a95c-2fc4733ff1c0","ios":"levelo://app?vid=00bd5be5-afca-4341-a95c-2fc4733ff1c0"},"vehicle_type_id":"4","last_reported":1724350267,"current_range_meters":0,"station_id":"ce4bgip2rcd13ifvqbb0","pricing_plan_id":"cebpf4jnsgd1na2vs0mg"},{"bike_id":"c0b1f64d-3363-4444-9f7d-9722890188d7","system_id":"levelo_inurba_marseille","lat":43.298037,"lon":5.381066,"is_reserved":false,"is_disabled":false,"rental_uris":{"android":"levelo://app?vid=c0b1f64d-3363-4444-9f7d-9722890188d7","ios":"levelo://app?vid=c0b1f64d-3363-4444-9f7d-9722890188d7"},"vehicle_type_id":"4","last_reported":1724350267,"current_range_meters":0,"station_id":"ce4bgip2rcd13ifvqbb0","pricing_plan_id":"cebpf4jnsgd1na2vs0mg"},{"bike_id":"c6d43c44-158c-40a4-802c-56df25d09066","system_id":"levelo_inurba_marseille","lat":43.295279,"lon":5.375048,"is_reserved":false,"is_disabled":false,"rental_uris":{"android":"levelo://app?vid=c6d43c44-158c-40a4-802c-56df25d09066","ios":"levelo://app?vid=c6d43c44-158c-40a4-802c-56df25d09066"},"vehicle_type_id":"4","last_reported":1724350267,"current_range_meters":3600,"station_id":"ce4bgkp2rcd13ifvqbmg","pricing_plan_id":"cebpf4jnsgd1na2vs0mg"},{"bike_id":"9b98f6b4-0283-48ba-af07-0339780990e0","system_id":"levelo_inurba_marseille","lat":43.295279,"lon":5.375048,"is_reserved":false,"is_disabled":false,"rental_uris":{"android":"levelo://app?vid=9b98f6b4-0283-48ba-af07-0339780990e0","ios":"levelo://app?vid=9b98f6b4-0283-48ba-af07-0339780990e0"},"vehicle_type_id":"4","last_reported":1724350267,"current_range_meters":16800,"station_id":"ce4bgkp2rcd13ifvqbmg","pricing_plan_id":"cebpf4jnsgd1na2vs0mg"},{"bike_id":"a4eca957-d017-4667-b3ad-f61e4163263d","system_id":"levelo_inurba_marseille","lat":43.299724,"lon":5.384848,"is_reserved":false,"is_disabled":false,"rental_uris":{"android":"levelo://app?vid=a4eca957-d017-4667-b3ad-f61e4163263d","ios":"levelo://app?vid=a4eca957-d017-4667-b3ad-f61e4163263d"},"vehicle_type_id":"4","last_reported":1724350267,"current_range_meters":28000,"station_id":"ce4bgj92rcd13ifvqbd0","pricing_plan_id":"cebpf4jnsgd1na2vs0mg"},{"bike_id":"d5127544-a0be-40ea-bce6-6f72fd886fef","system_id":"levelo_inurba_marseille","lat":43.295279,"lon":5.375048,"is_reserved":false,"is_disabled":false,"rental_uris":{"android":"levelo://app?vid=d5127544-a0be-40ea-bce6-6f72fd886fef","ios":"levelo://app?vid=d5127544-a0be-40ea-bce6-6f72fd886fef"},"vehicle_type_id":"4","last_reported":1724350267,"current_range_meters":14400,"station_id":"ce4bgkp2rcd13ifvqbmg","pricing_plan_id":"cebpf4jnsgd1na2vs0mg"},{"bike_id":"37d939f4-ca08-4c7b-822d-1c1547688866","system_id":"levelo_inurba_marseille","lat":43.295279,"lon":5.375048,"is_reserved":false,"is_disabled":false,"rental_uris":{"android":"levelo://app?vid=37d939f4-ca08-4c7b-822d-1c1547688866","ios":"levelo://app?vid=37d939f4-ca08-4c7b-822d-1c1547688866"},"vehicle_type_id":"4","last_reported":1724350267,"current_range_meters":14800,"station_id":"ce4bgkp2rcd13ifvqbmg","pricing_plan_id":"cebpf4jnsgd1na2vs0mg"},{"bike_id":"72520199-fb99-431a-914e-1ca7454e3fc9","system_id":"levelo_inurba_marseille","lat":43.295279,"lon":5.375048,"is_reserved":false,"is_disabled":false,"rental_uris":{"android":"levelo://app?vid=72520199-fb99-431a-914e-1ca7454e3fc9","ios":"levelo://app?vid=72520199-fb99-431a-914e-1ca7454e3fc9"},"vehicle_type_id":"4","last_reported":1724350267,"current_range_meters":12000,"station_id":"ce4bgkp2rcd13ifvqbmg","pricing_plan_id":"cebpf4jnsgd1na2vs0mg"},{"bike_id":"e69ea331-7ece-4c06-8452-ff7b7972b78a","system_id":"levelo_inurba_marseille","lat":43.309589,"lon":5.390258,"is_reserved":false,"is_disabled":false,"rental_uris":{"android":"levelo://app?vid=e69ea331-7ece-4c06-8452-ff7b7972b78a","ios":"levelo://app?vid=e69ea331-7ece-4c06-8452-ff7b7972b78a"},"vehicle_type_id":"4","last_reported":1724350267,"current_range_meters":25600,"station_id":"ce4bgup2rcd13ifvqco0","pricing_plan_id":"cebpf4jnsgd1na2vs0mg"},{"bike_id":"75f731e6-f653-43cf-a4ee-b24a803a67da","system_id":"levelo_inurba_marseille","lat":43.298423,"lon":5.383743,"is_reserved":false,"is_disabled":false,"rental_uris":{"android":"levelo://app?vid=75f731e6-f653-43cf-a4ee-b24a803a67da","ios":"levelo://app?vid=75f731e6-f653-43cf-a4ee-b24a803a67da"},"vehicle_type_id":"4","last_reported":1724350267,"current_range_meters":10400,"station_id":"","pricing_plan_id":"cebpf4jnsgd1na2vs0mg"},{"bike_id":"9d1684e7-152f-4db8-a069-9d18bc71382d","system_id":"levelo_inurba_marseille","lat":43.29902,"lon":5.38483,"is_reserved":false,"is_disabled":false,"rental_uris":{"android":"levelo://app?vid=9d1684e7-152f-4db8-a069-9d18bc71382d","ios":"levelo://app?vid=9d1684e7-152f-4db8-a069-9d18bc71382d"},"vehicle_type_id":"4","last_reported":1724350267,"current_range_meters":0,"station_id":"","pricing_plan_id":"cebpf4jnsgd1na2vs0mg"},{"bike_id":"61f5d2c0-897c-4c94-b574-b6df4c6958d4","system_id":"levelo_inurba_marseille","lat":43.301396,"lon":5.387812,"is_reserved":false,"is_disabled":false,"rental_uris":{"android":"levelo://app?vid=61f5d2c0-897c-4c94-b574-b6df4c6958d4","ios":"levelo://app?vid=61f5d2c0-897c-4c94-b574-b6df4c6958d4"},"vehicle_type_id":"4","last_reported":1724350267,"current_range_meters":6800,"station_id":"ce4bghh2rcd13ifvqb60","pricing_plan_id":"cebpf4jnsgd1na2vs0mg"},{"bike_id":"ad5ce6d4-46d0-400d-a23c-3614adabab9a","system_id":"levelo_inurba_marseille","lat":43.301396,"lon":5.387812,"is_reserved":false,"is_disabled":false,"rental_uris":{"android":"levelo://app?vid=ad5ce6d4-46d0-400d-a23c-3614adabab9a","ios":"levelo://app?vid=ad5ce6d4-46d0-400d-a23c-3614adabab9a"},"vehicle_type_id":"4","last_reported":1724350267,"current_range_meters":8400,"station_id":"ce4bghh2rcd13ifvqb60","pricing_plan_id":"cebpf4jnsgd1na2vs0mg"},{"bike_id":"8dcc7b88-b68d-47de-a072-99441a8ecbd6","system_id":"levelo_inurba_marseille","lat":43.29339,"lon":5.37109,"is_reserved":false,"is_disabled":false,"rental_uris":{"android":"levelo://app?vid=8dcc7b88-b68d-47de-a072-99441a8ecbd6","ios":"levelo://app?vid=8dcc7b88-b68d-47de-a072-99441a8ecbd6"},"vehicle_type_id":"4","last_reported":1724350267,"current_range_meters":10400,"station_id":"","pricing_plan_id":"cebpf4jnsgd1na2vs0mg"},{"bike_id":"26a7a21d-e272-4746-b68e-77da9ba19f6d","system_id":"levelo_inurba_marseille","lat":43.29602,"lon":5.381084,"is_reserved":false,"is_disabled":false,"rental_uris":{"android":"levelo://app?vid=26a7a21d-e272-4746-b68e-77da9ba19f6d","ios":"levelo://app?vid=26a7a21d-e272-4746-b68e-77da9ba19f6d"},"vehicle_type_id":"4","last_reported":1724350267,"current_range_meters":8000,"station_id":"ce4bgl12rcd13ifvqbo0","pricing_plan_id":"cebpf4jnsgd1na2vs0mg"},{"bike_id":"b4461778-3d59-4567-8e37-ac550884be36","system_id":"levelo_inurba_marseille","lat":43.29601,"lon":5.381084,"is_reserved":false,"is_disabled":false,"rental_uris":{"android":"levelo://app?vid=b4461778-3d59-4567-8e37-ac550884be36","ios":"levelo://app?vid=b4461778-3d59-4567-8e37-ac550884be36"},"vehicle_type_id":"4","last_reported":1724350267,"current_range_meters":5200,"station_id":"ce4bgl12rcd13ifvqbo0","pricing_plan_id":"cebpf4jnsgd1na2vs0mg"},{"bike_id":"7a5e9c20-775d-4f1f-9d6a-d23fb468e500","system_id":"levelo_inurba_marseille","lat":43.29601,"lon":5.381084,"is_reserved":false,"is_disabled":false,"rental_uris":{"android":"levelo://app?vid=7a5e9c20-775d-4f1f-9d6a-d23fb468e500","ios":"levelo://app?vid=7a5e9c20-775d-4f1f-9d6a-d23fb468e500"},"vehicle_type_id":"4","last_reported":1724350267,"current_range_meters":31200,"station_id":"ce4bgl12rcd13ifvqbo0","pricing_plan_id":"cebpf4jnsgd1na2vs0mg"},{"bike_id":"9c243bba-33f4-4229-b58a-f99177a99589","system_id":"levelo_inurba_marseille","lat":43.29289,"lon":5.36833,"is_reserved":false,"is_disabled":false,"rental_uris":{"android":"levelo://app?vid=9c243bba-33f4-4229-b58a-f99177a99589","ios":"levelo://app?vid=9c243bba-33f4-4229-b58a-f99177a99589"},"vehicle_type_id":"4","last_reported":1724350267,"current_range_meters":30400,"station_id":"ce4bhbp2rcd13ifvqesg","pricing_plan_id":"cebpf4jnsgd1na2vs0mg"},{"bike_id":"94c3c90e-205d-4910-ab40-3135fc6a2385","system_id":"levelo_inurba_marseille","lat":43.292749,"lon":5.368402,"is_reserved":false,"is_disabled":false,"rental_uris":{"android":"levelo://app?vid=94c3c90e-205d-4910-ab40-3135fc6a2385","ios":"levelo://app?vid=94c3c90e-205d-4910-ab40-3135fc6a2385"},"vehicle_type_id":"4","last_reported":1724350267,"current_range_meters":28000,"station_id":"ce4bhbp2rcd13ifvqesg","pricing_plan_id":"cebpf4jnsgd1na2vs0mg"},{"bike_id":"68f9209f-39a0-4bfc-935f-e7d44c865e8f","system_id":"levelo_inurba_marseille","lat":43.29312,"lon":5.37165,"is_reserved":false,"is_disabled":false,"rental_uris":{"android":"levelo://app?vid=68f9209f-39a0-4bfc-935f-e7d44c865e8f","ios":"levelo://app?vid=68f9209f-39a0-4bfc-935f-e7d44c865e8f"},"vehicle_type_id":"4","last_reported":1724350267,"current_range_meters":6800,"station_id":"ce4bgh92rcd13ifvqb40","pricing_plan_id":"cebpf4jnsgd1na2vs0mg"},{"bike_id":"34cedda0-b4c2-4f0f-97ca-71fe11bb1719","system_id":"levelo_inurba_marseille","lat":43.293249,"lon":5.371578,"is_reserved":false,"is_disabled":false,"rental_uris":{"android":"levelo://app?vid=34cedda0-b4c2-4f0f-97ca-71fe11bb1719","ios":"levelo://app?vid=34cedda0-b4c2-4f0f-97ca-71fe11bb1719"},"vehicle_type_id":"4","last_reported":1724350267,"current_range_meters":0,"station_id":"ce4bgh92rcd13ifvqb40","pricing_plan_id":"cebpf4jnsgd1na2vs0mg"},{"bike_id":"061470ef-9dff-44fd-901c-143bb2dd0554","system_id":"levelo_inurba_marseille","lat":43.29311,"lon":5.3718,"is_reserved":false,"is_disabled":false,"rental_uris":{"android":"levelo://app?vid=061470ef-9dff-44fd-901c-143bb2dd0554","ios":"levelo://app?vid=061470ef-9dff-44fd-901c-143bb2dd0554"},"vehicle_type_id":"4","last_reported":1724350267,"current_range_meters":27600,"station_id":"ce4bgh92rcd13ifvqb40","pricing_plan_id":"cebpf4jnsgd1na2vs0mg"},{"bike_id":"c19d1495-af45-43aa-b054-e9548a4f947f","system_id":"levelo_inurba_marseille","lat":43.293259,"lon":5.371586,"is_reserved":false,"is_disabled":false,"rental_uris":{"android":"levelo://app?vid=c19d1495-af45-43aa-b054-e9548a4f947f","ios":"levelo://app?vid=c19d1495-af45-43aa-b054-e9548a4f947f"},"vehicle_type_id":"4","last_reported":1724350267,"current_range_meters":8000,"station_id":"ce4bgh92rcd13ifvqb40","pricing_plan_id":"cebpf4jnsgd1na2vs0mg"},{"bike_id":"8841efb7-e0f7-4eb4-801d-1fbc7334b2d7","system_id":"levelo_inurba_marseille","lat":43.293259,"lon":5.371586,"is_reserved":false,"is_disabled":false,"rental_uris":{"android":"levelo://app?vid=8841efb7-e0f7-4eb4-801d-1fbc7334b2d7","ios":"levelo://app?vid=8841efb7-e0f7-4eb4-801d-1fbc7334b2d7"},"vehicle_type_id":"4","last_reported":1724350267,"current_range_meters":400,"station_id":"ce4bgh92rcd13ifvqb40","pricing_plan_id":"cebpf4jnsgd1na2vs0mg"},{"bike_id":"0aba9272-e095-423f-93e9-c97ca910d3b4","system_id":"levelo_inurba_marseille","lat":43.29308,"lon":5.37175,"is_reserved":false,"is_disabled":false,"rental_uris":{"android":"levelo://app?vid=0aba9272-e095-423f-93e9-c97ca910d3b4","ios":"levelo://app?vid=0aba9272-e095-423f-93e9-c97ca910d3b4"},"vehicle_type_id":"4","last_reported":1724350267,"current_range_meters":29200,"station_id":"ce4bgh92rcd13ifvqb40","pricing_plan_id":"cebpf4jnsgd1na2vs0mg"},{"bike_id":"67254791-f9c3-48b7-8817-83b2dec04a5b","system_id":"levelo_inurba_marseille","lat":43.292749,"lon":5.368402,"is_reserved":false,"is_disabled":false,"rental_uris":{"android":"levelo://app?vid=67254791-f9c3-48b7-8817-83b2dec04a5b","ios":"levelo://app?vid=67254791-f9c3-48b7-8817-83b2dec04a5b"},"vehicle_type_id":"4","last_reported":1724350267,"current_range_meters":0,"station_id":"ce4bhbp2rcd13ifvqesg","pricing_plan_id":"cebpf4jnsgd1na2vs0mg"},{"bike_id":"5542d8a7-75d6-46ce-b8c2-02ecb11cabab","system_id":"levelo_inurba_marseille","lat":43.293259,"lon":5.371586,"is_reserved":false,"is_disabled":false,"rental_uris":{"android":"levelo://app?vid=5542d8a7-75d6-46ce-b8c2-02ecb11cabab","ios":"levelo://app?vid=5542d8a7-75d6-46ce-b8c2-02ecb11cabab"},"vehicle_type_id":"4","last_reported":1724350267,"current_range_meters":30400,"station_id":"ce4bgh92rcd13ifvqb40","pricing_plan_id":"cebpf4jnsgd1na2vs0mg"},{"bike_id":"6d0ca33d-cf1e-4570-8116-3a7af73e2475","system_id":"levelo_inurba_marseille","lat":43.29305,"lon":5.37175,"is_reserved":false,"is_disabled":false,"rental_uris":{"android":"levelo://app?vid=6d0ca33d-cf1e-4570-8116-3a7af73e2475","ios":"levelo://app?vid=6d0ca33d-cf1e-4570-8116-3a7af73e2475"},"vehicle_type_id":"4","last_reported":1724350267,"current_range_meters":11200,"station_id":"ce4bgh92rcd13ifvqb40","pricing_plan_id":"cebpf4jnsgd1na2vs0mg"},{"bike_id":"bfb96da9-be76-4736-97f0-c405b6ab0e94","system_id":"levelo_inurba_marseille","lat":43.29276,"lon":5.36837,"is_reserved":false,"is_disabled":false,"rental_uris":{"android":"levelo://app?vid=bfb96da9-be76-4736-97f0-c405b6ab0e94","ios":"levelo://app?vid=bfb96da9-be76-4736-97f0-c405b6ab0e94"},"vehicle_type_id":"4","last_reported":1724350267,"current_range_meters":0,"station_id":"ce4bhbp2rcd13ifvqesg","pricing_plan_id":"cebpf4jnsgd1na2vs0mg"},{"bike_id":"d63c8cd4-f054-4ed4-8387-cdaf9f90f8ec","system_id":"levelo_inurba_marseille","lat":43.293259,"lon":5.371586,"is_reserved":false,"is_disabled":false,"rental_uris":{"android":"levelo://app?vid=d63c8cd4-f054-4ed4-8387-cdaf9f90f8ec","ios":"levelo://app?vid=d63c8cd4-f054-4ed4-8387-cdaf9f90f8ec"},"vehicle_type_id":"4","last_reported":1724350267,"current_range_meters":5600,"station_id":"ce4bgh92rcd13ifvqb40","pricing_plan_id":"cebpf4jnsgd1na2vs0mg"},{"bike_id":"f72e6add-1fa2-4f9b-8b51-f7a15093839b","system_id":"levelo_inurba_marseille","lat":43.29273,"lon":5.36841,"is_reserved":false,"is_disabled":false,"rental_uris":{"android":"levelo://app?vid=f72e6add-1fa2-4f9b-8b51-f7a15093839b","ios":"levelo://app?vid=f72e6add-1fa2-4f9b-8b51-f7a15093839b"},"vehicle_type_id":"4","last_reported":1724350267,"current_range_meters":0,"station_id":"ce4bhbp2rcd13ifvqesg","pricing_plan_id":"cebpf4jnsgd1na2vs0mg"},{"bike_id":"14b0c956-7c4f-4b25-ac4d-20fe3b67ec11","system_id":"levelo_inurba_marseille","lat":43.29301,"lon":5.37178,"is_reserved":false,"is_disabled":false,"rental_uris":{"android":"levelo://app?vid=14b0c956-7c4f-4b25-ac4d-20fe3b67ec11","ios":"levelo://app?vid=14b0c956-7c4f-4b25-ac4d-20fe3b67ec11"},"vehicle_type_id":"4","last_reported":1724350267,"current_range_meters":0,"station_id":"ce4bgh92rcd13ifvqb40","pricing_plan_id":"cebpf4jnsgd1na2vs0mg"},{"bike_id":"ceebd61c-908a-406c-908a-e92391622584","system_id":"levelo_inurba_marseille","lat":43.2936,"lon":5.37835,"is_reserved":false,"is_disabled":false,"rental_uris":{"android":"levelo://app?vid=ceebd61c-908a-406c-908a-e92391622584","ios":"levelo://app?vid=ceebd61c-908a-406c-908a-e92391622584"},"vehicle_type_id":"4","last_reported":1724350267,"current_range_meters":10400,"station_id":"ce4bgjh2rcd13ifvqbf0","pricing_plan_id":"cebpf4jnsgd1na2vs0mg"},{"bike_id":"b71cac3a-bcb7-4316-ba1c-098d57992a70","system_id":"levelo_inurba_marseille","lat":43.305994,"lon":5.393687,"is_reserved":false,"is_disabled":false,"rental_uris":{"android":"levelo://app?vid=b71cac3a-bcb7-4316-ba1c-098d57992a70","ios":"levelo://app?vid=b71cac3a-bcb7-4316-ba1c-098d57992a70"},"vehicle_type_id":"4","last_reported":1724350267,"current_range_meters":28400,"station_id":"ce4bh0p2rcd13ifvqd80","pricing_plan_id":"cebpf4jnsgd1na2vs0mg"},{"bike_id":"2632b6f7-ad46-4081-840f-6eab4dd84cb3","system_id":"levelo_inurba_marseille","lat":43.293009,"lon":5.374584,"is_reserved":false,"is_disabled":false,"rental_uris":{"android":"levelo://app?vid=2632b6f7-ad46-4081-840f-6eab4dd84cb3","ios":"levelo://app?vid=2632b6f7-ad46-4081-840f-6eab4dd84cb3"},"vehicle_type_id":"4","last_reported":1724350267,"current_range_meters":1600,"station_id":"ce4bgi12rcd13ifvqb70","pricing_plan_id":"cebpf4jnsgd1na2vs0mg"},{"bike_id":"f36bea25-76b5-4d87-ab05-eb39210f1cb4","system_id":"levelo_inurba_marseille","lat":43.305994,"lon":5.393687,"is_reserved":false,"is_disabled":false,"rental_uris":{"android":"levelo://app?vid=f36bea25-76b5-4d87-ab05-eb39210f1cb4","ios":"levelo://app?vid=f36bea25-76b5-4d87-ab05-eb39210f1cb4"},"vehicle_type_id":"4","last_reported":1724350267,"current_range_meters":21600,"station_id":"ce4bh0p2rcd13ifvqd80","pricing_plan_id":"cebpf4jnsgd1na2vs0mg"},{"bike_id":"38f8df93-36b6-4a4e-bb75-43083eee10c2","system_id":"levelo_inurba_marseille","lat":43.303046,"lon":5.368981,"is_reserved":false,"is_disabled":false,"rental_uris":{"android":"levelo://app?vid=38f8df93-36b6-4a4e-bb75-43083eee10c2","ios":"levelo://app?vid=38f8df93-36b6-4a4e-bb75-43083eee10c2"},"vehicle_type_id":"4","last_reported":1724350267,"current_range_meters":0,"station_id":"ce4bgqh2rcd13ifvqc5g","pricing_plan_id":"cebpf4jnsgd1na2vs0mg"},{"bike_id":"1b8123f2-0807-477e-af6f-da5807e37834","system_id":"levelo_inurba_marseille","lat":43.293009,"lon":5.374584,"is_reserved":false,"is_disabled":false,"rental_uris":{"android":"levelo://app?vid=1b8123f2-0807-477e-af6f-da5807e37834","ios":"levelo://app?vid=1b8123f2-0807-477e-af6f-da5807e37834"},"vehicle_type_id":"4","last_reported":1724350267,"current_range_meters":0,"station_id":"ce4bgi12rcd13ifvqb70","pricing_plan_id":"cebpf4jnsgd1na2vs0mg"},{"bike_id":"8e716fc0-4d2e-492c-8130-7072a2dab59d","system_id":"levelo_inurba_marseille","lat":43.2936,"lon":5.37835,"is_reserved":false,"is_disabled":false,"rental_uris":{"android":"levelo://app?vid=8e716fc0-4d2e-492c-8130-7072a2dab59d","ios":"levelo://app?vid=8e716fc0-4d2e-492c-8130-7072a2dab59d"},"vehicle_type_id":"4","last_reported":1724350267,"current_range_meters":10000,"station_id":"ce4bgjh2rcd13ifvqbf0","pricing_plan_id":"cebpf4jnsgd1na2vs0mg"},{"bike_id":"a6e72bb1-bd66-4179-ad31-88a1ceab2e4c","system_id":"levelo_inurba_marseille","lat":43.2936,"lon":5.37835,"is_reserved":false,"is_disabled":false,"rental_uris":{"android":"levelo://app?vid=a6e72bb1-bd66-4179-ad31-88a1ceab2e4c","ios":"levelo://app?vid=a6e72bb1-bd66-4179-ad31-88a1ceab2e4c"},"vehicle_type_id":"4","last_reported":1724350267,"current_range_meters":2000,"station_id":"ce4bgjh2rcd13ifvqbf0","pricing_plan_id":"cebpf4jnsgd1na2vs0mg"},{"bike_id":"a86d2237-11d5-4ad7-a372-e750f7864310","system_id":"levelo_inurba_marseille","lat":43.30085,"lon":5.390856,"is_reserved":false,"is_disabled":false,"rental_uris":{"android":"levelo://app?vid=a86d2237-11d5-4ad7-a372-e750f7864310","ios":"levelo://app?vid=a86d2237-11d5-4ad7-a372-e750f7864310"},"vehicle_type_id":"4","last_reported":1724350267,"current_range_meters":14800,"station_id":"ce4bh192rcd13ifvqdb0","pricing_plan_id":"cebpf4jnsgd1na2vs0mg"},{"bike_id":"b667f2d8-b99d-47c6-b257-52d0c1f71884","system_id":"levelo_inurba_marseille","lat":43.292311,"lon":5.360731,"is_reserved":false,"is_disabled":false,"rental_uris":{"android":"levelo://app?vid=b667f2d8-b99d-47c6-b257-52d0c1f71884","ios":"levelo://app?vid=b667f2d8-b99d-47c6-b257-52d0c1f71884"},"vehicle_type_id":"4","last_reported":1724350267,"current_range_meters":0,"station_id":"ce4bhbh2rcd13ifvqeqg","pricing_plan_id":"cebpf4jnsgd1na2vs0mg"},{"bike_id":"705b3de8-1cc8-4ee1-9333-bd09a1d6f116","system_id":"levelo_inurba_marseille","lat":43.292311,"lon":5.360731,"is_reserved":false,"is_disabled":false,"rental_uris":{"android":"levelo://app?vid=705b3de8-1cc8-4ee1-9333-bd09a1d6f116","ios":"levelo://app?vid=705b3de8-1cc8-4ee1-9333-bd09a1d6f116"},"vehicle_type_id":"4","last_reported":1724350267,"current_range_meters":0,"station_id":"ce4bhbh2rcd13ifvqeqg","pricing_plan_id":"cebpf4jnsgd1na2vs0mg"},{"bike_id":"0c7b19ba-5858-4ca8-b2e5-5bb15ff19ea7","system_id":"levelo_inurba_marseille","lat":43.31365,"lon":5.3959,"is_reserved":false,"is_disabled":false,"rental_uris":{"android":"levelo://app?vid=0c7b19ba-5858-4ca8-b2e5-5bb15ff19ea7","ios":"levelo://app?vid=0c7b19ba-5858-4ca8-b2e5-5bb15ff19ea7"},"vehicle_type_id":"4","last_reported":1724350267,"current_range_meters":0,"station_id":"","pricing_plan_id":"cebpf4jnsgd1na2vs0mg"},{"bike_id":"32ed6ece-fe2d-43f9-9e50-3716771c2099","system_id":"levelo_inurba_marseille","lat":43.29216,"lon":5.3604,"is_reserved":false,"is_disabled":false,"rental_uris":{"android":"levelo://app?vid=32ed6ece-fe2d-43f9-9e50-3716771c2099","ios":"levelo://app?vid=32ed6ece-fe2d-43f9-9e50-3716771c2099"},"vehicle_type_id":"4","last_reported":1724350267,"current_range_meters":30000,"station_id":"ce4bhbh2rcd13ifvqeqg","pricing_plan_id":"cebpf4jnsgd1na2vs0mg"},{"bike_id":"07371258-92c9-41c2-9b89-6dc0e0d5e138","system_id":"levelo_inurba_marseille","lat":43.303665,"lon":5.393304,"is_reserved":false,"is_disabled":false,"rental_uris":{"android":"levelo://app?vid=07371258-92c9-41c2-9b89-6dc0e0d5e138","ios":"levelo://app?vid=07371258-92c9-41c2-9b89-6dc0e0d5e138"},"vehicle_type_id":"4","last_reported":1724350267,"current_range_meters":0,"station_id":"","pricing_plan_id":"cebpf4jnsgd1na2vs0mg"},{"bike_id":"159d6719-cc37-4aa7-9e13-f0d716e05785","system_id":"levelo_inurba_marseille","lat":43.298764,"lon":5.388973,"is_reserved":false,"is_disabled":false,"rental_uris":{"android":"levelo://app?vid=159d6719-cc37-4aa7-9e13-f0d716e05785","ios":"levelo://app?vid=159d6719-cc37-4aa7-9e13-f0d716e05785"},"vehicle_type_id":"4","last_reported":1724350267,"current_range_meters":3600,"station_id":"ce4bh392rcd13ifvqdl0","pricing_plan_id":"cebpf4jnsgd1na2vs0mg"},{"bike_id":"b7791f44-c5f0-4757-97c6-d82e34425eaa","system_id":"levelo_inurba_marseille","lat":43.29872,"lon":5.38896,"is_reserved":false,"is_disabled":false,"rental_uris":{"android":"levelo://app?vid=b7791f44-c5f0-4757-97c6-d82e34425eaa","ios":"levelo://app?vid=b7791f44-c5f0-4757-97c6-d82e34425eaa"},"vehicle_type_id":"4","last_reported":1724350267,"current_range_meters":11200,"station_id":"ce4bh392rcd13ifvqdl0","pricing_plan_id":"cebpf4jnsgd1na2vs0mg"},{"bike_id":"a3ac9c25-116c-41ba-8131-0be99917e2ed","system_id":"levelo_inurba_marseille","lat":43.298764,"lon":5.388973,"is_reserved":false,"is_disabled":false,"rental_uris":{"android":"levelo://app?vid=a3ac9c25-116c-41ba-8131-0be99917e2ed","ios":"levelo://app?vid=a3ac9c25-116c-41ba-8131-0be99917e2ed"},"vehicle_type_id":"4","last_reported":1724350267,"current_range_meters":28000,"station_id":"ce4bh392rcd13ifvqdl0","pricing_plan_id":"cebpf4jnsgd1na2vs0mg"},{"bike_id":"e80177b8-3af3-4af5-8272-4e5c54040356","system_id":"levelo_inurba_marseille","lat":43.291675,"lon":5.371583,"is_reserved":false,"is_disabled":false,"rental_uris":{"android":"levelo://app?vid=e80177b8-3af3-4af5-8272-4e5c54040356","ios":"levelo://app?vid=e80177b8-3af3-4af5-8272-4e5c54040356"},"vehicle_type_id":"4","last_reported":1724350267,"current_range_meters":23600,"station_id":"ce4bha92rcd13ifvqeh0","pricing_plan_id":"cebpf4jnsgd1na2vs0mg"},{"bike_id":"fb35b963-3b59-4087-af7e-58b513186027","system_id":"levelo_inurba_marseille","lat":43.29164,"lon":5.37161,"is_reserved":false,"is_disabled":false,"rental_uris":{"android":"levelo://app?vid=fb35b963-3b59-4087-af7e-58b513186027","ios":"levelo://app?vid=fb35b963-3b59-4087-af7e-58b513186027"},"vehicle_type_id":"4","last_reported":1724350267,"current_range_meters":19600,"station_id":"ce4bha92rcd13ifvqeh0","pricing_plan_id":"cebpf4jnsgd1na2vs0mg"},{"bike_id":"87fa4a14-d865-4a47-8bae-076c5e479900","system_id":"levelo_inurba_marseille","lat":43.292005,"lon":5.357875,"is_reserved":false,"is_disabled":false,"rental_uris":{"android":"levelo://app?vid=87fa4a14-d865-4a47-8bae-076c5e479900","ios":"levelo://app?vid=87fa4a14-d865-4a47-8bae-076c5e479900"},"vehicle_type_id":"4","last_reported":1724350267,"current_range_meters":31600,"station_id":"ce4bhb12rcd13ifvqel0","pricing_plan_id":"cebpf4jnsgd1na2vs0mg"},{"bike_id":"475fe911-a532-4baa-85a3-185cd7849fad","system_id":"levelo_inurba_marseille","lat":43.29199,"lon":5.35803,"is_reserved":false,"is_disabled":false,"rental_uris":{"android":"levelo://app?vid=475fe911-a532-4baa-85a3-185cd7849fad","ios":"levelo://app?vid=475fe911-a532-4baa-85a3-185cd7849fad"},"vehicle_type_id":"4","last_reported":1724350267,"current_range_meters":8400,"station_id":"ce4bhb12rcd13ifvqel0","pricing_plan_id":"cebpf4jnsgd1na2vs0mg"},{"bike_id":"bed54c23-f524-4f3a-9274-487ed70faa84","system_id":"levelo_inurba_marseille","lat":43.29198,"lon":5.35806,"is_reserved":false,"is_disabled":false,"rental_uris":{"android":"levelo://app?vid=bed54c23-f524-4f3a-9274-487ed70faa84","ios":"levelo://app?vid=bed54c23-f524-4f3a-9274-487ed70faa84"},"vehicle_type_id":"4","last_reported":1724350267,"current_range_meters":0,"station_id":"ce4bhb12rcd13ifvqel0","pricing_plan_id":"cebpf4jnsgd1na2vs0mg"},{"bike_id":"7aca9d92-ad2b-4158-881d-883ab6b11d8c","system_id":"levelo_inurba_marseille","lat":43.29197,"lon":5.35804,"is_reserved":false,"is_disabled":false,"rental_uris":{"android":"levelo://app?vid=7aca9d92-ad2b-4158-881d-883ab6b11d8c","ios":"levelo://app?vid=7aca9d92-ad2b-4158-881d-883ab6b11d8c"},"vehicle_type_id":"4","last_reported":1724350267,"current_range_meters":28400,"station_id":"ce4bhb12rcd13ifvqel0","pricing_plan_id":"cebpf4jnsgd1na2vs0mg"},{"bike_id":"4d6a0623-5488-4378-aa64-01d06051778d","system_id":"levelo_inurba_marseille","lat":43.29191,"lon":5.35801,"is_reserved":false,"is_disabled":false,"rental_uris":{"android":"levelo://app?vid=4d6a0623-5488-4378-aa64-01d06051778d","ios":"levelo://app?vid=4d6a0623-5488-4378-aa64-01d06051778d"},"vehicle_type_id":"4","last_reported":1724350267,"current_range_meters":1600,"station_id":"ce4bhb12rcd13ifvqel0","pricing_plan_id":"cebpf4jnsgd1na2vs0mg"},{"bike_id":"32154f85-9c8f-44b4-8802-02c00dbeafab","system_id":"levelo_inurba_marseille","lat":43.313291,"lon":5.396838,"is_reserved":false,"is_disabled":false,"rental_uris":{"android":"levelo://app?vid=32154f85-9c8f-44b4-8802-02c00dbeafab","ios":"levelo://app?vid=32154f85-9c8f-44b4-8802-02c00dbeafab"},"vehicle_type_id":"4","last_reported":1724350267,"current_range_meters":0,"station_id":"ce4bgvp2rcd13ifvqcu0","pricing_plan_id":"cebpf4jnsgd1na2vs0mg"},{"bike_id":"cfb992ac-86c0-4a4f-b9e8-163e45d594dd","system_id":"levelo_inurba_marseille","lat":43.297815,"lon":5.393548,"is_reserved":false,"is_disabled":false,"rental_uris":{"android":"levelo://app?vid=cfb992ac-86c0-4a4f-b9e8-163e45d594dd","ios":"levelo://app?vid=cfb992ac-86c0-4a4f-b9e8-163e45d594dd"},"vehicle_type_id":"4","last_reported":1724350267,"current_range_meters":2800,"station_id":"chh1huq6cuj3fo74tm60","pricing_plan_id":"cebpf4jnsgd1na2vs0mg"},{"bike_id":"65d1197e-4d93-4f82-88a5-600791632ad4","system_id":"levelo_inurba_marseille","lat":43.313291,"lon":5.396838,"is_reserved":false,"is_disabled":false,"rental_uris":{"android":"levelo://app?vid=65d1197e-4d93-4f82-88a5-600791632ad4","ios":"levelo://app?vid=65d1197e-4d93-4f82-88a5-600791632ad4"},"vehicle_type_id":"4","last_reported":1724350267,"current_range_meters":10400,"station_id":"ce4bgvp2rcd13ifvqcu0","pricing_plan_id":"cebpf4jnsgd1na2vs0mg"},{"bike_id":"2d4d00bb-56ab-4963-86eb-3a8637460bd2","system_id":"levelo_inurba_marseille","lat":43.30886,"lon":5.39654,"is_reserved":false,"is_disabled":false,"rental_uris":{"android":"levelo://app?vid=2d4d00bb-56ab-4963-86eb-3a8637460bd2","ios":"levelo://app?vid=2d4d00bb-56ab-4963-86eb-3a8637460bd2"},"vehicle_type_id":"4","last_reported":1724350267,"current_range_meters":1600,"station_id":"ce4bh012rcd13ifvqcv0","pricing_plan_id":"cebpf4jnsgd1na2vs0mg"},{"bike_id":"8ecc604a-13f3-4fad-bcd4-f5db39be642f","system_id":"levelo_inurba_marseille","lat":43.309047,"lon":5.396551,"is_reserved":false,"is_disabled":false,"rental_uris":{"android":"levelo://app?vid=8ecc604a-13f3-4fad-bcd4-f5db39be642f","ios":"levelo://app?vid=8ecc604a-13f3-4fad-bcd4-f5db39be642f"},"vehicle_type_id":"4","last_reported":1724350267,"current_range_meters":14000,"station_id":"ce4bh012rcd13ifvqcv0","pricing_plan_id":"cebpf4jnsgd1na2vs0mg"},{"bike_id":"954aa5d0-3265-4345-b854-0e8c2fc59fa1","system_id":"levelo_inurba_marseille","lat":43.309038,"lon":5.396546,"is_reserved":false,"is_disabled":false,"rental_uris":{"android":"levelo://app?vid=954aa5d0-3265-4345-b854-0e8c2fc59fa1","ios":"levelo://app?vid=954aa5d0-3265-4345-b854-0e8c2fc59fa1"},"vehicle_type_id":"4","last_reported":1724350267,"current_range_meters":7600,"station_id":"ce4bh012rcd13ifvqcv0","pricing_plan_id":"cebpf4jnsgd1na2vs0mg"},{"bike_id":"d1a6665d-aa9e-4edc-8958-a6e9a179fcee","system_id":"levelo_inurba_marseille","lat":43.30883,"lon":5.39659,"is_reserved":false,"is_disabled":false,"rental_uris":{"android":"levelo://app?vid=d1a6665d-aa9e-4edc-8958-a6e9a179fcee","ios":"levelo://app?vid=d1a6665d-aa9e-4edc-8958-a6e9a179fcee"},"vehicle_type_id":"4","last_reported":1724350267,"current_range_meters":16000,"station_id":"ce4bh012rcd13ifvqcv0","pricing_plan_id":"cebpf4jnsgd1na2vs0mg"},{"bike_id":"0ebaa54c-667e-4b87-a46d-87210d7d5b15","system_id":"levelo_inurba_marseille","lat":43.29536,"lon":5.38535,"is_reserved":false,"is_disabled":false,"rental_uris":{"android":"levelo://app?vid=0ebaa54c-667e-4b87-a46d-87210d7d5b15","ios":"levelo://app?vid=0ebaa54c-667e-4b87-a46d-87210d7d5b15"},"vehicle_type_id":"4","last_reported":1724350267,"current_range_meters":30000,"station_id":"ce4bgih2rcd13ifvqba0","pricing_plan_id":"cebpf4jnsgd1na2vs0mg"},{"bike_id":"fd781cab-a041-443e-84bb-d83b65c3532e","system_id":"levelo_inurba_marseille","lat":43.29529,"lon":5.385581,"is_reserved":false,"is_disabled":false,"rental_uris":{"android":"levelo://app?vid=fd781cab-a041-443e-84bb-d83b65c3532e","ios":"levelo://app?vid=fd781cab-a041-443e-84bb-d83b65c3532e"},"vehicle_type_id":"4","last_reported":1724350267,"current_range_meters":400,"station_id":"ce4bgih2rcd13ifvqba0","pricing_plan_id":"cebpf4jnsgd1na2vs0mg"},{"bike_id":"0e93022e-54ee-47a2-8071-513bdd8a6d87","system_id":"levelo_inurba_marseille","lat":43.295371,"lon":5.385492,"is_reserved":false,"is_disabled":false,"rental_uris":{"android":"levelo://app?vid=0e93022e-54ee-47a2-8071-513bdd8a6d87","ios":"levelo://app?vid=0e93022e-54ee-47a2-8071-513bdd8a6d87"},"vehicle_type_id":"4","last_reported":1724350267,"current_range_meters":31200,"station_id":"ce4bgih2rcd13ifvqba0","pricing_plan_id":"cebpf4jnsgd1na2vs0mg"},{"bike_id":"b35d51c8-c90a-4a9f-bf6b-05bfb40ff44b","system_id":"levelo_inurba_marseille","lat":43.29529,"lon":5.38545,"is_reserved":false,"is_disabled":false,"rental_uris":{"android":"levelo://app?vid=b35d51c8-c90a-4a9f-bf6b-05bfb40ff44b","ios":"levelo://app?vid=b35d51c8-c90a-4a9f-bf6b-05bfb40ff44b"},"vehicle_type_id":"4","last_reported":1724350267,"current_range_meters":0,"station_id":"ce4bgih2rcd13ifvqba0","pricing_plan_id":"cebpf4jnsgd1na2vs0mg"},{"bike_id":"89a6e3fe-b6ef-4bd0-ad6e-8f3c9c666874","system_id":"levelo_inurba_marseille","lat":43.29528,"lon":5.38545,"is_reserved":false,"is_disabled":false,"rental_uris":{"android":"levelo://app?vid=89a6e3fe-b6ef-4bd0-ad6e-8f3c9c666874","ios":"levelo://app?vid=89a6e3fe-b6ef-4bd0-ad6e-8f3c9c666874"},"vehicle_type_id":"4","last_reported":1724350267,"current_range_meters":4400,"station_id":"ce4bgih2rcd13ifvqba0","pricing_plan_id":"cebpf4jnsgd1na2vs0mg"},{"bike_id":"9357235f-d88d-4534-b6b3-92caed7163a3","system_id":"levelo_inurba_marseille","lat":43.3135,"lon":5.39736,"is_reserved":false,"is_disabled":false,"rental_uris":{"android":"levelo://app?vid=9357235f-d88d-4534-b6b3-92caed7163a3","ios":"levelo://app?vid=9357235f-d88d-4534-b6b3-92caed7163a3"},"vehicle_type_id":"4","last_reported":1724350267,"current_range_meters":24800,"station_id":"ce4bgvp2rcd13ifvqcu0","pricing_plan_id":"cebpf4jnsgd1na2vs0mg"},{"bike_id":"94bed425-6313-4770-8d16-1d43b31101e4","system_id":"levelo_inurba_marseille","lat":43.29057,"lon":5.36971,"is_reserved":false,"is_disabled":false,"rental_uris":{"android":"levelo://app?vid=94bed425-6313-4770-8d16-1d43b31101e4","ios":"levelo://app?vid=94bed425-6313-4770-8d16-1d43b31101e4"},"vehicle_type_id":"4","last_reported":1724350267,"current_range_meters":5200,"station_id":"","pricing_plan_id":"cebpf4jnsgd1na2vs0mg"},{"bike_id":"de0681a7-4de3-40f3-9196-4caf45249789","system_id":"levelo_inurba_marseille","lat":43.302008,"lon":5.394694,"is_reserved":false,"is_disabled":false,"rental_uris":{"android":"levelo://app?vid=de0681a7-4de3-40f3-9196-4caf45249789","ios":"levelo://app?vid=de0681a7-4de3-40f3-9196-4caf45249789"},"vehicle_type_id":"4","last_reported":1724350267,"current_range_meters":10400,"station_id":"ce4bh0p2rcd13ifvqd70","pricing_plan_id":"cebpf4jnsgd1na2vs0mg"},{"bike_id":"f9bba302-48c8-4b52-b64c-bd9ef494a149","system_id":"levelo_inurba_marseille","lat":43.290624,"lon":5.359245,"is_reserved":false,"is_disabled":false,"rental_uris":{"android":"levelo://app?vid=f9bba302-48c8-4b52-b64c-bd9ef494a149","ios":"levelo://app?vid=f9bba302-48c8-4b52-b64c-bd9ef494a149"},"vehicle_type_id":"4","last_reported":1724350267,"current_range_meters":22400,"station_id":"ce4bha92rcd13ifvqeg0","pricing_plan_id":"cebpf4jnsgd1na2vs0mg"},{"bike_id":"24828f7e-e129-4142-8417-bc35859eff4f","system_id":"levelo_inurba_marseille","lat":43.29043,"lon":5.35904,"is_reserved":false,"is_disabled":false,"rental_uris":{"android":"levelo://app?vid=24828f7e-e129-4142-8417-bc35859eff4f","ios":"levelo://app?vid=24828f7e-e129-4142-8417-bc35859eff4f"},"vehicle_type_id":"4","last_reported":1724350267,"current_range_meters":0,"station_id":"ce4bha92rcd13ifvqeg0","pricing_plan_id":"cebpf4jnsgd1na2vs0mg"},{"bike_id":"f8ef3583-224e-447b-88ef-ac9fb8ddff75","system_id":"levelo_inurba_marseille","lat":43.294153,"lon":5.386305,"is_reserved":false,"is_disabled":false,"rental_uris":{"android":"levelo://app?vid=f8ef3583-224e-447b-88ef-ac9fb8ddff75","ios":"levelo://app?vid=f8ef3583-224e-447b-88ef-ac9fb8ddff75"},"vehicle_type_id":"4","last_reported":1724350267,"current_range_meters":0,"station_id":"ce4bh2h2rcd13ifvqdh0","pricing_plan_id":"cebpf4jnsgd1na2vs0mg"},{"bike_id":"498b5d57-7715-4bc6-8744-1f1da9a631fb","system_id":"levelo_inurba_marseille","lat":43.294153,"lon":5.386305,"is_reserved":false,"is_disabled":false,"rental_uris":{"android":"levelo://app?vid=498b5d57-7715-4bc6-8744-1f1da9a631fb","ios":"levelo://app?vid=498b5d57-7715-4bc6-8744-1f1da9a631fb"},"vehicle_type_id":"4","last_reported":1724350267,"current_range_meters":18400,"station_id":"ce4bh2h2rcd13ifvqdh0","pricing_plan_id":"cebpf4jnsgd1na2vs0mg"},{"bike_id":"95eeaa99-7097-4a2e-ba92-aca505674d65","system_id":"levelo_inurba_marseille","lat":43.294153,"lon":5.386305,"is_reserved":false,"is_disabled":false,"rental_uris":{"android":"levelo://app?vid=95eeaa99-7097-4a2e-ba92-aca505674d65","ios":"levelo://app?vid=95eeaa99-7097-4a2e-ba92-aca505674d65"},"vehicle_type_id":"4","last_reported":1724350267,"current_range_meters":17600,"station_id":"ce4bh2h2rcd13ifvqdh0","pricing_plan_id":"cebpf4jnsgd1na2vs0mg"},{"bike_id":"17f45fa3-c804-45f6-95d7-6d2730fcb9e8","system_id":"levelo_inurba_marseille","lat":43.294153,"lon":5.386305,"is_reserved":false,"is_disabled":false,"rental_uris":{"android":"levelo://app?vid=17f45fa3-c804-45f6-95d7-6d2730fcb9e8","ios":"levelo://app?vid=17f45fa3-c804-45f6-95d7-6d2730fcb9e8"},"vehicle_type_id":"4","last_reported":1724350267,"current_range_meters":0,"station_id":"ce4bh2h2rcd13ifvqdh0","pricing_plan_id":"cebpf4jnsgd1na2vs0mg"},{"bike_id":"c193f81a-8dc1-4cf9-bf0e-9e9ed29d4a2a","system_id":"levelo_inurba_marseille","lat":43.290319,"lon":5.375732,"is_reserved":false,"is_disabled":false,"rental_uris":{"android":"levelo://app?vid=c193f81a-8dc1-4cf9-bf0e-9e9ed29d4a2a","ios":"levelo://app?vid=c193f81a-8dc1-4cf9-bf0e-9e9ed29d4a2a"},"vehicle_type_id":"4","last_reported":1724350267,"current_range_meters":0,"station_id":"ce4bh692rcd13ifvqe90","pricing_plan_id":"cebpf4jnsgd1na2vs0mg"},{"bike_id":"767943df-20c4-4328-a572-cc3dfd495ebb","system_id":"levelo_inurba_marseille","lat":43.2942,"lon":5.38623,"is_reserved":false,"is_disabled":false,"rental_uris":{"android":"levelo://app?vid=767943df-20c4-4328-a572-cc3dfd495ebb","ios":"levelo://app?vid=767943df-20c4-4328-a572-cc3dfd495ebb"},"vehicle_type_id":"4","last_reported":1724350267,"current_range_meters":0,"station_id":"ce4bh2h2rcd13ifvqdh0","pricing_plan_id":"cebpf4jnsgd1na2vs0mg"},{"bike_id":"a79857db-8b39-4262-b8f6-e234923564f3","system_id":"levelo_inurba_marseille","lat":43.29418,"lon":5.3862,"is_reserved":false,"is_disabled":false,"rental_uris":{"android":"levelo://app?vid=a79857db-8b39-4262-b8f6-e234923564f3","ios":"levelo://app?vid=a79857db-8b39-4262-b8f6-e234923564f3"},"vehicle_type_id":"4","last_reported":1724350267,"current_range_meters":5200,"station_id":"ce4bh2h2rcd13ifvqdh0","pricing_plan_id":"cebpf4jnsgd1na2vs0mg"},{"bike_id":"c0fed1d1-eb07-47e6-900c-c7849916a861","system_id":"levelo_inurba_marseille","lat":43.294153,"lon":5.386305,"is_reserved":false,"is_disabled":false,"rental_uris":{"android":"levelo://app?vid=c0fed1d1-eb07-47e6-900c-c7849916a861","ios":"levelo://app?vid=c0fed1d1-eb07-47e6-900c-c7849916a861"},"vehicle_type_id":"4","last_reported":1724350267,"current_range_meters":18800,"station_id":"ce4bh2h2rcd13ifvqdh0","pricing_plan_id":"cebpf4jnsgd1na2vs0mg"},{"bike_id":"89177929-fc14-4618-b2a9-458a317ae51f","system_id":"levelo_inurba_marseille","lat":43.294153,"lon":5.386305,"is_reserved":false,"is_disabled":false,"rental_uris":{"android":"levelo://app?vid=89177929-fc14-4618-b2a9-458a317ae51f","ios":"levelo://app?vid=89177929-fc14-4618-b2a9-458a317ae51f"},"vehicle_type_id":"4","last_reported":1724350267,"current_range_meters":22400,"station_id":"ce4bh2h2rcd13ifvqdh0","pricing_plan_id":"cebpf4jnsgd1na2vs0mg"},{"bike_id":"d7eb76b1-25d2-43b5-90e5-13035a250ebb","system_id":"levelo_inurba_marseille","lat":43.294162,"lon":5.386292,"is_reserved":false,"is_disabled":false,"rental_uris":{"android":"levelo://app?vid=d7eb76b1-25d2-43b5-90e5-13035a250ebb","ios":"levelo://app?vid=d7eb76b1-25d2-43b5-90e5-13035a250ebb"},"vehicle_type_id":"4","last_reported":1724350267,"current_range_meters":3600,"station_id":"ce4bh2h2rcd13ifvqdh0","pricing_plan_id":"cebpf4jnsgd1na2vs0mg"},{"bike_id":"06bafe19-0b63-4f42-ac96-ebffc8fa410b","system_id":"levelo_inurba_marseille","lat":43.294162,"lon":5.386292,"is_reserved":false,"is_disabled":false,"rental_uris":{"android":"levelo://app?vid=06bafe19-0b63-4f42-ac96-ebffc8fa410b","ios":"levelo://app?vid=06bafe19-0b63-4f42-ac96-ebffc8fa410b"},"vehicle_type_id":"4","last_reported":1724350267,"current_range_meters":0,"station_id":"ce4bh2h2rcd13ifvqdh0","pricing_plan_id":"cebpf4jnsgd1na2vs0mg"},{"bike_id":"75817742-952b-4d8b-825e-c2597be91b72","system_id":"levelo_inurba_marseille","lat":43.29422,"lon":5.38629,"is_reserved":false,"is_disabled":false,"rental_uris":{"android":"levelo://app?vid=75817742-952b-4d8b-825e-c2597be91b72","ios":"levelo://app?vid=75817742-952b-4d8b-825e-c2597be91b72"},"vehicle_type_id":"4","last_reported":1724350267,"current_range_meters":0,"station_id":"ce4bh2h2rcd13ifvqdh0","pricing_plan_id":"cebpf4jnsgd1na2vs0mg"},{"bike_id":"2b9e8700-5a34-4d7a-8620-d85b5a9879f8","system_id":"levelo_inurba_marseille","lat":43.294153,"lon":5.386305,"is_reserved":false,"is_disabled":false,"rental_uris":{"android":"levelo://app?vid=2b9e8700-5a34-4d7a-8620-d85b5a9879f8","ios":"levelo://app?vid=2b9e8700-5a34-4d7a-8620-d85b5a9879f8"},"vehicle_type_id":"4","last_reported":1724350267,"current_range_meters":9200,"station_id":"ce4bh2h2rcd13ifvqdh0","pricing_plan_id":"cebpf4jnsgd1na2vs0mg"},{"bike_id":"f5bc006f-1101-469e-b810-b4a5619d1f84","system_id":"levelo_inurba_marseille","lat":43.29416,"lon":5.3862,"is_reserved":false,"is_disabled":false,"rental_uris":{"android":"levelo://app?vid=f5bc006f-1101-469e-b810-b4a5619d1f84","ios":"levelo://app?vid=f5bc006f-1101-469e-b810-b4a5619d1f84"},"vehicle_type_id":"4","last_reported":1724350267,"current_range_meters":14400,"station_id":"ce4bh2h2rcd13ifvqdh0","pricing_plan_id":"cebpf4jnsgd1na2vs0mg"},{"bike_id":"3682509b-498e-4f3f-bd9b-e490af20d810","system_id":"levelo_inurba_marseille","lat":43.2942,"lon":5.38628,"is_reserved":false,"is_disabled":false,"rental_uris":{"android":"levelo://app?vid=3682509b-498e-4f3f-bd9b-e490af20d810","ios":"levelo://app?vid=3682509b-498e-4f3f-bd9b-e490af20d810"},"vehicle_type_id":"4","last_reported":1724350267,"current_range_meters":0,"station_id":"ce4bh2h2rcd13ifvqdh0","pricing_plan_id":"cebpf4jnsgd1na2vs0mg"},{"bike_id":"69971dae-4494-4bee-8089-8e219511fa4a","system_id":"levelo_inurba_marseille","lat":43.294162,"lon":5.386292,"is_reserved":false,"is_disabled":false,"rental_uris":{"android":"levelo://app?vid=69971dae-4494-4bee-8089-8e219511fa4a","ios":"levelo://app?vid=69971dae-4494-4bee-8089-8e219511fa4a"},"vehicle_type_id":"4","last_reported":1724350267,"current_range_meters":6400,"station_id":"ce4bh2h2rcd13ifvqdh0","pricing_plan_id":"cebpf4jnsgd1na2vs0mg"},{"bike_id":"b3710811-bf63-4c5a-898e-54a6264bdbf1","system_id":"levelo_inurba_marseille","lat":43.294153,"lon":5.386305,"is_reserved":false,"is_disabled":false,"rental_uris":{"android":"levelo://app?vid=b3710811-bf63-4c5a-898e-54a6264bdbf1","ios":"levelo://app?vid=b3710811-bf63-4c5a-898e-54a6264bdbf1"},"vehicle_type_id":"4","last_reported":1724350267,"current_range_meters":0,"station_id":"ce4bh2h2rcd13ifvqdh0","pricing_plan_id":"cebpf4jnsgd1na2vs0mg"},{"bike_id":"54e6abf8-edc4-4ee4-8144-e323a1901290","system_id":"levelo_inurba_marseille","lat":43.29415,"lon":5.38624,"is_reserved":false,"is_disabled":false,"rental_uris":{"android":"levelo://app?vid=54e6abf8-edc4-4ee4-8144-e323a1901290","ios":"levelo://app?vid=54e6abf8-edc4-4ee4-8144-e323a1901290"},"vehicle_type_id":"4","last_reported":1724350267,"current_range_meters":0,"station_id":"ce4bh2h2rcd13ifvqdh0","pricing_plan_id":"cebpf4jnsgd1na2vs0mg"},{"bike_id":"22099f43-b647-4905-ad81-2188d758fa33","system_id":"levelo_inurba_marseille","lat":43.294153,"lon":5.386305,"is_reserved":false,"is_disabled":false,"rental_uris":{"android":"levelo://app?vid=22099f43-b647-4905-ad81-2188d758fa33","ios":"levelo://app?vid=22099f43-b647-4905-ad81-2188d758fa33"},"vehicle_type_id":"4","last_reported":1724350267,"current_range_meters":12800,"station_id":"ce4bh2h2rcd13ifvqdh0","pricing_plan_id":"cebpf4jnsgd1na2vs0mg"},{"bike_id":"31b60da0-77c5-4a61-9e5c-683830dca0f6","system_id":"levelo_inurba_marseille","lat":43.29418,"lon":5.3863,"is_reserved":false,"is_disabled":false,"rental_uris":{"android":"levelo://app?vid=31b60da0-77c5-4a61-9e5c-683830dca0f6","ios":"levelo://app?vid=31b60da0-77c5-4a61-9e5c-683830dca0f6"},"vehicle_type_id":"4","last_reported":1724350267,"current_range_meters":0,"station_id":"ce4bh2h2rcd13ifvqdh0","pricing_plan_id":"cebpf4jnsgd1na2vs0mg"},{"bike_id":"be461fd5-7ecf-4b6f-bfad-4783c914f9f6","system_id":"levelo_inurba_marseille","lat":43.289184,"lon":5.366408,"is_reserved":false,"is_disabled":false,"rental_uris":{"android":"levelo://app?vid=be461fd5-7ecf-4b6f-bfad-4783c914f9f6","ios":"levelo://app?vid=be461fd5-7ecf-4b6f-bfad-4783c914f9f6"},"vehicle_type_id":"4","last_reported":1724350267,"current_range_meters":17200,"station_id":"ce4bhap2rcd13ifvqek0","pricing_plan_id":"cebpf4jnsgd1na2vs0mg"},{"bike_id":"50764533-78d3-44f7-b629-4b1410a51a83","system_id":"levelo_inurba_marseille","lat":43.294153,"lon":5.386305,"is_reserved":false,"is_disabled":false,"rental_uris":{"android":"levelo://app?vid=50764533-78d3-44f7-b629-4b1410a51a83","ios":"levelo://app?vid=50764533-78d3-44f7-b629-4b1410a51a83"},"vehicle_type_id":"4","last_reported":1724350267,"current_range_meters":6400,"station_id":"ce4bh2h2rcd13ifvqdh0","pricing_plan_id":"cebpf4jnsgd1na2vs0mg"},{"bike_id":"446a06d8-4868-467e-a206-0bbd123c5e0f","system_id":"levelo_inurba_marseille","lat":43.284214,"lon":5.349706,"is_reserved":false,"is_disabled":false,"rental_uris":{"android":"levelo://app?vid=446a06d8-4868-467e-a206-0bbd123c5e0f","ios":"levelo://app?vid=446a06d8-4868-467e-a206-0bbd123c5e0f"},"vehicle_type_id":"4","last_reported":1724350267,"current_range_meters":28400,"station_id":"ce4bhbh2rcd13ifvqepg","pricing_plan_id":"cebpf4jnsgd1na2vs0mg"},{"bike_id":"46858fa2-1d10-421d-aa08-059d1c040117","system_id":"levelo_inurba_marseille","lat":43.29413,"lon":5.38631,"is_reserved":false,"is_disabled":false,"rental_uris":{"android":"levelo://app?vid=46858fa2-1d10-421d-aa08-059d1c040117","ios":"levelo://app?vid=46858fa2-1d10-421d-aa08-059d1c040117"},"vehicle_type_id":"4","last_reported":1724350267,"current_range_meters":9200,"station_id":"ce4bh2h2rcd13ifvqdh0","pricing_plan_id":"cebpf4jnsgd1na2vs0mg"},{"bike_id":"301555b0-dd4d-44b2-a7c7-f7440db280cf","system_id":"levelo_inurba_marseille","lat":43.289184,"lon":5.366408,"is_reserved":false,"is_disabled":false,"rental_uris":{"android":"levelo://app?vid=301555b0-dd4d-44b2-a7c7-f7440db280cf","ios":"levelo://app?vid=301555b0-dd4d-44b2-a7c7-f7440db280cf"},"vehicle_type_id":"4","last_reported":1724350267,"current_range_meters":12400,"station_id":"ce4bhap2rcd13ifvqek0","pricing_plan_id":"cebpf4jnsgd1na2vs0mg"},{"bike_id":"3ae6aa88-e616-43ff-8935-72b6b2eeaed5","system_id":"levelo_inurba_marseille","lat":43.29413,"lon":5.38632,"is_reserved":false,"is_disabled":false,"rental_uris":{"android":"levelo://app?vid=3ae6aa88-e616-43ff-8935-72b6b2eeaed5","ios":"levelo://app?vid=3ae6aa88-e616-43ff-8935-72b6b2eeaed5"},"vehicle_type_id":"4","last_reported":1724350267,"current_range_meters":9200,"station_id":"ce4bh2h2rcd13ifvqdh0","pricing_plan_id":"cebpf4jnsgd1na2vs0mg"},{"bike_id":"4d8dfe8f-2724-4944-8283-2d884a87ca94","system_id":"levelo_inurba_marseille","lat":43.289468,"lon":5.363719,"is_reserved":false,"is_disabled":false,"rental_uris":{"android":"levelo://app?vid=4d8dfe8f-2724-4944-8283-2d884a87ca94","ios":"levelo://app?vid=4d8dfe8f-2724-4944-8283-2d884a87ca94"},"vehicle_type_id":"4","last_reported":1724350267,"current_range_meters":3200,"station_id":"ce4bhc92rcd13ifvqetg","pricing_plan_id":"cebpf4jnsgd1na2vs0mg"},{"bike_id":"f242aae9-9ac2-4c78-ac4e-3957d5cb26e3","system_id":"levelo_inurba_marseille","lat":43.289184,"lon":5.366408,"is_reserved":false,"is_disabled":false,"rental_uris":{"android":"levelo://app?vid=f242aae9-9ac2-4c78-ac4e-3957d5cb26e3","ios":"levelo://app?vid=f242aae9-9ac2-4c78-ac4e-3957d5cb26e3"},"vehicle_type_id":"4","last_reported":1724350267,"current_range_meters":0,"station_id":"ce4bhap2rcd13ifvqek0","pricing_plan_id":"cebpf4jnsgd1na2vs0mg"},{"bike_id":"243d0d97-64f1-4016-8249-d56fc9d093c9","system_id":"levelo_inurba_marseille","lat":43.29409,"lon":5.3863,"is_reserved":false,"is_disabled":false,"rental_uris":{"android":"levelo://app?vid=243d0d97-64f1-4016-8249-d56fc9d093c9","ios":"levelo://app?vid=243d0d97-64f1-4016-8249-d56fc9d093c9"},"vehicle_type_id":"4","last_reported":1724350267,"current_range_meters":1200,"station_id":"ce4bh2h2rcd13ifvqdh0","pricing_plan_id":"cebpf4jnsgd1na2vs0mg"},{"bike_id":"220696dc-c73b-485c-9b55-daec80a81375","system_id":"levelo_inurba_marseille","lat":43.289184,"lon":5.366408,"is_reserved":false,"is_disabled":false,"rental_uris":{"android":"levelo://app?vid=220696dc-c73b-485c-9b55-daec80a81375","ios":"levelo://app?vid=220696dc-c73b-485c-9b55-daec80a81375"},"vehicle_type_id":"4","last_reported":1724350267,"current_range_meters":2400,"station_id":"ce4bhap2rcd13ifvqek0","pricing_plan_id":"cebpf4jnsgd1na2vs0mg"},{"bike_id":"c7b0b7fb-1359-46fe-8ffd-a55a32e6fad5","system_id":"levelo_inurba_marseille","lat":43.289468,"lon":5.363719,"is_reserved":false,"is_disabled":false,"rental_uris":{"android":"levelo://app?vid=c7b0b7fb-1359-46fe-8ffd-a55a32e6fad5","ios":"levelo://app?vid=c7b0b7fb-1359-46fe-8ffd-a55a32e6fad5"},"vehicle_type_id":"4","last_reported":1724350267,"current_range_meters":4800,"station_id":"ce4bhc92rcd13ifvqetg","pricing_plan_id":"cebpf4jnsgd1na2vs0mg"},{"bike_id":"f5ae9dd2-22c2-4e48-9a98-54d72331cb04","system_id":"levelo_inurba_marseille","lat":43.28942,"lon":5.36384,"is_reserved":false,"is_disabled":false,"rental_uris":{"android":"levelo://app?vid=f5ae9dd2-22c2-4e48-9a98-54d72331cb04","ios":"levelo://app?vid=f5ae9dd2-22c2-4e48-9a98-54d72331cb04"},"vehicle_type_id":"4","last_reported":1724350267,"current_range_meters":0,"station_id":"ce4bhc92rcd13ifvqetg","pricing_plan_id":"cebpf4jnsgd1na2vs0mg"},{"bike_id":"59e7de6c-62f2-43f9-ab06-a4fc5acccf7d","system_id":"levelo_inurba_marseille","lat":43.28939,"lon":5.36394,"is_reserved":false,"is_disabled":false,"rental_uris":{"android":"levelo://app?vid=59e7de6c-62f2-43f9-ab06-a4fc5acccf7d","ios":"levelo://app?vid=59e7de6c-62f2-43f9-ab06-a4fc5acccf7d"},"vehicle_type_id":"4","last_reported":1724350267,"current_range_meters":0,"station_id":"ce4bhc92rcd13ifvqetg","pricing_plan_id":"cebpf4jnsgd1na2vs0mg"},{"bike_id":"95d47818-4cba-4bea-85f4-11ffcc5cc324","system_id":"levelo_inurba_marseille","lat":43.289468,"lon":5.363719,"is_reserved":false,"is_disabled":false,"rental_uris":{"android":"levelo://app?vid=95d47818-4cba-4bea-85f4-11ffcc5cc324","ios":"levelo://app?vid=95d47818-4cba-4bea-85f4-11ffcc5cc324"},"vehicle_type_id":"4","last_reported":1724350267,"current_range_meters":2400,"station_id":"ce4bhc92rcd13ifvqetg","pricing_plan_id":"cebpf4jnsgd1na2vs0mg"},{"bike_id":"6573e7e9-59d3-4adc-ae29-a713c8354ea6","system_id":"levelo_inurba_marseille","lat":43.29276,"lon":5.38449,"is_reserved":false,"is_disabled":false,"rental_uris":{"android":"levelo://app?vid=6573e7e9-59d3-4adc-ae29-a713c8354ea6","ios":"levelo://app?vid=6573e7e9-59d3-4adc-ae29-a713c8354ea6"},"vehicle_type_id":"4","last_reported":1724350267,"current_range_meters":0,"station_id":"ce4bh692rcd13ifvqea0","pricing_plan_id":"cebpf4jnsgd1na2vs0mg"},{"bike_id":"9b8eeb1d-343f-4153-a544-4a77ed76dd2c","system_id":"levelo_inurba_marseille","lat":43.292642,"lon":5.384254,"is_reserved":false,"is_disabled":false,"rental_uris":{"android":"levelo://app?vid=9b8eeb1d-343f-4153-a544-4a77ed76dd2c","ios":"levelo://app?vid=9b8eeb1d-343f-4153-a544-4a77ed76dd2c"},"vehicle_type_id":"4","last_reported":1724350267,"current_range_meters":15600,"station_id":"ce4bh692rcd13ifvqea0","pricing_plan_id":"cebpf4jnsgd1na2vs0mg"},{"bike_id":"afa585b3-e65b-4f9f-9345-5740d0797b38","system_id":"levelo_inurba_marseille","lat":43.2927,"lon":5.38444,"is_reserved":false,"is_disabled":false,"rental_uris":{"android":"levelo://app?vid=afa585b3-e65b-4f9f-9345-5740d0797b38","ios":"levelo://app?vid=afa585b3-e65b-4f9f-9345-5740d0797b38"},"vehicle_type_id":"4","last_reported":1724350267,"current_range_meters":0,"station_id":"ce4bh692rcd13ifvqea0","pricing_plan_id":"cebpf4jnsgd1na2vs0mg"},{"bike_id":"fdd48697-9110-4a24-a3a3-686242c124d9","system_id":"levelo_inurba_marseille","lat":43.292644,"lon":5.384257,"is_reserved":false,"is_disabled":false,"rental_uris":{"android":"levelo://app?vid=fdd48697-9110-4a24-a3a3-686242c124d9","ios":"levelo://app?vid=fdd48697-9110-4a24-a3a3-686242c124d9"},"vehicle_type_id":"4","last_reported":1724350267,"current_range_meters":25600,"station_id":"ce4bh692rcd13ifvqea0","pricing_plan_id":"cebpf4jnsgd1na2vs0mg"},{"bike_id":"f579bda3-3c40-458c-bdde-ad5dc9d3ef25","system_id":"levelo_inurba_marseille","lat":43.29271,"lon":5.38447,"is_reserved":false,"is_disabled":false,"rental_uris":{"android":"levelo://app?vid=f579bda3-3c40-458c-bdde-ad5dc9d3ef25","ios":"levelo://app?vid=f579bda3-3c40-458c-bdde-ad5dc9d3ef25"},"vehicle_type_id":"4","last_reported":1724350267,"current_range_meters":1600,"station_id":"ce4bh692rcd13ifvqea0","pricing_plan_id":"cebpf4jnsgd1na2vs0mg"},{"bike_id":"92ace756-cd1b-4146-aab2-c677bd846123","system_id":"levelo_inurba_marseille","lat":43.292642,"lon":5.384254,"is_reserved":false,"is_disabled":false,"rental_uris":{"android":"levelo://app?vid=92ace756-cd1b-4146-aab2-c677bd846123","ios":"levelo://app?vid=92ace756-cd1b-4146-aab2-c677bd846123"},"vehicle_type_id":"4","last_reported":1724350267,"current_range_meters":0,"station_id":"ce4bh692rcd13ifvqea0","pricing_plan_id":"cebpf4jnsgd1na2vs0mg"},{"bike_id":"386a64b4-0d56-4d36-b567-f09b267a93c4","system_id":"levelo_inurba_marseille","lat":43.29268,"lon":5.38448,"is_reserved":false,"is_disabled":false,"rental_uris":{"android":"levelo://app?vid=386a64b4-0d56-4d36-b567-f09b267a93c4","ios":"levelo://app?vid=386a64b4-0d56-4d36-b567-f09b267a93c4"},"vehicle_type_id":"4","last_reported":1724350267,"current_range_meters":13600,"station_id":"ce4bh692rcd13ifvqea0","pricing_plan_id":"cebpf4jnsgd1na2vs0mg"},{"bike_id":"c5c5666d-372b-4961-b601-4daea93afe37","system_id":"levelo_inurba_marseille","lat":43.292644,"lon":5.384257,"is_reserved":false,"is_disabled":false,"rental_uris":{"android":"levelo://app?vid=c5c5666d-372b-4961-b601-4daea93afe37","ios":"levelo://app?vid=c5c5666d-372b-4961-b601-4daea93afe37"},"vehicle_type_id":"4","last_reported":1724350267,"current_range_meters":4800,"station_id":"ce4bh692rcd13ifvqea0","pricing_plan_id":"cebpf4jnsgd1na2vs0mg"},{"bike_id":"a3652eb2-ad04-4297-b38f-520df8f43a66","system_id":"levelo_inurba_marseille","lat":43.292642,"lon":5.384254,"is_reserved":false,"is_disabled":false,"rental_uris":{"android":"levelo://app?vid=a3652eb2-ad04-4297-b38f-520df8f43a66","ios":"levelo://app?vid=a3652eb2-ad04-4297-b38f-520df8f43a66"},"vehicle_type_id":"4","last_reported":1724350267,"current_range_meters":29200,"station_id":"ce4bh692rcd13ifvqea0","pricing_plan_id":"cebpf4jnsgd1na2vs0mg"},{"bike_id":"4da4b909-37e6-428d-a16c-0ab67a21ba54","system_id":"levelo_inurba_marseille","lat":43.29261,"lon":5.38442,"is_reserved":false,"is_disabled":false,"rental_uris":{"android":"levelo://app?vid=4da4b909-37e6-428d-a16c-0ab67a21ba54","ios":"levelo://app?vid=4da4b909-37e6-428d-a16c-0ab67a21ba54"},"vehicle_type_id":"4","last_reported":1724350267,"current_range_meters":0,"station_id":"ce4bh692rcd13ifvqea0","pricing_plan_id":"cebpf4jnsgd1na2vs0mg"},{"bike_id":"ea9de632-65f3-403c-8bee-d09dd0f7f288","system_id":"levelo_inurba_marseille","lat":43.29263,"lon":5.3845,"is_reserved":false,"is_disabled":false,"rental_uris":{"android":"levelo://app?vid=ea9de632-65f3-403c-8bee-d09dd0f7f288","ios":"levelo://app?vid=ea9de632-65f3-403c-8bee-d09dd0f7f288"},"vehicle_type_id":"4","last_reported":1724350267,"current_range_meters":0,"station_id":"ce4bh692rcd13ifvqea0","pricing_plan_id":"cebpf4jnsgd1na2vs0mg"},{"bike_id":"82fb4505-8068-4428-9a31-76513302307c","system_id":"levelo_inurba_marseille","lat":43.290104,"lon":5.356111,"is_reserved":false,"is_disabled":false,"rental_uris":{"android":"levelo://app?vid=82fb4505-8068-4428-9a31-76513302307c","ios":"levelo://app?vid=82fb4505-8068-4428-9a31-76513302307c"},"vehicle_type_id":"4","last_reported":1724350267,"current_range_meters":0,"station_id":"ce4bhb92rcd13ifvqen0","pricing_plan_id":"cebpf4jnsgd1na2vs0mg"},{"bike_id":"94c8019c-2f1d-4912-9de7-a84bd8c87712","system_id":"levelo_inurba_marseille","lat":43.290103,"lon":5.356114,"is_reserved":false,"is_disabled":false,"rental_uris":{"android":"levelo://app?vid=94c8019c-2f1d-4912-9de7-a84bd8c87712","ios":"levelo://app?vid=94c8019c-2f1d-4912-9de7-a84bd8c87712"},"vehicle_type_id":"4","last_reported":1724350267,"current_range_meters":31200,"station_id":"ce4bhb92rcd13ifvqen0","pricing_plan_id":"cebpf4jnsgd1na2vs0mg"},{"bike_id":"cef64072-cb61-4d48-a492-2d6a15f611f9","system_id":"levelo_inurba_marseille","lat":43.290103,"lon":5.356114,"is_reserved":false,"is_disabled":false,"rental_uris":{"android":"levelo://app?vid=cef64072-cb61-4d48-a492-2d6a15f611f9","ios":"levelo://app?vid=cef64072-cb61-4d48-a492-2d6a15f611f9"},"vehicle_type_id":"4","last_reported":1724350267,"current_range_meters":0,"station_id":"ce4bhb92rcd13ifvqen0","pricing_plan_id":"cebpf4jnsgd1na2vs0mg"},{"bike_id":"6481faeb-8761-4105-a7a1-598b91cb1521","system_id":"levelo_inurba_marseille","lat":43.29002,"lon":5.35616,"is_reserved":false,"is_disabled":false,"rental_uris":{"android":"levelo://app?vid=6481faeb-8761-4105-a7a1-598b91cb1521","ios":"levelo://app?vid=6481faeb-8761-4105-a7a1-598b91cb1521"},"vehicle_type_id":"4","last_reported":1724350267,"current_range_meters":30400,"station_id":"ce4bhb92rcd13ifvqen0","pricing_plan_id":"cebpf4jnsgd1na2vs0mg"},{"bike_id":"9eb928ec-0cba-4df9-b921-2c092be75916","system_id":"levelo_inurba_marseille","lat":43.28998,"lon":5.35622,"is_reserved":false,"is_disabled":false,"rental_uris":{"android":"levelo://app?vid=9eb928ec-0cba-4df9-b921-2c092be75916","ios":"levelo://app?vid=9eb928ec-0cba-4df9-b921-2c092be75916"},"vehicle_type_id":"4","last_reported":1724350267,"current_range_meters":30800,"station_id":"ce4bhb92rcd13ifvqen0","pricing_plan_id":"cebpf4jnsgd1na2vs0mg"},{"bike_id":"5082fba6-1b0f-402c-9a58-1acc0e77c7ac","system_id":"levelo_inurba_marseille","lat":43.295169,"lon":5.390426,"is_reserved":false,"is_disabled":false,"rental_uris":{"android":"levelo://app?vid=5082fba6-1b0f-402c-9a58-1acc0e77c7ac","ios":"levelo://app?vid=5082fba6-1b0f-402c-9a58-1acc0e77c7ac"},"vehicle_type_id":"4","last_reported":1724350267,"current_range_meters":30400,"station_id":"ce4bh3p2rcd13ifvqdp0","pricing_plan_id":"cebpf4jnsgd1na2vs0mg"},{"bike_id":"ea92e1d8-ea6c-47a8-afef-33ade94bcfae","system_id":"levelo_inurba_marseille","lat":43.297815,"lon":5.393548,"is_reserved":false,"is_disabled":false,"rental_uris":{"android":"levelo://app?vid=ea92e1d8-ea6c-47a8-afef-33ade94bcfae","ios":"levelo://app?vid=ea92e1d8-ea6c-47a8-afef-33ade94bcfae"},"vehicle_type_id":"4","last_reported":1724350267,"current_range_meters":4000,"station_id":"chh1huq6cuj3fo74tm60","pricing_plan_id":"cebpf4jnsgd1na2vs0mg"},{"bike_id":"5c43c9c6-0320-4bc8-9d60-acfef136615e","system_id":"levelo_inurba_marseille","lat":43.295169,"lon":5.390426,"is_reserved":false,"is_disabled":false,"rental_uris":{"android":"levelo://app?vid=5c43c9c6-0320-4bc8-9d60-acfef136615e","ios":"levelo://app?vid=5c43c9c6-0320-4bc8-9d60-acfef136615e"},"vehicle_type_id":"4","last_reported":1724350267,"current_range_meters":23600,"station_id":"ce4bh3p2rcd13ifvqdp0","pricing_plan_id":"cebpf4jnsgd1na2vs0mg"},{"bike_id":"9e1d957c-ffc2-47b4-9068-2c1aedb6ffef","system_id":"levelo_inurba_marseille","lat":43.29518,"lon":5.39027,"is_reserved":false,"is_disabled":false,"rental_uris":{"android":"levelo://app?vid=9e1d957c-ffc2-47b4-9068-2c1aedb6ffef","ios":"levelo://app?vid=9e1d957c-ffc2-47b4-9068-2c1aedb6ffef"},"vehicle_type_id":"4","last_reported":1724350267,"current_range_meters":31200,"station_id":"ce4bh3p2rcd13ifvqdp0","pricing_plan_id":"cebpf4jnsgd1na2vs0mg"},{"bike_id":"2921d3b7-05de-4c43-a38d-91f3113bb361","system_id":"levelo_inurba_marseille","lat":43.29519,"lon":5.39029,"is_reserved":false,"is_disabled":false,"rental_uris":{"android":"levelo://app?vid=2921d3b7-05de-4c43-a38d-91f3113bb361","ios":"levelo://app?vid=2921d3b7-05de-4c43-a38d-91f3113bb361"},"vehicle_type_id":"4","last_reported":1724350267,"current_range_meters":30800,"station_id":"ce4bh3p2rcd13ifvqdp0","pricing_plan_id":"cebpf4jnsgd1na2vs0mg"},{"bike_id":"ab981673-3dda-40d0-8b23-4896264d9b84","system_id":"levelo_inurba_marseille","lat":43.330442,"lon":5.389148,"is_reserved":false,"is_disabled":false,"rental_uris":{"android":"levelo://app?vid=ab981673-3dda-40d0-8b23-4896264d9b84","ios":"levelo://app?vid=ab981673-3dda-40d0-8b23-4896264d9b84"},"vehicle_type_id":"4","last_reported":1724350267,"current_range_meters":2000,"station_id":"ce4bhr92rcd13ifvqhrg","pricing_plan_id":"cebpf4jnsgd1na2vs0mg"},{"bike_id":"0e98f5f0-b2cd-44f9-8b3c-0baf5e6831c0","system_id":"levelo_inurba_marseille","lat":43.295169,"lon":5.390426,"is_reserved":false,"is_disabled":false,"rental_uris":{"android":"levelo://app?vid=0e98f5f0-b2cd-44f9-8b3c-0baf5e6831c0","ios":"levelo://app?vid=0e98f5f0-b2cd-44f9-8b3c-0baf5e6831c0"},"vehicle_type_id":"4","last_reported":1724350267,"current_range_meters":4400,"station_id":"ce4bh3p2rcd13ifvqdp0","pricing_plan_id":"cebpf4jnsgd1na2vs0mg"},{"bike_id":"4284e87c-bf80-495c-ada3-75a924a87c11","system_id":"levelo_inurba_marseille","lat":43.295169,"lon":5.390426,"is_reserved":false,"is_disabled":false,"rental_uris":{"android":"levelo://app?vid=4284e87c-bf80-495c-ada3-75a924a87c11","ios":"levelo://app?vid=4284e87c-bf80-495c-ada3-75a924a87c11"},"vehicle_type_id":"4","last_reported":1724350267,"current_range_meters":0,"station_id":"ce4bh3p2rcd13ifvqdp0","pricing_plan_id":"cebpf4jnsgd1na2vs0mg"},{"bike_id":"2547a719-cf3c-44ff-89d1-e02bb50f287e","system_id":"levelo_inurba_marseille","lat":43.289741,"lon":5.378306,"is_reserved":false,"is_disabled":false,"rental_uris":{"android":"levelo://app?vid=2547a719-cf3c-44ff-89d1-e02bb50f287e","ios":"levelo://app?vid=2547a719-cf3c-44ff-89d1-e02bb50f287e"},"vehicle_type_id":"4","last_reported":1724350267,"current_range_meters":0,"station_id":"ce4bh9p2rcd13ifvqed0","pricing_plan_id":"cebpf4jnsgd1na2vs0mg"},