{"last_updated":1690311816,"ttl":30,"version":"2.2","data":{"bikes":[{"bike_id":"07a06af9-96a6-4443-b441-de37bc350bc3","system_id":"levelo_inurba_marseille","lat":43.312239,"lon":5.368562,"is_reserved":false,"is_disabled":false,"rental_uris":{"android":"levelo://app?vid=07a06af9-96a6-4443-b441-de37bc350bc3","ios":"levelo://app?vid=07a06af9-96a6-4443-b441-de37bc350bc3"},"vehicle_type_id":"4","last_reported":1690311816,"current_range_meters":31600,"station_id":"ce4bgl92rcd13ifvqbq0","pricing_plan_id":"free"},{"bike_id":"26115264-d0c0-401a-8bee-ecf3072f6e3f","system_id":"levelo_inurba_marseille","lat":43.312239,"lon":5.368562,"is_reserved":false,"is_disabled":false,"rental_uris":{"android":"levelo://app?vid=26115264-d0c0-401a-8bee-ecf3072f6e3f","ios":"levelo://app?vid=26115264-d0c0-401a-8bee-ecf3072f6e3f"},"vehicle_type_id":"4","last_reported":1690311816,"current_range_meters":9200,"station_id":"ce4bgl92rcd13ifvqbq0","pricing_plan_id":"free"},{"bike_id":"558d5648-4b6e-44f2-9df1-2b5f7a752880","system_id":"levelo_inurba_marseille","lat":43.3122,"lon":5.36846,"is_reserved":false,"is_disabled":false,"rental_uris":{"android":"levelo://app?vid=558d5648-4b6e-44f2-9df1-2b5f7a752880","ios":"levelo://app?vid=558d5648-4b6e-44f2-9df1-2b5f7a752880"},"vehicle_type_id":"4","last_reported":1690311816,"current_range_meters":22800,"station_id":"ce4bgl92rcd13ifvqbq0","pricing_plan_id":"free"},{"bike_id":"7d77bc4a-77c8-4f93-a32c-bb8fbae2c7d6","system_id":"levelo_inurba_marseille","lat":43.31228,"lon":5.36852,"is_reserved":false,"is_disabled":false,"rental_uris":{"android":"levelo://app?vid=7d77bc4a-77c8-4f93-a32c-bb8fbae2c7d6","ios":"levelo://app?vid=7d77bc4a-77c8-4f93-a32c-bb8fbae2c7d6"},"vehicle_type_id":"4","last_reported":1690311816,"current_range_meters":18000,"station_id":"ce4bgl92rcd13ifvqbq0","pricing_plan_id":"free"},{"bike_id":"a3d78d4b-4bda-4311-90af-74e41f20b2a6","system_id":"levelo_inurba_marseille","lat":43.312164,"lon":5.368587,"is_reserved":false,"is_disabled":false,"rental_uris":{"android":"levelo://app?vid=a3d78d4b-4bda-4311-90af-74e41f20b2a6","ios":"levelo://app?vid=a3d78d4b-4bda-4311-90af-74e41f20b2a6"},"vehicle_type_id":"4","last_reported":1690311816,"current_range_meters":26800,"station_id":"ce4bgl92rcd13ifvqbq0","pricing_plan_id":"free"},{"bike_id":"d8337502-915c-4085-abb3-31c9d697ebd3","system_id":"levelo_inurba_marseille","lat":43.314811,"lon":5.373104,"is_reserved":false,"is_disabled":false,"rental_uris":{"android":"levelo://app?vid=d8337502-915c-4085-abb3-31c9d697ebd3","ios":"levelo://app?vid=d8337502-915c-4085-abb3-31c9d697ebd3"},"vehicle_type_id":"4","last_reported":1690311816,"current_range_meters":3600,"station_id":"ce4bgt12rcd13ifvqcd0","pricing_plan_id":"free"},{"bike_id":"f4a78ee3-d2f6-438f-a34f-f62cbac84bd6","system_id":"levelo_inurba_marseille","lat":43.314811,"lon":5.373103,"is_reserved":false,"is_disabled":false,"rental_uris":{"android":"levelo://app?vid=f4a78ee3-d2f6-438f-a34f-f62cbac84bd6","ios":"levelo://app?vid=f4a78ee3-d2f6-438f-a34f-f62cbac84bd6"},"vehicle_type_id":"4","last_reported":1690311816,"current_range_meters":30800,"station_id":"ce4bgt12rcd13ifvqcd0","pricing_plan_id":"free"},{"bike_id":"5b199e17-f239-43a4-8e82-67232107937c","system_id":"levelo_inurba_marseille","lat":43.314811,"lon":5.373103,"is_reserved":false,"is_disabled":false,"rental_uris":{"android":"levelo://app?vid=5b199e17-f239-43a4-8e82-67232107937c","ios":"levelo://app?vid=5b199e17-f239-43a4-8e82-67232107937c"},"vehicle_type_id":"4","last_reported":1690311816,"current_range_meters":11200,"station_id":"ce4bgt12rcd13ifvqcd0","pricing_plan_id":"free"},{"bike_id":"386cdeb9-4e50-46e5-b019-5496ee844587","system_id":"levelo_inurba_marseille","lat":43.309039,"lon":5.371797,"is_reserved":false,"is_disabled":false,"rental_uris":{"android":"levelo://app?vid=386cdeb9-4e50-46e5-b019-5496ee844587","ios":"levelo://app?vid=386cdeb9-4e50-46e5-b019-5496ee844587"},"vehicle_type_id":"4","last_reported":1690311816,"current_range_meters":4800,"station_id":"ce4bguh2rcd13ifvqckg","pricing_plan_id":"free"},{"bike_id":"6b926e33-66b3-4013-b123-4872cd3b9629","system_id":"levelo_inurba_marseille","lat":43.32026,"lon":5.37112,"is_reserved":false,"is_disabled":false,"rental_uris":{"android":"levelo://app?vid=6b926e33-66b3-4013-b123-4872cd3b9629","ios":"levelo://app?vid=6b926e33-66b3-4013-b123-4872cd3b9629"},"vehicle_type_id":"4","last_reported":1690311816,"current_range_meters":24800,"station_id":"","pricing_plan_id":"free"},{"bike_id":"33f43664-a318-40a7-9e2f-53bce24311a2","system_id":"levelo_inurba_marseille","lat":43.30788,"lon":5.37653,"is_reserved":false,"is_disabled":false,"rental_uris":{"android":"levelo://app?vid=33f43664-a318-40a7-9e2f-53bce24311a2","ios":"levelo://app?vid=33f43664-a318-40a7-9e2f-53bce24311a2"},"vehicle_type_id":"4","last_reported":1690311816,"current_range_meters":18400,"station_id":"ce4bgv92rcd13ifvqcq0","pricing_plan_id":"free"},{"bike_id":"089a9f37-f4f7-4672-9aec-5117c14a9106","system_id":"levelo_inurba_marseille","lat":43.303046,"lon":5.368981,"is_reserved":false,"is_disabled":false,"rental_uris":{"android":"levelo://app?vid=089a9f37-f4f7-4672-9aec-5117c14a9106","ios":"levelo://app?vid=089a9f37-f4f7-4672-9aec-5117c14a9106"},"vehicle_type_id":"4","last_reported":1690311816,"current_range_meters":4000,"station_id":"ce4bgqh2rcd13ifvqc5g","pricing_plan_id":"free"},{"bike_id":"b9ae4c1a-bc74-4ba3-ac47-846aecc6be45","system_id":"levelo_inurba_marseille","lat":43.315293,"lon":5.380349,"is_reserved":false,"is_disabled":false,"rental_uris":{"android":"levelo://app?vid=b9ae4c1a-bc74-4ba3-ac47-846aecc6be45","ios":"levelo://app?vid=b9ae4c1a-bc74-4ba3-ac47-846aecc6be45"},"vehicle_type_id":"4","last_reported":1690311816,"current_range_meters":18400,"station_id":"ce4bhsp2rcd13ifvqi50","pricing_plan_id":"free"},{"bike_id":"b92d6050-6feb-4ddf-815c-281599b75985","system_id":"levelo_inurba_marseille","lat":43.308012,"lon":5.381511,"is_reserved":false,"is_disabled":false,"rental_uris":{"android":"levelo://app?vid=b92d6050-6feb-4ddf-815c-281599b75985","ios":"levelo://app?vid=b92d6050-6feb-4ddf-815c-281599b75985"},"vehicle_type_id":"4","last_reported":1690311816,"current_range_meters":5200,"station_id":"ce4bgt12rcd13ifvqce0","pricing_plan_id":"free"},{"bike_id":"b005b88e-47df-4d2d-aebf-23629c9aaeba","system_id":"levelo_inurba_marseille","lat":43.30801,"lon":5.38144,"is_reserved":false,"is_disabled":false,"rental_uris":{"android":"levelo://app?vid=b005b88e-47df-4d2d-aebf-23629c9aaeba","ios":"levelo://app?vid=b005b88e-47df-4d2d-aebf-23629c9aaeba"},"vehicle_type_id":"4","last_reported":1690311816,"current_range_meters":0,"station_id":"ce4bgt12rcd13ifvqce0","pricing_plan_id":"free"},{"bike_id":"8669c382-3b0d-4c21-9183-284980224c30","system_id":"levelo_inurba_marseille","lat":43.30794,"lon":5.38153,"is_reserved":false,"is_disabled":false,"rental_uris":{"android":"levelo://app?vid=8669c382-3b0d-4c21-9183-284980224c30","ios":"levelo://app?vid=8669c382-3b0d-4c21-9183-284980224c30"},"vehicle_type_id":"4","last_reported":1690311816,"current_range_meters":400,"station_id":"ce4bgt12rcd13ifvqce0","pricing_plan_id":"free"},{"bike_id":"c6f45b5c-ed88-40a2-ae95-461100173439","system_id":"levelo_inurba_marseille","lat":43.308036,"lon":5.381624,"is_reserved":false,"is_disabled":false,"rental_uris":{"android":"levelo://app?vid=c6f45b5c-ed88-40a2-ae95-461100173439","ios":"levelo://app?vid=c6f45b5c-ed88-40a2-ae95-461100173439"},"vehicle_type_id":"4","last_reported":1690311816,"current_range_meters":6400,"station_id":"ce4bgt12rcd13ifvqce0","pricing_plan_id":"free"},{"bike_id":"aac6fe9f-6f71-4690-b692-c02af195bf26","system_id":"levelo_inurba_marseille","lat":43.30784,"lon":5.38152,"is_reserved":false,"is_disabled":false,"rental_uris":{"android":"levelo://app?vid=aac6fe9f-6f71-4690-b692-c02af195bf26","ios":"levelo://app?vid=aac6fe9f-6f71-4690-b692-c02af195bf26"},"vehicle_type_id":"4","last_reported":1690311816,"current_range_meters":5200,"station_id":"ce4bgt12rcd13ifvqce0","pricing_plan_id":"free"},{"bike_id":"6279966f-d37d-4b2b-8df3-15d4097ae01e","system_id":"levelo_inurba_marseille","lat":43.30789,"lon":5.38159,"is_reserved":false,"is_disabled":false,"rental_uris":{"android":"levelo://app?vid=6279966f-d37d-4b2b-8df3-15d4097ae01e","ios":"levelo://app?vid=6279966f-d37d-4b2b-8df3-15d4097ae01e"},"vehicle_type_id":"4","last_reported":1690311816,"current_range_meters":6000,"station_id":"ce4bgt12rcd13ifvqce0","pricing_plan_id":"free"},{"bike_id":"922d4f58-e9f9-4c89-b76e-ff14d16bb267","system_id":"levelo_inurba_marseille","lat":43.30794,"lon":5.38165,"is_reserved":false,"is_disabled":false,"rental_uris":{"android":"levelo://app?vid=922d4f58-e9f9-4c89-b76e-ff14d16bb267","ios":"levelo://app?vid=922d4f58-e9f9-4c89-b76e-ff14d16bb267"},"vehicle_type_id":"4","last_reported":1690311816,"current_range_meters":21600,"station_id":"ce4bgt12rcd13ifvqce0","pricing_plan_id":"free"},{"bike_id":"c4688879-0b4a-4d9c-842e-27b33a8738ee","system_id":"levelo_inurba_marseille","lat":43.304606,"lon":5.379026,"is_reserved":false,"is_disabled":false,"rental_uris":{"android":"levelo://app?vid=c4688879-0b4a-4d9c-842e-27b33a8738ee","ios":"levelo://app?vid=c4688879-0b4a-4d9c-842e-27b33a8738ee"},"vehicle_type_id":"4","last_reported":1690311816,"current_range_meters":0,"station_id":"ce4bgup2rcd13ifvqcn0","pricing_plan_id":"free"},{"bike_id":"ee6cbf1b-8cab-4848-9bb1-41a0cc6e3417","system_id":"levelo_inurba_marseille","lat":43.302784,"lon":5.377158,"is_reserved":false,"is_disabled":false,"rental_uris":{"android":"levelo://app?vid=ee6cbf1b-8cab-4848-9bb1-41a0cc6e3417","ios":"levelo://app?vid=ee6cbf1b-8cab-4848-9bb1-41a0cc6e3417"},"vehicle_type_id":"4","last_reported":1690311816,"current_range_meters":800,"station_id":"ce4bguh2rcd13ifvqcj0","pricing_plan_id":"free"},{"bike_id":"2283b58d-d047-4f9f-92d7-32928554a04e","system_id":"levelo_inurba_marseille","lat":43.319935,"lon":5.381699,"is_reserved":false,"is_disabled":false,"rental_uris":{"android":"levelo://app?vid=2283b58d-d047-4f9f-92d7-32928554a04e","ios":"levelo://app?vid=2283b58d-d047-4f9f-92d7-32928554a04e"},"vehicle_type_id":"4","last_reported":1690311816,"current_range_meters":6400,"station_id":"ce4bhr12rcd13ifvqhpg","pricing_plan_id":"free"},{"bike_id":"9dfb4883-2746-4ace-b20b-88f81973abd8","system_id":"levelo_inurba_marseille","lat":43.31991,"lon":5.38167,"is_reserved":false,"is_disabled":false,"rental_uris":{"android":"levelo://app?vid=9dfb4883-2746-4ace-b20b-88f81973abd8","ios":"levelo://app?vid=9dfb4883-2746-4ace-b20b-88f81973abd8"},"vehicle_type_id":"4","last_reported":1690311816,"current_range_meters":26400,"station_id":"ce4bhr12rcd13ifvqhpg","pricing_plan_id":"free"},{"bike_id":"10bfe15c-b3ca-4437-9a45-d041066f2ee3","system_id":"levelo_inurba_marseille","lat":43.29935,"lon":5.36546,"is_reserved":false,"is_disabled":false,"rental_uris":{"android":"levelo://app?vid=10bfe15c-b3ca-4437-9a45-d041066f2ee3","ios":"levelo://app?vid=10bfe15c-b3ca-4437-9a45-d041066f2ee3"},"vehicle_type_id":"4","last_reported":1690311816,"current_range_meters":7200,"station_id":"ce4bgm92rcd13ifvqbr0","pricing_plan_id":"free"},{"bike_id":"0d94d076-ffab-4079-ba9a-682efa185014","system_id":"levelo_inurba_marseille","lat":43.30535,"lon":5.38411,"is_reserved":false,"is_disabled":false,"rental_uris":{"android":"levelo://app?vid=0d94d076-ffab-4079-ba9a-682efa185014","ios":"levelo://app?vid=0d94d076-ffab-4079-ba9a-682efa185014"},"vehicle_type_id":"4","last_reported":1690311816,"current_range_meters":2000,"station_id":"ce4bh692rcd13ifvqea0","pricing_plan_id":"free"},{"bike_id":"f7f97c5f-5efc-4fd1-8cf4-3b4c21c02fb3","system_id":"levelo_inurba_marseille","lat":43.305364,"lon":5.384119,"is_reserved":false,"is_disabled":false,"rental_uris":{"android":"levelo://app?vid=f7f97c5f-5efc-4fd1-8cf4-3b4c21c02fb3","ios":"levelo://app?vid=f7f97c5f-5efc-4fd1-8cf4-3b4c21c02fb3"},"vehicle_type_id":"4","last_reported":1690311816,"current_range_meters":12800,"station_id":"ce4bgg92rcd13ifvqb30","pricing_plan_id":"free"},{"bike_id":"93a36284-d0be-4cd0-81fa-25b6c529a857","system_id":"levelo_inurba_marseille","lat":43.299243,"lon":5.374807,"is_reserved":false,"is_disabled":false,"rental_uris":{"android":"levelo://app?vid=93a36284-d0be-4cd0-81fa-25b6c529a857","ios":"levelo://app?vid=93a36284-d0be-4cd0-81fa-25b6c529a857"},"vehicle_type_id":"4","last_reported":1690311816,"current_range_meters":7200,"station_id":"ce4bgjh2rcd13ifvqbg0","pricing_plan_id":"free"},{"bike_id":"ab91fc23-86d2-4fb1-b39e-774ca2964aec","system_id":"levelo_inurba_marseille","lat":43.297794,"lon":5.370888,"is_reserved":false,"is_disabled":false,"rental_uris":{"android":"levelo://app?vid=ab91fc23-86d2-4fb1-b39e-774ca2964aec","ios":"levelo://app?vid=ab91fc23-86d2-4fb1-b39e-774ca2964aec"},"vehicle_type_id":"4","last_reported":1690311816,"current_range_meters":0,"station_id":"ce4bgop2rcd13ifvqc1g","pricing_plan_id":"free"},{"bike_id":"d5e19152-5958-44ec-bce8-e631869ba045","system_id":"levelo_inurba_marseille","lat":43.32298,"lon":5.38256,"is_reserved":false,"is_disabled":false,"rental_uris":{"android":"levelo://app?vid=d5e19152-5958-44ec-bce8-e631869ba045","ios":"levelo://app?vid=d5e19152-5958-44ec-bce8-e631869ba045"},"vehicle_type_id":"4","last_reported":1690311816,"current_range_meters":18000,"station_id":"ce4bhr12rcd13ifvqhqg","pricing_plan_id":"free"},{"bike_id":"14018838-15d4-47d3-b92b-afe97d69edca","system_id":"levelo_inurba_marseille","lat":43.32828,"lon":5.36682,"is_reserved":false,"is_disabled":false,"rental_uris":{"android":"levelo://app?vid=14018838-15d4-47d3-b92b-afe97d69edca","ios":"levelo://app?vid=14018838-15d4-47d3-b92b-afe97d69edca"},"vehicle_type_id":"4","last_reported":1690311816,"current_range_meters":12800,"station_id":"ce4bhs92rcd13ifvqi0g","pricing_plan_id":"free"},{"bike_id":"42e7e2ea-edb2-4143-b36a-ec328e76506c","system_id":"levelo_inurba_marseille","lat":43.32832,"lon":5.36693,"is_reserved":false,"is_disabled":false,"rental_uris":{"android":"levelo://app?vid=42e7e2ea-edb2-4143-b36a-ec328e76506c","ios":"levelo://app?vid=42e7e2ea-edb2-4143-b36a-ec328e76506c"},"vehicle_type_id":"4","last_reported":1690311816,"current_range_meters":22400,"station_id":"ce4bhs92rcd13ifvqi0g","pricing_plan_id":"free"},{"bike_id":"72ca7208-45f8-437b-8356-4e83c77eebbc","system_id":"levelo_inurba_marseille","lat":43.328371,"lon":5.366909,"is_reserved":false,"is_disabled":false,"rental_uris":{"android":"levelo://app?vid=72ca7208-45f8-437b-8356-4e83c77eebbc","ios":"levelo://app?vid=72ca7208-45f8-437b-8356-4e83c77eebbc"},"vehicle_type_id":"4","last_reported":1690311816,"current_range_meters":1200,"station_id":"ce4bhs92rcd13ifvqi0g","pricing_plan_id":"free"},{"bike_id":"cfdae39a-73fc-4708-bfd3-1db42eb43230","system_id":"levelo_inurba_marseille","lat":43.328371,"lon":5.366909,"is_reserved":false,"is_disabled":false,"rental_uris":{"android":"levelo://app?vid=cfdae39a-73fc-4708-bfd3-1db42eb43230","ios":"levelo://app?vid=cfdae39a-73fc-4708-bfd3-1db42eb43230"},"vehicle_type_id":"4","last_reported":1690311816,"current_range_meters":22400,"station_id":"ce4bhs92rcd13ifvqi0g","pricing_plan_id":"free"},{"bike_id":"c13d062c-7f0b-42f9-876b-2a1fc88a77c4","system_id":"levelo_inurba_marseille","lat":43.32834,"lon":5.36691,"is_reserved":false,"is_disabled":false,"rental_uris":{"android":"levelo://app?vid=c13d062c-7f0b-42f9-876b-2a1fc88a77c4","ios":"levelo://app?vid=c13d062c-7f0b-42f9-876b-2a1fc88a77c4"},"vehicle_type_id":"4","last_reported":1690311816,"current_range_meters":0,"station_id":"ce4bhs92rcd13ifvqi0g","pricing_plan_id":"free"},{"bike_id":"f376f06a-3cdf-4388-ade3-9cb3ea05c059","system_id":"levelo_inurba_marseille","lat":43.29712,"lon":5.36601,"is_reserved":false,"is_disabled":false,"rental_uris":{"android":"levelo://app?vid=f376f06a-3cdf-4388-ade3-9cb3ea05c059","ios":"levelo://app?vid=f376f06a-3cdf-4388-ade3-9cb3ea05c059"},"vehicle_type_id":"4","last_reported":1690311816,"current_range_meters":31200,"station_id":"ce4bgn12rcd13ifvqbt0","pricing_plan_id":"free"},{"bike_id":"fb2576f5-9bd8-4648-bacc-c8772e699153","system_id":"levelo_inurba_marseille","lat":43.29683,"lon":5.36246,"is_reserved":false,"is_disabled":false,"rental_uris":{"android":"levelo://app?vid=fb2576f5-9bd8-4648-bacc-c8772e699153","ios":"levelo://app?vid=fb2576f5-9bd8-4648-bacc-c8772e699153"},"vehicle_type_id":"4","last_reported":1690311816,"current_range_meters":29600,"station_id":"","pricing_plan_id":"free"},{"bike_id":"f85d1b77-ad90-467b-a71c-bed986da2515","system_id":"levelo_inurba_marseille","lat":43.29622,"lon":5.37152,"is_reserved":false,"is_disabled":false,"rental_uris":{"android":"levelo://app?vid=f85d1b77-ad90-467b-a71c-bed986da2515","ios":"levelo://app?vid=f85d1b77-ad90-467b-a71c-bed986da2515"},"vehicle_type_id":"4","last_reported":1690311816,"current_range_meters":5600,"station_id":"","pricing_plan_id":"free"},{"bike_id":"e9067ddc-cc4a-4a94-897c-1f0df0420604","system_id":"levelo_inurba_marseille","lat":43.296131,"lon":5.370773,"is_reserved":false,"is_disabled":false,"rental_uris":{"android":"levelo://app?vid=e9067ddc-cc4a-4a94-897c-1f0df0420604","ios":"levelo://app?vid=e9067ddc-cc4a-4a94-897c-1f0df0420604"},"vehicle_type_id":"4","last_reported":1690311816,"current_range_meters":6800,"station_id":"ce4bgnh2rcd13ifvqc0g","pricing_plan_id":"free"},{"bike_id":"9eb05f1f-25fa-476c-9893-ffee5a591424","system_id":"levelo_inurba_marseille","lat":43.29922,"lon":5.38104,"is_reserved":false,"is_disabled":false,"rental_uris":{"android":"levelo://app?vid=9eb05f1f-25fa-476c-9893-ffee5a591424","ios":"levelo://app?vid=9eb05f1f-25fa-476c-9893-ffee5a591424"},"vehicle_type_id":"4","last_reported":1690311816,"current_range_meters":23200,"station_id":"ce4bgj12rcd13ifvqbc0","pricing_plan_id":"free"},{"bike_id":"2731f2eb-f12a-4f1c-a89c-bdfaaec01c66","system_id":"levelo_inurba_marseille","lat":43.309589,"lon":5.390258,"is_reserved":false,"is_disabled":false,"rental_uris":{"android":"levelo://app?vid=2731f2eb-f12a-4f1c-a89c-bdfaaec01c66","ios":"levelo://app?vid=2731f2eb-f12a-4f1c-a89c-bdfaaec01c66"},"vehicle_type_id":"4","last_reported":1690311816,"current_range_meters":2400,"station_id":"ce4bgup2rcd13ifvqco0","pricing_plan_id":"free"},{"bike_id":"eced2f4a-dfd6-467c-98d8-bbb727f4f4cf","system_id":"levelo_inurba_marseille","lat":43.299028,"lon":5.381509,"is_reserved":false,"is_disabled":false,"rental_uris":{"android":"levelo://app?vid=eced2f4a-dfd6-467c-98d8-bbb727f4f4cf","ios":"levelo://app?vid=eced2f4a-dfd6-467c-98d8-bbb727f4f4cf"},"vehicle_type_id":"4","last_reported":1690311816,"current_range_meters":19600,"station_id":"ce4bgj12rcd13ifvqbc0","pricing_plan_id":"free"},{"bike_id":"656c4bbc-fb5d-40de-b703-6a8d75686717","system_id":"levelo_inurba_marseille","lat":43.29716,"lon":5.37696,"is_reserved":false,"is_disabled":false,"rental_uris":{"android":"levelo://app?vid=656c4bbc-fb5d-40de-b703-6a8d75686717","ios":"levelo://app?vid=656c4bbc-fb5d-40de-b703-6a8d75686717"},"vehicle_type_id":"4","last_reported":1690311816,"current_range_meters":7200,"station_id":"ce4bgkh2rcd13ifvqbl0","pricing_plan_id":"free"},{"bike_id":"f4666395-a131-4937-b0fa-e77fb9e24729","system_id":"levelo_inurba_marseille","lat":43.309589,"lon":5.390258,"is_reserved":false,"is_disabled":false,"rental_uris":{"android":"levelo://app?vid=f4666395-a131-4937-b0fa-e77fb9e24729","ios":"levelo://app?vid=f4666395-a131-4937-b0fa-e77fb9e24729"},"vehicle_type_id":"4","last_reported":1690311816,"current_range_meters":17200,"station_id":"ce4bgup2rcd13ifvqco0","pricing_plan_id":"free"},{"bike_id":"ab94e145-d0fd-488c-b05c-4dfd6cb1ccad","system_id":"levelo_inurba_marseille","lat":43.29682,"lon":5.37662,"is_reserved":false,"is_disabled":false,"rental_uris":{"android":"levelo://app?vid=ab94e145-d0fd-488c-b05c-4dfd6cb1ccad","ios":"levelo://app?vid=ab94e145-d0fd-488c-b05c-4dfd6cb1ccad"},"vehicle_type_id":"4","last_reported":1690311816,"current_range_meters":16000,"station_id":"","pricing_plan_id":"free"},{"bike_id":"edd9c18a-6126-42c1-bf8f-1f46592aa7d8","system_id":"levelo_inurba_marseille","lat":43.3095,"lon":5.39046,"is_reserved":false,"is_disabled":false,"rental_uris":{"android":"levelo://app?vid=edd9c18a-6126-42c1-bf8f-1f46592aa7d8","ios":"levelo://app?vid=edd9c18a-6126-42c1-bf8f-1f46592aa7d8"},"vehicle_type_id":"4","last_reported":1690311816,"current_range_meters":21600,"station_id":"ce4bgup2rcd13ifvqco0","pricing_plan_id":"free"},{"bike_id":"8c600855-2962-456a-8646-af430e1398db","system_id":"levelo_inurba_marseille","lat":43.317557,"lon":5.390173,"is_reserved":false,"is_disabled":false,"rental_uris":{"android":"levelo://app?vid=8c600855-2962-456a-8646-af430e1398db","ios":"levelo://app?vid=8c600855-2962-456a-8646-af430e1398db"},"vehicle_type_id":"4","last_reported":1690311816,"current_range_meters":14400,"station_id":"ce4bhqp2rcd13ifvqhng","pricing_plan_id":"free"},{"bike_id":"f0d0d4b9-c9d5-4616-aed3-54da424c8aee","system_id":"levelo_inurba_marseille","lat":43.317557,"lon":5.390173,"is_reserved":false,"is_disabled":false,"rental_uris":{"android":"levelo://app?vid=f0d0d4b9-c9d5-4616-aed3-54da424c8aee","ios":"levelo://app?vid=f0d0d4b9-c9d5-4616-aed3-54da424c8aee"},"vehicle_type_id":"4","last_reported":1690311816,"current_range_meters":22800,"station_id":"ce4bhqp2rcd13ifvqhng","pricing_plan_id":"free"},{"bike_id":"6d655131-56c4-4b2c-a516-08e20e25b707","system_id":"levelo_inurba_marseille","lat":43.317557,"lon":5.390173,"is_reserved":false,"is_disabled":false,"rental_uris":{"android":"levelo://app?vid=6d655131-56c4-4b2c-a516-08e20e25b707","ios":"levelo://app?vid=6d655131-56c4-4b2c-a516-08e20e25b707"},"vehicle_type_id":"4","last_reported":1690311816,"current_range_meters":31200,"station_id":"ce4bhqp2rcd13ifvqhng","pricing_plan_id":"free"},{"bike_id":"50a6ef4f-52c9-4747-9223-407bc1883781","system_id":"levelo_inurba_marseille","lat":43.317557,"lon":5.390173,"is_reserved":false,"is_disabled":false,"rental_uris":{"android":"levelo://app?vid=50a6ef4f-52c9-4747-9223-407bc1883781","ios":"levelo://app?vid=50a6ef4f-52c9-4747-9223-407bc1883781"},"vehicle_type_id":"4","last_reported":1690311816,"current_range_meters":28800,"station_id":"ce4bhqp2rcd13ifvqhng","pricing_plan_id":"free"},{"bike_id":"cb5e372e-9b2b-4ec9-b8fd-82b27d4da049","system_id":"levelo_inurba_marseille","lat":43.30435,"lon":5.3888,"is_reserved":false,"is_disabled":false,"rental_uris":{"android":"levelo://app?vid=cb5e372e-9b2b-4ec9-b8fd-82b27d4da049","ios":"levelo://app?vid=cb5e372e-9b2b-4ec9-b8fd-82b27d4da049"},"vehicle_type_id":"4","last_reported":1690311816,"current_range_meters":800,"station_id":"ce4bgk12rcd13ifvqbi0","pricing_plan_id":"free"},{"bike_id":"9216f6cf-cf40-4936-b190-5cc27c3e9fac","system_id":"levelo_inurba_marseille","lat":43.295748,"lon":5.37522,"is_reserved":false,"is_disabled":false,"rental_uris":{"android":"levelo://app?vid=9216f6cf-cf40-4936-b190-5cc27c3e9fac","ios":"levelo://app?vid=9216f6cf-cf40-4936-b190-5cc27c3e9fac"},"vehicle_type_id":"4","last_reported":1690311816,"current_range_meters":26800,"station_id":"ce4bgh92rcd13ifvqb50","pricing_plan_id":"free"},{"bike_id":"f6f4f636-ffb9-49da-bd02-ab6445eb343f","system_id":"levelo_inurba_marseille","lat":43.30442,"lon":5.38895,"is_reserved":false,"is_disabled":false,"rental_uris":{"android":"levelo://app?vid=f6f4f636-ffb9-49da-bd02-ab6445eb343f","ios":"levelo://app?vid=f6f4f636-ffb9-49da-bd02-ab6445eb343f"},"vehicle_type_id":"4","last_reported":1690311816,"current_range_meters":21200,"station_id":"ce4bgk12rcd13ifvqbi0","pricing_plan_id":"free"},{"bike_id":"e49bbe49-fffa-4ca0-88fd-f29193d667c0","system_id":"levelo_inurba_marseille","lat":43.295279,"lon":5.375048,"is_reserved":false,"is_disabled":false,"rental_uris":{"android":"levelo://app?vid=e49bbe49-fffa-4ca0-88fd-f29193d667c0","ios":"levelo://app?vid=e49bbe49-fffa-4ca0-88fd-f29193d667c0"},"vehicle_type_id":"4","last_reported":1690311816,"current_range_meters":800,"station_id":"ce4bgkp2rcd13ifvqbmg","pricing_plan_id":"free"},{"bike_id":"e3c59db1-acd6-44c6-97f3-35c7602ef342","system_id":"levelo_inurba_marseille","lat":43.32371,"lon":5.38869,"is_reserved":false,"is_disabled":false,"rental_uris":{"android":"levelo://app?vid=e3c59db1-acd6-44c6-97f3-35c7602ef342","ios":"levelo://app?vid=e3c59db1-acd6-44c6-97f3-35c7602ef342"},"vehicle_type_id":"4","last_reported":1690311816,"current_range_meters":1600,"station_id":"ce4bhqp2rcd13ifvqhog","pricing_plan_id":"free"},{"bike_id":"f7599574-7f97-4c07-8aea-8ae5a8e05a97","system_id":"levelo_inurba_marseille","lat":43.32364,"lon":5.38877,"is_reserved":false,"is_disabled":false,"rental_uris":{"android":"levelo://app?vid=f7599574-7f97-4c07-8aea-8ae5a8e05a97","ios":"levelo://app?vid=f7599574-7f97-4c07-8aea-8ae5a8e05a97"},"vehicle_type_id":"4","last_reported":1690311816,"current_range_meters":28000,"station_id":"ce4bhqp2rcd13ifvqhog","pricing_plan_id":"free"},{"bike_id":"ce759cea-e736-4a87-9753-90840d785e7a","system_id":"levelo_inurba_marseille","lat":43.32364,"lon":5.38882,"is_reserved":false,"is_disabled":false,"rental_uris":{"android":"levelo://app?vid=ce759cea-e736-4a87-9753-90840d785e7a","ios":"levelo://app?vid=ce759cea-e736-4a87-9753-90840d785e7a"},"vehicle_type_id":"4","last_reported":1690311816,"current_range_meters":16400,"station_id":"ce4bhqp2rcd13ifvqhog","pricing_plan_id":"free"},{"bike_id":"623ee19b-d81c-428b-a26d-fd40de9e9286","system_id":"levelo_inurba_marseille","lat":43.310785,"lon":5.424305,"is_reserved":false,"is_disabled":false,"rental_uris":{"android":"levelo://app?vid=623ee19b-d81c-428b-a26d-fd40de9e9286","ios":"levelo://app?vid=623ee19b-d81c-428b-a26d-fd40de9e9286"},"vehicle_type_id":"4","last_reported":1690311816,"current_range_meters":10000,"station_id":"ce4bhp92rcd13ifvqhag","pricing_plan_id":"free"},{"bike_id":"20e0eda0-95ac-4a52-b5f0-505f6a4f9bdd","system_id":"levelo_inurba_marseille","lat":43.292749,"lon":5.368398,"is_reserved":false,"is_disabled":false,"rental_uris":{"android":"levelo://app?vid=20e0eda0-95ac-4a52-b5f0-505f6a4f9bdd","ios":"levelo://app?vid=20e0eda0-95ac-4a52-b5f0-505f6a4f9bdd"},"vehicle_type_id":"4","last_reported":1690311816,"current_range_meters":21200,"station_id":"ce4bhbp2rcd13ifvqesg","pricing_plan_id":"free"},{"bike_id":"ebc73c16-cb98-4fce-952c-d0a2cda8b467","system_id":"levelo_inurba_marseille","lat":43.293249,"lon":5.371578,"is_reserved":false,"is_disabled":false,"rental_uris":{"android":"levelo://app?vid=ebc73c16-cb98-4fce-952c-d0a2cda8b467","ios":"levelo://app?vid=ebc73c16-cb98-4fce-952c-d0a2cda8b467"},"vehicle_type_id":"4","last_reported":1690311816,"current_range_meters":10400,"station_id":"ce4bgh92rcd13ifvqb40","pricing_plan_id":"free"},{"bike_id":"24a0e9f2-4b66-464c-8eb4-6631d5aaa62e","system_id":"levelo_inurba_marseille","lat":43.292749,"lon":5.368398,"is_reserved":false,"is_disabled":false,"rental_uris":{"android":"levelo://app?vid=24a0e9f2-4b66-464c-8eb4-6631d5aaa62e","ios":"levelo://app?vid=24a0e9f2-4b66-464c-8eb4-6631d5aaa62e"},"vehicle_type_id":"4","last_reported":1690311816,"current_range_meters":5600,"station_id":"ce4bhbp2rcd13ifvqesg","pricing_plan_id":"free"},{"bike_id":"17492fee-b133-457f-9a89-5b2339235d4d","system_id":"levelo_inurba_marseille","lat":43.292749,"lon":5.368398,"is_reserved":false,"is_disabled":false,"rental_uris":{"android":"levelo://app?vid=17492fee-b133-457f-9a89-5b2339235d4d","ios":"levelo://app?vid=17492fee-b133-457f-9a89-5b2339235d4d"},"vehicle_type_id":"4","last_reported":1690311816,"current_range_meters":20400,"station_id":"ce4bhbp2rcd13ifvqesg","pricing_plan_id":"free"},{"bike_id":"bd4a080f-dd0c-4d1e-853d-975dbaa410d9","system_id":"levelo_inurba_marseille","lat":43.29308,"lon":5.37179,"is_reserved":false,"is_disabled":false,"rental_uris":{"android":"levelo://app?vid=bd4a080f-dd0c-4d1e-853d-975dbaa410d9","ios":"levelo://app?vid=bd4a080f-dd0c-4d1e-853d-975dbaa410d9"},"vehicle_type_id":"4","last_reported":1690311816,"current_range_meters":1200,"station_id":"ce4bgh92rcd13ifvqb40","pricing_plan_id":"free"},{"bike_id":"a510741a-8a04-4936-a776-9f56b9a1ebd0","system_id":"levelo_inurba_marseille","lat":43.29306,"lon":5.37176,"is_reserved":false,"is_disabled":false,"rental_uris":{"android":"levelo://app?vid=a510741a-8a04-4936-a776-9f56b9a1ebd0","ios":"levelo://app?vid=a510741a-8a04-4936-a776-9f56b9a1ebd0"},"vehicle_type_id":"4","last_reported":1690311816,"current_range_meters":8000,"station_id":"ce4bgh92rcd13ifvqb40","pricing_plan_id":"free"},{"bike_id":"b6d182fe-43f4-4037-b69b-43bb6b82bf12","system_id":"levelo_inurba_marseille","lat":43.292749,"lon":5.368402,"is_reserved":false,"is_disabled":false,"rental_uris":{"android":"levelo://app?vid=b6d182fe-43f4-4037-b69b-43bb6b82bf12","ios":"levelo://app?vid=b6d182fe-43f4-4037-b69b-43bb6b82bf12"},"vehicle_type_id":"4","last_reported":1690311816,"current_range_meters":29200,"station_id":"ce4bhbp2rcd13ifvqesg","pricing_plan_id":"free"},{"bike_id":"0cd1b413-2ee2-4465-aa35-a40a9bef459b","system_id":"levelo_inurba_marseille","lat":43.29302,"lon":5.37176,"is_reserved":false,"is_disabled":false,"rental_uris":{"android":"levelo://app?vid=0cd1b413-2ee2-4465-aa35-a40a9bef459b","ios":"levelo://app?vid=0cd1b413-2ee2-4465-aa35-a40a9bef459b"},"vehicle_type_id":"4","last_reported":1690311816,"current_range_meters":0,"station_id":"ce4bgh92rcd13ifvqb40","pricing_plan_id":"free"},{"bike_id":"ceccba7d-0d81-4948-9ef7-5f43b9f73915","system_id":"levelo_inurba_marseille","lat":43.29304,"lon":5.37439,"is_reserved":false,"is_disabled":false,"rental_uris":{"android":"levelo://app?vid=ceccba7d-0d81-4948-9ef7-5f43b9f73915","ios":"levelo://app?vid=ceccba7d-0d81-4948-9ef7-5f43b9f73915"},"vehicle_type_id":"4","last_reported":1690311816,"current_range_meters":30400,"station_id":"ce4bgi12rcd13ifvqb70","pricing_plan_id":"free"},{"bike_id":"6333ac8f-5267-4011-9505-dca053d177b5","system_id":"levelo_inurba_marseille","lat":43.30592,"lon":5.39352,"is_reserved":false,"is_disabled":false,"rental_uris":{"android":"levelo://app?vid=6333ac8f-5267-4011-9505-dca053d177b5","ios":"levelo://app?vid=6333ac8f-5267-4011-9505-dca053d177b5"},"vehicle_type_id":"4","last_reported":1690311816,"current_range_meters":1200,"station_id":"ce4bh012rcd13ifvqd00","pricing_plan_id":"free"},{"bike_id":"ab9da1ab-0def-4b57-bf28-7b8d5b9d5183","system_id":"levelo_inurba_marseille","lat":43.293009,"lon":5.374584,"is_reserved":false,"is_disabled":false,"rental_uris":{"android":"levelo://app?vid=ab9da1ab-0def-4b57-bf28-7b8d5b9d5183","ios":"levelo://app?vid=ab9da1ab-0def-4b57-bf28-7b8d5b9d5183"},"vehicle_type_id":"4","last_reported":1690311816,"current_range_meters":10400,"station_id":"ce4bgi12rcd13ifvqb70","pricing_plan_id":"free"},{"bike_id":"954e06fd-a68c-4824-b776-7b89c0e2c8f1","system_id":"levelo_inurba_marseille","lat":43.293009,"lon":5.374584,"is_reserved":false,"is_disabled":false,"rental_uris":{"android":"levelo://app?vid=954e06fd-a68c-4824-b776-7b89c0e2c8f1","ios":"levelo://app?vid=954e06fd-a68c-4824-b776-7b89c0e2c8f1"},"vehicle_type_id":"4","last_reported":1690311816,"current_range_meters":4000,"station_id":"ce4bgi12rcd13ifvqb70","pricing_plan_id":"free"},{"bike_id":"a4319cdc-8243-407a-b39c-280cb1f88f2f","system_id":"levelo_inurba_marseille","lat":43.30598,"lon":5.39357,"is_reserved":false,"is_disabled":false,"rental_uris":{"android":"levelo://app?vid=a4319cdc-8243-407a-b39c-280cb1f88f2f","ios":"levelo://app?vid=a4319cdc-8243-407a-b39c-280cb1f88f2f"},"vehicle_type_id":"4","last_reported":1690311816,"current_range_meters":21600,"station_id":"ce4bh0p2rcd13ifvqd80","pricing_plan_id":"free"},{"bike_id":"c3889dcb-e26a-4fbf-94a8-ac2b9125aa66","system_id":"levelo_inurba_marseille","lat":43.3059,"lon":5.39356,"is_reserved":false,"is_disabled":false,"rental_uris":{"android":"levelo://app?vid=c3889dcb-e26a-4fbf-94a8-ac2b9125aa66","ios":"levelo://app?vid=c3889dcb-e26a-4fbf-94a8-ac2b9125aa66"},"vehicle_type_id":"4","last_reported":1690311816,"current_range_meters":18400,"station_id":"ce4bh0p2rcd13ifvqd80","pricing_plan_id":"free"},{"bike_id":"10f3a736-bf18-4c45-8d20-61c8dda3ab87","system_id":"levelo_inurba_marseille","lat":43.293009,"lon":5.374584,"is_reserved":false,"is_disabled":false,"rental_uris":{"android":"levelo://app?vid=10f3a736-bf18-4c45-8d20-61c8dda3ab87","ios":"levelo://app?vid=10f3a736-bf18-4c45-8d20-61c8dda3ab87"},"vehicle_type_id":"4","last_reported":1690311816,"current_range_meters":22400,"station_id":"ce4bgi12rcd13ifvqb70","pricing_plan_id":"free"},{"bike_id":"d1f38ca9-30d9-4f3e-9682-b63d4aa812d8","system_id":"levelo_inurba_marseille","lat":43.293009,"lon":5.374584,"is_reserved":false,"is_disabled":false,"rental_uris":{"android":"levelo://app?vid=d1f38ca9-30d9-4f3e-9682-b63d4aa812d8","ios":"levelo://app?vid=d1f38ca9-30d9-4f3e-9682-b63d4aa812d8"},"vehicle_type_id":"4","last_reported":1690311816,"current_range_meters":19200,"station_id":"ce4bgi12rcd13ifvqb70","pricing_plan_id":"free"},{"bike_id":"e6db7452-6bb8-45f7-8d42-a31f7fdd0ad8","system_id":"levelo_inurba_marseille","lat":43.293009,"lon":5.374584,"is_reserved":false,"is_disabled":false,"rental_uris":{"android":"levelo://app?vid=e6db7452-6bb8-45f7-8d42-a31f7fdd0ad8","ios":"levelo://app?vid=e6db7452-6bb8-45f7-8d42-a31f7fdd0ad8"},"vehicle_type_id":"4","last_reported":1690311816,"current_range_meters":11600,"station_id":"ce4bgi12rcd13ifvqb70","pricing_plan_id":"free"},{"bike_id":"da8c93a5-ef6f-4017-8dd1-8236f5a3ab31","system_id":"levelo_inurba_marseille","lat":43.303002,"lon":5.392142,"is_reserved":false,"is_disabled":false,"rental_uris":{"android":"levelo://app?vid=da8c93a5-ef6f-4017-8dd1-8236f5a3ab31","ios":"levelo://app?vid=da8c93a5-ef6f-4017-8dd1-8236f5a3ab31"},"vehicle_type_id":"4","last_reported":1690311816,"current_range_meters":18400,"station_id":"ce4bgkh2rcd13ifvqbk0","pricing_plan_id":"free"},{"bike_id":"ec980412-be36-4c35-aeda-ed8103877041","system_id":"levelo_inurba_marseille","lat":43.30309,"lon":5.39214,"is_reserved":false,"is_disabled":false,"rental_uris":{"android":"levelo://app?vid=ec980412-be36-4c35-aeda-ed8103877041","ios":"levelo://app?vid=ec980412-be36-4c35-aeda-ed8103877041"},"vehicle_type_id":"4","last_reported":1690311816,"current_range_meters":2800,"station_id":"ce4bgkh2rcd13ifvqbk0","pricing_plan_id":"free"},{"bike_id":"b54bb38d-dacb-4fda-a63a-5226d7e54963","system_id":"levelo_inurba_marseille","lat":43.302992,"lon":5.392136,"is_reserved":false,"is_disabled":false,"rental_uris":{"android":"levelo://app?vid=b54bb38d-dacb-4fda-a63a-5226d7e54963","ios":"levelo://app?vid=b54bb38d-dacb-4fda-a63a-5226d7e54963"},"vehicle_type_id":"4","last_reported":1690311816,"current_range_meters":4000,"station_id":"ce4bgkh2rcd13ifvqbk0","pricing_plan_id":"free"},{"bike_id":"e385e7ad-ee56-478a-b111-698fe22ae26e","system_id":"levelo_inurba_marseille","lat":43.302992,"lon":5.392136,"is_reserved":false,"is_disabled":false,"rental_uris":{"android":"levelo://app?vid=e385e7ad-ee56-478a-b111-698fe22ae26e","ios":"levelo://app?vid=e385e7ad-ee56-478a-b111-698fe22ae26e"},"vehicle_type_id":"4","last_reported":1690311816,"current_range_meters":18800,"station_id":"ce4bgkh2rcd13ifvqbk0","pricing_plan_id":"free"},{"bike_id":"22419187-425c-4a46-b1d7-08dcc655ba12","system_id":"levelo_inurba_marseille","lat":43.29263,"lon":5.35979,"is_reserved":false,"is_disabled":false,"rental_uris":{"android":"levelo://app?vid=22419187-425c-4a46-b1d7-08dcc655ba12","ios":"levelo://app?vid=22419187-425c-4a46-b1d7-08dcc655ba12"},"vehicle_type_id":"4","last_reported":1690311816,"current_range_meters":19600,"station_id":"","pricing_plan_id":"free"},{"bike_id":"3839f196-4bd4-43f6-9201-a80e18f79366","system_id":"levelo_inurba_marseille","lat":43.302992,"lon":5.392136,"is_reserved":false,"is_disabled":false,"rental_uris":{"android":"levelo://app?vid=3839f196-4bd4-43f6-9201-a80e18f79366","ios":"levelo://app?vid=3839f196-4bd4-43f6-9201-a80e18f79366"},"vehicle_type_id":"4","last_reported":1690311816,"current_range_meters":2800,"station_id":"ce4bgkh2rcd13ifvqbk0","pricing_plan_id":"free"},{"bike_id":"3dfceffa-09b5-4629-802f-617f15cce41c","system_id":"levelo_inurba_marseille","lat":43.302992,"lon":5.392136,"is_reserved":false,"is_disabled":false,"rental_uris":{"android":"levelo://app?vid=3dfceffa-09b5-4629-802f-617f15cce41c","ios":"levelo://app?vid=3dfceffa-09b5-4629-802f-617f15cce41c"},"vehicle_type_id":"4","last_reported":1690311816,"current_range_meters":20400,"station_id":"ce4bgkh2rcd13ifvqbk0","pricing_plan_id":"free"},{"bike_id":"6690eeb7-2bef-4c33-815c-3d2e222423ee","system_id":"levelo_inurba_marseille","lat":43.2936,"lon":5.37835,"is_reserved":false,"is_disabled":false,"rental_uris":{"android":"levelo://app?vid=6690eeb7-2bef-4c33-815c-3d2e222423ee","ios":"levelo://app?vid=6690eeb7-2bef-4c33-815c-3d2e222423ee"},"vehicle_type_id":"4","last_reported":1690311816,"current_range_meters":0,"station_id":"ce4bgjh2rcd13ifvqbf0","pricing_plan_id":"free"},{"bike_id":"ee399316-c46c-4992-b8d1-93a98af5d83f","system_id":"levelo_inurba_marseille","lat":43.30297,"lon":5.39217,"is_reserved":false,"is_disabled":false,"rental_uris":{"android":"levelo://app?vid=ee399316-c46c-4992-b8d1-93a98af5d83f","ios":"levelo://app?vid=ee399316-c46c-4992-b8d1-93a98af5d83f"},"vehicle_type_id":"4","last_reported":1690311816,"current_range_meters":10400,"station_id":"ce4bgkh2rcd13ifvqbk0","pricing_plan_id":"free"},{"bike_id":"096a1400-e0f9-4ce3-ae4e-1e8a7b5b0245","system_id":"levelo_inurba_marseille","lat":43.302992,"lon":5.392136,"is_reserved":false,"is_disabled":false,"rental_uris":{"android":"levelo://app?vid=096a1400-e0f9-4ce3-ae4e-1e8a7b5b0245","ios":"levelo://app?vid=096a1400-e0f9-4ce3-ae4e-1e8a7b5b0245"},"vehicle_type_id":"4","last_reported":1690311816,"current_range_meters":25600,"station_id":"ce4bgkh2rcd13ifvqbk0","pricing_plan_id":"free"},{"bike_id":"254a444c-fe8f-4c58-95bc-8cc0862cdc1b","system_id":"levelo_inurba_marseille","lat":43.302992,"lon":5.392136,"is_reserved":false,"is_disabled":false,"rental_uris":{"android":"levelo://app?vid=254a444c-fe8f-4c58-95bc-8cc0862cdc1b","ios":"levelo://app?vid=254a444c-fe8f-4c58-95bc-8cc0862cdc1b"},"vehicle_type_id":"4","last_reported":1690311816,"current_range_meters":28800,"station_id":"ce4bgkh2rcd13ifvqbk0","pricing_plan_id":"free"},{"bike_id":"610659a4-e063-4d9c-895f-24559ca1afca","system_id":"levelo_inurba_marseille","lat":43.2936,"lon":5.37835,"is_reserved":false,"is_disabled":false,"rental_uris":{"android":"levelo://app?vid=610659a4-e063-4d9c-895f-24559ca1afca","ios":"levelo://app?vid=610659a4-e063-4d9c-895f-24559ca1afca"},"vehicle_type_id":"4","last_reported":1690311816,"current_range_meters":20800,"station_id":"ce4bgjh2rcd13ifvqbf0","pricing_plan_id":"free"},{"bike_id":"5b18b5d6-6d24-488e-89a8-9a034b23c80d","system_id":"levelo_inurba_marseille","lat":43.300852,"lon":5.390859,"is_reserved":false,"is_disabled":false,"rental_uris":{"android":"levelo://app?vid=5b18b5d6-6d24-488e-89a8-9a034b23c80d","ios":"levelo://app?vid=5b18b5d6-6d24-488e-89a8-9a034b23c80d"},"vehicle_type_id":"4","last_reported":1690311816,"current_range_meters":27200,"station_id":"ce4bh192rcd13ifvqdb0","pricing_plan_id":"free"},{"bike_id":"a2b57dc4-2217-462a-848c-18323207061e","system_id":"levelo_inurba_marseille","lat":43.300852,"lon":5.390859,"is_reserved":false,"is_disabled":false,"rental_uris":{"android":"levelo://app?vid=a2b57dc4-2217-462a-848c-18323207061e","ios":"levelo://app?vid=a2b57dc4-2217-462a-848c-18323207061e"},"vehicle_type_id":"4","last_reported":1690311816,"current_range_meters":17200,"station_id":"ce4bh192rcd13ifvqdb0","pricing_plan_id":"free"},{"bike_id":"3d92ec1b-a1c6-48ae-81ff-ecc967ce42ca","system_id":"levelo_inurba_marseille","lat":43.29885,"lon":5.38888,"is_reserved":false,"is_disabled":false,"rental_uris":{"android":"levelo://app?vid=3d92ec1b-a1c6-48ae-81ff-ecc967ce42ca","ios":"levelo://app?vid=3d92ec1b-a1c6-48ae-81ff-ecc967ce42ca"},"vehicle_type_id":"4","last_reported":1690311816,"current_range_meters":9200,"station_id":"","pricing_plan_id":"free"},{"bike_id":"3b4c99de-f022-4f3f-9500-7e119bd5a95a","system_id":"levelo_inurba_marseille","lat":43.298764,"lon":5.388973,"is_reserved":false,"is_disabled":false,"rental_uris":{"android":"levelo://app?vid=3b4c99de-f022-4f3f-9500-7e119bd5a95a","ios":"levelo://app?vid=3b4c99de-f022-4f3f-9500-7e119bd5a95a"},"vehicle_type_id":"4","last_reported":1690311816,"current_range_meters":7200,"station_id":"ce4bh392rcd13ifvqdl0","pricing_plan_id":"free"},{"bike_id":"3d0d636a-5f05-4242-bcf5-2c8efd87301e","system_id":"levelo_inurba_marseille","lat":43.29261,"lon":5.37616,"is_reserved":false,"is_disabled":false,"rental_uris":{"android":"levelo://app?vid=3d0d636a-5f05-4242-bcf5-2c8efd87301e","ios":"levelo://app?vid=3d0d636a-5f05-4242-bcf5-2c8efd87301e"},"vehicle_type_id":"4","last_reported":1690311816,"current_range_meters":20800,"station_id":"","pricing_plan_id":"free"},{"bike_id":"0a3ab710-0029-4778-b7b2-ec799365a84e","system_id":"levelo_inurba_marseille","lat":43.298764,"lon":5.388973,"is_reserved":false,"is_disabled":false,"rental_uris":{"android":"levelo://app?vid=0a3ab710-0029-4778-b7b2-ec799365a84e","ios":"levelo://app?vid=0a3ab710-0029-4778-b7b2-ec799365a84e"},"vehicle_type_id":"4","last_reported":1690311816,"current_range_meters":20400,"station_id":"ce4bh392rcd13ifvqdl0","pricing_plan_id":"free"},{"bike_id":"0f207b24-7b3e-4e4b-bcf7-46fc585ee918","system_id":"levelo_inurba_marseille","lat":43.298764,"lon":5.388973,"is_reserved":false,"is_disabled":false,"rental_uris":{"android":"levelo://app?vid=0f207b24-7b3e-4e4b-bcf7-46fc585ee918","ios":"levelo://app?vid=0f207b24-7b3e-4e4b-bcf7-46fc585ee918"},"vehicle_type_id":"4","last_reported":1690311816,"current_range_meters":16800,"station_id":"ce4bh392rcd13ifvqdl0","pricing_plan_id":"free"},{"bike_id":"666fa269-e406-4712-be37-2ecd1af9e3c1","system_id":"levelo_inurba_marseille","lat":43.298764,"lon":5.388973,"is_reserved":false,"is_disabled":false,"rental_uris":{"android":"levelo://app?vid=666fa269-e406-4712-be37-2ecd1af9e3c1","ios":"levelo://app?vid=666fa269-e406-4712-be37-2ecd1af9e3c1"},"vehicle_type_id":"4","last_reported":1690311816,"current_range_meters":7200,"station_id":"ce4bh392rcd13ifvqdl0","pricing_plan_id":"free"},{"bike_id":"6cf05774-db79-4644-86fc-85c0d00201ce","system_id":"levelo_inurba_marseille","lat":43.29874,"lon":5.38904,"is_reserved":false,"is_disabled":false,"rental_uris":{"android":"levelo://app?vid=6cf05774-db79-4644-86fc-85c0d00201ce","ios":"levelo://app?vid=6cf05774-db79-4644-86fc-85c0d00201ce"},"vehicle_type_id":"4","last_reported":1690311816,"current_range_meters":7600,"station_id":"ce4bh392rcd13ifvqdl0","pricing_plan_id":"free"},{"bike_id":"ecdf62c8-1ca4-4622-916a-b5309da02885","system_id":"levelo_inurba_marseille","lat":43.291675,"lon":5.371583,"is_reserved":false,"is_disabled":false,"rental_uris":{"android":"levelo://app?vid=ecdf62c8-1ca4-4622-916a-b5309da02885","ios":"levelo://app?vid=ecdf62c8-1ca4-4622-916a-b5309da02885"},"vehicle_type_id":"4","last_reported":1690311816,"current_range_meters":16000,"station_id":"ce4bha92rcd13ifvqeh0","pricing_plan_id":"free"},{"bike_id":"87e7e5fc-9b94-4b49-9582-bde866858b37","system_id":"levelo_inurba_marseille","lat":43.309038,"lon":5.396546,"is_reserved":false,"is_disabled":false,"rental_uris":{"android":"levelo://app?vid=87e7e5fc-9b94-4b49-9582-bde866858b37","ios":"levelo://app?vid=87e7e5fc-9b94-4b49-9582-bde866858b37"},"vehicle_type_id":"4","last_reported":1690311816,"current_range_meters":19600,"station_id":"ce4bh012rcd13ifvqcv0","pricing_plan_id":"free"},{"bike_id":"97496f18-7d80-4d22-bb3f-2088f6cee5a1","system_id":"levelo_inurba_marseille","lat":43.32333,"lon":5.39297,"is_reserved":false,"is_disabled":false,"rental_uris":{"android":"levelo://app?vid=97496f18-7d80-4d22-bb3f-2088f6cee5a1","ios":"levelo://app?vid=97496f18-7d80-4d22-bb3f-2088f6cee5a1"},"vehicle_type_id":"4","last_reported":1690311816,"current_range_meters":30400,"station_id":"","pricing_plan_id":"free"},{"bike_id":"eb6d78a7-b51f-47a9-90e8-c38c2e23dec2","system_id":"levelo_inurba_marseille","lat":43.30891,"lon":5.3964,"is_reserved":false,"is_disabled":false,"rental_uris":{"android":"levelo://app?vid=eb6d78a7-b51f-47a9-90e8-c38c2e23dec2","ios":"levelo://app?vid=eb6d78a7-b51f-47a9-90e8-c38c2e23dec2"},"vehicle_type_id":"4","last_reported":1690311816,"current_range_meters":10800,"station_id":"ce4bh012rcd13ifvqcv0","pricing_plan_id":"free"},{"bike_id":"c8fd73b3-b013-48b3-ac0c-7cabff80b4f0","system_id":"levelo_inurba_marseille","lat":43.313291,"lon":5.396838,"is_reserved":false,"is_disabled":false,"rental_uris":{"android":"levelo://app?vid=c8fd73b3-b013-48b3-ac0c-7cabff80b4f0","ios":"levelo://app?vid=c8fd73b3-b013-48b3-ac0c-7cabff80b4f0"},"vehicle_type_id":"4","last_reported":1690311816,"current_range_meters":10400,"station_id":"ce4bgvp2rcd13ifvqcu0","pricing_plan_id":"free"},{"bike_id":"21ee9228-2cce-446a-a8b8-a7c43cfefddf","system_id":"levelo_inurba_marseille","lat":43.31329,"lon":5.39688,"is_reserved":false,"is_disabled":false,"rental_uris":{"android":"levelo://app?vid=21ee9228-2cce-446a-a8b8-a7c43cfefddf","ios":"levelo://app?vid=21ee9228-2cce-446a-a8b8-a7c43cfefddf"},"vehicle_type_id":"4","last_reported":1690311816,"current_range_meters":20800,"station_id":"ce4bgvp2rcd13ifvqcu0","pricing_plan_id":"free"},{"bike_id":"80e0cf5e-1685-4094-84f1-6c6fc5bffeed","system_id":"levelo_inurba_marseille","lat":43.31336,"lon":5.3969,"is_reserved":false,"is_disabled":false,"rental_uris":{"android":"levelo://app?vid=80e0cf5e-1685-4094-84f1-6c6fc5bffeed","ios":"levelo://app?vid=80e0cf5e-1685-4094-84f1-6c6fc5bffeed"},"vehicle_type_id":"4","last_reported":1690311816,"current_range_meters":17200,"station_id":"ce4bgvp2rcd13ifvqcu0","pricing_plan_id":"free"},{"bike_id":"c7845bd5-02e7-4e24-ae5e-65a6f85c28b6","system_id":"levelo_inurba_marseille","lat":43.313291,"lon":5.396838,"is_reserved":false,"is_disabled":false,"rental_uris":{"android":"levelo://app?vid=c7845bd5-02e7-4e24-ae5e-65a6f85c28b6","ios":"levelo://app?vid=c7845bd5-02e7-4e24-ae5e-65a6f85c28b6"},"vehicle_type_id":"4","last_reported":1690311816,"current_range_meters":9200,"station_id":"ce4bgvp2rcd13ifvqcu0","pricing_plan_id":"free"},{"bike_id":"532ca00a-07fc-4abe-9a29-4fb8f91e3195","system_id":"levelo_inurba_marseille","lat":43.30889,"lon":5.39655,"is_reserved":false,"is_disabled":false,"rental_uris":{"android":"levelo://app?vid=532ca00a-07fc-4abe-9a29-4fb8f91e3195","ios":"levelo://app?vid=532ca00a-07fc-4abe-9a29-4fb8f91e3195"},"vehicle_type_id":"4","last_reported":1690311816,"current_range_meters":29200,"station_id":"ce4bh012rcd13ifvqcv0","pricing_plan_id":"free"},{"bike_id":"6ab156dc-afe5-4067-9506-41d90e9b9e57","system_id":"levelo_inurba_marseille","lat":43.309038,"lon":5.396546,"is_reserved":false,"is_disabled":false,"rental_uris":{"android":"levelo://app?vid=6ab156dc-afe5-4067-9506-41d90e9b9e57","ios":"levelo://app?vid=6ab156dc-afe5-4067-9506-41d90e9b9e57"},"vehicle_type_id":"4","last_reported":1690311816,"current_range_meters":20800,"station_id":"ce4bh012rcd13ifvqcv0","pricing_plan_id":"free"},{"bike_id":"a6dc8b36-df2c-4dab-833a-6860fc6596d3","system_id":"levelo_inurba_marseille","lat":43.290779,"lon":5.371482,"is_reserved":false,"is_disabled":false,"rental_uris":{"android":"levelo://app?vid=a6dc8b36-df2c-4dab-833a-6860fc6596d3","ios":"levelo://app?vid=a6dc8b36-df2c-4dab-833a-6860fc6596d3"},"vehicle_type_id":"4","last_reported":1690311816,"current_range_meters":4000,"station_id":"ce4bh5p2rcd13ifvqe4g","pricing_plan_id":"free"},{"bike_id":"083b6ea3-fc39-42d5-b2de-d2dfac17b500","system_id":"levelo_inurba_marseille","lat":43.290779,"lon":5.371482,"is_reserved":false,"is_disabled":false,"rental_uris":{"android":"levelo://app?vid=083b6ea3-fc39-42d5-b2de-d2dfac17b500","ios":"levelo://app?vid=083b6ea3-fc39-42d5-b2de-d2dfac17b500"},"vehicle_type_id":"4","last_reported":1690311816,"current_range_meters":29200,"station_id":"ce4bh5p2rcd13ifvqe4g","pricing_plan_id":"free"},{"bike_id":"21259d08-f5e0-4f16-9f6e-55c51cae14a6","system_id":"levelo_inurba_marseille","lat":43.290779,"lon":5.371482,"is_reserved":false,"is_disabled":false,"rental_uris":{"android":"levelo://app?vid=21259d08-f5e0-4f16-9f6e-55c51cae14a6","ios":"levelo://app?vid=21259d08-f5e0-4f16-9f6e-55c51cae14a6"},"vehicle_type_id":"4","last_reported":1690311816,"current_range_meters":0,"station_id":"ce4bh5p2rcd13ifvqe4g","pricing_plan_id":"free"},{"bike_id":"80f4b1e1-a79f-4755-bf73-28f9d7307bbf","system_id":"levelo_inurba_marseille","lat":43.290617,"lon":5.371635,"is_reserved":false,"is_disabled":false,"rental_uris":{"android":"levelo://app?vid=80f4b1e1-a79f-4755-bf73-28f9d7307bbf","ios":"levelo://app?vid=80f4b1e1-a79f-4755-bf73-28f9d7307bbf"},"vehicle_type_id":"4","last_reported":1690311816,"current_range_meters":29600,"station_id":"","pricing_plan_id":"free"},{"bike_id":"b72df813-c7d6-4110-affc-0ff7721e8a8a","system_id":"levelo_inurba_marseille","lat":43.302008,"lon":5.394694,"is_reserved":false,"is_disabled":false,"rental_uris":{"android":"levelo://app?vid=b72df813-c7d6-4110-affc-0ff7721e8a8a","ios":"levelo://app?vid=b72df813-c7d6-4110-affc-0ff7721e8a8a"},"vehicle_type_id":"4","last_reported":1690311816,"current_range_meters":19200,"station_id":"ce4bh0p2rcd13ifvqd70","pricing_plan_id":"free"},{"bike_id":"5905f410-e54c-43f5-bb59-e9aa7d03cd74","system_id":"levelo_inurba_marseille","lat":43.302008,"lon":5.394694,"is_reserved":false,"is_disabled":false,"rental_uris":{"android":"levelo://app?vid=5905f410-e54c-43f5-bb59-e9aa7d03cd74","ios":"levelo://app?vid=5905f410-e54c-43f5-bb59-e9aa7d03cd74"},"vehicle_type_id":"4","last_reported":1690311816,"current_range_meters":30800,"station_id":"ce4bh0p2rcd13ifvqd70","pricing_plan_id":"free"},{"bike_id":"dfd91278-94f5-42ea-94d7-a6c38e4b7c19","system_id":"levelo_inurba_marseille","lat":43.302008,"lon":5.394694,"is_reserved":false,"is_disabled":false,"rental_uris":{"android":"levelo://app?vid=dfd91278-94f5-42ea-94d7-a6c38e4b7c19","ios":"levelo://app?vid=dfd91278-94f5-42ea-94d7-a6c38e4b7c19"},"vehicle_type_id":"4","last_reported":1690311816,"current_range_meters":6400,"station_id":"ce4bh0p2rcd13ifvqd70","pricing_plan_id":"free"},{"bike_id":"7a8af884-bc94-4ac6-9b88-b3d6d335d9e1","system_id":"levelo_inurba_marseille","lat":43.28981,"lon":5.36662,"is_reserved":false,"is_disabled":false,"rental_uris":{"android":"levelo://app?vid=7a8af884-bc94-4ac6-9b88-b3d6d335d9e1","ios":"levelo://app?vid=7a8af884-bc94-4ac6-9b88-b3d6d335d9e1"},"vehicle_type_id":"4","last_reported":1690311816,"current_range_meters":10000,"station_id":"ce4bgkh2rcd13ifvqbk0","pricing_plan_id":"free"},{"bike_id":"89a86e2b-b768-41bf-a66d-4352abc22d16","system_id":"levelo_inurba_marseille","lat":43.294162,"lon":5.386292,"is_reserved":false,"is_disabled":false,"rental_uris":{"android":"levelo://app?vid=89a86e2b-b768-41bf-a66d-4352abc22d16","ios":"levelo://app?vid=89a86e2b-b768-41bf-a66d-4352abc22d16"},"vehicle_type_id":"4","last_reported":1690311816,"current_range_meters":0,"station_id":"ce4bh2h2rcd13ifvqdh0","pricing_plan_id":"free"},{"bike_id":"d5c5816d-b817-4ca0-9baf-b300fb84dc1b","system_id":"levelo_inurba_marseille","lat":43.294162,"lon":5.386292,"is_reserved":false,"is_disabled":false,"rental_uris":{"android":"levelo://app?vid=d5c5816d-b817-4ca0-9baf-b300fb84dc1b","ios":"levelo://app?vid=d5c5816d-b817-4ca0-9baf-b300fb84dc1b"},"vehicle_type_id":"4","last_reported":1690311816,"current_range_meters":0,"station_id":"ce4bh2h2rcd13ifvqdh0","pricing_plan_id":"free"},{"bike_id":"18b7db87-3482-4ad5-8009-9de6bdfc58cc","system_id":"levelo_inurba_marseille","lat":43.294153,"lon":5.386305,"is_reserved":false,"is_disabled":false,"rental_uris":{"android":"levelo://app?vid=18b7db87-3482-4ad5-8009-9de6bdfc58cc","ios":"levelo://app?vid=18b7db87-3482-4ad5-8009-9de6bdfc58cc"},"vehicle_type_id":"4","last_reported":1690311816,"current_range_meters":23200,"station_id":"ce4bh2h2rcd13ifvqdh0","pricing_plan_id":"free"},{"bike_id":"9fea9594-5f1d-48f7-8e64-ba4f66481f8c","system_id":"levelo_inurba_marseille","lat":43.289184,"lon":5.366408,"is_reserved":false,"is_disabled":false,"rental_uris":{"android":"levelo://app?vid=9fea9594-5f1d-48f7-8e64-ba4f66481f8c","ios":"levelo://app?vid=9fea9594-5f1d-48f7-8e64-ba4f66481f8c"},"vehicle_type_id":"4","last_reported":1690311816,"current_range_meters":14400,"station_id":"ce4bhap2rcd13ifvqek0","pricing_plan_id":"free"},{"bike_id":"43127e9b-a924-49ab-9d7c-dfda016185e3","system_id":"levelo_inurba_marseille","lat":43.289184,"lon":5.366408,"is_reserved":false,"is_disabled":false,"rental_uris":{"android":"levelo://app?vid=43127e9b-a924-49ab-9d7c-dfda016185e3","ios":"levelo://app?vid=43127e9b-a924-49ab-9d7c-dfda016185e3"},"vehicle_type_id":"4","last_reported":1690311816,"current_range_meters":31200,"station_id":"ce4bhap2rcd13ifvqek0","pricing_plan_id":"free"},{"bike_id":"686e0032-d724-491f-a99b-9876c4731e1f","system_id":"levelo_inurba_marseille","lat":43.289184,"lon":5.366408,"is_reserved":false,"is_disabled":false,"rental_uris":{"android":"levelo://app?vid=686e0032-d724-491f-a99b-9876c4731e1f","ios":"levelo://app?vid=686e0032-d724-491f-a99b-9876c4731e1f"},"vehicle_type_id":"4","last_reported":1690311816,"current_range_meters":4400,"station_id":"ce4bhap2rcd13ifvqek0","pricing_plan_id":"free"},{"bike_id":"6b9385bf-da2e-4bd2-a85a-3fe0a09affa8","system_id":"levelo_inurba_marseille","lat":43.289184,"lon":5.366408,"is_reserved":false,"is_disabled":false,"rental_uris":{"android":"levelo://app?vid=6b9385bf-da2e-4bd2-a85a-3fe0a09affa8","ios":"levelo://app?vid=6b9385bf-da2e-4bd2-a85a-3fe0a09affa8"},"vehicle_type_id":"4","last_reported":1690311816,"current_range_meters":0,"station_id":"ce4bhap2rcd13ifvqek0","pricing_plan_id":"free"},{"bike_id":"1aa83f81-ce56-4b55-bf82-64f5a4357a9e","system_id":"levelo_inurba_marseille","lat":43.289184,"lon":5.366408,"is_reserved":false,"is_disabled":false,"rental_uris":{"android":"levelo://app?vid=1aa83f81-ce56-4b55-bf82-64f5a4357a9e","ios":"levelo://app?vid=1aa83f81-ce56-4b55-bf82-64f5a4357a9e"},"vehicle_type_id":"4","last_reported":1690311816,"current_range_meters":400,"station_id":"ce4bhap2rcd13ifvqek0","pricing_plan_id":"free"},{"bike_id":"d9e63e90-493d-4f93-947d-9054b3769d7e","system_id":"levelo_inurba_marseille","lat":43.290995,"lon":5.381361,"is_reserved":false,"is_disabled":false,"rental_uris":{"android":"levelo://app?vid=d9e63e90-493d-4f93-947d-9054b3769d7e","ios":"levelo://app?vid=d9e63e90-493d-4f93-947d-9054b3769d7e"},"vehicle_type_id":"4","last_reported":1690311816,"current_range_meters":3200,"station_id":"ce4bh512rcd13ifvqe2g","pricing_plan_id":"free"},{"bike_id":"f2c61c12-0d76-475a-af9f-5ad1cb85d725","system_id":"levelo_inurba_marseille","lat":43.292642,"lon":5.384254,"is_reserved":false,"is_disabled":false,"rental_uris":{"android":"levelo://app?vid=f2c61c12-0d76-475a-af9f-5ad1cb85d725","ios":"levelo://app?vid=f2c61c12-0d76-475a-af9f-5ad1cb85d725"},"vehicle_type_id":"4","last_reported":1690311816,"current_range_meters":8000,"station_id":"ce4bh692rcd13ifvqea0","pricing_plan_id":"free"},{"bike_id":"752de10b-1ef6-4a79-a223-0377439974ef","system_id":"levelo_inurba_marseille","lat":43.29271,"lon":5.38433,"is_reserved":false,"is_disabled":false,"rental_uris":{"android":"levelo://app?vid=752de10b-1ef6-4a79-a223-0377439974ef","ios":"levelo://app?vid=752de10b-1ef6-4a79-a223-0377439974ef"},"vehicle_type_id":"4","last_reported":1690311816,"current_range_meters":14000,"station_id":"ce4bh692rcd13ifvqea0","pricing_plan_id":"free"},{"bike_id":"52c73b04-f2e8-4eb8-aacc-4f6c33784048","system_id":"levelo_inurba_marseille","lat":43.29271,"lon":5.38439,"is_reserved":false,"is_disabled":false,"rental_uris":{"android":"levelo://app?vid=52c73b04-f2e8-4eb8-aacc-4f6c33784048","ios":"levelo://app?vid=52c73b04-f2e8-4eb8-aacc-4f6c33784048"},"vehicle_type_id":"4","last_reported":1690311816,"current_range_meters":4800,"station_id":"ce4bh692rcd13ifvqea0","pricing_plan_id":"free"},{"bike_id":"76dac345-5e0a-427f-a66b-bc98fa56fc1f","system_id":"levelo_inurba_marseille","lat":43.292644,"lon":5.384257,"is_reserved":false,"is_disabled":false,"rental_uris":{"android":"levelo://app?vid=76dac345-5e0a-427f-a66b-bc98fa56fc1f","ios":"levelo://app?vid=76dac345-5e0a-427f-a66b-bc98fa56fc1f"},"vehicle_type_id":"4","last_reported":1690311816,"current_range_meters":6800,"station_id":"ce4bh692rcd13ifvqea0","pricing_plan_id":"free"},{"bike_id":"3b4f623d-500c-416b-9b24-a19ccfebdc50","system_id":"levelo_inurba_marseille","lat":43.292644,"lon":5.384257,"is_reserved":false,"is_disabled":false,"rental_uris":{"android":"levelo://app?vid=3b4f623d-500c-416b-9b24-a19ccfebdc50","ios":"levelo://app?vid=3b4f623d-500c-416b-9b24-a19ccfebdc50"},"vehicle_type_id":"4","last_reported":1690311816,"current_range_meters":4800,"station_id":"ce4bh692rcd13ifvqea0","pricing_plan_id":"free"},{"bike_id":"640ad7cc-d1f0-42b5-86ab-07ebee9448ae","system_id":"levelo_inurba_marseille","lat":43.292644,"lon":5.384257,"is_reserved":false,"is_disabled":false,"rental_uris":{"android":"levelo://app?vid=640ad7cc-d1f0-42b5-86ab-07ebee9448ae","ios":"levelo://app?vid=640ad7cc-d1f0-42b5-86ab-07ebee9448ae"},"vehicle_type_id":"4","last_reported":1690311816,"current_range_meters":16400,"station_id":"ce4bh692rcd13ifvqea0","pricing_plan_id":"free"},{"bike_id":"4246a506-28cb-43ef-811c-16d8bd754c74","system_id":"levelo_inurba_marseille","lat":43.33041,"lon":5.38916,"is_reserved":false,"is_disabled":false,"rental_uris":{"android":"levelo://app?vid=4246a506-28cb-43ef-811c-16d8bd754c74","ios":"levelo://app?vid=4246a506-28cb-43ef-811c-16d8bd754c74"},"vehicle_type_id":"4","last_reported":1690311816,"current_range_meters":28800,"station_id":"ce4bhr92rcd13ifvqhrg","pricing_plan_id":"free"},{"bike_id":"8fdf7c56-0a0a-48f3-8c5d-53434843cd34","system_id":"levelo_inurba_marseille","lat":43.33041,"lon":5.38916,"is_reserved":false,"is_disabled":false,"rental_uris":{"android":"levelo://app?vid=8fdf7c56-0a0a-48f3-8c5d-53434843cd34","ios":"levelo://app?vid=8fdf7c56-0a0a-48f3-8c5d-53434843cd34"},"vehicle_type_id":"4","last_reported":1690311816,"current_range_meters":24400,"station_id":"ce4bhr92rcd13ifvqhrg","pricing_plan_id":"free"},{"bike_id":"2b614b85-75a6-46d1-8fb2-f8b4324cdce9","system_id":"levelo_inurba_marseille","lat":43.33042,"lon":5.38917,"is_reserved":false,"is_disabled":false,"rental_uris":{"android":"levelo://app?vid=2b614b85-75a6-46d1-8fb2-f8b4324cdce9","ios":"levelo://app?vid=2b614b85-75a6-46d1-8fb2-f8b4324cdce9"},"vehicle_type_id":"4","last_reported":1690311816,"current_range_meters":23600,"station_id":"ce4bhr92rcd13ifvqhrg","pricing_plan_id":"free"},{"bike_id":"1e5adbc3-f47c-43a1-9cd1-6383bb43f658","system_id":"levelo_inurba_marseille","lat":43.290104,"lon":5.356111,"is_reserved":false,"is_disabled":false,"rental_uris":{"android":"levelo://app?vid=1e5adbc3-f47c-43a1-9cd1-6383bb43f658","ios":"levelo://app?vid=1e5adbc3-f47c-43a1-9cd1-6383bb43f658"},"vehicle_type_id":"4","last_reported":1690311816,"current_range_meters":31200,"station_id":"ce4bhb92rcd13ifvqen0","pricing_plan_id":"free"},{"bike_id":"06780769-6c49-42ba-9882-693b562c3a7c","system_id":"levelo_inurba_marseille","lat":43.33042,"lon":5.38918,"is_reserved":false,"is_disabled":false,"rental_uris":{"android":"levelo://app?vid=06780769-6c49-42ba-9882-693b562c3a7c","ios":"levelo://app?vid=06780769-6c49-42ba-9882-693b562c3a7c"},"vehicle_type_id":"4","last_reported":1690311816,"current_range_meters":19200,"station_id":"ce4bhr92rcd13ifvqhrg","pricing_plan_id":"free"},{"bike_id":"cffe7d70-0c47-4914-9689-0e3caeaec888","system_id":"levelo_inurba_marseille","lat":43.33046,"lon":5.38915,"is_reserved":false,"is_disabled":false,"rental_uris":{"android":"levelo://app?vid=cffe7d70-0c47-4914-9689-0e3caeaec888","ios":"levelo://app?vid=cffe7d70-0c47-4914-9689-0e3caeaec888"},"vehicle_type_id":"4","last_reported":1690311816,"current_range_meters":4400,"station_id":"ce4bhr92rcd13ifvqhrg","pricing_plan_id":"free"},{"bike_id":"e0e41acf-4489-42f8-b133-7935c80c0842","system_id":"levelo_inurba_marseille","lat":43.33045,"lon":5.38917,"is_reserved":false,"is_disabled":false,"rental_uris":{"android":"levelo://app?vid=e0e41acf-4489-42f8-b133-7935c80c0842","ios":"levelo://app?vid=e0e41acf-4489-42f8-b133-7935c80c0842"},"vehicle_type_id":"4","last_reported":1690311816,"current_range_meters":12400,"station_id":"ce4bhr92rcd13ifvqhrg","pricing_plan_id":"free"},{"bike_id":"723a5df5-27df-4aad-8aea-4d0934cd148c","system_id":"levelo_inurba_marseille","lat":43.290103,"lon":5.356114,"is_reserved":false,"is_disabled":false,"rental_uris":{"android":"levelo://app?vid=723a5df5-27df-4aad-8aea-4d0934cd148c","ios":"levelo://app?vid=723a5df5-27df-4aad-8aea-4d0934cd148c"},"vehicle_type_id":"4","last_reported":1690311816,"current_range_meters":5600,"station_id":"ce4bhb92rcd13ifvqen0","pricing_plan_id":"free"},{"bike_id":"e4bb7ca1-e25d-4278-8062-624aad874a33","system_id":"levelo_inurba_marseille","lat":43.30325,"lon":5.39739,"is_reserved":false,"is_disabled":false,"rental_uris":{"android":"levelo://app?vid=e4bb7ca1-e25d-4278-8062-624aad874a33","ios":"levelo://app?vid=e4bb7ca1-e25d-4278-8062-624aad874a33"},"vehicle_type_id":"4","last_reported":1690311816,"current_range_meters":30400,"station_id":"","pricing_plan_id":"free"},{"bike_id":"e4675665-9236-4a22-a736-506619456bf8","system_id":"levelo_inurba_marseille","lat":43.290995,"lon":5.381361,"is_reserved":false,"is_disabled":false,"rental_uris":{"android":"levelo://app?vid=e4675665-9236-4a22-a736-506619456bf8","ios":"levelo://app?vid=e4675665-9236-4a22-a736-506619456bf8"},"vehicle_type_id":"4","last_reported":1690311816,"current_range_meters":1600,"station_id":"ce4bh512rcd13ifvqe2g","pricing_plan_id":"free"},{"bike_id":"e47e9919-264a-43ab-821a-afddbd218d83","system_id":"levelo_inurba_marseille","lat":43.290995,"lon":5.381361,"is_reserved":false,"is_disabled":false,"rental_uris":{"android":"levelo://app?vid=e47e9919-264a-43ab-821a-afddbd218d83","ios":"levelo://app?vid=e47e9919-264a-43ab-821a-afddbd218d83"},"vehicle_type_id":"4","last_reported":1690311816,"current_range_meters":10800,"station_id":"ce4bh512rcd13ifvqe2g","pricing_plan_id":"free"},{"bike_id":"a6a5d79e-06ec-4177-a63f-0bfbc2487623","system_id":"levelo_inurba_marseille","lat":43.2979,"lon":5.39335,"is_reserved":false,"is_disabled":false,"rental_uris":{"android":"levelo://app?vid=a6a5d79e-06ec-4177-a63f-0bfbc2487623","ios":"levelo://app?vid=a6a5d79e-06ec-4177-a63f-0bfbc2487623"},"vehicle_type_id":"4","last_reported":1690311816,"current_range_meters":12800,"station_id":"chh1huq6cuj3fo74tm60","pricing_plan_id":"free"},{"bike_id":"d2c8c1b1-d30c-44b2-94b6-86289f04f3a7","system_id":"levelo_inurba_marseille","lat":43.2979,"lon":5.39335,"is_reserved":false,"is_disabled":false,"rental_uris":{"android":"levelo://app?vid=d2c8c1b1-d30c-44b2-94b6-86289f04f3a7","ios":"levelo://app?vid=d2c8c1b1-d30c-44b2-94b6-86289f04f3a7"},"vehicle_type_id":"4","last_reported":1690311816,"current_range_meters":3600,"station_id":"chh1huq6cuj3fo74tm60","pricing_plan_id":"free"},{"bike_id":"d7c88d71-c509-4dcd-85c0-5351aa5a822b","system_id":"levelo_inurba_marseille","lat":43.29784,"lon":5.39333,"is_reserved":false,"is_disabled":false,"rental_uris":{"android":"levelo://app?vid=d7c88d71-c509-4dcd-85c0-5351aa5a822b","ios":"levelo://app?vid=d7c88d71-c509-4dcd-85c0-5351aa5a822b"},"vehicle_type_id":"4","last_reported":1690311816,"current_range_meters":0,"station_id":"chh1huq6cuj3fo74tm60","pricing_plan_id":"free"},{"bike_id":"5bff5e1b-d138-4a0b-8b39-116968ac4437","system_id":"levelo_inurba_marseille","lat":43.295169,"lon":5.390426,"is_reserved":false,"is_disabled":false,"rental_uris":{"android":"levelo://app?vid=5bff5e1b-d138-4a0b-8b39-116968ac4437","ios":"levelo://app?vid=5bff5e1b-d138-4a0b-8b39-116968ac4437"},"vehicle_type_id":"4","last_reported":1690311816,"current_range_meters":13600,"station_id":"ce4bh3p2rcd13ifvqdp0","pricing_plan_id":"free"},{"bike_id":"b8d184d4-2bc5-4001-bf71-740c8107c0f8","system_id":"levelo_inurba_marseille","lat":43.295169,"lon":5.390426,"is_reserved":false,"is_disabled":false,"rental_uris":{"android":"levelo://app?vid=b8d184d4-2bc5-4001-bf71-740c8107c0f8","ios":"levelo://app?vid=b8d184d4-2bc5-4001-bf71-740c8107c0f8"},"vehicle_type_id":"4","last_reported":1690311816,"current_range_meters":6400,"station_id":"ce4bh3p2rcd13ifvqdp0","pricing_plan_id":"free"},{"bike_id":"bb380bb9-b0d8-4e28-adcc-c5857ca50209","system_id":"levelo_inurba_marseille","lat":43.297815,"lon":5.393548,"is_reserved":false,"is_disabled":false,"rental_uris":{"android":"levelo://app?vid=bb380bb9-b0d8-4e28-adcc-c5857ca50209","ios":"levelo://app?vid=bb380bb9-b0d8-4e28-adcc-c5857ca50209"},"vehicle_type_id":"4","last_reported":1690311816,"current_range_meters":20000,"station_id":"chh1huq6cuj3fo74tm60","pricing_plan_id":"free"},{"bike_id":"9c34f373-f890-442c-8bd3-8c9b6e9df98c","system_id":"levelo_inurba_marseille","lat":43.295169,"lon":5.390426,"is_reserved":false,"is_disabled":false,"rental_uris":{"android":"levelo://app?vid=9c34f373-f890-442c-8bd3-8c9b6e9df98c","ios":"levelo://app?vid=9c34f373-f890-442c-8bd3-8c9b6e9df98c"},"vehicle_type_id":"4","last_reported":1690311816,"current_range_meters":0,"station_id":"ce4bh3p2rcd13ifvqdp0","pricing_plan_id":"free"},{"bike_id":"cc284660-6cf3-4ced-8af7-31fa34f12f9f","system_id":"levelo_inurba_marseille","lat":43.295169,"lon":5.390426,"is_reserved":false,"is_disabled":false,"rental_uris":{"android":"levelo://app?vid=cc284660-6cf3-4ced-8af7-31fa34f12f9f","ios":"levelo://app?vid=cc284660-6cf3-4ced-8af7-31fa34f12f9f"},"vehicle_type_id":"4","last_reported":1690311816,"current_range_meters":21200,"station_id":"ce4bh3p2rcd13ifvqdp0","pricing_plan_id":"free"},{"bike_id":"daff3a1b-4aa2-44da-bb75-dca4e9d8b88b","system_id":"levelo_inurba_marseille","lat":43.2901,"lon":5.381269,"is_reserved":false,"is_disabled":false,"rental_uris":{"android":"levelo://app?vid=daff3a1b-4aa2-44da-bb75-dca4e9d8b88b","ios":"levelo://app?vid=daff3a1b-4aa2-44da-bb75-dca4e9d8b88b"},"vehicle_type_id":"4","last_reported":1690311816,"current_range_meters":14000,"station_id":"ce4bh4p2rcd13ifvqe1g","pricing_plan_id":"free"},{"bike_id":"e72cbcac-1a82-47ef-9bc4-a871532b1c8f","system_id":"levelo_inurba_marseille","lat":43.290232,"lon":5.381449,"is_reserved":false,"is_disabled":false,"rental_uris":{"android":"levelo://app?vid=e72cbcac-1a82-47ef-9bc4-a871532b1c8f","ios":"levelo://app?vid=e72cbcac-1a82-47ef-9bc4-a871532b1c8f"},"vehicle_type_id":"4","last_reported":1690311816,"current_range_meters":24000,"station_id":"ce4bh4p2rcd13ifvqe1g","pricing_plan_id":"free"},{"bike_id":"383c61db-45d8-4daf-a17c-d37379f6c8d8","system_id":"levelo_inurba_marseille","lat":43.28856,"lon":5.358371,"is_reserved":false,"is_disabled":false,"rental_uris":{"android":"levelo://app?vid=383c61db-45d8-4daf-a17c-d37379f6c8d8","ios":"levelo://app?vid=383c61db-45d8-4daf-a17c-d37379f6c8d8"},"vehicle_type_id":"4","last_reported":1690311816,"current_range_meters":3200,"station_id":"ce4bhb12rcd13ifvqem0","pricing_plan_id":"free"},{"bike_id":"ca9d201a-71a1-475c-8693-9ecfe47864ad","system_id":"levelo_inurba_marseille","lat":43.312609,"lon":5.401662,"is_reserved":false,"is_disabled":false,"rental_uris":{"android":"levelo://app?vid=ca9d201a-71a1-475c-8693-9ecfe47864ad","ios":"levelo://app?vid=ca9d201a-71a1-475c-8693-9ecfe47864ad"},"vehicle_type_id":"4","last_reported":1690311816,"current_range_meters":19600,"station_id":"ce4bh092rcd13ifvqd30","pricing_plan_id":"free"},{"bike_id":"8a763e71-889a-4f6d-9d12-cc0925af9551","system_id":"levelo_inurba_marseille","lat":43.33736,"lon":5.37452,"is_reserved":false,"is_disabled":false,"rental_uris":{"android":"levelo://app?vid=8a763e71-889a-4f6d-9d12-cc0925af9551","ios":"levelo://app?vid=8a763e71-889a-4f6d-9d12-cc0925af9551"},"vehicle_type_id":"4","last_reported":1690311816,"current_range_meters":28000,"station_id":"","pricing_plan_id":"free"},{"bike_id":"323f9806-5f79-4c9e-be2e-0635055ea0e8","system_id":"levelo_inurba_marseille","lat":43.309371,"lon":5.401449,"is_reserved":false,"is_disabled":false,"rental_uris":{"android":"levelo://app?vid=323f9806-5f79-4c9e-be2e-0635055ea0e8","ios":"levelo://app?vid=323f9806-5f79-4c9e-be2e-0635055ea0e8"},"vehicle_type_id":"4","last_reported":1690311816,"current_range_meters":800,"station_id":"ce4bgvp2rcd13ifvqct0","pricing_plan_id":"free"},{"bike_id":"7fc4b87b-afaa-4c54-a9df-a406fc226eef","system_id":"levelo_inurba_marseille","lat":43.312742,"lon":5.401676,"is_reserved":false,"is_disabled":false,"rental_uris":{"android":"levelo://app?vid=7fc4b87b-afaa-4c54-a9df-a406fc226eef","ios":"levelo://app?vid=7fc4b87b-afaa-4c54-a9df-a406fc226eef"},"vehicle_type_id":"4","last_reported":1690311816,"current_range_meters":800,"station_id":"ce4bh092rcd13ifvqd30","pricing_plan_id":"free"},{"bike_id":"130840a5-e40d-401b-b733-9a7931bc0133","system_id":"levelo_inurba_marseille","lat":43.33744,"lon":5.37465,"is_reserved":false,"is_disabled":false,"rental_uris":{"android":"levelo://app?vid=130840a5-e40d-401b-b733-9a7931bc0133","ios":"levelo://app?vid=130840a5-e40d-401b-b733-9a7931bc0133"},"vehicle_type_id":"4","last_reported":1690311816,"current_range_meters":24400,"station_id":"","pricing_plan_id":"free"},{"bike_id":"bbcc5fd3-1f7e-44f2-8650-49392451c59c","system_id":"levelo_inurba_marseille","lat":43.30651,"lon":5.4007,"is_reserved":false,"is_disabled":false,"rental_uris":{"android":"levelo://app?vid=bbcc5fd3-1f7e-44f2-8650-49392451c59c","ios":"levelo://app?vid=bbcc5fd3-1f7e-44f2-8650-49392451c59c"},"vehicle_type_id":"4","last_reported":1690311816,"current_range_meters":26000,"station_id":"ce4bh112rcd13ifvqda0","pricing_plan_id":"free"},{"bike_id":"e9138402-fc15-4896-bb4f-c3a40ba5299c","system_id":"levelo_inurba_marseille","lat":43.33744,"lon":5.37481,"is_reserved":false,"is_disabled":false,"rental_uris":{"android":"levelo://app?vid=e9138402-fc15-4896-bb4f-c3a40ba5299c","ios":"levelo://app?vid=e9138402-fc15-4896-bb4f-c3a40ba5299c"},"vehicle_type_id":"4","last_reported":1690311816,"current_range_meters":13600,"station_id":"","pricing_plan_id":"free"},{"bike_id":"417f3cd8-86e7-4f94-bf48-3b7ed2d5d1d2","system_id":"levelo_inurba_marseille","lat":43.33749,"lon":5.37461,"is_reserved":false,"is_disabled":false,"rental_uris":{"android":"levelo://app?vid=417f3cd8-86e7-4f94-bf48-3b7ed2d5d1d2","ios":"levelo://app?vid=417f3cd8-86e7-4f94-bf48-3b7ed2d5d1d2"},"vehicle_type_id":"4","last_reported":1690311816,"current_range_meters":6400,"station_id":"","pricing_plan_id":"free"},{"bike_id":"f2538e92-b853-4637-87b9-30dd9d9a08b9","system_id":"levelo_inurba_marseille","lat":43.30638,"lon":5.4007,"is_reserved":false,"is_disabled":false,"rental_uris":{"android":"levelo://app?vid=f2538e92-b853-4637-87b9-30dd9d9a08b9","ios":"levelo://app?vid=f2538e92-b853-4637-87b9-30dd9d9a08b9"},"vehicle_type_id":"4","last_reported":1690311816,"current_range_meters":31200,"station_id":"ce4bh112rcd13ifvqda0","pricing_plan_id":"free"},{"bike_id":"e1b81148-5445-4a37-b8ba-64ec9e162893","system_id":"levelo_inurba_marseille","lat":43.33753,"lon":5.37452,"is_reserved":false,"is_disabled":false,"rental_uris":{"android":"levelo://app?vid=e1b81148-5445-4a37-b8ba-64ec9e162893","ios":"levelo://app?vid=e1b81148-5445-4a37-b8ba-64ec9e162893"},"vehicle_type_id":"4","last_reported":1690311816,"current_range_meters":24800,"station_id":"","pricing_plan_id":"free"},{"bike_id":"91c5d3f3-de55-416e-ba96-83c70618ab44","system_id":"levelo_inurba_marseille","lat":43.337474,"lon":5.374932,"is_reserved":false,"is_disabled":false,"rental_uris":{"android":"levelo://app?vid=91c5d3f3-de55-416e-ba96-83c70618ab44","ios":"levelo://app?vid=91c5d3f3-de55-416e-ba96-83c70618ab44"},"vehicle_type_id":"4","last_reported":1690311816,"current_range_meters":0,"station_id":"","pricing_plan_id":"free"},{"bike_id":"31d77afd-f17c-45af-b4fb-e1f10649f2ac","system_id":"levelo_inurba_marseille","lat":43.33752,"lon":5.374816,"is_reserved":false,"is_disabled":false,"rental_uris":{"android":"levelo://app?vid=31d77afd-f17c-45af-b4fb-e1f10649f2ac","ios":"levelo://app?vid=31d77afd-f17c-45af-b4fb-e1f10649f2ac"},"vehicle_type_id":"4","last_reported":1690311816,"current_range_meters":29200,"station_id":"","pricing_plan_id":"free"},{"bike_id":"34746990-9af6-409b-bcba-2bfa3785fb72","system_id":"levelo_inurba_marseille","lat":43.33755,"lon":5.37473,"is_reserved":false,"is_disabled":false,"rental_uris":{"android":"levelo://app?vid=34746990-9af6-409b-bcba-2bfa3785fb72","ios":"levelo://app?vid=34746990-9af6-409b-bcba-2bfa3785fb72"},"vehicle_type_id":"4","last_reported":1690311816,"current_range_meters":0,"station_id":"","pricing_plan_id":"free"},{"bike_id":"e189684f-ee4e-435a-abcd-b6a48e0ff573","system_id":"levelo_inurba_marseille","lat":43.33758,"lon":5.37461,"is_reserved":false,"is_disabled":false,"rental_uris":{"android":"levelo://app?vid=e189684f-ee4e-435a-abcd-b6a48e0ff573","ios":"levelo://app?vid=e189684f-ee4e-435a-abcd-b6a48e0ff573"},"vehicle_type_id":"4","last_reported":1690311816,"current_range_meters":29200,"station_id":"","pricing_plan_id":"free"},{"bike_id":"023f9f64-74be-4021-b4df-bf84b4d9242b","system_id":"levelo_inurba_marseille","lat":43.33757,"lon":5.37475,"is_reserved":false,"is_disabled":false,"rental_uris":{"android":"levelo://app?vid=023f9f64-74be-4021-b4df-bf84b4d9242b","ios":"levelo://app?vid=023f9f64-74be-4021-b4df-bf84b4d9242b"},"vehicle_type_id":"4","last_reported":1690311816,"current_range_meters":24400,"station_id":"","pricing_plan_id":"free"},{"bike_id":"153ffbbf-1bcb-4450-b505-39d94b305ddc","system_id":"levelo_inurba_marseille","lat":43.33757,"lon":5.37475,"is_reserved":false,"is_disabled":false,"rental_uris":{"android":"levelo://app?vid=153ffbbf-1bcb-4450-b505-39d94b305ddc","ios":"levelo://app?vid=153ffbbf-1bcb-4450-b505-39d94b305ddc"},"vehicle_type_id":"4","last_reported":1690311816,"current_range_meters":12000,"station_id":"","pricing_plan_id":"free"},{"bike_id":"e5f66319-449c-4163-b4e2-5f51e6fef08d","system_id":"levelo_inurba_marseille","lat":43.33758,"lon":5.37469,"is_reserved":false,"is_disabled":false,"rental_uris":{"android":"levelo://app?vid=e5f66319-449c-4163-b4e2-5f51e6fef08d","ios":"levelo://app?vid=e5f66319-449c-4163-b4e2-5f51e6fef08d"},"vehicle_type_id":"4","last_reported":1690311816,"current_range_meters":30400,"station_id":"","pricing_plan_id":"free"},{"bike_id":"bbba9b56-f3f5-4c64-bc8b-118bf35453d0","system_id":"levelo_inurba_marseille","lat":43.33757,"lon":5.3748,"is_reserved":false,"is_disabled":false,"rental_uris":{"android":"levelo://app?vid=bbba9b56-f3f5-4c64-bc8b-118bf35453d0","ios":"levelo://app?vid=bbba9b56-f3f5-4c64-bc8b-118bf35453d0"},"vehicle_type_id":"4","last_reported":1690311816,"current_range_meters":13600,"station_id":"","pricing_plan_id":"free"},{"bike_id":"fe1f78d2-f246-48a1-8047-b5480ca67db4","system_id":"levelo_inurba_marseille","lat":43.33758,"lon":5.37475,"is_reserved":false,"is_disabled":false,"rental_uris":{"android":"levelo://app?vid=fe1f78d2-f246-48a1-8047-b5480ca67db4","ios":"levelo://app?vid=fe1f78d2-f246-48a1-8047-b5480ca67db4"},"vehicle_type_id":"4","last_reported":1690311816,"current_range_meters":0,"station_id":"","pricing_plan_id":"free"},{"bike_id":"76a3d743-1fe2-4c1f-bf61-b5a18f92b0dd","system_id":"levelo_inurba_marseille","lat":43.3376,"lon":5.37475,"is_reserved":false,"is_disabled":false,"rental_uris":{"android":"levelo://app?vid=76a3d743-1fe2-4c1f-bf61-b5a18f92b0dd","ios":"levelo://app?vid=76a3d743-1fe2-4c1f-bf61-b5a18f92b0dd"},"vehicle_type_id":"4","last_reported":1690311816,"current_range_meters":0,"station_id":"","pricing_plan_id":"free"},{"bike_id":"545292b9-fb1a-4a5c-8728-2af68895307a","system_id":"levelo_inurba_marseille","lat":43.33762,"lon":5.37479,"is_reserved":false,"is_disabled":false,"rental_uris":{"android":"levelo://app?vid=545292b9-fb1a-4a5c-8728-2af68895307a","ios":"levelo://app?vid=545292b9-fb1a-4a5c-8728-2af68895307a"},"vehicle_type_id":"4","last_reported":1690311816,"current_range_meters":0,"station_id":"","pricing_plan_id":"free"},{"bike_id":"e230c09f-fd66-4155-879d-f466a073c926","system_id":"levelo_inurba_marseille","lat":43.286961,"lon":5.373785,"is_reserved":false,"is_disabled":false,"rental_uris":{"android":"levelo://app?vid=e230c09f-fd66-4155-879d-f466a073c926","ios":"levelo://app?vid=e230c09f-fd66-4155-879d-f466a073c926"},"vehicle_type_id":"4","last_reported":1690311816,"current_range_meters":13200,"station_id":"ce4bh3p2rcd13ifvqdq0","pricing_plan_id":"free"},{"bike_id":"7679c5fc-fb9b-49ed-bedf-901bd7b01e6b","system_id":"levelo_inurba_marseille","lat":43.298681,"lon":5.397225,"is_reserved":false,"is_disabled":false,"rental_uris":{"android":"levelo://app?vid=7679c5fc-fb9b-49ed-bedf-901bd7b01e6b","ios":"levelo://app?vid=7679c5fc-fb9b-49ed-bedf-901bd7b01e6b"},"vehicle_type_id":"4","last_reported":1690311816,"current_range_meters":2800,"station_id":"ce4bh0h2rcd13ifvqd50","pricing_plan_id":"free"},{"bike_id":"57829706-68b3-491d-ab0a-44763117628d","system_id":"levelo_inurba_marseille","lat":43.298681,"lon":5.397225,"is_reserved":false,"is_disabled":false,"rental_uris":{"android":"levelo://app?vid=57829706-68b3-491d-ab0a-44763117628d","ios":"levelo://app?vid=57829706-68b3-491d-ab0a-44763117628d"},"vehicle_type_id":"4","last_reported":1690311816,"current_range_meters":24800,"station_id":"ce4bh0h2rcd13ifvqd50","pricing_plan_id":"free"},{"bike_id":"6272cc87-84e5-4ba3-8cb9-7ba14df91727","system_id":"levelo_inurba_marseille","lat":43.298681,"lon":5.397225,"is_reserved":false,"is_disabled":false,"rental_uris":{"android":"levelo://app?vid=6272cc87-84e5-4ba3-8cb9-7ba14df91727","ios":"levelo://app?vid=6272cc87-84e5-4ba3-8cb9-7ba14df91727"},"vehicle_type_id":"4","last_reported":1690311816,"current_range_meters":19200,"station_id":"ce4bh0h2rcd13ifvqd50","pricing_plan_id":"free"},{"bike_id":"8b97db89-8dfc-4639-ab9d-13fc58b342a5","system_id":"levelo_inurba_marseille","lat":43.286591,"lon":5.363346,"is_reserved":false,"is_disabled":false,"rental_uris":{"android":"levelo://app?vid=8b97db89-8dfc-4639-ab9d-13fc58b342a5","ios":"levelo://app?vid=8b97db89-8dfc-4639-ab9d-13fc58b342a5"},"vehicle_type_id":"4","last_reported":1690311816,"current_range_meters":31200,"station_id":"ce4bhah2rcd13ifvqej0","pricing_plan_id":"free"},{"bike_id":"96ef9b18-2345-4907-83ca-1a17f896a715","system_id":"levelo_inurba_marseille","lat":43.295196,"lon":5.39397,"is_reserved":false,"is_disabled":false,"rental_uris":{"android":"levelo://app?vid=96ef9b18-2345-4907-83ca-1a17f896a715","ios":"levelo://app?vid=96ef9b18-2345-4907-83ca-1a17f896a715"},"vehicle_type_id":"4","last_reported":1690311816,"current_range_meters":5200,"station_id":"ce4bh292rcd13ifvqdf0","pricing_plan_id":"free"},{"bike_id":"7a16f6fa-ccb6-4dd6-8d98-82026049066e","system_id":"levelo_inurba_marseille","lat":43.286593,"lon":5.363346,"is_reserved":false,"is_disabled":false,"rental_uris":{"android":"levelo://app?vid=7a16f6fa-ccb6-4dd6-8d98-82026049066e","ios":"levelo://app?vid=7a16f6fa-ccb6-4dd6-8d98-82026049066e"},"vehicle_type_id":"4","last_reported":1690311816,"current_range_meters":10800,"station_id":"ce4bhah2rcd13ifvqej0","pricing_plan_id":"free"},{"bike_id":"db686dfb-473c-4fd1-8caf-9f14ec111785","system_id":"levelo_inurba_marseille","lat":43.295196,"lon":5.39397,"is_reserved":false,"is_disabled":false,"rental_uris":{"android":"levelo://app?vid=db686dfb-473c-4fd1-8caf-9f14ec111785","ios":"levelo://app?vid=db686dfb-473c-4fd1-8caf-9f14ec111785"},"vehicle_type_id":"4","last_reported":1690311816,"current_range_meters":2000,"station_id":"ce4bh292rcd13ifvqdf0","pricing_plan_id":"free"},{"bike_id":"0727f792-6778-43ed-85ee-f6a5977b22a3","system_id":"levelo_inurba_marseille","lat":43.286961,"lon":5.373785,"is_reserved":false,"is_disabled":false,"rental_uris":{"android":"levelo://app?vid=0727f792-6778-43ed-85ee-f6a5977b22a3","ios":"levelo://app?vid=0727f792-6778-43ed-85ee-f6a5977b22a3"},"vehicle_type_id":"4","last_reported":1690311816,"current_range_meters":18400,"station_id":"ce4bh3p2rcd13ifvqdq0","pricing_plan_id":"free"},{"bike_id":"3cdf1a71-3b10-4054-8479-f75826e06fca","system_id":"levelo_inurba_marseille","lat":43.295196,"lon":5.39397,"is_reserved":false,"is_disabled":false,"rental_uris":{"android":"levelo://app?vid=3cdf1a71-3b10-4054-8479-f75826e06fca","ios":"levelo://app?vid=3cdf1a71-3b10-4054-8479-f75826e06fca"},"vehicle_type_id":"4","last_reported":1690311816,"current_range_meters":5600,"station_id":"ce4bh292rcd13ifvqdf0","pricing_plan_id":"free"},{"bike_id":"23eca4e3-72c1-4bc2-a372-b4d410c44335","system_id":"levelo_inurba_marseille","lat":43.295196,"lon":5.39397,"is_reserved":false,"is_disabled":false,"rental_uris":{"android":"levelo://app?vid=23eca4e3-72c1-4bc2-a372-b4d410c44335","ios":"levelo://app?vid=23eca4e3-72c1-4bc2-a372-b4d410c44335"},"vehicle_type_id":"4","last_reported":1690311816,"current_range_meters":31600,"station_id":"ce4bh292rcd13ifvqdf0","pricing_plan_id":"free"},{"bike_id":"886955d9-2022-4c83-b780-1c9368c2e2ad","system_id":"levelo_inurba_marseille","lat":43.286039,"lon":5.370679,"is_reserved":false,"is_disabled":false,"rental_uris":{"android":"levelo://app?vid=886955d9-2022-4c83-b780-1c9368c2e2ad","ios":"levelo://app?vid=886955d9-2022-4c83-b780-1c9368c2e2ad"},"vehicle_type_id":"4","last_reported":1690311816,"current_range_meters":16400,"station_id":"ce4bht12rcd13ifvqi60","pricing_plan_id":"free"},{"bike_id":"1231bdc1-0b3e-42fc-92d2-6e675ed929e8","system_id":"levelo_inurba_marseille","lat":43.29513,"lon":5.39399,"is_reserved":false,"is_disabled":false,"rental_uris":{"android":"levelo://app?vid=1231bdc1-0b3e-42fc-92d2-6e675ed929e8","ios":"levelo://app?vid=1231bdc1-0b3e-42fc-92d2-6e675ed929e8"},"vehicle_type_id":"4","last_reported":1690311816,"current_range_meters":19600,"station_id":"ce4bh292rcd13ifvqdf0","pricing_plan_id":"free"},{"bike_id":"2aa863a0-d1b3-49c7-a547-13ffa459fa2c","system_id":"levelo_inurba_marseille","lat":43.28868,"lon":5.38212,"is_reserved":false,"is_disabled":false,"rental_uris":{"android":"levelo://app?vid=2aa863a0-d1b3-49c7-a547-13ffa459fa2c","ios":"levelo://app?vid=2aa863a0-d1b3-49c7-a547-13ffa459fa2c"},"vehicle_type_id":"4","last_reported":1690311816,"current_range_meters":0,"station_id":"","pricing_plan_id":"free"},{"bike_id":"66c38fc4-8165-4629-baf0-d037c5a106c1","system_id":"levelo_inurba_marseille","lat":43.2903,"lon":5.3864,"is_reserved":false,"is_disabled":false,"rental_uris":{"android":"levelo://app?vid=66c38fc4-8165-4629-baf0-d037c5a106c1","ios":"levelo://app?vid=66c38fc4-8165-4629-baf0-d037c5a106c1"},"vehicle_type_id":"4","last_reported":1690311816,"current_range_meters":0,"station_id":"ce4bh4p2rcd13ifvqe0g","pricing_plan_id":"free"},{"bike_id":"964adf6e-9758-4604-92b5-9bce9233f398","system_id":"levelo_inurba_marseille","lat":43.290345,"lon":5.38646,"is_reserved":false,"is_disabled":false,"rental_uris":{"android":"levelo://app?vid=964adf6e-9758-4604-92b5-9bce9233f398","ios":"levelo://app?vid=964adf6e-9758-4604-92b5-9bce9233f398"},"vehicle_type_id":"4","last_reported":1690311816,"current_range_meters":3600,"station_id":"ce4bh4p2rcd13ifvqe0g","pricing_plan_id":"free"},{"bike_id":"e6fe2742-671a-476e-ab5c-3ec9b95cb2c9","system_id":"levelo_inurba_marseille","lat":43.29026,"lon":5.38637,"is_reserved":false,"is_disabled":false,"rental_uris":{"android":"levelo://app?vid=e6fe2742-671a-476e-ab5c-3ec9b95cb2c9","ios":"levelo://app?vid=e6fe2742-671a-476e-ab5c-3ec9b95cb2c9"},"vehicle_type_id":"4","last_reported":1690311816,"current_range_meters":7200,"station_id":"ce4bh4p2rcd13ifvqe0g","pricing_plan_id":"free"},{"bike_id":"ea6b6290-6559-4f78-b3c4-179c2f778837","system_id":"levelo_inurba_marseille","lat":43.290345,"lon":5.38646,"is_reserved":false,"is_disabled":false,"rental_uris":{"android":"levelo://app?vid=ea6b6290-6559-4f78-b3c4-179c2f778837","ios":"levelo://app?vid=ea6b6290-6559-4f78-b3c4-179c2f778837"},"vehicle_type_id":"4","last_reported":1690311816,"current_range_meters":5600,"station_id":"ce4bh4p2rcd13ifvqe0g","pricing_plan_id":"free"},{"bike_id":"c236adb9-d56a-42f7-b8a4-3a9fe2e738b1","system_id":"levelo_inurba_marseille","lat":43.290336,"lon":5.386425,"is_reserved":false,"is_disabled":false,"rental_uris":{"android":"levelo://app?vid=c236adb9-d56a-42f7-b8a4-3a9fe2e738b1","ios":"levelo://app?vid=c236adb9-d56a-42f7-b8a4-3a9fe2e738b1"},"vehicle_type_id":"4","last_reported":1690311816,"current_range_meters":21600,"station_id":"ce4bh4p2rcd13ifvqe0g","pricing_plan_id":"free"},{"bike_id":"40f81c85-1ed7-4c31-895f-931e7a9233f9","system_id":"levelo_inurba_marseille","lat":43.30243,"lon":5.40072,"is_reserved":false,"is_disabled":false,"rental_uris":{"android":"levelo://app?vid=40f81c85-1ed7-4c31-895f-931e7a9233f9","ios":"levelo://app?vid=40f81c85-1ed7-4c31-895f-931e7a9233f9"},"vehicle_type_id":"4","last_reported":1690311816,"current_range_meters":9200,"station_id":"ce4bgvh2rcd13ifvqcs0","pricing_plan_id":"free"},{"bike_id":"6330f544-bf82-4118-a18f-3df6063b1733","system_id":"levelo_inurba_marseille","lat":43.302494,"lon":5.400793,"is_reserved":false,"is_disabled":false,"rental_uris":{"android":"levelo://app?vid=6330f544-bf82-4118-a18f-3df6063b1733","ios":"levelo://app?vid=6330f544-bf82-4118-a18f-3df6063b1733"},"vehicle_type_id":"4","last_reported":1690311816,"current_range_meters":16000,"station_id":"ce4bgvh2rcd13ifvqcs0","pricing_plan_id":"free"},{"bike_id":"11704397-7e73-450b-9084-3a370812724c","system_id":"levelo_inurba_marseille","lat":43.286039,"lon":5.370679,"is_reserved":false,"is_disabled":false,"rental_uris":{"android":"levelo://app?vid=11704397-7e73-450b-9084-3a370812724c","ios":"levelo://app?vid=11704397-7e73-450b-9084-3a370812724c"},"vehicle_type_id":"4","last_reported":1690311816,"current_range_meters":17200,"station_id":"ce4bht12rcd13ifvqi60","pricing_plan_id":"free"},{"bike_id":"ced77ef1-aaa5-468f-832e-e6a2f8739832","system_id":"levelo_inurba_marseille","lat":43.286039,"lon":5.370679,"is_reserved":false,"is_disabled":false,"rental_uris":{"android":"levelo://app?vid=ced77ef1-aaa5-468f-832e-e6a2f8739832","ios":"levelo://app?vid=ced77ef1-aaa5-468f-832e-e6a2f8739832"},"vehicle_type_id":"4","last_reported":1690311816,"current_range_meters":7600,"station_id":"ce4bht12rcd13ifvqi60","pricing_plan_id":"free"},{"bike_id":"d20c883b-a8f4-4ba0-800a-c0cf33e0b3d6","system_id":"levelo_inurba_marseille","lat":43.28614,"lon":5.3706,"is_reserved":false,"is_disabled":false,"rental_uris":{"android":"levelo://app?vid=d20c883b-a8f4-4ba0-800a-c0cf33e0b3d6","ios":"levelo://app?vid=d20c883b-a8f4-4ba0-800a-c0cf33e0b3d6"},"vehicle_type_id":"4","last_reported":1690311816,"current_range_meters":16000,"station_id":"ce4bht12rcd13ifvqi60","pricing_plan_id":"free"},{"bike_id":"ec7ce6a6-7ebb-4436-bb70-397a5df9121e","system_id":"levelo_inurba_marseille","lat":43.286135,"lon":5.37066,"is_reserved":false,"is_disabled":false,"rental_uris":{"android":"levelo://app?vid=ec7ce6a6-7ebb-4436-bb70-397a5df9121e","ios":"levelo://app?vid=ec7ce6a6-7ebb-4436-bb70-397a5df9121e"},"vehicle_type_id":"4","last_reported":1690311816,"current_range_meters":10400,"station_id":"ce4bht12rcd13ifvqi60","pricing_plan_id":"free"},{"bike_id":"3acf92d9-764f-4a8e-8825-13f3e6b6300c","system_id":"levelo_inurba_marseille","lat":43.28613,"lon":5.37061,"is_reserved":false,"is_disabled":false,"rental_uris":{"android":"levelo://app?vid=3acf92d9-764f-4a8e-8825-13f3e6b6300c","ios":"levelo://app?vid=3acf92d9-764f-4a8e-8825-13f3e6b6300c"},"vehicle_type_id":"4","last_reported":1690311816,"current_range_meters":4000,"station_id":"ce4bht12rcd13ifvqi60","pricing_plan_id":"free"},{"bike_id":"e42ab4aa-cfe0-4194-8971-5ca44852632a","system_id":"levelo_inurba_marseille","lat":43.28613,"lon":5.37061,"is_reserved":false,"is_disabled":false,"rental_uris":{"android":"levelo://app?vid=e42ab4aa-cfe0-4194-8971-5ca44852632a","ios":"levelo://app?vid=e42ab4aa-cfe0-4194-8971-5ca44852632a"},"vehicle_type_id":"4","last_reported":1690311816,"current_range_meters":4400,"station_id":"ce4bht12rcd13ifvqi60","pricing_plan_id":"free"},{"bike_id":"77b790d1-74e5-4d04-a939-51842c4384ce","system_id":"levelo_inurba_marseille","lat":43.28611,"lon":5.37063,"is_reserved":false,"is_disabled":false,"rental_uris":{"android":"levelo://app?vid=77b790d1-74e5-4d04-a939-51842c4384ce","ios":"levelo://app?vid=77b790d1-74e5-4d04-a939-51842c4384ce"},"vehicle_type_id":"4","last_reported":1690311816,"current_range_meters":20400,"station_id":"ce4bht12rcd13ifvqi60","pricing_plan_id":"free"},{"bike_id":"e207aac7-2109-49ff-804f-06134f8a8850","system_id":"levelo_inurba_marseille","lat":43.285921,"lon":5.370783,"is_reserved":false,"is_disabled":false,"rental_uris":{"android":"levelo://app?vid=e207aac7-2109-49ff-804f-06134f8a8850","ios":"levelo://app?vid=e207aac7-2109-49ff-804f-06134f8a8850"},"vehicle_type_id":"4","last_reported":1690311816,"current_range_meters":7600,"station_id":"ce4bht12rcd13ifvqi60","pricing_plan_id":"free"},{"bike_id":"fe2f4e16-f9e2-482a-aec8-2b6a4a6838b6","system_id":"levelo_inurba_marseille","lat":43.31649,"lon":5.40429,"is_reserved":false,"is_disabled":false,"rental_uris":{"android":"levelo://app?vid=fe2f4e16-f9e2-482a-aec8-2b6a4a6838b6","ios":"levelo://app?vid=fe2f4e16-f9e2-482a-aec8-2b6a4a6838b6"},"vehicle_type_id":"4","last_reported":1690311816,"current_range_meters":12800,"station_id":"ce4bh012rcd13ifvqd00","pricing_plan_id":"free"},{"bike_id":"f46225b6-6e2f-4250-a6e9-d9e6a1407113","system_id":"levelo_inurba_marseille","lat":43.291994,"lon":5.392907,"is_reserved":false,"is_disabled":false,"rental_uris":{"android":"levelo://app?vid=f46225b6-6e2f-4250-a6e9-d9e6a1407113","ios":"levelo://app?vid=f46225b6-6e2f-4250-a6e9-d9e6a1407113"},"vehicle_type_id":"4","last_reported":1690311816,"current_range_meters":29200,"station_id":"ce4bh192rcd13ifvqdd0","pricing_plan_id":"free"},{"bike_id":"6459a7b8-db35-4d3f-8ee9-5266dd13f9aa","system_id":"levelo_inurba_marseille","lat":43.291994,"lon":5.392907,"is_reserved":false,"is_disabled":false,"rental_uris":{"android":"levelo://app?vid=6459a7b8-db35-4d3f-8ee9-5266dd13f9aa","ios":"levelo://app?vid=6459a7b8-db35-4d3f-8ee9-5266dd13f9aa"},"vehicle_type_id":"4","last_reported":1690311816,"current_range_meters":9200,"station_id":"ce4bh192rcd13ifvqdd0","pricing_plan_id":"free"},{"bike_id":"ccb8deb8-96f4-4394-abdb-4a030583bedb","system_id":"levelo_inurba_marseille","lat":43.28472,"lon":5.3588,"is_reserved":false,"is_disabled":false,"rental_uris":{"android":"levelo://app?vid=ccb8deb8-96f4-4394-abdb-4a030583bedb","ios":"levelo://app?vid=ccb8deb8-96f4-4394-abdb-4a030583bedb"},"vehicle_type_id":"4","last_reported":1690311816,"current_range_meters":0,"station_id":"ce4bhah2rcd13ifvqei0","pricing_plan_id":"free"},{"bike_id":"7dc02ec3-8ab6-46a6-af9a-424e6645249a","system_id":"levelo_inurba_marseille","lat":43.28466,"lon":5.35882,"is_reserved":false,"is_disabled":false,"rental_uris":{"android":"levelo://app?vid=7dc02ec3-8ab6-46a6-af9a-424e6645249a","ios":"levelo://app?vid=7dc02ec3-8ab6-46a6-af9a-424e6645249a"},"vehicle_type_id":"4","last_reported":1690311816,"current_range_meters":21600,"station_id":"ce4bhah2rcd13ifvqei0","pricing_plan_id":"free"},{"bike_id":"23f20019-0acc-40f1-bc95-fb41b1fd278a","system_id":"levelo_inurba_marseille","lat":43.28466,"lon":5.35882,"is_reserved":false,"is_disabled":false,"rental_uris":{"android":"levelo://app?vid=23f20019-0acc-40f1-bc95-fb41b1fd278a","ios":"levelo://app?vid=23f20019-0acc-40f1-bc95-fb41b1fd278a"},"vehicle_type_id":"4","last_reported":1690311816,"current_range_meters":0,"station_id":"ce4bhah2rcd13ifvqei0","pricing_plan_id":"free"},{"bike_id":"457f5fa7-a3cd-4dc1-89b3-690ec568f116","system_id":"levelo_inurba_marseille","lat":43.28464,"lon":5.35893,"is_reserved":false,"is_disabled":false,"rental_uris":{"android":"levelo://app?vid=457f5fa7-a3cd-4dc1-89b3-690ec568f116","ios":"levelo://app?vid=457f5fa7-a3cd-4dc1-89b3-690ec568f116"},"vehicle_type_id":"4","last_reported":1690311816,"current_range_meters":20000,"station_id":"ce4bhah2rcd13ifvqei0","pricing_plan_id":"free"},{"bike_id":"720ef1b1-4859-43b6-8b19-a52fb3d6743d","system_id":"levelo_inurba_marseille","lat":43.28465,"lon":5.35878,"is_reserved":false,"is_disabled":false,"rental_uris":{"android":"levelo://app?vid=720ef1b1-4859-43b6-8b19-a52fb3d6743d","ios":"levelo://app?vid=720ef1b1-4859-43b6-8b19-a52fb3d6743d"},"vehicle_type_id":"4","last_reported":1690311816,"current_range_meters":400,"station_id":"ce4bhah2rcd13ifvqei0","pricing_plan_id":"free"},{"bike_id":"e70fd72f-6a57-45d8-ae38-4a4274a495e5","system_id":"levelo_inurba_marseille","lat":43.284534,"lon":5.358662,"is_reserved":false,"is_disabled":false,"rental_uris":{"android":"levelo://app?vid=e70fd72f-6a57-45d8-ae38-4a4274a495e5","ios":"levelo://app?vid=e70fd72f-6a57-45d8-ae38-4a4274a495e5"},"vehicle_type_id":"4","last_reported":1690311816,"current_range_meters":19200,"station_id":"ce4bhah2rcd13ifvqei0","pricing_plan_id":"free"},{"bike_id":"a6ed3382-a6b1-4948-90b2-ec1fdd991c9f","system_id":"levelo_inurba_marseille","lat":43.294314,"lon":5.397498,"is_reserved":false,"is_disabled":false,"rental_uris":{"android":"levelo://app?vid=a6ed3382-a6b1-4948-90b2-ec1fdd991c9f","ios":"levelo://app?vid=a6ed3382-a6b1-4948-90b2-ec1fdd991c9f"},"vehicle_type_id":"4","last_reported":1690311816,"current_range_meters":30800,"station_id":"ce4bh3h2rcd13ifvqdo0","pricing_plan_id":"free"},{"bike_id":"0aad1b8f-d736-498a-ad9d-cc5aaede964c","system_id":"levelo_inurba_marseille","lat":43.28623,"lon":5.351,"is_reserved":false,"is_disabled":false,"rental_uris":{"android":"levelo://app?vid=0aad1b8f-d736-498a-ad9d-cc5aaede964c","ios":"levelo://app?vid=0aad1b8f-d736-498a-ad9d-cc5aaede964c"},"vehicle_type_id":"4","last_reported":1690311816,"current_range_meters":31200,"station_id":"ce4bhch2rcd13ifvqeug","pricing_plan_id":"free"},{"bike_id":"1f0748a1-9e6a-4120-984f-58485184cd57","system_id":"levelo_inurba_marseille","lat":43.28622,"lon":5.35101,"is_reserved":false,"is_disabled":false,"rental_uris":{"android":"levelo://app?vid=1f0748a1-9e6a-4120-984f-58485184cd57","ios":"levelo://app?vid=1f0748a1-9e6a-4120-984f-58485184cd57"},"vehicle_type_id":"4","last_reported":1690311816,"current_range_meters":31200,"station_id":"ce4bhch2rcd13ifvqeug","pricing_plan_id":"free"},{"bike_id":"560fd91d-390d-4bc2-83d1-c2c734ce3774","system_id":"levelo_inurba_marseille","lat":43.28621,"lon":5.35104,"is_reserved":false,"is_disabled":false,"rental_uris":{"android":"levelo://app?vid=560fd91d-390d-4bc2-83d1-c2c734ce3774","ios":"levelo://app?vid=560fd91d-390d-4bc2-83d1-c2c734ce3774"},"vehicle_type_id":"4","last_reported":1690311816,"current_range_meters":31200,"station_id":"ce4bhch2rcd13ifvqeug","pricing_plan_id":"free"},{"bike_id":"a451d5a0-83b8-4073-8cb7-32098157c069","system_id":"levelo_inurba_marseille","lat":43.28621,"lon":5.35102,"is_reserved":false,"is_disabled":false,"rental_uris":{"android":"levelo://app?vid=a451d5a0-83b8-4073-8cb7-32098157c069","ios":"levelo://app?vid=a451d5a0-83b8-4073-8cb7-32098157c069"},"vehicle_type_id":"4","last_reported":1690311816,"current_range_meters":22400,"station_id":"ce4bhch2rcd13ifvqeug","pricing_plan_id":"free"},{"bike_id":"1f566050-c00d-44cf-bac7-73b51844b0a0","system_id":"levelo_inurba_marseille","lat":43.28618,"lon":5.35111,"is_reserved":false,"is_disabled":false,"rental_uris":{"android":"levelo://app?vid=1f566050-c00d-44cf-bac7-73b51844b0a0","ios":"levelo://app?vid=1f566050-c00d-44cf-bac7-73b51844b0a0"},"vehicle_type_id":"4","last_reported":1690311816,"current_range_meters":16800,"station_id":"ce4bhch2rcd13ifvqeug","pricing_plan_id":"free"},{"bike_id":"68623df3-be52-4ca0-aa97-96c5d51c042d","system_id":"levelo_inurba_marseille","lat":43.28619,"lon":5.35105,"is_reserved":false,"is_disabled":false,"rental_uris":{"android":"levelo://app?vid=68623df3-be52-4ca0-aa97-96c5d51c042d","ios":"levelo://app?vid=68623df3-be52-4ca0-aa97-96c5d51c042d"},"vehicle_type_id":"4","last_reported":1690311816,"current_range_meters":22000,"station_id":"ce4bhch2rcd13ifvqeug","pricing_plan_id":"free"},{"bike_id":"78d08600-306a-4af8-9053-cf1d27c820c0","system_id":"levelo_inurba_marseille","lat":43.28619,"lon":5.35105,"is_reserved":false,"is_disabled":false,"rental_uris":{"android":"levelo://app?vid=78d08600-306a-4af8-9053-cf1d27c820c0","ios":"levelo://app?vid=78d08600-306a-4af8-9053-cf1d27c820c0"},"vehicle_type_id":"4","last_reported":1690311816,"current_range_meters":23200,"station_id":"ce4bhch2rcd13ifvqeug","pricing_plan_id":"free"},{"bike_id":"4d90b72e-d6b5-4da1-8919-6d166ae252eb","system_id":"levelo_inurba_marseille","lat":43.28619,"lon":5.35105,"is_reserved":false,"is_disabled":false,"rental_uris":{"android":"levelo://app?vid=4d90b72e-d6b5-4da1-8919-6d166ae252eb","ios":"levelo://app?vid=4d90b72e-d6b5-4da1-8919-6d166ae252eb"},"vehicle_type_id":"4","last_reported":1690311816,"current_range_meters":10000,"station_id":"ce4bhch2rcd13ifvqeug","pricing_plan_id":"free"},{"bike_id":"c032b636-710d-45d1-a499-30817194cda3","system_id":"levelo_inurba_marseille","lat":43.28619,"lon":5.35104,"is_reserved":false,"is_disabled":false,"rental_uris":{"android":"levelo://app?vid=c032b636-710d-45d1-a499-30817194cda3","ios":"levelo://app?vid=c032b636-710d-45d1-a499-30817194cda3"},"vehicle_type_id":"4","last_reported":1690311816,"current_range_meters":27200,"station_id":"ce4bhch2rcd13ifvqeug","pricing_plan_id":"free"},{"bike_id":"8b4f4a9e-ec65-4c46-bd75-d838f12d4e2f","system_id":"levelo_inurba_marseille","lat":43.28619,"lon":5.35103,"is_reserved":false,"is_disabled":false,"rental_uris":{"android":"levelo://app?vid=8b4f4a9e-ec65-4c46-bd75-d838f12d4e2f","ios":"levelo://app?vid=8b4f4a9e-ec65-4c46-bd75-d838f12d4e2f"},"vehicle_type_id":"4","last_reported":1690311816,"current_range_meters":23200,"station_id":"ce4bhch2rcd13ifvqeug","pricing_plan_id":"free"},{"bike_id":"e9719bab-c039-46f5-b455-fccbc3b1a860","system_id":"levelo_inurba_marseille","lat":43.28618,"lon":5.35106,"is_reserved":false,"is_disabled":false,"rental_uris":{"android":"levelo://app?vid=e9719bab-c039-46f5-b455-fccbc3b1a860","ios":"levelo://app?vid=e9719bab-c039-46f5-b455-fccbc3b1a860"},"vehicle_type_id":"4","last_reported":1690311816,"current_range_meters":11600,"station_id":"ce4bhch2rcd13ifvqeug","pricing_plan_id":"free"},{"bike_id":"bb9064bd-5ac1-4719-aaab-35903d85ea9e","system_id":"levelo_inurba_marseille","lat":43.28617,"lon":5.35101,"is_reserved":false,"is_disabled":false,"rental_uris":{"android":"levelo://app?vid=bb9064bd-5ac1-4719-aaab-35903d85ea9e","ios":"levelo://app?vid=bb9064bd-5ac1-4719-aaab-35903d85ea9e"},"vehicle_type_id":"4","last_reported":1690311816,"current_range_meters":23600,"station_id":"ce4bhch2rcd13ifvqeug","pricing_plan_id":"free"},{"bike_id":"14e39580-c324-4509-b3d4-2bb162c3e817","system_id":"levelo_inurba_marseille","lat":43.28617,"lon":5.351,"is_reserved":false,"is_disabled":false,"rental_uris":{"android":"levelo://app?vid=14e39580-c324-4509-b3d4-2bb162c3e817","ios":"levelo://app?vid=14e39580-c324-4509-b3d4-2bb162c3e817"},"vehicle_type_id":"4","last_reported":1690311816,"current_range_meters":18400,"station_id":"ce4bhch2rcd13ifvqeug","pricing_plan_id":"free"},{"bike_id":"1160ea46-9602-4411-a8d5-5eeccb8bac97","system_id":"levelo_inurba_marseille","lat":43.28615,"lon":5.35104,"is_reserved":false,"is_disabled":false,"rental_uris":{"android":"levelo://app?vid=1160ea46-9602-4411-a8d5-5eeccb8bac97","ios":"levelo://app?vid=1160ea46-9602-4411-a8d5-5eeccb8bac97"},"vehicle_type_id":"4","last_reported":1690311816,"current_range_meters":18800,"station_id":"ce4bhch2rcd13ifvqeug","pricing_plan_id":"free"},{"bike_id":"b903ac5a-4e79-413e-914f-a1f8b89f8747","system_id":"levelo_inurba_marseille","lat":43.28618,"lon":5.35094,"is_reserved":false,"is_disabled":false,"rental_uris":{"android":"levelo://app?vid=b903ac5a-4e79-413e-914f-a1f8b89f8747","ios":"levelo://app?vid=b903ac5a-4e79-413e-914f-a1f8b89f8747"},"vehicle_type_id":"4","last_reported":1690311816,"current_range_meters":26400,"station_id":"ce4bhch2rcd13ifvqeug","pricing_plan_id":"free"},{"bike_id":"1049092e-fc13-4e06-85b9-13676fa0b82c","system_id":"levelo_inurba_marseille","lat":43.286149,"lon":5.351034,"is_reserved":false,"is_disabled":false,"rental_uris":{"android":"levelo://app?vid=1049092e-fc13-4e06-85b9-13676fa0b82c","ios":"levelo://app?vid=1049092e-fc13-4e06-85b9-13676fa0b82c"},"vehicle_type_id":"4","last_reported":1690311816,"current_range_meters":6800,"station_id":"ce4bhch2rcd13ifvqeug","pricing_plan_id":"free"},{"bike_id":"a9b6eea2-a159-4df3-b8f0-93081d839718","system_id":"levelo_inurba_marseille","lat":43.285856,"lon":5.350771,"is_reserved":false,"is_disabled":false,"rental_uris":{"android":"levelo://app?vid=a9b6eea2-a159-4df3-b8f0-93081d839718","ios":"levelo://app?vid=a9b6eea2-a159-4df3-b8f0-93081d839718"},