{"last_updated":1703326032,"ttl":30,"version":"2.2","data":{"bikes":[{"bike_id":"115918ad-03be-4a9f-9e8b-13d77d784a34","system_id":"levelo_inurba_marseille","lat":43.313391,"lon":5.36706,"is_reserved":false,"is_disabled":false,"rental_uris":{"android":"levelo://app?vid=115918ad-03be-4a9f-9e8b-13d77d784a34","ios":"levelo://app?vid=115918ad-03be-4a9f-9e8b-13d77d784a34"},"vehicle_type_id":"4","last_reported":1703326032,"current_range_meters":28000,"station_id":"ce4bgr92rcd13ifvqc6g","pricing_plan_id":"free"},{"bike_id":"c79695e7-3315-4dd8-894b-f099b75a50ed","system_id":"levelo_inurba_marseille","lat":43.31029,"lon":5.3708,"is_reserved":false,"is_disabled":false,"rental_uris":{"android":"levelo://app?vid=c79695e7-3315-4dd8-894b-f099b75a50ed","ios":"levelo://app?vid=c79695e7-3315-4dd8-894b-f099b75a50ed"},"vehicle_type_id":"4","last_reported":1703326032,"current_range_meters":12800,"station_id":"","pricing_plan_id":"free"},{"bike_id":"d3c169f3-f642-45f7-aafc-51c04246d2a8","system_id":"levelo_inurba_marseille","lat":43.314811,"lon":5.373104,"is_reserved":false,"is_disabled":false,"rental_uris":{"android":"levelo://app?vid=d3c169f3-f642-45f7-aafc-51c04246d2a8","ios":"levelo://app?vid=d3c169f3-f642-45f7-aafc-51c04246d2a8"},"vehicle_type_id":"4","last_reported":1703326032,"current_range_meters":25600,"station_id":"ce4bgt12rcd13ifvqcd0","pricing_plan_id":"free"},{"bike_id":"cecc21ac-bf74-475e-a6d1-7986bbca6725","system_id":"levelo_inurba_marseille","lat":43.305368,"lon":5.367343,"is_reserved":false,"is_disabled":false,"rental_uris":{"android":"levelo://app?vid=cecc21ac-bf74-475e-a6d1-7986bbca6725","ios":"levelo://app?vid=cecc21ac-bf74-475e-a6d1-7986bbca6725"},"vehicle_type_id":"4","last_reported":1703326032,"current_range_meters":20000,"station_id":"ce4bgrp2rcd13ifvqc9g","pricing_plan_id":"free"},{"bike_id":"6843f206-2fad-4c6d-b14b-06c9cc22af34","system_id":"levelo_inurba_marseille","lat":43.305368,"lon":5.367343,"is_reserved":false,"is_disabled":false,"rental_uris":{"android":"levelo://app?vid=6843f206-2fad-4c6d-b14b-06c9cc22af34","ios":"levelo://app?vid=6843f206-2fad-4c6d-b14b-06c9cc22af34"},"vehicle_type_id":"4","last_reported":1703326032,"current_range_meters":12800,"station_id":"ce4bgrp2rcd13ifvqc9g","pricing_plan_id":"free"},{"bike_id":"d496381e-7ce9-4b34-b615-945f6298113a","system_id":"levelo_inurba_marseille","lat":43.305714,"lon":5.365633,"is_reserved":false,"is_disabled":false,"rental_uris":{"android":"levelo://app?vid=d496381e-7ce9-4b34-b615-945f6298113a","ios":"levelo://app?vid=d496381e-7ce9-4b34-b615-945f6298113a"},"vehicle_type_id":"4","last_reported":1703326032,"current_range_meters":31200,"station_id":"ce4bgs12rcd13ifvqcag","pricing_plan_id":"free"},{"bike_id":"bb2f784f-9ec5-441f-9d6f-3295bf9112b2","system_id":"levelo_inurba_marseille","lat":43.305714,"lon":5.365633,"is_reserved":false,"is_disabled":false,"rental_uris":{"android":"levelo://app?vid=bb2f784f-9ec5-441f-9d6f-3295bf9112b2","ios":"levelo://app?vid=bb2f784f-9ec5-441f-9d6f-3295bf9112b2"},"vehicle_type_id":"4","last_reported":1703326032,"current_range_meters":26400,"station_id":"ce4bgs12rcd13ifvqcag","pricing_plan_id":"free"},{"bike_id":"409b3a97-1b8e-4baa-aa09-1615647588f8","system_id":"levelo_inurba_marseille","lat":43.305714,"lon":5.365633,"is_reserved":false,"is_disabled":false,"rental_uris":{"android":"levelo://app?vid=409b3a97-1b8e-4baa-aa09-1615647588f8","ios":"levelo://app?vid=409b3a97-1b8e-4baa-aa09-1615647588f8"},"vehicle_type_id":"4","last_reported":1703326032,"current_range_meters":29200,"station_id":"ce4bgs12rcd13ifvqcag","pricing_plan_id":"free"},{"bike_id":"b1c79d26-475e-4c7c-8d57-97d0b67bc6de","system_id":"levelo_inurba_marseille","lat":43.305706,"lon":5.365654,"is_reserved":false,"is_disabled":false,"rental_uris":{"android":"levelo://app?vid=b1c79d26-475e-4c7c-8d57-97d0b67bc6de","ios":"levelo://app?vid=b1c79d26-475e-4c7c-8d57-97d0b67bc6de"},"vehicle_type_id":"4","last_reported":1703326032,"current_range_meters":31200,"station_id":"ce4bgs12rcd13ifvqcag","pricing_plan_id":"free"},{"bike_id":"b4e66023-337c-456c-b5c4-81a24865fd21","system_id":"levelo_inurba_marseille","lat":43.317075,"lon":5.377367,"is_reserved":false,"is_disabled":false,"rental_uris":{"android":"levelo://app?vid=b4e66023-337c-456c-b5c4-81a24865fd21","ios":"levelo://app?vid=b4e66023-337c-456c-b5c4-81a24865fd21"},"vehicle_type_id":"4","last_reported":1703326032,"current_range_meters":15600,"station_id":"ce4bgth2rcd13ifvqch0","pricing_plan_id":"free"},{"bike_id":"8d76fe8e-0af0-45c2-b0aa-fe366405ca86","system_id":"levelo_inurba_marseille","lat":43.301939,"lon":5.366286,"is_reserved":false,"is_disabled":false,"rental_uris":{"android":"levelo://app?vid=8d76fe8e-0af0-45c2-b0aa-fe366405ca86","ios":"levelo://app?vid=8d76fe8e-0af0-45c2-b0aa-fe366405ca86"},"vehicle_type_id":"4","last_reported":1703326032,"current_range_meters":20000,"station_id":"ce4bgrh2rcd13ifvqc8g","pricing_plan_id":"free"},{"bike_id":"f4784da9-1253-4dfc-b6ac-01221adfcbc9","system_id":"levelo_inurba_marseille","lat":43.308008,"lon":5.381562,"is_reserved":false,"is_disabled":false,"rental_uris":{"android":"levelo://app?vid=f4784da9-1253-4dfc-b6ac-01221adfcbc9","ios":"levelo://app?vid=f4784da9-1253-4dfc-b6ac-01221adfcbc9"},"vehicle_type_id":"4","last_reported":1703326032,"current_range_meters":29600,"station_id":"ce4bgt12rcd13ifvqce0","pricing_plan_id":"free"},{"bike_id":"531b7470-9cd2-45d4-861e-0284af2b5c84","system_id":"levelo_inurba_marseille","lat":43.304606,"lon":5.379026,"is_reserved":false,"is_disabled":false,"rental_uris":{"android":"levelo://app?vid=531b7470-9cd2-45d4-861e-0284af2b5c84","ios":"levelo://app?vid=531b7470-9cd2-45d4-861e-0284af2b5c84"},"vehicle_type_id":"4","last_reported":1703326032,"current_range_meters":25200,"station_id":"ce4bgup2rcd13ifvqcn0","pricing_plan_id":"free"},{"bike_id":"f954a88c-7243-4829-831c-baa7b6369ade","system_id":"levelo_inurba_marseille","lat":43.304606,"lon":5.379026,"is_reserved":false,"is_disabled":false,"rental_uris":{"android":"levelo://app?vid=f954a88c-7243-4829-831c-baa7b6369ade","ios":"levelo://app?vid=f954a88c-7243-4829-831c-baa7b6369ade"},"vehicle_type_id":"4","last_reported":1703326032,"current_range_meters":29600,"station_id":"ce4bgup2rcd13ifvqcn0","pricing_plan_id":"free"},{"bike_id":"3604b394-5b01-421c-b249-ec53cc38bcb5","system_id":"levelo_inurba_marseille","lat":43.304606,"lon":5.379026,"is_reserved":false,"is_disabled":false,"rental_uris":{"android":"levelo://app?vid=3604b394-5b01-421c-b249-ec53cc38bcb5","ios":"levelo://app?vid=3604b394-5b01-421c-b249-ec53cc38bcb5"},"vehicle_type_id":"4","last_reported":1703326032,"current_range_meters":31200,"station_id":"ce4bgup2rcd13ifvqcn0","pricing_plan_id":"free"},{"bike_id":"a4fcf0a2-cf89-4959-8c0a-1673b1020f39","system_id":"levelo_inurba_marseille","lat":43.304606,"lon":5.379026,"is_reserved":false,"is_disabled":false,"rental_uris":{"android":"levelo://app?vid=a4fcf0a2-cf89-4959-8c0a-1673b1020f39","ios":"levelo://app?vid=a4fcf0a2-cf89-4959-8c0a-1673b1020f39"},"vehicle_type_id":"4","last_reported":1703326032,"current_range_meters":30800,"station_id":"ce4bgup2rcd13ifvqcn0","pricing_plan_id":"free"},{"bike_id":"76c78339-b62e-4966-ab5a-af817a9c8a8b","system_id":"levelo_inurba_marseille","lat":43.304606,"lon":5.379026,"is_reserved":false,"is_disabled":false,"rental_uris":{"android":"levelo://app?vid=76c78339-b62e-4966-ab5a-af817a9c8a8b","ios":"levelo://app?vid=76c78339-b62e-4966-ab5a-af817a9c8a8b"},"vehicle_type_id":"4","last_reported":1703326032,"current_range_meters":6400,"station_id":"ce4bgup2rcd13ifvqcn0","pricing_plan_id":"free"},{"bike_id":"a4e42992-7ed2-4fa8-bf9d-9b0ec79f3a5c","system_id":"levelo_inurba_marseille","lat":43.304606,"lon":5.379026,"is_reserved":false,"is_disabled":false,"rental_uris":{"android":"levelo://app?vid=a4e42992-7ed2-4fa8-bf9d-9b0ec79f3a5c","ios":"levelo://app?vid=a4e42992-7ed2-4fa8-bf9d-9b0ec79f3a5c"},"vehicle_type_id":"4","last_reported":1703326032,"current_range_meters":29600,"station_id":"ce4bgup2rcd13ifvqcn0","pricing_plan_id":"free"},{"bike_id":"7b39d7d2-9d1d-4e3b-9c0e-e5e132355a5d","system_id":"levelo_inurba_marseille","lat":43.304606,"lon":5.379026,"is_reserved":false,"is_disabled":false,"rental_uris":{"android":"levelo://app?vid=7b39d7d2-9d1d-4e3b-9c0e-e5e132355a5d","ios":"levelo://app?vid=7b39d7d2-9d1d-4e3b-9c0e-e5e132355a5d"},"vehicle_type_id":"4","last_reported":1703326032,"current_range_meters":27200,"station_id":"ce4bgup2rcd13ifvqcn0","pricing_plan_id":"free"},{"bike_id":"a0df1d6a-3240-4e17-8b74-45100f7fee8c","system_id":"levelo_inurba_marseille","lat":43.304606,"lon":5.379026,"is_reserved":false,"is_disabled":false,"rental_uris":{"android":"levelo://app?vid=a0df1d6a-3240-4e17-8b74-45100f7fee8c","ios":"levelo://app?vid=a0df1d6a-3240-4e17-8b74-45100f7fee8c"},"vehicle_type_id":"4","last_reported":1703326032,"current_range_meters":27200,"station_id":"ce4bgup2rcd13ifvqcn0","pricing_plan_id":"free"},{"bike_id":"31a1fed4-c9ad-4ea8-83d3-9d5d6e18aa3d","system_id":"levelo_inurba_marseille","lat":43.304606,"lon":5.379026,"is_reserved":false,"is_disabled":false,"rental_uris":{"android":"levelo://app?vid=31a1fed4-c9ad-4ea8-83d3-9d5d6e18aa3d","ios":"levelo://app?vid=31a1fed4-c9ad-4ea8-83d3-9d5d6e18aa3d"},"vehicle_type_id":"4","last_reported":1703326032,"current_range_meters":21600,"station_id":"ce4bgup2rcd13ifvqcn0","pricing_plan_id":"free"},{"bike_id":"3002c767-2d0c-4c42-8614-df0b0b547f8c","system_id":"levelo_inurba_marseille","lat":43.304606,"lon":5.379026,"is_reserved":false,"is_disabled":false,"rental_uris":{"android":"levelo://app?vid=3002c767-2d0c-4c42-8614-df0b0b547f8c","ios":"levelo://app?vid=3002c767-2d0c-4c42-8614-df0b0b547f8c"},"vehicle_type_id":"4","last_reported":1703326032,"current_range_meters":12800,"station_id":"ce4bgup2rcd13ifvqcn0","pricing_plan_id":"free"},{"bike_id":"a1f50592-62c3-412e-a892-bb4a3dde137f","system_id":"levelo_inurba_marseille","lat":43.304606,"lon":5.379026,"is_reserved":false,"is_disabled":false,"rental_uris":{"android":"levelo://app?vid=a1f50592-62c3-412e-a892-bb4a3dde137f","ios":"levelo://app?vid=a1f50592-62c3-412e-a892-bb4a3dde137f"},"vehicle_type_id":"4","last_reported":1703326032,"current_range_meters":6400,"station_id":"ce4bgup2rcd13ifvqcn0","pricing_plan_id":"free"},{"bike_id":"9ba530d1-f1b5-44f3-9995-d195fc22ad4e","system_id":"levelo_inurba_marseille","lat":43.304606,"lon":5.379026,"is_reserved":false,"is_disabled":false,"rental_uris":{"android":"levelo://app?vid=9ba530d1-f1b5-44f3-9995-d195fc22ad4e","ios":"levelo://app?vid=9ba530d1-f1b5-44f3-9995-d195fc22ad4e"},"vehicle_type_id":"4","last_reported":1703326032,"current_range_meters":25200,"station_id":"ce4bgup2rcd13ifvqcn0","pricing_plan_id":"free"},{"bike_id":"40c573da-a321-4605-a96b-1a5a317d076b","system_id":"levelo_inurba_marseille","lat":43.324771,"lon":5.36557,"is_reserved":false,"is_disabled":false,"rental_uris":{"android":"levelo://app?vid=40c573da-a321-4605-a96b-1a5a317d076b","ios":"levelo://app?vid=40c573da-a321-4605-a96b-1a5a317d076b"},"vehicle_type_id":"4","last_reported":1703326032,"current_range_meters":26000,"station_id":"ce4bhs12rcd13ifvqhvg","pricing_plan_id":"free"},{"bike_id":"cd3ddfa0-4089-4eb8-8beb-4f4b163843b8","system_id":"levelo_inurba_marseille","lat":43.324771,"lon":5.36557,"is_reserved":false,"is_disabled":false,"rental_uris":{"android":"levelo://app?vid=cd3ddfa0-4089-4eb8-8beb-4f4b163843b8","ios":"levelo://app?vid=cd3ddfa0-4089-4eb8-8beb-4f4b163843b8"},"vehicle_type_id":"4","last_reported":1703326032,"current_range_meters":31200,"station_id":"ce4bhs12rcd13ifvqhvg","pricing_plan_id":"free"},{"bike_id":"69599836-e945-413a-a849-741769f44bc7","system_id":"levelo_inurba_marseille","lat":43.302784,"lon":5.377158,"is_reserved":false,"is_disabled":false,"rental_uris":{"android":"levelo://app?vid=69599836-e945-413a-a849-741769f44bc7","ios":"levelo://app?vid=69599836-e945-413a-a849-741769f44bc7"},"vehicle_type_id":"4","last_reported":1703326032,"current_range_meters":14000,"station_id":"ce4bguh2rcd13ifvqcj0","pricing_plan_id":"free"},{"bike_id":"aa0b983b-9e8a-46fb-8abc-a85c1cf01a1f","system_id":"levelo_inurba_marseille","lat":43.30143,"lon":5.37413,"is_reserved":false,"is_disabled":false,"rental_uris":{"android":"levelo://app?vid=aa0b983b-9e8a-46fb-8abc-a85c1cf01a1f","ios":"levelo://app?vid=aa0b983b-9e8a-46fb-8abc-a85c1cf01a1f"},"vehicle_type_id":"4","last_reported":1703326032,"current_range_meters":30000,"station_id":"ce4bgs92rcd13ifvqcc0","pricing_plan_id":"free"},{"bike_id":"9c231161-337f-4eba-87d3-44d75eaa84aa","system_id":"levelo_inurba_marseille","lat":43.319913,"lon":5.381427,"is_reserved":false,"is_disabled":false,"rental_uris":{"android":"levelo://app?vid=9c231161-337f-4eba-87d3-44d75eaa84aa","ios":"levelo://app?vid=9c231161-337f-4eba-87d3-44d75eaa84aa"},"vehicle_type_id":"4","last_reported":1703326032,"current_range_meters":28000,"station_id":"ce4bhr12rcd13ifvqhpg","pricing_plan_id":"free"},{"bike_id":"c616a760-5d15-46bb-9d75-552ebc124cb7","system_id":"levelo_inurba_marseille","lat":43.31992,"lon":5.38149,"is_reserved":false,"is_disabled":false,"rental_uris":{"android":"levelo://app?vid=c616a760-5d15-46bb-9d75-552ebc124cb7","ios":"levelo://app?vid=c616a760-5d15-46bb-9d75-552ebc124cb7"},"vehicle_type_id":"4","last_reported":1703326032,"current_range_meters":16800,"station_id":"ce4bhr12rcd13ifvqhpg","pricing_plan_id":"free"},{"bike_id":"dc0f6af5-c02c-4610-baea-e5c6ca16f530","system_id":"levelo_inurba_marseille","lat":43.319984,"lon":5.381463,"is_reserved":false,"is_disabled":false,"rental_uris":{"android":"levelo://app?vid=dc0f6af5-c02c-4610-baea-e5c6ca16f530","ios":"levelo://app?vid=dc0f6af5-c02c-4610-baea-e5c6ca16f530"},"vehicle_type_id":"4","last_reported":1703326032,"current_range_meters":25200,"station_id":"ce4bhr12rcd13ifvqhpg","pricing_plan_id":"free"},{"bike_id":"82b7c1aa-506b-4cff-953c-bb835d7847c3","system_id":"levelo_inurba_marseille","lat":43.319935,"lon":5.381699,"is_reserved":false,"is_disabled":false,"rental_uris":{"android":"levelo://app?vid=82b7c1aa-506b-4cff-953c-bb835d7847c3","ios":"levelo://app?vid=82b7c1aa-506b-4cff-953c-bb835d7847c3"},"vehicle_type_id":"4","last_reported":1703326032,"current_range_meters":11200,"station_id":"ce4bhr12rcd13ifvqhpg","pricing_plan_id":"free"},{"bike_id":"e94884da-c8e8-443a-8224-044057dee4ed","system_id":"levelo_inurba_marseille","lat":43.319935,"lon":5.381699,"is_reserved":false,"is_disabled":false,"rental_uris":{"android":"levelo://app?vid=e94884da-c8e8-443a-8224-044057dee4ed","ios":"levelo://app?vid=e94884da-c8e8-443a-8224-044057dee4ed"},"vehicle_type_id":"4","last_reported":1703326032,"current_range_meters":19200,"station_id":"ce4bhr12rcd13ifvqhpg","pricing_plan_id":"free"},{"bike_id":"a4d91f4c-0227-4bc9-a904-969806ef4ac5","system_id":"levelo_inurba_marseille","lat":43.31994,"lon":5.38154,"is_reserved":false,"is_disabled":false,"rental_uris":{"android":"levelo://app?vid=a4d91f4c-0227-4bc9-a904-969806ef4ac5","ios":"levelo://app?vid=a4d91f4c-0227-4bc9-a904-969806ef4ac5"},"vehicle_type_id":"4","last_reported":1703326032,"current_range_meters":18800,"station_id":"ce4bhr12rcd13ifvqhpg","pricing_plan_id":"free"},{"bike_id":"958aa467-8f9d-4670-9a62-9d13bd78d849","system_id":"levelo_inurba_marseille","lat":43.299222,"lon":5.365554,"is_reserved":false,"is_disabled":false,"rental_uris":{"android":"levelo://app?vid=958aa467-8f9d-4670-9a62-9d13bd78d849","ios":"levelo://app?vid=958aa467-8f9d-4670-9a62-9d13bd78d849"},"vehicle_type_id":"4","last_reported":1703326032,"current_range_meters":24400,"station_id":"ce4bgm92rcd13ifvqbr0","pricing_plan_id":"free"},{"bike_id":"20042564-8461-4320-8d5d-ba1a8c0af80c","system_id":"levelo_inurba_marseille","lat":43.299724,"lon":5.371829,"is_reserved":false,"is_disabled":false,"rental_uris":{"android":"levelo://app?vid=20042564-8461-4320-8d5d-ba1a8c0af80c","ios":"levelo://app?vid=20042564-8461-4320-8d5d-ba1a8c0af80c"},"vehicle_type_id":"4","last_reported":1703326032,"current_range_meters":28000,"station_id":"ce4bgr92rcd13ifvqc7g","pricing_plan_id":"free"},{"bike_id":"c97532f2-ba00-4151-b543-f018f7e95ba1","system_id":"levelo_inurba_marseille","lat":43.299724,"lon":5.371829,"is_reserved":false,"is_disabled":false,"rental_uris":{"android":"levelo://app?vid=c97532f2-ba00-4151-b543-f018f7e95ba1","ios":"levelo://app?vid=c97532f2-ba00-4151-b543-f018f7e95ba1"},"vehicle_type_id":"4","last_reported":1703326032,"current_range_meters":29200,"station_id":"ce4bgr92rcd13ifvqc7g","pricing_plan_id":"free"},{"bike_id":"b1e259d6-abcf-4efd-9313-a327e17abcf9","system_id":"levelo_inurba_marseille","lat":43.30274,"lon":5.37948,"is_reserved":false,"is_disabled":false,"rental_uris":{"android":"levelo://app?vid=b1e259d6-abcf-4efd-9313-a327e17abcf9","ios":"levelo://app?vid=b1e259d6-abcf-4efd-9313-a327e17abcf9"},"vehicle_type_id":"4","last_reported":1703326032,"current_range_meters":23200,"station_id":"","pricing_plan_id":"free"},{"bike_id":"44bf6bc7-94f9-4c54-89e8-190419b8ae74","system_id":"levelo_inurba_marseille","lat":43.298433,"lon":5.362774,"is_reserved":false,"is_disabled":false,"rental_uris":{"android":"levelo://app?vid=44bf6bc7-94f9-4c54-89e8-190419b8ae74","ios":"levelo://app?vid=44bf6bc7-94f9-4c54-89e8-190419b8ae74"},"vehicle_type_id":"4","last_reported":1703326032,"current_range_meters":30000,"station_id":"ce4bgpp2rcd13ifvqc3g","pricing_plan_id":"free"},{"bike_id":"6781d681-f0ce-4e20-b177-2a4c03c46910","system_id":"levelo_inurba_marseille","lat":43.298433,"lon":5.362774,"is_reserved":false,"is_disabled":false,"rental_uris":{"android":"levelo://app?vid=6781d681-f0ce-4e20-b177-2a4c03c46910","ios":"levelo://app?vid=6781d681-f0ce-4e20-b177-2a4c03c46910"},"vehicle_type_id":"4","last_reported":1703326032,"current_range_meters":26800,"station_id":"ce4bgpp2rcd13ifvqc3g","pricing_plan_id":"free"},{"bike_id":"0a0ff3ab-f85b-42b9-b928-b58a31c2eb6a","system_id":"levelo_inurba_marseille","lat":43.297794,"lon":5.370888,"is_reserved":false,"is_disabled":false,"rental_uris":{"android":"levelo://app?vid=0a0ff3ab-f85b-42b9-b928-b58a31c2eb6a","ios":"levelo://app?vid=0a0ff3ab-f85b-42b9-b928-b58a31c2eb6a"},"vehicle_type_id":"4","last_reported":1703326032,"current_range_meters":29600,"station_id":"ce4bgop2rcd13ifvqc1g","pricing_plan_id":"free"},{"bike_id":"8034dfa6-6a9a-4910-bdf2-ccf8ebe901e2","system_id":"levelo_inurba_marseille","lat":43.322872,"lon":5.382756,"is_reserved":false,"is_disabled":false,"rental_uris":{"android":"levelo://app?vid=8034dfa6-6a9a-4910-bdf2-ccf8ebe901e2","ios":"levelo://app?vid=8034dfa6-6a9a-4910-bdf2-ccf8ebe901e2"},"vehicle_type_id":"4","last_reported":1703326032,"current_range_meters":30400,"station_id":"ce4bhr12rcd13ifvqhqg","pricing_plan_id":"free"},{"bike_id":"6ef56fd5-1a7c-4c71-8bf8-33afeff899ef","system_id":"levelo_inurba_marseille","lat":43.322872,"lon":5.382756,"is_reserved":false,"is_disabled":false,"rental_uris":{"android":"levelo://app?vid=6ef56fd5-1a7c-4c71-8bf8-33afeff899ef","ios":"levelo://app?vid=6ef56fd5-1a7c-4c71-8bf8-33afeff899ef"},"vehicle_type_id":"4","last_reported":1703326032,"current_range_meters":28400,"station_id":"ce4bhr12rcd13ifvqhqg","pricing_plan_id":"free"},{"bike_id":"d2be49f4-d512-450f-80de-370a6da97420","system_id":"levelo_inurba_marseille","lat":43.328371,"lon":5.366909,"is_reserved":false,"is_disabled":false,"rental_uris":{"android":"levelo://app?vid=d2be49f4-d512-450f-80de-370a6da97420","ios":"levelo://app?vid=d2be49f4-d512-450f-80de-370a6da97420"},"vehicle_type_id":"4","last_reported":1703326032,"current_range_meters":12800,"station_id":"ce4bhs92rcd13ifvqi0g","pricing_plan_id":"free"},{"bike_id":"d728a8b4-bece-4be0-a14a-8abb6b425cd7","system_id":"levelo_inurba_marseille","lat":43.328371,"lon":5.366909,"is_reserved":false,"is_disabled":false,"rental_uris":{"android":"levelo://app?vid=d728a8b4-bece-4be0-a14a-8abb6b425cd7","ios":"levelo://app?vid=d728a8b4-bece-4be0-a14a-8abb6b425cd7"},"vehicle_type_id":"4","last_reported":1703326032,"current_range_meters":13600,"station_id":"ce4bhs92rcd13ifvqi0g","pricing_plan_id":"free"},{"bike_id":"6cba446c-9ee9-4546-8c3c-626825b73b1e","system_id":"levelo_inurba_marseille","lat":43.328371,"lon":5.366909,"is_reserved":false,"is_disabled":false,"rental_uris":{"android":"levelo://app?vid=6cba446c-9ee9-4546-8c3c-626825b73b1e","ios":"levelo://app?vid=6cba446c-9ee9-4546-8c3c-626825b73b1e"},"vehicle_type_id":"4","last_reported":1703326032,"current_range_meters":31200,"station_id":"ce4bhs92rcd13ifvqi0g","pricing_plan_id":"free"},{"bike_id":"525f6ec1-c089-48ad-8216-d8e073aa768d","system_id":"levelo_inurba_marseille","lat":43.328371,"lon":5.366909,"is_reserved":false,"is_disabled":false,"rental_uris":{"android":"levelo://app?vid=525f6ec1-c089-48ad-8216-d8e073aa768d","ios":"levelo://app?vid=525f6ec1-c089-48ad-8216-d8e073aa768d"},"vehicle_type_id":"4","last_reported":1703326032,"current_range_meters":10400,"station_id":"ce4bhs92rcd13ifvqi0g","pricing_plan_id":"free"},{"bike_id":"aa3fb6e4-1c03-44e5-96a0-f8edc6b5e34f","system_id":"levelo_inurba_marseille","lat":43.328371,"lon":5.366909,"is_reserved":false,"is_disabled":false,"rental_uris":{"android":"levelo://app?vid=aa3fb6e4-1c03-44e5-96a0-f8edc6b5e34f","ios":"levelo://app?vid=aa3fb6e4-1c03-44e5-96a0-f8edc6b5e34f"},"vehicle_type_id":"4","last_reported":1703326032,"current_range_meters":10000,"station_id":"ce4bhs92rcd13ifvqi0g","pricing_plan_id":"free"},{"bike_id":"b2244d4b-5cac-47c6-abf7-da027fdb3f39","system_id":"levelo_inurba_marseille","lat":43.328371,"lon":5.366909,"is_reserved":false,"is_disabled":false,"rental_uris":{"android":"levelo://app?vid=b2244d4b-5cac-47c6-abf7-da027fdb3f39","ios":"levelo://app?vid=b2244d4b-5cac-47c6-abf7-da027fdb3f39"},"vehicle_type_id":"4","last_reported":1703326032,"current_range_meters":22400,"station_id":"ce4bhs92rcd13ifvqi0g","pricing_plan_id":"free"},{"bike_id":"0401a144-4679-4e07-adc8-67344edabed0","system_id":"levelo_inurba_marseille","lat":43.297163,"lon":5.365866,"is_reserved":false,"is_disabled":false,"rental_uris":{"android":"levelo://app?vid=0401a144-4679-4e07-adc8-67344edabed0","ios":"levelo://app?vid=0401a144-4679-4e07-adc8-67344edabed0"},"vehicle_type_id":"4","last_reported":1703326032,"current_range_meters":25200,"station_id":"ce4bgn12rcd13ifvqbt0","pricing_plan_id":"free"},{"bike_id":"0849d898-0dda-4fb1-b9d1-0d0f6c9fd728","system_id":"levelo_inurba_marseille","lat":43.297163,"lon":5.365866,"is_reserved":false,"is_disabled":false,"rental_uris":{"android":"levelo://app?vid=0849d898-0dda-4fb1-b9d1-0d0f6c9fd728","ios":"levelo://app?vid=0849d898-0dda-4fb1-b9d1-0d0f6c9fd728"},"vehicle_type_id":"4","last_reported":1703326032,"current_range_meters":28400,"station_id":"ce4bgn12rcd13ifvqbt0","pricing_plan_id":"free"},{"bike_id":"1b5ffad0-1f0f-43ed-b95e-bf3003f0959f","system_id":"levelo_inurba_marseille","lat":43.296131,"lon":5.370791,"is_reserved":false,"is_disabled":false,"rental_uris":{"android":"levelo://app?vid=1b5ffad0-1f0f-43ed-b95e-bf3003f0959f","ios":"levelo://app?vid=1b5ffad0-1f0f-43ed-b95e-bf3003f0959f"},"vehicle_type_id":"4","last_reported":1703326032,"current_range_meters":30800,"station_id":"ce4bgnh2rcd13ifvqc0g","pricing_plan_id":"free"},{"bike_id":"8568d3e4-9c35-4c42-8a87-f0fcecd2450e","system_id":"levelo_inurba_marseille","lat":43.296131,"lon":5.370791,"is_reserved":false,"is_disabled":false,"rental_uris":{"android":"levelo://app?vid=8568d3e4-9c35-4c42-8a87-f0fcecd2450e","ios":"levelo://app?vid=8568d3e4-9c35-4c42-8a87-f0fcecd2450e"},"vehicle_type_id":"4","last_reported":1703326032,"current_range_meters":31200,"station_id":"ce4bgnh2rcd13ifvqc0g","pricing_plan_id":"free"},{"bike_id":"c4dbfa18-f97d-444c-a49d-0fc79432718b","system_id":"levelo_inurba_marseille","lat":43.29626,"lon":5.37169,"is_reserved":false,"is_disabled":false,"rental_uris":{"android":"levelo://app?vid=c4dbfa18-f97d-444c-a49d-0fc79432718b","ios":"levelo://app?vid=c4dbfa18-f97d-444c-a49d-0fc79432718b"},"vehicle_type_id":"4","last_reported":1703326032,"current_range_meters":30400,"station_id":"ce4bgnh2rcd13ifvqc0g","pricing_plan_id":"free"},{"bike_id":"8e112511-a98a-4183-a74a-1e632888f31b","system_id":"levelo_inurba_marseille","lat":43.295888,"lon":5.367335,"is_reserved":false,"is_disabled":false,"rental_uris":{"android":"levelo://app?vid=8e112511-a98a-4183-a74a-1e632888f31b","ios":"levelo://app?vid=8e112511-a98a-4183-a74a-1e632888f31b"},"vehicle_type_id":"4","last_reported":1703326032,"current_range_meters":27200,"station_id":"ce4bgph2rcd13ifvqc2g","pricing_plan_id":"free"},{"bike_id":"48b16ecd-501c-4d54-808c-daeb331f2d44","system_id":"levelo_inurba_marseille","lat":43.296131,"lon":5.370791,"is_reserved":false,"is_disabled":false,"rental_uris":{"android":"levelo://app?vid=48b16ecd-501c-4d54-808c-daeb331f2d44","ios":"levelo://app?vid=48b16ecd-501c-4d54-808c-daeb331f2d44"},"vehicle_type_id":"4","last_reported":1703326032,"current_range_meters":26800,"station_id":"ce4bgnh2rcd13ifvqc0g","pricing_plan_id":"free"},{"bike_id":"dc38f8d1-dce1-47df-aa9b-0a78f50874d9","system_id":"levelo_inurba_marseille","lat":43.296129,"lon":5.370777,"is_reserved":false,"is_disabled":false,"rental_uris":{"android":"levelo://app?vid=dc38f8d1-dce1-47df-aa9b-0a78f50874d9","ios":"levelo://app?vid=dc38f8d1-dce1-47df-aa9b-0a78f50874d9"},"vehicle_type_id":"4","last_reported":1703326032,"current_range_meters":31200,"station_id":"ce4bgnh2rcd13ifvqc0g","pricing_plan_id":"free"},{"bike_id":"58ae8988-d2f9-418a-b161-003b30611509","system_id":"levelo_inurba_marseille","lat":43.29573,"lon":5.367355,"is_reserved":false,"is_disabled":false,"rental_uris":{"android":"levelo://app?vid=58ae8988-d2f9-418a-b161-003b30611509","ios":"levelo://app?vid=58ae8988-d2f9-418a-b161-003b30611509"},"vehicle_type_id":"4","last_reported":1703326032,"current_range_meters":27600,"station_id":"ce4bgph2rcd13ifvqc2g","pricing_plan_id":"free"},{"bike_id":"1966ce2a-7eeb-4f0a-a82d-1c28fe14977a","system_id":"levelo_inurba_marseille","lat":43.296129,"lon":5.370777,"is_reserved":false,"is_disabled":false,"rental_uris":{"android":"levelo://app?vid=1966ce2a-7eeb-4f0a-a82d-1c28fe14977a","ios":"levelo://app?vid=1966ce2a-7eeb-4f0a-a82d-1c28fe14977a"},"vehicle_type_id":"4","last_reported":1703326032,"current_range_meters":30400,"station_id":"ce4bgnh2rcd13ifvqc0g","pricing_plan_id":"free"},{"bike_id":"0a43c42a-7076-4ce6-822c-09db9ee887db","system_id":"levelo_inurba_marseille","lat":43.295762,"lon":5.367387,"is_reserved":false,"is_disabled":false,"rental_uris":{"android":"levelo://app?vid=0a43c42a-7076-4ce6-822c-09db9ee887db","ios":"levelo://app?vid=0a43c42a-7076-4ce6-822c-09db9ee887db"},"vehicle_type_id":"4","last_reported":1703326032,"current_range_meters":28000,"station_id":"ce4bgph2rcd13ifvqc2g","pricing_plan_id":"free"},{"bike_id":"1ef44021-7cb6-41bc-b18e-321140c52ad8","system_id":"levelo_inurba_marseille","lat":43.296921,"lon":5.376579,"is_reserved":false,"is_disabled":false,"rental_uris":{"android":"levelo://app?vid=1ef44021-7cb6-41bc-b18e-321140c52ad8","ios":"levelo://app?vid=1ef44021-7cb6-41bc-b18e-321140c52ad8"},"vehicle_type_id":"4","last_reported":1703326032,"current_range_meters":28400,"station_id":"ce4bgkh2rcd13ifvqbl0","pricing_plan_id":"free"},{"bike_id":"81c23098-dd13-4af3-a78b-32fbc6e25624","system_id":"levelo_inurba_marseille","lat":43.296935,"lon":5.376544,"is_reserved":false,"is_disabled":false,"rental_uris":{"android":"levelo://app?vid=81c23098-dd13-4af3-a78b-32fbc6e25624","ios":"levelo://app?vid=81c23098-dd13-4af3-a78b-32fbc6e25624"},"vehicle_type_id":"4","last_reported":1703326032,"current_range_meters":27600,"station_id":"ce4bgkh2rcd13ifvqbl0","pricing_plan_id":"free"},{"bike_id":"51e2c2ce-ae7a-454b-94d7-31ecf26b624e","system_id":"levelo_inurba_marseille","lat":43.296921,"lon":5.376579,"is_reserved":false,"is_disabled":false,"rental_uris":{"android":"levelo://app?vid=51e2c2ce-ae7a-454b-94d7-31ecf26b624e","ios":"levelo://app?vid=51e2c2ce-ae7a-454b-94d7-31ecf26b624e"},"vehicle_type_id":"4","last_reported":1703326032,"current_range_meters":27200,"station_id":"ce4bgkh2rcd13ifvqbl0","pricing_plan_id":"free"},{"bike_id":"bdd76fbb-6ac3-447e-bbb6-1c6eb750fa52","system_id":"levelo_inurba_marseille","lat":43.296921,"lon":5.376579,"is_reserved":false,"is_disabled":false,"rental_uris":{"android":"levelo://app?vid=bdd76fbb-6ac3-447e-bbb6-1c6eb750fa52","ios":"levelo://app?vid=bdd76fbb-6ac3-447e-bbb6-1c6eb750fa52"},"vehicle_type_id":"4","last_reported":1703326032,"current_range_meters":29600,"station_id":"ce4bgkh2rcd13ifvqbl0","pricing_plan_id":"free"},{"bike_id":"78cdd8e8-66f2-4158-a84d-b62d71e48e90","system_id":"levelo_inurba_marseille","lat":43.296935,"lon":5.376544,"is_reserved":false,"is_disabled":false,"rental_uris":{"android":"levelo://app?vid=78cdd8e8-66f2-4158-a84d-b62d71e48e90","ios":"levelo://app?vid=78cdd8e8-66f2-4158-a84d-b62d71e48e90"},"vehicle_type_id":"4","last_reported":1703326032,"current_range_meters":22800,"station_id":"ce4bgkh2rcd13ifvqbl0","pricing_plan_id":"free"},{"bike_id":"c1b46ce4-64e1-4e37-8812-a59c4e6df6b3","system_id":"levelo_inurba_marseille","lat":43.299028,"lon":5.381509,"is_reserved":false,"is_disabled":false,"rental_uris":{"android":"levelo://app?vid=c1b46ce4-64e1-4e37-8812-a59c4e6df6b3","ios":"levelo://app?vid=c1b46ce4-64e1-4e37-8812-a59c4e6df6b3"},"vehicle_type_id":"4","last_reported":1703326032,"current_range_meters":27600,"station_id":"ce4bgj12rcd13ifvqbc0","pricing_plan_id":"free"},{"bike_id":"254f65fa-bd10-4aaf-a6df-3dbb67819a81","system_id":"levelo_inurba_marseille","lat":43.296935,"lon":5.376544,"is_reserved":false,"is_disabled":false,"rental_uris":{"android":"levelo://app?vid=254f65fa-bd10-4aaf-a6df-3dbb67819a81","ios":"levelo://app?vid=254f65fa-bd10-4aaf-a6df-3dbb67819a81"},"vehicle_type_id":"4","last_reported":1703326032,"current_range_meters":7600,"station_id":"ce4bgkh2rcd13ifvqbl0","pricing_plan_id":"free"},{"bike_id":"b9c8fefe-fcf2-4e1c-95c9-c0ffed42221d","system_id":"levelo_inurba_marseille","lat":43.317557,"lon":5.390173,"is_reserved":false,"is_disabled":false,"rental_uris":{"android":"levelo://app?vid=b9c8fefe-fcf2-4e1c-95c9-c0ffed42221d","ios":"levelo://app?vid=b9c8fefe-fcf2-4e1c-95c9-c0ffed42221d"},"vehicle_type_id":"4","last_reported":1703326032,"current_range_meters":31200,"station_id":"ce4bhqp2rcd13ifvqhng","pricing_plan_id":"free"},{"bike_id":"62e22e3e-8174-4ec7-90f7-4445322daa77","system_id":"levelo_inurba_marseille","lat":43.317557,"lon":5.390173,"is_reserved":false,"is_disabled":false,"rental_uris":{"android":"levelo://app?vid=62e22e3e-8174-4ec7-90f7-4445322daa77","ios":"levelo://app?vid=62e22e3e-8174-4ec7-90f7-4445322daa77"},"vehicle_type_id":"4","last_reported":1703326032,"current_range_meters":23600,"station_id":"ce4bhqp2rcd13ifvqhng","pricing_plan_id":"free"},{"bike_id":"765e810a-30ec-434e-9fc5-0dfa6a0faaaa","system_id":"levelo_inurba_marseille","lat":43.317622,"lon":5.390124,"is_reserved":false,"is_disabled":false,"rental_uris":{"android":"levelo://app?vid=765e810a-30ec-434e-9fc5-0dfa6a0faaaa","ios":"levelo://app?vid=765e810a-30ec-434e-9fc5-0dfa6a0faaaa"},"vehicle_type_id":"4","last_reported":1703326032,"current_range_meters":30000,"station_id":"ce4bhqp2rcd13ifvqhng","pricing_plan_id":"free"},{"bike_id":"d39682ea-d8f1-45a4-b2b8-5a732fb091bc","system_id":"levelo_inurba_marseille","lat":43.317557,"lon":5.390173,"is_reserved":false,"is_disabled":false,"rental_uris":{"android":"levelo://app?vid=d39682ea-d8f1-45a4-b2b8-5a732fb091bc","ios":"levelo://app?vid=d39682ea-d8f1-45a4-b2b8-5a732fb091bc"},"vehicle_type_id":"4","last_reported":1703326032,"current_range_meters":31200,"station_id":"ce4bhqp2rcd13ifvqhng","pricing_plan_id":"free"},{"bike_id":"b3e69c1d-7e5a-4757-bef8-3569af454ae7","system_id":"levelo_inurba_marseille","lat":43.317573,"lon":5.390183,"is_reserved":false,"is_disabled":false,"rental_uris":{"android":"levelo://app?vid=b3e69c1d-7e5a-4757-bef8-3569af454ae7","ios":"levelo://app?vid=b3e69c1d-7e5a-4757-bef8-3569af454ae7"},"vehicle_type_id":"4","last_reported":1703326032,"current_range_meters":18400,"station_id":"ce4bhqp2rcd13ifvqhng","pricing_plan_id":"free"},{"bike_id":"43855516-4c02-494d-aefa-3c215dbc6b85","system_id":"levelo_inurba_marseille","lat":43.317557,"lon":5.390173,"is_reserved":false,"is_disabled":false,"rental_uris":{"android":"levelo://app?vid=43855516-4c02-494d-aefa-3c215dbc6b85","ios":"levelo://app?vid=43855516-4c02-494d-aefa-3c215dbc6b85"},"vehicle_type_id":"4","last_reported":1703326032,"current_range_meters":30000,"station_id":"ce4bhqp2rcd13ifvqhng","pricing_plan_id":"free"},{"bike_id":"cdb3d701-5381-4219-9cdd-c446bf2fa9ab","system_id":"levelo_inurba_marseille","lat":43.295336,"lon":5.361204,"is_reserved":false,"is_disabled":false,"rental_uris":{"android":"levelo://app?vid=cdb3d701-5381-4219-9cdd-c446bf2fa9ab","ios":"levelo://app?vid=cdb3d701-5381-4219-9cdd-c446bf2fa9ab"},"vehicle_type_id":"4","last_reported":1703326032,"current_range_meters":6000,"station_id":"","pricing_plan_id":"free"},{"bike_id":"2136459d-2fbb-41cb-90d0-6ca4652758c2","system_id":"levelo_inurba_marseille","lat":43.295748,"lon":5.37522,"is_reserved":false,"is_disabled":false,"rental_uris":{"android":"levelo://app?vid=2136459d-2fbb-41cb-90d0-6ca4652758c2","ios":"levelo://app?vid=2136459d-2fbb-41cb-90d0-6ca4652758c2"},"vehicle_type_id":"4","last_reported":1703326032,"current_range_meters":26800,"station_id":"ce4bgh92rcd13ifvqb50","pricing_plan_id":"free"},{"bike_id":"b51801fc-9965-429e-a0d4-62c0a4656188","system_id":"levelo_inurba_marseille","lat":43.295748,"lon":5.37522,"is_reserved":false,"is_disabled":false,"rental_uris":{"android":"levelo://app?vid=b51801fc-9965-429e-a0d4-62c0a4656188","ios":"levelo://app?vid=b51801fc-9965-429e-a0d4-62c0a4656188"},"vehicle_type_id":"4","last_reported":1703326032,"current_range_meters":27200,"station_id":"ce4bgh92rcd13ifvqb50","pricing_plan_id":"free"},{"bike_id":"9aa1c5eb-34de-429b-b589-ac261643ec46","system_id":"levelo_inurba_marseille","lat":43.299717,"lon":5.384845,"is_reserved":false,"is_disabled":false,"rental_uris":{"android":"levelo://app?vid=9aa1c5eb-34de-429b-b589-ac261643ec46","ios":"levelo://app?vid=9aa1c5eb-34de-429b-b589-ac261643ec46"},"vehicle_type_id":"4","last_reported":1703326032,"current_range_meters":2400,"station_id":"ce4bgj92rcd13ifvqbd0","pricing_plan_id":"free"},{"bike_id":"a58f3fcc-13d6-4d7f-925b-4f5ad3197d98","system_id":"levelo_inurba_marseille","lat":43.299717,"lon":5.384845,"is_reserved":false,"is_disabled":false,"rental_uris":{"android":"levelo://app?vid=a58f3fcc-13d6-4d7f-925b-4f5ad3197d98","ios":"levelo://app?vid=a58f3fcc-13d6-4d7f-925b-4f5ad3197d98"},"vehicle_type_id":"4","last_reported":1703326032,"current_range_meters":28000,"station_id":"ce4bgj92rcd13ifvqbd0","pricing_plan_id":"free"},{"bike_id":"8a81b626-f72f-43c1-bc92-e7e059a9e541","system_id":"levelo_inurba_marseille","lat":43.295279,"lon":5.375048,"is_reserved":false,"is_disabled":false,"rental_uris":{"android":"levelo://app?vid=8a81b626-f72f-43c1-bc92-e7e059a9e541","ios":"levelo://app?vid=8a81b626-f72f-43c1-bc92-e7e059a9e541"},"vehicle_type_id":"4","last_reported":1703326032,"current_range_meters":30000,"station_id":"ce4bgkp2rcd13ifvqbmg","pricing_plan_id":"free"},{"bike_id":"d21bbc1d-0f6b-4557-9458-ba930d393651","system_id":"levelo_inurba_marseille","lat":43.295279,"lon":5.375048,"is_reserved":false,"is_disabled":false,"rental_uris":{"android":"levelo://app?vid=d21bbc1d-0f6b-4557-9458-ba930d393651","ios":"levelo://app?vid=d21bbc1d-0f6b-4557-9458-ba930d393651"},"vehicle_type_id":"4","last_reported":1703326032,"current_range_meters":31200,"station_id":"ce4bgkp2rcd13ifvqbmg","pricing_plan_id":"free"},{"bike_id":"2b72fda5-ae72-4afa-bbb9-fdbbc6383a40","system_id":"levelo_inurba_marseille","lat":43.295279,"lon":5.375048,"is_reserved":false,"is_disabled":false,"rental_uris":{"android":"levelo://app?vid=2b72fda5-ae72-4afa-bbb9-fdbbc6383a40","ios":"levelo://app?vid=2b72fda5-ae72-4afa-bbb9-fdbbc6383a40"},"vehicle_type_id":"4","last_reported":1703326032,"current_range_meters":28000,"station_id":"ce4bgkp2rcd13ifvqbmg","pricing_plan_id":"free"},{"bike_id":"0da11ce9-28cb-4cdf-a841-aee65e140ae4","system_id":"levelo_inurba_marseille","lat":43.32367,"lon":5.388836,"is_reserved":false,"is_disabled":false,"rental_uris":{"android":"levelo://app?vid=0da11ce9-28cb-4cdf-a841-aee65e140ae4","ios":"levelo://app?vid=0da11ce9-28cb-4cdf-a841-aee65e140ae4"},"vehicle_type_id":"4","last_reported":1703326032,"current_range_meters":29200,"station_id":"ce4bhqp2rcd13ifvqhog","pricing_plan_id":"free"},{"bike_id":"eaa5e0c9-2b1c-4467-ab68-bbff3d6c2e68","system_id":"levelo_inurba_marseille","lat":43.32367,"lon":5.388836,"is_reserved":false,"is_disabled":false,"rental_uris":{"android":"levelo://app?vid=eaa5e0c9-2b1c-4467-ab68-bbff3d6c2e68","ios":"levelo://app?vid=eaa5e0c9-2b1c-4467-ab68-bbff3d6c2e68"},"vehicle_type_id":"4","last_reported":1703326032,"current_range_meters":18800,"station_id":"ce4bhqp2rcd13ifvqhog","pricing_plan_id":"free"},{"bike_id":"dc576f31-c21e-42d2-97a4-815b145b7f58","system_id":"levelo_inurba_marseille","lat":43.32367,"lon":5.388836,"is_reserved":false,"is_disabled":false,"rental_uris":{"android":"levelo://app?vid=dc576f31-c21e-42d2-97a4-815b145b7f58","ios":"levelo://app?vid=dc576f31-c21e-42d2-97a4-815b145b7f58"},"vehicle_type_id":"4","last_reported":1703326032,"current_range_meters":31200,"station_id":"ce4bhqp2rcd13ifvqhog","pricing_plan_id":"free"},{"bike_id":"035ba96c-8560-4c70-973e-f7eb3e99c40c","system_id":"levelo_inurba_marseille","lat":43.32367,"lon":5.388836,"is_reserved":false,"is_disabled":false,"rental_uris":{"android":"levelo://app?vid=035ba96c-8560-4c70-973e-f7eb3e99c40c","ios":"levelo://app?vid=035ba96c-8560-4c70-973e-f7eb3e99c40c"},"vehicle_type_id":"4","last_reported":1703326032,"current_range_meters":17600,"station_id":"ce4bhqp2rcd13ifvqhog","pricing_plan_id":"free"},{"bike_id":"f99f266a-2a3f-4675-ba7d-8660c84633db","system_id":"levelo_inurba_marseille","lat":43.29601,"lon":5.381084,"is_reserved":false,"is_disabled":false,"rental_uris":{"android":"levelo://app?vid=f99f266a-2a3f-4675-ba7d-8660c84633db","ios":"levelo://app?vid=f99f266a-2a3f-4675-ba7d-8660c84633db"},"vehicle_type_id":"4","last_reported":1703326032,"current_range_meters":6000,"station_id":"ce4bgl12rcd13ifvqbo0","pricing_plan_id":"free"},{"bike_id":"6fc3a9c8-74fb-44fc-8f44-bb5b45fb7d35","system_id":"levelo_inurba_marseille","lat":43.293259,"lon":5.371586,"is_reserved":false,"is_disabled":false,"rental_uris":{"android":"levelo://app?vid=6fc3a9c8-74fb-44fc-8f44-bb5b45fb7d35","ios":"levelo://app?vid=6fc3a9c8-74fb-44fc-8f44-bb5b45fb7d35"},"vehicle_type_id":"4","last_reported":1703326032,"current_range_meters":18800,"station_id":"ce4bgh92rcd13ifvqb40","pricing_plan_id":"free"},{"bike_id":"b2e4d778-dadf-49b4-898d-9dc46fd36f2b","system_id":"levelo_inurba_marseille","lat":43.293009,"lon":5.374584,"is_reserved":false,"is_disabled":false,"rental_uris":{"android":"levelo://app?vid=b2e4d778-dadf-49b4-898d-9dc46fd36f2b","ios":"levelo://app?vid=b2e4d778-dadf-49b4-898d-9dc46fd36f2b"},"vehicle_type_id":"4","last_reported":1703326032,"current_range_meters":25600,"station_id":"ce4bgi12rcd13ifvqb70","pricing_plan_id":"free"},{"bike_id":"44ec8c54-7100-4a95-8558-e1f359a1078c","system_id":"levelo_inurba_marseille","lat":43.305994,"lon":5.393687,"is_reserved":false,"is_disabled":false,"rental_uris":{"android":"levelo://app?vid=44ec8c54-7100-4a95-8558-e1f359a1078c","ios":"levelo://app?vid=44ec8c54-7100-4a95-8558-e1f359a1078c"},"vehicle_type_id":"4","last_reported":1703326032,"current_range_meters":31200,"station_id":"ce4bh0p2rcd13ifvqd80","pricing_plan_id":"free"},{"bike_id":"b4033107-70d4-493a-ac35-4974c29dc58c","system_id":"levelo_inurba_marseille","lat":43.2936,"lon":5.37835,"is_reserved":false,"is_disabled":false,"rental_uris":{"android":"levelo://app?vid=b4033107-70d4-493a-ac35-4974c29dc58c","ios":"levelo://app?vid=b4033107-70d4-493a-ac35-4974c29dc58c"},"vehicle_type_id":"4","last_reported":1703326032,"current_range_meters":30000,"station_id":"ce4bgjh2rcd13ifvqbf0","pricing_plan_id":"free"},{"bike_id":"b5264dd1-8672-4deb-8d08-06b7f9fd3f2e","system_id":"levelo_inurba_marseille","lat":43.292311,"lon":5.360731,"is_reserved":false,"is_disabled":false,"rental_uris":{"android":"levelo://app?vid=b5264dd1-8672-4deb-8d08-06b7f9fd3f2e","ios":"levelo://app?vid=b5264dd1-8672-4deb-8d08-06b7f9fd3f2e"},"vehicle_type_id":"4","last_reported":1703326032,"current_range_meters":30400,"station_id":"ce4bhbh2rcd13ifvqeqg","pricing_plan_id":"free"},{"bike_id":"3ba5e3dd-f6e1-4d8e-889e-28c849db6641","system_id":"levelo_inurba_marseille","lat":43.292311,"lon":5.360731,"is_reserved":false,"is_disabled":false,"rental_uris":{"android":"levelo://app?vid=3ba5e3dd-f6e1-4d8e-889e-28c849db6641","ios":"levelo://app?vid=3ba5e3dd-f6e1-4d8e-889e-28c849db6641"},"vehicle_type_id":"4","last_reported":1703326032,"current_range_meters":14000,"station_id":"ce4bhbh2rcd13ifvqeqg","pricing_plan_id":"free"},{"bike_id":"a3c92e10-1651-4ac2-ab78-2f033997ac5d","system_id":"levelo_inurba_marseille","lat":43.292311,"lon":5.360731,"is_reserved":false,"is_disabled":false,"rental_uris":{"android":"levelo://app?vid=a3c92e10-1651-4ac2-ab78-2f033997ac5d","ios":"levelo://app?vid=a3c92e10-1651-4ac2-ab78-2f033997ac5d"},"vehicle_type_id":"4","last_reported":1703326032,"current_range_meters":15200,"station_id":"ce4bhbh2rcd13ifvqeqg","pricing_plan_id":"free"},{"bike_id":"62b99d4c-3309-4714-99a2-5a124fe1583a","system_id":"levelo_inurba_marseille","lat":43.292311,"lon":5.360731,"is_reserved":false,"is_disabled":false,"rental_uris":{"android":"levelo://app?vid=62b99d4c-3309-4714-99a2-5a124fe1583a","ios":"levelo://app?vid=62b99d4c-3309-4714-99a2-5a124fe1583a"},"vehicle_type_id":"4","last_reported":1703326032,"current_range_meters":23200,"station_id":"ce4bhbh2rcd13ifvqeqg","pricing_plan_id":"free"},{"bike_id":"701a1df8-6a30-4076-ab51-c8a99851ad93","system_id":"levelo_inurba_marseille","lat":43.29266,"lon":5.37618,"is_reserved":false,"is_disabled":false,"rental_uris":{"android":"levelo://app?vid=701a1df8-6a30-4076-ab51-c8a99851ad93","ios":"levelo://app?vid=701a1df8-6a30-4076-ab51-c8a99851ad93"},"vehicle_type_id":"4","last_reported":1703326032,"current_range_meters":26000,"station_id":"ce4bgi12rcd13ifvqb70","pricing_plan_id":"free"},{"bike_id":"a50c0a0b-877f-4b02-93f4-ce9985ed9ac4","system_id":"levelo_inurba_marseille","lat":43.291675,"lon":5.371583,"is_reserved":false,"is_disabled":false,"rental_uris":{"android":"levelo://app?vid=a50c0a0b-877f-4b02-93f4-ce9985ed9ac4","ios":"levelo://app?vid=a50c0a0b-877f-4b02-93f4-ce9985ed9ac4"},"vehicle_type_id":"4","last_reported":1703326032,"current_range_meters":15200,"station_id":"ce4bha92rcd13ifvqeh0","pricing_plan_id":"free"},{"bike_id":"8dc3b047-5712-4bb5-ac80-646a2d214eb2","system_id":"levelo_inurba_marseille","lat":43.291675,"lon":5.371583,"is_reserved":false,"is_disabled":false,"rental_uris":{"android":"levelo://app?vid=8dc3b047-5712-4bb5-ac80-646a2d214eb2","ios":"levelo://app?vid=8dc3b047-5712-4bb5-ac80-646a2d214eb2"},"vehicle_type_id":"4","last_reported":1703326032,"current_range_meters":26400,"station_id":"ce4bha92rcd13ifvqeh0","pricing_plan_id":"free"},{"bike_id":"9c4bd2fc-3d5e-46d7-a52e-17b1c35c085b","system_id":"levelo_inurba_marseille","lat":43.313291,"lon":5.396838,"is_reserved":false,"is_disabled":false,"rental_uris":{"android":"levelo://app?vid=9c4bd2fc-3d5e-46d7-a52e-17b1c35c085b","ios":"levelo://app?vid=9c4bd2fc-3d5e-46d7-a52e-17b1c35c085b"},"vehicle_type_id":"4","last_reported":1703326032,"current_range_meters":29600,"station_id":"ce4bgvp2rcd13ifvqcu0","pricing_plan_id":"free"},{"bike_id":"787a319f-9a79-4164-8fbf-55115fc93c14","system_id":"levelo_inurba_marseille","lat":43.292005,"lon":5.357875,"is_reserved":false,"is_disabled":false,"rental_uris":{"android":"levelo://app?vid=787a319f-9a79-4164-8fbf-55115fc93c14","ios":"levelo://app?vid=787a319f-9a79-4164-8fbf-55115fc93c14"},"vehicle_type_id":"4","last_reported":1703326032,"current_range_meters":0,"station_id":"ce4bhb12rcd13ifvqel0","pricing_plan_id":"free"},{"bike_id":"3da71bf4-1769-44d9-b833-9267627d8551","system_id":"levelo_inurba_marseille","lat":43.313291,"lon":5.396838,"is_reserved":false,"is_disabled":false,"rental_uris":{"android":"levelo://app?vid=3da71bf4-1769-44d9-b833-9267627d8551","ios":"levelo://app?vid=3da71bf4-1769-44d9-b833-9267627d8551"},"vehicle_type_id":"4","last_reported":1703326032,"current_range_meters":8000,"station_id":"ce4bgvp2rcd13ifvqcu0","pricing_plan_id":"free"},{"bike_id":"365351fb-9dc0-4763-85db-886ebe3b10db","system_id":"levelo_inurba_marseille","lat":43.313291,"lon":5.396838,"is_reserved":false,"is_disabled":false,"rental_uris":{"android":"levelo://app?vid=365351fb-9dc0-4763-85db-886ebe3b10db","ios":"levelo://app?vid=365351fb-9dc0-4763-85db-886ebe3b10db"},"vehicle_type_id":"4","last_reported":1703326032,"current_range_meters":28400,"station_id":"ce4bgvp2rcd13ifvqcu0","pricing_plan_id":"free"},{"bike_id":"a90b8b83-e596-4fc1-8b62-b201f740b064","system_id":"levelo_inurba_marseille","lat":43.313291,"lon":5.396838,"is_reserved":false,"is_disabled":false,"rental_uris":{"android":"levelo://app?vid=a90b8b83-e596-4fc1-8b62-b201f740b064","ios":"levelo://app?vid=a90b8b83-e596-4fc1-8b62-b201f740b064"},"vehicle_type_id":"4","last_reported":1703326032,"current_range_meters":31200,"station_id":"ce4bgvp2rcd13ifvqcu0","pricing_plan_id":"free"},{"bike_id":"2312980f-d1c9-4641-a302-cc774978dfa8","system_id":"levelo_inurba_marseille","lat":43.313291,"lon":5.396838,"is_reserved":false,"is_disabled":false,"rental_uris":{"android":"levelo://app?vid=2312980f-d1c9-4641-a302-cc774978dfa8","ios":"levelo://app?vid=2312980f-d1c9-4641-a302-cc774978dfa8"},"vehicle_type_id":"4","last_reported":1703326032,"current_range_meters":18400,"station_id":"ce4bgvp2rcd13ifvqcu0","pricing_plan_id":"free"},{"bike_id":"1ae8e95d-0abf-4fae-be2f-6b21ebb68376","system_id":"levelo_inurba_marseille","lat":43.291994,"lon":5.357886,"is_reserved":false,"is_disabled":false,"rental_uris":{"android":"levelo://app?vid=1ae8e95d-0abf-4fae-be2f-6b21ebb68376","ios":"levelo://app?vid=1ae8e95d-0abf-4fae-be2f-6b21ebb68376"},"vehicle_type_id":"4","last_reported":1703326032,"current_range_meters":13200,"station_id":"ce4bhb12rcd13ifvqel0","pricing_plan_id":"free"},{"bike_id":"eceb5307-053e-422d-bbd0-9af032e873b8","system_id":"levelo_inurba_marseille","lat":43.313291,"lon":5.396838,"is_reserved":false,"is_disabled":false,"rental_uris":{"android":"levelo://app?vid=eceb5307-053e-422d-bbd0-9af032e873b8","ios":"levelo://app?vid=eceb5307-053e-422d-bbd0-9af032e873b8"},"vehicle_type_id":"4","last_reported":1703326032,"current_range_meters":31200,"station_id":"ce4bgvp2rcd13ifvqcu0","pricing_plan_id":"free"},{"bike_id":"78813487-d59d-43c3-a737-23d9f7a1435a","system_id":"levelo_inurba_marseille","lat":43.29529,"lon":5.385581,"is_reserved":false,"is_disabled":false,"rental_uris":{"android":"levelo://app?vid=78813487-d59d-43c3-a737-23d9f7a1435a","ios":"levelo://app?vid=78813487-d59d-43c3-a737-23d9f7a1435a"},"vehicle_type_id":"4","last_reported":1703326032,"current_range_meters":18800,"station_id":"ce4bgih2rcd13ifvqba0","pricing_plan_id":"free"},{"bike_id":"54075972-b4c5-412d-bb28-e6c60040f13e","system_id":"levelo_inurba_marseille","lat":43.29529,"lon":5.385581,"is_reserved":false,"is_disabled":false,"rental_uris":{"android":"levelo://app?vid=54075972-b4c5-412d-bb28-e6c60040f13e","ios":"levelo://app?vid=54075972-b4c5-412d-bb28-e6c60040f13e"},"vehicle_type_id":"4","last_reported":1703326032,"current_range_meters":1200,"station_id":"ce4bgih2rcd13ifvqba0","pricing_plan_id":"free"},{"bike_id":"cc897973-e689-46cd-827d-565251db0602","system_id":"levelo_inurba_marseille","lat":43.291671,"lon":5.371575,"is_reserved":false,"is_disabled":false,"rental_uris":{"android":"levelo://app?vid=cc897973-e689-46cd-827d-565251db0602","ios":"levelo://app?vid=cc897973-e689-46cd-827d-565251db0602"},"vehicle_type_id":"4","last_reported":1703326032,"current_range_meters":28000,"station_id":"ce4bha92rcd13ifvqeh0","pricing_plan_id":"free"},{"bike_id":"deba7968-6b7c-4711-ad59-f7cb54744049","system_id":"levelo_inurba_marseille","lat":43.302008,"lon":5.394694,"is_reserved":false,"is_disabled":false,"rental_uris":{"android":"levelo://app?vid=deba7968-6b7c-4711-ad59-f7cb54744049","ios":"levelo://app?vid=deba7968-6b7c-4711-ad59-f7cb54744049"},"vehicle_type_id":"4","last_reported":1703326032,"current_range_meters":18400,"station_id":"ce4bh0p2rcd13ifvqd70","pricing_plan_id":"free"},{"bike_id":"dd007d71-4a6c-403a-a1a0-ea0c10c811f9","system_id":"levelo_inurba_marseille","lat":43.290624,"lon":5.359245,"is_reserved":false,"is_disabled":false,"rental_uris":{"android":"levelo://app?vid=dd007d71-4a6c-403a-a1a0-ea0c10c811f9","ios":"levelo://app?vid=dd007d71-4a6c-403a-a1a0-ea0c10c811f9"},"vehicle_type_id":"4","last_reported":1703326032,"current_range_meters":31200,"station_id":"ce4bha92rcd13ifvqeg0","pricing_plan_id":"free"},{"bike_id":"b9099ee2-35c4-4e8b-a8e8-ada07dbc17ec","system_id":"levelo_inurba_marseille","lat":43.289468,"lon":5.363719,"is_reserved":false,"is_disabled":false,"rental_uris":{"android":"levelo://app?vid=b9099ee2-35c4-4e8b-a8e8-ada07dbc17ec","ios":"levelo://app?vid=b9099ee2-35c4-4e8b-a8e8-ada07dbc17ec"},"vehicle_type_id":"4","last_reported":1703326032,"current_range_meters":16000,"station_id":"ce4bhc92rcd13ifvqetg","pricing_plan_id":"free"},{"bike_id":"476da4cf-1ec2-463e-85a2-0223d0f5e554","system_id":"levelo_inurba_marseille","lat":43.292642,"lon":5.384254,"is_reserved":false,"is_disabled":false,"rental_uris":{"android":"levelo://app?vid=476da4cf-1ec2-463e-85a2-0223d0f5e554","ios":"levelo://app?vid=476da4cf-1ec2-463e-85a2-0223d0f5e554"},"vehicle_type_id":"4","last_reported":1703326032,"current_range_meters":20800,"station_id":"ce4bh692rcd13ifvqea0","pricing_plan_id":"free"},{"bike_id":"284bf4ae-094e-45b0-b9b1-fa1c22246eef","system_id":"levelo_inurba_marseille","lat":43.290104,"lon":5.356111,"is_reserved":false,"is_disabled":false,"rental_uris":{"android":"levelo://app?vid=284bf4ae-094e-45b0-b9b1-fa1c22246eef","ios":"levelo://app?vid=284bf4ae-094e-45b0-b9b1-fa1c22246eef"},"vehicle_type_id":"4","last_reported":1703326032,"current_range_meters":31200,"station_id":"ce4bhb92rcd13ifvqen0","pricing_plan_id":"free"},{"bike_id":"0f8b0a25-df64-4d80-b9d8-6b190fcf5234","system_id":"levelo_inurba_marseille","lat":43.290995,"lon":5.381361,"is_reserved":false,"is_disabled":false,"rental_uris":{"android":"levelo://app?vid=0f8b0a25-df64-4d80-b9d8-6b190fcf5234","ios":"levelo://app?vid=0f8b0a25-df64-4d80-b9d8-6b190fcf5234"},"vehicle_type_id":"4","last_reported":1703326032,"current_range_meters":30000,"station_id":"ce4bh512rcd13ifvqe2g","pricing_plan_id":"free"},{"bike_id":"0657b26f-8c5e-4763-b468-324b831550e6","system_id":"levelo_inurba_marseille","lat":43.297815,"lon":5.393548,"is_reserved":false,"is_disabled":false,"rental_uris":{"android":"levelo://app?vid=0657b26f-8c5e-4763-b468-324b831550e6","ios":"levelo://app?vid=0657b26f-8c5e-4763-b468-324b831550e6"},"vehicle_type_id":"4","last_reported":1703326032,"current_range_meters":0,"station_id":"chh1huq6cuj3fo74tm60","pricing_plan_id":"free"},{"bike_id":"34861c7e-0188-414e-8b56-b6bc78114077","system_id":"levelo_inurba_marseille","lat":43.289741,"lon":5.378306,"is_reserved":false,"is_disabled":false,"rental_uris":{"android":"levelo://app?vid=34861c7e-0188-414e-8b56-b6bc78114077","ios":"levelo://app?vid=34861c7e-0188-414e-8b56-b6bc78114077"},"vehicle_type_id":"4","last_reported":1703326032,"current_range_meters":12000,"station_id":"ce4bh9p2rcd13ifvqed0","pricing_plan_id":"free"},{"bike_id":"f5920207-e880-43d6-a926-dc5c21ab9b15","system_id":"levelo_inurba_marseille","lat":43.28856,"lon":5.358371,"is_reserved":false,"is_disabled":false,"rental_uris":{"android":"levelo://app?vid=f5920207-e880-43d6-a926-dc5c21ab9b15","ios":"levelo://app?vid=f5920207-e880-43d6-a926-dc5c21ab9b15"},"vehicle_type_id":"4","last_reported":1703326032,"current_range_meters":14800,"station_id":"ce4bhb12rcd13ifvqem0","pricing_plan_id":"free"},{"bike_id":"0dde77ba-3684-4342-ac8f-a242a2d96b4f","system_id":"levelo_inurba_marseille","lat":43.28856,"lon":5.358371,"is_reserved":false,"is_disabled":false,"rental_uris":{"android":"levelo://app?vid=0dde77ba-3684-4342-ac8f-a242a2d96b4f","ios":"levelo://app?vid=0dde77ba-3684-4342-ac8f-a242a2d96b4f"},"vehicle_type_id":"4","last_reported":1703326032,"current_range_meters":16400,"station_id":"ce4bhb12rcd13ifvqem0","pricing_plan_id":"free"},{"bike_id":"53e421d9-65d6-44cf-8edd-899c2cf616e6","system_id":"levelo_inurba_marseille","lat":43.312609,"lon":5.401662,"is_reserved":false,"is_disabled":false,"rental_uris":{"android":"levelo://app?vid=53e421d9-65d6-44cf-8edd-899c2cf616e6","ios":"levelo://app?vid=53e421d9-65d6-44cf-8edd-899c2cf616e6"},"vehicle_type_id":"4","last_reported":1703326032,"current_range_meters":19200,"station_id":"ce4bh092rcd13ifvqd30","pricing_plan_id":"free"},{"bike_id":"711a9a4f-c903-41de-ab40-c6a4c8c4d60c","system_id":"levelo_inurba_marseille","lat":43.312609,"lon":5.401662,"is_reserved":false,"is_disabled":false,"rental_uris":{"android":"levelo://app?vid=711a9a4f-c903-41de-ab40-c6a4c8c4d60c","ios":"levelo://app?vid=711a9a4f-c903-41de-ab40-c6a4c8c4d60c"},"vehicle_type_id":"4","last_reported":1703326032,"current_range_meters":26400,"station_id":"ce4bh092rcd13ifvqd30","pricing_plan_id":"free"},{"bike_id":"56d84a31-2ece-444c-a96f-ec97acb74630","system_id":"levelo_inurba_marseille","lat":43.306412,"lon":5.401035,"is_reserved":false,"is_disabled":false,"rental_uris":{"android":"levelo://app?vid=56d84a31-2ece-444c-a96f-ec97acb74630","ios":"levelo://app?vid=56d84a31-2ece-444c-a96f-ec97acb74630"},"vehicle_type_id":"4","last_reported":1703326032,"current_range_meters":23200,"station_id":"ce4bh112rcd13ifvqda0","pricing_plan_id":"free"},{"bike_id":"2c29db6d-9f2f-4074-af40-837c09c6375e","system_id":"levelo_inurba_marseille","lat":43.33758,"lon":5.37435,"is_reserved":false,"is_disabled":false,"rental_uris":{"android":"levelo://app?vid=2c29db6d-9f2f-4074-af40-837c09c6375e","ios":"levelo://app?vid=2c29db6d-9f2f-4074-af40-837c09c6375e"},"vehicle_type_id":"4","last_reported":1703326032,"current_range_meters":26000,"station_id":"","pricing_plan_id":"free"},{"bike_id":"8eb6fac8-2c87-4a77-807c-4e48d203df82","system_id":"levelo_inurba_marseille","lat":43.286591,"lon":5.363346,"is_reserved":false,"is_disabled":false,"rental_uris":{"android":"levelo://app?vid=8eb6fac8-2c87-4a77-807c-4e48d203df82","ios":"levelo://app?vid=8eb6fac8-2c87-4a77-807c-4e48d203df82"},"vehicle_type_id":"4","last_reported":1703326032,"current_range_meters":18000,"station_id":"ce4bhah2rcd13ifvqej0","pricing_plan_id":"free"},{"bike_id":"bcb4aef8-a418-4d6d-8cfb-ad7a51f46a49","system_id":"levelo_inurba_marseille","lat":43.298681,"lon":5.397225,"is_reserved":false,"is_disabled":false,"rental_uris":{"android":"levelo://app?vid=bcb4aef8-a418-4d6d-8cfb-ad7a51f46a49","ios":"levelo://app?vid=bcb4aef8-a418-4d6d-8cfb-ad7a51f46a49"},"vehicle_type_id":"4","last_reported":1703326032,"current_range_meters":30400,"station_id":"ce4bh0h2rcd13ifvqd50","pricing_plan_id":"free"},{"bike_id":"423e0a7c-7f9d-4b33-a129-b31151b2b885","system_id":"levelo_inurba_marseille","lat":43.290345,"lon":5.38646,"is_reserved":false,"is_disabled":false,"rental_uris":{"android":"levelo://app?vid=423e0a7c-7f9d-4b33-a129-b31151b2b885","ios":"levelo://app?vid=423e0a7c-7f9d-4b33-a129-b31151b2b885"},"vehicle_type_id":"4","last_reported":1703326032,"current_range_meters":24000,"station_id":"ce4bh4p2rcd13ifvqe0g","pricing_plan_id":"free"},{"bike_id":"b269c749-19b3-457a-9f11-021ccc443c55","system_id":"levelo_inurba_marseille","lat":43.286039,"lon":5.370679,"is_reserved":false,"is_disabled":false,"rental_uris":{"android":"levelo://app?vid=b269c749-19b3-457a-9f11-021ccc443c55","ios":"levelo://app?vid=b269c749-19b3-457a-9f11-021ccc443c55"},"vehicle_type_id":"4","last_reported":1703326032,"current_range_meters":16400,"station_id":"ce4bht12rcd13ifvqi60","pricing_plan_id":"free"},{"bike_id":"6b9cc353-16ea-44fc-8ea1-698ee1564bd6","system_id":"levelo_inurba_marseille","lat":43.316828,"lon":5.404723,"is_reserved":false,"is_disabled":false,"rental_uris":{"android":"levelo://app?vid=6b9cc353-16ea-44fc-8ea1-698ee1564bd6","ios":"levelo://app?vid=6b9cc353-16ea-44fc-8ea1-698ee1564bd6"},"vehicle_type_id":"4","last_reported":1703326032,"current_range_meters":29200,"station_id":"ce4bh012rcd13ifvqd00","pricing_plan_id":"free"},{"bike_id":"131cc08d-d375-40f4-a928-75f8b6843ec9","system_id":"levelo_inurba_marseille","lat":43.316828,"lon":5.404723,"is_reserved":false,"is_disabled":false,"rental_uris":{"android":"levelo://app?vid=131cc08d-d375-40f4-a928-75f8b6843ec9","ios":"levelo://app?vid=131cc08d-d375-40f4-a928-75f8b6843ec9"},"vehicle_type_id":"4","last_reported":1703326032,"current_range_meters":20400,"station_id":"ce4bh012rcd13ifvqd00","pricing_plan_id":"free"},{"bike_id":"49e87e09-4a4e-4d2c-a174-2ea3c671a3c6","system_id":"levelo_inurba_marseille","lat":43.291994,"lon":5.392907,"is_reserved":false,"is_disabled":false,"rental_uris":{"android":"levelo://app?vid=49e87e09-4a4e-4d2c-a174-2ea3c671a3c6","ios":"levelo://app?vid=49e87e09-4a4e-4d2c-a174-2ea3c671a3c6"},"vehicle_type_id":"4","last_reported":1703326032,"current_range_meters":27600,"station_id":"ce4bh192rcd13ifvqdd0","pricing_plan_id":"free"},{"bike_id":"e2adfa7c-882e-48a1-9ee4-b36e6186ebbf","system_id":"levelo_inurba_marseille","lat":43.330912,"lon":5.396935,"is_reserved":false,"is_disabled":false,"rental_uris":{"android":"levelo://app?vid=e2adfa7c-882e-48a1-9ee4-b36e6186ebbf","ios":"levelo://app?vid=e2adfa7c-882e-48a1-9ee4-b36e6186ebbf"},"vehicle_type_id":"4","last_reported":1703326032,"current_range_meters":15200,"station_id":"","pricing_plan_id":"free"},{"bike_id":"8474e580-85cb-4c9f-a378-9a779ed286af","system_id":"levelo_inurba_marseille","lat":43.284538,"lon":5.358657,"is_reserved":false,"is_disabled":false,"rental_uris":{"android":"levelo://app?vid=8474e580-85cb-4c9f-a378-9a779ed286af","ios":"levelo://app?vid=8474e580-85cb-4c9f-a378-9a779ed286af"},"vehicle_type_id":"4","last_reported":1703326032,"current_range_meters":5600,"station_id":"ce4bhah2rcd13ifvqei0","pricing_plan_id":"free"},{"bike_id":"39d9759f-0818-4d3c-9658-8a2a5a76386b","system_id":"levelo_inurba_marseille","lat":43.294314,"lon":5.397498,"is_reserved":false,"is_disabled":false,"rental_uris":{"android":"levelo://app?vid=39d9759f-0818-4d3c-9658-8a2a5a76386b","ios":"levelo://app?vid=39d9759f-0818-4d3c-9658-8a2a5a76386b"},"vehicle_type_id":"4","last_reported":1703326032,"current_range_meters":18000,"station_id":"ce4bh3h2rcd13ifvqdo0","pricing_plan_id":"free"},{"bike_id":"70a0d8fb-d592-4efd-bb64-a776df3bea85","system_id":"levelo_inurba_marseille","lat":43.294314,"lon":5.397498,"is_reserved":false,"is_disabled":false,"rental_uris":{"android":"levelo://app?vid=70a0d8fb-d592-4efd-bb64-a776df3bea85","ios":"levelo://app?vid=70a0d8fb-d592-4efd-bb64-a776df3bea85"},"vehicle_type_id":"4","last_reported":1703326032,"current_range_meters":23600,"station_id":"ce4bh3h2rcd13ifvqdo0","pricing_plan_id":"free"},{"bike_id":"c4a57cfa-f798-4c02-baac-dd5add18a925","system_id":"levelo_inurba_marseille","lat":43.285856,"lon":5.350771,"is_reserved":false,"is_disabled":false,"rental_uris":{"android":"levelo://app?vid=c4a57cfa-f798-4c02-baac-dd5add18a925","ios":"levelo://app?vid=c4a57cfa-f798-4c02-baac-dd5add18a925"},"vehicle_type_id":"4","last_reported":1703326032,"current_range_meters":22400,"station_id":"ce4bhch2rcd13ifvqeug","pricing_plan_id":"free"},{"bike_id":"9c69ac99-0fe9-466a-9e58-8e3ece8f9bb6","system_id":"levelo_inurba_marseille","lat":43.285856,"lon":5.350771,"is_reserved":false,"is_disabled":false,"rental_uris":{"android":"levelo://app?vid=9c69ac99-0fe9-466a-9e58-8e3ece8f9bb6","ios":"levelo://app?vid=9c69ac99-0fe9-466a-9e58-8e3ece8f9bb6"},"vehicle_type_id":"4","last_reported":1703326032,"current_range_meters":1600,"station_id":"ce4bhch2rcd13ifvqeug","pricing_plan_id":"free"},{"bike_id":"76436a62-5c11-4ed5-b875-75e6f5c45c82","system_id":"levelo_inurba_marseille","lat":43.285856,"lon":5.350771,"is_reserved":false,"is_disabled":false,"rental_uris":{"android":"levelo://app?vid=76436a62-5c11-4ed5-b875-75e6f5c45c82","ios":"levelo://app?vid=76436a62-5c11-4ed5-b875-75e6f5c45c82"},"vehicle_type_id":"4","last_reported":1703326032,"current_range_meters":31200,"station_id":"ce4bhch2rcd13ifvqeug","pricing_plan_id":"free"},{"bike_id":"43681387-ac92-436a-9402-4aa8ef78c249","system_id":"levelo_inurba_marseille","lat":43.283998,"lon":5.375062,"is_reserved":false,"is_disabled":false,"rental_uris":{"android":"levelo://app?vid=43681387-ac92-436a-9402-4aa8ef78c249","ios":"levelo://app?vid=43681387-ac92-436a-9402-4aa8ef78c249"},"vehicle_type_id":"4","last_reported":1703326032,"current_range_meters":30400,"station_id":"ce4bh412rcd13ifvqds0","pricing_plan_id":"free"},{"bike_id":"cdd3da4a-fea5-42cb-8c78-3c5a4fbadb23","system_id":"levelo_inurba_marseille","lat":43.283998,"lon":5.375062,"is_reserved":false,"is_disabled":false,"rental_uris":{"android":"levelo://app?vid=cdd3da4a-fea5-42cb-8c78-3c5a4fbadb23","ios":"levelo://app?vid=cdd3da4a-fea5-42cb-8c78-3c5a4fbadb23"},"vehicle_type_id":"4","last_reported":1703326032,"current_range_meters":9600,"station_id":"ce4bh412rcd13ifvqds0","pricing_plan_id":"free"},{"bike_id":"3b7e3ec0-988e-4aeb-bcf3-3017c628b5d3","system_id":"levelo_inurba_marseille","lat":43.33717,"lon":5.391857,"is_reserved":false,"is_disabled":false,"rental_uris":{"android":"levelo://app?vid=3b7e3ec0-988e-4aeb-bcf3-3017c628b5d3","ios":"levelo://app?vid=3b7e3ec0-988e-4aeb-bcf3-3017c628b5d3"},"vehicle_type_id":"4","last_reported":1703326032,"current_range_meters":29600,"station_id":"ce4bhr92rcd13ifvqhsg","pricing_plan_id":"free"},{"bike_id":"b7c71217-6fce-490c-9bd4-073ff8143718","system_id":"levelo_inurba_marseille","lat":43.33717,"lon":5.391857,"is_reserved":false,"is_disabled":false,"rental_uris":{"android":"levelo://app?vid=b7c71217-6fce-490c-9bd4-073ff8143718","ios":"levelo://app?vid=b7c71217-6fce-490c-9bd4-073ff8143718"},"vehicle_type_id":"4","last_reported":1703326032,"current_range_meters":31200,"station_id":"ce4bhr92rcd13ifvqhsg","pricing_plan_id":"free"},{"bike_id":"4d98e2ae-e5d4-4594-8667-b94b0bb77857","system_id":"levelo_inurba_marseille","lat":43.323464,"lon":5.406297,"is_reserved":false,"is_disabled":false,"rental_uris":{"android":"levelo://app?vid=4d98e2ae-e5d4-4594-8667-b94b0bb77857","ios":"levelo://app?vid=4d98e2ae-e5d4-4594-8667-b94b0bb77857"},"vehicle_type_id":"4","last_reported":1703326032,"current_range_meters":24400,"station_id":"ce4bhq92rcd13ifvqhjg","pricing_plan_id":"free"},{"bike_id":"233eb238-e400-46e7-9601-45e4ec2edf9e","system_id":"levelo_inurba_marseille","lat":43.337168,"lon":5.391825,"is_reserved":false,"is_disabled":false,"rental_uris":{"android":"levelo://app?vid=233eb238-e400-46e7-9601-45e4ec2edf9e","ios":"levelo://app?vid=233eb238-e400-46e7-9601-45e4ec2edf9e"},"vehicle_type_id":"4","last_reported":1703326032,"current_range_meters":26000,"station_id":"ce4bhr92rcd13ifvqhsg","pricing_plan_id":"free"},{"bike_id":"69032901-fed5-40e7-ac74-96cef6359164","system_id":"levelo_inurba_marseille","lat":43.288605,"lon":5.393203,"is_reserved":false,"is_disabled":false,"rental_uris":{"android":"levelo://app?vid=69032901-fed5-40e7-ac74-96cef6359164","ios":"levelo://app?vid=69032901-fed5-40e7-ac74-96cef6359164"},"vehicle_type_id":"4","last_reported":1703326032,"current_range_meters":18400,"station_id":"ce4bh2p2rcd13ifvqdi0","pricing_plan_id":"free"},{"bike_id":"1a91e434-ede8-404f-b4c0-ef7ab1238bae","system_id":"levelo_inurba_marseille","lat":43.283494,"lon":5.380945,"is_reserved":false,"is_disabled":false,"rental_uris":{"android":"levelo://app?vid=1a91e434-ede8-404f-b4c0-ef7ab1238bae","ios":"levelo://app?vid=1a91e434-ede8-404f-b4c0-ef7ab1238bae"},"vehicle_type_id":"4","last_reported":1703326032,"current_range_meters":15600,"station_id":"ce4bh412rcd13ifvqdr0","pricing_plan_id":"free"},{"bike_id":"c409ec7a-89fe-49fc-aeb9-34eeea1b81e4","system_id":"levelo_inurba_marseille","lat":43.283494,"lon":5.380945,"is_reserved":false,"is_disabled":false,"rental_uris":{"android":"levelo://app?vid=c409ec7a-89fe-49fc-aeb9-34eeea1b81e4","ios":"levelo://app?vid=c409ec7a-89fe-49fc-aeb9-34eeea1b81e4"},"vehicle_type_id":"4","last_reported":1703326032,"current_range_meters":26000,"station_id":"ce4bh412rcd13ifvqdr0","pricing_plan_id":"free"},{"bike_id":"b02feee7-8174-41b3-95be-62f87df2ecbb","system_id":"levelo_inurba_marseille","lat":43.283494,"lon":5.380945,"is_reserved":false,"is_disabled":false,"rental_uris":{"android":"levelo://app?vid=b02feee7-8174-41b3-95be-62f87df2ecbb","ios":"levelo://app?vid=b02feee7-8174-41b3-95be-62f87df2ecbb"},"vehicle_type_id":"4","last_reported":1703326032,"current_range_meters":31600,"station_id":"ce4bh412rcd13ifvqdr0","pricing_plan_id":"free"},{"bike_id":"fd6583fe-bfb4-4eec-9c48-29450c69b4e5","system_id":"levelo_inurba_marseille","lat":43.283494,"lon":5.380945,"is_reserved":false,"is_disabled":false,"rental_uris":{"android":"levelo://app?vid=fd6583fe-bfb4-4eec-9c48-29450c69b4e5","ios":"levelo://app?vid=fd6583fe-bfb4-4eec-9c48-29450c69b4e5"},"vehicle_type_id":"4","last_reported":1703326032,"current_range_meters":22400,"station_id":"ce4bh412rcd13ifvqdr0","pricing_plan_id":"free"},{"bike_id":"3836b981-ce8c-4134-a5b7-097c6433e054","system_id":"levelo_inurba_marseille","lat":43.283498,"lon":5.380948,"is_reserved":false,"is_disabled":false,"rental_uris":{"android":"levelo://app?vid=3836b981-ce8c-4134-a5b7-097c6433e054","ios":"levelo://app?vid=3836b981-ce8c-4134-a5b7-097c6433e054"},"vehicle_type_id":"4","last_reported":1703326032,"current_range_meters":28800,"station_id":"ce4bh412rcd13ifvqdr0","pricing_plan_id":"free"},{"bike_id":"e4a52389-f429-433b-9b50-b7cdf18e5b4e","system_id":"levelo_inurba_marseille","lat":43.289363,"lon":5.396322,"is_reserved":false,"is_disabled":false,"rental_uris":{"android":"levelo://app?vid=e4a52389-f429-433b-9b50-b7cdf18e5b4e","ios":"levelo://app?vid=e4a52389-f429-433b-9b50-b7cdf18e5b4e"},"vehicle_type_id":"4","last_reported":1703326032,"current_range_meters":20400,"station_id":"ce4bh3h2rcd13ifvqdn0","pricing_plan_id":"free"},{"bike_id":"20a70fbb-e6b7-45c5-b037-980656cb7d52","system_id":"levelo_inurba_marseille","lat":43.289363,"lon":5.396322,"is_reserved":false,"is_disabled":false,"rental_uris":{"android":"levelo://app?vid=20a70fbb-e6b7-45c5-b037-980656cb7d52","ios":"levelo://app?vid=20a70fbb-e6b7-45c5-b037-980656cb7d52"},"vehicle_type_id":"4","last_reported":1703326032,"current_range_meters":27600,"station_id":"ce4bh3h2rcd13ifvqdn0","pricing_plan_id":"free"},{"bike_id":"0c492a06-7a14-46ed-9e6c-c800cd259434","system_id":"levelo_inurba_marseille","lat":43.282754,"lon":5.350519,"is_reserved":false,"is_disabled":false,"rental_uris":{"android":"levelo://app?vid=0c492a06-7a14-46ed-9e6c-c800cd259434","ios":"levelo://app?vid=0c492a06-7a14-46ed-9e6c-c800cd259434"},"vehicle_type_id":"4","last_reported":1703326032,"current_range_meters":30000,"station_id":"ce4bhbp2rcd13ifvqerg","pricing_plan_id":"free"},{"bike_id":"2024a61b-7173-4785-8359-84679011d211","system_id":"levelo_inurba_marseille","lat":43.280382,"lon":5.369291,"is_reserved":false,"is_disabled":false,"rental_uris":{"android":"levelo://app?vid=2024a61b-7173-4785-8359-84679011d211","ios":"levelo://app?vid=2024a61b-7173-4785-8359-84679011d211"},"vehicle_type_id":"4","last_reported":1703326032,"current_range_meters":31200,"station_id":"ce4bha12rcd13ifvqef0","pricing_plan_id":"free"},{"bike_id":"9ffafec3-6611-4556-9571-530e1d819b18","system_id":"levelo_inurba_marseille","lat":43.280382,"lon":5.369291,"is_reserved":false,"is_disabled":false,"rental_uris":{"android":"levelo://app?vid=9ffafec3-6611-4556-9571-530e1d819b18","ios":"levelo://app?vid=9ffafec3-6611-4556-9571-530e1d819b18"},"vehicle_type_id":"4","last_reported":1703326032,"current_range_meters":15200,"station_id":"ce4bha12rcd13ifvqef0","pricing_plan_id":"free"},{"bike_id":"06197de1-47f7-4cb7-9a62-a0f13e3be420","system_id":"levelo_inurba_marseille","lat":43.280382,"lon":5.369291,"is_reserved":false,"is_disabled":false,"rental_uris":{"android":"levelo://app?vid=06197de1-47f7-4cb7-9a62-a0f13e3be420","ios":"levelo://app?vid=06197de1-47f7-4cb7-9a62-a0f13e3be420"},"vehicle_type_id":"4","last_reported":1703326032,"current_range_meters":21200,"station_id":"ce4bha12rcd13ifvqef0","pricing_plan_id":"free"},{"bike_id":"9a59bc77-f637-45d3-ad7e-64d01ee098d6","system_id":"levelo_inurba_marseille","lat":43.284462,"lon":5.392121,"is_reserved":false,"is_disabled":false,"rental_uris":{"android":"levelo://app?vid=9a59bc77-f637-45d3-ad7e-64d01ee098d6","ios":"levelo://app?vid=9a59bc77-f637-45d3-ad7e-64d01ee098d6"},"vehicle_type_id":"4","last_reported":1703326032,"current_range_meters":30400,"station_id":"ce4bhoh2rcd13ifvqh5g","pricing_plan_id":"free"},{"bike_id":"921b424d-ad0d-4c7a-9d74-66e3a49bfa19","system_id":"levelo_inurba_marseille","lat":43.326605,"lon":5.409903,"is_reserved":false,"is_disabled":false,"rental_uris":{"android":"levelo://app?vid=921b424d-ad0d-4c7a-9d74-66e3a49bfa19","ios":"levelo://app?vid=921b424d-ad0d-4c7a-9d74-66e3a49bfa19"},"vehicle_type_id":"4","last_reported":1703326032,"current_range_meters":30000,"station_id":"ce4bhpp2rcd13ifvqhgg","pricing_plan_id":"free"},{"bike_id":"e3fc004f-a43a-44eb-b8c5-24a9d4af1335","system_id":"levelo_inurba_marseille","lat":43.326605,"lon":5.409903,"is_reserved":false,"is_disabled":false,"rental_uris":{"android":"levelo://app?vid=e3fc004f-a43a-44eb-b8c5-24a9d4af1335","ios":"levelo://app?vid=e3fc004f-a43a-44eb-b8c5-24a9d4af1335"},"vehicle_type_id":"4","last_reported":1703326032,"current_range_meters":26800,"station_id":"ce4bhpp2rcd13ifvqhgg","pricing_plan_id":"free"},{"bike_id":"2dce41b4-f1e9-4565-979b-d206af37124f","system_id":"levelo_inurba_marseille","lat":43.326605,"lon":5.409903,"is_reserved":false,"is_disabled":false,"rental_uris":{"android":"levelo://app?vid=2dce41b4-f1e9-4565-979b-d206af37124f","ios":"levelo://app?vid=2dce41b4-f1e9-4565-979b-d206af37124f"},"vehicle_type_id":"4","last_reported":1703326032,"current_range_meters":31200,"station_id":"ce4bhpp2rcd13ifvqhgg","pricing_plan_id":"free"},{"bike_id":"b2549058-3c4a-44aa-bf4a-8a90d4ff0a9e","system_id":"levelo_inurba_marseille","lat":43.304188,"lon":5.412904,"is_reserved":false,"is_disabled":false,"rental_uris":{"android":"levelo://app?vid=b2549058-3c4a-44aa-bf4a-8a90d4ff0a9e","ios":"levelo://app?vid=b2549058-3c4a-44aa-bf4a-8a90d4ff0a9e"},"vehicle_type_id":"4","last_reported":1703326032,"current_range_meters":31200,"station_id":"ce4bhop2rcd13ifvqh8g","pricing_plan_id":"free"},{"bike_id":"8f78cfe8-ffab-418a-bf98-6c86b3f878cd","system_id":"levelo_inurba_marseille","lat":43.304188,"lon":5.412904,"is_reserved":false,"is_disabled":false,"rental_uris":{"android":"levelo://app?vid=8f78cfe8-ffab-418a-bf98-6c86b3f878cd","ios":"levelo://app?vid=8f78cfe8-ffab-418a-bf98-6c86b3f878cd"},"vehicle_type_id":"4","last_reported":1703326032,"current_range_meters":13200,"station_id":"ce4bhop2rcd13ifvqh8g","pricing_plan_id":"free"},{"bike_id":"2994219f-f282-434d-a4a5-dcac2f9151e5","system_id":"levelo_inurba_marseille","lat":43.304188,"lon":5.412904,"is_reserved":false,"is_disabled":false,"rental_uris":{"android":"levelo://app?vid=2994219f-f282-434d-a4a5-dcac2f9151e5","ios":"levelo://app?vid=2994219f-f282-434d-a4a5-dcac2f9151e5"},"vehicle_type_id":"4","last_reported":1703326032,"current_range_meters":14400,"station_id":"ce4bhop2rcd13ifvqh8g","pricing_plan_id":"free"},{"bike_id":"fe87567e-3071-4b55-9307-935431684157","system_id":"levelo_inurba_marseille","lat":43.304188,"lon":5.412904,"is_reserved":false,"is_disabled":false,"rental_uris":{"android":"levelo://app?vid=fe87567e-3071-4b55-9307-935431684157","ios":"levelo://app?vid=fe87567e-3071-4b55-9307-935431684157"},"vehicle_type_id":"4","last_reported":1703326032,"current_range_meters":30400,"station_id":"ce4bhop2rcd13ifvqh8g","pricing_plan_id":"free"},{"bike_id":"7448c4f5-0d8f-4768-b763-52184f30c053","system_id":"levelo_inurba_marseille","lat":43.299579,"lon":5.413255,"is_reserved":false,"is_disabled":false,"rental_uris":{"android":"levelo://app?vid=7448c4f5-0d8f-4768-b763-52184f30c053","ios":"levelo://app?vid=7448c4f5-0d8f-4768-b763-52184f30c053"},"vehicle_type_id":"4","last_reported":1703326032,"current_range_meters":20400,"station_id":"ce4bhp12rcd13ifvqh9g","pricing_plan_id":"free"},{"bike_id":"48279459-055f-4ba5-908d-239be802e3b5","system_id":"levelo_inurba_marseille","lat":43.299577,"lon":5.413277,"is_reserved":false,"is_disabled":false,"rental_uris":{"android":"levelo://app?vid=48279459-055f-4ba5-908d-239be802e3b5","ios":"levelo://app?vid=48279459-055f-4ba5-908d-239be802e3b5"},"vehicle_type_id":"4","last_reported":1703326032,"current_range_meters":30000,"station_id":"ce4bhp12rcd13ifvqh9g","pricing_plan_id":"free"},{"bike_id":"b4adbb8e-0815-4bc7-8ae0-514396559daa","system_id":"levelo_inurba_marseille","lat":43.279742,"lon":5.38744,"is_reserved":false,"is_disabled":false,"rental_uris":{"android":"levelo://app?vid=b4adbb8e-0815-4bc7-8ae0-514396559daa","ios":"levelo://app?vid=b4adbb8e-0815-4bc7-8ae0-514396559daa"},"vehicle_type_id":"4","last_reported":1703326032,"current_range_meters":24000,"station_id":"ce4bhg12rcd13ifvqf80","pricing_plan_id":"free"},{"bike_id":"10122d25-aa99-48ef-b368-dd156589dbf6","system_id":"levelo_inurba_marseille","lat":43.292569,"lon":5.409107,"is_reserved":false,"is_disabled":false,"rental_uris":{"android":"levelo://app?vid=10122d25-aa99-48ef-b368-dd156589dbf6","ios":"levelo://app?vid=10122d25-aa99-48ef-b368-dd156589dbf6"},"vehicle_type_id":"4","last_reported":1703326032,"current_range_meters":400,"station_id":"ce4bh192rcd13ifvqdc0","pricing_plan_id":"free"},{"bike_id":"93bfab9c-e028-499d-81c2-9238ac1d0f98","system_id":"levelo_inurba_marseille","lat":43.303837,"lon":5.418724,"is_reserved":false,"is_disabled":false,"rental_uris":{"android":"levelo://app?vid=93bfab9c-e028-499d-81c2-9238ac1d0f98","ios":"levelo://app?vid=93bfab9c-e028-499d-81c2-9238ac1d0f98"},"vehicle_type_id":"4","last_reported":1703326032,"current_range_meters":27200,"station_id":"ce4bhop2rcd13ifvqh7g","pricing_plan_id":"free"},{"bike_id":"23a321f9-7f65-470f-9fce-32e9345de5d0","system_id":"levelo_inurba_marseille","lat":43.278373,"lon":5.392043,"is_reserved":false,"is_disabled":false,"rental_uris":{"android":"levelo://app?vid=23a321f9-7f65-470f-9fce-32e9345de5d0","ios":"levelo://app?vid=23a321f9-7f65-470f-9fce-32e9345de5d0"},"vehicle_type_id":"4","last_reported":1703326032,"current_range_meters":0,"station_id":"ce4bhjp2rcd13ifvqga0","pricing_plan_id":"free"},{"bike_id":"dccac3d0-7ee8-4398-b585-e92b30c7bfa7","system_id":"levelo_inurba_marseille","lat":43.278401,"lon":5.392152,"is_reserved":false,"is_disabled":false,"rental_uris":{"android":"levelo://app?vid=dccac3d0-7ee8-4398-b585-e92b30c7bfa7","ios":"levelo://app?vid=dccac3d0-7ee8-4398-b585-e92b30c7bfa7"},"vehicle_type_id":"4","last_reported":1703326032,"current_range_meters":30400,"station_id":"ce4bhjp2rcd13ifvqga0","pricing_plan_id":"free"},{"bike_id":"48cb72d6-5769-46dd-a4f2-54dfd0bfb283","system_id":"levelo_inurba_marseille","lat":43.273613,"lon":5.362705,"is_reserved":false,"is_disabled":false,"rental_uris":{"android":"levelo://app?vid=48cb72d6-5769-46dd-a4f2-54dfd0bfb283","ios":"levelo://app?vid=48cb72d6-5769-46dd-a4f2-54dfd0bfb283"},"vehicle_type_id":"4","last_reported":1703326032,"current_range_meters":29200,"station_id":"ce4bhbh2rcd13ifvqeo0","pricing_plan_id":"free"},{"bike_id":"94c9d4f5-6b18-47b3-ad90-046324148deb","system_id":"levelo_inurba_marseille","lat":43.273613,"lon":5.362705,"is_reserved":false,"is_disabled":false,"rental_uris":{"android":"levelo://app?vid=94c9d4f5-6b18-47b3-ad90-046324148deb","ios":"levelo://app?vid=94c9d4f5-6b18-47b3-ad90-046324148deb"},"vehicle_type_id":"4","last_reported":1703326032,"current_range_meters":15200,"station_id":"ce4bhbh2rcd13ifvqeo0","pricing_plan_id":"free"},{"bike_id":"70f066e6-571c-4653-9aea-29a16f12e919","system_id":"levelo_inurba_marseille","lat":43.273609,"lon":5.362708,"is_reserved":false,"is_disabled":false,"rental_uris":{"android":"levelo://app?vid=70f066e6-571c-4653-9aea-29a16f12e919","ios":"levelo://app?vid=70f066e6-571c-4653-9aea-29a16f12e919"},"vehicle_type_id":"4","last_reported":1703326032,"current_range_meters":6000,"station_id":"ce4bhbh2rcd13ifvqeo0","pricing_plan_id":"free"},{"bike_id":"e09a6d18-e62b-45bc-ba72-f8db6df2fcf5","system_id":"levelo_inurba_marseille","lat":43.273609,"lon":5.362708,"is_reserved":false,"is_disabled":false,"rental_uris":{"android":"levelo://app?vid=e09a6d18-e62b-45bc-ba72-f8db6df2fcf5","ios":"levelo://app?vid=e09a6d18-e62b-45bc-ba72-f8db6df2fcf5"},"vehicle_type_id":"4","last_reported":1703326032,"current_range_meters":31200,"station_id":"ce4bhbh2rcd13ifvqeo0","pricing_plan_id":"free"},{"bike_id":"c6ebeb5d-01e9-4eb0-a091-e416a5d04898","system_id":"levelo_inurba_marseille","lat":43.336134,"lon":5.410341,"is_reserved":false,"is_disabled":false,"rental_uris":{"android":"levelo://app?vid=c6ebeb5d-01e9-4eb0-a091-e416a5d04898","ios":"levelo://app?vid=c6ebeb5d-01e9-4eb0-a091-e416a5d04898"},"vehicle_type_id":"4","last_reported":1703326032,"current_range_meters":28400,"station_id":"ce4bhqh2rcd13ifvqhmg","pricing_plan_id":"free"},{"bike_id":"89dc93f5-fafe-4437-9a6c-0ca033a769f2","system_id":"levelo_inurba_marseille","lat":43.276769,"lon":5.388787,"is_reserved":false,"is_disabled":false,"rental_uris":{"android":"levelo://app?vid=89dc93f5-fafe-4437-9a6c-0ca033a769f2","ios":"levelo://app?vid=89dc93f5-fafe-4437-9a6c-0ca033a769f2"},"vehicle_type_id":"4","last_reported":1703326032,"current_range_meters":3200,"station_id":"ce4bhi12rcd13ifvqfo0","pricing_plan_id":"free"},{"bike_id":"358230c6-2f53-4c94-bd58-3ab03d16e35d","system_id":"levelo_inurba_marseille","lat":43.276769,"lon":5.388787,"is_reserved":false,"is_disabled":false,"rental_uris":{"android":"levelo://app?vid=358230c6-2f53-4c94-bd58-3ab03d16e35d","ios":"levelo://app?vid=358230c6-2f53-4c94-bd58-3ab03d16e35d"},"vehicle_type_id":"4","last_reported":1703326032,"current_range_meters":18800,"station_id":"ce4bhi12rcd13ifvqfo0","pricing_plan_id":"free"},{"bike_id":"6a72faea-4f57-4289-b2d7-493c224a4ca2","system_id":"levelo_inurba_marseille","lat":43.279952,"lon":5.400085,"is_reserved":false,"is_disabled":false,"rental_uris":{"android":"levelo://app?vid=6a72faea-4f57-4289-b2d7-493c224a4ca2","ios":"levelo://app?vid=6a72faea-4f57-4289-b2d7-493c224a4ca2"},"vehicle_type_id":"4","last_reported":1703326032,"current_range_meters":30000,"station_id":"ce4bho92rcd13ifvqh4g","pricing_plan_id":"free"},{"bike_id":"1a71dfdb-7dca-4fd3-82de-9c0aa3b39531","system_id":"levelo_inurba_marseille","lat":43.279952,"lon":5.400085,"is_reserved":false,"is_disabled":false,"rental_uris":{"android":"levelo://app?vid=1a71dfdb-7dca-4fd3-82de-9c0aa3b39531","ios":"levelo://app?vid=1a71dfdb-7dca-4fd3-82de-9c0aa3b39531"},"vehicle_type_id":"4","last_reported":1703326032,"current_range_meters":19600,"station_id":"ce4bho92rcd13ifvqh4g","pricing_plan_id":"free"},{"bike_id":"3f604ebc-8ff0-4bcb-a150-1bd7ed8ed2c4","system_id":"levelo_inurba_marseille","lat":43.279952,"lon":5.400085,"is_reserved":false,"is_disabled":false,"rental_uris":{"android":"levelo://app?vid=3f604ebc-8ff0-4bcb-a150-1bd7ed8ed2c4","ios":"levelo://app?vid=3f604ebc-8ff0-4bcb-a150-1bd7ed8ed2c4"},"vehicle_type_id":"4","last_reported":1703326032,"current_range_meters":26800,"station_id":"ce4bho92rcd13ifvqh4g","pricing_plan_id":"free"},{"bike_id":"9d8a300c-7356-461f-8e60-7c138328974e","system_id":"levelo_inurba_marseille","lat":43.317121,"lon":5.423936,"is_reserved":false,"is_disabled":false,"rental_uris":{"android":"levelo://app?vid=9d8a300c-7356-461f-8e60-7c138328974e","ios":"levelo://app?vid=9d8a300c-7356-461f-8e60-7c138328974e"},"vehicle_type_id":"4","last_reported":1703326032,"current_range_meters":29200,"station_id":"ce4bhp92rcd13ifvqhbg","pricing_plan_id":"free"},{"bike_id":"7c92ac06-9f8b-4771-8927-7d3efcae43ac","system_id":"levelo_inurba_marseille","lat":43.310785,"lon":5.424305,"is_reserved":false,"is_disabled":false,"rental_uris":{"android":"levelo://app?vid=7c92ac06-9f8b-4771-8927-7d3efcae43ac","ios":"levelo://app?vid=7c92ac06-9f8b-4771-8927-7d3efcae43ac"},"vehicle_type_id":"4","last_reported":1703326032,"current_range_meters":20400,"station_id":"ce4bhp92rcd13ifvqhag","pricing_plan_id":"free"},{"bike_id":"03c66dac-183d-4ff1-8500-aedc025d3ffc","system_id":"levelo_inurba_marseille","lat":43.340804,"lon":5.410219,"is_reserved":false,"is_disabled":false,"rental_uris":{"android":"levelo://app?vid=03c66dac-183d-4ff1-8500-aedc025d3ffc","ios":"levelo://app?vid=03c66dac-183d-4ff1-8500-aedc025d3ffc"},"vehicle_type_id":"4","last_reported":1703326032,"current_range_meters":29200,"station_id":"ce4bhqh2rcd13ifvqhlg","pricing_plan_id":"free"},{"bike_id":"1d616fea-919f-405e-955b-89b432eff435","system_id":"levelo_inurba_marseille","lat":43.273129,"lon":5.390725,"is_reserved":false,"is_disabled":false,"rental_uris":{"android":"levelo://app?vid=1d616fea-919f-405e-955b-89b432eff435","ios":"levelo://app?vid=1d616fea-919f-405e-955b-89b432eff435"},"vehicle_type_id":"4","last_reported":1703326032,"current_range_meters":25600,"station_id":"ce4bhgp2rcd13ifvqfe0","pricing_plan_id":"free"},{"bike_id":"6acb992e-1001-4ff9-8015-71ffdc5c41aa","system_id":"levelo_inurba_marseille","lat":43.295523,"lon":5.422926,"is_reserved":false,"is_disabled":false,"rental_uris":{"android":"levelo://app?vid=6acb992e-1001-4ff9-8015-71ffdc5c41aa","ios":"levelo://app?vid=6acb992e-1001-4ff9-8015-71ffdc5c41aa"},"vehicle_type_id":"4","last_reported":1703326032,"current_range_meters":20000,"station_id":"ce4bhph2rcd13ifvqhdg","pricing_plan_id":"free"},{"bike_id":"2d22651e-79a7-43d5-afd7-b746e22ebc5f","system_id":"levelo_inurba_marseille","lat":43.272124,"lon":5.391768,"is_reserved":false,"is_disabled":false,"rental_uris":{"android":"levelo://app?vid=2d22651e-79a7-43d5-afd7-b746e22ebc5f","ios":"levelo://app?vid=2d22651e-79a7-43d5-afd7-b746e22ebc5f"},"vehicle_type_id":"4","last_reported":1703326032,"current_range_meters":17600,"station_id":"ce4bhhp2rcd13ifvqfm0","pricing_plan_id":"free"},{"bike_id":"f154ab0f-6b08-49b5-b768-f9ddc9355c68","system_id":"levelo_inurba_marseille","lat":43.272124,"lon":5.391768,"is_reserved":false,"is_disabled":false,"rental_uris":{"android":"levelo://app?vid=f154ab0f-6b08-49b5-b768-f9ddc9355c68","ios":"levelo://app?vid=f154ab0f-6b08-49b5-b768-f9ddc9355c68"},"vehicle_type_id":"4","last_reported":1703326032,"current_range_meters":21200,"station_id":"ce4bhhp2rcd13ifvqfm0","pricing_plan_id":"free"},{"bike_id":"9edeb125-4a61-40a8-b93c-7fe71ab8d038","system_id":"levelo_inurba_marseille","lat":43.269467,"lon":5.386439,"is_reserved":false,"is_disabled":false,"rental_uris":{"android":"levelo://app?vid=9edeb125-4a61-40a8-b93c-7fe71ab8d038","ios":"levelo://app?vid=9edeb125-4a61-40a8-b93c-7fe71ab8d038"},"vehicle_type_id":"4","last_reported":1703326032,"current_range_meters":28400,"station_id":"ce4bhh92rcd13ifvqfh0","pricing_plan_id":"free"},{"bike_id":"c9a7ed6b-e238-4e9b-8737-c591b4677da8","system_id":"levelo_inurba_marseille","lat":43.269467,"lon":5.386439,"is_reserved":false,"is_disabled":false,"rental_uris":{"android":"levelo://app?vid=c9a7ed6b-e238-4e9b-8737-c591b4677da8","ios":"levelo://app?vid=c9a7ed6b-e238-4e9b-8737-c591b4677da8"},"vehicle_type_id":"4","last_reported":1703326032,"current_range_meters":21200,"station_id":"ce4bhh92rcd13ifvqfh0","pricing_plan_id":"free"},{"bike_id":"5a5ac261-9383-48c6-aae2-bc4a8af2166e","system_id":"levelo_inurba_marseille","lat":43.279465,"lon":5.410561,"is_reserved":false,"is_disabled":false,"rental_uris":{"android":"levelo://app?vid=5a5ac261-9383-48c6-aae2-bc4a8af2166e","ios":"levelo://app?vid=5a5ac261-9383-48c6-aae2-bc4a8af2166e"},"vehicle_type_id":"4","last_reported":1703326032,"current_range_meters":26000,"station_id":"ce4bhnp2rcd13ifvqh0g","pricing_plan_id":"free"},{"bike_id":"d80d28d4-33ac-48bd-a703-0607e3c3611a","system_id":"levelo_inurba_marseille","lat":43.279465,"lon":5.410561,"is_reserved":false,"is_disabled":false,"rental_uris":{"android":"levelo://app?vid=d80d28d4-33ac-48bd-a703-0607e3c3611a","ios":"levelo://app?vid=d80d28d4-33ac-48bd-a703-0607e3c3611a"},"vehicle_type_id":"4","last_reported":1703326032,"current_range_meters":400,"station_id":"ce4bhnp2rcd13ifvqh0g","pricing_plan_id":"free"},{"bike_id":"6965e81e-41c1-4439-8294-0afad852a221","system_id":"levelo_inurba_marseille","lat":43.269319,"lon":5.389397,"is_reserved":false,"is_disabled":false,"rental_uris":{"android":"levelo://app?vid=6965e81e-41c1-4439-8294-0afad852a221","ios":"levelo://app?vid=6965e81e-41c1-4439-8294-0afad852a221"},"vehicle_type_id":"4","last_reported":1703326032,"current_range_meters":29600,"station_id":"ce4bhhh2rcd13ifvqfl0","pricing_plan_id":"free"},{"bike_id":"7054c6bb-3bb4-47bf-bd9a-0d6e2296f680","system_id":"levelo_inurba_marseille","lat":43.269319,"lon":5.389397,"is_reserved":false,"is_disabled":false,"rental_uris":{"android":"levelo://app?vid=7054c6bb-3bb4-47bf-bd9a-0d6e2296f680","ios":"levelo://app?vid=7054c6bb-3bb4-47bf-bd9a-0d6e2296f680"},"vehicle_type_id":"4","last_reported":1703326032,"current_range_meters":10400,"station_id":"ce4bhhh2rcd13ifvqfl0","pricing_plan_id":"free"},{"bike_id":"e29cc4bf-17bb-4255-8bcb-1952ba7ecdbe","system_id":"levelo_inurba_marseille","lat":43.267966,"lon":5.393976,"is_reserved":false,"is_disabled":false,"rental_uris":{"android":"levelo://app?vid=e29cc4bf-17bb-4255-8bcb-1952ba7ecdbe","ios":"levelo://app?vid=e29cc4bf-17bb-4255-8bcb-1952ba7ecdbe"},"vehicle_type_id":"4","last_reported":1703326032,"current_range_meters":28800,"station_id":"ce4bhh12rcd13ifvqfg0","pricing_plan_id":"free"},{"bike_id":"8a8118d2-1be5-4451-b2d9-0ba1321b8f2d","system_id":"levelo_inurba_marseille","lat":43.28001,"lon":5.41659,"is_reserved":false,"is_disabled":false,"rental_uris":{"android":"levelo://app?vid=8a8118d2-1be5-4451-b2d9-0ba1321b8f2d","ios":"levelo://app?vid=8a8118d2-1be5-4451-b2d9-0ba1321b8f2d"},"vehicle_type_id":"4","last_reported":1703326032,"current_range_meters":10000,"station_id":"ce4bho12rcd13ifvqh1g","pricing_plan_id":"free"},{"bike_id":"578e6a1b-ec12-4f0b-970b-cd32f0b23ad9","system_id":"levelo_inurba_marseille","lat":43.267966,"lon":5.393976,"is_reserved":false,"is_disabled":false,"rental_uris":{"android":"levelo://app?vid=578e6a1b-ec12-4f0b-970b-cd32f0b23ad9","ios":"levelo://app?vid=578e6a1b-ec12-4f0b-970b-cd32f0b23ad9"},"vehicle_type_id":"4","last_reported":1703326032,"current_range_meters":28000,"station_id":"ce4bhh12rcd13ifvqfg0","pricing_plan_id":"free"},{"bike_id":"7dbab88e-f24e-4f52-9d01-769ec1c71328","system_id":"levelo_inurba_marseille","lat":43.308051,"lon":5.43527,"is_reserved":false,"is_disabled":false,"rental_uris":{"android":"levelo://app?vid=7dbab88e-f24e-4f52-9d01-769ec1c71328","ios":"levelo://app?vid=7dbab88e-f24e-4f52-9d01-769ec1c71328"},"vehicle_type_id":"4","last_reported":1703326032,"current_range_meters":27600,"station_id":"ce4bhph2rcd13ifvqheg","pricing_plan_id":"free"},{"bike_id":"ef3a5473-7174-4996-9020-1194bf042c64","system_id":"levelo_inurba_marseille","lat":43.261782,"lon":5.374515,"is_reserved":false,"is_disabled":false,"rental_uris":{"android":"levelo://app?vid=ef3a5473-7174-4996-9020-1194bf042c64","ios":"levelo://app?vid=ef3a5473-7174-4996-9020-1194bf042c64"},"vehicle_type_id":"4","last_reported":1703326032,"current_range_meters":11200,"station_id":"ce4bhgp2rcd13ifvqfc0","pricing_plan_id":"free"},{"bike_id":"860ed095-4cf8-4171-b135-647804ff1498","system_id":"levelo_inurba_marseille","lat":43.261782,"lon":5.374515,"is_reserved":false,"is_disabled":false,"rental_uris":{"android":"levelo://app?vid=860ed095-4cf8-4171-b135-647804ff1498","ios":"levelo://app?vid=860ed095-4cf8-4171-b135-647804ff1498"},"vehicle_type_id":"4","last_reported":1703326032,"current_range_meters":29600,"station_id":"ce4bhgp2rcd13ifvqfc0","pricing_plan_id":"free"},{"bike_id":"2ab760ab-1ce4-4053-bf1d-01c54f84882d","system_id":"levelo_inurba_marseille","lat":43.261782,"lon":5.374515,"is_reserved":false,"is_disabled":false,"rental_uris":{"android":"levelo://app?vid=2ab760ab-1ce4-4053-bf1d-01c54f84882d","ios":"levelo://app?vid=2ab760ab-1ce4-4053-bf1d-01c54f84882d"},"vehicle_type_id":"4","last_reported":1703326032,"current_range_meters":4000,"station_id":"ce4bhgp2rcd13ifvqfc0","pricing_plan_id":"free"},{"bike_id":"f2937d21-e2a5-4557-85ff-29184a73d3bf","system_id":"levelo_inurba_marseille","lat":43.26185,"lon":5.37441,"is_reserved":false,"is_disabled":false,"rental_uris":{"android":"levelo://app?vid=f2937d21-e2a5-4557-85ff-29184a73d3bf","ios":"levelo://app?vid=f2937d21-e2a5-4557-85ff-29184a73d3bf"},"vehicle_type_id":"4","last_reported":1703326032,"current_range_meters":28400,"station_id":"ce4bhgp2rcd13ifvqfc0","pricing_plan_id":"free"},{"bike_id":"9ae51110-6160-4830-8874-7193cd37da3a","system_id":"levelo_inurba_marseille","lat":43.261782,"lon":5.374515,"is_reserved":false,"is_disabled":false,"rental_uris":{"android":"levelo://app?vid=9ae51110-6160-4830-8874-7193cd37da3a","ios":"levelo://app?vid=9ae51110-6160-4830-8874-7193cd37da3a"},"vehicle_type_id":"4","last_reported":1703326032,"current_range_meters":21600,"station_id":"ce4bhgp2rcd13ifvqfc0","pricing_plan_id":"free"},{"bike_id":"40273045-01d7-47dc-b8f7-4d8ff927b15c","system_id":"levelo_inurba_marseille","lat":43.261848,"lon":5.374417,"is_reserved":false,"is_disabled":false,"rental_uris":{"android":"levelo://app?vid=40273045-01d7-47dc-b8f7-4d8ff927b15c","ios":"levelo://app?vid=40273045-01d7-47dc-b8f7-4d8ff927b15c"},"vehicle_type_id":"4","last_reported":1703326032,"current_range_meters":28000,"station_id":"ce4bhgp2rcd13ifvqfc0","pricing_plan_id":"free"},{"bike_id":"9a22b759-cb02-4a9f-b32d-4de2997c4531","system_id":"levelo_inurba_marseille","lat":43.317104,"lon":5.436818,"is_reserved":false,"is_disabled":false,"rental_uris":{"android":"levelo://app?vid=9a22b759-cb02-4a9f-b32d-4de2997c4531","ios":"levelo://app?vid=9a22b759-cb02-4a9f-b32d-4de2997c4531"},"vehicle_type_id":"4","last_reported":1703326032,"current_range_meters":0,"station_id":"ce4bhp92rcd13ifvqhcg","pricing_plan_id":"free"},{"bike_id":"3c97a8a7-622c-4d01-a316-783cde5fc7f9","system_id":"levelo_inurba_marseille","lat":43.317104,"lon":5.436818,"is_reserved":false,"is_disabled":false,"rental_uris":{"android":"levelo://app?vid=3c97a8a7-622c-4d01-a316-783cde5fc7f9","ios":"levelo://app?vid=3c97a8a7-622c-4d01-a316-783cde5fc7f9"},"vehicle_type_id":"4","last_reported":1703326032,"current_range_meters":25200,"station_id":"ce4bhp92rcd13ifvqhcg","pricing_plan_id":"free"},{"bike_id":"a36e5938-cfe7-4a1e-b899-9e1c72d03485","system_id":"levelo_inurba_marseille","lat":43.317104,"lon":5.436818,"is_reserved":false,"is_disabled":false,"rental_uris":{"android":"levelo://app?vid=a36e5938-cfe7-4a1e-b899-9e1c72d03485","ios":"levelo://app?vid=a36e5938-cfe7-4a1e-b899-9e1c72d03485"},"vehicle_type_id":"4","last_reported":1703326032,"current_range_meters":5600,"station_id":"ce4bhp92rcd13ifvqhcg","pricing_plan_id":"free"},{"bike_id":"7fbe02a0-b05d-40e2-885a-21861b971e54","system_id":"levelo_inurba_marseille","lat":43.317104,"lon":5.436818,"is_reserved":false,"is_disabled":false,"rental_uris":{"android":"levelo://app?vid=7fbe02a0-b05d-40e2-885a-21861b971e54","ios":"levelo://app?vid=7fbe02a0-b05d-40e2-885a-21861b971e54"},"vehicle_type_id":"4","last_reported":1703326032,"current_range_meters":8400,"station_id":"ce4bhp92rcd13ifvqhcg","pricing_plan_id":"free"},{"bike_id":"cb3bedef-14c4-4d98-84e3-b4d224805958","system_id":"levelo_inurba_marseille","lat":43.271368,"lon":5.40928,"is_reserved":false,"is_disabled":false,"rental_uris":{"android":"levelo://app?vid=cb3bedef-14c4-4d98-84e3-b4d224805958","ios":"levelo://app?vid=cb3bedef-14c4-4d98-84e3-b4d224805958"},"vehicle_type_id":"4","last_reported":1703326032,"current_range_meters":29200,"station_id":"ce4bhl12rcd13ifvqgf0","pricing_plan_id":"free"},{"bike_id":"4d826bbb-48ed-41d0-a8b7-11c02b0446ec","system_id":"levelo_inurba_marseille","lat":43.262012,"lon":5.379307,"is_reserved":false,"is_disabled":false,"rental_uris":{"android":"levelo://app?vid=4d826bbb-48ed-41d0-a8b7-11c02b0446ec","ios":"levelo://app?vid=4d826bbb-48ed-41d0-a8b7-11c02b0446ec"},"vehicle_type_id":"4","last_reported":1703326032,"current_range_meters":27600,"station_id":"ce4bhjp2rcd13ifvqg90","pricing_plan_id":"free"},{"bike_id":"de265f19-a4ff-4c37-8a5b-17cd374ae327","system_id":"levelo_inurba_marseille","lat":43.26202,"lon":5.379299,"is_reserved":false,"is_disabled":false,"rental_uris":{"android":"levelo://app?vid=de265f19-a4ff-4c37-8a5b-17cd374ae327","ios":"levelo://app?vid=de265f19-a4ff-4c37-8a5b-17cd374ae327"},"vehicle_type_id":"4","last_reported":1703326032,"current_range_meters":26000,"station_id":"ce4bhjp2rcd13ifvqg90","pricing_plan_id":"free"},{"bike_id":"ecded0b1-26e9-4178-868a-0ff40f1e2ee0","system_id":"levelo_inurba_marseille","lat":43.271388,"lon":5.409269,"is_reserved":false,"is_disabled":false,"rental_uris":{"android":"levelo://app?vid=ecded0b1-26e9-4178-868a-0ff40f1e2ee0","ios":"levelo://app?vid=ecded0b1-26e9-4178-868a-0ff40f1e2ee0"},"vehicle_type_id":"4","last_reported":1703326032,"current_range_meters":31600,"station_id":"ce4bhl12rcd13ifvqgf0","pricing_plan_id":"free"},{"bike_id":"301ba89b-ba2b-4bb9-8410-1927ee00234d","system_id":"levelo_inurba_marseille","lat":43.271388,"lon":5.409269,"is_reserved":false,"is_disabled":false,"rental_uris":{"android":"levelo://app?vid=301ba89b-ba2b-4bb9-8410-1927ee00234d","ios":"levelo://app?vid=301ba89b-ba2b-4bb9-8410-1927ee00234d"},"vehicle_type_id":"4","last_reported":1703326032,"current_range_meters":21200,"station_id":"ce4bhl12rcd13ifvqgf0","pricing_plan_id":"free"},{"bike_id":"54157858-3928-4161-8d2f-c2d2265e4b4d","system_id":"levelo_inurba_marseille","lat":43.26202,"lon":5.379299,"is_reserved":false,"is_disabled":false,"rental_uris":{"android":"levelo://app?vid=54157858-3928-4161-8d2f-c2d2265e4b4d","ios":"levelo://app?vid=54157858-3928-4161-8d2f-c2d2265e4b4d"},"vehicle_type_id":"4","last_reported":1703326032,"current_range_meters":17600,"station_id":"ce4bhjp2rcd13ifvqg90","pricing_plan_id":"free"},{"bike_id":"b266dc45-379e-44a7-93b3-516166020790","system_id":"levelo_inurba_marseille","lat":43.267959,"lon":5.402687,"is_reserved":false,"is_disabled":false,"rental_uris":{"android":"levelo://app?vid=b266dc45-379e-44a7-93b3-516166020790","ios":"levelo://app?vid=b266dc45-379e-44a7-93b3-516166020790"},"vehicle_type_id":"4","last_reported":1703326032,"current_range_meters":28000,"station_id":"ce501612rcd8frsf0b60","pricing_plan_id":"free"},{"bike_id":"394212ae-5c87-4cd5-a521-966f90ae8f5c","system_id":"levelo_inurba_marseille","lat":43.2651,"lon":5.39469,"is_reserved":false,"is_disabled":false,"rental_uris":{"android":"levelo://app?vid=394212ae-5c87-4cd5-a521-966f90ae8f5c","ios":"levelo://app?vid=394212ae-5c87-4cd5-a521-966f90ae8f5c"},"vehicle_type_id":"4","last_reported":1703326032,"current_range_meters":20800,"station_id":"ce4bhi12rcd13ifvqfq0","pricing_plan_id":"free"},{"bike_id":"0131924d-5605-48f3-988f-22a5f29a2c50","system_id":"levelo_inurba_marseille","lat":43.298768,"lon":5.43643,"is_reserved":false,"is_disabled":false,"rental_uris":{"android":"levelo://app?vid=0131924d-5605-48f3-988f-22a5f29a2c50","ios":"levelo://app?vid=0131924d-5605-48f3-988f-22a5f29a2c50"},"vehicle_type_id":"4","last_reported":1703326032,"current_range_meters":27600,"station_id":"ce4bhpp2rcd13ifvqhfg","pricing_plan_id":"free"},{"bike_id":"fdd518fb-6984-438e-be40-40f493cf1c97","system_id":"levelo_inurba_marseille","lat":43.298768,"lon":5.43643,"is_reserved":false,"is_disabled":false,"rental_uris":{"android":"levelo://app?vid=fdd518fb-6984-438e-be40-40f493cf1c97","ios":"levelo://app?vid=fdd518fb-6984-438e-be40-40f493cf1c97"},"vehicle_type_id":"4","last_reported":1703326032,"current_range_meters":14800,"station_id":"ce4bhpp2rcd13ifvqhfg","pricing_plan_id":"free"},{"bike_id":"214220a7-f28d-460f-800d-b8971d7d6b49","system_id":"levelo_inurba_marseille","lat":43.260225,"lon":5.375455,"is_reserved":false,"is_disabled":false,"rental_uris":{"android":"levelo://app?vid=214220a7-f28d-460f-800d-b8971d7d6b49","ios":"levelo://app?vid=214220a7-f28d-460f-800d-b8971d7d6b49"},"vehicle_type_id":"4","last_reported":1703326032,"current_range_meters":26800,"station_id":"ce4bhgh2rcd13ifvqfa0","pricing_plan_id":"free"},{"bike_id":"a202141c-86fb-45a5-abf0-dbdf8ae02336","system_id":"levelo_inurba_marseille","lat":43.260225,"lon":5.375455,"is_reserved":false,"is_disabled":false,"rental_uris":{"android":"levelo://app?vid=a202141c-86fb-45a5-abf0-dbdf8ae02336","ios":"levelo://app?vid=a202141c-86fb-45a5-abf0-dbdf8ae02336"},"vehicle_type_id":"4","last_reported":1703326032,"current_range_meters":19200,"station_id":"ce4bhgh2rcd13ifvqfa0","pricing_plan_id":"free"},{"bike_id":"68bf5348-716b-4b6e-aaf3-3e6f5e38c2c0","system_id":"levelo_inurba_marseille","lat":43.260219,"lon":5.37546,"is_reserved":false,"is_disabled":false,"rental_uris":{"android":"levelo://app?vid=68bf5348-716b-4b6e-aaf3-3e6f5e38c2c0","ios":"levelo://app?vid=68bf5348-716b-4b6e-aaf3-3e6f5e38c2c0"},"vehicle_type_id":"4","last_reported":1703326032,"current_range_meters":24400,"station_id":"ce4bhgh2rcd13ifvqfa0","pricing_plan_id":"free"},{"bike_id":"38e59a38-c07b-419e-ba7e-a14462cf1ce6","system_id":"levelo_inurba_marseille","lat":43.281548,"lon":5.42643,"is_reserved":false,"is_disabled":false,"rental_uris":{"android":"levelo://app?vid=38e59a38-c07b-419e-ba7e-a14462cf1ce6","ios":"levelo://app?vid=38e59a38-c07b-419e-ba7e-a14462cf1ce6"},"vehicle_type_id":"4","last_reported":1703326032,"current_range_meters":12800,"station_id":"ce4bhnh2rcd13ifvqgug","pricing_plan_id":"free"},{"bike_id":"3f98ceb0-ff8d-41e5-bfa3-fe4e6030b233","system_id":"levelo_inurba_marseille","lat":43.275028,"lon":5.424534,"is_reserved":false,"is_disabled":false,"rental_uris":{"android":"levelo://app?vid=3f98ceb0-ff8d-41e5-bfa3-fe4e6030b233","ios":"levelo://app?vid=3f98ceb0-ff8d-41e5-bfa3-fe4e6030b233"},"vehicle_type_id":"4","last_reported":1703326032,"current_range_meters":24800,"station_id":"ce4bhn92rcd13ifvqgrg","pricing_plan_id":"free"},{"bike_id":"6c1ba34a-50a2-41c8-b3f5-c421382a9b31","system_id":"levelo_inurba_marseille","lat":43.255756,"lon":5.382303,"is_reserved":false,"is_disabled":false,"rental_uris":{"android":"levelo://app?vid=6c1ba34a-50a2-41c8-b3f5-c421382a9b31","ios":"levelo://app?vid=6c1ba34a-50a2-41c8-b3f5-c421382a9b31"},"vehicle_type_id":"4","last_reported":1703326032,"current_range_meters":1200,"station_id":"ce4bhih2rcd13ifvqfs0","pricing_plan_id":"free"},{"bike_id":"1ca8ef8f-14c1-4855-884c-6bd7b4c05c5c","system_id":"levelo_inurba_marseille","lat":43.255756,"lon":5.382303,"is_reserved":false,"is_disabled":false,"rental_uris":{"android":"levelo://app?vid=1ca8ef8f-14c1-4855-884c-6bd7b4c05c5c","ios":"levelo://app?vid=1ca8ef8f-14c1-4855-884c-6bd7b4c05c5c"},"vehicle_type_id":"4","last_reported":1703326032,"current_range_meters":19200,"station_id":"ce4bhih2rcd13ifvqfs0","pricing_plan_id":"free"},{"bike_id":"9fb366d4-7858-47f3-bbc5-8b1543fc81c1","system_id":"levelo_inurba_marseille","lat":43.255756,"lon":5.382303,"is_reserved":false,"is_disabled":false,"rental_uris":{"android":"levelo://app?vid=9fb366d4-7858-47f3-bbc5-8b1543fc81c1","ios":"levelo://app?vid=9fb366d4-7858-47f3-bbc5-8b1543fc81c1"},"vehicle_type_id":"4","last_reported":1703326032,"current_range_meters":10800,"station_id":"ce4bhih2rcd13ifvqfs0","pricing_plan_id":"free"},{"bike_id":"71723388-76dd-4aa8-9247-9322f29121a7","system_id":"levelo_inurba_marseille","lat":43.255756,"lon":5.382303,"is_reserved":false,"is_disabled":false,"rental_uris":{"android":"levelo://app?vid=71723388-76dd-4aa8-9247-9322f29121a7","ios":"levelo://app?vid=71723388-76dd-4aa8-9247-9322f29121a7"},"vehicle_type_id":"4","last_reported":1703326032,"current_range_meters":28000,"station_id":"ce4bhih2rcd13ifvqfs0","pricing_plan_id":"free"},{"bike_id":"0c52991a-4c3b-4460-8029-3381555e4944","system_id":"levelo_inurba_marseille","lat":43.255756,"lon":5.382303,"is_reserved":false,"is_disabled":false,"rental_uris":{"android":"levelo://app?vid=0c52991a-4c3b-4460-8029-3381555e4944","ios":"levelo://app?vid=0c52991a-4c3b-4460-8029-3381555e4944"},"vehicle_type_id":"4","last_reported":1703326032,"current_range_meters":31200,"station_id":"ce4bhih2rcd13ifvqfs0","pricing_plan_id":"free"},