{"last_updated":1729644279,"ttl":60,"version":"2.2","data":{"bikes":[{"bike_id":"27cc9b75-cb7e-4967-8b8f-0b45c1553f40","system_id":"levelo_inurba_marseille","lat":43.26498,"lon":5.39546,"is_reserved":false,"is_disabled":false,"rental_uris":{"android":"levelo://app?vid=27cc9b75-cb7e-4967-8b8f-0b45c1553f40","ios":"levelo://app?vid=27cc9b75-cb7e-4967-8b8f-0b45c1553f40"},"vehicle_type_id":"4","last_reported":1729644279,"current_range_meters":38800,"station_id":"ce4bhi12rcd13ifvqfq0","pricing_plan_id":"cebpf4jnsgd1na2vs0mg"},{"bike_id":"11ccf416-c1d9-4262-8dd3-89177c85c473","system_id":"levelo_inurba_marseille","lat":43.30252,"lon":5.40069,"is_reserved":false,"is_disabled":false,"rental_uris":{"android":"levelo://app?vid=11ccf416-c1d9-4262-8dd3-89177c85c473","ios":"levelo://app?vid=11ccf416-c1d9-4262-8dd3-89177c85c473"},"vehicle_type_id":"4","last_reported":1729644279,"current_range_meters":36800,"station_id":"ce4bgvh2rcd13ifvqcs0","pricing_plan_id":"cebpf4jnsgd1na2vs0mg"},{"bike_id":"94505a83-b206-4db0-aff0-8f5678e8c521","system_id":"levelo_inurba_marseille","lat":43.2408,"lon":5.3776,"is_reserved":false,"is_disabled":false,"rental_uris":{"android":"levelo://app?vid=94505a83-b206-4db0-aff0-8f5678e8c521","ios":"levelo://app?vid=94505a83-b206-4db0-aff0-8f5678e8c521"},"vehicle_type_id":"4","last_reported":1729644279,"current_range_meters":20400,"station_id":"ce4bhnp2rcd13ifvqgvg","pricing_plan_id":"cebpf4jnsgd1na2vs0mg"},{"bike_id":"b9ecac44-b147-4789-a436-4604efd23300","system_id":"levelo_inurba_marseille","lat":43.30954,"lon":5.39034,"is_reserved":false,"is_disabled":false,"rental_uris":{"android":"levelo://app?vid=b9ecac44-b147-4789-a436-4604efd23300","ios":"levelo://app?vid=b9ecac44-b147-4789-a436-4604efd23300"},"vehicle_type_id":"4","last_reported":1729644279,"current_range_meters":38800,"station_id":"ce4bgup2rcd13ifvqco0","pricing_plan_id":"cebpf4jnsgd1na2vs0mg"},{"bike_id":"5994a573-9be3-44fa-b34b-852648ccf703","system_id":"levelo_inurba_marseille","lat":43.30941,"lon":5.40146,"is_reserved":false,"is_disabled":false,"rental_uris":{"android":"levelo://app?vid=5994a573-9be3-44fa-b34b-852648ccf703","ios":"levelo://app?vid=5994a573-9be3-44fa-b34b-852648ccf703"},"vehicle_type_id":"4","last_reported":1729644279,"current_range_meters":9600,"station_id":"ce4bgvp2rcd13ifvqct0","pricing_plan_id":"cebpf4jnsgd1na2vs0mg"},{"bike_id":"1e912b40-cf78-4faf-8d8c-8c2a5afe1993","system_id":"levelo_inurba_marseille","lat":43.27063,"lon":5.4025,"is_reserved":false,"is_disabled":false,"rental_uris":{"android":"levelo://app?vid=1e912b40-cf78-4faf-8d8c-8c2a5afe1993","ios":"levelo://app?vid=1e912b40-cf78-4faf-8d8c-8c2a5afe1993"},"vehicle_type_id":"4","last_reported":1729644279,"current_range_meters":38800,"station_id":"ce4bhk92rcd13ifvqgc0","pricing_plan_id":"cebpf4jnsgd1na2vs0mg"},{"bike_id":"50f1ec05-4d59-4332-8aca-ecfd573a5bf5","system_id":"levelo_inurba_marseille","lat":43.27072,"lon":5.42277,"is_reserved":false,"is_disabled":false,"rental_uris":{"android":"levelo://app?vid=50f1ec05-4d59-4332-8aca-ecfd573a5bf5","ios":"levelo://app?vid=50f1ec05-4d59-4332-8aca-ecfd573a5bf5"},"vehicle_type_id":"4","last_reported":1729644279,"current_range_meters":38800,"station_id":"ce4bhk92rcd13ifvqgb0","pricing_plan_id":"cebpf4jnsgd1na2vs0mg"},{"bike_id":"9cc36ff7-36c3-4b6a-b7f4-32aadb585645","system_id":"levelo_inurba_marseille","lat":43.30553,"lon":5.38429,"is_reserved":false,"is_disabled":false,"rental_uris":{"android":"levelo://app?vid=9cc36ff7-36c3-4b6a-b7f4-32aadb585645","ios":"levelo://app?vid=9cc36ff7-36c3-4b6a-b7f4-32aadb585645"},"vehicle_type_id":"4","last_reported":1729644279,"current_range_meters":32000,"station_id":"ce4bgg92rcd13ifvqb30","pricing_plan_id":"cebpf4jnsgd1na2vs0mg"},{"bike_id":"e7b88467-f82c-4878-8e2d-6946ae5bca53","system_id":"levelo_inurba_marseille","lat":43.31112,"lon":5.37772,"is_reserved":false,"is_disabled":false,"rental_uris":{"android":"levelo://app?vid=e7b88467-f82c-4878-8e2d-6946ae5bca53","ios":"levelo://app?vid=e7b88467-f82c-4878-8e2d-6946ae5bca53"},"vehicle_type_id":"4","last_reported":1729644279,"current_range_meters":30800,"station_id":"ce4bgt92rcd13ifvqcg0","pricing_plan_id":"cebpf4jnsgd1na2vs0mg"},{"bike_id":"b149ce4e-51e1-44d1-a677-e09dc3311ba7","system_id":"levelo_inurba_marseille","lat":43.24386,"lon":5.37052,"is_reserved":false,"is_disabled":false,"rental_uris":{"android":"levelo://app?vid=b149ce4e-51e1-44d1-a677-e09dc3311ba7","ios":"levelo://app?vid=b149ce4e-51e1-44d1-a677-e09dc3311ba7"},"vehicle_type_id":"4","last_reported":1729644279,"current_range_meters":38800,"station_id":"ce4bhhh2rcd13ifvqfk0","pricing_plan_id":"cebpf4jnsgd1na2vs0mg"},{"bike_id":"b4cc9679-1889-4d52-9d59-6fc564d9e1c9","system_id":"levelo_inurba_marseille","lat":43.2439,"lon":5.37059,"is_reserved":false,"is_disabled":false,"rental_uris":{"android":"levelo://app?vid=b4cc9679-1889-4d52-9d59-6fc564d9e1c9","ios":"levelo://app?vid=b4cc9679-1889-4d52-9d59-6fc564d9e1c9"},"vehicle_type_id":"4","last_reported":1729644279,"current_range_meters":30400,"station_id":"ce4bhhh2rcd13ifvqfk0","pricing_plan_id":"cebpf4jnsgd1na2vs0mg"},{"bike_id":"a581c9ee-de6c-4ca2-adce-d873a10f1b7c","system_id":"levelo_inurba_marseille","lat":43.24081,"lon":5.37752,"is_reserved":false,"is_disabled":false,"rental_uris":{"android":"levelo://app?vid=a581c9ee-de6c-4ca2-adce-d873a10f1b7c","ios":"levelo://app?vid=a581c9ee-de6c-4ca2-adce-d873a10f1b7c"},"vehicle_type_id":"4","last_reported":1729644279,"current_range_meters":19600,"station_id":"ce4bhnp2rcd13ifvqgvg","pricing_plan_id":"cebpf4jnsgd1na2vs0mg"},{"bike_id":"d0c683a0-3db7-48bb-b493-190a455e3a59","system_id":"levelo_inurba_marseille","lat":43.28703,"lon":5.37377,"is_reserved":false,"is_disabled":false,"rental_uris":{"android":"levelo://app?vid=d0c683a0-3db7-48bb-b493-190a455e3a59","ios":"levelo://app?vid=d0c683a0-3db7-48bb-b493-190a455e3a59"},"vehicle_type_id":"4","last_reported":1729644279,"current_range_meters":38000,"station_id":"ce4bh3p2rcd13ifvqdq0","pricing_plan_id":"cebpf4jnsgd1na2vs0mg"},{"bike_id":"29e33d02-f85a-4d17-be65-24241968e69c","system_id":"levelo_inurba_marseille","lat":43.23961,"lon":5.36627,"is_reserved":false,"is_disabled":false,"rental_uris":{"android":"levelo://app?vid=29e33d02-f85a-4d17-be65-24241968e69c","ios":"levelo://app?vid=29e33d02-f85a-4d17-be65-24241968e69c"},"vehicle_type_id":"4","last_reported":1729644279,"current_range_meters":38800,"station_id":"ce4bhi12rcd13ifvqfp0","pricing_plan_id":"cebpf4jnsgd1na2vs0mg"},{"bike_id":"805cfe84-6c40-4457-8351-8acae9924808","system_id":"levelo_inurba_marseille","lat":43.29884,"lon":5.39738,"is_reserved":false,"is_disabled":false,"rental_uris":{"android":"levelo://app?vid=805cfe84-6c40-4457-8351-8acae9924808","ios":"levelo://app?vid=805cfe84-6c40-4457-8351-8acae9924808"},"vehicle_type_id":"4","last_reported":1729644279,"current_range_meters":17600,"station_id":"ce4bh0h2rcd13ifvqd50","pricing_plan_id":"cebpf4jnsgd1na2vs0mg"},{"bike_id":"f959c94a-3644-4ed9-b7ed-65e914e837b3","system_id":"levelo_inurba_marseille","lat":43.31327,"lon":5.39692,"is_reserved":false,"is_disabled":false,"rental_uris":{"android":"levelo://app?vid=f959c94a-3644-4ed9-b7ed-65e914e837b3","ios":"levelo://app?vid=f959c94a-3644-4ed9-b7ed-65e914e837b3"},"vehicle_type_id":"4","last_reported":1729644279,"current_range_meters":38800,"station_id":"ce4bgvp2rcd13ifvqcu0","pricing_plan_id":"cebpf4jnsgd1na2vs0mg"},{"bike_id":"07ad74c8-33dd-400f-8d29-606d70e37998","system_id":"levelo_inurba_marseille","lat":43.29794,"lon":5.37102,"is_reserved":false,"is_disabled":false,"rental_uris":{"android":"levelo://app?vid=07ad74c8-33dd-400f-8d29-606d70e37998","ios":"levelo://app?vid=07ad74c8-33dd-400f-8d29-606d70e37998"},"vehicle_type_id":"4","last_reported":1729644279,"current_range_meters":38800,"station_id":"ce4bgop2rcd13ifvqc1g","pricing_plan_id":"cebpf4jnsgd1na2vs0mg"},{"bike_id":"6429c5ab-58df-44e3-81a8-3cef3c5f2436","system_id":"levelo_inurba_marseille","lat":43.31712,"lon":5.37765,"is_reserved":false,"is_disabled":false,"rental_uris":{"android":"levelo://app?vid=6429c5ab-58df-44e3-81a8-3cef3c5f2436","ios":"levelo://app?vid=6429c5ab-58df-44e3-81a8-3cef3c5f2436"},"vehicle_type_id":"4","last_reported":1729644279,"current_range_meters":38800,"station_id":"ce4bgth2rcd13ifvqch0","pricing_plan_id":"cebpf4jnsgd1na2vs0mg"},{"bike_id":"36457585-76d5-4b59-841a-76c5eee5d7f6","system_id":"levelo_inurba_marseille","lat":43.2808,"lon":5.39664,"is_reserved":false,"is_disabled":false,"rental_uris":{"android":"levelo://app?vid=36457585-76d5-4b59-841a-76c5eee5d7f6","ios":"levelo://app?vid=36457585-76d5-4b59-841a-76c5eee5d7f6"},"vehicle_type_id":"4","last_reported":1729644279,"current_range_meters":37600,"station_id":"ce4bho12rcd13ifvqh2g","pricing_plan_id":"cebpf4jnsgd1na2vs0mg"},{"bike_id":"5e235dac-c1e2-4f13-b57b-f717ffb32df0","system_id":"levelo_inurba_marseille","lat":43.24076,"lon":5.37759,"is_reserved":false,"is_disabled":false,"rental_uris":{"android":"levelo://app?vid=5e235dac-c1e2-4f13-b57b-f717ffb32df0","ios":"levelo://app?vid=5e235dac-c1e2-4f13-b57b-f717ffb32df0"},"vehicle_type_id":"4","last_reported":1729644279,"current_range_meters":12000,"station_id":"ce4bhnp2rcd13ifvqgvg","pricing_plan_id":"cebpf4jnsgd1na2vs0mg"},{"bike_id":"02b1a1b0-58be-4c7a-9d6c-10343c353689","system_id":"levelo_inurba_marseille","lat":43.29444,"lon":5.39753,"is_reserved":false,"is_disabled":false,"rental_uris":{"android":"levelo://app?vid=02b1a1b0-58be-4c7a-9d6c-10343c353689","ios":"levelo://app?vid=02b1a1b0-58be-4c7a-9d6c-10343c353689"},"vehicle_type_id":"4","last_reported":1729644279,"current_range_meters":37600,"station_id":"ce4bh3h2rcd13ifvqdo0","pricing_plan_id":"cebpf4jnsgd1na2vs0mg"},{"bike_id":"bf3cdac8-1828-4c5b-88c1-7d178598dc6a","system_id":"levelo_inurba_marseille","lat":43.30037,"lon":5.37295,"is_reserved":false,"is_disabled":false,"rental_uris":{"android":"levelo://app?vid=bf3cdac8-1828-4c5b-88c1-7d178598dc6a","ios":"levelo://app?vid=bf3cdac8-1828-4c5b-88c1-7d178598dc6a"},"vehicle_type_id":"4","last_reported":1729644279,"current_range_meters":16000,"station_id":"","pricing_plan_id":"cebpf4jnsgd1na2vs0mg"},{"bike_id":"60b8bae4-0b0d-4e98-88fd-f5c5969866c8","system_id":"levelo_inurba_marseille","lat":43.28437,"lon":5.39185,"is_reserved":false,"is_disabled":false,"rental_uris":{"android":"levelo://app?vid=60b8bae4-0b0d-4e98-88fd-f5c5969866c8","ios":"levelo://app?vid=60b8bae4-0b0d-4e98-88fd-f5c5969866c8"},"vehicle_type_id":"4","last_reported":1729644279,"current_range_meters":21600,"station_id":"ce4bhoh2rcd13ifvqh5g","pricing_plan_id":"cebpf4jnsgd1na2vs0mg"},{"bike_id":"2fe7d70e-1f51-42bb-b430-e0a207f4fbd0","system_id":"levelo_inurba_marseille","lat":43.28725,"lon":5.36095,"is_reserved":false,"is_disabled":false,"rental_uris":{"android":"levelo://app?vid=2fe7d70e-1f51-42bb-b430-e0a207f4fbd0","ios":"levelo://app?vid=2fe7d70e-1f51-42bb-b430-e0a207f4fbd0"},"vehicle_type_id":"4","last_reported":1729644279,"current_range_meters":22800,"station_id":"cki0cbj6b192h4jlfktg","pricing_plan_id":"cebpf4jnsgd1na2vs0mg"},{"bike_id":"5c449356-4ac4-4d08-a405-c433fbe21a80","system_id":"levelo_inurba_marseille","lat":43.33737,"lon":5.37458,"is_reserved":false,"is_disabled":false,"rental_uris":{"android":"levelo://app?vid=5c449356-4ac4-4d08-a405-c433fbe21a80","ios":"levelo://app?vid=5c449356-4ac4-4d08-a405-c433fbe21a80"},"vehicle_type_id":"4","last_reported":1729644279,"current_range_meters":32000,"station_id":"","pricing_plan_id":"cebpf4jnsgd1na2vs0mg"},{"bike_id":"3a92d8ff-54ff-443e-9b0a-a2fcb028aa18","system_id":"levelo_inurba_marseille","lat":43.30551,"lon":5.36706,"is_reserved":false,"is_disabled":false,"rental_uris":{"android":"levelo://app?vid=3a92d8ff-54ff-443e-9b0a-a2fcb028aa18","ios":"levelo://app?vid=3a92d8ff-54ff-443e-9b0a-a2fcb028aa18"},"vehicle_type_id":"4","last_reported":1729644279,"current_range_meters":38000,"station_id":"ce4bgrp2rcd13ifvqc9g","pricing_plan_id":"cebpf4jnsgd1na2vs0mg"},{"bike_id":"a1a535ed-f351-417e-8fe5-da00f4778e3a","system_id":"levelo_inurba_marseille","lat":43.30421,"lon":5.41274,"is_reserved":false,"is_disabled":false,"rental_uris":{"android":"levelo://app?vid=a1a535ed-f351-417e-8fe5-da00f4778e3a","ios":"levelo://app?vid=a1a535ed-f351-417e-8fe5-da00f4778e3a"},"vehicle_type_id":"4","last_reported":1729644279,"current_range_meters":22400,"station_id":"ce4bhop2rcd13ifvqh8g","pricing_plan_id":"cebpf4jnsgd1na2vs0mg"},{"bike_id":"309dad60-bb72-4d2d-b50c-28e8483b55b4","system_id":"levelo_inurba_marseille","lat":43.29549,"lon":5.42294,"is_reserved":false,"is_disabled":false,"rental_uris":{"android":"levelo://app?vid=309dad60-bb72-4d2d-b50c-28e8483b55b4","ios":"levelo://app?vid=309dad60-bb72-4d2d-b50c-28e8483b55b4"},"vehicle_type_id":"4","last_reported":1729644279,"current_range_meters":33200,"station_id":"ce4bhph2rcd13ifvqhdg","pricing_plan_id":"cebpf4jnsgd1na2vs0mg"},{"bike_id":"0029ee21-649e-4d16-a642-8d64d97589e4","system_id":"levelo_inurba_marseille","lat":43.24071,"lon":5.37759,"is_reserved":false,"is_disabled":false,"rental_uris":{"android":"levelo://app?vid=0029ee21-649e-4d16-a642-8d64d97589e4","ios":"levelo://app?vid=0029ee21-649e-4d16-a642-8d64d97589e4"},"vehicle_type_id":"4","last_reported":1729644279,"current_range_meters":18000,"station_id":"ce4bhnp2rcd13ifvqgvg","pricing_plan_id":"cebpf4jnsgd1na2vs0mg"},{"bike_id":"2fa1dc90-f762-4e81-bce8-6d4dab68d2a0","system_id":"levelo_inurba_marseille","lat":43.28489,"lon":5.38544,"is_reserved":false,"is_disabled":false,"rental_uris":{"android":"levelo://app?vid=2fa1dc90-f762-4e81-bce8-6d4dab68d2a0","ios":"levelo://app?vid=2fa1dc90-f762-4e81-bce8-6d4dab68d2a0"},"vehicle_type_id":"4","last_reported":1729644279,"current_range_meters":38000,"station_id":"ce4bh8p2rcd13ifvqeb0","pricing_plan_id":"cebpf4jnsgd1na2vs0mg"},{"bike_id":"80f01561-4f78-4d59-98de-f130f22341eb","system_id":"levelo_inurba_marseille","lat":43.28152,"lon":5.4264,"is_reserved":false,"is_disabled":false,"rental_uris":{"android":"levelo://app?vid=80f01561-4f78-4d59-98de-f130f22341eb","ios":"levelo://app?vid=80f01561-4f78-4d59-98de-f130f22341eb"},"vehicle_type_id":"4","last_reported":1729644279,"current_range_meters":6000,"station_id":"ce4bhnh2rcd13ifvqgug","pricing_plan_id":"cebpf4jnsgd1na2vs0mg"},{"bike_id":"0c6b11eb-50a7-4dc0-bff2-d8026011ec1d","system_id":"levelo_inurba_marseille","lat":43.24392,"lon":5.37057,"is_reserved":false,"is_disabled":false,"rental_uris":{"android":"levelo://app?vid=0c6b11eb-50a7-4dc0-bff2-d8026011ec1d","ios":"levelo://app?vid=0c6b11eb-50a7-4dc0-bff2-d8026011ec1d"},"vehicle_type_id":"4","last_reported":1729644279,"current_range_meters":38800,"station_id":"ce4bhhh2rcd13ifvqfk0","pricing_plan_id":"cebpf4jnsgd1na2vs0mg"},{"bike_id":"6f432666-0940-48b7-84ff-00e0f5e25b8b","system_id":"levelo_inurba_marseille","lat":43.27914,"lon":5.39577,"is_reserved":false,"is_disabled":false,"rental_uris":{"android":"levelo://app?vid=6f432666-0940-48b7-84ff-00e0f5e25b8b","ios":"levelo://app?vid=6f432666-0940-48b7-84ff-00e0f5e25b8b"},"vehicle_type_id":"4","last_reported":1729644279,"current_range_meters":38800,"station_id":"ce4bhf92rcd13ifvqf40","pricing_plan_id":"cebpf4jnsgd1na2vs0mg"},{"bike_id":"fd91bb08-b205-4b6a-9da1-b7df06e65a8a","system_id":"levelo_inurba_marseille","lat":43.31076,"lon":5.38358,"is_reserved":false,"is_disabled":false,"rental_uris":{"android":"levelo://app?vid=fd91bb08-b205-4b6a-9da1-b7df06e65a8a","ios":"levelo://app?vid=fd91bb08-b205-4b6a-9da1-b7df06e65a8a"},"vehicle_type_id":"4","last_reported":1729644279,"current_range_meters":38000,"station_id":"ce4bgv92rcd13ifvqcr0","pricing_plan_id":"cebpf4jnsgd1na2vs0mg"},{"bike_id":"c769be1b-4262-45e1-ae17-91133a0a1d6c","system_id":"levelo_inurba_marseille","lat":43.3053,"lon":5.36659,"is_reserved":false,"is_disabled":false,"rental_uris":{"android":"levelo://app?vid=c769be1b-4262-45e1-ae17-91133a0a1d6c","ios":"levelo://app?vid=c769be1b-4262-45e1-ae17-91133a0a1d6c"},"vehicle_type_id":"4","last_reported":1729644279,"current_range_meters":14000,"station_id":"","pricing_plan_id":"cebpf4jnsgd1na2vs0mg"},{"bike_id":"4882a116-5452-4f97-bdbd-13df4cccb9d6","system_id":"levelo_inurba_marseille","lat":43.306002,"lon":5.37238,"is_reserved":false,"is_disabled":false,"rental_uris":{"android":"levelo://app?vid=4882a116-5452-4f97-bdbd-13df4cccb9d6","ios":"levelo://app?vid=4882a116-5452-4f97-bdbd-13df4cccb9d6"},"vehicle_type_id":"4","last_reported":1729644279,"current_range_meters":32400,"station_id":"ce4bgqh2rcd13ifvqc4g","pricing_plan_id":"cebpf4jnsgd1na2vs0mg"},{"bike_id":"51609f73-1be2-469a-93e3-45dd1403c91f","system_id":"levelo_inurba_marseille","lat":43.3061,"lon":5.37231,"is_reserved":false,"is_disabled":false,"rental_uris":{"android":"levelo://app?vid=51609f73-1be2-469a-93e3-45dd1403c91f","ios":"levelo://app?vid=51609f73-1be2-469a-93e3-45dd1403c91f"},"vehicle_type_id":"4","last_reported":1729644279,"current_range_meters":12400,"station_id":"ce4bgqh2rcd13ifvqc4g","pricing_plan_id":"cebpf4jnsgd1na2vs0mg"},{"bike_id":"1124aa99-a4cf-4abb-81d2-6a98e5a17338","system_id":"levelo_inurba_marseille","lat":43.27829,"lon":5.39204,"is_reserved":false,"is_disabled":false,"rental_uris":{"android":"levelo://app?vid=1124aa99-a4cf-4abb-81d2-6a98e5a17338","ios":"levelo://app?vid=1124aa99-a4cf-4abb-81d2-6a98e5a17338"},"vehicle_type_id":"4","last_reported":1729644279,"current_range_meters":38800,"station_id":"ce4bhjp2rcd13ifvqga0","pricing_plan_id":"cebpf4jnsgd1na2vs0mg"},{"bike_id":"865a9efa-a53e-4076-9de9-37dbc8c1c912","system_id":"levelo_inurba_marseille","lat":43.28417,"lon":5.37506,"is_reserved":false,"is_disabled":false,"rental_uris":{"android":"levelo://app?vid=865a9efa-a53e-4076-9de9-37dbc8c1c912","ios":"levelo://app?vid=865a9efa-a53e-4076-9de9-37dbc8c1c912"},"vehicle_type_id":"4","last_reported":1729644279,"current_range_meters":22000,"station_id":"ce4bh412rcd13ifvqds0","pricing_plan_id":"cebpf4jnsgd1na2vs0mg"},{"bike_id":"57633249-3b48-4b3f-9fc9-74faaaf52100","system_id":"levelo_inurba_marseille","lat":43.28415,"lon":5.37524,"is_reserved":false,"is_disabled":false,"rental_uris":{"android":"levelo://app?vid=57633249-3b48-4b3f-9fc9-74faaaf52100","ios":"levelo://app?vid=57633249-3b48-4b3f-9fc9-74faaaf52100"},"vehicle_type_id":"4","last_reported":1729644279,"current_range_meters":38800,"station_id":"ce4bh412rcd13ifvqds0","pricing_plan_id":"cebpf4jnsgd1na2vs0mg"},{"bike_id":"42b34e18-affb-4aa0-b872-5fe3a8b7ec70","system_id":"levelo_inurba_marseille","lat":43.23188,"lon":5.35554,"is_reserved":false,"is_disabled":false,"rental_uris":{"android":"levelo://app?vid=42b34e18-affb-4aa0-b872-5fe3a8b7ec70","ios":"levelo://app?vid=42b34e18-affb-4aa0-b872-5fe3a8b7ec70"},"vehicle_type_id":"4","last_reported":1729644279,"current_range_meters":9600,"station_id":"ce4bhu92rcd13ifvqi70","pricing_plan_id":"cebpf4jnsgd1na2vs0mg"},{"bike_id":"f42b21e7-cbd4-432b-a865-7ed8d92ab2c5","system_id":"levelo_inurba_marseille","lat":43.30981,"lon":5.40056,"is_reserved":false,"is_disabled":false,"rental_uris":{"android":"levelo://app?vid=f42b21e7-cbd4-432b-a865-7ed8d92ab2c5","ios":"levelo://app?vid=f42b21e7-cbd4-432b-a865-7ed8d92ab2c5"},"vehicle_type_id":"4","last_reported":1729644279,"current_range_meters":38400,"station_id":"ce4bhq92rcd13ifvqhjg","pricing_plan_id":"cebpf4jnsgd1na2vs0mg"},{"bike_id":"6fd08284-5904-42e9-a776-045b15124b45","system_id":"levelo_inurba_marseille","lat":43.29414,"lon":5.38635,"is_reserved":false,"is_disabled":false,"rental_uris":{"android":"levelo://app?vid=6fd08284-5904-42e9-a776-045b15124b45","ios":"levelo://app?vid=6fd08284-5904-42e9-a776-045b15124b45"},"vehicle_type_id":"4","last_reported":1729644279,"current_range_meters":38800,"station_id":"ce4bh2h2rcd13ifvqdh0","pricing_plan_id":"cebpf4jnsgd1na2vs0mg"},{"bike_id":"ebeea3a0-5e71-4305-b861-0686ff11b7c4","system_id":"levelo_inurba_marseille","lat":43.29783,"lon":5.37094,"is_reserved":false,"is_disabled":false,"rental_uris":{"android":"levelo://app?vid=ebeea3a0-5e71-4305-b861-0686ff11b7c4","ios":"levelo://app?vid=ebeea3a0-5e71-4305-b861-0686ff11b7c4"},"vehicle_type_id":"4","last_reported":1729644279,"current_range_meters":32400,"station_id":"ce4bgop2rcd13ifvqc1g","pricing_plan_id":"cebpf4jnsgd1na2vs0mg"},{"bike_id":"20e0b48a-077f-45c8-b5a5-1f4dcb4203d2","system_id":"levelo_inurba_marseille","lat":43.281552,"lon":5.426419,"is_reserved":false,"is_disabled":false,"rental_uris":{"android":"levelo://app?vid=20e0b48a-077f-45c8-b5a5-1f4dcb4203d2","ios":"levelo://app?vid=20e0b48a-077f-45c8-b5a5-1f4dcb4203d2"},"vehicle_type_id":"4","last_reported":1729644279,"current_range_meters":38800,"station_id":"ce4bhnh2rcd13ifvqgug","pricing_plan_id":"cebpf4jnsgd1na2vs0mg"},{"bike_id":"fe80d9c1-0832-4267-b5ca-a1ab1923bc8a","system_id":"levelo_inurba_marseille","lat":43.29043,"lon":5.35902,"is_reserved":false,"is_disabled":false,"rental_uris":{"android":"levelo://app?vid=fe80d9c1-0832-4267-b5ca-a1ab1923bc8a","ios":"levelo://app?vid=fe80d9c1-0832-4267-b5ca-a1ab1923bc8a"},"vehicle_type_id":"4","last_reported":1729644279,"current_range_meters":38400,"station_id":"ce4bha92rcd13ifvqeg0","pricing_plan_id":"cebpf4jnsgd1na2vs0mg"},{"bike_id":"94d30471-f54b-4aca-96dd-695f3b79bd29","system_id":"levelo_inurba_marseille","lat":43.31173,"lon":5.38722,"is_reserved":false,"is_disabled":false,"rental_uris":{"android":"levelo://app?vid=94d30471-f54b-4aca-96dd-695f3b79bd29","ios":"levelo://app?vid=94d30471-f54b-4aca-96dd-695f3b79bd29"},"vehicle_type_id":"4","last_reported":1729644279,"current_range_meters":36000,"station_id":"ce4bgv12rcd13ifvqcp0","pricing_plan_id":"cebpf4jnsgd1na2vs0mg"},{"bike_id":"474e8192-2c3d-4290-9dca-32a411415637","system_id":"levelo_inurba_marseille","lat":43.30472,"lon":5.37899,"is_reserved":false,"is_disabled":false,"rental_uris":{"android":"levelo://app?vid=474e8192-2c3d-4290-9dca-32a411415637","ios":"levelo://app?vid=474e8192-2c3d-4290-9dca-32a411415637"},"vehicle_type_id":"4","last_reported":1729644279,"current_range_meters":38800,"station_id":"ce4bgup2rcd13ifvqcn0","pricing_plan_id":"cebpf4jnsgd1na2vs0mg"},{"bike_id":"c5d2297b-4a5b-4fbf-beab-7b23e867a371","system_id":"levelo_inurba_marseille","lat":43.27074,"lon":5.42279,"is_reserved":false,"is_disabled":false,"rental_uris":{"android":"levelo://app?vid=c5d2297b-4a5b-4fbf-beab-7b23e867a371","ios":"levelo://app?vid=c5d2297b-4a5b-4fbf-beab-7b23e867a371"},"vehicle_type_id":"4","last_reported":1729644279,"current_range_meters":21600,"station_id":"ce4bhk92rcd13ifvqgb0","pricing_plan_id":"cebpf4jnsgd1na2vs0mg"},{"bike_id":"bde5a3e1-2b27-4680-add5-25f6634f00df","system_id":"levelo_inurba_marseille","lat":43.27991,"lon":5.41655,"is_reserved":false,"is_disabled":false,"rental_uris":{"android":"levelo://app?vid=bde5a3e1-2b27-4680-add5-25f6634f00df","ios":"levelo://app?vid=bde5a3e1-2b27-4680-add5-25f6634f00df"},"vehicle_type_id":"4","last_reported":1729644279,"current_range_meters":8400,"station_id":"ce4bho12rcd13ifvqh1g","pricing_plan_id":"cebpf4jnsgd1na2vs0mg"},{"bike_id":"f0220362-e7c7-423a-a587-85c77fbcabb6","system_id":"levelo_inurba_marseille","lat":43.27076,"lon":5.42286,"is_reserved":false,"is_disabled":false,"rental_uris":{"android":"levelo://app?vid=f0220362-e7c7-423a-a587-85c77fbcabb6","ios":"levelo://app?vid=f0220362-e7c7-423a-a587-85c77fbcabb6"},"vehicle_type_id":"4","last_reported":1729644279,"current_range_meters":38800,"station_id":"ce4bhk92rcd13ifvqgb0","pricing_plan_id":"cebpf4jnsgd1na2vs0mg"},{"bike_id":"22675db0-28b2-4ef9-a53f-b0764f3ea9dc","system_id":"levelo_inurba_marseille","lat":43.31997,"lon":5.38154,"is_reserved":false,"is_disabled":false,"rental_uris":{"android":"levelo://app?vid=22675db0-28b2-4ef9-a53f-b0764f3ea9dc","ios":"levelo://app?vid=22675db0-28b2-4ef9-a53f-b0764f3ea9dc"},"vehicle_type_id":"4","last_reported":1729644279,"current_range_meters":38800,"station_id":"ce4bhr12rcd13ifvqhpg","pricing_plan_id":"cebpf4jnsgd1na2vs0mg"},{"bike_id":"5e0f5e79-e2c7-493b-bd68-20412804c77d","system_id":"levelo_inurba_marseille","lat":43.2718,"lon":5.4099,"is_reserved":false,"is_disabled":false,"rental_uris":{"android":"levelo://app?vid=5e0f5e79-e2c7-493b-bd68-20412804c77d","ios":"levelo://app?vid=5e0f5e79-e2c7-493b-bd68-20412804c77d"},"vehicle_type_id":"4","last_reported":1729644279,"current_range_meters":38800,"station_id":"ce4bhl12rcd13ifvqgf0","pricing_plan_id":"cebpf4jnsgd1na2vs0mg"},{"bike_id":"84b75230-54cb-42e2-918f-7036fd12f3c2","system_id":"levelo_inurba_marseille","lat":43.28438,"lon":5.39187,"is_reserved":false,"is_disabled":false,"rental_uris":{"android":"levelo://app?vid=84b75230-54cb-42e2-918f-7036fd12f3c2","ios":"levelo://app?vid=84b75230-54cb-42e2-918f-7036fd12f3c2"},"vehicle_type_id":"4","last_reported":1729644279,"current_range_meters":35600,"station_id":"ce4bhoh2rcd13ifvqh5g","pricing_plan_id":"cebpf4jnsgd1na2vs0mg"},{"bike_id":"d08ac600-b85a-4a44-84b0-ee33725e24f7","system_id":"levelo_inurba_marseille","lat":43.32367,"lon":5.38882,"is_reserved":false,"is_disabled":false,"rental_uris":{"android":"levelo://app?vid=d08ac600-b85a-4a44-84b0-ee33725e24f7","ios":"levelo://app?vid=d08ac600-b85a-4a44-84b0-ee33725e24f7"},"vehicle_type_id":"4","last_reported":1729644279,"current_range_meters":32400,"station_id":"ce4bhqp2rcd13ifvqhog","pricing_plan_id":"cebpf4jnsgd1na2vs0mg"},{"bike_id":"6a3d026e-f423-4e19-905c-b73e2bbde2ea","system_id":"levelo_inurba_marseille","lat":43.27177,"lon":5.40995,"is_reserved":false,"is_disabled":false,"rental_uris":{"android":"levelo://app?vid=6a3d026e-f423-4e19-905c-b73e2bbde2ea","ios":"levelo://app?vid=6a3d026e-f423-4e19-905c-b73e2bbde2ea"},"vehicle_type_id":"4","last_reported":1729644279,"current_range_meters":38000,"station_id":"ce4bhl12rcd13ifvqgf0","pricing_plan_id":"cebpf4jnsgd1na2vs0mg"},{"bike_id":"48626366-6c4d-4e93-86eb-59d9c4e5dfba","system_id":"levelo_inurba_marseille","lat":43.2894,"lon":5.39626,"is_reserved":false,"is_disabled":false,"rental_uris":{"android":"levelo://app?vid=48626366-6c4d-4e93-86eb-59d9c4e5dfba","ios":"levelo://app?vid=48626366-6c4d-4e93-86eb-59d9c4e5dfba"},"vehicle_type_id":"4","last_reported":1729644279,"current_range_meters":37600,"station_id":"ce4bh3h2rcd13ifvqdn0","pricing_plan_id":"cebpf4jnsgd1na2vs0mg"},{"bike_id":"1f92305f-3ae4-4b19-945f-1102feb6f1dd","system_id":"levelo_inurba_marseille","lat":43.30886,"lon":5.39632,"is_reserved":false,"is_disabled":false,"rental_uris":{"android":"levelo://app?vid=1f92305f-3ae4-4b19-945f-1102feb6f1dd","ios":"levelo://app?vid=1f92305f-3ae4-4b19-945f-1102feb6f1dd"},"vehicle_type_id":"4","last_reported":1729644279,"current_range_meters":31200,"station_id":"ce4bh012rcd13ifvqcv0","pricing_plan_id":"cebpf4jnsgd1na2vs0mg"},{"bike_id":"3e874096-f707-4e4f-918f-d88b9ad69dbe","system_id":"levelo_inurba_marseille","lat":43.30891,"lon":5.39645,"is_reserved":false,"is_disabled":false,"rental_uris":{"android":"levelo://app?vid=3e874096-f707-4e4f-918f-d88b9ad69dbe","ios":"levelo://app?vid=3e874096-f707-4e4f-918f-d88b9ad69dbe"},"vehicle_type_id":"4","last_reported":1729644279,"current_range_meters":25600,"station_id":"ce4bh012rcd13ifvqcv0","pricing_plan_id":"cebpf4jnsgd1na2vs0mg"},{"bike_id":"5d9d0336-c118-4784-b5fb-1fb6fe21db2c","system_id":"levelo_inurba_marseille","lat":43.30606,"lon":5.37226,"is_reserved":false,"is_disabled":false,"rental_uris":{"android":"levelo://app?vid=5d9d0336-c118-4784-b5fb-1fb6fe21db2c","ios":"levelo://app?vid=5d9d0336-c118-4784-b5fb-1fb6fe21db2c"},"vehicle_type_id":"4","last_reported":1729644279,"current_range_meters":35600,"station_id":"ce4bgqh2rcd13ifvqc4g","pricing_plan_id":"cebpf4jnsgd1na2vs0mg"},{"bike_id":"a4757616-c902-495a-993c-e6522db7f0c2","system_id":"levelo_inurba_marseille","lat":43.26557,"lon":5.3728,"is_reserved":false,"is_disabled":false,"rental_uris":{"android":"levelo://app?vid=a4757616-c902-495a-993c-e6522db7f0c2","ios":"levelo://app?vid=a4757616-c902-495a-993c-e6522db7f0c2"},"vehicle_type_id":"4","last_reported":1729644279,"current_range_meters":32000,"station_id":"ce4bhg12rcd13ifvqf70","pricing_plan_id":"cebpf4jnsgd1na2vs0mg"},{"bike_id":"57094be6-93e8-42b3-adda-7d0acb3d1a22","system_id":"levelo_inurba_marseille","lat":43.28414,"lon":5.37513,"is_reserved":false,"is_disabled":false,"rental_uris":{"android":"levelo://app?vid=57094be6-93e8-42b3-adda-7d0acb3d1a22","ios":"levelo://app?vid=57094be6-93e8-42b3-adda-7d0acb3d1a22"},"vehicle_type_id":"4","last_reported":1729644279,"current_range_meters":38800,"station_id":"ce4bh412rcd13ifvqds0","pricing_plan_id":"cebpf4jnsgd1na2vs0mg"},{"bike_id":"38486ab0-efb0-4b05-bf58-d9ae2deab94d","system_id":"levelo_inurba_marseille","lat":43.25582,"lon":5.38244,"is_reserved":false,"is_disabled":false,"rental_uris":{"android":"levelo://app?vid=38486ab0-efb0-4b05-bf58-d9ae2deab94d","ios":"levelo://app?vid=38486ab0-efb0-4b05-bf58-d9ae2deab94d"},"vehicle_type_id":"4","last_reported":1729644279,"current_range_meters":38800,"station_id":"ce4bhih2rcd13ifvqfs0","pricing_plan_id":"cebpf4jnsgd1na2vs0mg"},{"bike_id":"273253bc-fba5-4a81-a752-8d07ce4c2ca8","system_id":"levelo_inurba_marseille","lat":43.30148,"lon":5.39879,"is_reserved":false,"is_disabled":false,"rental_uris":{"android":"levelo://app?vid=273253bc-fba5-4a81-a752-8d07ce4c2ca8","ios":"levelo://app?vid=273253bc-fba5-4a81-a752-8d07ce4c2ca8"},"vehicle_type_id":"4","last_reported":1729644279,"current_range_meters":8400,"station_id":"ce4bh0h2rcd13ifvqd40","pricing_plan_id":"cebpf4jnsgd1na2vs0mg"},{"bike_id":"89728f51-7b51-4f13-acea-3ab0d67e58d7","system_id":"levelo_inurba_marseille","lat":43.28574,"lon":5.39502,"is_reserved":false,"is_disabled":false,"rental_uris":{"android":"levelo://app?vid=89728f51-7b51-4f13-acea-3ab0d67e58d7","ios":"levelo://app?vid=89728f51-7b51-4f13-acea-3ab0d67e58d7"},"vehicle_type_id":"4","last_reported":1729644279,"current_range_meters":14800,"station_id":"ce4bh292rcd13ifvqdg0","pricing_plan_id":"cebpf4jnsgd1na2vs0mg"},{"bike_id":"5b350493-8cd8-4d36-81be-17c4c5ffd708","system_id":"levelo_inurba_marseille","lat":43.2315,"lon":5.43717,"is_reserved":false,"is_disabled":false,"rental_uris":{"android":"levelo://app?vid=5b350493-8cd8-4d36-81be-17c4c5ffd708","ios":"levelo://app?vid=5b350493-8cd8-4d36-81be-17c4c5ffd708"},"vehicle_type_id":"4","last_reported":1729644279,"current_range_meters":37600,"station_id":"ce4bhmp2rcd13ifvqgog","pricing_plan_id":"cebpf4jnsgd1na2vs0mg"},{"bike_id":"20e7c36a-90bd-4572-8543-6491ffe2f43e","system_id":"levelo_inurba_marseille","lat":43.24083,"lon":5.37741,"is_reserved":false,"is_disabled":false,"rental_uris":{"android":"levelo://app?vid=20e7c36a-90bd-4572-8543-6491ffe2f43e","ios":"levelo://app?vid=20e7c36a-90bd-4572-8543-6491ffe2f43e"},"vehicle_type_id":"4","last_reported":1729644279,"current_range_meters":38000,"station_id":"ce4bhnp2rcd13ifvqgvg","pricing_plan_id":"cebpf4jnsgd1na2vs0mg"},{"bike_id":"9b87b773-e061-40be-b290-ce236cd5d49c","system_id":"levelo_inurba_marseille","lat":43.28421,"lon":5.37517,"is_reserved":false,"is_disabled":false,"rental_uris":{"android":"levelo://app?vid=9b87b773-e061-40be-b290-ce236cd5d49c","ios":"levelo://app?vid=9b87b773-e061-40be-b290-ce236cd5d49c"},"vehicle_type_id":"4","last_reported":1729644279,"current_range_meters":30000,"station_id":"ce4bh412rcd13ifvqds0","pricing_plan_id":"cebpf4jnsgd1na2vs0mg"},{"bike_id":"521db224-f892-4f98-b1e8-5dc0e49b5286","system_id":"levelo_inurba_marseille","lat":43.303,"lon":5.39217,"is_reserved":false,"is_disabled":false,"rental_uris":{"android":"levelo://app?vid=521db224-f892-4f98-b1e8-5dc0e49b5286","ios":"levelo://app?vid=521db224-f892-4f98-b1e8-5dc0e49b5286"},"vehicle_type_id":"4","last_reported":1729644279,"current_range_meters":33600,"station_id":"ce4bgkh2rcd13ifvqbk0","pricing_plan_id":"cebpf4jnsgd1na2vs0mg"},{"bike_id":"f9f7d90c-90be-4ba2-8dcd-17cbc227ce39","system_id":"levelo_inurba_marseille","lat":43.27816,"lon":5.40708,"is_reserved":false,"is_disabled":false,"rental_uris":{"android":"levelo://app?vid=f9f7d90c-90be-4ba2-8dcd-17cbc227ce39","ios":"levelo://app?vid=f9f7d90c-90be-4ba2-8dcd-17cbc227ce39"},"vehicle_type_id":"4","last_reported":1729644279,"current_range_meters":38800,"station_id":"ce4bhnh2rcd13ifvqgtg","pricing_plan_id":"cebpf4jnsgd1na2vs0mg"},{"bike_id":"f4f4cedb-ee30-4d0e-addd-0835963f6da5","system_id":"levelo_inurba_marseille","lat":43.29476,"lon":5.44396,"is_reserved":false,"is_disabled":false,"rental_uris":{"android":"levelo://app?vid=f4f4cedb-ee30-4d0e-addd-0835963f6da5","ios":"levelo://app?vid=f4f4cedb-ee30-4d0e-addd-0835963f6da5"},"vehicle_type_id":"4","last_reported":1729644279,"current_range_meters":4400,"station_id":"","pricing_plan_id":"cebpf4jnsgd1na2vs0mg"},{"bike_id":"ec5b3ce7-15ab-4985-98f5-e42469ac7b7c","system_id":"levelo_inurba_marseille","lat":43.27834,"lon":5.39202,"is_reserved":false,"is_disabled":false,"rental_uris":{"android":"levelo://app?vid=ec5b3ce7-15ab-4985-98f5-e42469ac7b7c","ios":"levelo://app?vid=ec5b3ce7-15ab-4985-98f5-e42469ac7b7c"},"vehicle_type_id":"4","last_reported":1729644279,"current_range_meters":17600,"station_id":"ce4bhjp2rcd13ifvqga0","pricing_plan_id":"cebpf4jnsgd1na2vs0mg"},{"bike_id":"1e139366-703f-4668-bcf8-167aa5dae43a","system_id":"levelo_inurba_marseille","lat":43.28701,"lon":5.39983,"is_reserved":false,"is_disabled":false,"rental_uris":{"android":"levelo://app?vid=1e139366-703f-4668-bcf8-167aa5dae43a","ios":"levelo://app?vid=1e139366-703f-4668-bcf8-167aa5dae43a"},"vehicle_type_id":"4","last_reported":1729644279,"current_range_meters":32000,"station_id":"ce4bho92rcd13ifvqh3g","pricing_plan_id":"cebpf4jnsgd1na2vs0mg"},{"bike_id":"bc74935d-1660-44e5-bf16-e520e3b64275","system_id":"levelo_inurba_marseille","lat":43.29201,"lon":5.36894,"is_reserved":false,"is_disabled":false,"rental_uris":{"android":"levelo://app?vid=bc74935d-1660-44e5-bf16-e520e3b64275","ios":"levelo://app?vid=bc74935d-1660-44e5-bf16-e520e3b64275"},"vehicle_type_id":"4","last_reported":1729644279,"current_range_meters":14800,"station_id":"","pricing_plan_id":"cebpf4jnsgd1na2vs0mg"},{"bike_id":"744a3036-377a-4be3-af71-6f5c833e31f2","system_id":"levelo_inurba_marseille","lat":43.30646,"lon":5.40077,"is_reserved":false,"is_disabled":false,"rental_uris":{"android":"levelo://app?vid=744a3036-377a-4be3-af71-6f5c833e31f2","ios":"levelo://app?vid=744a3036-377a-4be3-af71-6f5c833e31f2"},"vehicle_type_id":"4","last_reported":1729644279,"current_range_meters":39200,"station_id":"ce4bh112rcd13ifvqda0","pricing_plan_id":"cebpf4jnsgd1na2vs0mg"},{"bike_id":"48976f99-a149-4381-b2cd-ff558b03e56b","system_id":"levelo_inurba_marseille","lat":43.32742,"lon":5.42405,"is_reserved":false,"is_disabled":false,"rental_uris":{"android":"levelo://app?vid=48976f99-a149-4381-b2cd-ff558b03e56b","ios":"levelo://app?vid=48976f99-a149-4381-b2cd-ff558b03e56b"},"vehicle_type_id":"4","last_reported":1729644279,"current_range_meters":32400,"station_id":"ce4bgv92rcd13ifvqcr0","pricing_plan_id":"cebpf4jnsgd1na2vs0mg"},{"bike_id":"142d9185-ecb9-4cfe-8417-2c2b8b8cff4f","system_id":"levelo_inurba_marseille","lat":43.26493,"lon":5.39544,"is_reserved":false,"is_disabled":false,"rental_uris":{"android":"levelo://app?vid=142d9185-ecb9-4cfe-8417-2c2b8b8cff4f","ios":"levelo://app?vid=142d9185-ecb9-4cfe-8417-2c2b8b8cff4f"},"vehicle_type_id":"4","last_reported":1729644279,"current_range_meters":36000,"station_id":"ce4bhi12rcd13ifvqfq0","pricing_plan_id":"cebpf4jnsgd1na2vs0mg"},{"bike_id":"f7a109c2-5515-4876-a841-90b86554125e","system_id":"levelo_inurba_marseille","lat":43.30892,"lon":5.37203,"is_reserved":false,"is_disabled":false,"rental_uris":{"android":"levelo://app?vid=f7a109c2-5515-4876-a841-90b86554125e","ios":"levelo://app?vid=f7a109c2-5515-4876-a841-90b86554125e"},"vehicle_type_id":"4","last_reported":1729644279,"current_range_meters":32800,"station_id":"ce4bguh2rcd13ifvqckg","pricing_plan_id":"cebpf4jnsgd1na2vs0mg"},{"bike_id":"fe9b4894-26a4-4c73-83b7-51b74834380d","system_id":"levelo_inurba_marseille","lat":43.30149,"lon":5.39879,"is_reserved":false,"is_disabled":false,"rental_uris":{"android":"levelo://app?vid=fe9b4894-26a4-4c73-83b7-51b74834380d","ios":"levelo://app?vid=fe9b4894-26a4-4c73-83b7-51b74834380d"},"vehicle_type_id":"4","last_reported":1729644279,"current_range_meters":37600,"station_id":"ce4bh0h2rcd13ifvqd40","pricing_plan_id":"cebpf4jnsgd1na2vs0mg"},{"bike_id":"1af82bba-b72e-44dc-8b54-ea7463ff1564","system_id":"levelo_inurba_marseille","lat":43.33613,"lon":5.41037,"is_reserved":false,"is_disabled":false,"rental_uris":{"android":"levelo://app?vid=1af82bba-b72e-44dc-8b54-ea7463ff1564","ios":"levelo://app?vid=1af82bba-b72e-44dc-8b54-ea7463ff1564"},"vehicle_type_id":"4","last_reported":1729644279,"current_range_meters":24800,"station_id":"ce4bhqh2rcd13ifvqhmg","pricing_plan_id":"cebpf4jnsgd1na2vs0mg"},{"bike_id":"6d68a6ed-05b5-4b7e-b709-0ce01188716b","system_id":"levelo_inurba_marseille","lat":43.28375,"lon":5.38643,"is_reserved":false,"is_disabled":false,"rental_uris":{"android":"levelo://app?vid=6d68a6ed-05b5-4b7e-b709-0ce01188716b","ios":"levelo://app?vid=6d68a6ed-05b5-4b7e-b709-0ce01188716b"},"vehicle_type_id":"4","last_reported":1729644279,"current_range_meters":37600,"station_id":"ce4bh492rcd13ifvqdvg","pricing_plan_id":"cebpf4jnsgd1na2vs0mg"},{"bike_id":"b8a46660-d0a7-4703-acd3-9cea556d4b68","system_id":"levelo_inurba_marseille","lat":43.30804,"lon":5.38157,"is_reserved":false,"is_disabled":false,"rental_uris":{"android":"levelo://app?vid=b8a46660-d0a7-4703-acd3-9cea556d4b68","ios":"levelo://app?vid=b8a46660-d0a7-4703-acd3-9cea556d4b68"},"vehicle_type_id":"4","last_reported":1729644279,"current_range_meters":38800,"station_id":"ce4bgt12rcd13ifvqce0","pricing_plan_id":"cebpf4jnsgd1na2vs0mg"},{"bike_id":"81db9c70-bce4-4764-86a6-8d25b1c25e6d","system_id":"levelo_inurba_marseille","lat":43.24646,"lon":5.38889,"is_reserved":false,"is_disabled":false,"rental_uris":{"android":"levelo://app?vid=81db9c70-bce4-4764-86a6-8d25b1c25e6d","ios":"levelo://app?vid=81db9c70-bce4-4764-86a6-8d25b1c25e6d"},"vehicle_type_id":"4","last_reported":1729644279,"current_range_meters":38800,"station_id":"ce4bhg12rcd13ifvqf60","pricing_plan_id":"cebpf4jnsgd1na2vs0mg"},{"bike_id":"36f29174-278d-4a36-8d64-2c490ae15868","system_id":"levelo_inurba_marseille","lat":43.27505,"lon":5.42445,"is_reserved":false,"is_disabled":false,"rental_uris":{"android":"levelo://app?vid=36f29174-278d-4a36-8d64-2c490ae15868","ios":"levelo://app?vid=36f29174-278d-4a36-8d64-2c490ae15868"},"vehicle_type_id":"4","last_reported":1729644279,"current_range_meters":32800,"station_id":"ce4bhn92rcd13ifvqgrg","pricing_plan_id":"cebpf4jnsgd1na2vs0mg"},{"bike_id":"1a5ccafb-f23c-4839-9574-2c468b02b078","system_id":"levelo_inurba_marseille","lat":43.28436,"lon":5.39185,"is_reserved":false,"is_disabled":false,"rental_uris":{"android":"levelo://app?vid=1a5ccafb-f23c-4839-9574-2c468b02b078","ios":"levelo://app?vid=1a5ccafb-f23c-4839-9574-2c468b02b078"},"vehicle_type_id":"4","last_reported":1729644279,"current_range_meters":10800,"station_id":"ce4bhoh2rcd13ifvqh5g","pricing_plan_id":"cebpf4jnsgd1na2vs0mg"},{"bike_id":"ac4d4818-9d7e-43b5-9ef1-ee4bafb48ebd","system_id":"levelo_inurba_marseille","lat":43.28924,"lon":5.38398,"is_reserved":false,"is_disabled":false,"rental_uris":{"android":"levelo://app?vid=ac4d4818-9d7e-43b5-9ef1-ee4bafb48ebd","ios":"levelo://app?vid=ac4d4818-9d7e-43b5-9ef1-ee4bafb48ebd"},"vehicle_type_id":"4","last_reported":1729644279,"current_range_meters":38400,"station_id":"ce4bh612rcd13ifvqe6g","pricing_plan_id":"cebpf4jnsgd1na2vs0mg"},{"bike_id":"cad10e89-d63f-495a-bfe3-281b658e1378","system_id":"levelo_inurba_marseille","lat":43.32046,"lon":5.41547,"is_reserved":false,"is_disabled":false,"rental_uris":{"android":"levelo://app?vid=cad10e89-d63f-495a-bfe3-281b658e1378","ios":"levelo://app?vid=cad10e89-d63f-495a-bfe3-281b658e1378"},"vehicle_type_id":"4","last_reported":1729644279,"current_range_meters":36400,"station_id":"ce4bhq92rcd13ifvqhkg","pricing_plan_id":"cebpf4jnsgd1na2vs0mg"},{"bike_id":"2f79e225-006c-421c-bea6-976fe78b8358","system_id":"levelo_inurba_marseille","lat":43.28155,"lon":5.42643,"is_reserved":false,"is_disabled":false,"rental_uris":{"android":"levelo://app?vid=2f79e225-006c-421c-bea6-976fe78b8358","ios":"levelo://app?vid=2f79e225-006c-421c-bea6-976fe78b8358"},"vehicle_type_id":"4","last_reported":1729644279,"current_range_meters":38800,"station_id":"ce4bhnh2rcd13ifvqgug","pricing_plan_id":"cebpf4jnsgd1na2vs0mg"},{"bike_id":"58bd31dc-894d-49ad-8ea8-599306c1b2f3","system_id":"levelo_inurba_marseille","lat":43.3117,"lon":5.38716,"is_reserved":false,"is_disabled":false,"rental_uris":{"android":"levelo://app?vid=58bd31dc-894d-49ad-8ea8-599306c1b2f3","ios":"levelo://app?vid=58bd31dc-894d-49ad-8ea8-599306c1b2f3"},"vehicle_type_id":"4","last_reported":1729644279,"current_range_meters":10000,"station_id":"ce4bgv12rcd13ifvqcp0","pricing_plan_id":"cebpf4jnsgd1na2vs0mg"},{"bike_id":"1837b47c-528c-48ec-864b-92c53b949d1e","system_id":"levelo_inurba_marseille","lat":43.264956,"lon":5.395497,"is_reserved":false,"is_disabled":false,"rental_uris":{"android":"levelo://app?vid=1837b47c-528c-48ec-864b-92c53b949d1e","ios":"levelo://app?vid=1837b47c-528c-48ec-864b-92c53b949d1e"},"vehicle_type_id":"4","last_reported":1729644279,"current_range_meters":38800,"station_id":"ce4bhi12rcd13ifvqfq0","pricing_plan_id":"cebpf4jnsgd1na2vs0mg"},{"bike_id":"a43686e3-0069-495e-bb66-f12ba02ee769","system_id":"levelo_inurba_marseille","lat":43.30359,"lon":5.41883,"is_reserved":false,"is_disabled":false,"rental_uris":{"android":"levelo://app?vid=a43686e3-0069-495e-bb66-f12ba02ee769","ios":"levelo://app?vid=a43686e3-0069-495e-bb66-f12ba02ee769"},"vehicle_type_id":"4","last_reported":1729644279,"current_range_meters":38800,"station_id":"ce4bhop2rcd13ifvqh7g","pricing_plan_id":"cebpf4jnsgd1na2vs0mg"},{"bike_id":"bc79c6a9-7639-4dd9-a1c0-719ceb101c5d","system_id":"levelo_inurba_marseille","lat":43.28699,"lon":5.39977,"is_reserved":false,"is_disabled":false,"rental_uris":{"android":"levelo://app?vid=bc79c6a9-7639-4dd9-a1c0-719ceb101c5d","ios":"levelo://app?vid=bc79c6a9-7639-4dd9-a1c0-719ceb101c5d"},"vehicle_type_id":"4","last_reported":1729644279,"current_range_meters":8400,"station_id":"ce4bho92rcd13ifvqh3g","pricing_plan_id":"cebpf4jnsgd1na2vs0mg"},{"bike_id":"a6bdef88-770e-4f37-8f5f-221f0cf85086","system_id":"levelo_inurba_marseille","lat":43.31536,"lon":5.38019,"is_reserved":false,"is_disabled":false,"rental_uris":{"android":"levelo://app?vid=a6bdef88-770e-4f37-8f5f-221f0cf85086","ios":"levelo://app?vid=a6bdef88-770e-4f37-8f5f-221f0cf85086"},"vehicle_type_id":"4","last_reported":1729644279,"current_range_meters":31200,"station_id":"ce4bhsp2rcd13ifvqi50","pricing_plan_id":"cebpf4jnsgd1na2vs0mg"},{"bike_id":"f9ff8621-7700-4553-abac-ad15b1938a2c","system_id":"levelo_inurba_marseille","lat":43.31177,"lon":5.38724,"is_reserved":false,"is_disabled":false,"rental_uris":{"android":"levelo://app?vid=f9ff8621-7700-4553-abac-ad15b1938a2c","ios":"levelo://app?vid=f9ff8621-7700-4553-abac-ad15b1938a2c"},"vehicle_type_id":"4","last_reported":1729644279,"current_range_meters":38800,"station_id":"ce4bgv12rcd13ifvqcp0","pricing_plan_id":"cebpf4jnsgd1na2vs0mg"},{"bike_id":"c2ce141d-6e76-44dc-931b-253d09157587","system_id":"levelo_inurba_marseille","lat":43.24998,"lon":5.38929,"is_reserved":false,"is_disabled":false,"rental_uris":{"android":"levelo://app?vid=c2ce141d-6e76-44dc-931b-253d09157587","ios":"levelo://app?vid=c2ce141d-6e76-44dc-931b-253d09157587"},"vehicle_type_id":"4","last_reported":1729644279,"current_range_meters":38800,"station_id":"ce4bhgp2rcd13ifvqfd0","pricing_plan_id":"cebpf4jnsgd1na2vs0mg"},{"bike_id":"11256fd2-b537-43fb-8f2f-2312433c9979","system_id":"levelo_inurba_marseille","lat":43.28102,"lon":5.37832,"is_reserved":false,"is_disabled":false,"rental_uris":{"android":"levelo://app?vid=11256fd2-b537-43fb-8f2f-2312433c9979","ios":"levelo://app?vid=11256fd2-b537-43fb-8f2f-2312433c9979"},"vehicle_type_id":"4","last_reported":1729644279,"current_range_meters":7200,"station_id":"ce4bha12rcd13ifvqee0","pricing_plan_id":"cebpf4jnsgd1na2vs0mg"},{"bike_id":"e4c50509-996c-46d6-92c8-605ffe165f9d","system_id":"levelo_inurba_marseille","lat":43.28462,"lon":5.3589,"is_reserved":false,"is_disabled":false,"rental_uris":{"android":"levelo://app?vid=e4c50509-996c-46d6-92c8-605ffe165f9d","ios":"levelo://app?vid=e4c50509-996c-46d6-92c8-605ffe165f9d"},"vehicle_type_id":"4","last_reported":1729644279,"current_range_meters":26800,"station_id":"ce4bhah2rcd13ifvqei0","pricing_plan_id":"cebpf4jnsgd1na2vs0mg"},{"bike_id":"408223fe-0604-4879-9b68-36acb12c66f7","system_id":"levelo_inurba_marseille","lat":43.2841,"lon":5.37517,"is_reserved":false,"is_disabled":false,"rental_uris":{"android":"levelo://app?vid=408223fe-0604-4879-9b68-36acb12c66f7","ios":"levelo://app?vid=408223fe-0604-4879-9b68-36acb12c66f7"},"vehicle_type_id":"4","last_reported":1729644279,"current_range_meters":38800,"station_id":"ce4bh412rcd13ifvqds0","pricing_plan_id":"cebpf4jnsgd1na2vs0mg"},{"bike_id":"59db3632-a21f-411c-9dc9-da014a036310","system_id":"levelo_inurba_marseille","lat":43.28732,"lon":5.36085,"is_reserved":false,"is_disabled":false,"rental_uris":{"android":"levelo://app?vid=59db3632-a21f-411c-9dc9-da014a036310","ios":"levelo://app?vid=59db3632-a21f-411c-9dc9-da014a036310"},"vehicle_type_id":"4","last_reported":1729644279,"current_range_meters":38800,"station_id":"cki0cbj6b192h4jlfktg","pricing_plan_id":"cebpf4jnsgd1na2vs0mg"},{"bike_id":"8cc9b489-a2de-4b20-aa93-f1879e7ab37b","system_id":"levelo_inurba_marseille","lat":43.306375,"lon":5.400759,"is_reserved":false,"is_disabled":false,"rental_uris":{"android":"levelo://app?vid=8cc9b489-a2de-4b20-aa93-f1879e7ab37b","ios":"levelo://app?vid=8cc9b489-a2de-4b20-aa93-f1879e7ab37b"},"vehicle_type_id":"4","last_reported":1729644279,"current_range_meters":36800,"station_id":"ce4bh112rcd13ifvqda0","pricing_plan_id":"cebpf4jnsgd1na2vs0mg"},{"bike_id":"843cada3-4e22-4cf8-a37c-666cd586c7d4","system_id":"levelo_inurba_marseille","lat":43.28667,"lon":5.36352,"is_reserved":false,"is_disabled":false,"rental_uris":{"android":"levelo://app?vid=843cada3-4e22-4cf8-a37c-666cd586c7d4","ios":"levelo://app?vid=843cada3-4e22-4cf8-a37c-666cd586c7d4"},"vehicle_type_id":"4","last_reported":1729644279,"current_range_meters":38800,"station_id":"ce4bhah2rcd13ifvqej0","pricing_plan_id":"cebpf4jnsgd1na2vs0mg"},{"bike_id":"758c8815-d6d1-4eb0-87f2-4abe41c5d6cf","system_id":"levelo_inurba_marseille","lat":43.29562,"lon":5.42287,"is_reserved":false,"is_disabled":false,"rental_uris":{"android":"levelo://app?vid=758c8815-d6d1-4eb0-87f2-4abe41c5d6cf","ios":"levelo://app?vid=758c8815-d6d1-4eb0-87f2-4abe41c5d6cf"},"vehicle_type_id":"4","last_reported":1729644279,"current_range_meters":26800,"station_id":"ce4bhph2rcd13ifvqhdg","pricing_plan_id":"cebpf4jnsgd1na2vs0mg"},{"bike_id":"69baeb1d-9ab1-42bd-974a-175680bd96e0","system_id":"levelo_inurba_marseille","lat":43.28666,"lon":5.36363,"is_reserved":false,"is_disabled":false,"rental_uris":{"android":"levelo://app?vid=69baeb1d-9ab1-42bd-974a-175680bd96e0","ios":"levelo://app?vid=69baeb1d-9ab1-42bd-974a-175680bd96e0"},"vehicle_type_id":"4","last_reported":1729644279,"current_range_meters":38800,"station_id":"ce4bhah2rcd13ifvqej0","pricing_plan_id":"cebpf4jnsgd1na2vs0mg"},{"bike_id":"864575c1-85b8-4008-92ba-391073d4ed51","system_id":"levelo_inurba_marseille","lat":43.23195,"lon":5.35548,"is_reserved":false,"is_disabled":false,"rental_uris":{"android":"levelo://app?vid=864575c1-85b8-4008-92ba-391073d4ed51","ios":"levelo://app?vid=864575c1-85b8-4008-92ba-391073d4ed51"},"vehicle_type_id":"4","last_reported":1729644279,"current_range_meters":21600,"station_id":"ce4bhu92rcd13ifvqi70","pricing_plan_id":"cebpf4jnsgd1na2vs0mg"},{"bike_id":"e7e57fa0-7714-4dcc-b64c-519c26d856a0","system_id":"levelo_inurba_marseille","lat":43.30651,"lon":5.40076,"is_reserved":false,"is_disabled":false,"rental_uris":{"android":"levelo://app?vid=e7e57fa0-7714-4dcc-b64c-519c26d856a0","ios":"levelo://app?vid=e7e57fa0-7714-4dcc-b64c-519c26d856a0"},"vehicle_type_id":"4","last_reported":1729644279,"current_range_meters":33600,"station_id":"ce4bh112rcd13ifvqda0","pricing_plan_id":"cebpf4jnsgd1na2vs0mg"},{"bike_id":"5cff7aa1-e216-42ff-a1e8-75ef4496329b","system_id":"levelo_inurba_marseille","lat":43.29009,"lon":5.35613,"is_reserved":false,"is_disabled":false,"rental_uris":{"android":"levelo://app?vid=5cff7aa1-e216-42ff-a1e8-75ef4496329b","ios":"levelo://app?vid=5cff7aa1-e216-42ff-a1e8-75ef4496329b"},"vehicle_type_id":"4","last_reported":1729644279,"current_range_meters":28000,"station_id":"ce4bhb92rcd13ifvqen0","pricing_plan_id":"cebpf4jnsgd1na2vs0mg"},{"bike_id":"41f75c63-5a1e-4adb-bcc3-29aa8accf432","system_id":"levelo_inurba_marseille","lat":43.27501,"lon":5.42446,"is_reserved":false,"is_disabled":false,"rental_uris":{"android":"levelo://app?vid=41f75c63-5a1e-4adb-bcc3-29aa8accf432","ios":"levelo://app?vid=41f75c63-5a1e-4adb-bcc3-29aa8accf432"},"vehicle_type_id":"4","last_reported":1729644279,"current_range_meters":35200,"station_id":"ce4bhn92rcd13ifvqgrg","pricing_plan_id":"cebpf4jnsgd1na2vs0mg"},{"bike_id":"2b6b36f0-918c-4869-bfa8-cd3d9c833656","system_id":"levelo_inurba_marseille","lat":43.246188,"lon":5.419482,"is_reserved":false,"is_disabled":false,"rental_uris":{"android":"levelo://app?vid=2b6b36f0-918c-4869-bfa8-cd3d9c833656","ios":"levelo://app?vid=2b6b36f0-918c-4869-bfa8-cd3d9c833656"},"vehicle_type_id":"4","last_reported":1729644279,"current_range_meters":28800,"station_id":"","pricing_plan_id":"cebpf4jnsgd1na2vs0mg"},{"bike_id":"f50406a4-c43e-4a8e-8d40-d2fe94382454","system_id":"levelo_inurba_marseille","lat":43.27999,"lon":5.40017,"is_reserved":false,"is_disabled":false,"rental_uris":{"android":"levelo://app?vid=f50406a4-c43e-4a8e-8d40-d2fe94382454","ios":"levelo://app?vid=f50406a4-c43e-4a8e-8d40-d2fe94382454"},"vehicle_type_id":"4","last_reported":1729644279,"current_range_meters":38800,"station_id":"ce4bho92rcd13ifvqh4g","pricing_plan_id":"cebpf4jnsgd1na2vs0mg"},{"bike_id":"f026e98c-47e8-4ad8-9498-7fbc639d75a2","system_id":"levelo_inurba_marseille","lat":43.3234,"lon":5.40615,"is_reserved":false,"is_disabled":false,"rental_uris":{"android":"levelo://app?vid=f026e98c-47e8-4ad8-9498-7fbc639d75a2","ios":"levelo://app?vid=f026e98c-47e8-4ad8-9498-7fbc639d75a2"},"vehicle_type_id":"4","last_reported":1729644279,"current_range_meters":33600,"station_id":"ce4bhq92rcd13ifvqhjg","pricing_plan_id":"cebpf4jnsgd1na2vs0mg"},{"bike_id":"5b58dcfb-5507-4a17-8cb8-8f66d7e06861","system_id":"levelo_inurba_marseille","lat":43.23185,"lon":5.39985,"is_reserved":false,"is_disabled":false,"rental_uris":{"android":"levelo://app?vid=5b58dcfb-5507-4a17-8cb8-8f66d7e06861","ios":"levelo://app?vid=5b58dcfb-5507-4a17-8cb8-8f66d7e06861"},"vehicle_type_id":"4","last_reported":1729644279,"current_range_meters":38000,"station_id":"ce4bhn12rcd13ifvqgqg","pricing_plan_id":"cebpf4jnsgd1na2vs0mg"},{"bike_id":"c66d066d-1600-4b7c-a9e2-51d505c9f3b8","system_id":"levelo_inurba_marseille","lat":43.28463,"lon":5.35886,"is_reserved":false,"is_disabled":false,"rental_uris":{"android":"levelo://app?vid=c66d066d-1600-4b7c-a9e2-51d505c9f3b8","ios":"levelo://app?vid=c66d066d-1600-4b7c-a9e2-51d505c9f3b8"},"vehicle_type_id":"4","last_reported":1729644279,"current_range_meters":38800,"station_id":"ce4bhah2rcd13ifvqei0","pricing_plan_id":"cebpf4jnsgd1na2vs0mg"},{"bike_id":"b18fa4b6-f955-4010-adf6-58434c900536","system_id":"levelo_inurba_marseille","lat":43.31767,"lon":5.39012,"is_reserved":false,"is_disabled":false,"rental_uris":{"android":"levelo://app?vid=b18fa4b6-f955-4010-adf6-58434c900536","ios":"levelo://app?vid=b18fa4b6-f955-4010-adf6-58434c900536"},"vehicle_type_id":"4","last_reported":1729644279,"current_range_meters":24400,"station_id":"ce4bhqp2rcd13ifvqhng","pricing_plan_id":"cebpf4jnsgd1na2vs0mg"},{"bike_id":"efceab6e-34db-47ae-95c5-750d49489bb9","system_id":"levelo_inurba_marseille","lat":43.28466,"lon":5.35888,"is_reserved":false,"is_disabled":false,"rental_uris":{"android":"levelo://app?vid=efceab6e-34db-47ae-95c5-750d49489bb9","ios":"levelo://app?vid=efceab6e-34db-47ae-95c5-750d49489bb9"},"vehicle_type_id":"4","last_reported":1729644279,"current_range_meters":38800,"station_id":"ce4bhah2rcd13ifvqei0","pricing_plan_id":"cebpf4jnsgd1na2vs0mg"},{"bike_id":"61e926f2-d1b9-41a3-9d2d-940a1d1b9897","system_id":"levelo_inurba_marseille","lat":43.28492,"lon":5.38557,"is_reserved":false,"is_disabled":false,"rental_uris":{"android":"levelo://app?vid=61e926f2-d1b9-41a3-9d2d-940a1d1b9897","ios":"levelo://app?vid=61e926f2-d1b9-41a3-9d2d-940a1d1b9897"},"vehicle_type_id":"4","last_reported":1729644279,"current_range_meters":20000,"station_id":"ce4bh8p2rcd13ifvqeb0","pricing_plan_id":"cebpf4jnsgd1na2vs0mg"},{"bike_id":"3fe96bb3-d27a-492d-825f-9bc77dafe8c4","system_id":"levelo_inurba_marseille","lat":43.28083,"lon":5.3966,"is_reserved":false,"is_disabled":false,"rental_uris":{"android":"levelo://app?vid=3fe96bb3-d27a-492d-825f-9bc77dafe8c4","ios":"levelo://app?vid=3fe96bb3-d27a-492d-825f-9bc77dafe8c4"},"vehicle_type_id":"4","last_reported":1729644279,"current_range_meters":30000,"station_id":"ce4bho12rcd13ifvqh2g","pricing_plan_id":"cebpf4jnsgd1na2vs0mg"},{"bike_id":"e64f917e-39a9-4324-8dd2-09ac776b9a36","system_id":"levelo_inurba_marseille","lat":43.27839,"lon":5.39209,"is_reserved":false,"is_disabled":false,"rental_uris":{"android":"levelo://app?vid=e64f917e-39a9-4324-8dd2-09ac776b9a36","ios":"levelo://app?vid=e64f917e-39a9-4324-8dd2-09ac776b9a36"},"vehicle_type_id":"4","last_reported":1729644279,"current_range_meters":35600,"station_id":"ce4bhjp2rcd13ifvqga0","pricing_plan_id":"cebpf4jnsgd1na2vs0mg"},{"bike_id":"4211a73c-1486-408f-80fe-8eb55e0e5fcf","system_id":"levelo_inurba_marseille","lat":43.28468,"lon":5.35893,"is_reserved":false,"is_disabled":false,"rental_uris":{"android":"levelo://app?vid=4211a73c-1486-408f-80fe-8eb55e0e5fcf","ios":"levelo://app?vid=4211a73c-1486-408f-80fe-8eb55e0e5fcf"},"vehicle_type_id":"4","last_reported":1729644279,"current_range_meters":38800,"station_id":"ce4bhah2rcd13ifvqei0","pricing_plan_id":"cebpf4jnsgd1na2vs0mg"},{"bike_id":"093f9fee-471e-49be-aaa6-c0a2b61bfd79","system_id":"levelo_inurba_marseille","lat":43.29714,"lon":5.36619,"is_reserved":false,"is_disabled":false,"rental_uris":{"android":"levelo://app?vid=093f9fee-471e-49be-aaa6-c0a2b61bfd79","ios":"levelo://app?vid=093f9fee-471e-49be-aaa6-c0a2b61bfd79"},"vehicle_type_id":"4","last_reported":1729644279,"current_range_meters":35200,"station_id":"ce4bgn12rcd13ifvqbt0","pricing_plan_id":"cebpf4jnsgd1na2vs0mg"},{"bike_id":"303e4402-c78b-4934-b704-884416136125","system_id":"levelo_inurba_marseille","lat":43.2738,"lon":5.36269,"is_reserved":false,"is_disabled":false,"rental_uris":{"android":"levelo://app?vid=303e4402-c78b-4934-b704-884416136125","ios":"levelo://app?vid=303e4402-c78b-4934-b704-884416136125"},"vehicle_type_id":"4","last_reported":1729644279,"current_range_meters":38800,"station_id":"ce4bhbh2rcd13ifvqeo0","pricing_plan_id":"cebpf4jnsgd1na2vs0mg"},{"bike_id":"79a1e020-318b-42a1-a8c0-a424b1daf69e","system_id":"levelo_inurba_marseille","lat":43.296,"lon":5.36142,"is_reserved":false,"is_disabled":false,"rental_uris":{"android":"levelo://app?vid=79a1e020-318b-42a1-a8c0-a424b1daf69e","ios":"levelo://app?vid=79a1e020-318b-42a1-a8c0-a424b1daf69e"},"vehicle_type_id":"4","last_reported":1729644279,"current_range_meters":3600,"station_id":"","pricing_plan_id":"cebpf4jnsgd1na2vs0mg"},{"bike_id":"135cebe9-ffee-4a96-8e19-ff8188d72ddd","system_id":"levelo_inurba_marseille","lat":43.24391,"lon":5.37062,"is_reserved":false,"is_disabled":false,"rental_uris":{"android":"levelo://app?vid=135cebe9-ffee-4a96-8e19-ff8188d72ddd","ios":"levelo://app?vid=135cebe9-ffee-4a96-8e19-ff8188d72ddd"},"vehicle_type_id":"4","last_reported":1729644279,"current_range_meters":38800,"station_id":"ce4bhhh2rcd13ifvqfk0","pricing_plan_id":"cebpf4jnsgd1na2vs0mg"},{"bike_id":"bde1813d-76e7-4680-a498-70e85cee6c0d","system_id":"levelo_inurba_marseille","lat":43.29423,"lon":5.38619,"is_reserved":false,"is_disabled":false,"rental_uris":{"android":"levelo://app?vid=bde1813d-76e7-4680-a498-70e85cee6c0d","ios":"levelo://app?vid=bde1813d-76e7-4680-a498-70e85cee6c0d"},"vehicle_type_id":"4","last_reported":1729644279,"current_range_meters":9200,"station_id":"ce4bh2h2rcd13ifvqdh0","pricing_plan_id":"cebpf4jnsgd1na2vs0mg"},{"bike_id":"c8ceb32e-8b96-4816-90b0-73641ae5ef9c","system_id":"levelo_inurba_marseille","lat":43.29,"lon":5.3562,"is_reserved":false,"is_disabled":false,"rental_uris":{"android":"levelo://app?vid=c8ceb32e-8b96-4816-90b0-73641ae5ef9c","ios":"levelo://app?vid=c8ceb32e-8b96-4816-90b0-73641ae5ef9c"},"vehicle_type_id":"4","last_reported":1729644279,"current_range_meters":38800,"station_id":"ce4bhb92rcd13ifvqen0","pricing_plan_id":"cebpf4jnsgd1na2vs0mg"},{"bike_id":"a0174f08-8e79-4e73-8c54-0e7266d91858","system_id":"levelo_inurba_marseille","lat":43.31076,"lon":5.38355,"is_reserved":false,"is_disabled":false,"rental_uris":{"android":"levelo://app?vid=a0174f08-8e79-4e73-8c54-0e7266d91858","ios":"levelo://app?vid=a0174f08-8e79-4e73-8c54-0e7266d91858"},"vehicle_type_id":"4","last_reported":1729644279,"current_range_meters":8400,"station_id":"ce4bgv92rcd13ifvqcr0","pricing_plan_id":"cebpf4jnsgd1na2vs0mg"},{"bike_id":"e20eacab-28c4-4862-9c97-caa408edf48c","system_id":"levelo_inurba_marseille","lat":43.23189,"lon":5.39989,"is_reserved":false,"is_disabled":false,"rental_uris":{"android":"levelo://app?vid=e20eacab-28c4-4862-9c97-caa408edf48c","ios":"levelo://app?vid=e20eacab-28c4-4862-9c97-caa408edf48c"},"vehicle_type_id":"4","last_reported":1729644279,"current_range_meters":25600,"station_id":"ce4bhn12rcd13ifvqgqg","pricing_plan_id":"cebpf4jnsgd1na2vs0mg"},{"bike_id":"497cb450-7cdb-4472-9449-30928d2adcaa","system_id":"levelo_inurba_marseille","lat":43.30794,"lon":5.37651,"is_reserved":false,"is_disabled":false,"rental_uris":{"android":"levelo://app?vid=497cb450-7cdb-4472-9449-30928d2adcaa","ios":"levelo://app?vid=497cb450-7cdb-4472-9449-30928d2adcaa"},"vehicle_type_id":"4","last_reported":1729644279,"current_range_meters":28800,"station_id":"ce4bgv92rcd13ifvqcq0","pricing_plan_id":"cebpf4jnsgd1na2vs0mg"},{"bike_id":"26dd2d29-ae2b-42db-8ac6-529a5fde5f78","system_id":"levelo_inurba_marseille","lat":43.30603,"lon":5.37223,"is_reserved":false,"is_disabled":false,"rental_uris":{"android":"levelo://app?vid=26dd2d29-ae2b-42db-8ac6-529a5fde5f78","ios":"levelo://app?vid=26dd2d29-ae2b-42db-8ac6-529a5fde5f78"},"vehicle_type_id":"4","last_reported":1729644279,"current_range_meters":36000,"station_id":"ce4bgqh2rcd13ifvqc4g","pricing_plan_id":"cebpf4jnsgd1na2vs0mg"},{"bike_id":"1cb83924-fa4e-469e-a9f1-5e7168b2f7d6","system_id":"levelo_inurba_marseille","lat":43.23198,"lon":5.35548,"is_reserved":false,"is_disabled":false,"rental_uris":{"android":"levelo://app?vid=1cb83924-fa4e-469e-a9f1-5e7168b2f7d6","ios":"levelo://app?vid=1cb83924-fa4e-469e-a9f1-5e7168b2f7d6"},"vehicle_type_id":"4","last_reported":1729644279,"current_range_meters":6800,"station_id":"ce4bhu92rcd13ifvqi70","pricing_plan_id":"cebpf4jnsgd1na2vs0mg"},{"bike_id":"d9118632-c9a0-41b3-ad39-341e2e25d6e7","system_id":"levelo_inurba_marseille","lat":43.30242,"lon":5.40075,"is_reserved":false,"is_disabled":false,"rental_uris":{"android":"levelo://app?vid=d9118632-c9a0-41b3-ad39-341e2e25d6e7","ios":"levelo://app?vid=d9118632-c9a0-41b3-ad39-341e2e25d6e7"},"vehicle_type_id":"4","last_reported":1729644279,"current_range_meters":34000,"station_id":"ce4bgvh2rcd13ifvqcs0","pricing_plan_id":"cebpf4jnsgd1na2vs0mg"},{"bike_id":"14cfd534-16e4-42fd-9ce8-3a01bdefbe4c","system_id":"levelo_inurba_marseille","lat":43.30644,"lon":5.40075,"is_reserved":false,"is_disabled":false,"rental_uris":{"android":"levelo://app?vid=14cfd534-16e4-42fd-9ce8-3a01bdefbe4c","ios":"levelo://app?vid=14cfd534-16e4-42fd-9ce8-3a01bdefbe4c"},"vehicle_type_id":"4","last_reported":1729644279,"current_range_meters":32400,"station_id":"ce4bh112rcd13ifvqda0","pricing_plan_id":"cebpf4jnsgd1na2vs0mg"},{"bike_id":"86379710-3845-402f-984a-81a25539dc77","system_id":"levelo_inurba_marseille","lat":43.23966,"lon":5.3664,"is_reserved":false,"is_disabled":false,"rental_uris":{"android":"levelo://app?vid=86379710-3845-402f-984a-81a25539dc77","ios":"levelo://app?vid=86379710-3845-402f-984a-81a25539dc77"},"vehicle_type_id":"4","last_reported":1729644279,"current_range_meters":3200,"station_id":"ce4bhi12rcd13ifvqfp0","pricing_plan_id":"cebpf4jnsgd1na2vs0mg"},{"bike_id":"24422d45-7a1b-4c1d-a839-96bb4e231956","system_id":"levelo_inurba_marseille","lat":43.30891,"lon":5.39644,"is_reserved":false,"is_disabled":false,"rental_uris":{"android":"levelo://app?vid=24422d45-7a1b-4c1d-a839-96bb4e231956","ios":"levelo://app?vid=24422d45-7a1b-4c1d-a839-96bb4e231956"},"vehicle_type_id":"4","last_reported":1729644279,"current_range_meters":32400,"station_id":"ce4bh012rcd13ifvqcv0","pricing_plan_id":"cebpf4jnsgd1na2vs0mg"},{"bike_id":"96cd95b9-9c73-40f2-923c-e2202384412e","system_id":"levelo_inurba_marseille","lat":43.29038,"lon":5.39969,"is_reserved":false,"is_disabled":false,"rental_uris":{"android":"levelo://app?vid=96cd95b9-9c73-40f2-923c-e2202384412e","ios":"levelo://app?vid=96cd95b9-9c73-40f2-923c-e2202384412e"},"vehicle_type_id":"4","last_reported":1729644279,"current_range_meters":28400,"station_id":"ce4bh392rcd13ifvqdm0","pricing_plan_id":"cebpf4jnsgd1na2vs0mg"},{"bike_id":"54fe60dd-2a40-4a45-b210-2a0973cbe7cb","system_id":"levelo_inurba_marseille","lat":43.265692,"lon":5.390143,"is_reserved":false,"is_disabled":false,"rental_uris":{"android":"levelo://app?vid=54fe60dd-2a40-4a45-b210-2a0973cbe7cb","ios":"levelo://app?vid=54fe60dd-2a40-4a45-b210-2a0973cbe7cb"},"vehicle_type_id":"4","last_reported":1729644279,"current_range_meters":38800,"station_id":"ce4bhe12rcd13ifvqf30","pricing_plan_id":"cebpf4jnsgd1na2vs0mg"},{"bike_id":"197d03a9-b856-4cfc-a101-aa3f33f59111","system_id":"levelo_inurba_marseille","lat":43.28696,"lon":5.3998,"is_reserved":false,"is_disabled":false,"rental_uris":{"android":"levelo://app?vid=197d03a9-b856-4cfc-a101-aa3f33f59111","ios":"levelo://app?vid=197d03a9-b856-4cfc-a101-aa3f33f59111"},"vehicle_type_id":"4","last_reported":1729644279,"current_range_meters":2000,"station_id":"ce4bho92rcd13ifvqh3g","pricing_plan_id":"cebpf4jnsgd1na2vs0mg"},{"bike_id":"303058a0-13bc-44e6-b6c1-852a80be8e65","system_id":"levelo_inurba_marseille","lat":43.31886,"lon":5.40731,"is_reserved":false,"is_disabled":false,"rental_uris":{"android":"levelo://app?vid=303058a0-13bc-44e6-b6c1-852a80be8e65","ios":"levelo://app?vid=303058a0-13bc-44e6-b6c1-852a80be8e65"},"vehicle_type_id":"4","last_reported":1729644279,"current_range_meters":22800,"station_id":"ce4bhq12rcd13ifvqhig","pricing_plan_id":"cebpf4jnsgd1na2vs0mg"},{"bike_id":"34be8e3a-eefe-496b-810d-162ce65754e0","system_id":"levelo_inurba_marseille","lat":43.231948,"lon":5.355568,"is_reserved":false,"is_disabled":false,"rental_uris":{"android":"levelo://app?vid=34be8e3a-eefe-496b-810d-162ce65754e0","ios":"levelo://app?vid=34be8e3a-eefe-496b-810d-162ce65754e0"},"vehicle_type_id":"4","last_reported":1729644279,"current_range_meters":38800,"station_id":"ce4bhu92rcd13ifvqi70","pricing_plan_id":"cebpf4jnsgd1na2vs0mg"},{"bike_id":"6f41eea1-82b9-4f57-9729-6d5b1a182422","system_id":"levelo_inurba_marseille","lat":43.313668,"lon":5.384976,"is_reserved":false,"is_disabled":false,"rental_uris":{"android":"levelo://app?vid=6f41eea1-82b9-4f57-9729-6d5b1a182422","ios":"levelo://app?vid=6f41eea1-82b9-4f57-9729-6d5b1a182422"},"vehicle_type_id":"4","last_reported":1729644279,"current_range_meters":16800,"station_id":"ce4bgt92rcd13ifvqcf0","pricing_plan_id":"cebpf4jnsgd1na2vs0mg"},{"bike_id":"90defe12-9ad0-4ed8-9049-013b77458a1d","system_id":"levelo_inurba_marseille","lat":43.29634,"lon":5.40598,"is_reserved":false,"is_disabled":false,"rental_uris":{"android":"levelo://app?vid=90defe12-9ad0-4ed8-9049-013b77458a1d","ios":"levelo://app?vid=90defe12-9ad0-4ed8-9049-013b77458a1d"},"vehicle_type_id":"4","last_reported":1729644279,"current_range_meters":32400,"station_id":"ce4bh0h2rcd13ifvqd60","pricing_plan_id":"cebpf4jnsgd1na2vs0mg"},{"bike_id":"970609af-4437-476a-8d28-851b001bb6b7","system_id":"levelo_inurba_marseille","lat":43.30808,"lon":5.38174,"is_reserved":false,"is_disabled":false,"rental_uris":{"android":"levelo://app?vid=970609af-4437-476a-8d28-851b001bb6b7","ios":"levelo://app?vid=970609af-4437-476a-8d28-851b001bb6b7"},"vehicle_type_id":"4","last_reported":1729644279,"current_range_meters":38800,"station_id":"ce4bgt12rcd13ifvqce0","pricing_plan_id":"cebpf4jnsgd1na2vs0mg"},{"bike_id":"8e40ff46-40ee-4202-a615-be27d36b4e1d","system_id":"levelo_inurba_marseille","lat":43.33728,"lon":5.39184,"is_reserved":false,"is_disabled":false,"rental_uris":{"android":"levelo://app?vid=8e40ff46-40ee-4202-a615-be27d36b4e1d","ios":"levelo://app?vid=8e40ff46-40ee-4202-a615-be27d36b4e1d"},"vehicle_type_id":"4","last_reported":1729644279,"current_range_meters":38000,"station_id":"ce4bhr92rcd13ifvqhsg","pricing_plan_id":"cebpf4jnsgd1na2vs0mg"},{"bike_id":"1cc0d4f8-3038-420c-9265-92004ed5a552","system_id":"levelo_inurba_marseille","lat":43.2792,"lon":5.39582,"is_reserved":false,"is_disabled":false,"rental_uris":{"android":"levelo://app?vid=1cc0d4f8-3038-420c-9265-92004ed5a552","ios":"levelo://app?vid=1cc0d4f8-3038-420c-9265-92004ed5a552"},"vehicle_type_id":"4","last_reported":1729644279,"current_range_meters":38800,"station_id":"ce4bhf92rcd13ifvqf40","pricing_plan_id":"cebpf4jnsgd1na2vs0mg"},{"bike_id":"cc2bf40a-c3a9-4fb3-8f4c-0570e51bda77","system_id":"levelo_inurba_marseille","lat":43.28411,"lon":5.37503,"is_reserved":false,"is_disabled":false,"rental_uris":{"android":"levelo://app?vid=cc2bf40a-c3a9-4fb3-8f4c-0570e51bda77","ios":"levelo://app?vid=cc2bf40a-c3a9-4fb3-8f4c-0570e51bda77"},"vehicle_type_id":"4","last_reported":1729644279,"current_range_meters":10000,"station_id":"ce4bh412rcd13ifvqds0","pricing_plan_id":"cebpf4jnsgd1na2vs0mg"},{"bike_id":"a8fd90e1-0f06-42a3-906b-c91cb727d214","system_id":"levelo_inurba_marseille","lat":43.26829,"lon":5.41115,"is_reserved":false,"is_disabled":false,"rental_uris":{"android":"levelo://app?vid=a8fd90e1-0f06-42a3-906b-c91cb727d214","ios":"levelo://app?vid=a8fd90e1-0f06-42a3-906b-c91cb727d214"},"vehicle_type_id":"4","last_reported":1729644279,"current_range_meters":10800,"station_id":"","pricing_plan_id":"cebpf4jnsgd1na2vs0mg"},{"bike_id":"b2d676a5-de76-49c7-9e76-aeca117b8755","system_id":"levelo_inurba_marseille","lat":43.27898,"lon":5.38009,"is_reserved":false,"is_disabled":false,"rental_uris":{"android":"levelo://app?vid=b2d676a5-de76-49c7-9e76-aeca117b8755","ios":"levelo://app?vid=b2d676a5-de76-49c7-9e76-aeca117b8755"},"vehicle_type_id":"4","last_reported":1729644279,"current_range_meters":26800,"station_id":"ce4bhf92rcd13ifvqf50","pricing_plan_id":"cebpf4jnsgd1na2vs0mg"},{"bike_id":"1e4f408a-7823-4f21-aceb-d6709974f1c5","system_id":"levelo_inurba_marseille","lat":43.23197,"lon":5.35547,"is_reserved":false,"is_disabled":false,"rental_uris":{"android":"levelo://app?vid=1e4f408a-7823-4f21-aceb-d6709974f1c5","ios":"levelo://app?vid=1e4f408a-7823-4f21-aceb-d6709974f1c5"},"vehicle_type_id":"4","last_reported":1729644279,"current_range_meters":24000,"station_id":"ce4bhu92rcd13ifvqi70","pricing_plan_id":"cebpf4jnsgd1na2vs0mg"},{"bike_id":"a0749339-d409-4445-aa58-75b4673a0721","system_id":"levelo_inurba_marseille","lat":43.2558,"lon":5.38233,"is_reserved":false,"is_disabled":false,"rental_uris":{"android":"levelo://app?vid=a0749339-d409-4445-aa58-75b4673a0721","ios":"levelo://app?vid=a0749339-d409-4445-aa58-75b4673a0721"},"vehicle_type_id":"4","last_reported":1729644279,"current_range_meters":25600,"station_id":"ce4bhih2rcd13ifvqfs0","pricing_plan_id":"cebpf4jnsgd1na2vs0mg"},{"bike_id":"24c18e86-322d-4859-8f16-045cb881c275","system_id":"levelo_inurba_marseille","lat":43.30927,"lon":5.40144,"is_reserved":false,"is_disabled":false,"rental_uris":{"android":"levelo://app?vid=24c18e86-322d-4859-8f16-045cb881c275","ios":"levelo://app?vid=24c18e86-322d-4859-8f16-045cb881c275"},"vehicle_type_id":"4","last_reported":1729644279,"current_range_meters":35600,"station_id":"ce4bgvp2rcd13ifvqct0","pricing_plan_id":"cebpf4jnsgd1na2vs0mg"},{"bike_id":"fffc7f22-100f-4747-acb5-5146d2359cf5","system_id":"levelo_inurba_marseille","lat":43.30259,"lon":5.40065,"is_reserved":false,"is_disabled":false,"rental_uris":{"android":"levelo://app?vid=fffc7f22-100f-4747-acb5-5146d2359cf5","ios":"levelo://app?vid=fffc7f22-100f-4747-acb5-5146d2359cf5"},"vehicle_type_id":"4","last_reported":1729644279,"current_range_meters":28000,"station_id":"ce4bgvh2rcd13ifvqcs0","pricing_plan_id":"cebpf4jnsgd1na2vs0mg"},{"bike_id":"e3fddba7-8db6-417a-9d14-bf70d08420d4","system_id":"levelo_inurba_marseille","lat":43.30644,"lon":5.40076,"is_reserved":false,"is_disabled":false,"rental_uris":{"android":"levelo://app?vid=e3fddba7-8db6-417a-9d14-bf70d08420d4","ios":"levelo://app?vid=e3fddba7-8db6-417a-9d14-bf70d08420d4"},"vehicle_type_id":"4","last_reported":1729644279,"current_range_meters":27200,"station_id":"ce4bh112rcd13ifvqda0","pricing_plan_id":"cebpf4jnsgd1na2vs0mg"},{"bike_id":"29665abb-bb05-4470-bec8-a92af688bd5f","system_id":"levelo_inurba_marseille","lat":43.29554,"lon":5.42282,"is_reserved":false,"is_disabled":false,"rental_uris":{"android":"levelo://app?vid=29665abb-bb05-4470-bec8-a92af688bd5f","ios":"levelo://app?vid=29665abb-bb05-4470-bec8-a92af688bd5f"},"vehicle_type_id":"4","last_reported":1729644279,"current_range_meters":31200,"station_id":"ce4bhph2rcd13ifvqhdg","pricing_plan_id":"cebpf4jnsgd1na2vs0mg"},{"bike_id":"9180b34f-b344-4ae4-9902-f5bdccfec281","system_id":"levelo_inurba_marseille","lat":43.2846,"lon":5.35893,"is_reserved":false,"is_disabled":false,"rental_uris":{"android":"levelo://app?vid=9180b34f-b344-4ae4-9902-f5bdccfec281","ios":"levelo://app?vid=9180b34f-b344-4ae4-9902-f5bdccfec281"},"vehicle_type_id":"4","last_reported":1729644279,"current_range_meters":38800,"station_id":"ce4bhah2rcd13ifvqei0","pricing_plan_id":"cebpf4jnsgd1na2vs0mg"},{"bike_id":"ff4cd7f2-ddac-47e8-999d-c66a6678a4e7","system_id":"levelo_inurba_marseille","lat":43.30806,"lon":5.38155,"is_reserved":false,"is_disabled":false,"rental_uris":{"android":"levelo://app?vid=ff4cd7f2-ddac-47e8-999d-c66a6678a4e7","ios":"levelo://app?vid=ff4cd7f2-ddac-47e8-999d-c66a6678a4e7"},"vehicle_type_id":"4","last_reported":1729644279,"current_range_meters":26000,"station_id":"ce4bgt12rcd13ifvqce0","pricing_plan_id":"cebpf4jnsgd1na2vs0mg"},{"bike_id":"c3945b60-e38d-4106-8f18-92c7f436cc4f","system_id":"levelo_inurba_marseille","lat":43.33757,"lon":5.37448,"is_reserved":false,"is_disabled":false,"rental_uris":{"android":"levelo://app?vid=c3945b60-e38d-4106-8f18-92c7f436cc4f","ios":"levelo://app?vid=c3945b60-e38d-4106-8f18-92c7f436cc4f"},"vehicle_type_id":"4","last_reported":1729644279,"current_range_meters":29600,"station_id":"","pricing_plan_id":"cebpf4jnsgd1na2vs0mg"},{"bike_id":"28281844-b5e2-4474-abac-8fadc08d4ed6","system_id":"levelo_inurba_marseille","lat":43.31281,"lon":5.40166,"is_reserved":false,"is_disabled":false,"rental_uris":{"android":"levelo://app?vid=28281844-b5e2-4474-abac-8fadc08d4ed6","ios":"levelo://app?vid=28281844-b5e2-4474-abac-8fadc08d4ed6"},"vehicle_type_id":"4","last_reported":1729644279,"current_range_meters":31200,"station_id":"ce4bh092rcd13ifvqd30","pricing_plan_id":"cebpf4jnsgd1na2vs0mg"},{"bike_id":"362dd47a-a0a2-4fcc-86ce-5b0a1c4cac31","system_id":"levelo_inurba_marseille","lat":43.27372,"lon":5.36259,"is_reserved":false,"is_disabled":false,"rental_uris":{"android":"levelo://app?vid=362dd47a-a0a2-4fcc-86ce-5b0a1c4cac31","ios":"levelo://app?vid=362dd47a-a0a2-4fcc-86ce-5b0a1c4cac31"},"vehicle_type_id":"4","last_reported":1729644279,"current_range_meters":38800,"station_id":"ce4bhbh2rcd13ifvqeo0","pricing_plan_id":"cebpf4jnsgd1na2vs0mg"},{"bike_id":"054f98d4-2683-4ee1-9d6b-9b0b8ce093a8","system_id":"levelo_inurba_marseille","lat":43.24543,"lon":5.39519,"is_reserved":false,"is_disabled":false,"rental_uris":{"android":"levelo://app?vid=054f98d4-2683-4ee1-9d6b-9b0b8ce093a8","ios":"levelo://app?vid=054f98d4-2683-4ee1-9d6b-9b0b8ce093a8"},"vehicle_type_id":"4","last_reported":1729644279,"current_range_meters":38800,"station_id":"ce4bhlp2rcd13ifvqgjg","pricing_plan_id":"cebpf4jnsgd1na2vs0mg"},{"bike_id":"be3dda55-bc41-4f41-91f3-f753406854f7","system_id":"levelo_inurba_marseille","lat":43.27813,"lon":5.40709,"is_reserved":false,"is_disabled":false,"rental_uris":{"android":"levelo://app?vid=be3dda55-bc41-4f41-91f3-f753406854f7","ios":"levelo://app?vid=be3dda55-bc41-4f41-91f3-f753406854f7"},"vehicle_type_id":"4","last_reported":1729644279,"current_range_meters":38800,"station_id":"ce4bhnh2rcd13ifvqgtg","pricing_plan_id":"cebpf4jnsgd1na2vs0mg"},{"bike_id":"1aa61073-a9c6-4036-b8d8-b5f32ec1c844","system_id":"levelo_inurba_marseille","lat":43.23193,"lon":5.39987,"is_reserved":false,"is_disabled":false,"rental_uris":{"android":"levelo://app?vid=1aa61073-a9c6-4036-b8d8-b5f32ec1c844","ios":"levelo://app?vid=1aa61073-a9c6-4036-b8d8-b5f32ec1c844"},"vehicle_type_id":"4","last_reported":1729644279,"current_range_meters":35200,"station_id":"ce4bhn12rcd13ifvqgqg","pricing_plan_id":"cebpf4jnsgd1na2vs0mg"},{"bike_id":"5304e6d2-a025-4504-9ff2-0054277e008d","system_id":"levelo_inurba_marseille","lat":43.27375,"lon":5.36257,"is_reserved":false,"is_disabled":false,"rental_uris":{"android":"levelo://app?vid=5304e6d2-a025-4504-9ff2-0054277e008d","ios":"levelo://app?vid=5304e6d2-a025-4504-9ff2-0054277e008d"},"vehicle_type_id":"4","last_reported":1729644279,"current_range_meters":36000,"station_id":"ce4bhbh2rcd13ifvqeo0","pricing_plan_id":"cebpf4jnsgd1na2vs0mg"},{"bike_id":"056d4fe2-0ff2-4690-9efc-6ac5f13cc30f","system_id":"levelo_inurba_marseille","lat":43.28105,"lon":5.37839,"is_reserved":false,"is_disabled":false,"rental_uris":{"android":"levelo://app?vid=056d4fe2-0ff2-4690-9efc-6ac5f13cc30f","ios":"levelo://app?vid=056d4fe2-0ff2-4690-9efc-6ac5f13cc30f"},"vehicle_type_id":"4","last_reported":1729644279,"current_range_meters":38800,"station_id":"ce4bha12rcd13ifvqee0","pricing_plan_id":"cebpf4jnsgd1na2vs0mg"},{"bike_id":"0ee38f66-ee8f-4341-8b97-438d0d625d0c","system_id":"levelo_inurba_marseille","lat":43.30278,"lon":5.37717,"is_reserved":false,"is_disabled":false,"rental_uris":{"android":"levelo://app?vid=0ee38f66-ee8f-4341-8b97-438d0d625d0c","ios":"levelo://app?vid=0ee38f66-ee8f-4341-8b97-438d0d625d0c"},"vehicle_type_id":"4","last_reported":1729644279,"current_range_meters":5600,"station_id":"ce4bguh2rcd13ifvqcj0","pricing_plan_id":"cebpf4jnsgd1na2vs0mg"},{"bike_id":"b970f848-ffd2-4907-bec4-9c1f054033d4","system_id":"levelo_inurba_marseille","lat":43.32336,"lon":5.40621,"is_reserved":false,"is_disabled":false,"rental_uris":{"android":"levelo://app?vid=b970f848-ffd2-4907-bec4-9c1f054033d4","ios":"levelo://app?vid=b970f848-ffd2-4907-bec4-9c1f054033d4"},"vehicle_type_id":"4","last_reported":1729644279,"current_range_meters":28000,"station_id":"ce4bhq92rcd13ifvqhjg","pricing_plan_id":"cebpf4jnsgd1na2vs0mg"},{"bike_id":"1135af4d-b7d7-4190-b0cb-6113c69ae2ea","system_id":"levelo_inurba_marseille","lat":43.27371,"lon":5.36249,"is_reserved":false,"is_disabled":false,"rental_uris":{"android":"levelo://app?vid=1135af4d-b7d7-4190-b0cb-6113c69ae2ea","ios":"levelo://app?vid=1135af4d-b7d7-4190-b0cb-6113c69ae2ea"},"vehicle_type_id":"4","last_reported":1729644279,"current_range_meters":38800,"station_id":"ce4bhbh2rcd13ifvqeo0","pricing_plan_id":"cebpf4jnsgd1na2vs0mg"},{"bike_id":"3af337b1-4096-493c-9221-0107a2ba6d39","system_id":"levelo_inurba_marseille","lat":43.31175,"lon":5.38733,"is_reserved":false,"is_disabled":false,"rental_uris":{"android":"levelo://app?vid=3af337b1-4096-493c-9221-0107a2ba6d39","ios":"levelo://app?vid=3af337b1-4096-493c-9221-0107a2ba6d39"},"vehicle_type_id":"4","last_reported":1729644279,"current_range_meters":30400,"station_id":"ce4bgv12rcd13ifvqcp0","pricing_plan_id":"cebpf4jnsgd1na2vs0mg"},{"bike_id":"5994f4ed-5b9f-4c57-8707-01b6e4609d15","system_id":"levelo_inurba_marseille","lat":43.307648,"lon":5.373917,"is_reserved":false,"is_disabled":false,"rental_uris":{"android":"levelo://app?vid=5994f4ed-5b9f-4c57-8707-01b6e4609d15","ios":"levelo://app?vid=5994f4ed-5b9f-4c57-8707-01b6e4609d15"},"vehicle_type_id":"4","last_reported":1729644279,"current_range_meters":28000,"station_id":"ce4bgqh2rcd13ifvqc4g","pricing_plan_id":"cebpf4jnsgd1na2vs0mg"},{"bike_id":"81d97d25-6b95-4a79-9a7f-f6f9ad475c13","system_id":"levelo_inurba_marseille","lat":43.28454,"lon":5.35885,"is_reserved":false,"is_disabled":false,"rental_uris":{"android":"levelo://app?vid=81d97d25-6b95-4a79-9a7f-f6f9ad475c13","ios":"levelo://app?vid=81d97d25-6b95-4a79-9a7f-f6f9ad475c13"},"vehicle_type_id":"4","last_reported":1729644279,"current_range_meters":37600,"station_id":"ce4bhah2rcd13ifvqei0","pricing_plan_id":"cebpf4jnsgd1na2vs0mg"},{"bike_id":"06133ffa-30bf-4295-8e86-a7666d88ed19","system_id":"levelo_inurba_marseille","lat":43.30147,"lon":5.39869,"is_reserved":false,"is_disabled":false,"rental_uris":{"android":"levelo://app?vid=06133ffa-30bf-4295-8e86-a7666d88ed19","ios":"levelo://app?vid=06133ffa-30bf-4295-8e86-a7666d88ed19"},"vehicle_type_id":"4","last_reported":1729644279,"current_range_meters":38800,"station_id":"ce4bh0h2rcd13ifvqd40","pricing_plan_id":"cebpf4jnsgd1na2vs0mg"},{"bike_id":"8f34dca2-e523-475a-85e5-be2164d16e3c","system_id":"levelo_inurba_marseille","lat":43.28107,"lon":5.37842,"is_reserved":false,"is_disabled":false,"rental_uris":{"android":"levelo://app?vid=8f34dca2-e523-475a-85e5-be2164d16e3c","ios":"levelo://app?vid=8f34dca2-e523-475a-85e5-be2164d16e3c"},"vehicle_type_id":"4","last_reported":1729644279,"current_range_meters":38800,"station_id":"ce4bha12rcd13ifvqee0","pricing_plan_id":"cebpf4jnsgd1na2vs0mg"},{"bike_id":"929c91b4-321d-4830-be4b-17e0e65046ac","system_id":"levelo_inurba_marseille","lat":43.23188,"lon":5.39992,"is_reserved":false,"is_disabled":false,"rental_uris":{"android":"levelo://app?vid=929c91b4-321d-4830-be4b-17e0e65046ac","ios":"levelo://app?vid=929c91b4-321d-4830-be4b-17e0e65046ac"},"vehicle_type_id":"4","last_reported":1729644279,"current_range_meters":8000,"station_id":"ce4bhn12rcd13ifvqgqg","pricing_plan_id":"cebpf4jnsgd1na2vs0mg"},{"bike_id":"db5ace12-daf6-423f-ae42-c8b56153cf6d","system_id":"levelo_inurba_marseille","lat":43.30931,"lon":5.40147,"is_reserved":false,"is_disabled":false,"rental_uris":{"android":"levelo://app?vid=db5ace12-daf6-423f-ae42-c8b56153cf6d","ios":"levelo://app?vid=db5ace12-daf6-423f-ae42-c8b56153cf6d"},"vehicle_type_id":"4","last_reported":1729644279,"current_range_meters":38800,"station_id":"ce4bgvp2rcd13ifvqct0","pricing_plan_id":"cebpf4jnsgd1na2vs0mg"},{"bike_id":"946611bd-808f-42aa-8d8e-3a209538d209","system_id":"levelo_inurba_marseille","lat":43.24077,"lon":5.3775,"is_reserved":false,"is_disabled":false,"rental_uris":{"android":"levelo://app?vid=946611bd-808f-42aa-8d8e-3a209538d209","ios":"levelo://app?vid=946611bd-808f-42aa-8d8e-3a209538d209"},"vehicle_type_id":"4","last_reported":1729644279,"current_range_meters":11600,"station_id":"ce4bhnp2rcd13ifvqgvg","pricing_plan_id":"cebpf4jnsgd1na2vs0mg"},{"bike_id":"e13e1994-64c0-4a33-890e-5154997bb10a","system_id":"levelo_inurba_marseille","lat":43.27074,"lon":5.4228,"is_reserved":false,"is_disabled":false,"rental_uris":{"android":"levelo://app?vid=e13e1994-64c0-4a33-890e-5154997bb10a","ios":"levelo://app?vid=e13e1994-64c0-4a33-890e-5154997bb10a"},"vehicle_type_id":"4","last_reported":1729644279,"current_range_meters":38800,"station_id":"ce4bhk92rcd13ifvqgb0","pricing_plan_id":"cebpf4jnsgd1na2vs0mg"},{"bike_id":"78118cc0-b013-4f91-a854-b7081797eb11","system_id":"levelo_inurba_marseille","lat":43.29641,"lon":5.40594,"is_reserved":false,"is_disabled":false,"rental_uris":{"android":"levelo://app?vid=78118cc0-b013-4f91-a854-b7081797eb11","ios":"levelo://app?vid=78118cc0-b013-4f91-a854-b7081797eb11"},"vehicle_type_id":"4","last_reported":1729644279,"current_range_meters":11200,"station_id":"ce4bh0h2rcd13ifvqd60","pricing_plan_id":"cebpf4jnsgd1na2vs0mg"},{"bike_id":"78dd845c-fc34-4928-9892-3ff12866b800","system_id":"levelo_inurba_marseille","lat":43.31689,"lon":5.40464,"is_reserved":false,"is_disabled":false,"rental_uris":{"android":"levelo://app?vid=78dd845c-fc34-4928-9892-3ff12866b800","ios":"levelo://app?vid=78dd845c-fc34-4928-9892-3ff12866b800"},"vehicle_type_id":"4","last_reported":1729644279,"current_range_meters":28800,"station_id":"ce4bh012rcd13ifvqd00","pricing_plan_id":"cebpf4jnsgd1na2vs0mg"},{"bike_id":"ff191f8d-80e9-4263-a7da-f7c1877b0429","system_id":"levelo_inurba_marseille","lat":43.29039,"lon":5.39952,"is_reserved":false,"is_disabled":false,"rental_uris":{"android":"levelo://app?vid=ff191f8d-80e9-4263-a7da-f7c1877b0429","ios":"levelo://app?vid=ff191f8d-80e9-4263-a7da-f7c1877b0429"},"vehicle_type_id":"4","last_reported":1729644279,"current_range_meters":38000,"station_id":"ce4bh392rcd13ifvqdm0","pricing_plan_id":"cebpf4jnsgd1na2vs0mg"},{"bike_id":"fd12d8f6-c758-432e-bec7-df84c856f1a2","system_id":"levelo_inurba_marseille","lat":43.28459,"lon":5.35892,"is_reserved":false,"is_disabled":false,"rental_uris":{"android":"levelo://app?vid=fd12d8f6-c758-432e-bec7-df84c856f1a2","ios":"levelo://app?vid=fd12d8f6-c758-432e-bec7-df84c856f1a2"},"vehicle_type_id":"4","last_reported":1729644279,"current_range_meters":38800,"station_id":"ce4bhah2rcd13ifvqei0","pricing_plan_id":"cebpf4jnsgd1na2vs0mg"},{"bike_id":"4a7abcc4-a1fa-417b-8ffa-a28e55985c43","system_id":"levelo_inurba_marseille","lat":43.24073,"lon":5.37752,"is_reserved":false,"is_disabled":false,"rental_uris":{"android":"levelo://app?vid=4a7abcc4-a1fa-417b-8ffa-a28e55985c43","ios":"levelo://app?vid=4a7abcc4-a1fa-417b-8ffa-a28e55985c43"},"vehicle_type_id":"4","last_reported":1729644279,"current_range_meters":38800,"station_id":"ce4bhnp2rcd13ifvqgvg","pricing_plan_id":"cebpf4jnsgd1na2vs0mg"},{"bike_id":"cdba8dd9-10d6-4358-97ce-fe5c3999d55d","system_id":"levelo_inurba_marseille","lat":43.3035,"lon":5.41876,"is_reserved":false,"is_disabled":false,"rental_uris":{"android":"levelo://app?vid=cdba8dd9-10d6-4358-97ce-fe5c3999d55d","ios":"levelo://app?vid=cdba8dd9-10d6-4358-97ce-fe5c3999d55d"},"vehicle_type_id":"4","last_reported":1729644279,"current_range_meters":38800,"station_id":"ce4bhop2rcd13ifvqh7g","pricing_plan_id":"cebpf4jnsgd1na2vs0mg"},{"bike_id":"fd57e210-0cdc-4006-846d-96114f8f6035","system_id":"levelo_inurba_marseille","lat":43.26571,"lon":5.39019,"is_reserved":false,"is_disabled":false,"rental_uris":{"android":"levelo://app?vid=fd57e210-0cdc-4006-846d-96114f8f6035","ios":"levelo://app?vid=fd57e210-0cdc-4006-846d-96114f8f6035"},"vehicle_type_id":"4","last_reported":1729644279,"current_range_meters":16000,"station_id":"ce4bhe12rcd13ifvqf30","pricing_plan_id":"cebpf4jnsgd1na2vs0mg"},{"bike_id":"70b63f5a-0b57-488d-a520-164feb1eb8de","system_id":"levelo_inurba_marseille","lat":43.2981,"lon":5.40399,"is_reserved":false,"is_disabled":false,"rental_uris":{"android":"levelo://app?vid=70b63f5a-0b57-488d-a520-164feb1eb8de","ios":"levelo://app?vid=70b63f5a-0b57-488d-a520-164feb1eb8de"},"vehicle_type_id":"4","last_reported":1729644279,"current_range_meters":38800,"station_id":"ce4bh112rcd13ifvqd90","pricing_plan_id":"cebpf4jnsgd1na2vs0mg"},{"bike_id":"af39c80e-bebc-45d4-b1ab-aa2ef6cf1545","system_id":"levelo_inurba_marseille","lat":43.30889,"lon":5.39639,"is_reserved":false,"is_disabled":false,"rental_uris":{"android":"levelo://app?vid=af39c80e-bebc-45d4-b1ab-aa2ef6cf1545","ios":"levelo://app?vid=af39c80e-bebc-45d4-b1ab-aa2ef6cf1545"},"vehicle_type_id":"4","last_reported":1729644279,"current_range_meters":24400,"station_id":"ce4bh012rcd13ifvqcv0","pricing_plan_id":"cebpf4jnsgd1na2vs0mg"},{"bike_id":"0c8f5239-515f-446b-bbb1-16b6bc17d341","system_id":"levelo_inurba_marseille","lat":43.29809,"lon":5.40402,"is_reserved":false,"is_disabled":false,"rental_uris":{"android":"levelo://app?vid=0c8f5239-515f-446b-bbb1-16b6bc17d341","ios":"levelo://app?vid=0c8f5239-515f-446b-bbb1-16b6bc17d341"},"vehicle_type_id":"4","last_reported":1729644279,"current_range_meters":38400,"station_id":"ce4bh112rcd13ifvqd90","pricing_plan_id":"cebpf4jnsgd1na2vs0mg"},{"bike_id":"31048178-3d90-4915-a347-3344f65390b5","system_id":"levelo_inurba_marseille","lat":43.31328,"lon":5.39685,"is_reserved":false,"is_disabled":false,"rental_uris":{"android":"levelo://app?vid=31048178-3d90-4915-a347-3344f65390b5","ios":"levelo://app?vid=31048178-3d90-4915-a347-3344f65390b5"},"vehicle_type_id":"4","last_reported":1729644279,"current_range_meters":11600,"station_id":"ce4bgvp2rcd13ifvqcu0","pricing_plan_id":"cebpf4jnsgd1na2vs0mg"},{"bike_id":"3f3a3ebf-fa05-44bb-b950-628029747f28","system_id":"levelo_inurba_marseille","lat":43.27072,"lon":5.42279,"is_reserved":false,"is_disabled":false,"rental_uris":{"android":"levelo://app?vid=3f3a3ebf-fa05-44bb-b950-628029747f28","ios":"levelo://app?vid=3f3a3ebf-fa05-44bb-b950-628029747f28"},"vehicle_type_id":"4","last_reported":1729644279,"current_range_meters":32400,"station_id":"ce4bhk92rcd13ifvqgb0","pricing_plan_id":"cebpf4jnsgd1na2vs0mg"},{"bike_id":"6f3c99f6-25c2-4dd4-ba80-ca7e8e0ba65e","system_id":"levelo_inurba_marseille","lat":43.28154,"lon":5.42646,"is_reserved":false,"is_disabled":false,"rental_uris":{"android":"levelo://app?vid=6f3c99f6-25c2-4dd4-ba80-ca7e8e0ba65e","ios":"levelo://app?vid=6f3c99f6-25c2-4dd4-ba80-ca7e8e0ba65e"},"vehicle_type_id":"4","last_reported":1729644279,"current_range_meters":8800,"station_id":"ce4bhnh2rcd13ifvqgug","pricing_plan_id":"cebpf4jnsgd1na2vs0mg"},{"bike_id":"ad760254-cc3c-4e2c-9420-2ef8e0d6528d","system_id":"levelo_inurba_marseille","lat":43.32663,"lon":5.40995,"is_reserved":false,"is_disabled":false,"rental_uris":{"android":"levelo://app?vid=ad760254-cc3c-4e2c-9420-2ef8e0d6528d","ios":"levelo://app?vid=ad760254-cc3c-4e2c-9420-2ef8e0d6528d"},"vehicle_type_id":"4","last_reported":1729644279,"current_range_meters":16800,"station_id":"ce4bhpp2rcd13ifvqhgg","pricing_plan_id":"cebpf4jnsgd1na2vs0mg"},{"bike_id":"993e42e3-100d-4f8a-9cfa-31f61648f6b8","system_id":"levelo_inurba_marseille","lat":43.28939,"lon":5.36642,"is_reserved":false,"is_disabled":false,"rental_uris":{"android":"levelo://app?vid=993e42e3-100d-4f8a-9cfa-31f61648f6b8","ios":"levelo://app?vid=993e42e3-100d-4f8a-9cfa-31f61648f6b8"},"vehicle_type_id":"4","last_reported":1729644279,"current_range_meters":38800,"station_id":"ce4bhap2rcd13ifvqek0","pricing_plan_id":"cebpf4jnsgd1na2vs0mg"},{"bike_id":"fc1f2207-b274-41d6-84e8-a4801003d752","system_id":"levelo_inurba_marseille","lat":43.30426,"lon":5.38889,"is_reserved":false,"is_disabled":false,"rental_uris":{"android":"levelo://app?vid=fc1f2207-b274-41d6-84e8-a4801003d752","ios":"levelo://app?vid=fc1f2207-b274-41d6-84e8-a4801003d752"},"vehicle_type_id":"4","last_reported":1729644279,"current_range_meters":26800,"station_id":"ce4bgk12rcd13ifvqbi0","pricing_plan_id":"cebpf4jnsgd1na2vs0mg"},{"bike_id":"01678755-0ad9-4bb7-8723-5a8d7c4420fc","system_id":"levelo_inurba_marseille","lat":43.28061,"lon":5.40985,"is_reserved":false,"is_disabled":false,"rental_uris":{"android":"levelo://app?vid=01678755-0ad9-4bb7-8723-5a8d7c4420fc","ios":"levelo://app?vid=01678755-0ad9-4bb7-8723-5a8d7c4420fc"},"vehicle_type_id":"4","last_reported":1729644279,"current_range_meters":18000,"station_id":"","pricing_plan_id":"cebpf4jnsgd1na2vs0mg"},{"bike_id":"2fb9d5ac-a82c-4393-9767-245086c7d1cd","system_id":"levelo_inurba_marseille","lat":43.30888,"lon":5.3964,"is_reserved":false,"is_disabled":false,"rental_uris":{"android":"levelo://app?vid=2fb9d5ac-a82c-4393-9767-245086c7d1cd","ios":"levelo://app?vid=2fb9d5ac-a82c-4393-9767-245086c7d1cd"},"vehicle_type_id":"4","last_reported":1729644279,"current_range_meters":38800,"station_id":"ce4bh012rcd13ifvqcv0","pricing_plan_id":"cebpf4jnsgd1na2vs0mg"},{"bike_id":"4a17de49-0eb0-4f62-b4f3-5313bdc17ba8","system_id":"levelo_inurba_marseille","lat":43.3064,"lon":5.4007,"is_reserved":false,"is_disabled":false,"rental_uris":{"android":"levelo://app?vid=4a17de49-0eb0-4f62-b4f3-5313bdc17ba8","ios":"levelo://app?vid=4a17de49-0eb0-4f62-b4f3-5313bdc17ba8"},"vehicle_type_id":"4","last_reported":1729644279,"current_range_meters":28800,"station_id":"ce4bh112rcd13ifvqda0","pricing_plan_id":"cebpf4jnsgd1na2vs0mg"},{"bike_id":"1529ced3-b5d9-4288-acb5-1688489669a6","system_id":"levelo_inurba_marseille","lat":43.29067,"lon":5.37169,"is_reserved":false,"is_disabled":false,"rental_uris":{"android":"levelo://app?vid=1529ced3-b5d9-4288-acb5-1688489669a6","ios":"levelo://app?vid=1529ced3-b5d9-4288-acb5-1688489669a6"},"vehicle_type_id":"4","last_reported":1729644279,"current_range_meters":38800,"station_id":"ce4bh5p2rcd13ifvqe4g","pricing_plan_id":"cebpf4jnsgd1na2vs0mg"},{"bike_id":"3dee495a-7a37-40c3-9d5a-0edc49499f73","system_id":"levelo_inurba_marseille","lat":43.27906,"lon":5.3801,"is_reserved":false,"is_disabled":false,"rental_uris":{"android":"levelo://app?vid=3dee495a-7a37-40c3-9d5a-0edc49499f73","ios":"levelo://app?vid=3dee495a-7a37-40c3-9d5a-0edc49499f73"},"vehicle_type_id":"4","last_reported":1729644279,"current_range_meters":28000,"station_id":"ce4bhf92rcd13ifvqf50","pricing_plan_id":"cebpf4jnsgd1na2vs0mg"},{"bike_id":"0d66885d-85c4-4297-beb3-a0057b8663cf","system_id":"levelo_inurba_marseille","lat":43.24392,"lon":5.37057,"is_reserved":false,"is_disabled":false,"rental_uris":{"android":"levelo://app?vid=0d66885d-85c4-4297-beb3-a0057b8663cf","ios":"levelo://app?vid=0d66885d-85c4-4297-beb3-a0057b8663cf"},"vehicle_type_id":"4","last_reported":1729644279,"current_range_meters":32000,"station_id":"ce4bhhh2rcd13ifvqfk0","pricing_plan_id":"cebpf4jnsgd1na2vs0mg"},{"bike_id":"5f52a294-35cb-4877-800b-f047f9b80446","system_id":"levelo_inurba_marseille","lat":43.29447,"lon":5.39753,"is_reserved":false,"is_disabled":false,"rental_uris":{"android":"levelo://app?vid=5f52a294-35cb-4877-800b-f047f9b80446","ios":"levelo://app?vid=5f52a294-35cb-4877-800b-f047f9b80446"},"vehicle_type_id":"4","last_reported":1729644279,"current_range_meters":37600,"station_id":"ce4bh3h2rcd13ifvqdo0","pricing_plan_id":"cebpf4jnsgd1na2vs0mg"},{"bike_id":"e68074ff-f5e2-424b-ac9b-aa2b95174368","system_id":"levelo_inurba_marseille","lat":43.28155,"lon":5.42641,"is_reserved":false,"is_disabled":false,"rental_uris":{"android":"levelo://app?vid=e68074ff-f5e2-424b-ac9b-aa2b95174368","ios":"levelo://app?vid=e68074ff-f5e2-424b-ac9b-aa2b95174368"},"vehicle_type_id":"4","last_reported":1729644279,"current_range_meters":28400,"station_id":"ce4bhnh2rcd13ifvqgug","pricing_plan_id":"cebpf4jnsgd1na2vs0mg"},{"bike_id":"735a2476-fda6-486b-84ef-88a4c55ff9ea","system_id":"levelo_inurba_marseille","lat":43.28665,"lon":5.36355,"is_reserved":false,"is_disabled":false,"rental_uris":{"android":"levelo://app?vid=735a2476-fda6-486b-84ef-88a4c55ff9ea","ios":"levelo://app?vid=735a2476-fda6-486b-84ef-88a4c55ff9ea"},"vehicle_type_id":"4","last_reported":1729644279,"current_range_meters":18800,"station_id":"ce4bhah2rcd13ifvqej0","pricing_plan_id":"cebpf4jnsgd1na2vs0mg"},{"bike_id":"815dd284-1bd2-4bb9-992a-b2116e2485bc","system_id":"levelo_inurba_marseille","lat":43.32889,"lon":5.3642,"is_reserved":false,"is_disabled":false,"rental_uris":{"android":"levelo://app?vid=815dd284-1bd2-4bb9-992a-b2116e2485bc","ios":"levelo://app?vid=815dd284-1bd2-4bb9-992a-b2116e2485bc"},"vehicle_type_id":"4","last_reported":1729644279,"current_range_meters":31200,"station_id":"","pricing_plan_id":"cebpf4jnsgd1na2vs0mg"},{"bike_id":"3c161d3a-ed17-4363-b7c5-867698fc78e2","system_id":"levelo_inurba_marseille","lat":43.31179,"lon":5.38721,"is_reserved":false,"is_disabled":false,"rental_uris":{"android":"levelo://app?vid=3c161d3a-ed17-4363-b7c5-867698fc78e2","ios":"levelo://app?vid=3c161d3a-ed17-4363-b7c5-867698fc78e2"},"vehicle_type_id":"4","last_reported":1729644279,"current_range_meters":22800,"station_id":"ce4bgv12rcd13ifvqcp0","pricing_plan_id":"cebpf4jnsgd1na2vs0mg"},{"bike_id":"9ff64a80-fbeb-434b-b02d-660129a509df","system_id":"levelo_inurba_marseille","lat":43.28413,"lon":5.37511,"is_reserved":false,"is_disabled":false,"rental_uris":{"android":"levelo://app?vid=9ff64a80-fbeb-434b-b02d-660129a509df","ios":"levelo://app?vid=9ff64a80-fbeb-434b-b02d-660129a509df"},"vehicle_type_id":"4","last_reported":1729644279,"current_range_meters":20800,"station_id":"ce4bh412rcd13ifvqds0","pricing_plan_id":"cebpf4jnsgd1na2vs0mg"},{"bike_id":"b3b3aa1c-cd4d-4c72-b22c-122608d374e3","system_id":"levelo_inurba_marseille","lat":43.25106,"lon":5.40322,"is_reserved":false,"is_disabled":false,"rental_uris":{"android":"levelo://app?vid=b3b3aa1c-cd4d-4c72-b22c-122608d374e3","ios":"levelo://app?vid=b3b3aa1c-cd4d-4c72-b22c-122608d374e3"},"vehicle_type_id":"4","last_reported":1729644279,"current_range_meters":38800,"station_id":"ce4bhlh2rcd13ifvqgig","pricing_plan_id":"cebpf4jnsgd1na2vs0mg"},{"bike_id":"b12e2982-94d6-4ac5-9dd3-65ee3dd50d75","system_id":"levelo_inurba_marseille","lat":43.30546,"lon":5.38435,"is_reserved":false,"is_disabled":false,"rental_uris":{"android":"levelo://app?vid=b12e2982-94d6-4ac5-9dd3-65ee3dd50d75","ios":"levelo://app?vid=b12e2982-94d6-4ac5-9dd3-65ee3dd50d75"},"vehicle_type_id":"4","last_reported":1729644279,"current_range_meters":30400,"station_id":"ce4bgg92rcd13ifvqb30","pricing_plan_id":"cebpf4jnsgd1na2vs0mg"},{"bike_id":"627811a9-4978-496f-972a-e45837dda420","system_id":"levelo_inurba_marseille","lat":43.275,"lon":5.42452,"is_reserved":false,"is_disabled":false,"rental_uris":{"android":"levelo://app?vid=627811a9-4978-496f-972a-e45837dda420","ios":"levelo://app?vid=627811a9-4978-496f-972a-e45837dda420"},"vehicle_type_id":"4","last_reported":1729644279,"current_range_meters":13600,"station_id":"ce4bhn92rcd13ifvqgrg","pricing_plan_id":"cebpf4jnsgd1na2vs0mg"},{"bike_id":"6c368908-43c7-4476-b728-b5aefce7396f","system_id":"levelo_inurba_marseille","lat":43.28003,"lon":5.40015,"is_reserved":false,"is_disabled":false,"rental_uris":{"android":"levelo://app?vid=6c368908-43c7-4476-b728-b5aefce7396f","ios":"levelo://app?vid=6c368908-43c7-4476-b728-b5aefce7396f"},"vehicle_type_id":"4","last_reported":1729644279,"current_range_meters":38800,"station_id":"ce4bho92rcd13ifvqh4g","pricing_plan_id":"cebpf4jnsgd1na2vs0mg"},{"bike_id":"72567d35-68e5-475d-afd6-ede16c341da1","system_id":"levelo_inurba_marseille","lat":43.29034,"lon":5.37556,"is_reserved":false,"is_disabled":false,"rental_uris":{"android":"levelo://app?vid=72567d35-68e5-475d-afd6-ede16c341da1","ios":"levelo://app?vid=72567d35-68e5-475d-afd6-ede16c341da1"},"vehicle_type_id":"4","last_reported":1729644279,"current_range_meters":28000,"station_id":"ce4bh692rcd13ifvqe90","pricing_plan_id":"cebpf4jnsgd1na2vs0mg"},{"bike_id":"1108c1d9-6ef1-42c6-a0c9-92dd8001ce10","system_id":"levelo_inurba_marseille","lat":43.25111,"lon":5.4033,"is_reserved":false,"is_disabled":false,"rental_uris":{"android":"levelo://app?vid=1108c1d9-6ef1-42c6-a0c9-92dd8001ce10","ios":"levelo://app?vid=1108c1d9-6ef1-42c6-a0c9-92dd8001ce10"},"vehicle_type_id":"4","last_reported":1729644279,"current_range_meters":38800,"station_id":"ce4bhlh2rcd13ifvqgig","pricing_plan_id":"cebpf4jnsgd1na2vs0mg"},{"bike_id":"70f5c988-d736-45a0-9b49-4ca642435bb6","system_id":"levelo_inurba_marseille","lat":43.24165,"lon":5.36397,"is_reserved":false,"is_disabled":false,"rental_uris":{"android":"levelo://app?vid=70f5c988-d736-45a0-9b49-4ca642435bb6","ios":"levelo://app?vid=70f5c988-d736-45a0-9b49-4ca642435bb6"},"vehicle_type_id":"4","last_reported":1729644279,"current_range_meters":16000,"station_id":"cpo36qri1sfpv3e86is0","pricing_plan_id":"cebpf4jnsgd1na2vs0mg"},{"bike_id":"7056681c-0498-4494-9b57-9087366050be","system_id":"levelo_inurba_marseille","lat":43.27068,"lon":5.40259,"is_reserved":false,"is_disabled":false,"rental_uris":{"android":"levelo://app?vid=7056681c-0498-4494-9b57-9087366050be","ios":"levelo://app?vid=7056681c-0498-4494-9b57-9087366050be"},"vehicle_type_id":"4","last_reported":1729644279,"current_range_meters":38800,"station_id":"ce4bhk92rcd13ifvqgc0","pricing_plan_id":"cebpf4jnsgd1na2vs0mg"},{"bike_id":"0e3c4388-07da-4bf0-b894-30ac8cf594bf","system_id":"levelo_inurba_marseille","lat":43.31695,"lon":5.37748,"is_reserved":false,"is_disabled":false,"rental_uris":{"android":"levelo://app?vid=0e3c4388-07da-4bf0-b894-30ac8cf594bf","ios":"levelo://app?vid=0e3c4388-07da-4bf0-b894-30ac8cf594bf"},"vehicle_type_id":"4","last_reported":1729644279,"current_range_meters":22400,"station_id":"ce4bgth2rcd13ifvqch0","pricing_plan_id":"cebpf4jnsgd1na2vs0mg"},{"bike_id":"b0599167-7036-49a5-ac76-4ad899bda851","system_id":"levelo_inurba_marseille","lat":43.26064,"lon":5.39397,"is_reserved":false,"is_disabled":false,"rental_uris":{"android":"levelo://app?vid=b0599167-7036-49a5-ac76-4ad899bda851","ios":"levelo://app?vid=b0599167-7036-49a5-ac76-4ad899bda851"},"vehicle_type_id":"4","last_reported":1729644279,"current_range_meters":38000,"station_id":"ce4bhh92rcd13ifvqfj0","pricing_plan_id":"cebpf4jnsgd1na2vs0mg"},{"bike_id":"2ef20d66-76de-40a4-abf5-bd9754ef05b5","system_id":"levelo_inurba_marseille","lat":43.30318,"lon":5.4045,"is_reserved":false,"is_disabled":false,"rental_uris":{"android":"levelo://app?vid=2ef20d66-76de-40a4-abf5-bd9754ef05b5","ios":"levelo://app?vid=2ef20d66-76de-40a4-abf5-bd9754ef05b5"},"vehicle_type_id":"4","last_reported":1729644279,"current_range_meters":15200,"station_id":"ce4bh012rcd13ifvqd10","pricing_plan_id":"cebpf4jnsgd1na2vs0mg"},{"bike_id":"ce26414e-cf4f-4228-969f-0f32a95f8de8","system_id":"levelo_inurba_marseille","lat":43.28026,"lon":5.34978,"is_reserved":false,"is_disabled":false,"rental_uris":{"android":"levelo://app?vid=ce26414e-cf4f-4228-969f-0f32a95f8de8","ios":"levelo://app?vid=ce26414e-cf4f-4228-969f-0f32a95f8de8"},"vehicle_type_id":"4","last_reported":1729644279,"current_range_meters":24400,"station_id":"","pricing_plan_id":"cebpf4jnsgd1na2vs0mg"},{"bike_id":"d407ed9c-63b4-42ce-b98c-bbd7d1c00c01","system_id":"levelo_inurba_marseille","lat":43.28486,"lon":5.38414,"is_reserved":false,"is_disabled":false,"rental_uris":{"android":"levelo://app?vid=d407ed9c-63b4-42ce-b98c-bbd7d1c00c01","ios":"levelo://app?vid=d407ed9c-63b4-42ce-b98c-bbd7d1c00c01"},"vehicle_type_id":"4","last_reported":1729644279,"current_range_meters":20000,"station_id":"ce4bh512rcd13ifvqe3g","pricing_plan_id":"cebpf4jnsgd1na2vs0mg"},{"bike_id":"d05678d2-dd4b-4eeb-824c-8d04133a0efa","system_id":"levelo_inurba_marseille","lat":43.27497,"lon":5.42452,"is_reserved":false,"is_disabled":false,"rental_uris":{"android":"levelo://app?vid=d05678d2-dd4b-4eeb-824c-8d04133a0efa","ios":"levelo://app?vid=d05678d2-dd4b-4eeb-824c-8d04133a0efa"},"vehicle_type_id":"4","last_reported":1729644279,"current_range_meters":38800,"station_id":"ce4bhn92rcd13ifvqgrg","pricing_plan_id":"cebpf4jnsgd1na2vs0mg"},{"bike_id":"9f1bd6d4-63d4-4c4d-bbf8-1d3a3326bf26","system_id":"levelo_inurba_marseille","lat":43.289715,"lon":5.378405,"is_reserved":false,"is_disabled":false,"rental_uris":{"android":"levelo://app?vid=9f1bd6d4-63d4-4c4d-bbf8-1d3a3326bf26","ios":"levelo://app?vid=9f1bd6d4-63d4-4c4d-bbf8-1d3a3326bf26"},"vehicle_type_id":"4","last_reported":1729644279,"current_range_meters":37600,"station_id":"ce4bh9p2rcd13ifvqed0","pricing_plan_id":"cebpf4jnsgd1na2vs0mg"},{"bike_id":"50e58960-f82b-418a-b205-78b23cc6fe8b","system_id":"levelo_inurba_marseille","lat":43.31177,"lon":5.38734,"is_reserved":false,"is_disabled":false,"rental_uris":{"android":"levelo://app?vid=50e58960-f82b-418a-b205-78b23cc6fe8b","ios":"levelo://app?vid=50e58960-f82b-418a-b205-78b23cc6fe8b"},"vehicle_type_id":"4","last_reported":1729644279,"current_range_meters":24000,"station_id":"ce4bgv12rcd13ifvqcp0","pricing_plan_id":"cebpf4jnsgd1na2vs0mg"},{"bike_id":"eef83462-dd52-4fd3-a7c3-003ddd40fa75","system_id":"levelo_inurba_marseille","lat":43.25735,"lon":5.41106,"is_reserved":false,"is_disabled":false,"rental_uris":{"android":"levelo://app?vid=eef83462-dd52-4fd3-a7c3-003ddd40fa75","ios":"levelo://app?vid=eef83462-dd52-4fd3-a7c3-003ddd40fa75"},"vehicle_type_id":"4","last_reported":1729644279,"current_range_meters":30000,"station_id":"ce4bhkp2rcd13ifvqgd0","pricing_plan_id":"cebpf4jnsgd1na2vs0mg"},