{"last_updated":1773318933,"ttl":60,"version":"2.2","data":{"bikes":[{"bike_id":"0e0f0435-44dd-45c9-b88c-8e0922341d38","system_id":"levelo_inurba_marseille","lat":43.3138,"lon":5.385,"is_reserved":false,"is_disabled":false,"rental_uris":{"android":"levelo://app?vid=0e0f0435-44dd-45c9-b88c-8e0922341d38","ios":"levelo://app?vid=0e0f0435-44dd-45c9-b88c-8e0922341d38"},"vehicle_type_id":"4","last_reported":1773318934,"current_range_meters":38400,"station_id":"ce4bgt92rcd13ifvqcf0","pricing_plan_id":"cebpf4jnsgd1na2vs0mg"},{"bike_id":"97561389-1b78-44e2-8b1b-1f721f62890e","system_id":"levelo_inurba_marseille","lat":43.29039,"lon":5.35599,"is_reserved":false,"is_disabled":false,"rental_uris":{"android":"levelo://app?vid=97561389-1b78-44e2-8b1b-1f721f62890e","ios":"levelo://app?vid=97561389-1b78-44e2-8b1b-1f721f62890e"},"vehicle_type_id":"4","last_reported":1773318934,"current_range_meters":40000,"station_id":"ce4bhb92rcd13ifvqen0","pricing_plan_id":"cebpf4jnsgd1na2vs0mg"},{"bike_id":"4cdd6ee8-e7c8-4aab-ab00-a44db3c0fcfb","system_id":"levelo_inurba_marseille","lat":43.26381,"lon":5.41067,"is_reserved":false,"is_disabled":false,"rental_uris":{"android":"levelo://app?vid=4cdd6ee8-e7c8-4aab-ab00-a44db3c0fcfb","ios":"levelo://app?vid=4cdd6ee8-e7c8-4aab-ab00-a44db3c0fcfb"},"vehicle_type_id":"4","last_reported":1773318934,"current_range_meters":39200,"station_id":"st_d4e5ca6na9uc73bfl5fg","pricing_plan_id":"cebpf4jnsgd1na2vs0mg"},{"bike_id":"920fe5af-ce45-4e72-8675-5b619451cf1f","system_id":"levelo_inurba_marseille","lat":43.212,"lon":5.3506,"is_reserved":false,"is_disabled":false,"rental_uris":{"android":"levelo://app?vid=920fe5af-ce45-4e72-8675-5b619451cf1f","ios":"levelo://app?vid=920fe5af-ce45-4e72-8675-5b619451cf1f"},"vehicle_type_id":"4","last_reported":1773318934,"current_range_meters":21600,"station_id":"st_cvj6sg6p6f1abm77japg","pricing_plan_id":"cebpf4jnsgd1na2vs0mg"},{"bike_id":"0551c756-ca94-4501-b375-2f058f30a99e","system_id":"levelo_inurba_marseille","lat":43.28543,"lon":5.44087,"is_reserved":false,"is_disabled":false,"rental_uris":{"android":"levelo://app?vid=0551c756-ca94-4501-b375-2f058f30a99e","ios":"levelo://app?vid=0551c756-ca94-4501-b375-2f058f30a99e"},"vehicle_type_id":"4","last_reported":1773318934,"current_range_meters":16800,"station_id":"st_d3j3df2ikq2c7380ej80","pricing_plan_id":"cebpf4jnsgd1na2vs0mg"},{"bike_id":"6f8edba3-b343-4a56-9104-7c8597530fc5","system_id":"levelo_inurba_marseille","lat":43.30193,"lon":5.36632,"is_reserved":false,"is_disabled":false,"rental_uris":{"android":"levelo://app?vid=6f8edba3-b343-4a56-9104-7c8597530fc5","ios":"levelo://app?vid=6f8edba3-b343-4a56-9104-7c8597530fc5"},"vehicle_type_id":"4","last_reported":1773318934,"current_range_meters":12800,"station_id":"ce4bgrh2rcd13ifvqc8g","pricing_plan_id":"cebpf4jnsgd1na2vs0mg"},{"bike_id":"47b6cd2f-83c0-435a-8450-cade692e54a7","system_id":"levelo_inurba_marseille","lat":43.27995,"lon":5.41028,"is_reserved":false,"is_disabled":false,"rental_uris":{"android":"levelo://app?vid=47b6cd2f-83c0-435a-8450-cade692e54a7","ios":"levelo://app?vid=47b6cd2f-83c0-435a-8450-cade692e54a7"},"vehicle_type_id":"4","last_reported":1773318934,"current_range_meters":39200,"station_id":"ce4bhnp2rcd13ifvqh0g","pricing_plan_id":"cebpf4jnsgd1na2vs0mg"},{"bike_id":"621823b4-a6e6-4ec9-8e73-546f9ef61641","system_id":"levelo_inurba_marseille","lat":43.29272,"lon":5.40121,"is_reserved":false,"is_disabled":true,"rental_uris":{"android":"levelo://app?vid=621823b4-a6e6-4ec9-8e73-546f9ef61641","ios":"levelo://app?vid=621823b4-a6e6-4ec9-8e73-546f9ef61641"},"vehicle_type_id":"4","last_reported":1773318934,"current_range_meters":9200,"station_id":"ce4bh312rcd13ifvqdk0","pricing_plan_id":"cebpf4jnsgd1na2vs0mg"},{"bike_id":"d5317123-9bf9-4493-ba3f-18b283994230","system_id":"levelo_inurba_marseille","lat":43.26693,"lon":5.38253,"is_reserved":false,"is_disabled":true,"rental_uris":{"android":"levelo://app?vid=d5317123-9bf9-4493-ba3f-18b283994230","ios":"levelo://app?vid=d5317123-9bf9-4493-ba3f-18b283994230"},"vehicle_type_id":"4","last_reported":1773318934,"current_range_meters":39200,"station_id":"ce4bhg92rcd13ifvqf90","pricing_plan_id":"cebpf4jnsgd1na2vs0mg"},{"bike_id":"2dde38a6-7040-4591-b258-f00f6d384fc3","system_id":"levelo_inurba_marseille","lat":43.33018,"lon":5.39019,"is_reserved":false,"is_disabled":false,"rental_uris":{"android":"levelo://app?vid=2dde38a6-7040-4591-b258-f00f6d384fc3","ios":"levelo://app?vid=2dde38a6-7040-4591-b258-f00f6d384fc3"},"vehicle_type_id":"4","last_reported":1773318934,"current_range_meters":38800,"station_id":"ce4bhr92rcd13ifvqhrg","pricing_plan_id":"cebpf4jnsgd1na2vs0mg"},{"bike_id":"df299bcd-76dd-4a01-8dfa-70772f3d0c5a","system_id":"levelo_inurba_marseille","lat":43.29846,"lon":5.36268,"is_reserved":false,"is_disabled":false,"rental_uris":{"android":"levelo://app?vid=df299bcd-76dd-4a01-8dfa-70772f3d0c5a","ios":"levelo://app?vid=df299bcd-76dd-4a01-8dfa-70772f3d0c5a"},"vehicle_type_id":"4","last_reported":1773318934,"current_range_meters":8400,"station_id":"ce4bgpp2rcd13ifvqc3g","pricing_plan_id":"cebpf4jnsgd1na2vs0mg"},{"bike_id":"9faea34b-1c48-4a1b-8f51-2bafe5184a50","system_id":"levelo_inurba_marseille","lat":43.28479,"lon":5.48394,"is_reserved":false,"is_disabled":false,"rental_uris":{"android":"levelo://app?vid=9faea34b-1c48-4a1b-8f51-2bafe5184a50","ios":"levelo://app?vid=9faea34b-1c48-4a1b-8f51-2bafe5184a50"},"vehicle_type_id":"4","last_reported":1773318934,"current_range_meters":31200,"station_id":"","pricing_plan_id":"cebpf4jnsgd1na2vs0mg"},{"bike_id":"bd0135ea-2cde-4c88-9947-7d16e31861df","system_id":"levelo_inurba_marseille","lat":43.30745,"lon":5.3674,"is_reserved":false,"is_disabled":false,"rental_uris":{"android":"levelo://app?vid=bd0135ea-2cde-4c88-9947-7d16e31861df","ios":"levelo://app?vid=bd0135ea-2cde-4c88-9947-7d16e31861df"},"vehicle_type_id":"4","last_reported":1773318934,"current_range_meters":28800,"station_id":"","pricing_plan_id":"cebpf4jnsgd1na2vs0mg"},{"bike_id":"d427d34d-e739-4c0f-a843-74b85111544b","system_id":"levelo_inurba_marseille","lat":43.33113,"lon":5.37733,"is_reserved":false,"is_disabled":false,"rental_uris":{"android":"levelo://app?vid=d427d34d-e739-4c0f-a843-74b85111544b","ios":"levelo://app?vid=d427d34d-e739-4c0f-a843-74b85111544b"},"vehicle_type_id":"4","last_reported":1773318934,"current_range_meters":20400,"station_id":"","pricing_plan_id":"cebpf4jnsgd1na2vs0mg"},{"bike_id":"dbf16230-f8f8-4b46-a9ea-49d64f6bd303","system_id":"levelo_inurba_marseille","lat":43.29858,"lon":5.36277,"is_reserved":false,"is_disabled":true,"rental_uris":{"android":"levelo://app?vid=dbf16230-f8f8-4b46-a9ea-49d64f6bd303","ios":"levelo://app?vid=dbf16230-f8f8-4b46-a9ea-49d64f6bd303"},"vehicle_type_id":"4","last_reported":1773318934,"current_range_meters":37600,"station_id":"ce4bgpp2rcd13ifvqc3g","pricing_plan_id":"cebpf4jnsgd1na2vs0mg"},{"bike_id":"b21dcb7b-cf43-471d-a373-1867928f7a17","system_id":"levelo_inurba_marseille","lat":43.30541,"lon":5.3654,"is_reserved":false,"is_disabled":false,"rental_uris":{"android":"levelo://app?vid=b21dcb7b-cf43-471d-a373-1867928f7a17","ios":"levelo://app?vid=b21dcb7b-cf43-471d-a373-1867928f7a17"},"vehicle_type_id":"4","last_reported":1773318934,"current_range_meters":20800,"station_id":"ce4bgs12rcd13ifvqcag","pricing_plan_id":"cebpf4jnsgd1na2vs0mg"},{"bike_id":"c943c8f2-fd97-497f-b02c-47e60712859d","system_id":"levelo_inurba_marseille","lat":43.25832,"lon":5.39413,"is_reserved":false,"is_disabled":false,"rental_uris":{"android":"levelo://app?vid=c943c8f2-fd97-497f-b02c-47e60712859d","ios":"levelo://app?vid=c943c8f2-fd97-497f-b02c-47e60712859d"},"vehicle_type_id":"4","last_reported":1773318934,"current_range_meters":24000,"station_id":"ce4bhip2rcd13ifvqft0","pricing_plan_id":"cebpf4jnsgd1na2vs0mg"},{"bike_id":"311cd375-88a1-4176-9219-fa828099384a","system_id":"levelo_inurba_marseille","lat":43.30327,"lon":5.36897,"is_reserved":false,"is_disabled":false,"rental_uris":{"android":"levelo://app?vid=311cd375-88a1-4176-9219-fa828099384a","ios":"levelo://app?vid=311cd375-88a1-4176-9219-fa828099384a"},"vehicle_type_id":"4","last_reported":1773318934,"current_range_meters":8400,"station_id":"ce4bgqh2rcd13ifvqc5g","pricing_plan_id":"cebpf4jnsgd1na2vs0mg"},{"bike_id":"b5a70d44-6cd2-4596-a9b3-e82e9858ce0d","system_id":"levelo_inurba_marseille","lat":43.30538,"lon":5.36539,"is_reserved":false,"is_disabled":false,"rental_uris":{"android":"levelo://app?vid=b5a70d44-6cd2-4596-a9b3-e82e9858ce0d","ios":"levelo://app?vid=b5a70d44-6cd2-4596-a9b3-e82e9858ce0d"},"vehicle_type_id":"4","last_reported":1773318934,"current_range_meters":38800,"station_id":"ce4bgs12rcd13ifvqcag","pricing_plan_id":"cebpf4jnsgd1na2vs0mg"},{"bike_id":"0e033376-8ded-4c5b-a90d-81f2de96f774","system_id":"levelo_inurba_marseille","lat":43.29731,"lon":5.37675,"is_reserved":false,"is_disabled":true,"rental_uris":{"android":"levelo://app?vid=0e033376-8ded-4c5b-a90d-81f2de96f774","ios":"levelo://app?vid=0e033376-8ded-4c5b-a90d-81f2de96f774"},"vehicle_type_id":"4","last_reported":1773318934,"current_range_meters":19200,"station_id":"ce4bgkh2rcd13ifvqbl0","pricing_plan_id":"cebpf4jnsgd1na2vs0mg"},{"bike_id":"fee06328-0848-48be-bb8b-947aae963eba","system_id":"levelo_inurba_marseille","lat":43.30559,"lon":5.36714,"is_reserved":false,"is_disabled":false,"rental_uris":{"android":"levelo://app?vid=fee06328-0848-48be-bb8b-947aae963eba","ios":"levelo://app?vid=fee06328-0848-48be-bb8b-947aae963eba"},"vehicle_type_id":"4","last_reported":1773318934,"current_range_meters":39200,"station_id":"ce4bgrp2rcd13ifvqc9g","pricing_plan_id":"cebpf4jnsgd1na2vs0mg"},{"bike_id":"b93a357c-54e0-4442-be00-cbc58767907f","system_id":"levelo_inurba_marseille","lat":43.32075,"lon":5.4155,"is_reserved":false,"is_disabled":false,"rental_uris":{"android":"levelo://app?vid=b93a357c-54e0-4442-be00-cbc58767907f","ios":"levelo://app?vid=b93a357c-54e0-4442-be00-cbc58767907f"},"vehicle_type_id":"4","last_reported":1773318934,"current_range_meters":37600,"station_id":"ce4bhq92rcd13ifvqhkg","pricing_plan_id":"cebpf4jnsgd1na2vs0mg"},{"bike_id":"c1ec77a3-84f4-47db-94b6-6aec401b4b2a","system_id":"levelo_inurba_marseille","lat":43.296,"lon":5.38076,"is_reserved":false,"is_disabled":false,"rental_uris":{"android":"levelo://app?vid=c1ec77a3-84f4-47db-94b6-6aec401b4b2a","ios":"levelo://app?vid=c1ec77a3-84f4-47db-94b6-6aec401b4b2a"},"vehicle_type_id":"4","last_reported":1773318934,"current_range_meters":16800,"station_id":"ce4bgl12rcd13ifvqbo0","pricing_plan_id":"cebpf4jnsgd1na2vs0mg"},{"bike_id":"20bf681e-dd28-42a1-94f9-defeb2767863","system_id":"levelo_inurba_marseille","lat":43.25859,"lon":5.39946,"is_reserved":false,"is_disabled":false,"rental_uris":{"android":"levelo://app?vid=20bf681e-dd28-42a1-94f9-defeb2767863","ios":"levelo://app?vid=20bf681e-dd28-42a1-94f9-defeb2767863"},"vehicle_type_id":"4","last_reported":1773318934,"current_range_meters":25600,"station_id":"ce4bhl92rcd13ifvqghg","pricing_plan_id":"cebpf4jnsgd1na2vs0mg"},{"bike_id":"fce1e7f3-69af-4e72-8b3c-c22933d88d4a","system_id":"levelo_inurba_marseille","lat":43.30655,"lon":5.40089,"is_reserved":false,"is_disabled":false,"rental_uris":{"android":"levelo://app?vid=fce1e7f3-69af-4e72-8b3c-c22933d88d4a","ios":"levelo://app?vid=fce1e7f3-69af-4e72-8b3c-c22933d88d4a"},"vehicle_type_id":"4","last_reported":1773318934,"current_range_meters":32000,"station_id":"ce4bh112rcd13ifvqda0","pricing_plan_id":"cebpf4jnsgd1na2vs0mg"},{"bike_id":"8f82668e-3825-4e2d-afca-16910ac971bd","system_id":"levelo_inurba_marseille","lat":43.27924,"lon":5.39569,"is_reserved":false,"is_disabled":false,"rental_uris":{"android":"levelo://app?vid=8f82668e-3825-4e2d-afca-16910ac971bd","ios":"levelo://app?vid=8f82668e-3825-4e2d-afca-16910ac971bd"},"vehicle_type_id":"4","last_reported":1773318934,"current_range_meters":31200,"station_id":"ce4bhf92rcd13ifvqf40","pricing_plan_id":"cebpf4jnsgd1na2vs0mg"},{"bike_id":"8a3cba12-bd0e-428d-b84b-5ae8eb04e407","system_id":"levelo_inurba_marseille","lat":43.3094,"lon":5.40136,"is_reserved":false,"is_disabled":false,"rental_uris":{"android":"levelo://app?vid=8a3cba12-bd0e-428d-b84b-5ae8eb04e407","ios":"levelo://app?vid=8a3cba12-bd0e-428d-b84b-5ae8eb04e407"},"vehicle_type_id":"4","last_reported":1773318934,"current_range_meters":37600,"station_id":"ce4bgvp2rcd13ifvqct0","pricing_plan_id":"cebpf4jnsgd1na2vs0mg"},{"bike_id":"2bcc5cea-30ab-4f0d-9496-674e9f232c16","system_id":"levelo_inurba_marseille","lat":43.28993,"lon":5.37831,"is_reserved":false,"is_disabled":false,"rental_uris":{"android":"levelo://app?vid=2bcc5cea-30ab-4f0d-9496-674e9f232c16","ios":"levelo://app?vid=2bcc5cea-30ab-4f0d-9496-674e9f232c16"},"vehicle_type_id":"4","last_reported":1773318934,"current_range_meters":33200,"station_id":"ce4bh9p2rcd13ifvqed0","pricing_plan_id":"cebpf4jnsgd1na2vs0mg"},{"bike_id":"8f062b48-8a07-4921-843a-04a51859a2ee","system_id":"levelo_inurba_marseille","lat":43.2955,"lon":5.42276,"is_reserved":false,"is_disabled":false,"rental_uris":{"android":"levelo://app?vid=8f062b48-8a07-4921-843a-04a51859a2ee","ios":"levelo://app?vid=8f062b48-8a07-4921-843a-04a51859a2ee"},"vehicle_type_id":"4","last_reported":1773318934,"current_range_meters":39200,"station_id":"ce4bhph2rcd13ifvqhdg","pricing_plan_id":"cebpf4jnsgd1na2vs0mg"},{"bike_id":"2910c25c-8e17-4198-83e3-9b82182f5216","system_id":"levelo_inurba_marseille","lat":43.24184,"lon":5.36387,"is_reserved":false,"is_disabled":false,"rental_uris":{"android":"levelo://app?vid=2910c25c-8e17-4198-83e3-9b82182f5216","ios":"levelo://app?vid=2910c25c-8e17-4198-83e3-9b82182f5216"},"vehicle_type_id":"4","last_reported":1773318934,"current_range_meters":30000,"station_id":"cpo36qri1sfpv3e86is0","pricing_plan_id":"cebpf4jnsgd1na2vs0mg"},{"bike_id":"39b5f92c-6799-4b49-8a5f-14ab1abfd25a","system_id":"levelo_inurba_marseille","lat":43.31342,"lon":5.36705,"is_reserved":false,"is_disabled":false,"rental_uris":{"android":"levelo://app?vid=39b5f92c-6799-4b49-8a5f-14ab1abfd25a","ios":"levelo://app?vid=39b5f92c-6799-4b49-8a5f-14ab1abfd25a"},"vehicle_type_id":"4","last_reported":1773318934,"current_range_meters":35200,"station_id":"ce4bgr92rcd13ifvqc6g","pricing_plan_id":"cebpf4jnsgd1na2vs0mg"},{"bike_id":"0351fc46-01ea-4af2-bf07-c7417afde98b","system_id":"levelo_inurba_marseille","lat":43.27421,"lon":5.39391,"is_reserved":false,"is_disabled":false,"rental_uris":{"android":"levelo://app?vid=0351fc46-01ea-4af2-bf07-c7417afde98b","ios":"levelo://app?vid=0351fc46-01ea-4af2-bf07-c7417afde98b"},"vehicle_type_id":"4","last_reported":1773318934,"current_range_meters":32400,"station_id":"ce4bhdp2rcd13ifvqf20","pricing_plan_id":"cebpf4jnsgd1na2vs0mg"},{"bike_id":"4d63ba94-123a-40ef-a00b-9f058c52b926","system_id":"levelo_inurba_marseille","lat":43.31252,"lon":5.36844,"is_reserved":false,"is_disabled":false,"rental_uris":{"android":"levelo://app?vid=4d63ba94-123a-40ef-a00b-9f058c52b926","ios":"levelo://app?vid=4d63ba94-123a-40ef-a00b-9f058c52b926"},"vehicle_type_id":"4","last_reported":1773318934,"current_range_meters":19200,"station_id":"ce4bgl92rcd13ifvqbq0","pricing_plan_id":"cebpf4jnsgd1na2vs0mg"},{"bike_id":"23ba3335-938f-476f-a82c-5f731a0f3a9b","system_id":"levelo_inurba_marseille","lat":43.31252,"lon":5.3691,"is_reserved":false,"is_disabled":false,"rental_uris":{"android":"levelo://app?vid=23ba3335-938f-476f-a82c-5f731a0f3a9b","ios":"levelo://app?vid=23ba3335-938f-476f-a82c-5f731a0f3a9b"},"vehicle_type_id":"4","last_reported":1773318934,"current_range_meters":6800,"station_id":"ce4bgl92rcd13ifvqbq0","pricing_plan_id":"cebpf4jnsgd1na2vs0mg"},{"bike_id":"6cae00ab-c96a-4111-a994-8a5980d4713c","system_id":"levelo_inurba_marseille","lat":43.2979,"lon":5.38105,"is_reserved":false,"is_disabled":false,"rental_uris":{"android":"levelo://app?vid=6cae00ab-c96a-4111-a994-8a5980d4713c","ios":"levelo://app?vid=6cae00ab-c96a-4111-a994-8a5980d4713c"},"vehicle_type_id":"4","last_reported":1773318934,"current_range_meters":35600,"station_id":"ce4bgip2rcd13ifvqbb0","pricing_plan_id":"cebpf4jnsgd1na2vs0mg"},{"bike_id":"e5992785-f891-4eb7-b8cf-ab9dacd9c960","system_id":"levelo_inurba_marseille","lat":43.23064,"lon":5.35483,"is_reserved":false,"is_disabled":false,"rental_uris":{"android":"levelo://app?vid=e5992785-f891-4eb7-b8cf-ab9dacd9c960","ios":"levelo://app?vid=e5992785-f891-4eb7-b8cf-ab9dacd9c960"},"vehicle_type_id":"4","last_reported":1773318934,"current_range_meters":34800,"station_id":"cpo3342slgdg3j2ifvpg","pricing_plan_id":"cebpf4jnsgd1na2vs0mg"},{"bike_id":"cfdcc226-98a9-40cc-ab94-5dcbeb67234b","system_id":"levelo_inurba_marseille","lat":43.29922,"lon":5.37452,"is_reserved":false,"is_disabled":false,"rental_uris":{"android":"levelo://app?vid=cfdcc226-98a9-40cc-ab94-5dcbeb67234b","ios":"levelo://app?vid=cfdcc226-98a9-40cc-ab94-5dcbeb67234b"},"vehicle_type_id":"4","last_reported":1773318934,"current_range_meters":40000,"station_id":"ce4bgjh2rcd13ifvqbg0","pricing_plan_id":"cebpf4jnsgd1na2vs0mg"},{"bike_id":"ce511df9-4784-459c-acbc-9c1c2ee2387f","system_id":"levelo_inurba_marseille","lat":43.26937,"lon":5.4027,"is_reserved":false,"is_disabled":false,"rental_uris":{"android":"levelo://app?vid=ce511df9-4784-459c-acbc-9c1c2ee2387f","ios":"levelo://app?vid=ce511df9-4784-459c-acbc-9c1c2ee2387f"},"vehicle_type_id":"4","last_reported":1773318934,"current_range_meters":39200,"station_id":"cjm6bp8fraef2m0cb0m0","pricing_plan_id":"cebpf4jnsgd1na2vs0mg"},{"bike_id":"182982c2-ad4b-4720-99b5-ac2ca378f95a","system_id":"levelo_inurba_marseille","lat":43.24712,"lon":5.38145,"is_reserved":false,"is_disabled":false,"rental_uris":{"android":"levelo://app?vid=182982c2-ad4b-4720-99b5-ac2ca378f95a","ios":"levelo://app?vid=182982c2-ad4b-4720-99b5-ac2ca378f95a"},"vehicle_type_id":"4","last_reported":1773318934,"current_range_meters":39200,"station_id":"","pricing_plan_id":"cebpf4jnsgd1na2vs0mg"},{"bike_id":"12fb0a3b-0411-4b2b-8082-15a7f0d13467","system_id":"levelo_inurba_marseille","lat":43.25952,"lon":5.4091,"is_reserved":false,"is_disabled":false,"rental_uris":{"android":"levelo://app?vid=12fb0a3b-0411-4b2b-8082-15a7f0d13467","ios":"levelo://app?vid=12fb0a3b-0411-4b2b-8082-15a7f0d13467"},"vehicle_type_id":"4","last_reported":1773318934,"current_range_meters":39200,"station_id":"ce4bhm92rcd13ifvqglg","pricing_plan_id":"cebpf4jnsgd1na2vs0mg"},{"bike_id":"2d139dbe-4a51-46ac-bf7e-5e630dc6608b","system_id":"levelo_inurba_marseille","lat":43.30914,"lon":5.38265,"is_reserved":false,"is_disabled":false,"rental_uris":{"android":"levelo://app?vid=2d139dbe-4a51-46ac-bf7e-5e630dc6608b","ios":"levelo://app?vid=2d139dbe-4a51-46ac-bf7e-5e630dc6608b"},"vehicle_type_id":"4","last_reported":1773318934,"current_range_meters":15200,"station_id":"","pricing_plan_id":"cebpf4jnsgd1na2vs0mg"},{"bike_id":"4bb62ff6-d74f-463a-b8b6-6cc2683cb41d","system_id":"levelo_inurba_marseille","lat":43.30148,"lon":5.37414,"is_reserved":false,"is_disabled":false,"rental_uris":{"android":"levelo://app?vid=4bb62ff6-d74f-463a-b8b6-6cc2683cb41d","ios":"levelo://app?vid=4bb62ff6-d74f-463a-b8b6-6cc2683cb41d"},"vehicle_type_id":"4","last_reported":1773318934,"current_range_meters":39200,"station_id":"ce4bgs92rcd13ifvqcc0","pricing_plan_id":"cebpf4jnsgd1na2vs0mg"},{"bike_id":"1203a036-e28c-4847-b52e-5b6c307c477b","system_id":"levelo_inurba_marseille","lat":43.33171,"lon":5.37686,"is_reserved":false,"is_disabled":false,"rental_uris":{"android":"levelo://app?vid=1203a036-e28c-4847-b52e-5b6c307c477b","ios":"levelo://app?vid=1203a036-e28c-4847-b52e-5b6c307c477b"},"vehicle_type_id":"4","last_reported":1773318934,"current_range_meters":6800,"station_id":"st_d46cu089ee8s73dldbu0","pricing_plan_id":"cebpf4jnsgd1na2vs0mg"},{"bike_id":"17ce7070-d813-4eaf-a544-6259968aa271","system_id":"levelo_inurba_marseille","lat":43.31124,"lon":5.36932,"is_reserved":false,"is_disabled":false,"rental_uris":{"android":"levelo://app?vid=17ce7070-d813-4eaf-a544-6259968aa271","ios":"levelo://app?vid=17ce7070-d813-4eaf-a544-6259968aa271"},"vehicle_type_id":"4","last_reported":1773318934,"current_range_meters":6000,"station_id":"","pricing_plan_id":"cebpf4jnsgd1na2vs0mg"},{"bike_id":"8c9d5115-52b3-4c4e-82db-c2c413c26042","system_id":"levelo_inurba_marseille","lat":43.30994,"lon":5.39045,"is_reserved":false,"is_disabled":false,"rental_uris":{"android":"levelo://app?vid=8c9d5115-52b3-4c4e-82db-c2c413c26042","ios":"levelo://app?vid=8c9d5115-52b3-4c4e-82db-c2c413c26042"},"vehicle_type_id":"4","last_reported":1773318934,"current_range_meters":38800,"station_id":"ce4bgup2rcd13ifvqco0","pricing_plan_id":"cebpf4jnsgd1na2vs0mg"},{"bike_id":"84edac93-97f0-4f16-980c-7e1b057bc44a","system_id":"levelo_inurba_marseille","lat":43.26809,"lon":5.40246,"is_reserved":false,"is_disabled":false,"rental_uris":{"android":"levelo://app?vid=84edac93-97f0-4f16-980c-7e1b057bc44a","ios":"levelo://app?vid=84edac93-97f0-4f16-980c-7e1b057bc44a"},"vehicle_type_id":"4","last_reported":1773318934,"current_range_meters":39200,"station_id":"ce501612rcd8frsf0b60","pricing_plan_id":"cebpf4jnsgd1na2vs0mg"},{"bike_id":"e782910b-f199-4e98-be3e-4dc2dd639f54","system_id":"levelo_inurba_marseille","lat":43.28928,"lon":5.36402,"is_reserved":false,"is_disabled":false,"rental_uris":{"android":"levelo://app?vid=e782910b-f199-4e98-be3e-4dc2dd639f54","ios":"levelo://app?vid=e782910b-f199-4e98-be3e-4dc2dd639f54"},"vehicle_type_id":"4","last_reported":1773318934,"current_range_meters":24800,"station_id":"ce4bhc92rcd13ifvqetg","pricing_plan_id":"cebpf4jnsgd1na2vs0mg"},{"bike_id":"566d1d1a-0852-4e0d-907b-e1334e0d6bf9","system_id":"levelo_inurba_marseille","lat":43.23784,"lon":5.36632,"is_reserved":false,"is_disabled":false,"rental_uris":{"android":"levelo://app?vid=566d1d1a-0852-4e0d-907b-e1334e0d6bf9","ios":"levelo://app?vid=566d1d1a-0852-4e0d-907b-e1334e0d6bf9"},"vehicle_type_id":"4","last_reported":1773318934,"current_range_meters":39200,"station_id":"st_d3nk18o9ro0c73en2l3g","pricing_plan_id":"cebpf4jnsgd1na2vs0mg"},{"bike_id":"f96117d6-7d22-4b57-9564-78f617580e63","system_id":"levelo_inurba_marseille","lat":43.29207,"lon":5.358,"is_reserved":false,"is_disabled":false,"rental_uris":{"android":"levelo://app?vid=f96117d6-7d22-4b57-9564-78f617580e63","ios":"levelo://app?vid=f96117d6-7d22-4b57-9564-78f617580e63"},"vehicle_type_id":"4","last_reported":1773318934,"current_range_meters":14000,"station_id":"ce4bhb12rcd13ifvqel0","pricing_plan_id":"cebpf4jnsgd1na2vs0mg"},{"bike_id":"1c573354-cf53-44d3-9111-eb37080df88e","system_id":"levelo_inurba_marseille","lat":43.31569,"lon":5.37392,"is_reserved":false,"is_disabled":false,"rental_uris":{"android":"levelo://app?vid=1c573354-cf53-44d3-9111-eb37080df88e","ios":"levelo://app?vid=1c573354-cf53-44d3-9111-eb37080df88e"},"vehicle_type_id":"4","last_reported":1773318934,"current_range_meters":12800,"station_id":"","pricing_plan_id":"cebpf4jnsgd1na2vs0mg"},{"bike_id":"d46de948-bb4e-4a70-b911-cfc6e7243df5","system_id":"levelo_inurba_marseille","lat":43.25518,"lon":5.37645,"is_reserved":false,"is_disabled":false,"rental_uris":{"android":"levelo://app?vid=d46de948-bb4e-4a70-b911-cfc6e7243df5","ios":"levelo://app?vid=d46de948-bb4e-4a70-b911-cfc6e7243df5"},"vehicle_type_id":"4","last_reported":1773318934,"current_range_meters":16000,"station_id":"ce4bhh12rcd13ifvqff0","pricing_plan_id":"cebpf4jnsgd1na2vs0mg"},{"bike_id":"118f5c39-8aaa-4ebf-955d-12443e27feef","system_id":"levelo_inurba_marseille","lat":43.30539,"lon":5.36555,"is_reserved":false,"is_disabled":false,"rental_uris":{"android":"levelo://app?vid=118f5c39-8aaa-4ebf-955d-12443e27feef","ios":"levelo://app?vid=118f5c39-8aaa-4ebf-955d-12443e27feef"},"vehicle_type_id":"4","last_reported":1773318934,"current_range_meters":3200,"station_id":"ce4bgs12rcd13ifvqcag","pricing_plan_id":"cebpf4jnsgd1na2vs0mg"},{"bike_id":"290affd8-9a09-4ca7-8cc6-b1a8e5ea56f6","system_id":"levelo_inurba_marseille","lat":43.28877,"lon":5.3581,"is_reserved":false,"is_disabled":false,"rental_uris":{"android":"levelo://app?vid=290affd8-9a09-4ca7-8cc6-b1a8e5ea56f6","ios":"levelo://app?vid=290affd8-9a09-4ca7-8cc6-b1a8e5ea56f6"},"vehicle_type_id":"4","last_reported":1773318934,"current_range_meters":16800,"station_id":"ce4bhb12rcd13ifvqem0","pricing_plan_id":"cebpf4jnsgd1na2vs0mg"},{"bike_id":"7314908d-b9a3-4b0a-ac6f-c19f8c71a3f0","system_id":"levelo_inurba_marseille","lat":43.30313,"lon":5.39179,"is_reserved":false,"is_disabled":false,"rental_uris":{"android":"levelo://app?vid=7314908d-b9a3-4b0a-ac6f-c19f8c71a3f0","ios":"levelo://app?vid=7314908d-b9a3-4b0a-ac6f-c19f8c71a3f0"},"vehicle_type_id":"4","last_reported":1773318934,"current_range_meters":28800,"station_id":"ce4bgkh2rcd13ifvqbk0","pricing_plan_id":"cebpf4jnsgd1na2vs0mg"},{"bike_id":"98a69b82-3426-4662-b314-8ddb62a05de5","system_id":"levelo_inurba_marseille","lat":43.30077,"lon":5.43716,"is_reserved":false,"is_disabled":false,"rental_uris":{"android":"levelo://app?vid=98a69b82-3426-4662-b314-8ddb62a05de5","ios":"levelo://app?vid=98a69b82-3426-4662-b314-8ddb62a05de5"},"vehicle_type_id":"4","last_reported":1773318934,"current_range_meters":15200,"station_id":"","pricing_plan_id":"cebpf4jnsgd1na2vs0mg"},{"bike_id":"c6c0ebab-0295-4a0b-844e-e34d619beca3","system_id":"levelo_inurba_marseille","lat":43.23192,"lon":5.39977,"is_reserved":false,"is_disabled":false,"rental_uris":{"android":"levelo://app?vid=c6c0ebab-0295-4a0b-844e-e34d619beca3","ios":"levelo://app?vid=c6c0ebab-0295-4a0b-844e-e34d619beca3"},"vehicle_type_id":"4","last_reported":1773318934,"current_range_meters":34000,"station_id":"ce4bhn12rcd13ifvqgqg","pricing_plan_id":"cebpf4jnsgd1na2vs0mg"},{"bike_id":"a5eb7e2e-f45f-42c7-8ba3-bf76c2472338","system_id":"levelo_inurba_marseille","lat":43.30207,"lon":5.39438,"is_reserved":false,"is_disabled":false,"rental_uris":{"android":"levelo://app?vid=a5eb7e2e-f45f-42c7-8ba3-bf76c2472338","ios":"levelo://app?vid=a5eb7e2e-f45f-42c7-8ba3-bf76c2472338"},"vehicle_type_id":"4","last_reported":1773318934,"current_range_meters":19600,"station_id":"ce4bh0p2rcd13ifvqd70","pricing_plan_id":"cebpf4jnsgd1na2vs0mg"},{"bike_id":"a6bf6a0e-804b-4f95-903f-d306eb4acdb5","system_id":"levelo_inurba_marseille","lat":43.3022,"lon":5.37066,"is_reserved":false,"is_disabled":false,"rental_uris":{"android":"levelo://app?vid=a6bf6a0e-804b-4f95-903f-d306eb4acdb5","ios":"levelo://app?vid=a6bf6a0e-804b-4f95-903f-d306eb4acdb5"},"vehicle_type_id":"4","last_reported":1773318934,"current_range_meters":35600,"station_id":"","pricing_plan_id":"cebpf4jnsgd1na2vs0mg"},{"bike_id":"3d12e3f4-6b13-4168-b577-adf07acbef79","system_id":"levelo_inurba_marseille","lat":43.2924,"lon":5.36029,"is_reserved":false,"is_disabled":false,"rental_uris":{"android":"levelo://app?vid=3d12e3f4-6b13-4168-b577-adf07acbef79","ios":"levelo://app?vid=3d12e3f4-6b13-4168-b577-adf07acbef79"},"vehicle_type_id":"4","last_reported":1773318934,"current_range_meters":38400,"station_id":"ce4bhbh2rcd13ifvqeqg","pricing_plan_id":"cebpf4jnsgd1na2vs0mg"},{"bike_id":"3d236d94-cc73-4767-acdb-e504497fc2d4","system_id":"levelo_inurba_marseille","lat":43.32507,"lon":5.41462,"is_reserved":false,"is_disabled":false,"rental_uris":{"android":"levelo://app?vid=3d236d94-cc73-4767-acdb-e504497fc2d4","ios":"levelo://app?vid=3d236d94-cc73-4767-acdb-e504497fc2d4"},"vehicle_type_id":"4","last_reported":1773318934,"current_range_meters":38400,"station_id":"ce4bhq12rcd13ifvqhhg","pricing_plan_id":"cebpf4jnsgd1na2vs0mg"},{"bike_id":"c2f40725-1ed9-4d1d-87ac-56a67ffd2ae7","system_id":"levelo_inurba_marseille","lat":43.26063,"lon":5.39392,"is_reserved":false,"is_disabled":false,"rental_uris":{"android":"levelo://app?vid=c2f40725-1ed9-4d1d-87ac-56a67ffd2ae7","ios":"levelo://app?vid=c2f40725-1ed9-4d1d-87ac-56a67ffd2ae7"},"vehicle_type_id":"4","last_reported":1773318934,"current_range_meters":17600,"station_id":"ce4bhh92rcd13ifvqfj0","pricing_plan_id":"cebpf4jnsgd1na2vs0mg"},{"bike_id":"b55fcb4f-56c7-4140-a04a-337c4be97265","system_id":"levelo_inurba_marseille","lat":43.27217,"lon":5.39182,"is_reserved":false,"is_disabled":false,"rental_uris":{"android":"levelo://app?vid=b55fcb4f-56c7-4140-a04a-337c4be97265","ios":"levelo://app?vid=b55fcb4f-56c7-4140-a04a-337c4be97265"},"vehicle_type_id":"4","last_reported":1773318934,"current_range_meters":39200,"station_id":"ce4bhhp2rcd13ifvqfm0","pricing_plan_id":"cebpf4jnsgd1na2vs0mg"},{"bike_id":"147a52b2-7e6b-4e4a-8659-5af554f74163","system_id":"levelo_inurba_marseille","lat":43.28076,"lon":5.39647,"is_reserved":false,"is_disabled":false,"rental_uris":{"android":"levelo://app?vid=147a52b2-7e6b-4e4a-8659-5af554f74163","ios":"levelo://app?vid=147a52b2-7e6b-4e4a-8659-5af554f74163"},"vehicle_type_id":"4","last_reported":1773318934,"current_range_meters":20000,"station_id":"ce4bho12rcd13ifvqh2g","pricing_plan_id":"cebpf4jnsgd1na2vs0mg"},{"bike_id":"37108a7d-e489-41be-b8e0-8db6288a6ca4","system_id":"levelo_inurba_marseille","lat":43.30926,"lon":5.40143,"is_reserved":false,"is_disabled":false,"rental_uris":{"android":"levelo://app?vid=37108a7d-e489-41be-b8e0-8db6288a6ca4","ios":"levelo://app?vid=37108a7d-e489-41be-b8e0-8db6288a6ca4"},"vehicle_type_id":"4","last_reported":1773318934,"current_range_meters":27600,"station_id":"ce4bgvp2rcd13ifvqct0","pricing_plan_id":"cebpf4jnsgd1na2vs0mg"},{"bike_id":"3d7b1bec-2a06-47da-a7d0-796cda99d14f","system_id":"levelo_inurba_marseille","lat":43.27067,"lon":5.38319,"is_reserved":false,"is_disabled":false,"rental_uris":{"android":"levelo://app?vid=3d7b1bec-2a06-47da-a7d0-796cda99d14f","ios":"levelo://app?vid=3d7b1bec-2a06-47da-a7d0-796cda99d14f"},"vehicle_type_id":"4","last_reported":1773318934,"current_range_meters":17200,"station_id":"st_d3n2fo6cfp8s73cte1j0","pricing_plan_id":"cebpf4jnsgd1na2vs0mg"},{"bike_id":"cfe7dea0-5a17-4182-ab5f-4baf7598e15c","system_id":"levelo_inurba_marseille","lat":43.3031,"lon":5.39215,"is_reserved":false,"is_disabled":false,"rental_uris":{"android":"levelo://app?vid=cfe7dea0-5a17-4182-ab5f-4baf7598e15c","ios":"levelo://app?vid=cfe7dea0-5a17-4182-ab5f-4baf7598e15c"},"vehicle_type_id":"4","last_reported":1773318934,"current_range_meters":20400,"station_id":"ce4bgkh2rcd13ifvqbk0","pricing_plan_id":"cebpf4jnsgd1na2vs0mg"},{"bike_id":"988db3b8-861f-418c-a7ec-7ae78131696e","system_id":"levelo_inurba_marseille","lat":43.24685,"lon":5.43349,"is_reserved":false,"is_disabled":false,"rental_uris":{"android":"levelo://app?vid=988db3b8-861f-418c-a7ec-7ae78131696e","ios":"levelo://app?vid=988db3b8-861f-418c-a7ec-7ae78131696e"},"vehicle_type_id":"4","last_reported":1773318934,"current_range_meters":26800,"station_id":"","pricing_plan_id":"cebpf4jnsgd1na2vs0mg"},{"bike_id":"974a1920-7f09-4749-800b-512f5bc3f26d","system_id":"levelo_inurba_marseille","lat":43.27985,"lon":5.40016,"is_reserved":false,"is_disabled":false,"rental_uris":{"android":"levelo://app?vid=974a1920-7f09-4749-800b-512f5bc3f26d","ios":"levelo://app?vid=974a1920-7f09-4749-800b-512f5bc3f26d"},"vehicle_type_id":"4","last_reported":1773318934,"current_range_meters":11600,"station_id":"ce4bho92rcd13ifvqh4g","pricing_plan_id":"cebpf4jnsgd1na2vs0mg"},{"bike_id":"dd854777-f378-4132-94e6-63027cc18b82","system_id":"levelo_inurba_marseille","lat":43.29727,"lon":5.41059,"is_reserved":false,"is_disabled":false,"rental_uris":{"android":"levelo://app?vid=dd854777-f378-4132-94e6-63027cc18b82","ios":"levelo://app?vid=dd854777-f378-4132-94e6-63027cc18b82"},"vehicle_type_id":"4","last_reported":1773318934,"current_range_meters":24400,"station_id":"","pricing_plan_id":"cebpf4jnsgd1na2vs0mg"},{"bike_id":"52a7d0b4-4ab6-4976-b8f8-3a26ddccd09a","system_id":"levelo_inurba_marseille","lat":43.28267,"lon":5.35055,"is_reserved":false,"is_disabled":false,"rental_uris":{"android":"levelo://app?vid=52a7d0b4-4ab6-4976-b8f8-3a26ddccd09a","ios":"levelo://app?vid=52a7d0b4-4ab6-4976-b8f8-3a26ddccd09a"},"vehicle_type_id":"4","last_reported":1773318934,"current_range_meters":38400,"station_id":"ce4bhbp2rcd13ifvqerg","pricing_plan_id":"cebpf4jnsgd1na2vs0mg"},{"bike_id":"35a82536-c165-4433-a2e7-59ec0df78006","system_id":"levelo_inurba_marseille","lat":43.3238,"lon":5.38855,"is_reserved":false,"is_disabled":false,"rental_uris":{"android":"levelo://app?vid=35a82536-c165-4433-a2e7-59ec0df78006","ios":"levelo://app?vid=35a82536-c165-4433-a2e7-59ec0df78006"},"vehicle_type_id":"4","last_reported":1773318934,"current_range_meters":4800,"station_id":"ce4bhqp2rcd13ifvqhog","pricing_plan_id":"cebpf4jnsgd1na2vs0mg"},{"bike_id":"85b5b118-e47b-4adc-aa0c-e9bbc2d708e9","system_id":"levelo_inurba_marseille","lat":43.27413,"lon":5.42477,"is_reserved":false,"is_disabled":false,"rental_uris":{"android":"levelo://app?vid=85b5b118-e47b-4adc-aa0c-e9bbc2d708e9","ios":"levelo://app?vid=85b5b118-e47b-4adc-aa0c-e9bbc2d708e9"},"vehicle_type_id":"4","last_reported":1773318934,"current_range_meters":18000,"station_id":"","pricing_plan_id":"cebpf4jnsgd1na2vs0mg"},{"bike_id":"3c6cc61c-3043-4c66-b7fc-8fd4c373e89e","system_id":"levelo_inurba_marseille","lat":43.30156,"lon":5.38082,"is_reserved":false,"is_disabled":false,"rental_uris":{"android":"levelo://app?vid=3c6cc61c-3043-4c66-b7fc-8fd4c373e89e","ios":"levelo://app?vid=3c6cc61c-3043-4c66-b7fc-8fd4c373e89e"},"vehicle_type_id":"4","last_reported":1773318934,"current_range_meters":21600,"station_id":"ce4bgjp2rcd13ifvqbh0","pricing_plan_id":"cebpf4jnsgd1na2vs0mg"},{"bike_id":"532f1fe9-6384-4056-88f3-ddfdd084688a","system_id":"levelo_inurba_marseille","lat":43.28979,"lon":5.42582,"is_reserved":false,"is_disabled":false,"rental_uris":{"android":"levelo://app?vid=532f1fe9-6384-4056-88f3-ddfdd084688a","ios":"levelo://app?vid=532f1fe9-6384-4056-88f3-ddfdd084688a"},"vehicle_type_id":"4","last_reported":1773318934,"current_range_meters":30800,"station_id":"","pricing_plan_id":"cebpf4jnsgd1na2vs0mg"},{"bike_id":"cefa7e87-0924-4f87-b8a6-31b204ff0616","system_id":"levelo_inurba_marseille","lat":43.29594,"lon":5.37527,"is_reserved":false,"is_disabled":true,"rental_uris":{"android":"levelo://app?vid=cefa7e87-0924-4f87-b8a6-31b204ff0616","ios":"levelo://app?vid=cefa7e87-0924-4f87-b8a6-31b204ff0616"},"vehicle_type_id":"4","last_reported":1773318934,"current_range_meters":10000,"station_id":"ce4bgh92rcd13ifvqb50","pricing_plan_id":"cebpf4jnsgd1na2vs0mg"},{"bike_id":"08506998-8ae7-4962-89f3-6ccd37448f52","system_id":"levelo_inurba_marseille","lat":43.29281,"lon":5.36827,"is_reserved":false,"is_disabled":true,"rental_uris":{"android":"levelo://app?vid=08506998-8ae7-4962-89f3-6ccd37448f52","ios":"levelo://app?vid=08506998-8ae7-4962-89f3-6ccd37448f52"},"vehicle_type_id":"4","last_reported":1773318934,"current_range_meters":8800,"station_id":"ce4bhbp2rcd13ifvqesg","pricing_plan_id":"cebpf4jnsgd1na2vs0mg"},{"bike_id":"fc4795bd-7fd3-4c14-9a9b-bcc5f999d4b0","system_id":"levelo_inurba_marseille","lat":43.23979,"lon":5.36608,"is_reserved":false,"is_disabled":false,"rental_uris":{"android":"levelo://app?vid=fc4795bd-7fd3-4c14-9a9b-bcc5f999d4b0","ios":"levelo://app?vid=fc4795bd-7fd3-4c14-9a9b-bcc5f999d4b0"},"vehicle_type_id":"4","last_reported":1773318934,"current_range_meters":36800,"station_id":"ce4bhi12rcd13ifvqfp0","pricing_plan_id":"cebpf4jnsgd1na2vs0mg"},{"bike_id":"5ff99a07-b306-44ef-abe3-5b9df213ee92","system_id":"levelo_inurba_marseille","lat":43.25151,"lon":5.40378,"is_reserved":false,"is_disabled":false,"rental_uris":{"android":"levelo://app?vid=5ff99a07-b306-44ef-abe3-5b9df213ee92","ios":"levelo://app?vid=5ff99a07-b306-44ef-abe3-5b9df213ee92"},"vehicle_type_id":"4","last_reported":1773318934,"current_range_meters":37600,"station_id":"","pricing_plan_id":"cebpf4jnsgd1na2vs0mg"},{"bike_id":"087bf67e-da99-4e0f-bc65-642b2288c7a5","system_id":"levelo_inurba_marseille","lat":43.25507,"lon":5.37658,"is_reserved":false,"is_disabled":false,"rental_uris":{"android":"levelo://app?vid=087bf67e-da99-4e0f-bc65-642b2288c7a5","ios":"levelo://app?vid=087bf67e-da99-4e0f-bc65-642b2288c7a5"},"vehicle_type_id":"4","last_reported":1773318934,"current_range_meters":35200,"station_id":"ce4bhh12rcd13ifvqff0","pricing_plan_id":"cebpf4jnsgd1na2vs0mg"},{"bike_id":"5573f956-11e3-4687-aa68-ec18dbea97ad","system_id":"levelo_inurba_marseille","lat":43.257,"lon":5.41123,"is_reserved":false,"is_disabled":false,"rental_uris":{"android":"levelo://app?vid=5573f956-11e3-4687-aa68-ec18dbea97ad","ios":"levelo://app?vid=5573f956-11e3-4687-aa68-ec18dbea97ad"},"vehicle_type_id":"4","last_reported":1773318934,"current_range_meters":39200,"station_id":"ce4bhkp2rcd13ifvqgd0","pricing_plan_id":"cebpf4jnsgd1na2vs0mg"},{"bike_id":"d10417da-18fa-464c-8c1a-3edbe1f03711","system_id":"levelo_inurba_marseille","lat":43.30135,"lon":5.37416,"is_reserved":false,"is_disabled":false,"rental_uris":{"android":"levelo://app?vid=d10417da-18fa-464c-8c1a-3edbe1f03711","ios":"levelo://app?vid=d10417da-18fa-464c-8c1a-3edbe1f03711"},"vehicle_type_id":"4","last_reported":1773318934,"current_range_meters":39200,"station_id":"ce4bgs92rcd13ifvqcc0","pricing_plan_id":"cebpf4jnsgd1na2vs0mg"},{"bike_id":"f4777085-241f-4711-a2b1-dc1cc18b1bb2","system_id":"levelo_inurba_marseille","lat":43.29016,"lon":5.35611,"is_reserved":false,"is_disabled":false,"rental_uris":{"android":"levelo://app?vid=f4777085-241f-4711-a2b1-dc1cc18b1bb2","ios":"levelo://app?vid=f4777085-241f-4711-a2b1-dc1cc18b1bb2"},"vehicle_type_id":"4","last_reported":1773318934,"current_range_meters":30000,"station_id":"ce4bhb92rcd13ifvqen0","pricing_plan_id":"cebpf4jnsgd1na2vs0mg"},{"bike_id":"9ef5200f-9014-497d-be16-41d4d67c6e84","system_id":"levelo_inurba_marseille","lat":43.30545,"lon":5.36675,"is_reserved":false,"is_disabled":false,"rental_uris":{"android":"levelo://app?vid=9ef5200f-9014-497d-be16-41d4d67c6e84","ios":"levelo://app?vid=9ef5200f-9014-497d-be16-41d4d67c6e84"},"vehicle_type_id":"4","last_reported":1773318934,"current_range_meters":30000,"station_id":"ce4bgrp2rcd13ifvqc9g","pricing_plan_id":"cebpf4jnsgd1na2vs0mg"},{"bike_id":"b94c3b6d-7912-4bb7-bd16-b874ff101a3d","system_id":"levelo_inurba_marseille","lat":43.24802,"lon":5.37452,"is_reserved":false,"is_disabled":false,"rental_uris":{"android":"levelo://app?vid=b94c3b6d-7912-4bb7-bd16-b874ff101a3d","ios":"levelo://app?vid=b94c3b6d-7912-4bb7-bd16-b874ff101a3d"},"vehicle_type_id":"4","last_reported":1773318934,"current_range_meters":26000,"station_id":"ce4bhgh2rcd13ifvqfb0","pricing_plan_id":"cebpf4jnsgd1na2vs0mg"},{"bike_id":"acf3f37d-c224-4635-8d04-0096fa9cc908","system_id":"levelo_inurba_marseille","lat":43.304,"lon":5.4245,"is_reserved":false,"is_disabled":false,"rental_uris":{"android":"levelo://app?vid=acf3f37d-c224-4635-8d04-0096fa9cc908","ios":"levelo://app?vid=acf3f37d-c224-4635-8d04-0096fa9cc908"},"vehicle_type_id":"4","last_reported":1773318934,"current_range_meters":30400,"station_id":"ce4bhoh2rcd13ifvqh6g","pricing_plan_id":"cebpf4jnsgd1na2vs0mg"},{"bike_id":"1866c223-50ab-4283-b8a6-28a247e511e9","system_id":"levelo_inurba_marseille","lat":43.33023,"lon":5.39027,"is_reserved":false,"is_disabled":false,"rental_uris":{"android":"levelo://app?vid=1866c223-50ab-4283-b8a6-28a247e511e9","ios":"levelo://app?vid=1866c223-50ab-4283-b8a6-28a247e511e9"},"vehicle_type_id":"4","last_reported":1773318934,"current_range_meters":39200,"station_id":"ce4bhr92rcd13ifvqhrg","pricing_plan_id":"cebpf4jnsgd1na2vs0mg"},{"bike_id":"846247c3-7ba9-4141-9376-a46067afdc1d","system_id":"levelo_inurba_marseille","lat":43.21194,"lon":5.35078,"is_reserved":false,"is_disabled":false,"rental_uris":{"android":"levelo://app?vid=846247c3-7ba9-4141-9376-a46067afdc1d","ios":"levelo://app?vid=846247c3-7ba9-4141-9376-a46067afdc1d"},"vehicle_type_id":"4","last_reported":1773318934,"current_range_meters":28400,"station_id":"st_cvj6sg6p6f1abm77japg","pricing_plan_id":"cebpf4jnsgd1na2vs0mg"},{"bike_id":"7714c663-6076-4790-82c6-ae579f1bc1aa","system_id":"levelo_inurba_marseille","lat":43.30151,"lon":5.38095,"is_reserved":false,"is_disabled":false,"rental_uris":{"android":"levelo://app?vid=7714c663-6076-4790-82c6-ae579f1bc1aa","ios":"levelo://app?vid=7714c663-6076-4790-82c6-ae579f1bc1aa"},"vehicle_type_id":"4","last_reported":1773318934,"current_range_meters":10000,"station_id":"ce4bgjp2rcd13ifvqbh0","pricing_plan_id":"cebpf4jnsgd1na2vs0mg"},{"bike_id":"96f57cbd-9b30-4fcb-8d44-f411b21c466d","system_id":"levelo_inurba_marseille","lat":43.28542,"lon":5.44095,"is_reserved":false,"is_disabled":false,"rental_uris":{"android":"levelo://app?vid=96f57cbd-9b30-4fcb-8d44-f411b21c466d","ios":"levelo://app?vid=96f57cbd-9b30-4fcb-8d44-f411b21c466d"},"vehicle_type_id":"4","last_reported":1773318934,"current_range_meters":22800,"station_id":"st_d3j3df2ikq2c7380ej80","pricing_plan_id":"cebpf4jnsgd1na2vs0mg"},{"bike_id":"1a067d96-050e-44a3-8b21-d8d3429506cc","system_id":"levelo_inurba_marseille","lat":43.27676,"lon":5.38926,"is_reserved":false,"is_disabled":false,"rental_uris":{"android":"levelo://app?vid=1a067d96-050e-44a3-8b21-d8d3429506cc","ios":"levelo://app?vid=1a067d96-050e-44a3-8b21-d8d3429506cc"},"vehicle_type_id":"4","last_reported":1773318934,"current_range_meters":39200,"station_id":"ce4bhi12rcd13ifvqfo0","pricing_plan_id":"cebpf4jnsgd1na2vs0mg"},{"bike_id":"74cb2b6f-9305-47f1-bb68-6c880d035389","system_id":"levelo_inurba_marseille","lat":43.29628,"lon":5.37146,"is_reserved":false,"is_disabled":false,"rental_uris":{"android":"levelo://app?vid=74cb2b6f-9305-47f1-bb68-6c880d035389","ios":"levelo://app?vid=74cb2b6f-9305-47f1-bb68-6c880d035389"},"vehicle_type_id":"4","last_reported":1773318934,"current_range_meters":39200,"station_id":"ce4bgnh2rcd13ifvqc0g","pricing_plan_id":"cebpf4jnsgd1na2vs0mg"},{"bike_id":"8ca21b58-74ad-4b24-8718-44fd40a2cd88","system_id":"levelo_inurba_marseille","lat":43.290233,"lon":5.381266,"is_reserved":false,"is_disabled":true,"rental_uris":{"android":"levelo://app?vid=8ca21b58-74ad-4b24-8718-44fd40a2cd88","ios":"levelo://app?vid=8ca21b58-74ad-4b24-8718-44fd40a2cd88"},"vehicle_type_id":"4","last_reported":1773318934,"current_range_meters":0,"station_id":"ce4bh4p2rcd13ifvqe1g","pricing_plan_id":"cebpf4jnsgd1na2vs0mg"},{"bike_id":"2e4d209f-08f2-43d3-9818-f4e569dfb51e","system_id":"levelo_inurba_marseille","lat":43.29004,"lon":5.35606,"is_reserved":false,"is_disabled":false,"rental_uris":{"android":"levelo://app?vid=2e4d209f-08f2-43d3-9818-f4e569dfb51e","ios":"levelo://app?vid=2e4d209f-08f2-43d3-9818-f4e569dfb51e"},"vehicle_type_id":"4","last_reported":1773318934,"current_range_meters":39200,"station_id":"ce4bhb92rcd13ifvqen0","pricing_plan_id":"cebpf4jnsgd1na2vs0mg"},{"bike_id":"665ff0f7-9c34-4bed-a0c8-a90ca1b75ea6","system_id":"levelo_inurba_marseille","lat":43.25592,"lon":5.38201,"is_reserved":false,"is_disabled":false,"rental_uris":{"android":"levelo://app?vid=665ff0f7-9c34-4bed-a0c8-a90ca1b75ea6","ios":"levelo://app?vid=665ff0f7-9c34-4bed-a0c8-a90ca1b75ea6"},"vehicle_type_id":"4","last_reported":1773318934,"current_range_meters":30800,"station_id":"ce4bhih2rcd13ifvqfs0","pricing_plan_id":"cebpf4jnsgd1na2vs0mg"},{"bike_id":"d2bcd2b3-b9c0-44b8-b65e-328220c5307e","system_id":"levelo_inurba_marseille","lat":43.29116,"lon":5.43276,"is_reserved":false,"is_disabled":false,"rental_uris":{"android":"levelo://app?vid=d2bcd2b3-b9c0-44b8-b65e-328220c5307e","ios":"levelo://app?vid=d2bcd2b3-b9c0-44b8-b65e-328220c5307e"},"vehicle_type_id":"4","last_reported":1773318934,"current_range_meters":40000,"station_id":"","pricing_plan_id":"cebpf4jnsgd1na2vs0mg"},{"bike_id":"7d538e1b-80d7-4048-8273-aeb629a41021","system_id":"levelo_inurba_marseille","lat":43.33613,"lon":5.40988,"is_reserved":false,"is_disabled":false,"rental_uris":{"android":"levelo://app?vid=7d538e1b-80d7-4048-8273-aeb629a41021","ios":"levelo://app?vid=7d538e1b-80d7-4048-8273-aeb629a41021"},"vehicle_type_id":"4","last_reported":1773318934,"current_range_meters":36800,"station_id":"ce4bhqh2rcd13ifvqhmg","pricing_plan_id":"cebpf4jnsgd1na2vs0mg"},{"bike_id":"b8f4b9ea-cff0-4c69-82aa-0114c0bd8bea","system_id":"levelo_inurba_marseille","lat":43.25928,"lon":5.40891,"is_reserved":false,"is_disabled":false,"rental_uris":{"android":"levelo://app?vid=b8f4b9ea-cff0-4c69-82aa-0114c0bd8bea","ios":"levelo://app?vid=b8f4b9ea-cff0-4c69-82aa-0114c0bd8bea"},"vehicle_type_id":"4","last_reported":1773318934,"current_range_meters":30000,"station_id":"ce4bhm92rcd13ifvqglg","pricing_plan_id":"cebpf4jnsgd1na2vs0mg"},{"bike_id":"a50db47c-b4f2-4a58-ae7d-0a4f7384612e","system_id":"levelo_inurba_marseille","lat":43.29937,"lon":5.37542,"is_reserved":false,"is_disabled":false,"rental_uris":{"android":"levelo://app?vid=a50db47c-b4f2-4a58-ae7d-0a4f7384612e","ios":"levelo://app?vid=a50db47c-b4f2-4a58-ae7d-0a4f7384612e"},"vehicle_type_id":"4","last_reported":1773318934,"current_range_meters":32400,"station_id":"","pricing_plan_id":"cebpf4jnsgd1na2vs0mg"},{"bike_id":"896440e6-cef8-4268-bb86-ac2c6e2de747","system_id":"levelo_inurba_marseille","lat":43.28477,"lon":5.48399,"is_reserved":false,"is_disabled":false,"rental_uris":{"android":"levelo://app?vid=896440e6-cef8-4268-bb86-ac2c6e2de747","ios":"levelo://app?vid=896440e6-cef8-4268-bb86-ac2c6e2de747"},"vehicle_type_id":"4","last_reported":1773318934,"current_range_meters":28000,"station_id":"","pricing_plan_id":"cebpf4jnsgd1na2vs0mg"},{"bike_id":"902ddb0c-ca49-4a39-b10f-9695f9422e94","system_id":"levelo_inurba_marseille","lat":43.30596,"lon":5.3933,"is_reserved":false,"is_disabled":false,"rental_uris":{"android":"levelo://app?vid=902ddb0c-ca49-4a39-b10f-9695f9422e94","ios":"levelo://app?vid=902ddb0c-ca49-4a39-b10f-9695f9422e94"},"vehicle_type_id":"4","last_reported":1773318934,"current_range_meters":35200,"station_id":"ce4bh0p2rcd13ifvqd80","pricing_plan_id":"cebpf4jnsgd1na2vs0mg"},{"bike_id":"c7edf450-6aa2-45f0-bd13-d0472387380d","system_id":"levelo_inurba_marseille","lat":43.32509,"lon":5.41454,"is_reserved":false,"is_disabled":false,"rental_uris":{"android":"levelo://app?vid=c7edf450-6aa2-45f0-bd13-d0472387380d","ios":"levelo://app?vid=c7edf450-6aa2-45f0-bd13-d0472387380d"},"vehicle_type_id":"4","last_reported":1773318934,"current_range_meters":37600,"station_id":"ce4bhq12rcd13ifvqhhg","pricing_plan_id":"cebpf4jnsgd1na2vs0mg"},{"bike_id":"2c1215f2-9624-4e50-bbbb-a53264cdd31e","system_id":"levelo_inurba_marseille","lat":43.2848,"lon":5.48379,"is_reserved":false,"is_disabled":false,"rental_uris":{"android":"levelo://app?vid=2c1215f2-9624-4e50-bbbb-a53264cdd31e","ios":"levelo://app?vid=2c1215f2-9624-4e50-bbbb-a53264cdd31e"},"vehicle_type_id":"4","last_reported":1773318934,"current_range_meters":18800,"station_id":"","pricing_plan_id":"cebpf4jnsgd1na2vs0mg"},{"bike_id":"d3021de4-6e3a-44cd-95eb-48f8bb5c9c5b","system_id":"levelo_inurba_marseille","lat":43.32495,"lon":5.383,"is_reserved":false,"is_disabled":false,"rental_uris":{"android":"levelo://app?vid=d3021de4-6e3a-44cd-95eb-48f8bb5c9c5b","ios":"levelo://app?vid=d3021de4-6e3a-44cd-95eb-48f8bb5c9c5b"},"vehicle_type_id":"4","last_reported":1773318934,"current_range_meters":28400,"station_id":"st_d4asgbiv49dc73anf9m0","pricing_plan_id":"cebpf4jnsgd1na2vs0mg"},{"bike_id":"c1db54c2-038e-4f3d-a503-c0e3fc6c96ed","system_id":"levelo_inurba_marseille","lat":43.33534,"lon":5.37458,"is_reserved":false,"is_disabled":false,"rental_uris":{"android":"levelo://app?vid=c1db54c2-038e-4f3d-a503-c0e3fc6c96ed","ios":"levelo://app?vid=c1db54c2-038e-4f3d-a503-c0e3fc6c96ed"},"vehicle_type_id":"4","last_reported":1773318934,"current_range_meters":14000,"station_id":"st_d46tts09ee8s73dlu43g","pricing_plan_id":"cebpf4jnsgd1na2vs0mg"},{"bike_id":"a0ab89fd-d4e3-4039-8377-577b0acf001d","system_id":"levelo_inurba_marseille","lat":43.24371,"lon":5.44098,"is_reserved":false,"is_disabled":true,"rental_uris":{"android":"levelo://app?vid=a0ab89fd-d4e3-4039-8377-577b0acf001d","ios":"levelo://app?vid=a0ab89fd-d4e3-4039-8377-577b0acf001d"},"vehicle_type_id":"4","last_reported":1773318934,"current_range_meters":8400,"station_id":"","pricing_plan_id":"cebpf4jnsgd1na2vs0mg"},{"bike_id":"d49b9530-04c8-49bc-ab34-044615863d69","system_id":"levelo_inurba_marseille","lat":43.28418,"lon":5.37511,"is_reserved":false,"is_disabled":false,"rental_uris":{"android":"levelo://app?vid=d49b9530-04c8-49bc-ab34-044615863d69","ios":"levelo://app?vid=d49b9530-04c8-49bc-ab34-044615863d69"},"vehicle_type_id":"4","last_reported":1773318934,"current_range_meters":22800,"station_id":"ce4bh412rcd13ifvqds0","pricing_plan_id":"cebpf4jnsgd1na2vs0mg"},{"bike_id":"529da06d-0a79-4740-bd96-b825fe3f53aa","system_id":"levelo_inurba_marseille","lat":43.30929,"lon":5.40153,"is_reserved":false,"is_disabled":false,"rental_uris":{"android":"levelo://app?vid=529da06d-0a79-4740-bd96-b825fe3f53aa","ios":"levelo://app?vid=529da06d-0a79-4740-bd96-b825fe3f53aa"},"vehicle_type_id":"4","last_reported":1773318934,"current_range_meters":35200,"station_id":"ce4bgvp2rcd13ifvqct0","pricing_plan_id":"cebpf4jnsgd1na2vs0mg"},{"bike_id":"607e26c4-ab8e-4bfd-b1d5-07a9ab72dc71","system_id":"levelo_inurba_marseille","lat":43.30564,"lon":5.36495,"is_reserved":false,"is_disabled":false,"rental_uris":{"android":"levelo://app?vid=607e26c4-ab8e-4bfd-b1d5-07a9ab72dc71","ios":"levelo://app?vid=607e26c4-ab8e-4bfd-b1d5-07a9ab72dc71"},"vehicle_type_id":"4","last_reported":1773318934,"current_range_meters":35600,"station_id":"","pricing_plan_id":"cebpf4jnsgd1na2vs0mg"},{"bike_id":"074abf32-ac3f-4657-8880-be02438a7ff0","system_id":"levelo_inurba_marseille","lat":43.23186,"lon":5.39989,"is_reserved":false,"is_disabled":false,"rental_uris":{"android":"levelo://app?vid=074abf32-ac3f-4657-8880-be02438a7ff0","ios":"levelo://app?vid=074abf32-ac3f-4657-8880-be02438a7ff0"},"vehicle_type_id":"4","last_reported":1773318934,"current_range_meters":39200,"station_id":"ce4bhn12rcd13ifvqgqg","pricing_plan_id":"cebpf4jnsgd1na2vs0mg"},{"bike_id":"99024087-35c6-4e5e-ac7e-d816c0bf3496","system_id":"levelo_inurba_marseille","lat":43.27495,"lon":5.42445,"is_reserved":false,"is_disabled":false,"rental_uris":{"android":"levelo://app?vid=99024087-35c6-4e5e-ac7e-d816c0bf3496","ios":"levelo://app?vid=99024087-35c6-4e5e-ac7e-d816c0bf3496"},"vehicle_type_id":"4","last_reported":1773318934,"current_range_meters":30000,"station_id":"ce4bhn92rcd13ifvqgrg","pricing_plan_id":"cebpf4jnsgd1na2vs0mg"},{"bike_id":"e8b7d766-9ece-4870-a1b8-5b316a1b8e67","system_id":"levelo_inurba_marseille","lat":43.22558,"lon":5.4162,"is_reserved":false,"is_disabled":false,"rental_uris":{"android":"levelo://app?vid=e8b7d766-9ece-4870-a1b8-5b316a1b8e67","ios":"levelo://app?vid=e8b7d766-9ece-4870-a1b8-5b316a1b8e67"},"vehicle_type_id":"4","last_reported":1773318934,"current_range_meters":15200,"station_id":"st_d2o4gvlbi1j2169b742g","pricing_plan_id":"cebpf4jnsgd1na2vs0mg"},{"bike_id":"d6e33741-be01-4184-a659-f0a031ff17ef","system_id":"levelo_inurba_marseille","lat":43.28201,"lon":5.39056,"is_reserved":false,"is_disabled":true,"rental_uris":{"android":"levelo://app?vid=d6e33741-be01-4184-a659-f0a031ff17ef","ios":"levelo://app?vid=d6e33741-be01-4184-a659-f0a031ff17ef"},"vehicle_type_id":"4","last_reported":1773318934,"current_range_meters":36800,"station_id":"ce4bhn92rcd13ifvqgsg","pricing_plan_id":"cebpf4jnsgd1na2vs0mg"},{"bike_id":"7fec08d5-ee68-460a-ac18-925555054430","system_id":"levelo_inurba_marseille","lat":43.24178,"lon":5.36405,"is_reserved":false,"is_disabled":false,"rental_uris":{"android":"levelo://app?vid=7fec08d5-ee68-460a-ac18-925555054430","ios":"levelo://app?vid=7fec08d5-ee68-460a-ac18-925555054430"},"vehicle_type_id":"4","last_reported":1773318934,"current_range_meters":12800,"station_id":"cpo36qri1sfpv3e86is0","pricing_plan_id":"cebpf4jnsgd1na2vs0mg"},{"bike_id":"3ecf70a0-cb4b-4cf0-a67e-bc48de80fe63","system_id":"levelo_inurba_marseille","lat":43.30166,"lon":5.38081,"is_reserved":false,"is_disabled":false,"rental_uris":{"android":"levelo://app?vid=3ecf70a0-cb4b-4cf0-a67e-bc48de80fe63","ios":"levelo://app?vid=3ecf70a0-cb4b-4cf0-a67e-bc48de80fe63"},"vehicle_type_id":"4","last_reported":1773318934,"current_range_meters":32400,"station_id":"ce4bgjp2rcd13ifvqbh0","pricing_plan_id":"cebpf4jnsgd1na2vs0mg"},{"bike_id":"042ce79c-9ecd-4951-9599-5cd7652fcf66","system_id":"levelo_inurba_marseille","lat":43.23397,"lon":5.41228,"is_reserved":false,"is_disabled":false,"rental_uris":{"android":"levelo://app?vid=042ce79c-9ecd-4951-9599-5cd7652fcf66","ios":"levelo://app?vid=042ce79c-9ecd-4951-9599-5cd7652fcf66"},"vehicle_type_id":"4","last_reported":1773318934,"current_range_meters":9600,"station_id":"","pricing_plan_id":"cebpf4jnsgd1na2vs0mg"},{"bike_id":"7d60e954-8740-4b77-8b08-34d5244da699","system_id":"levelo_inurba_marseille","lat":43.30149,"lon":5.37401,"is_reserved":false,"is_disabled":false,"rental_uris":{"android":"levelo://app?vid=7d60e954-8740-4b77-8b08-34d5244da699","ios":"levelo://app?vid=7d60e954-8740-4b77-8b08-34d5244da699"},"vehicle_type_id":"4","last_reported":1773318934,"current_range_meters":9600,"station_id":"ce4bgs92rcd13ifvqcc0","pricing_plan_id":"cebpf4jnsgd1na2vs0mg"},{"bike_id":"e50c6797-fb66-441b-97d0-c7fbbc3eb9c6","system_id":"levelo_inurba_marseille","lat":43.31706,"lon":5.43699,"is_reserved":false,"is_disabled":false,"rental_uris":{"android":"levelo://app?vid=e50c6797-fb66-441b-97d0-c7fbbc3eb9c6","ios":"levelo://app?vid=e50c6797-fb66-441b-97d0-c7fbbc3eb9c6"},"vehicle_type_id":"4","last_reported":1773318934,"current_range_meters":26800,"station_id":"ce4bhp92rcd13ifvqhcg","pricing_plan_id":"cebpf4jnsgd1na2vs0mg"},{"bike_id":"d936ee88-e6c5-41eb-94c9-c0f089a32b91","system_id":"levelo_inurba_marseille","lat":43.31197,"lon":5.37736,"is_reserved":false,"is_disabled":false,"rental_uris":{"android":"levelo://app?vid=d936ee88-e6c5-41eb-94c9-c0f089a32b91","ios":"levelo://app?vid=d936ee88-e6c5-41eb-94c9-c0f089a32b91"},"vehicle_type_id":"4","last_reported":1773318934,"current_range_meters":31200,"station_id":"","pricing_plan_id":"cebpf4jnsgd1na2vs0mg"},{"bike_id":"e8badaa0-d513-4502-b39a-a15ea8302cd2","system_id":"levelo_inurba_marseille","lat":43.27524,"lon":5.42417,"is_reserved":false,"is_disabled":false,"rental_uris":{"android":"levelo://app?vid=e8badaa0-d513-4502-b39a-a15ea8302cd2","ios":"levelo://app?vid=e8badaa0-d513-4502-b39a-a15ea8302cd2"},"vehicle_type_id":"4","last_reported":1773318934,"current_range_meters":31200,"station_id":"ce4bhn92rcd13ifvqgrg","pricing_plan_id":"cebpf4jnsgd1na2vs0mg"},{"bike_id":"7c5d90d1-8ba7-4d11-a859-9263fa5d367b","system_id":"levelo_inurba_marseille","lat":43.337444,"lon":5.374475,"is_reserved":false,"is_disabled":true,"rental_uris":{"android":"levelo://app?vid=7c5d90d1-8ba7-4d11-a859-9263fa5d367b","ios":"levelo://app?vid=7c5d90d1-8ba7-4d11-a859-9263fa5d367b"},"vehicle_type_id":"4","last_reported":1773318934,"current_range_meters":7200,"station_id":"","pricing_plan_id":"cebpf4jnsgd1na2vs0mg"},{"bike_id":"2169ccd2-fcb1-4d69-95c6-86e070c8d716","system_id":"levelo_inurba_marseille","lat":43.24802,"lon":5.37451,"is_reserved":false,"is_disabled":false,"rental_uris":{"android":"levelo://app?vid=2169ccd2-fcb1-4d69-95c6-86e070c8d716","ios":"levelo://app?vid=2169ccd2-fcb1-4d69-95c6-86e070c8d716"},"vehicle_type_id":"4","last_reported":1773318934,"current_range_meters":38000,"station_id":"ce4bhgh2rcd13ifvqfb0","pricing_plan_id":"cebpf4jnsgd1na2vs0mg"},{"bike_id":"54aee12d-ec42-42f4-b083-5a25c36bd147","system_id":"levelo_inurba_marseille","lat":43.2827,"lon":5.35078,"is_reserved":false,"is_disabled":false,"rental_uris":{"android":"levelo://app?vid=54aee12d-ec42-42f4-b083-5a25c36bd147","ios":"levelo://app?vid=54aee12d-ec42-42f4-b083-5a25c36bd147"},"vehicle_type_id":"4","last_reported":1773318934,"current_range_meters":17200,"station_id":"ce4bhbp2rcd13ifvqerg","pricing_plan_id":"cebpf4jnsgd1na2vs0mg"},{"bike_id":"2747c85c-374e-45b4-84a4-d941c63b9167","system_id":"levelo_inurba_marseille","lat":43.31361,"lon":5.38501,"is_reserved":false,"is_disabled":false,"rental_uris":{"android":"levelo://app?vid=2747c85c-374e-45b4-84a4-d941c63b9167","ios":"levelo://app?vid=2747c85c-374e-45b4-84a4-d941c63b9167"},"vehicle_type_id":"4","last_reported":1773318934,"current_range_meters":38800,"station_id":"ce4bgt92rcd13ifvqcf0","pricing_plan_id":"cebpf4jnsgd1na2vs0mg"},{"bike_id":"b27431d4-5a07-448c-ae86-4b30066a8d4a","system_id":"levelo_inurba_marseille","lat":43.29229,"lon":5.36045,"is_reserved":false,"is_disabled":false,"rental_uris":{"android":"levelo://app?vid=b27431d4-5a07-448c-ae86-4b30066a8d4a","ios":"levelo://app?vid=b27431d4-5a07-448c-ae86-4b30066a8d4a"},"vehicle_type_id":"4","last_reported":1773318934,"current_range_meters":38000,"station_id":"ce4bhbh2rcd13ifvqeqg","pricing_plan_id":"cebpf4jnsgd1na2vs0mg"},{"bike_id":"f62cbee2-12e5-4cdd-bfbc-04088f9f32fa","system_id":"levelo_inurba_marseille","lat":43.28477,"lon":5.48393,"is_reserved":false,"is_disabled":false,"rental_uris":{"android":"levelo://app?vid=f62cbee2-12e5-4cdd-bfbc-04088f9f32fa","ios":"levelo://app?vid=f62cbee2-12e5-4cdd-bfbc-04088f9f32fa"},"vehicle_type_id":"4","last_reported":1773318934,"current_range_meters":16400,"station_id":"","pricing_plan_id":"cebpf4jnsgd1na2vs0mg"},{"bike_id":"189d0b9d-d153-4529-b6d8-b512a602901a","system_id":"levelo_inurba_marseille","lat":43.30542,"lon":5.3652,"is_reserved":false,"is_disabled":false,"rental_uris":{"android":"levelo://app?vid=189d0b9d-d153-4529-b6d8-b512a602901a","ios":"levelo://app?vid=189d0b9d-d153-4529-b6d8-b512a602901a"},"vehicle_type_id":"4","last_reported":1773318934,"current_range_meters":29600,"station_id":"ce4bgs12rcd13ifvqcag","pricing_plan_id":"cebpf4jnsgd1na2vs0mg"},{"bike_id":"19789858-1ce6-4714-be96-8a45f06c1294","system_id":"levelo_inurba_marseille","lat":43.29566,"lon":5.42279,"is_reserved":false,"is_disabled":false,"rental_uris":{"android":"levelo://app?vid=19789858-1ce6-4714-be96-8a45f06c1294","ios":"levelo://app?vid=19789858-1ce6-4714-be96-8a45f06c1294"},"vehicle_type_id":"4","last_reported":1773318934,"current_range_meters":39200,"station_id":"ce4bhph2rcd13ifvqhdg","pricing_plan_id":"cebpf4jnsgd1na2vs0mg"},{"bike_id":"681fca49-d7d0-4d64-ba5f-a1615360789c","system_id":"levelo_inurba_marseille","lat":43.25832,"lon":5.39443,"is_reserved":false,"is_disabled":false,"rental_uris":{"android":"levelo://app?vid=681fca49-d7d0-4d64-ba5f-a1615360789c","ios":"levelo://app?vid=681fca49-d7d0-4d64-ba5f-a1615360789c"},"vehicle_type_id":"4","last_reported":1773318934,"current_range_meters":32800,"station_id":"ce4bhip2rcd13ifvqft0","pricing_plan_id":"cebpf4jnsgd1na2vs0mg"},{"bike_id":"4ede1c5d-cd1d-43a7-9e04-33a2e4b9e085","system_id":"levelo_inurba_marseille","lat":43.29578,"lon":5.37506,"is_reserved":false,"is_disabled":false,"rental_uris":{"android":"levelo://app?vid=4ede1c5d-cd1d-43a7-9e04-33a2e4b9e085","ios":"levelo://app?vid=4ede1c5d-cd1d-43a7-9e04-33a2e4b9e085"},"vehicle_type_id":"4","last_reported":1773318934,"current_range_meters":19200,"station_id":"ce4bgh92rcd13ifvqb50","pricing_plan_id":"cebpf4jnsgd1na2vs0mg"},{"bike_id":"e824a880-56b7-440e-8a54-db91d8597347","system_id":"levelo_inurba_marseille","lat":43.23206,"lon":5.35527,"is_reserved":false,"is_disabled":false,"rental_uris":{"android":"levelo://app?vid=e824a880-56b7-440e-8a54-db91d8597347","ios":"levelo://app?vid=e824a880-56b7-440e-8a54-db91d8597347"},"vehicle_type_id":"4","last_reported":1773318934,"current_range_meters":16800,"station_id":"ce4bhu92rcd13ifvqi70","pricing_plan_id":"cebpf4jnsgd1na2vs0mg"},{"bike_id":"ba3a231f-10a0-4302-b0e7-08f11861cd04","system_id":"levelo_inurba_marseille","lat":43.28469,"lon":5.48398,"is_reserved":false,"is_disabled":false,"rental_uris":{"android":"levelo://app?vid=ba3a231f-10a0-4302-b0e7-08f11861cd04","ios":"levelo://app?vid=ba3a231f-10a0-4302-b0e7-08f11861cd04"},"vehicle_type_id":"4","last_reported":1773318934,"current_range_meters":36800,"station_id":"","pricing_plan_id":"cebpf4jnsgd1na2vs0mg"},{"bike_id":"2f280020-4fd0-4c35-a3e5-87e99fea2ecd","system_id":"levelo_inurba_marseille","lat":43.29592,"lon":5.37716,"is_reserved":false,"is_disabled":true,"rental_uris":{"android":"levelo://app?vid=2f280020-4fd0-4c35-a3e5-87e99fea2ecd","ios":"levelo://app?vid=2f280020-4fd0-4c35-a3e5-87e99fea2ecd"},"vehicle_type_id":"4","last_reported":1773318934,"current_range_meters":29600,"station_id":"ce4bgi92rcd13ifvqb90","pricing_plan_id":"cebpf4jnsgd1na2vs0mg"},{"bike_id":"03f09e59-d972-46d2-824d-098cfbd29613","system_id":"levelo_inurba_marseille","lat":43.272,"lon":5.39174,"is_reserved":false,"is_disabled":false,"rental_uris":{"android":"levelo://app?vid=03f09e59-d972-46d2-824d-098cfbd29613","ios":"levelo://app?vid=03f09e59-d972-46d2-824d-098cfbd29613"},"vehicle_type_id":"4","last_reported":1773318934,"current_range_meters":27200,"station_id":"ce4bhhp2rcd13ifvqfm0","pricing_plan_id":"cebpf4jnsgd1na2vs0mg"},{"bike_id":"be671c5b-fb45-47d4-8232-4da9e39592ca","system_id":"levelo_inurba_marseille","lat":43.24182,"lon":5.36367,"is_reserved":false,"is_disabled":false,"rental_uris":{"android":"levelo://app?vid=be671c5b-fb45-47d4-8232-4da9e39592ca","ios":"levelo://app?vid=be671c5b-fb45-47d4-8232-4da9e39592ca"},"vehicle_type_id":"4","last_reported":1773318934,"current_range_meters":16800,"station_id":"cpo36qri1sfpv3e86is0","pricing_plan_id":"cebpf4jnsgd1na2vs0mg"},{"bike_id":"352c9f7d-89b4-42e5-9e2e-76d972a274bd","system_id":"levelo_inurba_marseille","lat":43.28905,"lon":5.43249,"is_reserved":false,"is_disabled":false,"rental_uris":{"android":"levelo://app?vid=352c9f7d-89b4-42e5-9e2e-76d972a274bd","ios":"levelo://app?vid=352c9f7d-89b4-42e5-9e2e-76d972a274bd"},"vehicle_type_id":"4","last_reported":1773318934,"current_range_meters":7200,"station_id":"","pricing_plan_id":"cebpf4jnsgd1na2vs0mg"},{"bike_id":"770b4d76-4606-48de-965d-2fca1615dcdd","system_id":"levelo_inurba_marseille","lat":43.33601,"lon":5.41031,"is_reserved":false,"is_disabled":false,"rental_uris":{"android":"levelo://app?vid=770b4d76-4606-48de-965d-2fca1615dcdd","ios":"levelo://app?vid=770b4d76-4606-48de-965d-2fca1615dcdd"},"vehicle_type_id":"4","last_reported":1773318934,"current_range_meters":24800,"station_id":"ce4bhqh2rcd13ifvqhmg","pricing_plan_id":"cebpf4jnsgd1na2vs0mg"},{"bike_id":"c1627c1f-7b0b-4814-9c89-9220d9dba0f5","system_id":"levelo_inurba_marseille","lat":43.27203,"lon":5.39192,"is_reserved":false,"is_disabled":false,"rental_uris":{"android":"levelo://app?vid=c1627c1f-7b0b-4814-9c89-9220d9dba0f5","ios":"levelo://app?vid=c1627c1f-7b0b-4814-9c89-9220d9dba0f5"},"vehicle_type_id":"4","last_reported":1773318934,"current_range_meters":5600,"station_id":"ce4bhhp2rcd13ifvqfm0","pricing_plan_id":"cebpf4jnsgd1na2vs0mg"},{"bike_id":"c59a5209-1b70-42df-8250-859beecf23e1","system_id":"levelo_inurba_marseille","lat":43.23197,"lon":5.35551,"is_reserved":false,"is_disabled":false,"rental_uris":{"android":"levelo://app?vid=c59a5209-1b70-42df-8250-859beecf23e1","ios":"levelo://app?vid=c59a5209-1b70-42df-8250-859beecf23e1"},"vehicle_type_id":"4","last_reported":1773318934,"current_range_meters":36000,"station_id":"ce4bhu92rcd13ifvqi70","pricing_plan_id":"cebpf4jnsgd1na2vs0mg"},{"bike_id":"7b8622cc-88aa-410b-a2e9-d82d79a17652","system_id":"levelo_inurba_marseille","lat":43.29268,"lon":5.37613,"is_reserved":false,"is_disabled":false,"rental_uris":{"android":"levelo://app?vid=7b8622cc-88aa-410b-a2e9-d82d79a17652","ios":"levelo://app?vid=7b8622cc-88aa-410b-a2e9-d82d79a17652"},"vehicle_type_id":"4","last_reported":1773318934,"current_range_meters":15200,"station_id":"ce4bgi12rcd13ifvqb80","pricing_plan_id":"cebpf4jnsgd1na2vs0mg"},{"bike_id":"43468732-7f40-43fb-8c1d-b096b4f0dfb3","system_id":"levelo_inurba_marseille","lat":43.30553,"lon":5.36515,"is_reserved":false,"is_disabled":false,"rental_uris":{"android":"levelo://app?vid=43468732-7f40-43fb-8c1d-b096b4f0dfb3","ios":"levelo://app?vid=43468732-7f40-43fb-8c1d-b096b4f0dfb3"},"vehicle_type_id":"4","last_reported":1773318934,"current_range_meters":25200,"station_id":"ce4bgs12rcd13ifvqcag","pricing_plan_id":"cebpf4jnsgd1na2vs0mg"},{"bike_id":"fed428a6-a508-4132-94d7-783075e10fe3","system_id":"levelo_inurba_marseille","lat":43.32368,"lon":5.36755,"is_reserved":false,"is_disabled":false,"rental_uris":{"android":"levelo://app?vid=fed428a6-a508-4132-94d7-783075e10fe3","ios":"levelo://app?vid=fed428a6-a508-4132-94d7-783075e10fe3"},"vehicle_type_id":"4","last_reported":1773318934,"current_range_meters":31200,"station_id":"ce4bhsh2rcd13ifvqi2g","pricing_plan_id":"cebpf4jnsgd1na2vs0mg"},{"bike_id":"e6dbf946-e6cb-4555-a961-d892a44657f8","system_id":"levelo_inurba_marseille","lat":43.27579,"lon":5.38415,"is_reserved":false,"is_disabled":false,"rental_uris":{"android":"levelo://app?vid=e6dbf946-e6cb-4555-a961-d892a44657f8","ios":"levelo://app?vid=e6dbf946-e6cb-4555-a961-d892a44657f8"},"vehicle_type_id":"4","last_reported":1773318934,"current_range_meters":10800,"station_id":"ce4bhh92rcd13ifvqfi0","pricing_plan_id":"cebpf4jnsgd1na2vs0mg"},{"bike_id":"29a395a3-9a63-46a8-b681-a21644de9c32","system_id":"levelo_inurba_marseille","lat":43.27642,"lon":5.38976,"is_reserved":false,"is_disabled":false,"rental_uris":{"android":"levelo://app?vid=29a395a3-9a63-46a8-b681-a21644de9c32","ios":"levelo://app?vid=29a395a3-9a63-46a8-b681-a21644de9c32"},"vehicle_type_id":"4","last_reported":1773318934,"current_range_meters":37600,"station_id":"","pricing_plan_id":"cebpf4jnsgd1na2vs0mg"},{"bike_id":"e55c52e9-43cb-4f3d-ab3b-c275a0e2d597","system_id":"levelo_inurba_marseille","lat":43.30555,"lon":5.36505,"is_reserved":false,"is_disabled":false,"rental_uris":{"android":"levelo://app?vid=e55c52e9-43cb-4f3d-ab3b-c275a0e2d597","ios":"levelo://app?vid=e55c52e9-43cb-4f3d-ab3b-c275a0e2d597"},"vehicle_type_id":"4","last_reported":1773318934,"current_range_meters":24400,"station_id":"ce4bgs12rcd13ifvqcag","pricing_plan_id":"cebpf4jnsgd1na2vs0mg"},{"bike_id":"a6308c57-1a36-41de-bb48-5ab4640b043f","system_id":"levelo_inurba_marseille","lat":43.29583,"lon":5.36734,"is_reserved":false,"is_disabled":false,"rental_uris":{"android":"levelo://app?vid=a6308c57-1a36-41de-bb48-5ab4640b043f","ios":"levelo://app?vid=a6308c57-1a36-41de-bb48-5ab4640b043f"},"vehicle_type_id":"4","last_reported":1773318934,"current_range_meters":23200,"station_id":"ce4bgph2rcd13ifvqc2g","pricing_plan_id":"cebpf4jnsgd1na2vs0mg"},{"bike_id":"035b30d5-a74b-4e35-8731-fb649d854586","system_id":"levelo_inurba_marseille","lat":43.29223,"lon":5.36061,"is_reserved":false,"is_disabled":false,"rental_uris":{"android":"levelo://app?vid=035b30d5-a74b-4e35-8731-fb649d854586","ios":"levelo://app?vid=035b30d5-a74b-4e35-8731-fb649d854586"},"vehicle_type_id":"4","last_reported":1773318934,"current_range_meters":25600,"station_id":"ce4bhbh2rcd13ifvqeqg","pricing_plan_id":"cebpf4jnsgd1na2vs0mg"},{"bike_id":"e8e891cf-164b-4375-8667-e5eaa1ef09df","system_id":"levelo_inurba_marseille","lat":43.31765,"lon":5.38998,"is_reserved":false,"is_disabled":false,"rental_uris":{"android":"levelo://app?vid=e8e891cf-164b-4375-8667-e5eaa1ef09df","ios":"levelo://app?vid=e8e891cf-164b-4375-8667-e5eaa1ef09df"},"vehicle_type_id":"4","last_reported":1773318934,"current_range_meters":35200,"station_id":"ce4bhqp2rcd13ifvqhng","pricing_plan_id":"cebpf4jnsgd1na2vs0mg"},{"bike_id":"77044ba6-284b-43f3-8fd5-1abc415f09db","system_id":"levelo_inurba_marseille","lat":43.25592,"lon":5.3824,"is_reserved":false,"is_disabled":false,"rental_uris":{"android":"levelo://app?vid=77044ba6-284b-43f3-8fd5-1abc415f09db","ios":"levelo://app?vid=77044ba6-284b-43f3-8fd5-1abc415f09db"},"vehicle_type_id":"4","last_reported":1773318934,"current_range_meters":37600,"station_id":"ce4bhih2rcd13ifvqfs0","pricing_plan_id":"cebpf4jnsgd1na2vs0mg"},{"bike_id":"a540b441-3928-4042-84dc-78cbd8de6fd0","system_id":"levelo_inurba_marseille","lat":43.24388,"lon":5.37084,"is_reserved":false,"is_disabled":false,"rental_uris":{"android":"levelo://app?vid=a540b441-3928-4042-84dc-78cbd8de6fd0","ios":"levelo://app?vid=a540b441-3928-4042-84dc-78cbd8de6fd0"},"vehicle_type_id":"4","last_reported":1773318934,"current_range_meters":30400,"station_id":"ce4bhhh2rcd13ifvqfk0","pricing_plan_id":"cebpf4jnsgd1na2vs0mg"},{"bike_id":"b2a69c97-4339-4083-90d9-b3414ae4bb10","system_id":"levelo_inurba_marseille","lat":43.31488,"lon":5.373115,"is_reserved":false,"is_disabled":false,"rental_uris":{"android":"levelo://app?vid=b2a69c97-4339-4083-90d9-b3414ae4bb10","ios":"levelo://app?vid=b2a69c97-4339-4083-90d9-b3414ae4bb10"},"vehicle_type_id":"4","last_reported":1773318934,"current_range_meters":39200,"station_id":"ce4bgt12rcd13ifvqcd0","pricing_plan_id":"cebpf4jnsgd1na2vs0mg"},{"bike_id":"32bd028c-4df1-4648-ba2a-263dd3d46a56","system_id":"levelo_inurba_marseille","lat":43.27682,"lon":5.38907,"is_reserved":false,"is_disabled":false,"rental_uris":{"android":"levelo://app?vid=32bd028c-4df1-4648-ba2a-263dd3d46a56","ios":"levelo://app?vid=32bd028c-4df1-4648-ba2a-263dd3d46a56"},"vehicle_type_id":"4","last_reported":1773318934,"current_range_meters":39200,"station_id":"ce4bhi12rcd13ifvqfo0","pricing_plan_id":"cebpf4jnsgd1na2vs0mg"},{"bike_id":"c23121da-481f-4f22-911a-fdf6fec88b1c","system_id":"levelo_inurba_marseille","lat":43.299753,"lon":5.384922,"is_reserved":false,"is_disabled":false,"rental_uris":{"android":"levelo://app?vid=c23121da-481f-4f22-911a-fdf6fec88b1c","ios":"levelo://app?vid=c23121da-481f-4f22-911a-fdf6fec88b1c"},"vehicle_type_id":"4","last_reported":1773318934,"current_range_meters":26800,"station_id":"ce4bgi92rcd13ifvqb90","pricing_plan_id":"cebpf4jnsgd1na2vs0mg"},{"bike_id":"b65f16ae-4b09-4b47-9309-ebb0f6b1cfa4","system_id":"levelo_inurba_marseille","lat":43.25572,"lon":5.38231,"is_reserved":false,"is_disabled":false,"rental_uris":{"android":"levelo://app?vid=b65f16ae-4b09-4b47-9309-ebb0f6b1cfa4","ios":"levelo://app?vid=b65f16ae-4b09-4b47-9309-ebb0f6b1cfa4"},"vehicle_type_id":"4","last_reported":1773318934,"current_range_meters":30800,"station_id":"ce4bhih2rcd13ifvqfs0","pricing_plan_id":"cebpf4jnsgd1na2vs0mg"},{"bike_id":"4d9955e1-63cd-4eb1-84d6-f2acfdd55e89","system_id":"levelo_inurba_marseille","lat":43.28396,"lon":5.35,"is_reserved":false,"is_disabled":false,"rental_uris":{"android":"levelo://app?vid=4d9955e1-63cd-4eb1-84d6-f2acfdd55e89","ios":"levelo://app?vid=4d9955e1-63cd-4eb1-84d6-f2acfdd55e89"},"vehicle_type_id":"4","last_reported":1773318934,"current_range_meters":15200,"station_id":"ce4bhbh2rcd13ifvqepg","pricing_plan_id":"cebpf4jnsgd1na2vs0mg"},{"bike_id":"eb7402b0-d2c7-4043-aa11-cd75870274a3","system_id":"levelo_inurba_marseille","lat":43.26813,"lon":5.4027,"is_reserved":false,"is_disabled":false,"rental_uris":{"android":"levelo://app?vid=eb7402b0-d2c7-4043-aa11-cd75870274a3","ios":"levelo://app?vid=eb7402b0-d2c7-4043-aa11-cd75870274a3"},"vehicle_type_id":"4","last_reported":1773318934,"current_range_meters":12000,"station_id":"ce501612rcd8frsf0b60","pricing_plan_id":"cebpf4jnsgd1na2vs0mg"},{"bike_id":"d70e7c8d-7228-4bba-bc24-c8ffa4cc6c2a","system_id":"levelo_inurba_marseille","lat":43.24371,"lon":5.37971,"is_reserved":false,"is_disabled":false,"rental_uris":{"android":"levelo://app?vid=d70e7c8d-7228-4bba-bc24-c8ffa4cc6c2a","ios":"levelo://app?vid=d70e7c8d-7228-4bba-bc24-c8ffa4cc6c2a"},"vehicle_type_id":"4","last_reported":1773318934,"current_range_meters":19600,"station_id":"","pricing_plan_id":"cebpf4jnsgd1na2vs0mg"},{"bike_id":"d551195e-f5b0-490f-bac9-9dae68d902a4","system_id":"levelo_inurba_marseille","lat":43.21788,"lon":5.3457,"is_reserved":false,"is_disabled":false,"rental_uris":{"android":"levelo://app?vid=d551195e-f5b0-490f-bac9-9dae68d902a4","ios":"levelo://app?vid=d551195e-f5b0-490f-bac9-9dae68d902a4"},"vehicle_type_id":"4","last_reported":1773318934,"current_range_meters":33600,"station_id":"","pricing_plan_id":"cebpf4jnsgd1na2vs0mg"},{"bike_id":"17092a17-ecc2-4869-9543-a7b9eb4bf6ef","system_id":"levelo_inurba_marseille","lat":43.21192,"lon":5.35068,"is_reserved":false,"is_disabled":false,"rental_uris":{"android":"levelo://app?vid=17092a17-ecc2-4869-9543-a7b9eb4bf6ef","ios":"levelo://app?vid=17092a17-ecc2-4869-9543-a7b9eb4bf6ef"},"vehicle_type_id":"4","last_reported":1773318934,"current_range_meters":12000,"station_id":"st_cvj6sg6p6f1abm77japg","pricing_plan_id":"cebpf4jnsgd1na2vs0mg"},{"bike_id":"0a2f9b28-6219-4106-b011-3026133a767c","system_id":"levelo_inurba_marseille","lat":43.29585,"lon":5.38126,"is_reserved":false,"is_disabled":true,"rental_uris":{"android":"levelo://app?vid=0a2f9b28-6219-4106-b011-3026133a767c","ios":"levelo://app?vid=0a2f9b28-6219-4106-b011-3026133a767c"},"vehicle_type_id":"4","last_reported":1773318934,"current_range_meters":34800,"station_id":"ce4bgl12rcd13ifvqbo0","pricing_plan_id":"cebpf4jnsgd1na2vs0mg"},{"bike_id":"de9f5ea3-1c64-41f7-966d-7a991e6dbd13","system_id":"levelo_inurba_marseille","lat":43.30376,"lon":5.4247,"is_reserved":false,"is_disabled":false,"rental_uris":{"android":"levelo://app?vid=de9f5ea3-1c64-41f7-966d-7a991e6dbd13","ios":"levelo://app?vid=de9f5ea3-1c64-41f7-966d-7a991e6dbd13"},"vehicle_type_id":"4","last_reported":1773318934,"current_range_meters":29600,"station_id":"ce4bhoh2rcd13ifvqh6g","pricing_plan_id":"cebpf4jnsgd1na2vs0mg"},{"bike_id":"b79e4b1c-9a3a-4c7d-8ab8-29773779acd1","system_id":"levelo_inurba_marseille","lat":43.27973,"lon":5.41007,"is_reserved":false,"is_disabled":false,"rental_uris":{"android":"levelo://app?vid=b79e4b1c-9a3a-4c7d-8ab8-29773779acd1","ios":"levelo://app?vid=b79e4b1c-9a3a-4c7d-8ab8-29773779acd1"},"vehicle_type_id":"4","last_reported":1773318934,"current_range_meters":25600,"station_id":"ce4bhnp2rcd13ifvqh0g","pricing_plan_id":"cebpf4jnsgd1na2vs0mg"},{"bike_id":"a9b61c72-4469-45c1-bdf6-ad98ba1da118","system_id":"levelo_inurba_marseille","lat":43.3096,"lon":5.3902,"is_reserved":false,"is_disabled":false,"rental_uris":{"android":"levelo://app?vid=a9b61c72-4469-45c1-bdf6-ad98ba1da118","ios":"levelo://app?vid=a9b61c72-4469-45c1-bdf6-ad98ba1da118"},"vehicle_type_id":"4","last_reported":1773318934,"current_range_meters":15200,"station_id":"ce4bgup2rcd13ifvqco0","pricing_plan_id":"cebpf4jnsgd1na2vs0mg"},{"bike_id":"c73dc152-9938-46ce-972e-77003c30697b","system_id":"levelo_inurba_marseille","lat":43.25846,"lon":5.39415,"is_reserved":false,"is_disabled":false,"rental_uris":{"android":"levelo://app?vid=c73dc152-9938-46ce-972e-77003c30697b","ios":"levelo://app?vid=c73dc152-9938-46ce-972e-77003c30697b"},"vehicle_type_id":"4","last_reported":1773318934,"current_range_meters":36800,"station_id":"ce4bhip2rcd13ifvqft0","pricing_plan_id":"cebpf4jnsgd1na2vs0mg"},{"bike_id":"e17b8e76-0f76-40aa-a687-3f87eeadab84","system_id":"levelo_inurba_marseille","lat":43.26808,"lon":5.40259,"is_reserved":false,"is_disabled":false,"rental_uris":{"android":"levelo://app?vid=e17b8e76-0f76-40aa-a687-3f87eeadab84","ios":"levelo://app?vid=e17b8e76-0f76-40aa-a687-3f87eeadab84"},"vehicle_type_id":"4","last_reported":1773318934,"current_range_meters":32400,"station_id":"ce501612rcd8frsf0b60","pricing_plan_id":"cebpf4jnsgd1na2vs0mg"},{"bike_id":"e58a0337-ccee-4dc0-b528-1696aeec6127","system_id":"levelo_inurba_marseille","lat":43.27828,"lon":5.39226,"is_reserved":false,"is_disabled":false,"rental_uris":{"android":"levelo://app?vid=e58a0337-ccee-4dc0-b528-1696aeec6127","ios":"levelo://app?vid=e58a0337-ccee-4dc0-b528-1696aeec6127"},"vehicle_type_id":"4","last_reported":1773318934,"current_range_meters":38800,"station_id":"ce4bhjp2rcd13ifvqga0","pricing_plan_id":"cebpf4jnsgd1na2vs0mg"},{"bike_id":"a975d39d-4a14-4e0c-8235-9aa6495c9757","system_id":"levelo_inurba_marseille","lat":43.27404,"lon":5.42477,"is_reserved":false,"is_disabled":true,"rental_uris":{"android":"levelo://app?vid=a975d39d-4a14-4e0c-8235-9aa6495c9757","ios":"levelo://app?vid=a975d39d-4a14-4e0c-8235-9aa6495c9757"},"vehicle_type_id":"4","last_reported":1773318934,"current_range_meters":30000,"station_id":"","pricing_plan_id":"cebpf4jnsgd1na2vs0mg"},{"bike_id":"42c23f21-e078-4684-bab5-a30fd2bf0118","system_id":"levelo_inurba_marseille","lat":43.29696,"lon":5.37711,"is_reserved":false,"is_disabled":true,"rental_uris":{"android":"levelo://app?vid=42c23f21-e078-4684-bab5-a30fd2bf0118","ios":"levelo://app?vid=42c23f21-e078-4684-bab5-a30fd2bf0118"},"vehicle_type_id":"4","last_reported":1773318934,"current_range_meters":39200,"station_id":"ce4bgkh2rcd13ifvqbl0","pricing_plan_id":"cebpf4jnsgd1na2vs0mg"},{"bike_id":"d94f8ff8-8eab-4a7f-abeb-c33bde1a7adf","system_id":"levelo_inurba_marseille","lat":43.30431,"lon":5.39745,"is_reserved":false,"is_disabled":false,"rental_uris":{"android":"levelo://app?vid=d94f8ff8-8eab-4a7f-abeb-c33bde1a7adf","ios":"levelo://app?vid=d94f8ff8-8eab-4a7f-abeb-c33bde1a7adf"},"vehicle_type_id":"4","last_reported":1773318934,"current_range_meters":19200,"station_id":"ce4bh092rcd13ifvqd20","pricing_plan_id":"cebpf4jnsgd1na2vs0mg"},{"bike_id":"bee871d3-07ca-4830-9795-16242e3d8f72","system_id":"levelo_inurba_marseille","lat":43.27525,"lon":5.42417,"is_reserved":false,"is_disabled":false,"rental_uris":{"android":"levelo://app?vid=bee871d3-07ca-4830-9795-16242e3d8f72","ios":"levelo://app?vid=bee871d3-07ca-4830-9795-16242e3d8f72"},"vehicle_type_id":"4","last_reported":1773318934,"current_range_meters":33600,"station_id":"ce4bhn92rcd13ifvqgrg","pricing_plan_id":"cebpf4jnsgd1na2vs0mg"},{"bike_id":"648ef0c3-dc3d-4c0b-a0fa-86816163a300","system_id":"levelo_inurba_marseille","lat":43.25014,"lon":5.38929,"is_reserved":false,"is_disabled":false,"rental_uris":{"android":"levelo://app?vid=648ef0c3-dc3d-4c0b-a0fa-86816163a300","ios":"levelo://app?vid=648ef0c3-dc3d-4c0b-a0fa-86816163a300"},"vehicle_type_id":"4","last_reported":1773318934,"current_range_meters":39200,"station_id":"ce4bhgp2rcd13ifvqfd0","pricing_plan_id":"cebpf4jnsgd1na2vs0mg"},{"bike_id":"b7baf039-eccc-470e-b14a-764f2206b215","system_id":"levelo_inurba_marseille","lat":43.32052,"lon":5.41552,"is_reserved":false,"is_disabled":false,"rental_uris":{"android":"levelo://app?vid=b7baf039-eccc-470e-b14a-764f2206b215","ios":"levelo://app?vid=b7baf039-eccc-470e-b14a-764f2206b215"},"vehicle_type_id":"4","last_reported":1773318934,"current_range_meters":22400,"station_id":"ce4bhq92rcd13ifvqhkg","pricing_plan_id":"cebpf4jnsgd1na2vs0mg"},{"bike_id":"8353becb-09ec-45b5-a24b-8f6218c436aa","system_id":"levelo_inurba_marseille","lat":43.24179,"lon":5.39688,"is_reserved":false,"is_disabled":true,"rental_uris":{"android":"levelo://app?vid=8353becb-09ec-45b5-a24b-8f6218c436aa","ios":"levelo://app?vid=8353becb-09ec-45b5-a24b-8f6218c436aa"},"vehicle_type_id":"4","last_reported":1773318934,"current_range_meters":7200,"station_id":"ce4bhn12rcd13ifvqgpg","pricing_plan_id":"cebpf4jnsgd1na2vs0mg"},{"bike_id":"e99c9edd-3050-4618-8d36-cd73b8428723","system_id":"levelo_inurba_marseille","lat":43.34156,"lon":5.40903,"is_reserved":false,"is_disabled":false,"rental_uris":{"android":"levelo://app?vid=e99c9edd-3050-4618-8d36-cd73b8428723","ios":"levelo://app?vid=e99c9edd-3050-4618-8d36-cd73b8428723"},"vehicle_type_id":"4","last_reported":1773318934,"current_range_meters":38000,"station_id":"ce4bhqh2rcd13ifvqhlg","pricing_plan_id":"cebpf4jnsgd1na2vs0mg"},{"bike_id":"54bf9eed-4ee5-4a7a-8e08-f054363abff2","system_id":"levelo_inurba_marseille","lat":43.23151,"lon":5.43706,"is_reserved":false,"is_disabled":false,"rental_uris":{"android":"levelo://app?vid=54bf9eed-4ee5-4a7a-8e08-f054363abff2","ios":"levelo://app?vid=54bf9eed-4ee5-4a7a-8e08-f054363abff2"},"vehicle_type_id":"4","last_reported":1773318934,"current_range_meters":20000,"station_id":"ce4bhmp2rcd13ifvqgog","pricing_plan_id":"cebpf4jnsgd1na2vs0mg"},{"bike_id":"eaea9a02-90be-4a9f-b6d8-28175064e3dd","system_id":"levelo_inurba_marseille","lat":43.27436,"lon":5.39411,"is_reserved":false,"is_disabled":false,"rental_uris":{"android":"levelo://app?vid=eaea9a02-90be-4a9f-b6d8-28175064e3dd","ios":"levelo://app?vid=eaea9a02-90be-4a9f-b6d8-28175064e3dd"},"vehicle_type_id":"4","last_reported":1773318934,"current_range_meters":39200,"station_id":"ce4bhdp2rcd13ifvqf20","pricing_plan_id":"cebpf4jnsgd1na2vs0mg"},{"bike_id":"22851193-2dc4-42f2-8eb5-e7d0f3df0f19","system_id":"levelo_inurba_marseille","lat":43.25687,"lon":5.41062,"is_reserved":false,"is_disabled":false,"rental_uris":{"android":"levelo://app?vid=22851193-2dc4-42f2-8eb5-e7d0f3df0f19","ios":"levelo://app?vid=22851193-2dc4-42f2-8eb5-e7d0f3df0f19"},"vehicle_type_id":"4","last_reported":1773318934,"current_range_meters":33200,"station_id":"ce4bhkp2rcd13ifvqgd0","pricing_plan_id":"cebpf4jnsgd1na2vs0mg"},{"bike_id":"2de2be3f-2062-469b-abc8-a8489400f3c4","system_id":"levelo_inurba_marseille","lat":43.28946,"lon":5.36405,"is_reserved":false,"is_disabled":false,"rental_uris":{"android":"levelo://app?vid=2de2be3f-2062-469b-abc8-a8489400f3c4","ios":"levelo://app?vid=2de2be3f-2062-469b-abc8-a8489400f3c4"},"vehicle_type_id":"4","last_reported":1773318934,"current_range_meters":36400,"station_id":"ce4bhc92rcd13ifvqetg","pricing_plan_id":"cebpf4jnsgd1na2vs0mg"},{"bike_id":"32ac5d0e-ae28-4478-ad22-93086f84b7a9","system_id":"levelo_inurba_marseille","lat":43.28429,"lon":5.35,"is_reserved":false,"is_disabled":false,"rental_uris":{"android":"levelo://app?vid=32ac5d0e-ae28-4478-ad22-93086f84b7a9","ios":"levelo://app?vid=32ac5d0e-ae28-4478-ad22-93086f84b7a9"},"vehicle_type_id":"4","last_reported":1773318934,"current_range_meters":16800,"station_id":"ce4bhbh2rcd13ifvqepg","pricing_plan_id":"cebpf4jnsgd1na2vs0mg"},{"bike_id":"a63d22a1-9803-47da-97c5-9eb5069b8019","system_id":"levelo_inurba_marseille","lat":43.25832,"lon":5.39451,"is_reserved":false,"is_disabled":false,"rental_uris":{"android":"levelo://app?vid=a63d22a1-9803-47da-97c5-9eb5069b8019","ios":"levelo://app?vid=a63d22a1-9803-47da-97c5-9eb5069b8019"},"vehicle_type_id":"4","last_reported":1773318934,"current_range_meters":37600,"station_id":"ce4bhip2rcd13ifvqft0","pricing_plan_id":"cebpf4jnsgd1na2vs0mg"},{"bike_id":"c60a1f6e-b77b-4b54-9406-84b147463065","system_id":"levelo_inurba_marseille","lat":43.25012,"lon":5.38919,"is_reserved":false,"is_disabled":false,"rental_uris":{"android":"levelo://app?vid=c60a1f6e-b77b-4b54-9406-84b147463065","ios":"levelo://app?vid=c60a1f6e-b77b-4b54-9406-84b147463065"},"vehicle_type_id":"4","last_reported":1773318934,"current_range_meters":39200,"station_id":"ce4bhgp2rcd13ifvqfd0","pricing_plan_id":"cebpf4jnsgd1na2vs0mg"},{"bike_id":"712f73a5-ccbd-4df8-a2bf-f8199628c205","system_id":"levelo_inurba_marseille","lat":43.25929,"lon":5.40857,"is_reserved":false,"is_disabled":false,"rental_uris":{"android":"levelo://app?vid=712f73a5-ccbd-4df8-a2bf-f8199628c205","ios":"levelo://app?vid=712f73a5-ccbd-4df8-a2bf-f8199628c205"},"vehicle_type_id":"4","last_reported":1773318934,"current_range_meters":39200,"station_id":"ce4bhm92rcd13ifvqglg","pricing_plan_id":"cebpf4jnsgd1na2vs0mg"},{"bike_id":"83cfba9f-efeb-47ab-979a-b88615e72865","system_id":"levelo_inurba_marseille","lat":43.27208,"lon":5.39175,"is_reserved":false,"is_disabled":false,"rental_uris":{"android":"levelo://app?vid=83cfba9f-efeb-47ab-979a-b88615e72865","ios":"levelo://app?vid=83cfba9f-efeb-47ab-979a-b88615e72865"},"vehicle_type_id":"4","last_reported":1773318934,"current_range_meters":39200,"station_id":"ce4bhhp2rcd13ifvqfm0","pricing_plan_id":"cebpf4jnsgd1na2vs0mg"},{"bike_id":"8b2e521b-1101-44fe-9d4a-0344f080c81c","system_id":"levelo_inurba_marseille","lat":43.28481,"lon":5.48397,"is_reserved":false,"is_disabled":false,"rental_uris":{"android":"levelo://app?vid=8b2e521b-1101-44fe-9d4a-0344f080c81c","ios":"levelo://app?vid=8b2e521b-1101-44fe-9d4a-0344f080c81c"},"vehicle_type_id":"4","last_reported":1773318934,"current_range_meters":33600,"station_id":"","pricing_plan_id":"cebpf4jnsgd1na2vs0mg"},{"bike_id":"7814c3e3-4ac3-4b10-8dfa-88d309b2e93b","system_id":"levelo_inurba_marseille","lat":43.26837,"lon":5.39396,"is_reserved":false,"is_disabled":false,"rental_uris":{"android":"levelo://app?vid=7814c3e3-4ac3-4b10-8dfa-88d309b2e93b","ios":"levelo://app?vid=7814c3e3-4ac3-4b10-8dfa-88d309b2e93b"},"vehicle_type_id":"4","last_reported":1773318934,"current_range_meters":38400,"station_id":"ce4bhh12rcd13ifvqfg0","pricing_plan_id":"cebpf4jnsgd1na2vs0mg"},{"bike_id":"1697678c-c8a4-4c47-ade7-901915c540a8","system_id":"levelo_inurba_marseille","lat":43.29599,"lon":5.38084,"is_reserved":false,"is_disabled":true,"rental_uris":{"android":"levelo://app?vid=1697678c-c8a4-4c47-ade7-901915c540a8","ios":"levelo://app?vid=1697678c-c8a4-4c47-ade7-901915c540a8"},"vehicle_type_id":"4","last_reported":1773318934,"current_range_meters":2800,"station_id":"ce4bgl12rcd13ifvqbo0","pricing_plan_id":"cebpf4jnsgd1na2vs0mg"},{"bike_id":"2d0fe126-58cc-44cf-add9-20297236455a","system_id":"levelo_inurba_marseille","lat":43.30933,"lon":5.40139,"is_reserved":false,"is_disabled":false,"rental_uris":{"android":"levelo://app?vid=2d0fe126-58cc-44cf-add9-20297236455a","ios":"levelo://app?vid=2d0fe126-58cc-44cf-add9-20297236455a"},"vehicle_type_id":"4","last_reported":1773318934,"current_range_meters":26800,"station_id":"ce4bgvp2rcd13ifvqct0","pricing_plan_id":"cebpf4jnsgd1na2vs0mg"},{"bike_id":"37795a5e-05a3-4708-a88c-10a303415360","system_id":"levelo_inurba_marseille","lat":43.25137,"lon":5.40327,"is_reserved":false,"is_disabled":false,"rental_uris":{"android":"levelo://app?vid=37795a5e-05a3-4708-a88c-10a303415360","ios":"levelo://app?vid=37795a5e-05a3-4708-a88c-10a303415360"},"vehicle_type_id":"4","last_reported":1773318934,"current_range_meters":35200,"station_id":"ce4bhlh2rcd13ifvqgig","pricing_plan_id":"cebpf4jnsgd1na2vs0mg"},{"bike_id":"b25d2da3-e55a-45fd-ac7e-cf696fba5f30","system_id":"levelo_inurba_marseille","lat":43.27506,"lon":5.42462,"is_reserved":false,"is_disabled":false,"rental_uris":{"android":"levelo://app?vid=b25d2da3-e55a-45fd-ac7e-cf696fba5f30","ios":"levelo://app?vid=b25d2da3-e55a-45fd-ac7e-cf696fba5f30"},"vehicle_type_id":"4","last_reported":1773318934,"current_range_meters":3600,"station_id":"ce4bhn92rcd13ifvqgrg","pricing_plan_id":"cebpf4jnsgd1na2vs0mg"},{"bike_id":"279b31e6-f012-4d9c-a7c8-086a36e72b5f","system_id":"levelo_inurba_marseille","lat":43.29552,"lon":5.38536,"is_reserved":false,"is_disabled":true,"rental_uris":{"android":"levelo://app?vid=279b31e6-f012-4d9c-a7c8-086a36e72b5f","ios":"levelo://app?vid=279b31e6-f012-4d9c-a7c8-086a36e72b5f"},"vehicle_type_id":"4","last_reported":1773318934,"current_range_meters":20000,"station_id":"ce4bgih2rcd13ifvqba0","pricing_plan_id":"cebpf4jnsgd1na2vs0mg"},{"bike_id":"98d1559e-d2bf-470b-aa3b-e89fc9e63aa5","system_id":"levelo_inurba_marseille","lat":43.24085,"lon":5.3774,"is_reserved":false,"is_disabled":false,"rental_uris":{"android":"levelo://app?vid=98d1559e-d2bf-470b-aa3b-e89fc9e63aa5","ios":"levelo://app?vid=98d1559e-d2bf-470b-aa3b-e89fc9e63aa5"},"vehicle_type_id":"4","last_reported":1773318934,"current_range_meters":26000,"station_id":"ce4bhnp2rcd13ifvqgvg","pricing_plan_id":"cebpf4jnsgd1na2vs0mg"},{"bike_id":"65a7fe50-2450-4c8f-8e44-981be7bdae37","system_id":"levelo_inurba_marseille","lat":43.24731,"lon":5.38232,"is_reserved":false,"is_disabled":false,"rental_uris":{"android":"levelo://app?vid=65a7fe50-2450-4c8f-8e44-981be7bdae37","ios":"levelo://app?vid=65a7fe50-2450-4c8f-8e44-981be7bdae37"},"vehicle_type_id":"4","last_reported":1773318934,"current_range_meters":16400,"station_id":"","pricing_plan_id":"cebpf4jnsgd1na2vs0mg"},{"bike_id":"d02665ab-d65f-47fa-a858-71c81c1727d7","system_id":"levelo_inurba_marseille","lat":43.28405,"lon":5.34993,"is_reserved":false,"is_disabled":false,"rental_uris":{"android":"levelo://app?vid=d02665ab-d65f-47fa-a858-71c81c1727d7","ios":"levelo://app?vid=d02665ab-d65f-47fa-a858-71c81c1727d7"},"vehicle_type_id":"4","last_reported":1773318934,"current_range_meters":39200,"station_id":"ce4bhbh2rcd13ifvqepg","pricing_plan_id":"cebpf4jnsgd1na2vs0mg"},{"bike_id":"f0c3fede-8a05-4ff5-b5c4-0d3936817562","system_id":"levelo_inurba_marseille","lat":43.24027,"lon":5.37767,"is_reserved":false,"is_disabled":false,"rental_uris":{"android":"levelo://app?vid=f0c3fede-8a05-4ff5-b5c4-0d3936817562","ios":"levelo://app?vid=f0c3fede-8a05-4ff5-b5c4-0d3936817562"},"vehicle_type_id":"4","last_reported":1773318934,"current_range_meters":16400,"station_id":"ce4bhnp2rcd13ifvqgvg","pricing_plan_id":"cebpf4jnsgd1na2vs0mg"},{"bike_id":"43437f22-1a1b-499f-95f6-8f7455ef3186","system_id":"levelo_inurba_marseille","lat":43.29634,"lon":5.37156,"is_reserved":false,"is_disabled":false,"rental_uris":{"android":"levelo://app?vid=43437f22-1a1b-499f-95f6-8f7455ef3186","ios":"levelo://app?vid=43437f22-1a1b-499f-95f6-8f7455ef3186"},"vehicle_type_id":"4","last_reported":1773318934,"current_range_meters":38000,"station_id":"ce4bgnh2rcd13ifvqc0g","pricing_plan_id":"cebpf4jnsgd1na2vs0mg"},{"bike_id":"f22c52de-85e2-4725-84cb-177fac779387","system_id":"levelo_inurba_marseille","lat":43.30563,"lon":5.3652,"is_reserved":false,"is_disabled":false,"rental_uris":{"android":"levelo://app?vid=f22c52de-85e2-4725-84cb-177fac779387","ios":"levelo://app?vid=f22c52de-85e2-4725-84cb-177fac779387"},"vehicle_type_id":"4","last_reported":1773318934,"current_range_meters":32400,"station_id":"ce4bgs12rcd13ifvqcag","pricing_plan_id":"cebpf4jnsgd1na2vs0mg"},{"bike_id":"0d885400-9f2b-4b20-b925-1afc4ed51363","system_id":"levelo_inurba_marseille","lat":43.29172,"lon":5.37142,"is_reserved":false,"is_disabled":false,"rental_uris":{"android":"levelo://app?vid=0d885400-9f2b-4b20-b925-1afc4ed51363","ios":"levelo://app?vid=0d885400-9f2b-4b20-b925-1afc4ed51363"},"vehicle_type_id":"4","last_reported":1773318934,"current_range_meters":22000,"station_id":"ce4bha92rcd13ifvqeh0","pricing_plan_id":"cebpf4jnsgd1na2vs0mg"},{"bike_id":"2ec0d240-9fa8-4251-9c9b-1cc6d98b3d6c","system_id":"levelo_inurba_marseille","lat":43.25586,"lon":5.38216,"is_reserved":false,"is_disabled":false,"rental_uris":{"android":"levelo://app?vid=2ec0d240-9fa8-4251-9c9b-1cc6d98b3d6c","ios":"levelo://app?vid=2ec0d240-9fa8-4251-9c9b-1cc6d98b3d6c"},"vehicle_type_id":"4","last_reported":1773318934,"current_range_meters":25200,"station_id":"ce4bhih2rcd13ifvqfs0","pricing_plan_id":"cebpf4jnsgd1na2vs0mg"},{"bike_id":"26a6b2e2-002a-4072-a1a2-b594f4e8b66c","system_id":"levelo_inurba_marseille","lat":43.30863,"lon":5.3732,"is_reserved":false,"is_disabled":false,"rental_uris":{"android":"levelo://app?vid=26a6b2e2-002a-4072-a1a2-b594f4e8b66c","ios":"levelo://app?vid=26a6b2e2-002a-4072-a1a2-b594f4e8b66c"},"vehicle_type_id":"4","last_reported":1773318934,"current_range_meters":29600,"station_id":"","pricing_plan_id":"cebpf4jnsgd1na2vs0mg"},{"bike_id":"5427f33b-9c12-4d35-9e4f-95e705df3b08","system_id":"levelo_inurba_marseille","lat":43.29644,"lon":5.37157,"is_reserved":false,"is_disabled":false,"rental_uris":{"android":"levelo://app?vid=5427f33b-9c12-4d35-9e4f-95e705df3b08","ios":"levelo://app?vid=5427f33b-9c12-4d35-9e4f-95e705df3b08"},"vehicle_type_id":"4","last_reported":1773318934,"current_range_meters":39200,"station_id":"ce4bgnh2rcd13ifvqc0g","pricing_plan_id":"cebpf4jnsgd1na2vs0mg"},{"bike_id":"df608bc1-596d-4999-8ab7-7ccc722b52ef","system_id":"levelo_inurba_marseille","lat":43.28933,"lon":5.36374,"is_reserved":false,"is_disabled":false,"rental_uris":{"android":"levelo://app?vid=df608bc1-596d-4999-8ab7-7ccc722b52ef","ios":"levelo://app?vid=df608bc1-596d-4999-8ab7-7ccc722b52ef"},"vehicle_type_id":"4","last_reported":1773318934,"current_range_meters":9600,"station_id":"ce4bhc92rcd13ifvqetg","pricing_plan_id":"cebpf4jnsgd1na2vs0mg"},{"bike_id":"1445cfca-2724-4b39-a1db-eda5037e9849","system_id":"levelo_inurba_marseille","lat":43.27209,"lon":5.39194,"is_reserved":false,"is_disabled":false,"rental_uris":{"android":"levelo://app?vid=1445cfca-2724-4b39-a1db-eda5037e9849","ios":"levelo://app?vid=1445cfca-2724-4b39-a1db-eda5037e9849"},"vehicle_type_id":"4","last_reported":1773318934,"current_range_meters":38800,"station_id":"ce4bhhp2rcd13ifvqfm0","pricing_plan_id":"cebpf4jnsgd1na2vs0mg"},{"bike_id":"43dec2c9-0ed1-464f-872a-fff85f3760db","system_id":"levelo_inurba_marseille","lat":43.29583,"lon":5.36753,"is_reserved":false,"is_disabled":false,"rental_uris":{"android":"levelo://app?vid=43dec2c9-0ed1-464f-872a-fff85f3760db","ios":"levelo://app?vid=43dec2c9-0ed1-464f-872a-fff85f3760db"},"vehicle_type_id":"4","last_reported":1773318934,"current_range_meters":28800,"station_id":"ce4bgph2rcd13ifvqc2g","pricing_plan_id":"cebpf4jnsgd1na2vs0mg"},{"bike_id":"b3ec3554-eb1f-4735-9561-8fa9053610e4","system_id":"levelo_inurba_marseille","lat":43.24441,"lon":5.37021,"is_reserved":false,"is_disabled":false,"rental_uris":{"android":"levelo://app?vid=b3ec3554-eb1f-4735-9561-8fa9053610e4","ios":"levelo://app?vid=b3ec3554-eb1f-4735-9561-8fa9053610e4"},"vehicle_type_id":"4","last_reported":1773318934,"current_range_meters":39200,"station_id":"ce4bhhh2rcd13ifvqfk0","pricing_plan_id":"cebpf4jnsgd1na2vs0mg"},{"bike_id":"90bd2d1f-82d1-4564-b345-0f67ac79399c","system_id":"levelo_inurba_marseille","lat":43.30297,"lon":5.37696,"is_reserved":false,"is_disabled":false,"rental_uris":{"android":"levelo://app?vid=90bd2d1f-82d1-4564-b345-0f67ac79399c","ios":"levelo://app?vid=90bd2d1f-82d1-4564-b345-0f67ac79399c"},"vehicle_type_id":"4","last_reported":1773318934,"current_range_meters":8400,"station_id":"ce4bguh2rcd13ifvqcj0","pricing_plan_id":"cebpf4jnsgd1na2vs0mg"},{"bike_id":"f7dafe7c-4b45-481f-a427-ab6708f3f1d8","system_id":"levelo_inurba_marseille","lat":43.2816,"lon":5.42625,"is_reserved":false,"is_disabled":false,"rental_uris":{"android":"levelo://app?vid=f7dafe7c-4b45-481f-a427-ab6708f3f1d8","ios":"levelo://app?vid=f7dafe7c-4b45-481f-a427-ab6708f3f1d8"},"vehicle_type_id":"4","last_reported":1773318934,"current_range_meters":39200,"station_id":"ce4bhnh2rcd13ifvqgug","pricing_plan_id":"cebpf4jnsgd1na2vs0mg"},{"bike_id":"4cd63f56-88f2-44dc-8d79-97be63a73aac","system_id":"levelo_inurba_marseille","lat":43.33167,"lon":5.37697,"is_reserved":false,"is_disabled":false,"rental_uris":{"android":"levelo://app?vid=4cd63f56-88f2-44dc-8d79-97be63a73aac","ios":"levelo://app?vid=4cd63f56-88f2-44dc-8d79-97be63a73aac"},"vehicle_type_id":"4","last_reported":1773318934,"current_range_meters":9200,"station_id":"st_d46cu089ee8s73dldbu0","pricing_plan_id":"cebpf4jnsgd1na2vs0mg"},{"bike_id":"eba8a0a7-ba0d-47bb-8e80-079dcfa0be93","system_id":"levelo_inurba_marseille","lat":43.3042,"lon":5.39753,"is_reserved":false,"is_disabled":false,"rental_uris":{"android":"levelo://app?vid=eba8a0a7-ba0d-47bb-8e80-079dcfa0be93","ios":"levelo://app?vid=eba8a0a7-ba0d-47bb-8e80-079dcfa0be93"},"vehicle_type_id":"4","last_reported":1773318934,"current_range_meters":20000,"station_id":"ce4bh092rcd13ifvqd20","pricing_plan_id":"cebpf4jnsgd1na2vs0mg"},{"bike_id":"4bfb174a-06d3-4562-9b73-992b914fe592","system_id":"levelo_inurba_marseille","lat":43.31375,"lon":5.36725,"is_reserved":false,"is_disabled":false,"rental_uris":{"android":"levelo://app?vid=4bfb174a-06d3-4562-9b73-992b914fe592","ios":"levelo://app?vid=4bfb174a-06d3-4562-9b73-992b914fe592"},"vehicle_type_id":"4","last_reported":1773318934,"current_range_meters":40000,"station_id":"ce4bgr92rcd13ifvqc6g","pricing_plan_id":"cebpf4jnsgd1na2vs0mg"},{"bike_id":"ca102ab6-a0dc-47f9-a847-6c4c6d2c6452","system_id":"levelo_inurba_marseille","lat":43.28347,"lon":5.38107,"is_reserved":false,"is_disabled":false,"rental_uris":{"android":"levelo://app?vid=ca102ab6-a0dc-47f9-a847-6c4c6d2c6452","ios":"levelo://app?vid=ca102ab6-a0dc-47f9-a847-6c4c6d2c6452"},"vehicle_type_id":"4","last_reported":1773318934,"current_range_meters":27200,"station_id":"ce4bh412rcd13ifvqdr0","pricing_plan_id":"cebpf4jnsgd1na2vs0mg"},{"bike_id":"61c884a4-9e8f-4f23-8540-287245eee4be","system_id":"levelo_inurba_marseille","lat":43.27919,"lon":5.39577,"is_reserved":false,"is_disabled":false,"rental_uris":{"android":"levelo://app?vid=61c884a4-9e8f-4f23-8540-287245eee4be","ios":"levelo://app?vid=61c884a4-9e8f-4f23-8540-287245eee4be"},"vehicle_type_id":"4","last_reported":1773318934,"current_range_meters":34800,"station_id":"ce4bhf92rcd13ifvqf40","pricing_plan_id":"cebpf4jnsgd1na2vs0mg"},{"bike_id":"3d06c2fe-a971-4660-91da-da3c39c76241","system_id":"levelo_inurba_marseille","lat":43.33626,"lon":5.41024,"is_reserved":false,"is_disabled":false,"rental_uris":{"android":"levelo://app?vid=3d06c2fe-a971-4660-91da-da3c39c76241","ios":"levelo://app?vid=3d06c2fe-a971-4660-91da-da3c39c76241"},"vehicle_type_id":"4","last_reported":1773318934,"current_range_meters":39200,"station_id":"ce4bhqh2rcd13ifvqhmg","pricing_plan_id":"cebpf4jnsgd1na2vs0mg"},{"bike_id":"05e28071-265b-4d5c-bcaf-12dc4f5c6740","system_id":"levelo_inurba_marseille","lat":43.27371,"lon":5.36251,"is_reserved":false,"is_disabled":false,"rental_uris":{"android":"levelo://app?vid=05e28071-265b-4d5c-bcaf-12dc4f5c6740","ios":"levelo://app?vid=05e28071-265b-4d5c-bcaf-12dc4f5c6740"},"vehicle_type_id":"4","last_reported":1773318934,"current_range_meters":39200,"station_id":"ce4bhbh2rcd13ifvqeo0","pricing_plan_id":"cebpf4jnsgd1na2vs0mg"},{"bike_id":"0e8ae3f5-920d-4341-a151-51734f2f441a","system_id":"levelo_inurba_marseille","lat":43.27827,"lon":5.40706,"is_reserved":false,"is_disabled":false,"rental_uris":{"android":"levelo://app?vid=0e8ae3f5-920d-4341-a151-51734f2f441a","ios":"levelo://app?vid=0e8ae3f5-920d-4341-a151-51734f2f441a"},"vehicle_type_id":"4","last_reported":1773318934,"current_range_meters":3200,"station_id":"ce4bhnh2rcd13ifvqgtg","pricing_plan_id":"cebpf4jnsgd1na2vs0mg"},{"bike_id":"1860051d-ebfa-4ef0-851b-02847655affa","system_id":"levelo_inurba_marseille","lat":43.24396,"lon":5.37046,"is_reserved":false,"is_disabled":false,"rental_uris":{"android":"levelo://app?vid=1860051d-ebfa-4ef0-851b-02847655affa","ios":"levelo://app?vid=1860051d-ebfa-4ef0-851b-02847655affa"},"vehicle_type_id":"4","last_reported":1773318934,"current_range_meters":40000,"station_id":"ce4bhhh2rcd13ifvqfk0","pricing_plan_id":"cebpf4jnsgd1na2vs0mg"},{"bike_id":"4addaa46-a01c-4443-9e5c-0027ce625a5d","system_id":"levelo_inurba_marseille","lat":43.30262,"lon":5.40063,"is_reserved":false,"is_disabled":false,"rental_uris":{"android":"levelo://app?vid=4addaa46-a01c-4443-9e5c-0027ce625a5d","ios":"levelo://app?vid=4addaa46-a01c-4443-9e5c-0027ce625a5d"},"vehicle_type_id":"4","last_reported":1773318934,"current_range_meters":10000,"station_id":"ce4bgvh2rcd13ifvqcs0","pricing_plan_id":"cebpf4jnsgd1na2vs0mg"},{"bike_id":"67454919-4897-4496-ac02-5ba276c6faca","system_id":"levelo_inurba_marseille","lat":43.28147,"lon":5.37892,"is_reserved":false,"is_disabled":false,"rental_uris":{"android":"levelo://app?vid=67454919-4897-4496-ac02-5ba276c6faca","ios":"levelo://app?vid=67454919-4897-4496-ac02-5ba276c6faca"},"vehicle_type_id":"4","last_reported":1773318934,"current_range_meters":10800,"station_id":"","pricing_plan_id":"cebpf4jnsgd1na2vs0mg"},{"bike_id":"079948a1-1693-4f48-8027-ff950a00c3e3","system_id":"levelo_inurba_marseille","lat":43.33774,"lon":5.37472,"is_reserved":false,"is_disabled":true,"rental_uris":{"android":"levelo://app?vid=079948a1-1693-4f48-8027-ff950a00c3e3","ios":"levelo://app?vid=079948a1-1693-4f48-8027-ff950a00c3e3"},"vehicle_type_id":"4","last_reported":1773318934,"current_range_meters":0,"station_id":"","pricing_plan_id":"cebpf4jnsgd1na2vs0mg"},{"bike_id":"61d8cf09-cad2-4ecf-a4a5-b740782ddea5","system_id":"levelo_inurba_marseille","lat":43.31241,"lon":5.36848,"is_reserved":false,"is_disabled":false,"rental_uris":{"android":"levelo://app?vid=61d8cf09-cad2-4ecf-a4a5-b740782ddea5","ios":"levelo://app?vid=61d8cf09-cad2-4ecf-a4a5-b740782ddea5"},"vehicle_type_id":"4","last_reported":1773318934,"current_range_meters":12000,"station_id":"ce4bgl92rcd13ifvqbq0","pricing_plan_id":"cebpf4jnsgd1na2vs0mg"},{"bike_id":"eee030f9-7359-435a-8db7-cd8193b34512","system_id":"levelo_inurba_marseille","lat":43.26069,"lon":5.39389,"is_reserved":false,"is_disabled":false,"rental_uris":{"android":"levelo://app?vid=eee030f9-7359-435a-8db7-cd8193b34512","ios":"levelo://app?vid=eee030f9-7359-435a-8db7-cd8193b34512"},"vehicle_type_id":"4","last_reported":1773318934,"current_range_meters":28000,"station_id":"ce4bhh92rcd13ifvqfj0","pricing_plan_id":"cebpf4jnsgd1na2vs0mg"},{"bike_id":"e1953514-6bba-4fb4-94e4-40c57b362e06","system_id":"levelo_inurba_marseille","lat":43.27998,"lon":5.4001,"is_reserved":false,"is_disabled":false,"rental_uris":{"android":"levelo://app?vid=e1953514-6bba-4fb4-94e4-40c57b362e06","ios":"levelo://app?vid=e1953514-6bba-4fb4-94e4-40c57b362e06"},"vehicle_type_id":"4","last_reported":1773318934,"current_range_meters":16400,"station_id":"ce4bho92rcd13ifvqh4g","pricing_plan_id":"cebpf4jnsgd1na2vs0mg"},