{"last_updated":1687892748,"ttl":30,"version":"2.2","data":{"bikes":[{"bike_id":"590f406c-2da3-4945-9a5b-c86f429f91ea","system_id":"levelo_inurba_marseille","lat":43.309076,"lon":5.368465,"is_reserved":false,"is_disabled":false,"rental_uris":{"android":"levelo://app?vid=590f406c-2da3-4945-9a5b-c86f429f91ea","ios":"levelo://app?vid=590f406c-2da3-4945-9a5b-c86f429f91ea"},"vehicle_type_id":"4","last_reported":1687892749,"current_range_meters":2800,"station_id":"ce4bgn92rcd13ifvqbvg","pricing_plan_id":"free"},{"bike_id":"953bc70b-cf31-4f4a-a32f-fb5c4f6d82fe","system_id":"levelo_inurba_marseille","lat":43.31539,"lon":5.37202,"is_reserved":false,"is_disabled":false,"rental_uris":{"android":"levelo://app?vid=953bc70b-cf31-4f4a-a32f-fb5c4f6d82fe","ios":"levelo://app?vid=953bc70b-cf31-4f4a-a32f-fb5c4f6d82fe"},"vehicle_type_id":"4","last_reported":1687892749,"current_range_meters":20000,"station_id":"","pricing_plan_id":"free"},{"bike_id":"14412880-8a72-41f4-93f9-1a3399781f19","system_id":"levelo_inurba_marseille","lat":43.31485,"lon":5.37307,"is_reserved":false,"is_disabled":false,"rental_uris":{"android":"levelo://app?vid=14412880-8a72-41f4-93f9-1a3399781f19","ios":"levelo://app?vid=14412880-8a72-41f4-93f9-1a3399781f19"},"vehicle_type_id":"4","last_reported":1687892749,"current_range_meters":4800,"station_id":"ce4bgt12rcd13ifvqcd0","pricing_plan_id":"free"},{"bike_id":"13f84c1a-9687-435d-8fda-3ddad33acac8","system_id":"levelo_inurba_marseille","lat":43.314811,"lon":5.373103,"is_reserved":false,"is_disabled":false,"rental_uris":{"android":"levelo://app?vid=13f84c1a-9687-435d-8fda-3ddad33acac8","ios":"levelo://app?vid=13f84c1a-9687-435d-8fda-3ddad33acac8"},"vehicle_type_id":"4","last_reported":1687892749,"current_range_meters":17200,"station_id":"ce4bgt12rcd13ifvqcd0","pricing_plan_id":"free"},{"bike_id":"4a9f8599-7b31-4740-ae98-24a97f227665","system_id":"levelo_inurba_marseille","lat":43.314811,"lon":5.373103,"is_reserved":false,"is_disabled":false,"rental_uris":{"android":"levelo://app?vid=4a9f8599-7b31-4740-ae98-24a97f227665","ios":"levelo://app?vid=4a9f8599-7b31-4740-ae98-24a97f227665"},"vehicle_type_id":"4","last_reported":1687892749,"current_range_meters":1200,"station_id":"ce4bgt12rcd13ifvqcd0","pricing_plan_id":"free"},{"bike_id":"783cd0c5-d444-4beb-8b6d-6b2e31f797fc","system_id":"levelo_inurba_marseille","lat":43.31489,"lon":5.37312,"is_reserved":false,"is_disabled":false,"rental_uris":{"android":"levelo://app?vid=783cd0c5-d444-4beb-8b6d-6b2e31f797fc","ios":"levelo://app?vid=783cd0c5-d444-4beb-8b6d-6b2e31f797fc"},"vehicle_type_id":"4","last_reported":1687892749,"current_range_meters":0,"station_id":"ce4bgt12rcd13ifvqcd0","pricing_plan_id":"free"},{"bike_id":"947fcf84-c636-4007-8607-690fa191dc37","system_id":"levelo_inurba_marseille","lat":43.31423,"lon":5.37352,"is_reserved":false,"is_disabled":false,"rental_uris":{"android":"levelo://app?vid=947fcf84-c636-4007-8607-690fa191dc37","ios":"levelo://app?vid=947fcf84-c636-4007-8607-690fa191dc37"},"vehicle_type_id":"4","last_reported":1687892749,"current_range_meters":25600,"station_id":"","pricing_plan_id":"free"},{"bike_id":"03946992-41f3-409a-a81c-ab6de7e61e27","system_id":"levelo_inurba_marseille","lat":43.308606,"lon":5.372099,"is_reserved":false,"is_disabled":false,"rental_uris":{"android":"levelo://app?vid=03946992-41f3-409a-a81c-ab6de7e61e27","ios":"levelo://app?vid=03946992-41f3-409a-a81c-ab6de7e61e27"},"vehicle_type_id":"4","last_reported":1687892749,"current_range_meters":1600,"station_id":"ce4bguh2rcd13ifvqckg","pricing_plan_id":"free"},{"bike_id":"190de8b5-8925-427d-97d0-115e31492dbf","system_id":"levelo_inurba_marseille","lat":43.308614,"lon":5.372098,"is_reserved":false,"is_disabled":false,"rental_uris":{"android":"levelo://app?vid=190de8b5-8925-427d-97d0-115e31492dbf","ios":"levelo://app?vid=190de8b5-8925-427d-97d0-115e31492dbf"},"vehicle_type_id":"4","last_reported":1687892749,"current_range_meters":4400,"station_id":"ce4bguh2rcd13ifvqckg","pricing_plan_id":"free"},{"bike_id":"f78816cd-c640-4b18-abb0-69fdd80c536f","system_id":"levelo_inurba_marseille","lat":43.30547,"lon":5.36528,"is_reserved":false,"is_disabled":false,"rental_uris":{"android":"levelo://app?vid=f78816cd-c640-4b18-abb0-69fdd80c536f","ios":"levelo://app?vid=f78816cd-c640-4b18-abb0-69fdd80c536f"},"vehicle_type_id":"4","last_reported":1687892749,"current_range_meters":0,"station_id":"ce4bgs12rcd13ifvqcag","pricing_plan_id":"free"},{"bike_id":"3ae98d3b-751b-42bc-9cf6-0da429b91fd9","system_id":"levelo_inurba_marseille","lat":43.30595,"lon":5.37203,"is_reserved":false,"is_disabled":false,"rental_uris":{"android":"levelo://app?vid=3ae98d3b-751b-42bc-9cf6-0da429b91fd9","ios":"levelo://app?vid=3ae98d3b-751b-42bc-9cf6-0da429b91fd9"},"vehicle_type_id":"4","last_reported":1687892749,"current_range_meters":4000,"station_id":"ce4bgqh2rcd13ifvqc4g","pricing_plan_id":"free"},{"bike_id":"0a5a1e3d-7804-41b6-906b-efcebb6a3e23","system_id":"levelo_inurba_marseille","lat":43.31698,"lon":5.3775,"is_reserved":false,"is_disabled":false,"rental_uris":{"android":"levelo://app?vid=0a5a1e3d-7804-41b6-906b-efcebb6a3e23","ios":"levelo://app?vid=0a5a1e3d-7804-41b6-906b-efcebb6a3e23"},"vehicle_type_id":"4","last_reported":1687892749,"current_range_meters":6400,"station_id":"ce4bgth2rcd13ifvqch0","pricing_plan_id":"free"},{"bike_id":"9c947348-0e4d-4a2a-8f52-eb584ce1cd7e","system_id":"levelo_inurba_marseille","lat":43.303046,"lon":5.368981,"is_reserved":false,"is_disabled":false,"rental_uris":{"android":"levelo://app?vid=9c947348-0e4d-4a2a-8f52-eb584ce1cd7e","ios":"levelo://app?vid=9c947348-0e4d-4a2a-8f52-eb584ce1cd7e"},"vehicle_type_id":"4","last_reported":1687892749,"current_range_meters":30000,"station_id":"ce4bgqh2rcd13ifvqc5g","pricing_plan_id":"free"},{"bike_id":"4ee15348-15e2-4f3c-9644-cacb33387e2c","system_id":"levelo_inurba_marseille","lat":43.315293,"lon":5.380349,"is_reserved":false,"is_disabled":false,"rental_uris":{"android":"levelo://app?vid=4ee15348-15e2-4f3c-9644-cacb33387e2c","ios":"levelo://app?vid=4ee15348-15e2-4f3c-9644-cacb33387e2c"},"vehicle_type_id":"4","last_reported":1687892749,"current_range_meters":8400,"station_id":"ce4bhsp2rcd13ifvqi50","pricing_plan_id":"free"},{"bike_id":"0cb784f1-566d-4f46-b9f0-75eb596b3813","system_id":"levelo_inurba_marseille","lat":43.315293,"lon":5.380349,"is_reserved":false,"is_disabled":false,"rental_uris":{"android":"levelo://app?vid=0cb784f1-566d-4f46-b9f0-75eb596b3813","ios":"levelo://app?vid=0cb784f1-566d-4f46-b9f0-75eb596b3813"},"vehicle_type_id":"4","last_reported":1687892749,"current_range_meters":17200,"station_id":"ce4bhsp2rcd13ifvqi50","pricing_plan_id":"free"},{"bike_id":"837f1e67-a475-45f9-8bf2-c3673b998ada","system_id":"levelo_inurba_marseille","lat":43.302784,"lon":5.377158,"is_reserved":false,"is_disabled":false,"rental_uris":{"android":"levelo://app?vid=837f1e67-a475-45f9-8bf2-c3673b998ada","ios":"levelo://app?vid=837f1e67-a475-45f9-8bf2-c3673b998ada"},"vehicle_type_id":"4","last_reported":1687892749,"current_range_meters":0,"station_id":"ce4bguh2rcd13ifvqcj0","pricing_plan_id":"free"},{"bike_id":"ff2674b5-8725-4878-b5d3-488c50f2698c","system_id":"levelo_inurba_marseille","lat":43.319935,"lon":5.381699,"is_reserved":false,"is_disabled":false,"rental_uris":{"android":"levelo://app?vid=ff2674b5-8725-4878-b5d3-488c50f2698c","ios":"levelo://app?vid=ff2674b5-8725-4878-b5d3-488c50f2698c"},"vehicle_type_id":"4","last_reported":1687892749,"current_range_meters":17600,"station_id":"ce4bhr12rcd13ifvqhpg","pricing_plan_id":"free"},{"bike_id":"e3ffbad8-9b94-4cdf-b094-f77e7df949c1","system_id":"levelo_inurba_marseille","lat":43.319935,"lon":5.381699,"is_reserved":false,"is_disabled":false,"rental_uris":{"android":"levelo://app?vid=e3ffbad8-9b94-4cdf-b094-f77e7df949c1","ios":"levelo://app?vid=e3ffbad8-9b94-4cdf-b094-f77e7df949c1"},"vehicle_type_id":"4","last_reported":1687892749,"current_range_meters":4800,"station_id":"ce4bhr12rcd13ifvqhpg","pricing_plan_id":"free"},{"bike_id":"e4204e9b-9278-46ad-bdf1-ef9feea630eb","system_id":"levelo_inurba_marseille","lat":43.313571,"lon":5.384829,"is_reserved":false,"is_disabled":false,"rental_uris":{"android":"levelo://app?vid=e4204e9b-9278-46ad-bdf1-ef9feea630eb","ios":"levelo://app?vid=e4204e9b-9278-46ad-bdf1-ef9feea630eb"},"vehicle_type_id":"4","last_reported":1687892749,"current_range_meters":2400,"station_id":"ce4bgt92rcd13ifvqcf0","pricing_plan_id":"free"},{"bike_id":"495c5e31-f246-409b-acc0-e77ef2f8851c","system_id":"levelo_inurba_marseille","lat":43.313571,"lon":5.384829,"is_reserved":false,"is_disabled":false,"rental_uris":{"android":"levelo://app?vid=495c5e31-f246-409b-acc0-e77ef2f8851c","ios":"levelo://app?vid=495c5e31-f246-409b-acc0-e77ef2f8851c"},"vehicle_type_id":"4","last_reported":1687892749,"current_range_meters":9600,"station_id":"ce4bgt92rcd13ifvqcf0","pricing_plan_id":"free"},{"bike_id":"abcb44f7-84d2-4216-add9-1b1b03b9d284","system_id":"levelo_inurba_marseille","lat":43.298433,"lon":5.362774,"is_reserved":false,"is_disabled":false,"rental_uris":{"android":"levelo://app?vid=abcb44f7-84d2-4216-add9-1b1b03b9d284","ios":"levelo://app?vid=abcb44f7-84d2-4216-add9-1b1b03b9d284"},"vehicle_type_id":"4","last_reported":1687892749,"current_range_meters":17600,"station_id":"ce4bgpp2rcd13ifvqc3g","pricing_plan_id":"free"},{"bike_id":"92c6d063-6678-4bc7-b951-3cc3876c4ab7","system_id":"levelo_inurba_marseille","lat":43.29925,"lon":5.37458,"is_reserved":false,"is_disabled":false,"rental_uris":{"android":"levelo://app?vid=92c6d063-6678-4bc7-b951-3cc3876c4ab7","ios":"levelo://app?vid=92c6d063-6678-4bc7-b951-3cc3876c4ab7"},"vehicle_type_id":"4","last_reported":1687892749,"current_range_meters":26000,"station_id":"ce4bgjh2rcd13ifvqbg0","pricing_plan_id":"free"},{"bike_id":"c94cc860-a4bd-48f3-8303-be6a4006bca0","system_id":"levelo_inurba_marseille","lat":43.305364,"lon":5.384119,"is_reserved":false,"is_disabled":false,"rental_uris":{"android":"levelo://app?vid=c94cc860-a4bd-48f3-8303-be6a4006bca0","ios":"levelo://app?vid=c94cc860-a4bd-48f3-8303-be6a4006bca0"},"vehicle_type_id":"4","last_reported":1687892749,"current_range_meters":4800,"station_id":"ce4bgg92rcd13ifvqb30","pricing_plan_id":"free"},{"bike_id":"c097d088-8df7-489a-bdef-bf2227d7f92a","system_id":"levelo_inurba_marseille","lat":43.311722,"lon":5.387247,"is_reserved":false,"is_disabled":false,"rental_uris":{"android":"levelo://app?vid=c097d088-8df7-489a-bdef-bf2227d7f92a","ios":"levelo://app?vid=c097d088-8df7-489a-bdef-bf2227d7f92a"},"vehicle_type_id":"4","last_reported":1687892749,"current_range_meters":4000,"station_id":"ce4bgv12rcd13ifvqcp0","pricing_plan_id":"free"},{"bike_id":"297aa866-bbbb-45e7-8c60-ae1a108ae6b2","system_id":"levelo_inurba_marseille","lat":43.297794,"lon":5.370888,"is_reserved":false,"is_disabled":false,"rental_uris":{"android":"levelo://app?vid=297aa866-bbbb-45e7-8c60-ae1a108ae6b2","ios":"levelo://app?vid=297aa866-bbbb-45e7-8c60-ae1a108ae6b2"},"vehicle_type_id":"4","last_reported":1687892749,"current_range_meters":5200,"station_id":"ce4bgop2rcd13ifvqc1g","pricing_plan_id":"free"},{"bike_id":"c0ba4054-03d2-4233-93b4-0461723bc0b5","system_id":"levelo_inurba_marseille","lat":43.328371,"lon":5.366909,"is_reserved":false,"is_disabled":false,"rental_uris":{"android":"levelo://app?vid=c0ba4054-03d2-4233-93b4-0461723bc0b5","ios":"levelo://app?vid=c0ba4054-03d2-4233-93b4-0461723bc0b5"},"vehicle_type_id":"4","last_reported":1687892749,"current_range_meters":23200,"station_id":"ce4bhs92rcd13ifvqi0g","pricing_plan_id":"free"},{"bike_id":"a8537d49-534e-49b1-8ad8-f46da1b5ef6b","system_id":"levelo_inurba_marseille","lat":43.328371,"lon":5.366909,"is_reserved":false,"is_disabled":false,"rental_uris":{"android":"levelo://app?vid=a8537d49-534e-49b1-8ad8-f46da1b5ef6b","ios":"levelo://app?vid=a8537d49-534e-49b1-8ad8-f46da1b5ef6b"},"vehicle_type_id":"4","last_reported":1687892749,"current_range_meters":20000,"station_id":"ce4bhs92rcd13ifvqi0g","pricing_plan_id":"free"},{"bike_id":"4ad0820a-b4f0-4687-9297-85e68595ea74","system_id":"levelo_inurba_marseille","lat":43.3283,"lon":5.36673,"is_reserved":false,"is_disabled":false,"rental_uris":{"android":"levelo://app?vid=4ad0820a-b4f0-4687-9297-85e68595ea74","ios":"levelo://app?vid=4ad0820a-b4f0-4687-9297-85e68595ea74"},"vehicle_type_id":"4","last_reported":1687892749,"current_range_meters":20000,"station_id":"ce4bhs92rcd13ifvqi0g","pricing_plan_id":"free"},{"bike_id":"65135327-3324-4065-9fca-fa7261c8f481","system_id":"levelo_inurba_marseille","lat":43.328371,"lon":5.366909,"is_reserved":false,"is_disabled":false,"rental_uris":{"android":"levelo://app?vid=65135327-3324-4065-9fca-fa7261c8f481","ios":"levelo://app?vid=65135327-3324-4065-9fca-fa7261c8f481"},"vehicle_type_id":"4","last_reported":1687892749,"current_range_meters":31200,"station_id":"ce4bhs92rcd13ifvqi0g","pricing_plan_id":"free"},{"bike_id":"5108659d-1431-4d89-a11a-e27336cba391","system_id":"levelo_inurba_marseille","lat":43.328371,"lon":5.366909,"is_reserved":false,"is_disabled":false,"rental_uris":{"android":"levelo://app?vid=5108659d-1431-4d89-a11a-e27336cba391","ios":"levelo://app?vid=5108659d-1431-4d89-a11a-e27336cba391"},"vehicle_type_id":"4","last_reported":1687892749,"current_range_meters":20800,"station_id":"ce4bhs92rcd13ifvqi0g","pricing_plan_id":"free"},{"bike_id":"8d98417a-cbe4-4269-8bc9-598373a7d5de","system_id":"levelo_inurba_marseille","lat":43.32868,"lon":5.363,"is_reserved":false,"is_disabled":false,"rental_uris":{"android":"levelo://app?vid=8d98417a-cbe4-4269-8bc9-598373a7d5de","ios":"levelo://app?vid=8d98417a-cbe4-4269-8bc9-598373a7d5de"},"vehicle_type_id":"4","last_reported":1687892749,"current_range_meters":7200,"station_id":"","pricing_plan_id":"free"},{"bike_id":"3505aa05-cb6b-47e1-a21f-fd7c368dd42c","system_id":"levelo_inurba_marseille","lat":43.29573,"lon":5.367355,"is_reserved":false,"is_disabled":false,"rental_uris":{"android":"levelo://app?vid=3505aa05-cb6b-47e1-a21f-fd7c368dd42c","ios":"levelo://app?vid=3505aa05-cb6b-47e1-a21f-fd7c368dd42c"},"vehicle_type_id":"4","last_reported":1687892749,"current_range_meters":27600,"station_id":"ce4bgph2rcd13ifvqc2g","pricing_plan_id":"free"},{"bike_id":"4084fded-1533-47d6-adad-adf52a1b91ae","system_id":"levelo_inurba_marseille","lat":43.296131,"lon":5.370791,"is_reserved":false,"is_disabled":false,"rental_uris":{"android":"levelo://app?vid=4084fded-1533-47d6-adad-adf52a1b91ae","ios":"levelo://app?vid=4084fded-1533-47d6-adad-adf52a1b91ae"},"vehicle_type_id":"4","last_reported":1687892749,"current_range_meters":6400,"station_id":"ce4bgnh2rcd13ifvqc0g","pricing_plan_id":"free"},{"bike_id":"e4a29551-0eef-4fbd-96e4-34ade7f4608e","system_id":"levelo_inurba_marseille","lat":43.296921,"lon":5.376579,"is_reserved":false,"is_disabled":false,"rental_uris":{"android":"levelo://app?vid=e4a29551-0eef-4fbd-96e4-34ade7f4608e","ios":"levelo://app?vid=e4a29551-0eef-4fbd-96e4-34ade7f4608e"},"vehicle_type_id":"4","last_reported":1687892749,"current_range_meters":0,"station_id":"ce4bgkh2rcd13ifvqbl0","pricing_plan_id":"free"},{"bike_id":"bdd5c04a-2e4b-477b-b2fe-8e3232cefcfc","system_id":"levelo_inurba_marseille","lat":43.296921,"lon":5.376579,"is_reserved":false,"is_disabled":false,"rental_uris":{"android":"levelo://app?vid=bdd5c04a-2e4b-477b-b2fe-8e3232cefcfc","ios":"levelo://app?vid=bdd5c04a-2e4b-477b-b2fe-8e3232cefcfc"},"vehicle_type_id":"4","last_reported":1687892749,"current_range_meters":1600,"station_id":"ce4bgkh2rcd13ifvqbl0","pricing_plan_id":"free"},{"bike_id":"23b6e5d4-eb73-4ee4-ba5a-fffa593bf59b","system_id":"levelo_inurba_marseille","lat":43.296921,"lon":5.376579,"is_reserved":false,"is_disabled":false,"rental_uris":{"android":"levelo://app?vid=23b6e5d4-eb73-4ee4-ba5a-fffa593bf59b","ios":"levelo://app?vid=23b6e5d4-eb73-4ee4-ba5a-fffa593bf59b"},"vehicle_type_id":"4","last_reported":1687892749,"current_range_meters":0,"station_id":"ce4bgkh2rcd13ifvqbl0","pricing_plan_id":"free"},{"bike_id":"868a6e2d-7909-4b20-be84-15fa3b700f4f","system_id":"levelo_inurba_marseille","lat":43.317557,"lon":5.390173,"is_reserved":false,"is_disabled":false,"rental_uris":{"android":"levelo://app?vid=868a6e2d-7909-4b20-be84-15fa3b700f4f","ios":"levelo://app?vid=868a6e2d-7909-4b20-be84-15fa3b700f4f"},"vehicle_type_id":"4","last_reported":1687892749,"current_range_meters":30800,"station_id":"ce4bhqp2rcd13ifvqhng","pricing_plan_id":"free"},{"bike_id":"43ddf487-4679-47ab-a640-42eb7f0c8f92","system_id":"levelo_inurba_marseille","lat":43.317552,"lon":5.390152,"is_reserved":false,"is_disabled":false,"rental_uris":{"android":"levelo://app?vid=43ddf487-4679-47ab-a640-42eb7f0c8f92","ios":"levelo://app?vid=43ddf487-4679-47ab-a640-42eb7f0c8f92"},"vehicle_type_id":"4","last_reported":1687892749,"current_range_meters":19200,"station_id":"ce4bhqp2rcd13ifvqhng","pricing_plan_id":"free"},{"bike_id":"1c150319-28cd-412a-b884-5193ede0cbc1","system_id":"levelo_inurba_marseille","lat":43.317557,"lon":5.390173,"is_reserved":false,"is_disabled":false,"rental_uris":{"android":"levelo://app?vid=1c150319-28cd-412a-b884-5193ede0cbc1","ios":"levelo://app?vid=1c150319-28cd-412a-b884-5193ede0cbc1"},"vehicle_type_id":"4","last_reported":1687892749,"current_range_meters":31600,"station_id":"ce4bhqp2rcd13ifvqhng","pricing_plan_id":"free"},{"bike_id":"7813a6d8-fb21-467b-82f3-814ade40895a","system_id":"levelo_inurba_marseille","lat":43.29921,"lon":5.38343,"is_reserved":false,"is_disabled":false,"rental_uris":{"android":"levelo://app?vid=7813a6d8-fb21-467b-82f3-814ade40895a","ios":"levelo://app?vid=7813a6d8-fb21-467b-82f3-814ade40895a"},"vehicle_type_id":"4","last_reported":1687892749,"current_range_meters":18000,"station_id":"","pricing_plan_id":"free"},{"bike_id":"7913671d-a4af-415e-83dc-e2092f8597e8","system_id":"levelo_inurba_marseille","lat":43.29783,"lon":5.38112,"is_reserved":false,"is_disabled":false,"rental_uris":{"android":"levelo://app?vid=7913671d-a4af-415e-83dc-e2092f8597e8","ios":"levelo://app?vid=7913671d-a4af-415e-83dc-e2092f8597e8"},"vehicle_type_id":"4","last_reported":1687892749,"current_range_meters":4800,"station_id":"ce4bgip2rcd13ifvqbb0","pricing_plan_id":"free"},{"bike_id":"e3fa01c4-62ae-4a63-820a-89a58415c224","system_id":"levelo_inurba_marseille","lat":43.29989,"lon":5.3849,"is_reserved":false,"is_disabled":false,"rental_uris":{"android":"levelo://app?vid=e3fa01c4-62ae-4a63-820a-89a58415c224","ios":"levelo://app?vid=e3fa01c4-62ae-4a63-820a-89a58415c224"},"vehicle_type_id":"4","last_reported":1687892749,"current_range_meters":14800,"station_id":"ce4bgj92rcd13ifvqbd0","pricing_plan_id":"free"},{"bike_id":"5940a31c-91d0-4bd1-85a2-4b971ae4d9d7","system_id":"levelo_inurba_marseille","lat":43.32367,"lon":5.388836,"is_reserved":false,"is_disabled":false,"rental_uris":{"android":"levelo://app?vid=5940a31c-91d0-4bd1-85a2-4b971ae4d9d7","ios":"levelo://app?vid=5940a31c-91d0-4bd1-85a2-4b971ae4d9d7"},"vehicle_type_id":"4","last_reported":1687892749,"current_range_meters":29200,"station_id":"ce4bhqp2rcd13ifvqhog","pricing_plan_id":"free"},{"bike_id":"10ae1162-4e36-4f8f-b800-7fbb623ecf6b","system_id":"levelo_inurba_marseille","lat":43.32367,"lon":5.388836,"is_reserved":false,"is_disabled":false,"rental_uris":{"android":"levelo://app?vid=10ae1162-4e36-4f8f-b800-7fbb623ecf6b","ios":"levelo://app?vid=10ae1162-4e36-4f8f-b800-7fbb623ecf6b"},"vehicle_type_id":"4","last_reported":1687892749,"current_range_meters":29200,"station_id":"ce4bhqp2rcd13ifvqhog","pricing_plan_id":"free"},{"bike_id":"cb646ea9-10e5-4a3c-b836-f457daa66cee","system_id":"levelo_inurba_marseille","lat":43.32367,"lon":5.388836,"is_reserved":false,"is_disabled":false,"rental_uris":{"android":"levelo://app?vid=cb646ea9-10e5-4a3c-b836-f457daa66cee","ios":"levelo://app?vid=cb646ea9-10e5-4a3c-b836-f457daa66cee"},"vehicle_type_id":"4","last_reported":1687892749,"current_range_meters":26000,"station_id":"ce4bhqp2rcd13ifvqhog","pricing_plan_id":"free"},{"bike_id":"d94e516d-f165-4856-adcd-253e139ac1f1","system_id":"levelo_inurba_marseille","lat":43.32367,"lon":5.388836,"is_reserved":false,"is_disabled":false,"rental_uris":{"android":"levelo://app?vid=d94e516d-f165-4856-adcd-253e139ac1f1","ios":"levelo://app?vid=d94e516d-f165-4856-adcd-253e139ac1f1"},"vehicle_type_id":"4","last_reported":1687892749,"current_range_meters":21600,"station_id":"ce4bhqp2rcd13ifvqhog","pricing_plan_id":"free"},{"bike_id":"0f1d1613-e70d-4c72-a9eb-9a15204b459d","system_id":"levelo_inurba_marseille","lat":43.32367,"lon":5.388836,"is_reserved":false,"is_disabled":false,"rental_uris":{"android":"levelo://app?vid=0f1d1613-e70d-4c72-a9eb-9a15204b459d","ios":"levelo://app?vid=0f1d1613-e70d-4c72-a9eb-9a15204b459d"},"vehicle_type_id":"4","last_reported":1687892749,"current_range_meters":24800,"station_id":"ce4bhqp2rcd13ifvqhog","pricing_plan_id":"free"},{"bike_id":"85098f7a-ae15-48ab-ab86-fa236c9a9e5a","system_id":"levelo_inurba_marseille","lat":43.29602,"lon":5.381084,"is_reserved":false,"is_disabled":false,"rental_uris":{"android":"levelo://app?vid=85098f7a-ae15-48ab-ab86-fa236c9a9e5a","ios":"levelo://app?vid=85098f7a-ae15-48ab-ab86-fa236c9a9e5a"},"vehicle_type_id":"4","last_reported":1687892749,"current_range_meters":5200,"station_id":"ce4bgl12rcd13ifvqbo0","pricing_plan_id":"free"},{"bike_id":"8d8da153-1c7c-447e-aabe-14e640cff42d","system_id":"levelo_inurba_marseille","lat":43.29602,"lon":5.381084,"is_reserved":false,"is_disabled":false,"rental_uris":{"android":"levelo://app?vid=8d8da153-1c7c-447e-aabe-14e640cff42d","ios":"levelo://app?vid=8d8da153-1c7c-447e-aabe-14e640cff42d"},"vehicle_type_id":"4","last_reported":1687892749,"current_range_meters":4400,"station_id":"ce4bgl12rcd13ifvqbo0","pricing_plan_id":"free"},{"bike_id":"592d248c-ff3d-48c1-860d-f4e4a6e8abbf","system_id":"levelo_inurba_marseille","lat":43.29602,"lon":5.381084,"is_reserved":false,"is_disabled":false,"rental_uris":{"android":"levelo://app?vid=592d248c-ff3d-48c1-860d-f4e4a6e8abbf","ios":"levelo://app?vid=592d248c-ff3d-48c1-860d-f4e4a6e8abbf"},"vehicle_type_id":"4","last_reported":1687892749,"current_range_meters":22000,"station_id":"ce4bgl12rcd13ifvqbo0","pricing_plan_id":"free"},{"bike_id":"053a597e-6955-411e-a6c5-f0bd30505469","system_id":"levelo_inurba_marseille","lat":43.29602,"lon":5.381084,"is_reserved":false,"is_disabled":false,"rental_uris":{"android":"levelo://app?vid=053a597e-6955-411e-a6c5-f0bd30505469","ios":"levelo://app?vid=053a597e-6955-411e-a6c5-f0bd30505469"},"vehicle_type_id":"4","last_reported":1687892749,"current_range_meters":17200,"station_id":"ce4bgl12rcd13ifvqbo0","pricing_plan_id":"free"},{"bike_id":"000052a7-d459-4a57-8ddb-69d481b50a47","system_id":"levelo_inurba_marseille","lat":43.29602,"lon":5.381084,"is_reserved":false,"is_disabled":false,"rental_uris":{"android":"levelo://app?vid=000052a7-d459-4a57-8ddb-69d481b50a47","ios":"levelo://app?vid=000052a7-d459-4a57-8ddb-69d481b50a47"},"vehicle_type_id":"4","last_reported":1687892749,"current_range_meters":14800,"station_id":"ce4bgl12rcd13ifvqbo0","pricing_plan_id":"free"},{"bike_id":"0b55b9e3-9302-410a-a815-8743aaf57307","system_id":"levelo_inurba_marseille","lat":43.29601,"lon":5.381084,"is_reserved":false,"is_disabled":false,"rental_uris":{"android":"levelo://app?vid=0b55b9e3-9302-410a-a815-8743aaf57307","ios":"levelo://app?vid=0b55b9e3-9302-410a-a815-8743aaf57307"},"vehicle_type_id":"4","last_reported":1687892749,"current_range_meters":12800,"station_id":"ce4bgl12rcd13ifvqbo0","pricing_plan_id":"free"},{"bike_id":"0033d4a4-af4b-46fe-8ffb-2cbe17cc19cd","system_id":"levelo_inurba_marseille","lat":43.29602,"lon":5.381084,"is_reserved":false,"is_disabled":false,"rental_uris":{"android":"levelo://app?vid=0033d4a4-af4b-46fe-8ffb-2cbe17cc19cd","ios":"levelo://app?vid=0033d4a4-af4b-46fe-8ffb-2cbe17cc19cd"},"vehicle_type_id":"4","last_reported":1687892749,"current_range_meters":5600,"station_id":"ce4bgl12rcd13ifvqbo0","pricing_plan_id":"free"},{"bike_id":"56bfa0bc-955d-4f37-8eae-854670ca7bc5","system_id":"levelo_inurba_marseille","lat":43.29602,"lon":5.381084,"is_reserved":false,"is_disabled":false,"rental_uris":{"android":"levelo://app?vid=56bfa0bc-955d-4f37-8eae-854670ca7bc5","ios":"levelo://app?vid=56bfa0bc-955d-4f37-8eae-854670ca7bc5"},"vehicle_type_id":"4","last_reported":1687892749,"current_range_meters":15200,"station_id":"ce4bgl12rcd13ifvqbo0","pricing_plan_id":"free"},{"bike_id":"94e2a0cf-c937-43a8-8b88-9bc4dff83349","system_id":"levelo_inurba_marseille","lat":43.293259,"lon":5.371586,"is_reserved":false,"is_disabled":false,"rental_uris":{"android":"levelo://app?vid=94e2a0cf-c937-43a8-8b88-9bc4dff83349","ios":"levelo://app?vid=94e2a0cf-c937-43a8-8b88-9bc4dff83349"},"vehicle_type_id":"4","last_reported":1687892749,"current_range_meters":0,"station_id":"ce4bgh92rcd13ifvqb40","pricing_plan_id":"free"},{"bike_id":"a54d2e7a-e805-47d2-8463-aacb2be4e4b8","system_id":"levelo_inurba_marseille","lat":43.313571,"lon":5.384829,"is_reserved":false,"is_disabled":false,"rental_uris":{"android":"levelo://app?vid=a54d2e7a-e805-47d2-8463-aacb2be4e4b8","ios":"levelo://app?vid=a54d2e7a-e805-47d2-8463-aacb2be4e4b8"},"vehicle_type_id":"4","last_reported":1687892749,"current_range_meters":19200,"station_id":"ce4bgt92rcd13ifvqcf0","pricing_plan_id":"free"},{"bike_id":"bbc41c28-cd48-47e0-b2cd-3efd412c6a67","system_id":"levelo_inurba_marseille","lat":43.293009,"lon":5.374584,"is_reserved":false,"is_disabled":false,"rental_uris":{"android":"levelo://app?vid=bbc41c28-cd48-47e0-b2cd-3efd412c6a67","ios":"levelo://app?vid=bbc41c28-cd48-47e0-b2cd-3efd412c6a67"},"vehicle_type_id":"4","last_reported":1687892749,"current_range_meters":0,"station_id":"ce4bgi12rcd13ifvqb70","pricing_plan_id":"free"},{"bike_id":"d5a43633-a1fd-442c-8e13-8b21e68fd083","system_id":"levelo_inurba_marseille","lat":43.29301,"lon":5.37455,"is_reserved":false,"is_disabled":false,"rental_uris":{"android":"levelo://app?vid=d5a43633-a1fd-442c-8e13-8b21e68fd083","ios":"levelo://app?vid=d5a43633-a1fd-442c-8e13-8b21e68fd083"},"vehicle_type_id":"4","last_reported":1687892749,"current_range_meters":0,"station_id":"ce4bgi12rcd13ifvqb70","pricing_plan_id":"free"},{"bike_id":"fc5478dd-2e7e-4f63-acd6-d156d19b53c9","system_id":"levelo_inurba_marseille","lat":43.293009,"lon":5.374584,"is_reserved":false,"is_disabled":false,"rental_uris":{"android":"levelo://app?vid=fc5478dd-2e7e-4f63-acd6-d156d19b53c9","ios":"levelo://app?vid=fc5478dd-2e7e-4f63-acd6-d156d19b53c9"},"vehicle_type_id":"4","last_reported":1687892749,"current_range_meters":0,"station_id":"ce4bgi12rcd13ifvqb70","pricing_plan_id":"free"},{"bike_id":"d906a6e4-42bf-45f5-bb57-5cec3b3a27e6","system_id":"levelo_inurba_marseille","lat":43.29226,"lon":5.36046,"is_reserved":false,"is_disabled":false,"rental_uris":{"android":"levelo://app?vid=d906a6e4-42bf-45f5-bb57-5cec3b3a27e6","ios":"levelo://app?vid=d906a6e4-42bf-45f5-bb57-5cec3b3a27e6"},"vehicle_type_id":"4","last_reported":1687892749,"current_range_meters":29200,"station_id":"","pricing_plan_id":"free"},{"bike_id":"d2ffa5b3-dc7e-43cd-a65b-6735651ebaf1","system_id":"levelo_inurba_marseille","lat":43.309038,"lon":5.396546,"is_reserved":false,"is_disabled":false,"rental_uris":{"android":"levelo://app?vid=d2ffa5b3-dc7e-43cd-a65b-6735651ebaf1","ios":"levelo://app?vid=d2ffa5b3-dc7e-43cd-a65b-6735651ebaf1"},"vehicle_type_id":"4","last_reported":1687892749,"current_range_meters":5200,"station_id":"ce4bh012rcd13ifvqcv0","pricing_plan_id":"free"},{"bike_id":"1b889afe-80ce-4106-994c-4a1ae0adb593","system_id":"levelo_inurba_marseille","lat":43.313291,"lon":5.396838,"is_reserved":false,"is_disabled":false,"rental_uris":{"android":"levelo://app?vid=1b889afe-80ce-4106-994c-4a1ae0adb593","ios":"levelo://app?vid=1b889afe-80ce-4106-994c-4a1ae0adb593"},"vehicle_type_id":"4","last_reported":1687892749,"current_range_meters":12400,"station_id":"ce4bgvp2rcd13ifvqcu0","pricing_plan_id":"free"},{"bike_id":"645a86f0-07c5-4002-a991-08f3d47a79c0","system_id":"levelo_inurba_marseille","lat":43.313291,"lon":5.396838,"is_reserved":false,"is_disabled":false,"rental_uris":{"android":"levelo://app?vid=645a86f0-07c5-4002-a991-08f3d47a79c0","ios":"levelo://app?vid=645a86f0-07c5-4002-a991-08f3d47a79c0"},"vehicle_type_id":"4","last_reported":1687892749,"current_range_meters":27600,"station_id":"ce4bgvp2rcd13ifvqcu0","pricing_plan_id":"free"},{"bike_id":"477c089a-9737-41a4-b6b8-c9e771c81ef1","system_id":"levelo_inurba_marseille","lat":43.309038,"lon":5.396546,"is_reserved":false,"is_disabled":false,"rental_uris":{"android":"levelo://app?vid=477c089a-9737-41a4-b6b8-c9e771c81ef1","ios":"levelo://app?vid=477c089a-9737-41a4-b6b8-c9e771c81ef1"},"vehicle_type_id":"4","last_reported":1687892749,"current_range_meters":0,"station_id":"ce4bh012rcd13ifvqcv0","pricing_plan_id":"free"},{"bike_id":"cd702b0c-5456-4482-af10-93e8dcc45c29","system_id":"levelo_inurba_marseille","lat":43.313291,"lon":5.396838,"is_reserved":false,"is_disabled":false,"rental_uris":{"android":"levelo://app?vid=cd702b0c-5456-4482-af10-93e8dcc45c29","ios":"levelo://app?vid=cd702b0c-5456-4482-af10-93e8dcc45c29"},"vehicle_type_id":"4","last_reported":1687892749,"current_range_meters":15200,"station_id":"ce4bgvp2rcd13ifvqcu0","pricing_plan_id":"free"},{"bike_id":"6419200a-b829-4ca5-a67f-78ff65497f56","system_id":"levelo_inurba_marseille","lat":43.313291,"lon":5.396838,"is_reserved":false,"is_disabled":false,"rental_uris":{"android":"levelo://app?vid=6419200a-b829-4ca5-a67f-78ff65497f56","ios":"levelo://app?vid=6419200a-b829-4ca5-a67f-78ff65497f56"},"vehicle_type_id":"4","last_reported":1687892749,"current_range_meters":4400,"station_id":"ce4bgvp2rcd13ifvqcu0","pricing_plan_id":"free"},{"bike_id":"30a48396-c5a9-4fc3-a3bf-8dadecbd759a","system_id":"levelo_inurba_marseille","lat":43.309038,"lon":5.396546,"is_reserved":false,"is_disabled":false,"rental_uris":{"android":"levelo://app?vid=30a48396-c5a9-4fc3-a3bf-8dadecbd759a","ios":"levelo://app?vid=30a48396-c5a9-4fc3-a3bf-8dadecbd759a"},"vehicle_type_id":"4","last_reported":1687892749,"current_range_meters":10400,"station_id":"ce4bh012rcd13ifvqcv0","pricing_plan_id":"free"},{"bike_id":"39d4580b-53cc-4ed9-81fe-cb268371c9de","system_id":"levelo_inurba_marseille","lat":43.309038,"lon":5.396546,"is_reserved":false,"is_disabled":false,"rental_uris":{"android":"levelo://app?vid=39d4580b-53cc-4ed9-81fe-cb268371c9de","ios":"levelo://app?vid=39d4580b-53cc-4ed9-81fe-cb268371c9de"},"vehicle_type_id":"4","last_reported":1687892749,"current_range_meters":4000,"station_id":"ce4bh012rcd13ifvqcv0","pricing_plan_id":"free"},{"bike_id":"d2df99d7-7c33-431e-9e8c-15ceec4f6bab","system_id":"levelo_inurba_marseille","lat":43.29529,"lon":5.385581,"is_reserved":false,"is_disabled":false,"rental_uris":{"android":"levelo://app?vid=d2df99d7-7c33-431e-9e8c-15ceec4f6bab","ios":"levelo://app?vid=d2df99d7-7c33-431e-9e8c-15ceec4f6bab"},"vehicle_type_id":"4","last_reported":1687892749,"current_range_meters":14000,"station_id":"ce4bgih2rcd13ifvqba0","pricing_plan_id":"free"},{"bike_id":"3ca42dbf-0dc7-41d1-8113-fc349a58e5f7","system_id":"levelo_inurba_marseille","lat":43.29534,"lon":5.38543,"is_reserved":false,"is_disabled":false,"rental_uris":{"android":"levelo://app?vid=3ca42dbf-0dc7-41d1-8113-fc349a58e5f7","ios":"levelo://app?vid=3ca42dbf-0dc7-41d1-8113-fc349a58e5f7"},"vehicle_type_id":"4","last_reported":1687892749,"current_range_meters":0,"station_id":"ce4bgih2rcd13ifvqba0","pricing_plan_id":"free"},{"bike_id":"1d279abe-200a-44e9-a4a7-452f2123293a","system_id":"levelo_inurba_marseille","lat":43.29529,"lon":5.385581,"is_reserved":false,"is_disabled":false,"rental_uris":{"android":"levelo://app?vid=1d279abe-200a-44e9-a4a7-452f2123293a","ios":"levelo://app?vid=1d279abe-200a-44e9-a4a7-452f2123293a"},"vehicle_type_id":"4","last_reported":1687892749,"current_range_meters":22800,"station_id":"ce4bgih2rcd13ifvqba0","pricing_plan_id":"free"},{"bike_id":"3a37a747-757b-444f-9359-7b2f85d8bcf7","system_id":"levelo_inurba_marseille","lat":43.309038,"lon":5.396546,"is_reserved":false,"is_disabled":false,"rental_uris":{"android":"levelo://app?vid=3a37a747-757b-444f-9359-7b2f85d8bcf7","ios":"levelo://app?vid=3a37a747-757b-444f-9359-7b2f85d8bcf7"},"vehicle_type_id":"4","last_reported":1687892749,"current_range_meters":4400,"station_id":"ce4bh012rcd13ifvqcv0","pricing_plan_id":"free"},{"bike_id":"bf3a41a1-aaad-4dd7-a0f9-93f96c569179","system_id":"levelo_inurba_marseille","lat":43.29529,"lon":5.385581,"is_reserved":false,"is_disabled":false,"rental_uris":{"android":"levelo://app?vid=bf3a41a1-aaad-4dd7-a0f9-93f96c569179","ios":"levelo://app?vid=bf3a41a1-aaad-4dd7-a0f9-93f96c569179"},"vehicle_type_id":"4","last_reported":1687892749,"current_range_meters":800,"station_id":"ce4bgih2rcd13ifvqba0","pricing_plan_id":"free"},{"bike_id":"53813616-680d-4bb5-b630-416b121ed1c1","system_id":"levelo_inurba_marseille","lat":43.29529,"lon":5.385581,"is_reserved":false,"is_disabled":false,"rental_uris":{"android":"levelo://app?vid=53813616-680d-4bb5-b630-416b121ed1c1","ios":"levelo://app?vid=53813616-680d-4bb5-b630-416b121ed1c1"},"vehicle_type_id":"4","last_reported":1687892749,"current_range_meters":10800,"station_id":"ce4bgih2rcd13ifvqba0","pricing_plan_id":"free"},{"bike_id":"b1e896f1-8356-46d2-8378-75b6449d4000","system_id":"levelo_inurba_marseille","lat":43.292644,"lon":5.384257,"is_reserved":false,"is_disabled":false,"rental_uris":{"android":"levelo://app?vid=b1e896f1-8356-46d2-8378-75b6449d4000","ios":"levelo://app?vid=b1e896f1-8356-46d2-8378-75b6449d4000"},"vehicle_type_id":"4","last_reported":1687892749,"current_range_meters":1600,"station_id":"ce4bh692rcd13ifvqea0","pricing_plan_id":"free"},{"bike_id":"47eb8665-cdc9-4b5e-8471-74398729c0c1","system_id":"levelo_inurba_marseille","lat":43.290624,"lon":5.359245,"is_reserved":false,"is_disabled":false,"rental_uris":{"android":"levelo://app?vid=47eb8665-cdc9-4b5e-8471-74398729c0c1","ios":"levelo://app?vid=47eb8665-cdc9-4b5e-8471-74398729c0c1"},"vehicle_type_id":"4","last_reported":1687892749,"current_range_meters":16000,"station_id":"ce4bha92rcd13ifvqeg0","pricing_plan_id":"free"},{"bike_id":"c5859090-caad-445e-bbbd-bfbb889840fa","system_id":"levelo_inurba_marseille","lat":43.290631,"lon":5.359244,"is_reserved":false,"is_disabled":false,"rental_uris":{"android":"levelo://app?vid=c5859090-caad-445e-bbbd-bfbb889840fa","ios":"levelo://app?vid=c5859090-caad-445e-bbbd-bfbb889840fa"},"vehicle_type_id":"4","last_reported":1687892749,"current_range_meters":2800,"station_id":"ce4bha92rcd13ifvqeg0","pricing_plan_id":"free"},{"bike_id":"912cd858-a709-4b88-a386-3941b2cbc4f3","system_id":"levelo_inurba_marseille","lat":43.294162,"lon":5.386292,"is_reserved":false,"is_disabled":false,"rental_uris":{"android":"levelo://app?vid=912cd858-a709-4b88-a386-3941b2cbc4f3","ios":"levelo://app?vid=912cd858-a709-4b88-a386-3941b2cbc4f3"},"vehicle_type_id":"4","last_reported":1687892749,"current_range_meters":30000,"station_id":"ce4bh2h2rcd13ifvqdh0","pricing_plan_id":"free"},{"bike_id":"6867df42-30dd-4825-b7fe-404564247748","system_id":"levelo_inurba_marseille","lat":43.294174,"lon":5.386231,"is_reserved":false,"is_disabled":false,"rental_uris":{"android":"levelo://app?vid=6867df42-30dd-4825-b7fe-404564247748","ios":"levelo://app?vid=6867df42-30dd-4825-b7fe-404564247748"},"vehicle_type_id":"4","last_reported":1687892749,"current_range_meters":13600,"station_id":"","pricing_plan_id":"free"},{"bike_id":"38857e88-9a14-4b89-9e68-6359994694be","system_id":"levelo_inurba_marseille","lat":43.294153,"lon":5.386305,"is_reserved":false,"is_disabled":false,"rental_uris":{"android":"levelo://app?vid=38857e88-9a14-4b89-9e68-6359994694be","ios":"levelo://app?vid=38857e88-9a14-4b89-9e68-6359994694be"},"vehicle_type_id":"4","last_reported":1687892749,"current_range_meters":29200,"station_id":"ce4bh2h2rcd13ifvqdh0","pricing_plan_id":"free"},{"bike_id":"7607a09f-34cf-4e87-ae1f-8d8b1c845f72","system_id":"levelo_inurba_marseille","lat":43.294153,"lon":5.386305,"is_reserved":false,"is_disabled":false,"rental_uris":{"android":"levelo://app?vid=7607a09f-34cf-4e87-ae1f-8d8b1c845f72","ios":"levelo://app?vid=7607a09f-34cf-4e87-ae1f-8d8b1c845f72"},"vehicle_type_id":"4","last_reported":1687892749,"current_range_meters":30000,"station_id":"ce4bh2h2rcd13ifvqdh0","pricing_plan_id":"free"},{"bike_id":"399ef6b6-bd49-40a3-a085-0dfa050cfb9f","system_id":"levelo_inurba_marseille","lat":43.29411,"lon":5.38614,"is_reserved":false,"is_disabled":false,"rental_uris":{"android":"levelo://app?vid=399ef6b6-bd49-40a3-a085-0dfa050cfb9f","ios":"levelo://app?vid=399ef6b6-bd49-40a3-a085-0dfa050cfb9f"},"vehicle_type_id":"4","last_reported":1687892749,"current_range_meters":6800,"station_id":"","pricing_plan_id":"free"},{"bike_id":"3157c08e-8e99-4041-96d7-79971433d160","system_id":"levelo_inurba_marseille","lat":43.294162,"lon":5.386292,"is_reserved":false,"is_disabled":false,"rental_uris":{"android":"levelo://app?vid=3157c08e-8e99-4041-96d7-79971433d160","ios":"levelo://app?vid=3157c08e-8e99-4041-96d7-79971433d160"},"vehicle_type_id":"4","last_reported":1687892749,"current_range_meters":4800,"station_id":"ce4bh2h2rcd13ifvqdh0","pricing_plan_id":"free"},{"bike_id":"e0ff7446-8b7c-4483-b5d5-aba2b5648f09","system_id":"levelo_inurba_marseille","lat":43.28937,"lon":5.36625,"is_reserved":false,"is_disabled":false,"rental_uris":{"android":"levelo://app?vid=e0ff7446-8b7c-4483-b5d5-aba2b5648f09","ios":"levelo://app?vid=e0ff7446-8b7c-4483-b5d5-aba2b5648f09"},"vehicle_type_id":"4","last_reported":1687892749,"current_range_meters":31200,"station_id":"ce4bhap2rcd13ifvqek0","pricing_plan_id":"free"},{"bike_id":"05db5958-a205-4396-9cd9-e1074be30298","system_id":"levelo_inurba_marseille","lat":43.28941,"lon":5.36386,"is_reserved":false,"is_disabled":false,"rental_uris":{"android":"levelo://app?vid=05db5958-a205-4396-9cd9-e1074be30298","ios":"levelo://app?vid=05db5958-a205-4396-9cd9-e1074be30298"},"vehicle_type_id":"4","last_reported":1687892749,"current_range_meters":16400,"station_id":"ce4bhc92rcd13ifvqetg","pricing_plan_id":"free"},{"bike_id":"7bc879a5-5ee0-4b96-a9fe-90443bc90b68","system_id":"levelo_inurba_marseille","lat":43.289468,"lon":5.363719,"is_reserved":false,"is_disabled":false,"rental_uris":{"android":"levelo://app?vid=7bc879a5-5ee0-4b96-a9fe-90443bc90b68","ios":"levelo://app?vid=7bc879a5-5ee0-4b96-a9fe-90443bc90b68"},"vehicle_type_id":"4","last_reported":1687892749,"current_range_meters":19600,"station_id":"ce4bhc92rcd13ifvqetg","pricing_plan_id":"free"},{"bike_id":"3f14a868-a372-48f7-8974-9230f969d90c","system_id":"levelo_inurba_marseille","lat":43.294162,"lon":5.386292,"is_reserved":false,"is_disabled":false,"rental_uris":{"android":"levelo://app?vid=3f14a868-a372-48f7-8974-9230f969d90c","ios":"levelo://app?vid=3f14a868-a372-48f7-8974-9230f969d90c"},"vehicle_type_id":"4","last_reported":1687892749,"current_range_meters":12400,"station_id":"ce4bh2h2rcd13ifvqdh0","pricing_plan_id":"free"},{"bike_id":"c71e7bdd-1b32-4f7d-a21e-e3ca28a191fe","system_id":"levelo_inurba_marseille","lat":43.28921,"lon":5.36672,"is_reserved":false,"is_disabled":false,"rental_uris":{"android":"levelo://app?vid=c71e7bdd-1b32-4f7d-a21e-e3ca28a191fe","ios":"levelo://app?vid=c71e7bdd-1b32-4f7d-a21e-e3ca28a191fe"},"vehicle_type_id":"4","last_reported":1687892749,"current_range_meters":9200,"station_id":"ce4bhap2rcd13ifvqek0","pricing_plan_id":"free"},{"bike_id":"24b31dc0-78f3-462a-a03d-7216b3bb744d","system_id":"levelo_inurba_marseille","lat":43.289468,"lon":5.363719,"is_reserved":false,"is_disabled":false,"rental_uris":{"android":"levelo://app?vid=24b31dc0-78f3-462a-a03d-7216b3bb744d","ios":"levelo://app?vid=24b31dc0-78f3-462a-a03d-7216b3bb744d"},"vehicle_type_id":"4","last_reported":1687892749,"current_range_meters":2000,"station_id":"ce4bhc92rcd13ifvqetg","pricing_plan_id":"free"},{"bike_id":"d692a56b-6d1c-4c2f-a804-e3b743a1eef7","system_id":"levelo_inurba_marseille","lat":43.29265,"lon":5.38432,"is_reserved":false,"is_disabled":false,"rental_uris":{"android":"levelo://app?vid=d692a56b-6d1c-4c2f-a804-e3b743a1eef7","ios":"levelo://app?vid=d692a56b-6d1c-4c2f-a804-e3b743a1eef7"},"vehicle_type_id":"4","last_reported":1687892749,"current_range_meters":1200,"station_id":"ce4bh692rcd13ifvqea0","pricing_plan_id":"free"},{"bike_id":"c64f5405-698d-434a-aa3a-38597828042e","system_id":"levelo_inurba_marseille","lat":43.29264,"lon":5.38432,"is_reserved":false,"is_disabled":false,"rental_uris":{"android":"levelo://app?vid=c64f5405-698d-434a-aa3a-38597828042e","ios":"levelo://app?vid=c64f5405-698d-434a-aa3a-38597828042e"},"vehicle_type_id":"4","last_reported":1687892749,"current_range_meters":20400,"station_id":"ce4bh692rcd13ifvqea0","pricing_plan_id":"free"},{"bike_id":"5b4d55b4-99c5-41fe-9f92-31b8faf019a1","system_id":"levelo_inurba_marseille","lat":43.292644,"lon":5.384257,"is_reserved":false,"is_disabled":false,"rental_uris":{"android":"levelo://app?vid=5b4d55b4-99c5-41fe-9f92-31b8faf019a1","ios":"levelo://app?vid=5b4d55b4-99c5-41fe-9f92-31b8faf019a1"},"vehicle_type_id":"4","last_reported":1687892749,"current_range_meters":8800,"station_id":"ce4bh692rcd13ifvqea0","pricing_plan_id":"free"},{"bike_id":"9d910167-a7c5-4c9e-808b-eba1d4186031","system_id":"levelo_inurba_marseille","lat":43.292644,"lon":5.384257,"is_reserved":false,"is_disabled":false,"rental_uris":{"android":"levelo://app?vid=9d910167-a7c5-4c9e-808b-eba1d4186031","ios":"levelo://app?vid=9d910167-a7c5-4c9e-808b-eba1d4186031"},"vehicle_type_id":"4","last_reported":1687892749,"current_range_meters":5200,"station_id":"ce4bh692rcd13ifvqea0","pricing_plan_id":"free"},{"bike_id":"fdf8a416-8625-456a-bd0f-17949f6cbef8","system_id":"levelo_inurba_marseille","lat":43.292644,"lon":5.384257,"is_reserved":false,"is_disabled":false,"rental_uris":{"android":"levelo://app?vid=fdf8a416-8625-456a-bd0f-17949f6cbef8","ios":"levelo://app?vid=fdf8a416-8625-456a-bd0f-17949f6cbef8"},"vehicle_type_id":"4","last_reported":1687892749,"current_range_meters":14800,"station_id":"ce4bh692rcd13ifvqea0","pricing_plan_id":"free"},{"bike_id":"063c750d-8982-45ce-bd86-e86ea74308d0","system_id":"levelo_inurba_marseille","lat":43.29261,"lon":5.38449,"is_reserved":false,"is_disabled":false,"rental_uris":{"android":"levelo://app?vid=063c750d-8982-45ce-bd86-e86ea74308d0","ios":"levelo://app?vid=063c750d-8982-45ce-bd86-e86ea74308d0"},"vehicle_type_id":"4","last_reported":1687892749,"current_range_meters":18800,"station_id":"ce4bh692rcd13ifvqea0","pricing_plan_id":"free"},{"bike_id":"3db6f231-edd4-4a60-b57b-77a5c8fc74e8","system_id":"levelo_inurba_marseille","lat":43.29258,"lon":5.38447,"is_reserved":false,"is_disabled":false,"rental_uris":{"android":"levelo://app?vid=3db6f231-edd4-4a60-b57b-77a5c8fc74e8","ios":"levelo://app?vid=3db6f231-edd4-4a60-b57b-77a5c8fc74e8"},"vehicle_type_id":"4","last_reported":1687892749,"current_range_meters":0,"station_id":"ce4bh692rcd13ifvqea0","pricing_plan_id":"free"},{"bike_id":"f3ce8296-a357-4ed3-991c-7c7987826693","system_id":"levelo_inurba_marseille","lat":43.33041,"lon":5.38912,"is_reserved":false,"is_disabled":false,"rental_uris":{"android":"levelo://app?vid=f3ce8296-a357-4ed3-991c-7c7987826693","ios":"levelo://app?vid=f3ce8296-a357-4ed3-991c-7c7987826693"},"vehicle_type_id":"4","last_reported":1687892749,"current_range_meters":31200,"station_id":"ce4bhr92rcd13ifvqhrg","pricing_plan_id":"free"},{"bike_id":"dc499986-9ddd-457a-a213-8aeb13714ee0","system_id":"levelo_inurba_marseille","lat":43.33046,"lon":5.38913,"is_reserved":false,"is_disabled":false,"rental_uris":{"android":"levelo://app?vid=dc499986-9ddd-457a-a213-8aeb13714ee0","ios":"levelo://app?vid=dc499986-9ddd-457a-a213-8aeb13714ee0"},"vehicle_type_id":"4","last_reported":1687892749,"current_range_meters":23200,"station_id":"ce4bhr92rcd13ifvqhrg","pricing_plan_id":"free"},{"bike_id":"f796f425-6905-4fb3-9c08-efb7921e42ce","system_id":"levelo_inurba_marseille","lat":43.33048,"lon":5.38912,"is_reserved":false,"is_disabled":false,"rental_uris":{"android":"levelo://app?vid=f796f425-6905-4fb3-9c08-efb7921e42ce","ios":"levelo://app?vid=f796f425-6905-4fb3-9c08-efb7921e42ce"},"vehicle_type_id":"4","last_reported":1687892749,"current_range_meters":31200,"station_id":"ce4bhr92rcd13ifvqhrg","pricing_plan_id":"free"},{"bike_id":"84718f7a-81b3-4376-93eb-27bbf90e5c0d","system_id":"levelo_inurba_marseille","lat":43.33047,"lon":5.38914,"is_reserved":false,"is_disabled":false,"rental_uris":{"android":"levelo://app?vid=84718f7a-81b3-4376-93eb-27bbf90e5c0d","ios":"levelo://app?vid=84718f7a-81b3-4376-93eb-27bbf90e5c0d"},"vehicle_type_id":"4","last_reported":1687892749,"current_range_meters":15600,"station_id":"ce4bhr92rcd13ifvqhrg","pricing_plan_id":"free"},{"bike_id":"1a2931cc-2400-4c11-bca8-c22187ec9431","system_id":"levelo_inurba_marseille","lat":43.33048,"lon":5.38914,"is_reserved":false,"is_disabled":false,"rental_uris":{"android":"levelo://app?vid=1a2931cc-2400-4c11-bca8-c22187ec9431","ios":"levelo://app?vid=1a2931cc-2400-4c11-bca8-c22187ec9431"},"vehicle_type_id":"4","last_reported":1687892749,"current_range_meters":31200,"station_id":"ce4bhr92rcd13ifvqhrg","pricing_plan_id":"free"},{"bike_id":"31e670fe-027d-44b4-89c1-9f7413d8e201","system_id":"levelo_inurba_marseille","lat":43.33049,"lon":5.38914,"is_reserved":false,"is_disabled":false,"rental_uris":{"android":"levelo://app?vid=31e670fe-027d-44b4-89c1-9f7413d8e201","ios":"levelo://app?vid=31e670fe-027d-44b4-89c1-9f7413d8e201"},"vehicle_type_id":"4","last_reported":1687892749,"current_range_meters":22400,"station_id":"ce4bhr92rcd13ifvqhrg","pricing_plan_id":"free"},{"bike_id":"9f952cd5-a4e6-40b8-a42f-a3faa1a1bbb6","system_id":"levelo_inurba_marseille","lat":43.33049,"lon":5.38915,"is_reserved":false,"is_disabled":false,"rental_uris":{"android":"levelo://app?vid=9f952cd5-a4e6-40b8-a42f-a3faa1a1bbb6","ios":"levelo://app?vid=9f952cd5-a4e6-40b8-a42f-a3faa1a1bbb6"},"vehicle_type_id":"4","last_reported":1687892749,"current_range_meters":2000,"station_id":"ce4bhr92rcd13ifvqhrg","pricing_plan_id":"free"},{"bike_id":"1a7b853a-50f2-498a-a451-f4fc5c20ed55","system_id":"levelo_inurba_marseille","lat":43.33051,"lon":5.38912,"is_reserved":false,"is_disabled":false,"rental_uris":{"android":"levelo://app?vid=1a7b853a-50f2-498a-a451-f4fc5c20ed55","ios":"levelo://app?vid=1a7b853a-50f2-498a-a451-f4fc5c20ed55"},"vehicle_type_id":"4","last_reported":1687892749,"current_range_meters":6000,"station_id":"ce4bhr92rcd13ifvqhrg","pricing_plan_id":"free"},{"bike_id":"5628237b-bd7d-4008-b0d0-67fd5903b54c","system_id":"levelo_inurba_marseille","lat":43.290104,"lon":5.356111,"is_reserved":false,"is_disabled":false,"rental_uris":{"android":"levelo://app?vid=5628237b-bd7d-4008-b0d0-67fd5903b54c","ios":"levelo://app?vid=5628237b-bd7d-4008-b0d0-67fd5903b54c"},"vehicle_type_id":"4","last_reported":1687892749,"current_range_meters":400,"station_id":"ce4bhb92rcd13ifvqen0","pricing_plan_id":"free"},{"bike_id":"4a2fa941-ba8d-4a5d-a9cd-ed8af9afc9c1","system_id":"levelo_inurba_marseille","lat":43.290104,"lon":5.356111,"is_reserved":false,"is_disabled":false,"rental_uris":{"android":"levelo://app?vid=4a2fa941-ba8d-4a5d-a9cd-ed8af9afc9c1","ios":"levelo://app?vid=4a2fa941-ba8d-4a5d-a9cd-ed8af9afc9c1"},"vehicle_type_id":"4","last_reported":1687892749,"current_range_meters":0,"station_id":"ce4bhb92rcd13ifvqen0","pricing_plan_id":"free"},{"bike_id":"8837a894-0392-4c95-9fec-aac2b89ac7b2","system_id":"levelo_inurba_marseille","lat":43.29102,"lon":5.38133,"is_reserved":false,"is_disabled":false,"rental_uris":{"android":"levelo://app?vid=8837a894-0392-4c95-9fec-aac2b89ac7b2","ios":"levelo://app?vid=8837a894-0392-4c95-9fec-aac2b89ac7b2"},"vehicle_type_id":"4","last_reported":1687892749,"current_range_meters":30000,"station_id":"ce4bh512rcd13ifvqe2g","pricing_plan_id":"free"},{"bike_id":"8262ad96-172f-46b7-8448-24b155fa2400","system_id":"levelo_inurba_marseille","lat":43.290995,"lon":5.381361,"is_reserved":false,"is_disabled":false,"rental_uris":{"android":"levelo://app?vid=8262ad96-172f-46b7-8448-24b155fa2400","ios":"levelo://app?vid=8262ad96-172f-46b7-8448-24b155fa2400"},"vehicle_type_id":"4","last_reported":1687892749,"current_range_meters":28000,"station_id":"ce4bh512rcd13ifvqe2g","pricing_plan_id":"free"},{"bike_id":"e78c5021-87e0-477e-bbb9-c56579001096","system_id":"levelo_inurba_marseille","lat":43.290995,"lon":5.381361,"is_reserved":false,"is_disabled":false,"rental_uris":{"android":"levelo://app?vid=e78c5021-87e0-477e-bbb9-c56579001096","ios":"levelo://app?vid=e78c5021-87e0-477e-bbb9-c56579001096"},"vehicle_type_id":"4","last_reported":1687892749,"current_range_meters":8000,"station_id":"ce4bh512rcd13ifvqe2g","pricing_plan_id":"free"},{"bike_id":"62c57743-2347-4d89-a20f-14512c9d9f24","system_id":"levelo_inurba_marseille","lat":43.28856,"lon":5.358371,"is_reserved":false,"is_disabled":false,"rental_uris":{"android":"levelo://app?vid=62c57743-2347-4d89-a20f-14512c9d9f24","ios":"levelo://app?vid=62c57743-2347-4d89-a20f-14512c9d9f24"},"vehicle_type_id":"4","last_reported":1687892749,"current_range_meters":13600,"station_id":"ce4bhb12rcd13ifvqem0","pricing_plan_id":"free"},{"bike_id":"42833adf-18cc-4fdc-8239-785753412164","system_id":"levelo_inurba_marseille","lat":43.28856,"lon":5.358371,"is_reserved":false,"is_disabled":false,"rental_uris":{"android":"levelo://app?vid=42833adf-18cc-4fdc-8239-785753412164","ios":"levelo://app?vid=42833adf-18cc-4fdc-8239-785753412164"},"vehicle_type_id":"4","last_reported":1687892749,"current_range_meters":1600,"station_id":"ce4bhb12rcd13ifvqem0","pricing_plan_id":"free"},{"bike_id":"b152602a-aaa7-4eed-93ba-89050d9c58ba","system_id":"levelo_inurba_marseille","lat":43.3067,"lon":5.40078,"is_reserved":false,"is_disabled":false,"rental_uris":{"android":"levelo://app?vid=b152602a-aaa7-4eed-93ba-89050d9c58ba","ios":"levelo://app?vid=b152602a-aaa7-4eed-93ba-89050d9c58ba"},"vehicle_type_id":"4","last_reported":1687892749,"current_range_meters":26400,"station_id":"","pricing_plan_id":"free"},{"bike_id":"476cd57c-2e9c-4f0d-a086-f93a7e3396f6","system_id":"levelo_inurba_marseille","lat":43.337516,"lon":5.374747,"is_reserved":false,"is_disabled":false,"rental_uris":{"android":"levelo://app?vid=476cd57c-2e9c-4f0d-a086-f93a7e3396f6","ios":"levelo://app?vid=476cd57c-2e9c-4f0d-a086-f93a7e3396f6"},"vehicle_type_id":"4","last_reported":1687892749,"current_range_meters":31200,"station_id":"","pricing_plan_id":"free"},{"bike_id":"b7619284-b2b2-4028-bf73-65ce51a86900","system_id":"levelo_inurba_marseille","lat":43.295713,"lon":5.399639,"is_reserved":false,"is_disabled":false,"rental_uris":{"android":"levelo://app?vid=b7619284-b2b2-4028-bf73-65ce51a86900","ios":"levelo://app?vid=b7619284-b2b2-4028-bf73-65ce51a86900"},"vehicle_type_id":"4","last_reported":1687892749,"current_range_meters":7200,"station_id":"ce4bh312rcd13ifvqdj0","pricing_plan_id":"free"},{"bike_id":"b2ad84ee-881b-483f-91b4-7579c5212d76","system_id":"levelo_inurba_marseille","lat":43.298681,"lon":5.397225,"is_reserved":false,"is_disabled":false,"rental_uris":{"android":"levelo://app?vid=b2ad84ee-881b-483f-91b4-7579c5212d76","ios":"levelo://app?vid=b2ad84ee-881b-483f-91b4-7579c5212d76"},"vehicle_type_id":"4","last_reported":1687892749,"current_range_meters":4000,"station_id":"ce4bh0h2rcd13ifvqd50","pricing_plan_id":"free"},{"bike_id":"21861fd0-1d37-41cf-82bd-485274a5d8b0","system_id":"levelo_inurba_marseille","lat":43.298681,"lon":5.397225,"is_reserved":false,"is_disabled":false,"rental_uris":{"android":"levelo://app?vid=21861fd0-1d37-41cf-82bd-485274a5d8b0","ios":"levelo://app?vid=21861fd0-1d37-41cf-82bd-485274a5d8b0"},"vehicle_type_id":"4","last_reported":1687892749,"current_range_meters":2800,"station_id":"ce4bh0h2rcd13ifvqd50","pricing_plan_id":"free"},{"bike_id":"54e3731c-4100-4976-919d-7dc215467dfe","system_id":"levelo_inurba_marseille","lat":43.286591,"lon":5.363346,"is_reserved":false,"is_disabled":false,"rental_uris":{"android":"levelo://app?vid=54e3731c-4100-4976-919d-7dc215467dfe","ios":"levelo://app?vid=54e3731c-4100-4976-919d-7dc215467dfe"},"vehicle_type_id":"4","last_reported":1687892749,"current_range_meters":28800,"station_id":"ce4bhah2rcd13ifvqej0","pricing_plan_id":"free"},{"bike_id":"3bbc4d59-4dab-4154-8023-29ed50c8f93d","system_id":"levelo_inurba_marseille","lat":43.286591,"lon":5.363346,"is_reserved":false,"is_disabled":false,"rental_uris":{"android":"levelo://app?vid=3bbc4d59-4dab-4154-8023-29ed50c8f93d","ios":"levelo://app?vid=3bbc4d59-4dab-4154-8023-29ed50c8f93d"},"vehicle_type_id":"4","last_reported":1687892749,"current_range_meters":24000,"station_id":"ce4bhah2rcd13ifvqej0","pricing_plan_id":"free"},{"bike_id":"fd25e333-e320-468e-aab1-c035597cc9b7","system_id":"levelo_inurba_marseille","lat":43.286591,"lon":5.363346,"is_reserved":false,"is_disabled":false,"rental_uris":{"android":"levelo://app?vid=fd25e333-e320-468e-aab1-c035597cc9b7","ios":"levelo://app?vid=fd25e333-e320-468e-aab1-c035597cc9b7"},"vehicle_type_id":"4","last_reported":1687892749,"current_range_meters":4800,"station_id":"ce4bhah2rcd13ifvqej0","pricing_plan_id":"free"},{"bike_id":"b12d3ba2-4b18-4570-9d3b-4f36d64301d4","system_id":"levelo_inurba_marseille","lat":43.28664,"lon":5.36341,"is_reserved":false,"is_disabled":false,"rental_uris":{"android":"levelo://app?vid=b12d3ba2-4b18-4570-9d3b-4f36d64301d4","ios":"levelo://app?vid=b12d3ba2-4b18-4570-9d3b-4f36d64301d4"},"vehicle_type_id":"4","last_reported":1687892749,"current_range_meters":18000,"station_id":"ce4bhah2rcd13ifvqej0","pricing_plan_id":"free"},{"bike_id":"7c0a59a6-bda9-454d-9c55-a0fbcd43386c","system_id":"levelo_inurba_marseille","lat":43.286593,"lon":5.363346,"is_reserved":false,"is_disabled":false,"rental_uris":{"android":"levelo://app?vid=7c0a59a6-bda9-454d-9c55-a0fbcd43386c","ios":"levelo://app?vid=7c0a59a6-bda9-454d-9c55-a0fbcd43386c"},"vehicle_type_id":"4","last_reported":1687892749,"current_range_meters":16000,"station_id":"ce4bhah2rcd13ifvqej0","pricing_plan_id":"free"},{"bike_id":"d519a94c-12e1-4e96-9db0-ba28bdd8b48d","system_id":"levelo_inurba_marseille","lat":43.290345,"lon":5.38646,"is_reserved":false,"is_disabled":false,"rental_uris":{"android":"levelo://app?vid=d519a94c-12e1-4e96-9db0-ba28bdd8b48d","ios":"levelo://app?vid=d519a94c-12e1-4e96-9db0-ba28bdd8b48d"},"vehicle_type_id":"4","last_reported":1687892749,"current_range_meters":9600,"station_id":"ce4bh4p2rcd13ifvqe0g","pricing_plan_id":"free"},{"bike_id":"71b4b9c1-244d-4675-a9f5-69e6969b5ec1","system_id":"levelo_inurba_marseille","lat":43.290259,"lon":5.386559,"is_reserved":false,"is_disabled":false,"rental_uris":{"android":"levelo://app?vid=71b4b9c1-244d-4675-a9f5-69e6969b5ec1","ios":"levelo://app?vid=71b4b9c1-244d-4675-a9f5-69e6969b5ec1"},"vehicle_type_id":"4","last_reported":1687892749,"current_range_meters":1200,"station_id":"ce4bh4p2rcd13ifvqe0g","pricing_plan_id":"free"},{"bike_id":"efa8d892-c15e-4fda-8426-489254cabd9e","system_id":"levelo_inurba_marseille","lat":43.28616,"lon":5.37045,"is_reserved":false,"is_disabled":false,"rental_uris":{"android":"levelo://app?vid=efa8d892-c15e-4fda-8426-489254cabd9e","ios":"levelo://app?vid=efa8d892-c15e-4fda-8426-489254cabd9e"},"vehicle_type_id":"4","last_reported":1687892749,"current_range_meters":27600,"station_id":"ce4bht12rcd13ifvqi60","pricing_plan_id":"free"},{"bike_id":"6231af7e-55ff-4403-8ded-3cd82fe75812","system_id":"levelo_inurba_marseille","lat":43.286039,"lon":5.370679,"is_reserved":false,"is_disabled":false,"rental_uris":{"android":"levelo://app?vid=6231af7e-55ff-4403-8ded-3cd82fe75812","ios":"levelo://app?vid=6231af7e-55ff-4403-8ded-3cd82fe75812"},"vehicle_type_id":"4","last_reported":1687892749,"current_range_meters":6400,"station_id":"ce4bht12rcd13ifvqi60","pricing_plan_id":"free"},{"bike_id":"a923f3c7-29d2-46e7-b33a-af42f3910463","system_id":"levelo_inurba_marseille","lat":43.28612,"lon":5.3707,"is_reserved":false,"is_disabled":false,"rental_uris":{"android":"levelo://app?vid=a923f3c7-29d2-46e7-b33a-af42f3910463","ios":"levelo://app?vid=a923f3c7-29d2-46e7-b33a-af42f3910463"},"vehicle_type_id":"4","last_reported":1687892749,"current_range_meters":31200,"station_id":"ce4bht12rcd13ifvqi60","pricing_plan_id":"free"},{"bike_id":"f40a6c82-a37d-4a74-8009-8a15c47a52f0","system_id":"levelo_inurba_marseille","lat":43.286039,"lon":5.370679,"is_reserved":false,"is_disabled":false,"rental_uris":{"android":"levelo://app?vid=f40a6c82-a37d-4a74-8009-8a15c47a52f0","ios":"levelo://app?vid=f40a6c82-a37d-4a74-8009-8a15c47a52f0"},"vehicle_type_id":"4","last_reported":1687892749,"current_range_meters":31200,"station_id":"ce4bht12rcd13ifvqi60","pricing_plan_id":"free"},{"bike_id":"30a8ec29-cd08-4abb-8e39-a8f24ec0c412","system_id":"levelo_inurba_marseille","lat":43.283998,"lon":5.375062,"is_reserved":false,"is_disabled":false,"rental_uris":{"android":"levelo://app?vid=30a8ec29-cd08-4abb-8e39-a8f24ec0c412","ios":"levelo://app?vid=30a8ec29-cd08-4abb-8e39-a8f24ec0c412"},"vehicle_type_id":"4","last_reported":1687892749,"current_range_meters":26000,"station_id":"ce4bh412rcd13ifvqds0","pricing_plan_id":"free"},{"bike_id":"f9367b96-5d9e-4f26-9f47-abf0eab012dd","system_id":"levelo_inurba_marseille","lat":43.286039,"lon":5.370681,"is_reserved":false,"is_disabled":false,"rental_uris":{"android":"levelo://app?vid=f9367b96-5d9e-4f26-9f47-abf0eab012dd","ios":"levelo://app?vid=f9367b96-5d9e-4f26-9f47-abf0eab012dd"},"vehicle_type_id":"4","last_reported":1687892749,"current_range_meters":21200,"station_id":"ce4bht12rcd13ifvqi60","pricing_plan_id":"free"},{"bike_id":"58bf6b23-2505-4b35-bd86-8324a86a09fe","system_id":"levelo_inurba_marseille","lat":43.286039,"lon":5.370681,"is_reserved":false,"is_disabled":false,"rental_uris":{"android":"levelo://app?vid=58bf6b23-2505-4b35-bd86-8324a86a09fe","ios":"levelo://app?vid=58bf6b23-2505-4b35-bd86-8324a86a09fe"},"vehicle_type_id":"4","last_reported":1687892749,"current_range_meters":30000,"station_id":"ce4bht12rcd13ifvqi60","pricing_plan_id":"free"},{"bike_id":"9cd4ce9d-7919-4884-ad35-c9aea2f82c7b","system_id":"levelo_inurba_marseille","lat":43.286039,"lon":5.370681,"is_reserved":false,"is_disabled":false,"rental_uris":{"android":"levelo://app?vid=9cd4ce9d-7919-4884-ad35-c9aea2f82c7b","ios":"levelo://app?vid=9cd4ce9d-7919-4884-ad35-c9aea2f82c7b"},"vehicle_type_id":"4","last_reported":1687892749,"current_range_meters":6000,"station_id":"ce4bht12rcd13ifvqi60","pricing_plan_id":"free"},{"bike_id":"dacf8f79-ea9b-4848-9b2c-8522f3787abb","system_id":"levelo_inurba_marseille","lat":43.287184,"lon":5.37937,"is_reserved":false,"is_disabled":false,"rental_uris":{"android":"levelo://app?vid=dacf8f79-ea9b-4848-9b2c-8522f3787abb","ios":"levelo://app?vid=dacf8f79-ea9b-4848-9b2c-8522f3787abb"},"vehicle_type_id":"4","last_reported":1687892749,"current_range_meters":0,"station_id":"ce4bh9p2rcd13ifvqec0","pricing_plan_id":"free"},{"bike_id":"c43f25f8-8065-47e9-8f14-c1ff5746389b","system_id":"levelo_inurba_marseille","lat":43.316517,"lon":5.404375,"is_reserved":false,"is_disabled":false,"rental_uris":{"android":"levelo://app?vid=c43f25f8-8065-47e9-8f14-c1ff5746389b","ios":"levelo://app?vid=c43f25f8-8065-47e9-8f14-c1ff5746389b"},"vehicle_type_id":"4","last_reported":1687892749,"current_range_meters":30000,"station_id":"ce4bh012rcd13ifvqd00","pricing_plan_id":"free"},{"bike_id":"53eb7dac-732b-4b80-ac6f-b9911f06b0bf","system_id":"levelo_inurba_marseille","lat":43.316517,"lon":5.404375,"is_reserved":false,"is_disabled":false,"rental_uris":{"android":"levelo://app?vid=53eb7dac-732b-4b80-ac6f-b9911f06b0bf","ios":"levelo://app?vid=53eb7dac-732b-4b80-ac6f-b9911f06b0bf"},"vehicle_type_id":"4","last_reported":1687892749,"current_range_meters":4400,"station_id":"ce4bh012rcd13ifvqd00","pricing_plan_id":"free"},{"bike_id":"dfb54c08-ea06-4fa6-b72a-98f8e5ec4489","system_id":"levelo_inurba_marseille","lat":43.316517,"lon":5.404375,"is_reserved":false,"is_disabled":false,"rental_uris":{"android":"levelo://app?vid=dfb54c08-ea06-4fa6-b72a-98f8e5ec4489","ios":"levelo://app?vid=dfb54c08-ea06-4fa6-b72a-98f8e5ec4489"},"vehicle_type_id":"4","last_reported":1687892749,"current_range_meters":6800,"station_id":"ce4bh012rcd13ifvqd00","pricing_plan_id":"free"},{"bike_id":"d69fed3a-efe9-46fb-b1dc-1240b8978d3e","system_id":"levelo_inurba_marseille","lat":43.316517,"lon":5.404375,"is_reserved":false,"is_disabled":false,"rental_uris":{"android":"levelo://app?vid=d69fed3a-efe9-46fb-b1dc-1240b8978d3e","ios":"levelo://app?vid=d69fed3a-efe9-46fb-b1dc-1240b8978d3e"},"vehicle_type_id":"4","last_reported":1687892749,"current_range_meters":29600,"station_id":"ce4bh012rcd13ifvqd00","pricing_plan_id":"free"},{"bike_id":"bc67b87c-37af-4530-8870-a4acdce5f80f","system_id":"levelo_inurba_marseille","lat":43.316517,"lon":5.404375,"is_reserved":false,"is_disabled":false,"rental_uris":{"android":"levelo://app?vid=bc67b87c-37af-4530-8870-a4acdce5f80f","ios":"levelo://app?vid=bc67b87c-37af-4530-8870-a4acdce5f80f"},"vehicle_type_id":"4","last_reported":1687892749,"current_range_meters":4800,"station_id":"ce4bh012rcd13ifvqd00","pricing_plan_id":"free"},{"bike_id":"3cfae3df-da95-4767-96fe-e77b04f20eb3","system_id":"levelo_inurba_marseille","lat":43.291994,"lon":5.392907,"is_reserved":false,"is_disabled":false,"rental_uris":{"android":"levelo://app?vid=3cfae3df-da95-4767-96fe-e77b04f20eb3","ios":"levelo://app?vid=3cfae3df-da95-4767-96fe-e77b04f20eb3"},"vehicle_type_id":"4","last_reported":1687892749,"current_range_meters":5200,"station_id":"ce4bh192rcd13ifvqdd0","pricing_plan_id":"free"},{"bike_id":"fb661348-afa9-4a7f-b7e2-a3e390f09d62","system_id":"levelo_inurba_marseille","lat":43.291994,"lon":5.392907,"is_reserved":false,"is_disabled":false,"rental_uris":{"android":"levelo://app?vid=fb661348-afa9-4a7f-b7e2-a3e390f09d62","ios":"levelo://app?vid=fb661348-afa9-4a7f-b7e2-a3e390f09d62"},"vehicle_type_id":"4","last_reported":1687892749,"current_range_meters":28400,"station_id":"ce4bh192rcd13ifvqdd0","pricing_plan_id":"free"},{"bike_id":"6a6bc049-a2de-4c15-8dda-2396feccaa66","system_id":"levelo_inurba_marseille","lat":43.291994,"lon":5.392907,"is_reserved":false,"is_disabled":false,"rental_uris":{"android":"levelo://app?vid=6a6bc049-a2de-4c15-8dda-2396feccaa66","ios":"levelo://app?vid=6a6bc049-a2de-4c15-8dda-2396feccaa66"},"vehicle_type_id":"4","last_reported":1687892749,"current_range_meters":11600,"station_id":"ce4bh192rcd13ifvqdd0","pricing_plan_id":"free"},{"bike_id":"06002bc7-fef3-4fa0-bbad-29cdec5b214a","system_id":"levelo_inurba_marseille","lat":43.284534,"lon":5.358662,"is_reserved":false,"is_disabled":false,"rental_uris":{"android":"levelo://app?vid=06002bc7-fef3-4fa0-bbad-29cdec5b214a","ios":"levelo://app?vid=06002bc7-fef3-4fa0-bbad-29cdec5b214a"},"vehicle_type_id":"4","last_reported":1687892749,"current_range_meters":15200,"station_id":"ce4bhah2rcd13ifvqei0","pricing_plan_id":"free"},{"bike_id":"361788a2-1ce6-4451-b168-12176e2e8264","system_id":"levelo_inurba_marseille","lat":43.284534,"lon":5.358662,"is_reserved":false,"is_disabled":false,"rental_uris":{"android":"levelo://app?vid=361788a2-1ce6-4451-b168-12176e2e8264","ios":"levelo://app?vid=361788a2-1ce6-4451-b168-12176e2e8264"},"vehicle_type_id":"4","last_reported":1687892749,"current_range_meters":4000,"station_id":"ce4bhah2rcd13ifvqei0","pricing_plan_id":"free"},{"bike_id":"c6a9c3e0-b21f-46f6-9599-d11f8c2286d6","system_id":"levelo_inurba_marseille","lat":43.284534,"lon":5.358662,"is_reserved":false,"is_disabled":false,"rental_uris":{"android":"levelo://app?vid=c6a9c3e0-b21f-46f6-9599-d11f8c2286d6","ios":"levelo://app?vid=c6a9c3e0-b21f-46f6-9599-d11f8c2286d6"},"vehicle_type_id":"4","last_reported":1687892749,"current_range_meters":0,"station_id":"ce4bhah2rcd13ifvqei0","pricing_plan_id":"free"},{"bike_id":"3b8aab40-f428-4dca-9a64-4a18eafc967e","system_id":"levelo_inurba_marseille","lat":43.285856,"lon":5.350771,"is_reserved":false,"is_disabled":false,"rental_uris":{"android":"levelo://app?vid=3b8aab40-f428-4dca-9a64-4a18eafc967e","ios":"levelo://app?vid=3b8aab40-f428-4dca-9a64-4a18eafc967e"},"vehicle_type_id":"4","last_reported":1687892749,"current_range_meters":4800,"station_id":"ce4bhch2rcd13ifvqeug","pricing_plan_id":"free"},{"bike_id":"0fe953e0-f387-4640-889c-68f777635367","system_id":"levelo_inurba_marseille","lat":43.285856,"lon":5.350771,"is_reserved":false,"is_disabled":false,"rental_uris":{"android":"levelo://app?vid=0fe953e0-f387-4640-889c-68f777635367","ios":"levelo://app?vid=0fe953e0-f387-4640-889c-68f777635367"},"vehicle_type_id":"4","last_reported":1687892749,"current_range_meters":19200,"station_id":"ce4bhch2rcd13ifvqeug","pricing_plan_id":"free"},{"bike_id":"c5f71e8b-3b6c-4901-bfcb-1fba3c7be3cc","system_id":"levelo_inurba_marseille","lat":43.28614,"lon":5.35101,"is_reserved":false,"is_disabled":false,"rental_uris":{"android":"levelo://app?vid=c5f71e8b-3b6c-4901-bfcb-1fba3c7be3cc","ios":"levelo://app?vid=c5f71e8b-3b6c-4901-bfcb-1fba3c7be3cc"},"vehicle_type_id":"4","last_reported":1687892749,"current_range_meters":19200,"station_id":"ce4bhch2rcd13ifvqeug","pricing_plan_id":"free"},{"bike_id":"bd82db9e-754e-422a-b897-bbd434a889e2","system_id":"levelo_inurba_marseille","lat":43.28615,"lon":5.35097,"is_reserved":false,"is_disabled":false,"rental_uris":{"android":"levelo://app?vid=bd82db9e-754e-422a-b897-bbd434a889e2","ios":"levelo://app?vid=bd82db9e-754e-422a-b897-bbd434a889e2"},"vehicle_type_id":"4","last_reported":1687892749,"current_range_meters":22800,"station_id":"ce4bhch2rcd13ifvqeug","pricing_plan_id":"free"},{"bike_id":"30f2efd3-4b74-4d0f-9c65-82477d2651a1","system_id":"levelo_inurba_marseille","lat":43.285856,"lon":5.350771,"is_reserved":false,"is_disabled":false,"rental_uris":{"android":"levelo://app?vid=30f2efd3-4b74-4d0f-9c65-82477d2651a1","ios":"levelo://app?vid=30f2efd3-4b74-4d0f-9c65-82477d2651a1"},"vehicle_type_id":"4","last_reported":1687892749,"current_range_meters":25600,"station_id":"ce4bhch2rcd13ifvqeug","pricing_plan_id":"free"},{"bike_id":"66ed03c5-4073-4414-8c61-d949672b0881","system_id":"levelo_inurba_marseille","lat":43.28611,"lon":5.351,"is_reserved":false,"is_disabled":false,"rental_uris":{"android":"levelo://app?vid=66ed03c5-4073-4414-8c61-d949672b0881","ios":"levelo://app?vid=66ed03c5-4073-4414-8c61-d949672b0881"},"vehicle_type_id":"4","last_reported":1687892749,"current_range_meters":29600,"station_id":"ce4bhch2rcd13ifvqeug","pricing_plan_id":"free"},{"bike_id":"6eed802e-0868-4214-a831-82adf080bbf3","system_id":"levelo_inurba_marseille","lat":43.283998,"lon":5.375062,"is_reserved":false,"is_disabled":false,"rental_uris":{"android":"levelo://app?vid=6eed802e-0868-4214-a831-82adf080bbf3","ios":"levelo://app?vid=6eed802e-0868-4214-a831-82adf080bbf3"},"vehicle_type_id":"4","last_reported":1687892749,"current_range_meters":1200,"station_id":"ce4bh412rcd13ifvqds0","pricing_plan_id":"free"},{"bike_id":"bf3f4fe1-3c1c-4a20-8dfd-e47386c28673","system_id":"levelo_inurba_marseille","lat":43.283998,"lon":5.375062,"is_reserved":false,"is_disabled":false,"rental_uris":{"android":"levelo://app?vid=bf3f4fe1-3c1c-4a20-8dfd-e47386c28673","ios":"levelo://app?vid=bf3f4fe1-3c1c-4a20-8dfd-e47386c28673"},"vehicle_type_id":"4","last_reported":1687892749,"current_range_meters":6800,"station_id":"ce4bh412rcd13ifvqds0","pricing_plan_id":"free"},{"bike_id":"ad1a3890-8386-4165-a106-73d75229857e","system_id":"levelo_inurba_marseille","lat":43.295713,"lon":5.399639,"is_reserved":false,"is_disabled":false,"rental_uris":{"android":"levelo://app?vid=ad1a3890-8386-4165-a106-73d75229857e","ios":"levelo://app?vid=ad1a3890-8386-4165-a106-73d75229857e"},"vehicle_type_id":"4","last_reported":1687892749,"current_range_meters":16800,"station_id":"ce4bh312rcd13ifvqdj0","pricing_plan_id":"free"},{"bike_id":"4da4b6ab-4cf2-4bf8-8347-e62111fb2149","system_id":"levelo_inurba_marseille","lat":43.295713,"lon":5.399639,"is_reserved":false,"is_disabled":false,"rental_uris":{"android":"levelo://app?vid=4da4b6ab-4cf2-4bf8-8347-e62111fb2149","ios":"levelo://app?vid=4da4b6ab-4cf2-4bf8-8347-e62111fb2149"},"vehicle_type_id":"4","last_reported":1687892749,"current_range_meters":12000,"station_id":"ce4bh312rcd13ifvqdj0","pricing_plan_id":"free"},{"bike_id":"39d82850-eb1c-4498-8e3a-afbac0d972c2","system_id":"levelo_inurba_marseille","lat":43.295713,"lon":5.399639,"is_reserved":false,"is_disabled":false,"rental_uris":{"android":"levelo://app?vid=39d82850-eb1c-4498-8e3a-afbac0d972c2","ios":"levelo://app?vid=39d82850-eb1c-4498-8e3a-afbac0d972c2"},"vehicle_type_id":"4","last_reported":1687892749,"current_range_meters":9200,"station_id":"ce4bh312rcd13ifvqdj0","pricing_plan_id":"free"},{"bike_id":"851fbfee-3184-4a1c-9917-a0a485d1adb1","system_id":"levelo_inurba_marseille","lat":43.286595,"lon":5.386795,"is_reserved":false,"is_disabled":false,"rental_uris":{"android":"levelo://app?vid=851fbfee-3184-4a1c-9917-a0a485d1adb1","ios":"levelo://app?vid=851fbfee-3184-4a1c-9917-a0a485d1adb1"},"vehicle_type_id":"4","last_reported":1687892749,"current_range_meters":30000,"station_id":"ce4bh492rcd13ifvqdug","pricing_plan_id":"free"},{"bike_id":"77b45645-a888-4bb1-b8ab-eae7bfaa1b40","system_id":"levelo_inurba_marseille","lat":43.286595,"lon":5.386795,"is_reserved":false,"is_disabled":false,"rental_uris":{"android":"levelo://app?vid=77b45645-a888-4bb1-b8ab-eae7bfaa1b40","ios":"levelo://app?vid=77b45645-a888-4bb1-b8ab-eae7bfaa1b40"},"vehicle_type_id":"4","last_reported":1687892749,"current_range_meters":2800,"station_id":"ce4bh492rcd13ifvqdug","pricing_plan_id":"free"},{"bike_id":"4bc5818b-467c-4c38-8708-d3fc6d1009e4","system_id":"levelo_inurba_marseille","lat":43.286595,"lon":5.386795,"is_reserved":false,"is_disabled":false,"rental_uris":{"android":"levelo://app?vid=4bc5818b-467c-4c38-8708-d3fc6d1009e4","ios":"levelo://app?vid=4bc5818b-467c-4c38-8708-d3fc6d1009e4"},"vehicle_type_id":"4","last_reported":1687892749,"current_range_meters":10000,"station_id":"ce4bh492rcd13ifvqdug","pricing_plan_id":"free"},{"bike_id":"6aa7a9fe-4ab3-4eb2-9d7e-019a2b1ef099","system_id":"levelo_inurba_marseille","lat":43.286595,"lon":5.386795,"is_reserved":false,"is_disabled":false,"rental_uris":{"android":"levelo://app?vid=6aa7a9fe-4ab3-4eb2-9d7e-019a2b1ef099","ios":"levelo://app?vid=6aa7a9fe-4ab3-4eb2-9d7e-019a2b1ef099"},"vehicle_type_id":"4","last_reported":1687892749,"current_range_meters":25200,"station_id":"ce4bh492rcd13ifvqdug","pricing_plan_id":"free"},{"bike_id":"cb9e94fe-aab4-47c3-8005-3ee76d43e8fc","system_id":"levelo_inurba_marseille","lat":43.286595,"lon":5.386795,"is_reserved":false,"is_disabled":false,"rental_uris":{"android":"levelo://app?vid=cb9e94fe-aab4-47c3-8005-3ee76d43e8fc","ios":"levelo://app?vid=cb9e94fe-aab4-47c3-8005-3ee76d43e8fc"},"vehicle_type_id":"4","last_reported":1687892749,"current_range_meters":23600,"station_id":"ce4bh492rcd13ifvqdug","pricing_plan_id":"free"},{"bike_id":"999ec108-0b24-4d88-8ba1-6dd941f14708","system_id":"levelo_inurba_marseille","lat":43.286595,"lon":5.386795,"is_reserved":false,"is_disabled":false,"rental_uris":{"android":"levelo://app?vid=999ec108-0b24-4d88-8ba1-6dd941f14708","ios":"levelo://app?vid=999ec108-0b24-4d88-8ba1-6dd941f14708"},"vehicle_type_id":"4","last_reported":1687892749,"current_range_meters":13200,"station_id":"ce4bh492rcd13ifvqdug","pricing_plan_id":"free"},{"bike_id":"0e1add1f-b9a8-4515-80a5-c72333420b7c","system_id":"levelo_inurba_marseille","lat":43.2868,"lon":5.38678,"is_reserved":false,"is_disabled":false,"rental_uris":{"android":"levelo://app?vid=0e1add1f-b9a8-4515-80a5-c72333420b7c","ios":"levelo://app?vid=0e1add1f-b9a8-4515-80a5-c72333420b7c"},"vehicle_type_id":"4","last_reported":1687892749,"current_range_meters":13600,"station_id":"ce4bh492rcd13ifvqdug","pricing_plan_id":"free"},{"bike_id":"4c6f3dbc-d85f-4fdb-a06b-d8c277063b5e","system_id":"levelo_inurba_marseille","lat":43.286595,"lon":5.386795,"is_reserved":false,"is_disabled":false,"rental_uris":{"android":"levelo://app?vid=4c6f3dbc-d85f-4fdb-a06b-d8c277063b5e","ios":"levelo://app?vid=4c6f3dbc-d85f-4fdb-a06b-d8c277063b5e"},"vehicle_type_id":"4","last_reported":1687892749,"current_range_meters":26400,"station_id":"ce4bh492rcd13ifvqdug","pricing_plan_id":"free"},{"bike_id":"782f9cfb-0496-46d6-895f-67b20b441a03","system_id":"levelo_inurba_marseille","lat":43.297815,"lon":5.393548,"is_reserved":false,"is_disabled":false,"rental_uris":{"android":"levelo://app?vid=782f9cfb-0496-46d6-895f-67b20b441a03","ios":"levelo://app?vid=782f9cfb-0496-46d6-895f-67b20b441a03"},"vehicle_type_id":"4","last_reported":1687892749,"current_range_meters":28400,"station_id":"chh1huq6cuj3fo74tm60","pricing_plan_id":"free"},{"bike_id":"a478ce53-e457-401e-94b7-35a6500ccf67","system_id":"levelo_inurba_marseille","lat":43.32342,"lon":5.40616,"is_reserved":false,"is_disabled":false,"rental_uris":{"android":"levelo://app?vid=a478ce53-e457-401e-94b7-35a6500ccf67","ios":"levelo://app?vid=a478ce53-e457-401e-94b7-35a6500ccf67"},"vehicle_type_id":"4","last_reported":1687892749,"current_range_meters":14800,"station_id":"ce4bhq92rcd13ifvqhjg","pricing_plan_id":"free"},{"bike_id":"f2988b82-daec-4b0e-9d7c-376293e5d54f","system_id":"levelo_inurba_marseille","lat":43.33724,"lon":5.39186,"is_reserved":false,"is_disabled":false,"rental_uris":{"android":"levelo://app?vid=f2988b82-daec-4b0e-9d7c-376293e5d54f","ios":"levelo://app?vid=f2988b82-daec-4b0e-9d7c-376293e5d54f"},"vehicle_type_id":"4","last_reported":1687892749,"current_range_meters":21600,"station_id":"","pricing_plan_id":"free"},{"bike_id":"a7e3f9a8-db1e-4faf-978c-a92d5e1744a6","system_id":"levelo_inurba_marseille","lat":43.3234,"lon":5.40623,"is_reserved":false,"is_disabled":false,"rental_uris":{"android":"levelo://app?vid=a7e3f9a8-db1e-4faf-978c-a92d5e1744a6","ios":"levelo://app?vid=a7e3f9a8-db1e-4faf-978c-a92d5e1744a6"},"vehicle_type_id":"4","last_reported":1687892749,"current_range_meters":17600,"station_id":"ce4bhq92rcd13ifvqhjg","pricing_plan_id":"free"},{"bike_id":"5e9e47ee-2038-4c5c-8154-23f085576759","system_id":"levelo_inurba_marseille","lat":43.284787,"lon":5.384116,"is_reserved":false,"is_disabled":false,"rental_uris":{"android":"levelo://app?vid=5e9e47ee-2038-4c5c-8154-23f085576759","ios":"levelo://app?vid=5e9e47ee-2038-4c5c-8154-23f085576759"},"vehicle_type_id":"4","last_reported":1687892749,"current_range_meters":12000,"station_id":"ce4bh512rcd13ifvqe3g","pricing_plan_id":"free"},{"bike_id":"4bfac6b4-5540-480d-b24b-d5fb8501fffb","system_id":"levelo_inurba_marseille","lat":43.28477,"lon":5.38413,"is_reserved":false,"is_disabled":false,"rental_uris":{"android":"levelo://app?vid=4bfac6b4-5540-480d-b24b-d5fb8501fffb","ios":"levelo://app?vid=4bfac6b4-5540-480d-b24b-d5fb8501fffb"},"vehicle_type_id":"4","last_reported":1687892749,"current_range_meters":2800,"station_id":"ce4bh512rcd13ifvqe3g","pricing_plan_id":"free"},{"bike_id":"b4c950db-352f-4a1a-8e3c-c05101a6dad0","system_id":"levelo_inurba_marseille","lat":43.288501,"lon":5.393087,"is_reserved":false,"is_disabled":false,"rental_uris":{"android":"levelo://app?vid=b4c950db-352f-4a1a-8e3c-c05101a6dad0","ios":"levelo://app?vid=b4c950db-352f-4a1a-8e3c-c05101a6dad0"},"vehicle_type_id":"4","last_reported":1687892749,"current_range_meters":31200,"station_id":"ce4bh2p2rcd13ifvqdi0","pricing_plan_id":"free"},{"bike_id":"99060739-039d-4399-9d08-0e47437d0373","system_id":"levelo_inurba_marseille","lat":43.284219,"lon":5.3497,"is_reserved":false,"is_disabled":false,"rental_uris":{"android":"levelo://app?vid=99060739-039d-4399-9d08-0e47437d0373","ios":"levelo://app?vid=99060739-039d-4399-9d08-0e47437d0373"},"vehicle_type_id":"4","last_reported":1687892749,"current_range_meters":31200,"station_id":"ce4bhbh2rcd13ifvqepg","pricing_plan_id":"free"},{"bike_id":"3dc43368-9943-45e2-9102-ed049e414118","system_id":"levelo_inurba_marseille","lat":43.284217,"lon":5.349697,"is_reserved":false,"is_disabled":false,"rental_uris":{"android":"levelo://app?vid=3dc43368-9943-45e2-9102-ed049e414118","ios":"levelo://app?vid=3dc43368-9943-45e2-9102-ed049e414118"},"vehicle_type_id":"4","last_reported":1687892749,"current_range_meters":29200,"station_id":"ce4bhbh2rcd13ifvqepg","pricing_plan_id":"free"},{"bike_id":"159b1662-022b-4774-a42a-5c742893555e","system_id":"levelo_inurba_marseille","lat":43.28421,"lon":5.3498,"is_reserved":false,"is_disabled":false,"rental_uris":{"android":"levelo://app?vid=159b1662-022b-4774-a42a-5c742893555e","ios":"levelo://app?vid=159b1662-022b-4774-a42a-5c742893555e"},"vehicle_type_id":"4","last_reported":1687892749,"current_range_meters":30000,"station_id":"ce4bhbh2rcd13ifvqepg","pricing_plan_id":"free"},{"bike_id":"ada5f0ac-c7e2-467a-a5e3-ec2a1806444a","system_id":"levelo_inurba_marseille","lat":43.28421,"lon":5.3498,"is_reserved":false,"is_disabled":false,"rental_uris":{"android":"levelo://app?vid=ada5f0ac-c7e2-467a-a5e3-ec2a1806444a","ios":"levelo://app?vid=ada5f0ac-c7e2-467a-a5e3-ec2a1806444a"},"vehicle_type_id":"4","last_reported":1687892749,"current_range_meters":25200,"station_id":"ce4bhbh2rcd13ifvqepg","pricing_plan_id":"free"},{"bike_id":"58fd8f4e-eaab-4df4-8d3c-0d39e4e22ef0","system_id":"levelo_inurba_marseille","lat":43.284219,"lon":5.3497,"is_reserved":false,"is_disabled":false,"rental_uris":{"android":"levelo://app?vid=58fd8f4e-eaab-4df4-8d3c-0d39e4e22ef0","ios":"levelo://app?vid=58fd8f4e-eaab-4df4-8d3c-0d39e4e22ef0"},"vehicle_type_id":"4","last_reported":1687892749,"current_range_meters":6400,"station_id":"ce4bhbh2rcd13ifvqepg","pricing_plan_id":"free"},{"bike_id":"c8319718-9889-421c-b6af-2242394ffd35","system_id":"levelo_inurba_marseille","lat":43.28416,"lon":5.34981,"is_reserved":false,"is_disabled":false,"rental_uris":{"android":"levelo://app?vid=c8319718-9889-421c-b6af-2242394ffd35","ios":"levelo://app?vid=c8319718-9889-421c-b6af-2242394ffd35"},"vehicle_type_id":"4","last_reported":1687892749,"current_range_meters":31200,"station_id":"ce4bhbh2rcd13ifvqepg","pricing_plan_id":"free"},{"bike_id":"4622fb8c-1c2d-43ff-aa74-9cc7f55df401","system_id":"levelo_inurba_marseille","lat":43.284217,"lon":5.349697,"is_reserved":false,"is_disabled":false,"rental_uris":{"android":"levelo://app?vid=4622fb8c-1c2d-43ff-aa74-9cc7f55df401","ios":"levelo://app?vid=4622fb8c-1c2d-43ff-aa74-9cc7f55df401"},"vehicle_type_id":"4","last_reported":1687892749,"current_range_meters":11600,"station_id":"ce4bhbh2rcd13ifvqepg","pricing_plan_id":"free"},{"bike_id":"295fb124-0cc1-495f-93c8-142764f3b38e","system_id":"levelo_inurba_marseille","lat":43.284217,"lon":5.349697,"is_reserved":false,"is_disabled":false,"rental_uris":{"android":"levelo://app?vid=295fb124-0cc1-495f-93c8-142764f3b38e","ios":"levelo://app?vid=295fb124-0cc1-495f-93c8-142764f3b38e"},"vehicle_type_id":"4","last_reported":1687892749,"current_range_meters":31200,"station_id":"ce4bhbh2rcd13ifvqepg","pricing_plan_id":"free"},{"bike_id":"04f66c51-9811-4100-9d5c-38affe76250e","system_id":"levelo_inurba_marseille","lat":43.32087,"lon":5.40861,"is_reserved":false,"is_disabled":false,"rental_uris":{"android":"levelo://app?vid=04f66c51-9811-4100-9d5c-38affe76250e","ios":"levelo://app?vid=04f66c51-9811-4100-9d5c-38affe76250e"},"vehicle_type_id":"4","last_reported":1687892749,"current_range_meters":29600,"station_id":"","pricing_plan_id":"free"},{"bike_id":"116453ef-8fce-4b6e-ba3f-9b44c941394d","system_id":"levelo_inurba_marseille","lat":43.283502,"lon":5.386471,"is_reserved":false,"is_disabled":false,"rental_uris":{"android":"levelo://app?vid=116453ef-8fce-4b6e-ba3f-9b44c941394d","ios":"levelo://app?vid=116453ef-8fce-4b6e-ba3f-9b44c941394d"},"vehicle_type_id":"4","last_reported":1687892749,"current_range_meters":23600,"station_id":"ce4bh492rcd13ifvqdvg","pricing_plan_id":"free"},{"bike_id":"f0c7a7fb-4082-4a48-9a5a-426e16637a06","system_id":"levelo_inurba_marseille","lat":43.282754,"lon":5.350519,"is_reserved":false,"is_disabled":false,"rental_uris":{"android":"levelo://app?vid=f0c7a7fb-4082-4a48-9a5a-426e16637a06","ios":"levelo://app?vid=f0c7a7fb-4082-4a48-9a5a-426e16637a06"},"vehicle_type_id":"4","last_reported":1687892749,"current_range_meters":6000,"station_id":"ce4bhbp2rcd13ifvqerg","pricing_plan_id":"free"},{"bike_id":"667101db-2b55-475c-ab0b-fef928ad7748","system_id":"levelo_inurba_marseille","lat":43.28268,"lon":5.35058,"is_reserved":false,"is_disabled":false,"rental_uris":{"android":"levelo://app?vid=667101db-2b55-475c-ab0b-fef928ad7748","ios":"levelo://app?vid=667101db-2b55-475c-ab0b-fef928ad7748"},"vehicle_type_id":"4","last_reported":1687892749,"current_range_meters":27600,"station_id":"ce4bhbp2rcd13ifvqerg","pricing_plan_id":"free"},{"bike_id":"f0d921e4-b327-4dd3-a125-4b165d0d8c67","system_id":"levelo_inurba_marseille","lat":43.283502,"lon":5.386471,"is_reserved":false,"is_disabled":false,"rental_uris":{"android":"levelo://app?vid=f0d921e4-b327-4dd3-a125-4b165d0d8c67","ios":"levelo://app?vid=f0d921e4-b327-4dd3-a125-4b165d0d8c67"},"vehicle_type_id":"4","last_reported":1687892749,"current_range_meters":11600,"station_id":"ce4bh492rcd13ifvqdvg","pricing_plan_id":"free"},{"bike_id":"c554e5a5-3646-4f97-8d1e-1e6b36f32fa4","system_id":"levelo_inurba_marseille","lat":43.28039,"lon":5.369297,"is_reserved":false,"is_disabled":false,"rental_uris":{"android":"levelo://app?vid=c554e5a5-3646-4f97-8d1e-1e6b36f32fa4","ios":"levelo://app?vid=c554e5a5-3646-4f97-8d1e-1e6b36f32fa4"},"vehicle_type_id":"4","last_reported":1687892749,"current_range_meters":19600,"station_id":"ce4bha12rcd13ifvqef0","pricing_plan_id":"free"},{"bike_id":"b6e15975-5cee-4f1a-9bd3-4e2b0c923498","system_id":"levelo_inurba_marseille","lat":43.28039,"lon":5.369297,"is_reserved":false,"is_disabled":false,"rental_uris":{"android":"levelo://app?vid=b6e15975-5cee-4f1a-9bd3-4e2b0c923498","ios":"levelo://app?vid=b6e15975-5cee-4f1a-9bd3-4e2b0c923498"},"vehicle_type_id":"4","last_reported":1687892749,"current_range_meters":5200,"station_id":"ce4bha12rcd13ifvqef0","pricing_plan_id":"free"},{"bike_id":"0fd03652-8b10-439c-9085-f6a9e14e61da","system_id":"levelo_inurba_marseille","lat":43.280382,"lon":5.369291,"is_reserved":false,"is_disabled":false,"rental_uris":{"android":"levelo://app?vid=0fd03652-8b10-439c-9085-f6a9e14e61da","ios":"levelo://app?vid=0fd03652-8b10-439c-9085-f6a9e14e61da"},"vehicle_type_id":"4","last_reported":1687892749,"current_range_meters":2400,"station_id":"ce4bha12rcd13ifvqef0","pricing_plan_id":"free"},{"bike_id":"c3b3d8c1-fc98-4fd0-a573-c51c8ffa3d84","system_id":"levelo_inurba_marseille","lat":43.28039,"lon":5.369297,"is_reserved":false,"is_disabled":false,"rental_uris":{"android":"levelo://app?vid=c3b3d8c1-fc98-4fd0-a573-c51c8ffa3d84","ios":"levelo://app?vid=c3b3d8c1-fc98-4fd0-a573-c51c8ffa3d84"},"vehicle_type_id":"4","last_reported":1687892749,"current_range_meters":31200,"station_id":"ce4bha12rcd13ifvqef0","pricing_plan_id":"free"},{"bike_id":"61681041-071c-4813-bd65-a951bd016d12","system_id":"levelo_inurba_marseille","lat":43.28039,"lon":5.369297,"is_reserved":false,"is_disabled":false,"rental_uris":{"android":"levelo://app?vid=61681041-071c-4813-bd65-a951bd016d12","ios":"levelo://app?vid=61681041-071c-4813-bd65-a951bd016d12"},"vehicle_type_id":"4","last_reported":1687892749,"current_range_meters":31200,"station_id":"ce4bha12rcd13ifvqef0","pricing_plan_id":"free"},{"bike_id":"6ccd33dd-0eac-48c2-a80a-75efd9dfd353","system_id":"levelo_inurba_marseille","lat":43.296263,"lon":5.40601,"is_reserved":false,"is_disabled":false,"rental_uris":{"android":"levelo://app?vid=6ccd33dd-0eac-48c2-a80a-75efd9dfd353","ios":"levelo://app?vid=6ccd33dd-0eac-48c2-a80a-75efd9dfd353"},"vehicle_type_id":"4","last_reported":1687892749,"current_range_meters":25200,"station_id":"ce4bh0h2rcd13ifvqd60","pricing_plan_id":"free"},{"bike_id":"7bab29a4-ab44-4de1-a41d-06c5c75018d9","system_id":"levelo_inurba_marseille","lat":43.296263,"lon":5.40601,"is_reserved":false,"is_disabled":false,"rental_uris":{"android":"levelo://app?vid=7bab29a4-ab44-4de1-a41d-06c5c75018d9","ios":"levelo://app?vid=7bab29a4-ab44-4de1-a41d-06c5c75018d9"},"vehicle_type_id":"4","last_reported":1687892749,"current_range_meters":20400,"station_id":"ce4bh0h2rcd13ifvqd60","pricing_plan_id":"free"},{"bike_id":"099a7f23-f7c0-4bfb-a081-2416adb98cd3","system_id":"levelo_inurba_marseille","lat":43.296263,"lon":5.40601,"is_reserved":false,"is_disabled":false,"rental_uris":{"android":"levelo://app?vid=099a7f23-f7c0-4bfb-a081-2416adb98cd3","ios":"levelo://app?vid=099a7f23-f7c0-4bfb-a081-2416adb98cd3"},"vehicle_type_id":"4","last_reported":1687892749,"current_range_meters":24000,"station_id":"ce4bh0h2rcd13ifvqd60","pricing_plan_id":"free"},{"bike_id":"c8e6ce45-f2b5-4772-a564-3c2039eea91a","system_id":"levelo_inurba_marseille","lat":43.33052,"lon":5.40588,"is_reserved":false,"is_disabled":false,"rental_uris":{"android":"levelo://app?vid=c8e6ce45-f2b5-4772-a564-3c2039eea91a","ios":"levelo://app?vid=c8e6ce45-f2b5-4772-a564-3c2039eea91a"},"vehicle_type_id":"4","last_reported":1687892749,"current_range_meters":2800,"station_id":"","pricing_plan_id":"free"},{"bike_id":"61b79366-981a-417e-aad1-59b9bdb8c9a6","system_id":"levelo_inurba_marseille","lat":43.33053,"lon":5.40591,"is_reserved":false,"is_disabled":false,"rental_uris":{"android":"levelo://app?vid=61b79366-981a-417e-aad1-59b9bdb8c9a6","ios":"levelo://app?vid=61b79366-981a-417e-aad1-59b9bdb8c9a6"},"vehicle_type_id":"4","last_reported":1687892749,"current_range_meters":28800,"station_id":"","pricing_plan_id":"free"},{"bike_id":"57a8a150-a061-4c8b-ae07-ca22dafb499e","system_id":"levelo_inurba_marseille","lat":43.32652,"lon":5.40996,"is_reserved":false,"is_disabled":false,"rental_uris":{"android":"levelo://app?vid=57a8a150-a061-4c8b-ae07-ca22dafb499e","ios":"levelo://app?vid=57a8a150-a061-4c8b-ae07-ca22dafb499e"},"vehicle_type_id":"4","last_reported":1687892749,"current_range_meters":18800,"station_id":"ce4bhpp2rcd13ifvqhgg","pricing_plan_id":"free"},{"bike_id":"0c9eee73-532e-4f1f-8b23-5a0693e22298","system_id":"levelo_inurba_marseille","lat":43.326605,"lon":5.409903,"is_reserved":false,"is_disabled":false,"rental_uris":{"android":"levelo://app?vid=0c9eee73-532e-4f1f-8b23-5a0693e22298","ios":"levelo://app?vid=0c9eee73-532e-4f1f-8b23-5a0693e22298"},"vehicle_type_id":"4","last_reported":1687892749,"current_range_meters":31600,"station_id":"ce4bhpp2rcd13ifvqhgg","pricing_plan_id":"free"},{"bike_id":"45cb780d-3693-4e3a-91ca-54a43699a787","system_id":"levelo_inurba_marseille","lat":43.326605,"lon":5.409903,"is_reserved":false,"is_disabled":false,"rental_uris":{"android":"levelo://app?vid=45cb780d-3693-4e3a-91ca-54a43699a787","ios":"levelo://app?vid=45cb780d-3693-4e3a-91ca-54a43699a787"},"vehicle_type_id":"4","last_reported":1687892749,"current_range_meters":24000,"station_id":"ce4bhpp2rcd13ifvqhgg","pricing_plan_id":"free"},{"bike_id":"104e4be4-777a-4d59-9e16-90f98aef09f7","system_id":"levelo_inurba_marseille","lat":43.32654,"lon":5.41001,"is_reserved":false,"is_disabled":false,"rental_uris":{"android":"levelo://app?vid=104e4be4-777a-4d59-9e16-90f98aef09f7","ios":"levelo://app?vid=104e4be4-777a-4d59-9e16-90f98aef09f7"},"vehicle_type_id":"4","last_reported":1687892749,"current_range_meters":2800,"station_id":"ce4bhpp2rcd13ifvqhgg","pricing_plan_id":"free"},{"bike_id":"93ee1c8d-6652-4cc4-a714-04fe1bcf6311","system_id":"levelo_inurba_marseille","lat":43.304188,"lon":5.412904,"is_reserved":false,"is_disabled":false,"rental_uris":{"android":"levelo://app?vid=93ee1c8d-6652-4cc4-a714-04fe1bcf6311","ios":"levelo://app?vid=93ee1c8d-6652-4cc4-a714-04fe1bcf6311"},"vehicle_type_id":"4","last_reported":1687892749,"current_range_meters":13200,"station_id":"ce4bhop2rcd13ifvqh8g","pricing_plan_id":"free"},{"bike_id":"50fd953c-9754-45f4-aec7-ae52bb9eb6fe","system_id":"levelo_inurba_marseille","lat":43.287154,"lon":5.399979,"is_reserved":false,"is_disabled":false,"rental_uris":{"android":"levelo://app?vid=50fd953c-9754-45f4-aec7-ae52bb9eb6fe","ios":"levelo://app?vid=50fd953c-9754-45f4-aec7-ae52bb9eb6fe"},"vehicle_type_id":"4","last_reported":1687892749,"current_range_meters":31200,"station_id":"ce4bho92rcd13ifvqh3g","pricing_plan_id":"free"},{"bike_id":"d121dca8-2596-4f85-a2a1-3d6410e5eda4","system_id":"levelo_inurba_marseille","lat":43.33118,"lon":5.40817,"is_reserved":false,"is_disabled":false,"rental_uris":{"android":"levelo://app?vid=d121dca8-2596-4f85-a2a1-3d6410e5eda4","ios":"levelo://app?vid=d121dca8-2596-4f85-a2a1-3d6410e5eda4"},"vehicle_type_id":"4","last_reported":1687892749,"current_range_meters":29200,"station_id":"","pricing_plan_id":"free"},{"bike_id":"010303de-9f53-47c9-8014-4eeafc88e3fa","system_id":"levelo_inurba_marseille","lat":43.320045,"lon":5.415048,"is_reserved":false,"is_disabled":false,"rental_uris":{"android":"levelo://app?vid=010303de-9f53-47c9-8014-4eeafc88e3fa","ios":"levelo://app?vid=010303de-9f53-47c9-8014-4eeafc88e3fa"},"vehicle_type_id":"4","last_reported":1687892749,"current_range_meters":27600,"station_id":"ce4bhq92rcd13ifvqhkg","pricing_plan_id":"free"},{"bike_id":"83886870-7fcd-4c06-bef8-6db30239783a","system_id":"levelo_inurba_marseille","lat":43.299579,"lon":5.413255,"is_reserved":false,"is_disabled":false,"rental_uris":{"android":"levelo://app?vid=83886870-7fcd-4c06-bef8-6db30239783a","ios":"levelo://app?vid=83886870-7fcd-4c06-bef8-6db30239783a"},"vehicle_type_id":"4","last_reported":1687892749,"current_range_meters":2000,"station_id":"ce4bhp12rcd13ifvqh9g","pricing_plan_id":"free"},{"bike_id":"5a143fcb-6e09-454d-92be-c793fa635d23","system_id":"levelo_inurba_marseille","lat":43.299579,"lon":5.413255,"is_reserved":false,"is_disabled":false,"rental_uris":{"android":"levelo://app?vid=5a143fcb-6e09-454d-92be-c793fa635d23","ios":"levelo://app?vid=5a143fcb-6e09-454d-92be-c793fa635d23"},"vehicle_type_id":"4","last_reported":1687892749,"current_range_meters":5600,"station_id":"ce4bhp12rcd13ifvqh9g","pricing_plan_id":"free"},{"bike_id":"705ddf8b-7589-4186-a052-fe7f24e9e4dc","system_id":"levelo_inurba_marseille","lat":43.299579,"lon":5.413255,"is_reserved":false,"is_disabled":false,"rental_uris":{"android":"levelo://app?vid=705ddf8b-7589-4186-a052-fe7f24e9e4dc","ios":"levelo://app?vid=705ddf8b-7589-4186-a052-fe7f24e9e4dc"},"vehicle_type_id":"4","last_reported":1687892749,"current_range_meters":30400,"station_id":"ce4bhp12rcd13ifvqh9g","pricing_plan_id":"free"},{"bike_id":"f3c98346-78c8-403d-a382-ba5dab893049","system_id":"levelo_inurba_marseille","lat":43.320045,"lon":5.415046,"is_reserved":false,"is_disabled":false,"rental_uris":{"android":"levelo://app?vid=f3c98346-78c8-403d-a382-ba5dab893049","ios":"levelo://app?vid=f3c98346-78c8-403d-a382-ba5dab893049"},"vehicle_type_id":"4","last_reported":1687892749,"current_range_meters":8000,"station_id":"ce4bhq92rcd13ifvqhkg","pricing_plan_id":"free"},{"bike_id":"50421c55-82d8-475c-919f-5f2ffe8ad5ca","system_id":"levelo_inurba_marseille","lat":43.276179,"lon":5.361009,"is_reserved":false,"is_disabled":false,"rental_uris":{"android":"levelo://app?vid=50421c55-82d8-475c-919f-5f2ffe8ad5ca","ios":"levelo://app?vid=50421c55-82d8-475c-919f-5f2ffe8ad5ca"},"vehicle_type_id":"4","last_reported":1687892749,"current_range_meters":30800,"station_id":"ce4bgj92rcd13ifvqbe0","pricing_plan_id":"free"},{"bike_id":"9acf99e3-5bc2-495a-b05e-8250295b3873","system_id":"levelo_inurba_marseille","lat":43.27618,"lon":5.361009,"is_reserved":false,"is_disabled":false,"rental_uris":{"android":"levelo://app?vid=9acf99e3-5bc2-495a-b05e-8250295b3873","ios":"levelo://app?vid=9acf99e3-5bc2-495a-b05e-8250295b3873"},"vehicle_type_id":"4","last_reported":1687892749,"current_range_meters":28800,"station_id":"ce4bgj92rcd13ifvqbe0","pricing_plan_id":"free"},{"bike_id":"1c193bb7-34e0-4129-b412-cf87bb2e5488","system_id":"levelo_inurba_marseille","lat":43.276179,"lon":5.361009,"is_reserved":false,"is_disabled":false,"rental_uris":{"android":"levelo://app?vid=1c193bb7-34e0-4129-b412-cf87bb2e5488","ios":"levelo://app?vid=1c193bb7-34e0-4129-b412-cf87bb2e5488"},"vehicle_type_id":"4","last_reported":1687892749,"current_range_meters":14800,"station_id":"ce4bgj92rcd13ifvqbe0","pricing_plan_id":"free"},{"bike_id":"69f070d6-739b-44cb-a27f-23f636fdfb93","system_id":"levelo_inurba_marseille","lat":43.27618,"lon":5.361009,"is_reserved":false,"is_disabled":false,"rental_uris":{"android":"levelo://app?vid=69f070d6-739b-44cb-a27f-23f636fdfb93","ios":"levelo://app?vid=69f070d6-739b-44cb-a27f-23f636fdfb93"},"vehicle_type_id":"4","last_reported":1687892749,"current_range_meters":31200,"station_id":"ce4bgj92rcd13ifvqbe0","pricing_plan_id":"free"},{"bike_id":"417de035-203a-4801-bcc0-9026ac366acc","system_id":"levelo_inurba_marseille","lat":43.276179,"lon":5.361009,"is_reserved":false,"is_disabled":false,"rental_uris":{"android":"levelo://app?vid=417de035-203a-4801-bcc0-9026ac366acc","ios":"levelo://app?vid=417de035-203a-4801-bcc0-9026ac366acc"},"vehicle_type_id":"4","last_reported":1687892749,"current_range_meters":31200,"station_id":"ce4bgj92rcd13ifvqbe0","pricing_plan_id":"free"},{"bike_id":"77c05030-ac6b-40af-b95e-4a6296c28206","system_id":"levelo_inurba_marseille","lat":43.27618,"lon":5.361009,"is_reserved":false,"is_disabled":false,"rental_uris":{"android":"levelo://app?vid=77c05030-ac6b-40af-b95e-4a6296c28206","ios":"levelo://app?vid=77c05030-ac6b-40af-b95e-4a6296c28206"},"vehicle_type_id":"4","last_reported":1687892749,"current_range_meters":16400,"station_id":"ce4bgj92rcd13ifvqbe0","pricing_plan_id":"free"},{"bike_id":"373054d5-0592-432b-9c65-59e996838d77","system_id":"levelo_inurba_marseille","lat":43.276179,"lon":5.361009,"is_reserved":false,"is_disabled":false,"rental_uris":{"android":"levelo://app?vid=373054d5-0592-432b-9c65-59e996838d77","ios":"levelo://app?vid=373054d5-0592-432b-9c65-59e996838d77"},"vehicle_type_id":"4","last_reported":1687892749,"current_range_meters":31200,"station_id":"ce4bgj92rcd13ifvqbe0","pricing_plan_id":"free"},{"bike_id":"5c0181c7-3bca-435b-92e2-1f8b83953c32","system_id":"levelo_inurba_marseille","lat":43.27612,"lon":5.36102,"is_reserved":false,"is_disabled":false,"rental_uris":{"android":"levelo://app?vid=5c0181c7-3bca-435b-92e2-1f8b83953c32","ios":"levelo://app?vid=5c0181c7-3bca-435b-92e2-1f8b83953c32"},"vehicle_type_id":"4","last_reported":1687892749,"current_range_meters":17600,"station_id":"ce4bgj92rcd13ifvqbe0","pricing_plan_id":"free"},{"bike_id":"2b4ce10a-1950-48b4-8b66-245825b6d033","system_id":"levelo_inurba_marseille","lat":43.27618,"lon":5.361009,"is_reserved":false,"is_disabled":false,"rental_uris":{"android":"levelo://app?vid=2b4ce10a-1950-48b4-8b66-245825b6d033","ios":"levelo://app?vid=2b4ce10a-1950-48b4-8b66-245825b6d033"},"vehicle_type_id":"4","last_reported":1687892749,"current_range_meters":13200,"station_id":"ce4bgj92rcd13ifvqbe0","pricing_plan_id":"free"},{"bike_id":"6b4fea4e-f238-4b5a-a2d3-c2d6b767f627","system_id":"levelo_inurba_marseille","lat":43.276179,"lon":5.361009,"is_reserved":false,"is_disabled":false,"rental_uris":{"android":"levelo://app?vid=6b4fea4e-f238-4b5a-a2d3-c2d6b767f627","ios":"levelo://app?vid=6b4fea4e-f238-4b5a-a2d3-c2d6b767f627"},"vehicle_type_id":"4","last_reported":1687892749,"current_range_meters":31200,"station_id":"ce4bgj92rcd13ifvqbe0","pricing_plan_id":"free"},{"bike_id":"c2be732f-801b-42ee-a0eb-874619384cd0","system_id":"levelo_inurba_marseille","lat":43.27618,"lon":5.361009,"is_reserved":false,"is_disabled":false,"rental_uris":{"android":"levelo://app?vid=c2be732f-801b-42ee-a0eb-874619384cd0","ios":"levelo://app?vid=c2be732f-801b-42ee-a0eb-874619384cd0"},"vehicle_type_id":"4","last_reported":1687892749,"current_range_meters":19600,"station_id":"ce4bgj92rcd13ifvqbe0","pricing_plan_id":"free"},{"bike_id":"4ff42834-1e50-4e9b-8be9-866b7ce28fd7","system_id":"levelo_inurba_marseille","lat":43.280784,"lon":5.396622,"is_reserved":false,"is_disabled":false,"rental_uris":{"android":"levelo://app?vid=4ff42834-1e50-4e9b-8be9-866b7ce28fd7","ios":"levelo://app?vid=4ff42834-1e50-4e9b-8be9-866b7ce28fd7"},"vehicle_type_id":"4","last_reported":1687892749,"current_range_meters":10400,"station_id":"ce4bho12rcd13ifvqh2g","pricing_plan_id":"free"},{"bike_id":"1a47334b-3e1d-4383-b162-c9ee169a17dc","system_id":"levelo_inurba_marseille","lat":43.280784,"lon":5.396622,"is_reserved":false,"is_disabled":false,"rental_uris":{"android":"levelo://app?vid=1a47334b-3e1d-4383-b162-c9ee169a17dc","ios":"levelo://app?vid=1a47334b-3e1d-4383-b162-c9ee169a17dc"},"vehicle_type_id":"4","last_reported":1687892749,"current_range_meters":13200,"station_id":"ce4bho12rcd13ifvqh2g","pricing_plan_id":"free"},{"bike_id":"7b3ef602-ef3e-4c91-b7a4-1e4766148121","system_id":"levelo_inurba_marseille","lat":43.273834,"lon":5.362564,"is_reserved":false,"is_disabled":false,"rental_uris":{"android":"levelo://app?vid=7b3ef602-ef3e-4c91-b7a4-1e4766148121","ios":"levelo://app?vid=7b3ef602-ef3e-4c91-b7a4-1e4766148121"},"vehicle_type_id":"4","last_reported":1687892749,"current_range_meters":31200,"station_id":"","pricing_plan_id":"free"},{"bike_id":"96a054ff-8d53-43b6-8663-9ae038535cba","system_id":"levelo_inurba_marseille","lat":43.2738,"lon":5.36251,"is_reserved":false,"is_disabled":false,"rental_uris":{"android":"levelo://app?vid=96a054ff-8d53-43b6-8663-9ae038535cba","ios":"levelo://app?vid=96a054ff-8d53-43b6-8663-9ae038535cba"},"vehicle_type_id":"4","last_reported":1687892749,"current_range_meters":5200,"station_id":"ce4bhbh2rcd13ifvqeo0","pricing_plan_id":"free"},{"bike_id":"927ae7f8-1bb5-4cb7-8663-ab098510bd2a","system_id":"levelo_inurba_marseille","lat":43.2738,"lon":5.36248,"is_reserved":false,"is_disabled":false,"rental_uris":{"android":"levelo://app?vid=927ae7f8-1bb5-4cb7-8663-ab098510bd2a","ios":"levelo://app?vid=927ae7f8-1bb5-4cb7-8663-ab098510bd2a"},"vehicle_type_id":"4","last_reported":1687892749,"current_range_meters":17200,"station_id":"","pricing_plan_id":"free"},{"bike_id":"b6f7bc7e-7c7a-4641-bce9-d67218da134a","system_id":"levelo_inurba_marseille","lat":43.273613,"lon":5.362705,"is_reserved":false,"is_disabled":false,"rental_uris":{"android":"levelo://app?vid=b6f7bc7e-7c7a-4641-bce9-d67218da134a","ios":"levelo://app?vid=b6f7bc7e-7c7a-4641-bce9-d67218da134a"},"vehicle_type_id":"4","last_reported":1687892749,"current_range_meters":21600,"station_id":"ce4bhbh2rcd13ifvqeo0","pricing_plan_id":"free"},{"bike_id":"e8c0c626-bb17-456b-aee4-d64889d25884","system_id":"levelo_inurba_marseille","lat":43.27378,"lon":5.36256,"is_reserved":false,"is_disabled":false,"rental_uris":{"android":"levelo://app?vid=e8c0c626-bb17-456b-aee4-d64889d25884","ios":"levelo://app?vid=e8c0c626-bb17-456b-aee4-d64889d25884"},"vehicle_type_id":"4","last_reported":1687892749,"current_range_meters":15200,"station_id":"ce4bhbh2rcd13ifvqeo0","pricing_plan_id":"free"},{"bike_id":"e9f27dd2-0b2d-46ab-952b-ea4af94ead5e","system_id":"levelo_inurba_marseille","lat":43.27378,"lon":5.36251,"is_reserved":false,"is_disabled":false,"rental_uris":{"android":"levelo://app?vid=e9f27dd2-0b2d-46ab-952b-ea4af94ead5e","ios":"levelo://app?vid=e9f27dd2-0b2d-46ab-952b-ea4af94ead5e"},"vehicle_type_id":"4","last_reported":1687892749,"current_range_meters":29600,"station_id":"ce4bhbh2rcd13ifvqeo0","pricing_plan_id":"free"},{"bike_id":"f28f07ec-d1aa-43ef-b4e1-558a456c6422","system_id":"levelo_inurba_marseille","lat":43.273613,"lon":5.362705,"is_reserved":false,"is_disabled":false,"rental_uris":{"android":"levelo://app?vid=f28f07ec-d1aa-43ef-b4e1-558a456c6422","ios":"levelo://app?vid=f28f07ec-d1aa-43ef-b4e1-558a456c6422"},"vehicle_type_id":"4","last_reported":1687892749,"current_range_meters":31200,"station_id":"ce4bhbh2rcd13ifvqeo0","pricing_plan_id":"free"},{"bike_id":"a648aabc-6ae8-4fab-a4a4-609e880b13fe","system_id":"levelo_inurba_marseille","lat":43.27377,"lon":5.36248,"is_reserved":false,"is_disabled":false,"rental_uris":{"android":"levelo://app?vid=a648aabc-6ae8-4fab-a4a4-609e880b13fe","ios":"levelo://app?vid=a648aabc-6ae8-4fab-a4a4-609e880b13fe"},"vehicle_type_id":"4","last_reported":1687892749,"current_range_meters":11200,"station_id":"ce4bhbh2rcd13ifvqeo0","pricing_plan_id":"free"},{"bike_id":"c498b8a6-ceff-4d06-a30d-9b1d8465dc91","system_id":"levelo_inurba_marseille","lat":43.273613,"lon":5.362705,"is_reserved":false,"is_disabled":false,"rental_uris":{"android":"levelo://app?vid=c498b8a6-ceff-4d06-a30d-9b1d8465dc91","ios":"levelo://app?vid=c498b8a6-ceff-4d06-a30d-9b1d8465dc91"},