{"last_updated":1784159355,"ttl":60,"version":"2.2","data":{"bikes":[{"bike_id":"ba0c28b1-8732-48e2-8079-f25b2b3fbc3c","system_id":"levelo_inurba_marseille","lat":43.337444,"lon":5.374475,"is_reserved":false,"is_disabled":false,"rental_uris":{"android":"levelo://app?vid=ba0c28b1-8732-48e2-8079-f25b2b3fbc3c","ios":"levelo://app?vid=ba0c28b1-8732-48e2-8079-f25b2b3fbc3c"},"vehicle_type_id":"4","last_reported":1784159356,"current_range_meters":0,"station_id":"","pricing_plan_id":"cebpf4jnsgd1na2vs0mg"},{"bike_id":"4ea0fb8a-0f2d-4a48-a4b0-ecd5856ab21e","system_id":"levelo_inurba_marseille","lat":43.2894,"lon":5.38405,"is_reserved":false,"is_disabled":true,"rental_uris":{"android":"levelo://app?vid=4ea0fb8a-0f2d-4a48-a4b0-ecd5856ab21e","ios":"levelo://app?vid=4ea0fb8a-0f2d-4a48-a4b0-ecd5856ab21e"},"vehicle_type_id":"4","last_reported":1784159356,"current_range_meters":12800,"station_id":"ce4bh612rcd13ifvqe6g","pricing_plan_id":"cebpf4jnsgd1na2vs0mg"},{"bike_id":"a483b020-2083-45ea-9e42-b4078ccd4657","system_id":"levelo_inurba_marseille","lat":43.30926,"lon":5.40165,"is_reserved":false,"is_disabled":false,"rental_uris":{"android":"levelo://app?vid=a483b020-2083-45ea-9e42-b4078ccd4657","ios":"levelo://app?vid=a483b020-2083-45ea-9e42-b4078ccd4657"},"vehicle_type_id":"4","last_reported":1784159356,"current_range_meters":40000,"station_id":"ce4bgvp2rcd13ifvqct0","pricing_plan_id":"cebpf4jnsgd1na2vs0mg"},{"bike_id":"7ccb10b2-b34b-4f63-9d90-71f4c8373c54","system_id":"levelo_inurba_marseille","lat":43.2637,"lon":5.41057,"is_reserved":false,"is_disabled":false,"rental_uris":{"android":"levelo://app?vid=7ccb10b2-b34b-4f63-9d90-71f4c8373c54","ios":"levelo://app?vid=7ccb10b2-b34b-4f63-9d90-71f4c8373c54"},"vehicle_type_id":"4","last_reported":1784159356,"current_range_meters":3200,"station_id":"st_d4e5ca6na9uc73bfl5fg","pricing_plan_id":"cebpf4jnsgd1na2vs0mg"},{"bike_id":"9649e985-acec-4014-9d3d-53ae4dfd2c12","system_id":"levelo_inurba_marseille","lat":43.30517,"lon":5.40088,"is_reserved":false,"is_disabled":false,"rental_uris":{"android":"levelo://app?vid=9649e985-acec-4014-9d3d-53ae4dfd2c12","ios":"levelo://app?vid=9649e985-acec-4014-9d3d-53ae4dfd2c12"},"vehicle_type_id":"4","last_reported":1784159356,"current_range_meters":17200,"station_id":"","pricing_plan_id":"cebpf4jnsgd1na2vs0mg"},{"bike_id":"76b63993-96f7-484a-8343-5ea3ca2d69bf","system_id":"levelo_inurba_marseille","lat":43.27459,"lon":5.36144,"is_reserved":false,"is_disabled":false,"rental_uris":{"android":"levelo://app?vid=76b63993-96f7-484a-8343-5ea3ca2d69bf","ios":"levelo://app?vid=76b63993-96f7-484a-8343-5ea3ca2d69bf"},"vehicle_type_id":"4","last_reported":1784159356,"current_range_meters":32800,"station_id":"","pricing_plan_id":"cebpf4jnsgd1na2vs0mg"},{"bike_id":"040c043d-81a3-47a0-8c07-f9a7a526f418","system_id":"levelo_inurba_marseille","lat":43.28223,"lon":5.39046,"is_reserved":false,"is_disabled":false,"rental_uris":{"android":"levelo://app?vid=040c043d-81a3-47a0-8c07-f9a7a526f418","ios":"levelo://app?vid=040c043d-81a3-47a0-8c07-f9a7a526f418"},"vehicle_type_id":"4","last_reported":1784159356,"current_range_meters":38000,"station_id":"ce4bhn92rcd13ifvqgsg","pricing_plan_id":"cebpf4jnsgd1na2vs0mg"},{"bike_id":"0355467a-4bf1-47dd-84f8-f9fae99cadaa","system_id":"levelo_inurba_marseille","lat":43.24056,"lon":5.37725,"is_reserved":false,"is_disabled":false,"rental_uris":{"android":"levelo://app?vid=0355467a-4bf1-47dd-84f8-f9fae99cadaa","ios":"levelo://app?vid=0355467a-4bf1-47dd-84f8-f9fae99cadaa"},"vehicle_type_id":"4","last_reported":1784159356,"current_range_meters":39200,"station_id":"ce4bhnp2rcd13ifvqgvg","pricing_plan_id":"cebpf4jnsgd1na2vs0mg"},{"bike_id":"25dc49a4-4458-4dad-a9f2-23c7d1639b63","system_id":"levelo_inurba_marseille","lat":43.27873,"lon":5.37989,"is_reserved":false,"is_disabled":false,"rental_uris":{"android":"levelo://app?vid=25dc49a4-4458-4dad-a9f2-23c7d1639b63","ios":"levelo://app?vid=25dc49a4-4458-4dad-a9f2-23c7d1639b63"},"vehicle_type_id":"4","last_reported":1784159356,"current_range_meters":38400,"station_id":"ce4bhf92rcd13ifvqf50","pricing_plan_id":"cebpf4jnsgd1na2vs0mg"},{"bike_id":"cbbc587f-8b01-49c5-bb35-f91fcd0b30f8","system_id":"levelo_inurba_marseille","lat":43.29438,"lon":5.40282,"is_reserved":false,"is_disabled":false,"rental_uris":{"android":"levelo://app?vid=cbbc587f-8b01-49c5-bb35-f91fcd0b30f8","ios":"levelo://app?vid=cbbc587f-8b01-49c5-bb35-f91fcd0b30f8"},"vehicle_type_id":"4","last_reported":1784159356,"current_range_meters":8400,"station_id":"","pricing_plan_id":"cebpf4jnsgd1na2vs0mg"},{"bike_id":"e7b772bc-bb42-4677-a86b-8af91aee4efe","system_id":"levelo_inurba_marseille","lat":43.29299,"lon":5.37452,"is_reserved":false,"is_disabled":true,"rental_uris":{"android":"levelo://app?vid=e7b772bc-bb42-4677-a86b-8af91aee4efe","ios":"levelo://app?vid=e7b772bc-bb42-4677-a86b-8af91aee4efe"},"vehicle_type_id":"4","last_reported":1784159356,"current_range_meters":14800,"station_id":"ce4bgi12rcd13ifvqb70","pricing_plan_id":"cebpf4jnsgd1na2vs0mg"},{"bike_id":"93f62aaf-97ab-422a-99e3-4c99e240ad11","system_id":"levelo_inurba_marseille","lat":43.26547,"lon":5.39044,"is_reserved":false,"is_disabled":true,"rental_uris":{"android":"levelo://app?vid=93f62aaf-97ab-422a-99e3-4c99e240ad11","ios":"levelo://app?vid=93f62aaf-97ab-422a-99e3-4c99e240ad11"},"vehicle_type_id":"4","last_reported":1784159356,"current_range_meters":0,"station_id":"ce4bhe12rcd13ifvqf30","pricing_plan_id":"cebpf4jnsgd1na2vs0mg"},{"bike_id":"0391366a-8eee-49f3-9d55-05d01b9cf39a","system_id":"levelo_inurba_marseille","lat":43.2884,"lon":5.3581,"is_reserved":false,"is_disabled":false,"rental_uris":{"android":"levelo://app?vid=0391366a-8eee-49f3-9d55-05d01b9cf39a","ios":"levelo://app?vid=0391366a-8eee-49f3-9d55-05d01b9cf39a"},"vehicle_type_id":"4","last_reported":1784159356,"current_range_meters":27200,"station_id":"ce4bhb12rcd13ifvqem0","pricing_plan_id":"cebpf4jnsgd1na2vs0mg"},{"bike_id":"0cffc29b-aebe-4e7b-8ebd-8776eed73925","system_id":"levelo_inurba_marseille","lat":43.26552,"lon":5.39053,"is_reserved":false,"is_disabled":false,"rental_uris":{"android":"levelo://app?vid=0cffc29b-aebe-4e7b-8ebd-8776eed73925","ios":"levelo://app?vid=0cffc29b-aebe-4e7b-8ebd-8776eed73925"},"vehicle_type_id":"4","last_reported":1784159356,"current_range_meters":38000,"station_id":"ce4bhe12rcd13ifvqf30","pricing_plan_id":"cebpf4jnsgd1na2vs0mg"},{"bike_id":"d25cc7c1-b35c-40e8-95e1-17ff370eade9","system_id":"levelo_inurba_marseille","lat":43.24692,"lon":5.37855,"is_reserved":false,"is_disabled":false,"rental_uris":{"android":"levelo://app?vid=d25cc7c1-b35c-40e8-95e1-17ff370eade9","ios":"levelo://app?vid=d25cc7c1-b35c-40e8-95e1-17ff370eade9"},"vehicle_type_id":"4","last_reported":1784159356,"current_range_meters":20800,"station_id":"","pricing_plan_id":"cebpf4jnsgd1na2vs0mg"},{"bike_id":"47245602-8705-403c-891f-58887e69faee","system_id":"levelo_inurba_marseille","lat":43.29615,"lon":5.37722,"is_reserved":false,"is_disabled":false,"rental_uris":{"android":"levelo://app?vid=47245602-8705-403c-891f-58887e69faee","ios":"levelo://app?vid=47245602-8705-403c-891f-58887e69faee"},"vehicle_type_id":"4","last_reported":1784159356,"current_range_meters":39200,"station_id":"ce4bgi92rcd13ifvqb90","pricing_plan_id":"cebpf4jnsgd1na2vs0mg"},{"bike_id":"e71494cd-d4a8-436a-a5c6-260a2924500e","system_id":"levelo_inurba_marseille","lat":43.26224,"lon":5.38775,"is_reserved":false,"is_disabled":true,"rental_uris":{"android":"levelo://app?vid=e71494cd-d4a8-436a-a5c6-260a2924500e","ios":"levelo://app?vid=e71494cd-d4a8-436a-a5c6-260a2924500e"},"vehicle_type_id":"4","last_reported":1784159356,"current_range_meters":37600,"station_id":"st_d8gjfg747rts73coq3b0","pricing_plan_id":"cebpf4jnsgd1na2vs0mg"},{"bike_id":"4dd83e35-73dd-44b8-9d3c-9c21e3418d4e","system_id":"levelo_inurba_marseille","lat":43.27479,"lon":5.42556,"is_reserved":false,"is_disabled":false,"rental_uris":{"android":"levelo://app?vid=4dd83e35-73dd-44b8-9d3c-9c21e3418d4e","ios":"levelo://app?vid=4dd83e35-73dd-44b8-9d3c-9c21e3418d4e"},"vehicle_type_id":"4","last_reported":1784159356,"current_range_meters":18800,"station_id":"st_d8t4bh7nbrqs73arha60","pricing_plan_id":"cebpf4jnsgd1na2vs0mg"},{"bike_id":"d6057eb2-9bb7-4bbb-9d1a-c165943bae0a","system_id":"levelo_inurba_marseille","lat":43.2396,"lon":5.36641,"is_reserved":false,"is_disabled":false,"rental_uris":{"android":"levelo://app?vid=d6057eb2-9bb7-4bbb-9d1a-c165943bae0a","ios":"levelo://app?vid=d6057eb2-9bb7-4bbb-9d1a-c165943bae0a"},"vehicle_type_id":"4","last_reported":1784159356,"current_range_meters":20000,"station_id":"ce4bhi12rcd13ifvqfp0","pricing_plan_id":"cebpf4jnsgd1na2vs0mg"},{"bike_id":"91d7c619-55b0-4f7e-8799-ac824d122b85","system_id":"levelo_inurba_marseille","lat":43.28458,"lon":5.35881,"is_reserved":false,"is_disabled":false,"rental_uris":{"android":"levelo://app?vid=91d7c619-55b0-4f7e-8799-ac824d122b85","ios":"levelo://app?vid=91d7c619-55b0-4f7e-8799-ac824d122b85"},"vehicle_type_id":"4","last_reported":1784159356,"current_range_meters":16400,"station_id":"ce4bhah2rcd13ifvqei0","pricing_plan_id":"cebpf4jnsgd1na2vs0mg"},{"bike_id":"8398bafc-26c1-4b7f-b9f3-538c26945961","system_id":"levelo_inurba_marseille","lat":43.27337,"lon":5.39122,"is_reserved":false,"is_disabled":false,"rental_uris":{"android":"levelo://app?vid=8398bafc-26c1-4b7f-b9f3-538c26945961","ios":"levelo://app?vid=8398bafc-26c1-4b7f-b9f3-538c26945961"},"vehicle_type_id":"4","last_reported":1784159356,"current_range_meters":10800,"station_id":"ce4bhgp2rcd13ifvqfe0","pricing_plan_id":"cebpf4jnsgd1na2vs0mg"},{"bike_id":"daf11da9-09e4-45d4-814b-e16971bc59a4","system_id":"levelo_inurba_marseille","lat":43.27961,"lon":5.38691,"is_reserved":false,"is_disabled":true,"rental_uris":{"android":"levelo://app?vid=daf11da9-09e4-45d4-814b-e16971bc59a4","ios":"levelo://app?vid=daf11da9-09e4-45d4-814b-e16971bc59a4"},"vehicle_type_id":"4","last_reported":1784159356,"current_range_meters":29600,"station_id":"ce4bhg12rcd13ifvqf80","pricing_plan_id":"cebpf4jnsgd1na2vs0mg"},{"bike_id":"a4d79a17-63b8-4c7f-b179-79ed9edf9240","system_id":"levelo_inurba_marseille","lat":43.33533,"lon":5.3747,"is_reserved":false,"is_disabled":true,"rental_uris":{"android":"levelo://app?vid=a4d79a17-63b8-4c7f-b179-79ed9edf9240","ios":"levelo://app?vid=a4d79a17-63b8-4c7f-b179-79ed9edf9240"},"vehicle_type_id":"4","last_reported":1784159356,"current_range_meters":38000,"station_id":"st_d46tts09ee8s73dlu43g","pricing_plan_id":"cebpf4jnsgd1na2vs0mg"},{"bike_id":"abc5b77a-4544-4bfe-851e-465e1981cb2e","system_id":"levelo_inurba_marseille","lat":43.30644,"lon":5.40082,"is_reserved":false,"is_disabled":false,"rental_uris":{"android":"levelo://app?vid=abc5b77a-4544-4bfe-851e-465e1981cb2e","ios":"levelo://app?vid=abc5b77a-4544-4bfe-851e-465e1981cb2e"},"vehicle_type_id":"4","last_reported":1784159356,"current_range_meters":12000,"station_id":"ce4bh112rcd13ifvqda0","pricing_plan_id":"cebpf4jnsgd1na2vs0mg"},{"bike_id":"a67c06bc-a947-4bf2-a376-d76f28182aad","system_id":"levelo_inurba_marseille","lat":43.29951,"lon":5.37183,"is_reserved":false,"is_disabled":false,"rental_uris":{"android":"levelo://app?vid=a67c06bc-a947-4bf2-a376-d76f28182aad","ios":"levelo://app?vid=a67c06bc-a947-4bf2-a376-d76f28182aad"},"vehicle_type_id":"4","last_reported":1784159356,"current_range_meters":39200,"station_id":"ce4bgr92rcd13ifvqc7g","pricing_plan_id":"cebpf4jnsgd1na2vs0mg"},{"bike_id":"3e7ccdc7-2e55-4a4e-a827-df0ec4837e45","system_id":"levelo_inurba_marseille","lat":43.31487,"lon":5.37299,"is_reserved":false,"is_disabled":false,"rental_uris":{"android":"levelo://app?vid=3e7ccdc7-2e55-4a4e-a827-df0ec4837e45","ios":"levelo://app?vid=3e7ccdc7-2e55-4a4e-a827-df0ec4837e45"},"vehicle_type_id":"4","last_reported":1784159356,"current_range_meters":39200,"station_id":"ce4bgt12rcd13ifvqcd0","pricing_plan_id":"cebpf4jnsgd1na2vs0mg"},{"bike_id":"92451269-f8d4-4349-bee7-395bf79e1e9a","system_id":"levelo_inurba_marseille","lat":43.29668,"lon":5.37945,"is_reserved":false,"is_disabled":false,"rental_uris":{"android":"levelo://app?vid=92451269-f8d4-4349-bee7-395bf79e1e9a","ios":"levelo://app?vid=92451269-f8d4-4349-bee7-395bf79e1e9a"},"vehicle_type_id":"4","last_reported":1784159356,"current_range_meters":22400,"station_id":"","pricing_plan_id":"cebpf4jnsgd1na2vs0mg"},{"bike_id":"b7b159b6-ba7d-4cd5-9705-b4bb03362319","system_id":"levelo_inurba_marseille","lat":43.28596,"lon":5.38443,"is_reserved":false,"is_disabled":false,"rental_uris":{"android":"levelo://app?vid=b7b159b6-ba7d-4cd5-9705-b4bb03362319","ios":"levelo://app?vid=b7b159b6-ba7d-4cd5-9705-b4bb03362319"},"vehicle_type_id":"4","last_reported":1784159356,"current_range_meters":16800,"station_id":"","pricing_plan_id":"cebpf4jnsgd1na2vs0mg"},{"bike_id":"6ecdbc70-037f-43de-a75c-7affd449619c","system_id":"levelo_inurba_marseille","lat":43.2549,"lon":5.3764,"is_reserved":false,"is_disabled":false,"rental_uris":{"android":"levelo://app?vid=6ecdbc70-037f-43de-a75c-7affd449619c","ios":"levelo://app?vid=6ecdbc70-037f-43de-a75c-7affd449619c"},"vehicle_type_id":"4","last_reported":1784159356,"current_range_meters":39200,"station_id":"ce4bhh12rcd13ifvqff0","pricing_plan_id":"cebpf4jnsgd1na2vs0mg"},{"bike_id":"98db3e82-a304-4f11-8846-c7b28c1ff21e","system_id":"levelo_inurba_marseille","lat":43.31368,"lon":5.38507,"is_reserved":false,"is_disabled":false,"rental_uris":{"android":"levelo://app?vid=98db3e82-a304-4f11-8846-c7b28c1ff21e","ios":"levelo://app?vid=98db3e82-a304-4f11-8846-c7b28c1ff21e"},"vehicle_type_id":"4","last_reported":1784159356,"current_range_meters":28400,"station_id":"ce4bgt92rcd13ifvqcf0","pricing_plan_id":"cebpf4jnsgd1na2vs0mg"},{"bike_id":"549d0cc4-8cf4-44cf-b2d1-2c4d5c2f5368","system_id":"levelo_inurba_marseille","lat":43.28079,"lon":5.37887,"is_reserved":false,"is_disabled":false,"rental_uris":{"android":"levelo://app?vid=549d0cc4-8cf4-44cf-b2d1-2c4d5c2f5368","ios":"levelo://app?vid=549d0cc4-8cf4-44cf-b2d1-2c4d5c2f5368"},"vehicle_type_id":"4","last_reported":1784159356,"current_range_meters":39200,"station_id":"ce4bha12rcd13ifvqee0","pricing_plan_id":"cebpf4jnsgd1na2vs0mg"},{"bike_id":"23b64dc5-719f-497f-90b2-e50c51f694a3","system_id":"levelo_inurba_marseille","lat":43.28479,"lon":5.38563,"is_reserved":false,"is_disabled":false,"rental_uris":{"android":"levelo://app?vid=23b64dc5-719f-497f-90b2-e50c51f694a3","ios":"levelo://app?vid=23b64dc5-719f-497f-90b2-e50c51f694a3"},"vehicle_type_id":"4","last_reported":1784159356,"current_range_meters":28800,"station_id":"ce4bh8p2rcd13ifvqeb0","pricing_plan_id":"cebpf4jnsgd1na2vs0mg"},{"bike_id":"00a6d79d-9890-4f25-bbf5-bcd1f7046887","system_id":"levelo_inurba_marseille","lat":43.33755,"lon":5.37453,"is_reserved":false,"is_disabled":false,"rental_uris":{"android":"levelo://app?vid=00a6d79d-9890-4f25-bbf5-bcd1f7046887","ios":"levelo://app?vid=00a6d79d-9890-4f25-bbf5-bcd1f7046887"},"vehicle_type_id":"4","last_reported":1784159356,"current_range_meters":24800,"station_id":"","pricing_plan_id":"cebpf4jnsgd1na2vs0mg"},{"bike_id":"ef6880d0-6944-4f6a-8f40-6662368b8f75","system_id":"levelo_inurba_marseille","lat":43.31459,"lon":5.45407,"is_reserved":false,"is_disabled":false,"rental_uris":{"android":"levelo://app?vid=ef6880d0-6944-4f6a-8f40-6662368b8f75","ios":"levelo://app?vid=ef6880d0-6944-4f6a-8f40-6662368b8f75"},"vehicle_type_id":"4","last_reported":1784159356,"current_range_meters":19600,"station_id":"","pricing_plan_id":"cebpf4jnsgd1na2vs0mg"},{"bike_id":"342762a1-2ff3-49fe-9f64-f945845f11c8","system_id":"levelo_inurba_marseille","lat":43.28455,"lon":5.35899,"is_reserved":false,"is_disabled":false,"rental_uris":{"android":"levelo://app?vid=342762a1-2ff3-49fe-9f64-f945845f11c8","ios":"levelo://app?vid=342762a1-2ff3-49fe-9f64-f945845f11c8"},"vehicle_type_id":"4","last_reported":1784159356,"current_range_meters":38800,"station_id":"ce4bhah2rcd13ifvqei0","pricing_plan_id":"cebpf4jnsgd1na2vs0mg"},{"bike_id":"a2213ae8-2e6d-461a-8999-1b795907cda2","system_id":"levelo_inurba_marseille","lat":43.28607,"lon":5.399,"is_reserved":false,"is_disabled":false,"rental_uris":{"android":"levelo://app?vid=a2213ae8-2e6d-461a-8999-1b795907cda2","ios":"levelo://app?vid=a2213ae8-2e6d-461a-8999-1b795907cda2"},"vehicle_type_id":"4","last_reported":1784159356,"current_range_meters":30400,"station_id":"st_d4a7ka997mjs738ck50g","pricing_plan_id":"cebpf4jnsgd1na2vs0mg"},{"bike_id":"bf7f46ab-16c0-45b1-9e14-09575cfc67ff","system_id":"levelo_inurba_marseille","lat":43.28692,"lon":5.38675,"is_reserved":false,"is_disabled":false,"rental_uris":{"android":"levelo://app?vid=bf7f46ab-16c0-45b1-9e14-09575cfc67ff","ios":"levelo://app?vid=bf7f46ab-16c0-45b1-9e14-09575cfc67ff"},"vehicle_type_id":"4","last_reported":1784159356,"current_range_meters":38000,"station_id":"ce4bh492rcd13ifvqdug","pricing_plan_id":"cebpf4jnsgd1na2vs0mg"},{"bike_id":"fc69d422-fc1d-45fe-8074-3c79aacfd0fb","system_id":"levelo_inurba_marseille","lat":43.24646,"lon":5.38151,"is_reserved":false,"is_disabled":false,"rental_uris":{"android":"levelo://app?vid=fc69d422-fc1d-45fe-8074-3c79aacfd0fb","ios":"levelo://app?vid=fc69d422-fc1d-45fe-8074-3c79aacfd0fb"},"vehicle_type_id":"4","last_reported":1784159356,"current_range_meters":38400,"station_id":"ce4bhih2rcd13ifvqfr0","pricing_plan_id":"cebpf4jnsgd1na2vs0mg"},{"bike_id":"6e94b1a1-22d3-4975-b6a9-ec0b0bb97130","system_id":"levelo_inurba_marseille","lat":43.31979,"lon":5.38149,"is_reserved":false,"is_disabled":false,"rental_uris":{"android":"levelo://app?vid=6e94b1a1-22d3-4975-b6a9-ec0b0bb97130","ios":"levelo://app?vid=6e94b1a1-22d3-4975-b6a9-ec0b0bb97130"},"vehicle_type_id":"4","last_reported":1784159356,"current_range_meters":30000,"station_id":"ce4bhr12rcd13ifvqhpg","pricing_plan_id":"cebpf4jnsgd1na2vs0mg"},{"bike_id":"fa79fba4-668b-4535-948c-6eddd75df7e8","system_id":"levelo_inurba_marseille","lat":43.28921,"lon":5.38404,"is_reserved":false,"is_disabled":true,"rental_uris":{"android":"levelo://app?vid=fa79fba4-668b-4535-948c-6eddd75df7e8","ios":"levelo://app?vid=fa79fba4-668b-4535-948c-6eddd75df7e8"},"vehicle_type_id":"4","last_reported":1784159356,"current_range_meters":0,"station_id":"ce4bh612rcd13ifvqe6g","pricing_plan_id":"cebpf4jnsgd1na2vs0mg"},{"bike_id":"d183c213-4177-4bf2-b9e0-24872be8a9c8","system_id":"levelo_inurba_marseille","lat":43.28465,"lon":5.48405,"is_reserved":false,"is_disabled":false,"rental_uris":{"android":"levelo://app?vid=d183c213-4177-4bf2-b9e0-24872be8a9c8","ios":"levelo://app?vid=d183c213-4177-4bf2-b9e0-24872be8a9c8"},"vehicle_type_id":"4","last_reported":1784159356,"current_range_meters":24800,"station_id":"st_d3svhcjqgbts73a3dn0g","pricing_plan_id":"cebpf4jnsgd1na2vs0mg"},{"bike_id":"f905f0fb-a320-4a31-8b3e-192412fa0387","system_id":"levelo_inurba_marseille","lat":43.2989,"lon":5.38895,"is_reserved":false,"is_disabled":false,"rental_uris":{"android":"levelo://app?vid=f905f0fb-a320-4a31-8b3e-192412fa0387","ios":"levelo://app?vid=f905f0fb-a320-4a31-8b3e-192412fa0387"},"vehicle_type_id":"4","last_reported":1784159356,"current_range_meters":6800,"station_id":"ce4bh392rcd13ifvqdl0","pricing_plan_id":"cebpf4jnsgd1na2vs0mg"},{"bike_id":"46c30e04-4ac3-43ab-be7c-4fbad5c31f06","system_id":"levelo_inurba_marseille","lat":43.31329,"lon":5.39692,"is_reserved":false,"is_disabled":false,"rental_uris":{"android":"levelo://app?vid=46c30e04-4ac3-43ab-be7c-4fbad5c31f06","ios":"levelo://app?vid=46c30e04-4ac3-43ab-be7c-4fbad5c31f06"},"vehicle_type_id":"4","last_reported":1784159356,"current_range_meters":36800,"station_id":"ce4bgvp2rcd13ifvqcu0","pricing_plan_id":"cebpf4jnsgd1na2vs0mg"},{"bike_id":"77f0b611-8e54-40ee-804a-9a0ef852a88a","system_id":"levelo_inurba_marseille","lat":43.31207,"lon":5.36889,"is_reserved":false,"is_disabled":true,"rental_uris":{"android":"levelo://app?vid=77f0b611-8e54-40ee-804a-9a0ef852a88a","ios":"levelo://app?vid=77f0b611-8e54-40ee-804a-9a0ef852a88a"},"vehicle_type_id":"4","last_reported":1784159356,"current_range_meters":23200,"station_id":"ce4bgl92rcd13ifvqbq0","pricing_plan_id":"cebpf4jnsgd1na2vs0mg"},{"bike_id":"3d52ed38-78bf-4882-9313-b6474591023a","system_id":"levelo_inurba_marseille","lat":43.31191,"lon":5.36865,"is_reserved":false,"is_disabled":true,"rental_uris":{"android":"levelo://app?vid=3d52ed38-78bf-4882-9313-b6474591023a","ios":"levelo://app?vid=3d52ed38-78bf-4882-9313-b6474591023a"},"vehicle_type_id":"4","last_reported":1784159356,"current_range_meters":29600,"station_id":"ce4bgl92rcd13ifvqbq0","pricing_plan_id":"cebpf4jnsgd1na2vs0mg"},{"bike_id":"e4e2da61-31a3-435a-b1ec-9bb834559f2e","system_id":"levelo_inurba_marseille","lat":43.25016,"lon":5.38935,"is_reserved":false,"is_disabled":false,"rental_uris":{"android":"levelo://app?vid=e4e2da61-31a3-435a-b1ec-9bb834559f2e","ios":"levelo://app?vid=e4e2da61-31a3-435a-b1ec-9bb834559f2e"},"vehicle_type_id":"4","last_reported":1784159356,"current_range_meters":36000,"station_id":"ce4bhgp2rcd13ifvqfd0","pricing_plan_id":"cebpf4jnsgd1na2vs0mg"},{"bike_id":"e827aed9-ca14-47c5-970b-363196fc1ed0","system_id":"levelo_inurba_marseille","lat":43.26234,"lon":5.38773,"is_reserved":false,"is_disabled":false,"rental_uris":{"android":"levelo://app?vid=e827aed9-ca14-47c5-970b-363196fc1ed0","ios":"levelo://app?vid=e827aed9-ca14-47c5-970b-363196fc1ed0"},"vehicle_type_id":"4","last_reported":1784159356,"current_range_meters":28000,"station_id":"st_d8gjfg747rts73coq3b0","pricing_plan_id":"cebpf4jnsgd1na2vs0mg"},{"bike_id":"4f1678b1-fb1a-4389-979f-73898ae9f482","system_id":"levelo_inurba_marseille","lat":43.29024,"lon":5.38124,"is_reserved":false,"is_disabled":false,"rental_uris":{"android":"levelo://app?vid=4f1678b1-fb1a-4389-979f-73898ae9f482","ios":"levelo://app?vid=4f1678b1-fb1a-4389-979f-73898ae9f482"},"vehicle_type_id":"4","last_reported":1784159356,"current_range_meters":14800,"station_id":"ce4bh4p2rcd13ifvqe1g","pricing_plan_id":"cebpf4jnsgd1na2vs0mg"},{"bike_id":"8de8a927-d65e-478b-817e-d6577c042196","system_id":"levelo_inurba_marseille","lat":43.26249,"lon":5.38782,"is_reserved":false,"is_disabled":false,"rental_uris":{"android":"levelo://app?vid=8de8a927-d65e-478b-817e-d6577c042196","ios":"levelo://app?vid=8de8a927-d65e-478b-817e-d6577c042196"},"vehicle_type_id":"4","last_reported":1784159356,"current_range_meters":39200,"station_id":"st_d8gjfg747rts73coq3b0","pricing_plan_id":"cebpf4jnsgd1na2vs0mg"},{"bike_id":"c25bb13f-78ac-46ad-85e2-c5fdfafeb5d8","system_id":"levelo_inurba_marseille","lat":43.30194,"lon":5.38214,"is_reserved":false,"is_disabled":false,"rental_uris":{"android":"levelo://app?vid=c25bb13f-78ac-46ad-85e2-c5fdfafeb5d8","ios":"levelo://app?vid=c25bb13f-78ac-46ad-85e2-c5fdfafeb5d8"},"vehicle_type_id":"4","last_reported":1784159356,"current_range_meters":18000,"station_id":"","pricing_plan_id":"cebpf4jnsgd1na2vs0mg"},{"bike_id":"81394e63-313d-4859-b7cc-8e22c34fe6ba","system_id":"levelo_inurba_marseille","lat":43.26814,"lon":5.39577,"is_reserved":false,"is_disabled":true,"rental_uris":{"android":"levelo://app?vid=81394e63-313d-4859-b7cc-8e22c34fe6ba","ios":"levelo://app?vid=81394e63-313d-4859-b7cc-8e22c34fe6ba"},"vehicle_type_id":"4","last_reported":1784159356,"current_range_meters":0,"station_id":"","pricing_plan_id":"cebpf4jnsgd1na2vs0mg"},{"bike_id":"b3d23da5-3818-4c03-a551-e227276b471b","system_id":"levelo_inurba_marseille","lat":43.32496,"lon":5.36576,"is_reserved":false,"is_disabled":false,"rental_uris":{"android":"levelo://app?vid=b3d23da5-3818-4c03-a551-e227276b471b","ios":"levelo://app?vid=b3d23da5-3818-4c03-a551-e227276b471b"},"vehicle_type_id":"4","last_reported":1784159356,"current_range_meters":33200,"station_id":"ce4bhs12rcd13ifvqhvg","pricing_plan_id":"cebpf4jnsgd1na2vs0mg"},{"bike_id":"b9e704be-0c34-4347-afc4-8a347b743bdc","system_id":"levelo_inurba_marseille","lat":43.3043,"lon":5.39748,"is_reserved":false,"is_disabled":false,"rental_uris":{"android":"levelo://app?vid=b9e704be-0c34-4347-afc4-8a347b743bdc","ios":"levelo://app?vid=b9e704be-0c34-4347-afc4-8a347b743bdc"},"vehicle_type_id":"4","last_reported":1784159356,"current_range_meters":27200,"station_id":"ce4bh092rcd13ifvqd20","pricing_plan_id":"cebpf4jnsgd1na2vs0mg"},{"bike_id":"6cd48a31-aaa8-4146-8aa2-c9360304ef60","system_id":"levelo_inurba_marseille","lat":43.27825,"lon":5.40725,"is_reserved":false,"is_disabled":false,"rental_uris":{"android":"levelo://app?vid=6cd48a31-aaa8-4146-8aa2-c9360304ef60","ios":"levelo://app?vid=6cd48a31-aaa8-4146-8aa2-c9360304ef60"},"vehicle_type_id":"4","last_reported":1784159356,"current_range_meters":15200,"station_id":"ce4bhnh2rcd13ifvqgtg","pricing_plan_id":"cebpf4jnsgd1na2vs0mg"},{"bike_id":"e1bb6861-ee59-438c-aa2a-2a553b2d6f43","system_id":"levelo_inurba_marseille","lat":43.27187,"lon":5.40994,"is_reserved":false,"is_disabled":true,"rental_uris":{"android":"levelo://app?vid=e1bb6861-ee59-438c-aa2a-2a553b2d6f43","ios":"levelo://app?vid=e1bb6861-ee59-438c-aa2a-2a553b2d6f43"},"vehicle_type_id":"4","last_reported":1784159356,"current_range_meters":38000,"station_id":"ce4bhl12rcd13ifvqgf0","pricing_plan_id":"cebpf4jnsgd1na2vs0mg"},{"bike_id":"d61f5f42-3266-4ab9-bc4e-5a83331a7ece","system_id":"levelo_inurba_marseille","lat":43.25565,"lon":5.38263,"is_reserved":false,"is_disabled":true,"rental_uris":{"android":"levelo://app?vid=d61f5f42-3266-4ab9-bc4e-5a83331a7ece","ios":"levelo://app?vid=d61f5f42-3266-4ab9-bc4e-5a83331a7ece"},"vehicle_type_id":"4","last_reported":1784159356,"current_range_meters":35600,"station_id":"ce4bhih2rcd13ifvqfs0","pricing_plan_id":"cebpf4jnsgd1na2vs0mg"},{"bike_id":"06097b1f-6886-48c9-a8e6-84f03d133de4","system_id":"levelo_inurba_marseille","lat":43.31347,"lon":5.43229,"is_reserved":false,"is_disabled":false,"rental_uris":{"android":"levelo://app?vid=06097b1f-6886-48c9-a8e6-84f03d133de4","ios":"levelo://app?vid=06097b1f-6886-48c9-a8e6-84f03d133de4"},"vehicle_type_id":"4","last_reported":1784159356,"current_range_meters":4800,"station_id":"","pricing_plan_id":"cebpf4jnsgd1na2vs0mg"},{"bike_id":"34c5b572-acfb-4138-9633-fe327799f420","system_id":"levelo_inurba_marseille","lat":43.29542,"lon":5.36126,"is_reserved":false,"is_disabled":true,"rental_uris":{"android":"levelo://app?vid=34c5b572-acfb-4138-9633-fe327799f420","ios":"levelo://app?vid=34c5b572-acfb-4138-9633-fe327799f420"},"vehicle_type_id":"4","last_reported":1784159356,"current_range_meters":38000,"station_id":"","pricing_plan_id":"cebpf4jnsgd1na2vs0mg"},{"bike_id":"c70a5a1a-1138-428e-9352-e5f388c6b2fe","system_id":"levelo_inurba_marseille","lat":43.33765,"lon":5.3746,"is_reserved":false,"is_disabled":false,"rental_uris":{"android":"levelo://app?vid=c70a5a1a-1138-428e-9352-e5f388c6b2fe","ios":"levelo://app?vid=c70a5a1a-1138-428e-9352-e5f388c6b2fe"},"vehicle_type_id":"4","last_reported":1784159356,"current_range_meters":32800,"station_id":"","pricing_plan_id":"cebpf4jnsgd1na2vs0mg"},{"bike_id":"52f61720-f0ab-4be0-8955-2b7651cf9f9a","system_id":"levelo_inurba_marseille","lat":43.27496,"lon":5.42453,"is_reserved":false,"is_disabled":false,"rental_uris":{"android":"levelo://app?vid=52f61720-f0ab-4be0-8955-2b7651cf9f9a","ios":"levelo://app?vid=52f61720-f0ab-4be0-8955-2b7651cf9f9a"},"vehicle_type_id":"4","last_reported":1784159356,"current_range_meters":38800,"station_id":"ce4bhn92rcd13ifvqgrg","pricing_plan_id":"cebpf4jnsgd1na2vs0mg"},{"bike_id":"2623e023-e953-40ac-8068-15d2169ca99d","system_id":"levelo_inurba_marseille","lat":43.28711,"lon":5.46698,"is_reserved":false,"is_disabled":false,"rental_uris":{"android":"levelo://app?vid=2623e023-e953-40ac-8068-15d2169ca99d","ios":"levelo://app?vid=2623e023-e953-40ac-8068-15d2169ca99d"},"vehicle_type_id":"4","last_reported":1784159356,"current_range_meters":11200,"station_id":"st_d6tc3vkotcvc738tfjhg","pricing_plan_id":"cebpf4jnsgd1na2vs0mg"},{"bike_id":"0a32d367-b8f2-4663-98b1-318cf1eed946","system_id":"levelo_inurba_marseille","lat":43.27972,"lon":5.38747,"is_reserved":false,"is_disabled":false,"rental_uris":{"android":"levelo://app?vid=0a32d367-b8f2-4663-98b1-318cf1eed946","ios":"levelo://app?vid=0a32d367-b8f2-4663-98b1-318cf1eed946"},"vehicle_type_id":"4","last_reported":1784159356,"current_range_meters":6000,"station_id":"ce4bhg12rcd13ifvqf80","pricing_plan_id":"cebpf4jnsgd1na2vs0mg"},{"bike_id":"7a5203cf-b3c3-4680-afa1-0e3d4d1fb7e2","system_id":"levelo_inurba_marseille","lat":43.23887,"lon":5.37458,"is_reserved":false,"is_disabled":false,"rental_uris":{"android":"levelo://app?vid=7a5203cf-b3c3-4680-afa1-0e3d4d1fb7e2","ios":"levelo://app?vid=7a5203cf-b3c3-4680-afa1-0e3d4d1fb7e2"},"vehicle_type_id":"4","last_reported":1784159356,"current_range_meters":32800,"station_id":"st_d6sm7csbq4hs73f8fpjg","pricing_plan_id":"cebpf4jnsgd1na2vs0mg"},{"bike_id":"6885b797-d710-49c2-b07f-ca8f8e40bbfc","system_id":"levelo_inurba_marseille","lat":43.30783,"lon":5.38176,"is_reserved":false,"is_disabled":false,"rental_uris":{"android":"levelo://app?vid=6885b797-d710-49c2-b07f-ca8f8e40bbfc","ios":"levelo://app?vid=6885b797-d710-49c2-b07f-ca8f8e40bbfc"},"vehicle_type_id":"4","last_reported":1784159356,"current_range_meters":9200,"station_id":"ce4bgt12rcd13ifvqce0","pricing_plan_id":"cebpf4jnsgd1na2vs0mg"},{"bike_id":"5571eb0b-82d4-4d4a-b080-4737007ed5ae","system_id":"levelo_inurba_marseille","lat":43.33123,"lon":5.41301,"is_reserved":false,"is_disabled":false,"rental_uris":{"android":"levelo://app?vid=5571eb0b-82d4-4d4a-b080-4737007ed5ae","ios":"levelo://app?vid=5571eb0b-82d4-4d4a-b080-4737007ed5ae"},"vehicle_type_id":"4","last_reported":1784159356,"current_range_meters":9200,"station_id":"","pricing_plan_id":"cebpf4jnsgd1na2vs0mg"},{"bike_id":"6f0b136e-817e-453b-9d75-bf47d3799c64","system_id":"levelo_inurba_marseille","lat":43.29296,"lon":5.37193,"is_reserved":false,"is_disabled":false,"rental_uris":{"android":"levelo://app?vid=6f0b136e-817e-453b-9d75-bf47d3799c64","ios":"levelo://app?vid=6f0b136e-817e-453b-9d75-bf47d3799c64"},"vehicle_type_id":"4","last_reported":1784159356,"current_range_meters":24000,"station_id":"ce4bgh92rcd13ifvqb40","pricing_plan_id":"cebpf4jnsgd1na2vs0mg"},{"bike_id":"68f70bef-62ea-44c6-a0c0-17c2e944d0ba","system_id":"levelo_inurba_marseille","lat":43.29046,"lon":5.40027,"is_reserved":false,"is_disabled":false,"rental_uris":{"android":"levelo://app?vid=68f70bef-62ea-44c6-a0c0-17c2e944d0ba","ios":"levelo://app?vid=68f70bef-62ea-44c6-a0c0-17c2e944d0ba"},"vehicle_type_id":"4","last_reported":1784159356,"current_range_meters":38400,"station_id":"","pricing_plan_id":"cebpf4jnsgd1na2vs0mg"},{"bike_id":"f9b04cff-0426-44bb-9440-4e9193de90d6","system_id":"levelo_inurba_marseille","lat":43.31282,"lon":5.36989,"is_reserved":false,"is_disabled":false,"rental_uris":{"android":"levelo://app?vid=f9b04cff-0426-44bb-9440-4e9193de90d6","ios":"levelo://app?vid=f9b04cff-0426-44bb-9440-4e9193de90d6"},"vehicle_type_id":"4","last_reported":1784159356,"current_range_meters":39200,"station_id":"","pricing_plan_id":"cebpf4jnsgd1na2vs0mg"},{"bike_id":"8ebae504-b9c3-42d1-8b8b-f8c2ea4bcda3","system_id":"levelo_inurba_marseille","lat":43.28004,"lon":5.38245,"is_reserved":false,"is_disabled":false,"rental_uris":{"android":"levelo://app?vid=8ebae504-b9c3-42d1-8b8b-f8c2ea4bcda3","ios":"levelo://app?vid=8ebae504-b9c3-42d1-8b8b-f8c2ea4bcda3"},"vehicle_type_id":"4","last_reported":1784159356,"current_range_meters":30400,"station_id":"","pricing_plan_id":"cebpf4jnsgd1na2vs0mg"},{"bike_id":"d53aa255-e8ee-473c-bec9-d23ab834a76d","system_id":"levelo_inurba_marseille","lat":43.28144,"lon":5.42639,"is_reserved":false,"is_disabled":false,"rental_uris":{"android":"levelo://app?vid=d53aa255-e8ee-473c-bec9-d23ab834a76d","ios":"levelo://app?vid=d53aa255-e8ee-473c-bec9-d23ab834a76d"},"vehicle_type_id":"4","last_reported":1784159356,"current_range_meters":37600,"station_id":"ce4bhnh2rcd13ifvqgug","pricing_plan_id":"cebpf4jnsgd1na2vs0mg"},{"bike_id":"0ca5081d-94e8-4778-97cd-9269b7812e0e","system_id":"levelo_inurba_marseille","lat":43.29299,"lon":5.37185,"is_reserved":false,"is_disabled":true,"rental_uris":{"android":"levelo://app?vid=0ca5081d-94e8-4778-97cd-9269b7812e0e","ios":"levelo://app?vid=0ca5081d-94e8-4778-97cd-9269b7812e0e"},"vehicle_type_id":"4","last_reported":1784159356,"current_range_meters":37600,"station_id":"ce4bgh92rcd13ifvqb40","pricing_plan_id":"cebpf4jnsgd1na2vs0mg"},{"bike_id":"10ef5bd0-f130-4452-b7f2-391aef329ae1","system_id":"levelo_inurba_marseille","lat":43.28134,"lon":5.42684,"is_reserved":false,"is_disabled":false,"rental_uris":{"android":"levelo://app?vid=10ef5bd0-f130-4452-b7f2-391aef329ae1","ios":"levelo://app?vid=10ef5bd0-f130-4452-b7f2-391aef329ae1"},"vehicle_type_id":"4","last_reported":1784159356,"current_range_meters":38000,"station_id":"ce4bhnh2rcd13ifvqgug","pricing_plan_id":"cebpf4jnsgd1na2vs0mg"},{"bike_id":"e88c9045-35c5-41c7-b533-fe56a35ba2c9","system_id":"levelo_inurba_marseille","lat":43.25823,"lon":5.39424,"is_reserved":false,"is_disabled":false,"rental_uris":{"android":"levelo://app?vid=e88c9045-35c5-41c7-b533-fe56a35ba2c9","ios":"levelo://app?vid=e88c9045-35c5-41c7-b533-fe56a35ba2c9"},"vehicle_type_id":"4","last_reported":1784159356,"current_range_meters":14400,"station_id":"ce4bhip2rcd13ifvqft0","pricing_plan_id":"cebpf4jnsgd1na2vs0mg"},{"bike_id":"5445239a-a338-4f42-b77d-947715ae9d91","system_id":"levelo_inurba_marseille","lat":43.25493,"lon":5.37653,"is_reserved":false,"is_disabled":false,"rental_uris":{"android":"levelo://app?vid=5445239a-a338-4f42-b77d-947715ae9d91","ios":"levelo://app?vid=5445239a-a338-4f42-b77d-947715ae9d91"},"vehicle_type_id":"4","last_reported":1784159356,"current_range_meters":22800,"station_id":"ce4bhh12rcd13ifvqff0","pricing_plan_id":"cebpf4jnsgd1na2vs0mg"},{"bike_id":"3df7b3ee-3083-4a49-a1f1-8ec2f9d7ba3b","system_id":"levelo_inurba_marseille","lat":43.26068,"lon":5.39393,"is_reserved":false,"is_disabled":false,"rental_uris":{"android":"levelo://app?vid=3df7b3ee-3083-4a49-a1f1-8ec2f9d7ba3b","ios":"levelo://app?vid=3df7b3ee-3083-4a49-a1f1-8ec2f9d7ba3b"},"vehicle_type_id":"4","last_reported":1784159356,"current_range_meters":33200,"station_id":"ce4bhh92rcd13ifvqfj0","pricing_plan_id":"cebpf4jnsgd1na2vs0mg"},{"bike_id":"03e9a8f9-886d-47d4-a62b-7bf5a1ceb804","system_id":"levelo_inurba_marseille","lat":43.24544,"lon":5.39538,"is_reserved":false,"is_disabled":false,"rental_uris":{"android":"levelo://app?vid=03e9a8f9-886d-47d4-a62b-7bf5a1ceb804","ios":"levelo://app?vid=03e9a8f9-886d-47d4-a62b-7bf5a1ceb804"},"vehicle_type_id":"4","last_reported":1784159356,"current_range_meters":9200,"station_id":"ce4bhlp2rcd13ifvqgjg","pricing_plan_id":"cebpf4jnsgd1na2vs0mg"},{"bike_id":"51e67687-adac-48d3-87a7-692cc0efb738","system_id":"levelo_inurba_marseille","lat":43.260249,"lon":5.375509,"is_reserved":false,"is_disabled":false,"rental_uris":{"android":"levelo://app?vid=51e67687-adac-48d3-87a7-692cc0efb738","ios":"levelo://app?vid=51e67687-adac-48d3-87a7-692cc0efb738"},"vehicle_type_id":"4","last_reported":1784159356,"current_range_meters":36800,"station_id":"ce4bhgh2rcd13ifvqfa0","pricing_plan_id":"cebpf4jnsgd1na2vs0mg"},{"bike_id":"58875846-1130-490b-aa9f-75b680771617","system_id":"levelo_inurba_marseille","lat":43.27339,"lon":5.39097,"is_reserved":false,"is_disabled":false,"rental_uris":{"android":"levelo://app?vid=58875846-1130-490b-aa9f-75b680771617","ios":"levelo://app?vid=58875846-1130-490b-aa9f-75b680771617"},"vehicle_type_id":"4","last_reported":1784159356,"current_range_meters":20000,"station_id":"ce4bhgp2rcd13ifvqfe0","pricing_plan_id":"cebpf4jnsgd1na2vs0mg"},{"bike_id":"2dba5502-63f6-4c94-855c-4337516016f9","system_id":"levelo_inurba_marseille","lat":43.29593,"lon":5.40496,"is_reserved":false,"is_disabled":false,"rental_uris":{"android":"levelo://app?vid=2dba5502-63f6-4c94-855c-4337516016f9","ios":"levelo://app?vid=2dba5502-63f6-4c94-855c-4337516016f9"},"vehicle_type_id":"4","last_reported":1784159356,"current_range_meters":24800,"station_id":"","pricing_plan_id":"cebpf4jnsgd1na2vs0mg"},{"bike_id":"57091f55-05a7-48f3-b9de-2a363c338c85","system_id":"levelo_inurba_marseille","lat":43.23894,"lon":5.3746,"is_reserved":false,"is_disabled":true,"rental_uris":{"android":"levelo://app?vid=57091f55-05a7-48f3-b9de-2a363c338c85","ios":"levelo://app?vid=57091f55-05a7-48f3-b9de-2a363c338c85"},"vehicle_type_id":"4","last_reported":1784159356,"current_range_meters":0,"station_id":"st_d6sm7csbq4hs73f8fpjg","pricing_plan_id":"cebpf4jnsgd1na2vs0mg"},{"bike_id":"5ee03f4b-159d-426a-a2ca-0b6a084e3698","system_id":"levelo_inurba_marseille","lat":43.2378,"lon":5.36642,"is_reserved":false,"is_disabled":false,"rental_uris":{"android":"levelo://app?vid=5ee03f4b-159d-426a-a2ca-0b6a084e3698","ios":"levelo://app?vid=5ee03f4b-159d-426a-a2ca-0b6a084e3698"},"vehicle_type_id":"4","last_reported":1784159356,"current_range_meters":33200,"station_id":"st_d3nk18o9ro0c73en2l3g","pricing_plan_id":"cebpf4jnsgd1na2vs0mg"},{"bike_id":"e9700518-bfab-4e19-9c8e-e3cb6414cf72","system_id":"levelo_inurba_marseille","lat":43.2917,"lon":5.35792,"is_reserved":false,"is_disabled":true,"rental_uris":{"android":"levelo://app?vid=e9700518-bfab-4e19-9c8e-e3cb6414cf72","ios":"levelo://app?vid=e9700518-bfab-4e19-9c8e-e3cb6414cf72"},"vehicle_type_id":"4","last_reported":1784159356,"current_range_meters":18800,"station_id":"ce4bhb12rcd13ifvqel0","pricing_plan_id":"cebpf4jnsgd1na2vs0mg"},{"bike_id":"169213bf-733e-4b41-b64d-17aaa8e3c5bb","system_id":"levelo_inurba_marseille","lat":43.26951,"lon":5.38648,"is_reserved":false,"is_disabled":false,"rental_uris":{"android":"levelo://app?vid=169213bf-733e-4b41-b64d-17aaa8e3c5bb","ios":"levelo://app?vid=169213bf-733e-4b41-b64d-17aaa8e3c5bb"},"vehicle_type_id":"4","last_reported":1784159356,"current_range_meters":39200,"station_id":"ce4bhh92rcd13ifvqfh0","pricing_plan_id":"cebpf4jnsgd1na2vs0mg"},{"bike_id":"94c9ef49-e00d-419e-a588-e0f66f0f90a7","system_id":"levelo_inurba_marseille","lat":43.28009,"lon":5.38244,"is_reserved":false,"is_disabled":false,"rental_uris":{"android":"levelo://app?vid=94c9ef49-e00d-419e-a588-e0f66f0f90a7","ios":"levelo://app?vid=94c9ef49-e00d-419e-a588-e0f66f0f90a7"},"vehicle_type_id":"4","last_reported":1784159356,"current_range_meters":4800,"station_id":"","pricing_plan_id":"cebpf4jnsgd1na2vs0mg"},{"bike_id":"aa81239f-7290-4667-a713-744f29ca3d00","system_id":"levelo_inurba_marseille","lat":43.3136,"lon":5.38514,"is_reserved":false,"is_disabled":false,"rental_uris":{"android":"levelo://app?vid=aa81239f-7290-4667-a713-744f29ca3d00","ios":"levelo://app?vid=aa81239f-7290-4667-a713-744f29ca3d00"},"vehicle_type_id":"4","last_reported":1784159356,"current_range_meters":33600,"station_id":"ce4bgt92rcd13ifvqcf0","pricing_plan_id":"cebpf4jnsgd1na2vs0mg"},{"bike_id":"59c4f00b-c21e-4903-85fc-1ee662d4a943","system_id":"levelo_inurba_marseille","lat":43.30583,"lon":5.39372,"is_reserved":false,"is_disabled":false,"rental_uris":{"android":"levelo://app?vid=59c4f00b-c21e-4903-85fc-1ee662d4a943","ios":"levelo://app?vid=59c4f00b-c21e-4903-85fc-1ee662d4a943"},"vehicle_type_id":"4","last_reported":1784159356,"current_range_meters":28800,"station_id":"ce4bh0p2rcd13ifvqd80","pricing_plan_id":"cebpf4jnsgd1na2vs0mg"},{"bike_id":"4a7eaf6c-ea42-4513-9dcf-f7f08fab0fdb","system_id":"levelo_inurba_marseille","lat":43.31364,"lon":5.38154,"is_reserved":false,"is_disabled":false,"rental_uris":{"android":"levelo://app?vid=4a7eaf6c-ea42-4513-9dcf-f7f08fab0fdb","ios":"levelo://app?vid=4a7eaf6c-ea42-4513-9dcf-f7f08fab0fdb"},"vehicle_type_id":"4","last_reported":1784159356,"current_range_meters":24800,"station_id":"","pricing_plan_id":"cebpf4jnsgd1na2vs0mg"},{"bike_id":"331f3c42-16cf-4b7d-86b2-9b6a902781d9","system_id":"levelo_inurba_marseille","lat":43.29834,"lon":5.36297,"is_reserved":false,"is_disabled":true,"rental_uris":{"android":"levelo://app?vid=331f3c42-16cf-4b7d-86b2-9b6a902781d9","ios":"levelo://app?vid=331f3c42-16cf-4b7d-86b2-9b6a902781d9"},"vehicle_type_id":"4","last_reported":1784159356,"current_range_meters":11200,"station_id":"ce4bgpp2rcd13ifvqc3g","pricing_plan_id":"cebpf4jnsgd1na2vs0mg"},{"bike_id":"6d06d99e-b007-4951-8a7a-319000e57cf6","system_id":"levelo_inurba_marseille","lat":43.30317,"lon":5.36901,"is_reserved":false,"is_disabled":false,"rental_uris":{"android":"levelo://app?vid=6d06d99e-b007-4951-8a7a-319000e57cf6","ios":"levelo://app?vid=6d06d99e-b007-4951-8a7a-319000e57cf6"},"vehicle_type_id":"4","last_reported":1784159356,"current_range_meters":20000,"station_id":"ce4bgqh2rcd13ifvqc5g","pricing_plan_id":"cebpf4jnsgd1na2vs0mg"},{"bike_id":"0852ce7d-b59c-464a-9746-e5ee61ec41c7","system_id":"levelo_inurba_marseille","lat":43.28076,"lon":5.39664,"is_reserved":false,"is_disabled":false,"rental_uris":{"android":"levelo://app?vid=0852ce7d-b59c-464a-9746-e5ee61ec41c7","ios":"levelo://app?vid=0852ce7d-b59c-464a-9746-e5ee61ec41c7"},"vehicle_type_id":"4","last_reported":1784159356,"current_range_meters":15200,"station_id":"ce4bho12rcd13ifvqh2g","pricing_plan_id":"cebpf4jnsgd1na2vs0mg"},{"bike_id":"069a3029-e23d-4a4e-9deb-dd40f9ed318c","system_id":"levelo_inurba_marseille","lat":43.30808,"lon":5.38176,"is_reserved":false,"is_disabled":false,"rental_uris":{"android":"levelo://app?vid=069a3029-e23d-4a4e-9deb-dd40f9ed318c","ios":"levelo://app?vid=069a3029-e23d-4a4e-9deb-dd40f9ed318c"},"vehicle_type_id":"4","last_reported":1784159356,"current_range_meters":40000,"station_id":"ce4bgt12rcd13ifvqce0","pricing_plan_id":"cebpf4jnsgd1na2vs0mg"},{"bike_id":"d961209a-b67b-4b38-87ff-6951d64d7341","system_id":"levelo_inurba_marseille","lat":43.28215,"lon":5.39058,"is_reserved":false,"is_disabled":false,"rental_uris":{"android":"levelo://app?vid=d961209a-b67b-4b38-87ff-6951d64d7341","ios":"levelo://app?vid=d961209a-b67b-4b38-87ff-6951d64d7341"},"vehicle_type_id":"4","last_reported":1784159356,"current_range_meters":28400,"station_id":"ce4bhn92rcd13ifvqgsg","pricing_plan_id":"cebpf4jnsgd1na2vs0mg"},{"bike_id":"d84b4c94-ddf7-468c-940c-53dba70b2987","system_id":"levelo_inurba_marseille","lat":43.3014,"lon":5.39868,"is_reserved":false,"is_disabled":false,"rental_uris":{"android":"levelo://app?vid=d84b4c94-ddf7-468c-940c-53dba70b2987","ios":"levelo://app?vid=d84b4c94-ddf7-468c-940c-53dba70b2987"},"vehicle_type_id":"4","last_reported":1784159356,"current_range_meters":30000,"station_id":"ce4bh0h2rcd13ifvqd40","pricing_plan_id":"cebpf4jnsgd1na2vs0mg"},{"bike_id":"7abfca80-7cdd-4a41-b507-c3c15b674fd2","system_id":"levelo_inurba_marseille","lat":43.28929,"lon":5.38405,"is_reserved":false,"is_disabled":false,"rental_uris":{"android":"levelo://app?vid=7abfca80-7cdd-4a41-b507-c3c15b674fd2","ios":"levelo://app?vid=7abfca80-7cdd-4a41-b507-c3c15b674fd2"},"vehicle_type_id":"4","last_reported":1784159356,"current_range_meters":14000,"station_id":"ce4bh612rcd13ifvqe6g","pricing_plan_id":"cebpf4jnsgd1na2vs0mg"},{"bike_id":"e7214ffe-3c7d-40bd-9508-b392c8d6378d","system_id":"levelo_inurba_marseille","lat":43.29029,"lon":5.37555,"is_reserved":false,"is_disabled":true,"rental_uris":{"android":"levelo://app?vid=e7214ffe-3c7d-40bd-9508-b392c8d6378d","ios":"levelo://app?vid=e7214ffe-3c7d-40bd-9508-b392c8d6378d"},"vehicle_type_id":"4","last_reported":1784159356,"current_range_meters":39200,"station_id":"ce4bh692rcd13ifvqe90","pricing_plan_id":"cebpf4jnsgd1na2vs0mg"},{"bike_id":"d0dca651-580c-4704-be18-23cce9e78d40","system_id":"levelo_inurba_marseille","lat":43.2396,"lon":5.36634,"is_reserved":false,"is_disabled":false,"rental_uris":{"android":"levelo://app?vid=d0dca651-580c-4704-be18-23cce9e78d40","ios":"levelo://app?vid=d0dca651-580c-4704-be18-23cce9e78d40"},"vehicle_type_id":"4","last_reported":1784159356,"current_range_meters":16800,"station_id":"ce4bhi12rcd13ifvqfp0","pricing_plan_id":"cebpf4jnsgd1na2vs0mg"},{"bike_id":"81587832-75ed-49cd-91c3-f57f9b8cec45","system_id":"levelo_inurba_marseille","lat":43.29043,"lon":5.35913,"is_reserved":false,"is_disabled":true,"rental_uris":{"android":"levelo://app?vid=81587832-75ed-49cd-91c3-f57f9b8cec45","ios":"levelo://app?vid=81587832-75ed-49cd-91c3-f57f9b8cec45"},"vehicle_type_id":"4","last_reported":1784159356,"current_range_meters":18000,"station_id":"ce4bha92rcd13ifvqeg0","pricing_plan_id":"cebpf4jnsgd1na2vs0mg"},{"bike_id":"88a62dbe-493c-42c6-91d9-4bf79be3a821","system_id":"levelo_inurba_marseille","lat":43.28328,"lon":5.38118,"is_reserved":false,"is_disabled":false,"rental_uris":{"android":"levelo://app?vid=88a62dbe-493c-42c6-91d9-4bf79be3a821","ios":"levelo://app?vid=88a62dbe-493c-42c6-91d9-4bf79be3a821"},"vehicle_type_id":"4","last_reported":1784159356,"current_range_meters":38400,"station_id":"ce4bh412rcd13ifvqdr0","pricing_plan_id":"cebpf4jnsgd1na2vs0mg"},{"bike_id":"a8cb6669-678d-4715-9cac-d3efe8d87b9f","system_id":"levelo_inurba_marseille","lat":43.28993,"lon":5.38153,"is_reserved":false,"is_disabled":true,"rental_uris":{"android":"levelo://app?vid=a8cb6669-678d-4715-9cac-d3efe8d87b9f","ios":"levelo://app?vid=a8cb6669-678d-4715-9cac-d3efe8d87b9f"},"vehicle_type_id":"4","last_reported":1784159356,"current_range_meters":1600,"station_id":"","pricing_plan_id":"cebpf4jnsgd1na2vs0mg"},{"bike_id":"52d604b9-0be1-46f6-b998-5c9c6cbe555b","system_id":"levelo_inurba_marseille","lat":43.28041,"lon":5.36946,"is_reserved":false,"is_disabled":false,"rental_uris":{"android":"levelo://app?vid=52d604b9-0be1-46f6-b998-5c9c6cbe555b","ios":"levelo://app?vid=52d604b9-0be1-46f6-b998-5c9c6cbe555b"},"vehicle_type_id":"4","last_reported":1784159356,"current_range_meters":34000,"station_id":"ce4bha12rcd13ifvqef0","pricing_plan_id":"cebpf4jnsgd1na2vs0mg"},{"bike_id":"c6ac626d-aef6-478f-8af0-d0de9fa8be85","system_id":"levelo_inurba_marseille","lat":43.22712,"lon":5.34834,"is_reserved":false,"is_disabled":false,"rental_uris":{"android":"levelo://app?vid=c6ac626d-aef6-478f-8af0-d0de9fa8be85","ios":"levelo://app?vid=c6ac626d-aef6-478f-8af0-d0de9fa8be85"},"vehicle_type_id":"4","last_reported":1784159356,"current_range_meters":11600,"station_id":"","pricing_plan_id":"cebpf4jnsgd1na2vs0mg"},{"bike_id":"e8976180-d139-402b-b8a5-104a73f8a7c2","system_id":"levelo_inurba_marseille","lat":43.29922,"lon":5.43063,"is_reserved":false,"is_disabled":false,"rental_uris":{"android":"levelo://app?vid=e8976180-d139-402b-b8a5-104a73f8a7c2","ios":"levelo://app?vid=e8976180-d139-402b-b8a5-104a73f8a7c2"},"vehicle_type_id":"4","last_reported":1784159356,"current_range_meters":16000,"station_id":"","pricing_plan_id":"cebpf4jnsgd1na2vs0mg"},{"bike_id":"f15b10d6-c036-41c7-95f4-4b8a6655f1be","system_id":"levelo_inurba_marseille","lat":43.28411,"lon":5.37513,"is_reserved":false,"is_disabled":false,"rental_uris":{"android":"levelo://app?vid=f15b10d6-c036-41c7-95f4-4b8a6655f1be","ios":"levelo://app?vid=f15b10d6-c036-41c7-95f4-4b8a6655f1be"},"vehicle_type_id":"4","last_reported":1784159356,"current_range_meters":31200,"station_id":"ce4bh412rcd13ifvqds0","pricing_plan_id":"cebpf4jnsgd1na2vs0mg"},{"bike_id":"ceea90dc-aba2-42cf-8305-f588021ccebe","system_id":"levelo_inurba_marseille","lat":43.31373,"lon":5.38502,"is_reserved":false,"is_disabled":false,"rental_uris":{"android":"levelo://app?vid=ceea90dc-aba2-42cf-8305-f588021ccebe","ios":"levelo://app?vid=ceea90dc-aba2-42cf-8305-f588021ccebe"},"vehicle_type_id":"4","last_reported":1784159356,"current_range_meters":40000,"station_id":"ce4bgt92rcd13ifvqcf0","pricing_plan_id":"cebpf4jnsgd1na2vs0mg"},{"bike_id":"0c964dab-40ec-49b5-8e4d-a4ff83f48bf2","system_id":"levelo_inurba_marseille","lat":43.27967,"lon":5.39113,"is_reserved":false,"is_disabled":false,"rental_uris":{"android":"levelo://app?vid=0c964dab-40ec-49b5-8e4d-a4ff83f48bf2","ios":"levelo://app?vid=0c964dab-40ec-49b5-8e4d-a4ff83f48bf2"},"vehicle_type_id":"4","last_reported":1784159356,"current_range_meters":30000,"station_id":"","pricing_plan_id":"cebpf4jnsgd1na2vs0mg"},{"bike_id":"6224e227-7d0a-40cd-8ccc-b2e0d0d9f84f","system_id":"levelo_inurba_marseille","lat":43.31397,"lon":5.38808,"is_reserved":false,"is_disabled":false,"rental_uris":{"android":"levelo://app?vid=6224e227-7d0a-40cd-8ccc-b2e0d0d9f84f","ios":"levelo://app?vid=6224e227-7d0a-40cd-8ccc-b2e0d0d9f84f"},"vehicle_type_id":"4","last_reported":1784159356,"current_range_meters":17600,"station_id":"","pricing_plan_id":"cebpf4jnsgd1na2vs0mg"},{"bike_id":"7ff8118f-6c81-4cdf-8a1d-4753d954065d","system_id":"levelo_inurba_marseille","lat":43.2958,"lon":5.37986,"is_reserved":false,"is_disabled":false,"rental_uris":{"android":"levelo://app?vid=7ff8118f-6c81-4cdf-8a1d-4753d954065d","ios":"levelo://app?vid=7ff8118f-6c81-4cdf-8a1d-4753d954065d"},"vehicle_type_id":"4","last_reported":1784159356,"current_range_meters":16400,"station_id":"","pricing_plan_id":"cebpf4jnsgd1na2vs0mg"},{"bike_id":"7d9aee17-e1b8-4f5e-bcad-64c7c24e1aaf","system_id":"levelo_inurba_marseille","lat":43.29298,"lon":5.40911,"is_reserved":false,"is_disabled":false,"rental_uris":{"android":"levelo://app?vid=7d9aee17-e1b8-4f5e-bcad-64c7c24e1aaf","ios":"levelo://app?vid=7d9aee17-e1b8-4f5e-bcad-64c7c24e1aaf"},"vehicle_type_id":"4","last_reported":1784159356,"current_range_meters":35600,"station_id":"ce4bh192rcd13ifvqdc0","pricing_plan_id":"cebpf4jnsgd1na2vs0mg"},{"bike_id":"de163011-6b02-44c4-8d7f-1c724f9579ae","system_id":"levelo_inurba_marseille","lat":43.2853,"lon":5.44115,"is_reserved":false,"is_disabled":false,"rental_uris":{"android":"levelo://app?vid=de163011-6b02-44c4-8d7f-1c724f9579ae","ios":"levelo://app?vid=de163011-6b02-44c4-8d7f-1c724f9579ae"},"vehicle_type_id":"4","last_reported":1784159356,"current_range_meters":39200,"station_id":"st_d3j3df2ikq2c7380ej80","pricing_plan_id":"cebpf4jnsgd1na2vs0mg"},{"bike_id":"0ca44bba-84f8-429b-9417-bc1ec17f3f30","system_id":"levelo_inurba_marseille","lat":43.3092,"lon":5.40146,"is_reserved":false,"is_disabled":false,"rental_uris":{"android":"levelo://app?vid=0ca44bba-84f8-429b-9417-bc1ec17f3f30","ios":"levelo://app?vid=0ca44bba-84f8-429b-9417-bc1ec17f3f30"},"vehicle_type_id":"4","last_reported":1784159356,"current_range_meters":33600,"station_id":"ce4bgvp2rcd13ifvqct0","pricing_plan_id":"cebpf4jnsgd1na2vs0mg"},{"bike_id":"c8753191-b242-4423-bc94-7bdfbbb26d1b","system_id":"levelo_inurba_marseille","lat":43.29585,"lon":5.38585,"is_reserved":false,"is_disabled":false,"rental_uris":{"android":"levelo://app?vid=c8753191-b242-4423-bc94-7bdfbbb26d1b","ios":"levelo://app?vid=c8753191-b242-4423-bc94-7bdfbbb26d1b"},"vehicle_type_id":"4","last_reported":1784159356,"current_range_meters":38800,"station_id":"","pricing_plan_id":"cebpf4jnsgd1na2vs0mg"},{"bike_id":"67519f54-be61-4c9c-8159-ccb28b4ee63b","system_id":"levelo_inurba_marseille","lat":43.30717,"lon":5.3841,"is_reserved":false,"is_disabled":false,"rental_uris":{"android":"levelo://app?vid=67519f54-be61-4c9c-8159-ccb28b4ee63b","ios":"levelo://app?vid=67519f54-be61-4c9c-8159-ccb28b4ee63b"},"vehicle_type_id":"4","last_reported":1784159356,"current_range_meters":12800,"station_id":"","pricing_plan_id":"cebpf4jnsgd1na2vs0mg"},{"bike_id":"bff190af-5ff9-4e35-a77d-9727c07971de","system_id":"levelo_inurba_marseille","lat":43.31106,"lon":5.37786,"is_reserved":false,"is_disabled":false,"rental_uris":{"android":"levelo://app?vid=bff190af-5ff9-4e35-a77d-9727c07971de","ios":"levelo://app?vid=bff190af-5ff9-4e35-a77d-9727c07971de"},"vehicle_type_id":"4","last_reported":1784159356,"current_range_meters":39200,"station_id":"ce4bgt92rcd13ifvqcg0","pricing_plan_id":"cebpf4jnsgd1na2vs0mg"},{"bike_id":"3c9228ce-4fce-47e3-9dae-b67d6aa4b8f2","system_id":"levelo_inurba_marseille","lat":43.30419,"lon":5.39744,"is_reserved":false,"is_disabled":false,"rental_uris":{"android":"levelo://app?vid=3c9228ce-4fce-47e3-9dae-b67d6aa4b8f2","ios":"levelo://app?vid=3c9228ce-4fce-47e3-9dae-b67d6aa4b8f2"},"vehicle_type_id":"4","last_reported":1784159356,"current_range_meters":10000,"station_id":"ce4bh092rcd13ifvqd20","pricing_plan_id":"cebpf4jnsgd1na2vs0mg"},{"bike_id":"6b7bc794-a8b6-4b15-bdfb-b2fb240ae758","system_id":"levelo_inurba_marseille","lat":43.28421,"lon":5.34992,"is_reserved":false,"is_disabled":true,"rental_uris":{"android":"levelo://app?vid=6b7bc794-a8b6-4b15-bdfb-b2fb240ae758","ios":"levelo://app?vid=6b7bc794-a8b6-4b15-bdfb-b2fb240ae758"},"vehicle_type_id":"4","last_reported":1784159356,"current_range_meters":39200,"station_id":"ce4bhbh2rcd13ifvqepg","pricing_plan_id":"cebpf4jnsgd1na2vs0mg"},{"bike_id":"d23c7d19-904e-4735-9968-d7b28d2ac114","system_id":"levelo_inurba_marseille","lat":43.28008,"lon":5.36924,"is_reserved":false,"is_disabled":false,"rental_uris":{"android":"levelo://app?vid=d23c7d19-904e-4735-9968-d7b28d2ac114","ios":"levelo://app?vid=d23c7d19-904e-4735-9968-d7b28d2ac114"},"vehicle_type_id":"4","last_reported":1784159356,"current_range_meters":39200,"station_id":"ce4bha12rcd13ifvqef0","pricing_plan_id":"cebpf4jnsgd1na2vs0mg"},{"bike_id":"d6b0724d-3030-4e7b-8778-a4d582b3070a","system_id":"levelo_inurba_marseille","lat":43.28613,"lon":5.35099,"is_reserved":false,"is_disabled":true,"rental_uris":{"android":"levelo://app?vid=d6b0724d-3030-4e7b-8778-a4d582b3070a","ios":"levelo://app?vid=d6b0724d-3030-4e7b-8778-a4d582b3070a"},"vehicle_type_id":"4","last_reported":1784159356,"current_range_meters":30000,"station_id":"ce4bhch2rcd13ifvqeug","pricing_plan_id":"cebpf4jnsgd1na2vs0mg"},{"bike_id":"b6a4890d-997f-42d9-85c0-811ebddfc959","system_id":"levelo_inurba_marseille","lat":43.28658,"lon":5.36364,"is_reserved":false,"is_disabled":false,"rental_uris":{"android":"levelo://app?vid=b6a4890d-997f-42d9-85c0-811ebddfc959","ios":"levelo://app?vid=b6a4890d-997f-42d9-85c0-811ebddfc959"},"vehicle_type_id":"4","last_reported":1784159356,"current_range_meters":34800,"station_id":"ce4bhah2rcd13ifvqej0","pricing_plan_id":"cebpf4jnsgd1na2vs0mg"},{"bike_id":"da085bd4-e387-428b-86f4-5fcca2af242c","system_id":"levelo_inurba_marseille","lat":43.31123,"lon":5.37767,"is_reserved":false,"is_disabled":false,"rental_uris":{"android":"levelo://app?vid=da085bd4-e387-428b-86f4-5fcca2af242c","ios":"levelo://app?vid=da085bd4-e387-428b-86f4-5fcca2af242c"},"vehicle_type_id":"4","last_reported":1784159356,"current_range_meters":25600,"station_id":"ce4bgt92rcd13ifvqcg0","pricing_plan_id":"cebpf4jnsgd1na2vs0mg"},{"bike_id":"faf47c97-9a06-42ff-a560-793302d437ca","system_id":"levelo_inurba_marseille","lat":43.28648,"lon":5.3635,"is_reserved":false,"is_disabled":false,"rental_uris":{"android":"levelo://app?vid=faf47c97-9a06-42ff-a560-793302d437ca","ios":"levelo://app?vid=faf47c97-9a06-42ff-a560-793302d437ca"},"vehicle_type_id":"4","last_reported":1784159356,"current_range_meters":40000,"station_id":"ce4bhah2rcd13ifvqej0","pricing_plan_id":"cebpf4jnsgd1na2vs0mg"},{"bike_id":"60162809-8111-4a52-aae5-c50399956595","system_id":"levelo_inurba_marseille","lat":43.29535,"lon":5.39031,"is_reserved":false,"is_disabled":true,"rental_uris":{"android":"levelo://app?vid=60162809-8111-4a52-aae5-c50399956595","ios":"levelo://app?vid=60162809-8111-4a52-aae5-c50399956595"},"vehicle_type_id":"4","last_reported":1784159356,"current_range_meters":22400,"station_id":"ce4bh3p2rcd13ifvqdp0","pricing_plan_id":"cebpf4jnsgd1na2vs0mg"},{"bike_id":"f2fe406b-0cdc-4984-8a3b-1a549de4a6bd","system_id":"levelo_inurba_marseille","lat":43.33784,"lon":5.37498,"is_reserved":false,"is_disabled":false,"rental_uris":{"android":"levelo://app?vid=f2fe406b-0cdc-4984-8a3b-1a549de4a6bd","ios":"levelo://app?vid=f2fe406b-0cdc-4984-8a3b-1a549de4a6bd"},"vehicle_type_id":"4","last_reported":1784159356,"current_range_meters":20400,"station_id":"","pricing_plan_id":"cebpf4jnsgd1na2vs0mg"},{"bike_id":"1e628dec-3141-48e0-b510-1c285ab03f4c","system_id":"levelo_inurba_marseille","lat":43.26369,"lon":5.41061,"is_reserved":false,"is_disabled":true,"rental_uris":{"android":"levelo://app?vid=1e628dec-3141-48e0-b510-1c285ab03f4c","ios":"levelo://app?vid=1e628dec-3141-48e0-b510-1c285ab03f4c"},"vehicle_type_id":"4","last_reported":1784159356,"current_range_meters":6400,"station_id":"st_d4e5ca6na9uc73bfl5fg","pricing_plan_id":"cebpf4jnsgd1na2vs0mg"},{"bike_id":"8337f5b4-2806-4bc0-9f71-af183adb5db8","system_id":"levelo_inurba_marseille","lat":43.231359,"lon":5.437577,"is_reserved":false,"is_disabled":false,"rental_uris":{"android":"levelo://app?vid=8337f5b4-2806-4bc0-9f71-af183adb5db8","ios":"levelo://app?vid=8337f5b4-2806-4bc0-9f71-af183adb5db8"},"vehicle_type_id":"4","last_reported":1784159356,"current_range_meters":6400,"station_id":"","pricing_plan_id":"cebpf4jnsgd1na2vs0mg"},{"bike_id":"0e80f4be-aa62-4d4f-a88f-c49843efcd83","system_id":"levelo_inurba_marseille","lat":43.25076,"lon":5.41348,"is_reserved":false,"is_disabled":true,"rental_uris":{"android":"levelo://app?vid=0e80f4be-aa62-4d4f-a88f-c49843efcd83","ios":"levelo://app?vid=0e80f4be-aa62-4d4f-a88f-c49843efcd83"},"vehicle_type_id":"4","last_reported":1784159356,"current_range_meters":12400,"station_id":"","pricing_plan_id":"cebpf4jnsgd1na2vs0mg"},{"bike_id":"784530cd-3156-47d5-baf0-e60e83e96852","system_id":"levelo_inurba_marseille","lat":43.28596,"lon":5.39904,"is_reserved":false,"is_disabled":false,"rental_uris":{"android":"levelo://app?vid=784530cd-3156-47d5-baf0-e60e83e96852","ios":"levelo://app?vid=784530cd-3156-47d5-baf0-e60e83e96852"},"vehicle_type_id":"4","last_reported":1784159356,"current_range_meters":17200,"station_id":"st_d4a7ka997mjs738ck50g","pricing_plan_id":"cebpf4jnsgd1na2vs0mg"},{"bike_id":"9816fcfb-fed5-46a5-a828-dec154df7717","system_id":"levelo_inurba_marseille","lat":43.26805,"lon":5.40267,"is_reserved":false,"is_disabled":true,"rental_uris":{"android":"levelo://app?vid=9816fcfb-fed5-46a5-a828-dec154df7717","ios":"levelo://app?vid=9816fcfb-fed5-46a5-a828-dec154df7717"},"vehicle_type_id":"4","last_reported":1784159356,"current_range_meters":32000,"station_id":"ce501612rcd8frsf0b60","pricing_plan_id":"cebpf4jnsgd1na2vs0mg"},{"bike_id":"314807e5-c7e5-4040-98f7-f5b3f656b526","system_id":"levelo_inurba_marseille","lat":43.311114,"lon":5.377829,"is_reserved":false,"is_disabled":false,"rental_uris":{"android":"levelo://app?vid=314807e5-c7e5-4040-98f7-f5b3f656b526","ios":"levelo://app?vid=314807e5-c7e5-4040-98f7-f5b3f656b526"},"vehicle_type_id":"4","last_reported":1784159356,"current_range_meters":9200,"station_id":"ce4bgt92rcd13ifvqcg0","pricing_plan_id":"cebpf4jnsgd1na2vs0mg"},{"bike_id":"552d805f-0b16-4ba4-9576-de61a819a737","system_id":"levelo_inurba_marseille","lat":43.28732,"lon":5.36083,"is_reserved":false,"is_disabled":false,"rental_uris":{"android":"levelo://app?vid=552d805f-0b16-4ba4-9576-de61a819a737","ios":"levelo://app?vid=552d805f-0b16-4ba4-9576-de61a819a737"},"vehicle_type_id":"4","last_reported":1784159356,"current_range_meters":39200,"station_id":"cki0cbj6b192h4jlfktg","pricing_plan_id":"cebpf4jnsgd1na2vs0mg"},{"bike_id":"566fbe59-a913-4852-b8c6-c87a418d6fa5","system_id":"levelo_inurba_marseille","lat":43.30643,"lon":5.40077,"is_reserved":false,"is_disabled":false,"rental_uris":{"android":"levelo://app?vid=566fbe59-a913-4852-b8c6-c87a418d6fa5","ios":"levelo://app?vid=566fbe59-a913-4852-b8c6-c87a418d6fa5"},"vehicle_type_id":"4","last_reported":1784159356,"current_range_meters":19200,"station_id":"ce4bh112rcd13ifvqda0","pricing_plan_id":"cebpf4jnsgd1na2vs0mg"},{"bike_id":"bd529bea-55e2-462e-96f2-84ef02ccf732","system_id":"levelo_inurba_marseille","lat":43.31348,"lon":5.38508,"is_reserved":false,"is_disabled":false,"rental_uris":{"android":"levelo://app?vid=bd529bea-55e2-462e-96f2-84ef02ccf732","ios":"levelo://app?vid=bd529bea-55e2-462e-96f2-84ef02ccf732"},"vehicle_type_id":"4","last_reported":1784159356,"current_range_meters":28000,"station_id":"ce4bgt92rcd13ifvqcf0","pricing_plan_id":"cebpf4jnsgd1na2vs0mg"},{"bike_id":"93704dec-746e-4db8-9abc-1e5fc281f374","system_id":"levelo_inurba_marseille","lat":43.32701,"lon":5.4126,"is_reserved":false,"is_disabled":false,"rental_uris":{"android":"levelo://app?vid=93704dec-746e-4db8-9abc-1e5fc281f374","ios":"levelo://app?vid=93704dec-746e-4db8-9abc-1e5fc281f374"},"vehicle_type_id":"4","last_reported":1784159356,"current_range_meters":6000,"station_id":"","pricing_plan_id":"cebpf4jnsgd1na2vs0mg"},{"bike_id":"61287fde-2199-4bd9-90e2-0d1a1479df3b","system_id":"levelo_inurba_marseille","lat":43.30943,"lon":5.39041,"is_reserved":false,"is_disabled":false,"rental_uris":{"android":"levelo://app?vid=61287fde-2199-4bd9-90e2-0d1a1479df3b","ios":"levelo://app?vid=61287fde-2199-4bd9-90e2-0d1a1479df3b"},"vehicle_type_id":"4","last_reported":1784159356,"current_range_meters":36000,"station_id":"ce4bgup2rcd13ifvqco0","pricing_plan_id":"cebpf4jnsgd1na2vs0mg"},{"bike_id":"533a7847-175b-483b-a3d6-015f27e4fcd3","system_id":"levelo_inurba_marseille","lat":43.26023,"lon":5.37552,"is_reserved":false,"is_disabled":false,"rental_uris":{"android":"levelo://app?vid=533a7847-175b-483b-a3d6-015f27e4fcd3","ios":"levelo://app?vid=533a7847-175b-483b-a3d6-015f27e4fcd3"},"vehicle_type_id":"4","last_reported":1784159356,"current_range_meters":39200,"station_id":"ce4bhgh2rcd13ifvqfa0","pricing_plan_id":"cebpf4jnsgd1na2vs0mg"},{"bike_id":"97ecc61b-2144-4534-a2b8-1f1be33fa549","system_id":"levelo_inurba_marseille","lat":43.25562,"lon":5.38241,"is_reserved":false,"is_disabled":false,"rental_uris":{"android":"levelo://app?vid=97ecc61b-2144-4534-a2b8-1f1be33fa549","ios":"levelo://app?vid=97ecc61b-2144-4534-a2b8-1f1be33fa549"},"vehicle_type_id":"4","last_reported":1784159356,"current_range_meters":39200,"station_id":"ce4bhih2rcd13ifvqfs0","pricing_plan_id":"cebpf4jnsgd1na2vs0mg"},{"bike_id":"b2b194ed-86a5-4dc8-b828-5b80e1681197","system_id":"levelo_inurba_marseille","lat":43.28542,"lon":5.44119,"is_reserved":false,"is_disabled":false,"rental_uris":{"android":"levelo://app?vid=b2b194ed-86a5-4dc8-b828-5b80e1681197","ios":"levelo://app?vid=b2b194ed-86a5-4dc8-b828-5b80e1681197"},"vehicle_type_id":"4","last_reported":1784159356,"current_range_meters":27200,"station_id":"st_d3j3df2ikq2c7380ej80","pricing_plan_id":"cebpf4jnsgd1na2vs0mg"},{"bike_id":"576759c3-1406-424b-9f62-4bf1a7428cff","system_id":"levelo_inurba_marseille","lat":43.31008,"lon":5.38304,"is_reserved":false,"is_disabled":false,"rental_uris":{"android":"levelo://app?vid=576759c3-1406-424b-9f62-4bf1a7428cff","ios":"levelo://app?vid=576759c3-1406-424b-9f62-4bf1a7428cff"},"vehicle_type_id":"4","last_reported":1784159356,"current_range_meters":33200,"station_id":"","pricing_plan_id":"cebpf4jnsgd1na2vs0mg"},{"bike_id":"2a93def1-9840-4751-b465-b53bb0ce6123","system_id":"levelo_inurba_marseille","lat":43.2255,"lon":5.41639,"is_reserved":false,"is_disabled":false,"rental_uris":{"android":"levelo://app?vid=2a93def1-9840-4751-b465-b53bb0ce6123","ios":"levelo://app?vid=2a93def1-9840-4751-b465-b53bb0ce6123"},"vehicle_type_id":"4","last_reported":1784159356,"current_range_meters":23200,"station_id":"st_d2o4gvlbi1j2169b742g","pricing_plan_id":"cebpf4jnsgd1na2vs0mg"},{"bike_id":"4a704f50-eef6-4a9a-b6b7-28e63e5355dc","system_id":"levelo_inurba_marseille","lat":43.25083,"lon":5.3952,"is_reserved":false,"is_disabled":false,"rental_uris":{"android":"levelo://app?vid=4a704f50-eef6-4a9a-b6b7-28e63e5355dc","ios":"levelo://app?vid=4a704f50-eef6-4a9a-b6b7-28e63e5355dc"},"vehicle_type_id":"4","last_reported":1784159356,"current_range_meters":14400,"station_id":"ce4bhm12rcd13ifvqgkg","pricing_plan_id":"cebpf4jnsgd1na2vs0mg"},{"bike_id":"2ab8aed6-e4b5-49f6-a596-3523f1008ac8","system_id":"levelo_inurba_marseille","lat":43.28918,"lon":5.38395,"is_reserved":false,"is_disabled":true,"rental_uris":{"android":"levelo://app?vid=2ab8aed6-e4b5-49f6-a596-3523f1008ac8","ios":"levelo://app?vid=2ab8aed6-e4b5-49f6-a596-3523f1008ac8"},"vehicle_type_id":"4","last_reported":1784159356,"current_range_meters":30400,"station_id":"ce4bh612rcd13ifvqe6g","pricing_plan_id":"cebpf4jnsgd1na2vs0mg"},{"bike_id":"10592882-7bed-4bde-a924-b4cdb04c175f","system_id":"levelo_inurba_marseille","lat":43.28151,"lon":5.42645,"is_reserved":false,"is_disabled":false,"rental_uris":{"android":"levelo://app?vid=10592882-7bed-4bde-a924-b4cdb04c175f","ios":"levelo://app?vid=10592882-7bed-4bde-a924-b4cdb04c175f"},"vehicle_type_id":"4","last_reported":1784159356,"current_range_meters":39200,"station_id":"ce4bhnh2rcd13ifvqgug","pricing_plan_id":"cebpf4jnsgd1na2vs0mg"},{"bike_id":"9d11d095-4a32-4b08-939a-b97ebb9a3475","system_id":"levelo_inurba_marseille","lat":43.25492,"lon":5.3766,"is_reserved":false,"is_disabled":false,"rental_uris":{"android":"levelo://app?vid=9d11d095-4a32-4b08-939a-b97ebb9a3475","ios":"levelo://app?vid=9d11d095-4a32-4b08-939a-b97ebb9a3475"},"vehicle_type_id":"4","last_reported":1784159356,"current_range_meters":37600,"station_id":"ce4bhh12rcd13ifvqff0","pricing_plan_id":"cebpf4jnsgd1na2vs0mg"},{"bike_id":"b617c35b-7c51-4687-9948-30e5ef21086e","system_id":"levelo_inurba_marseille","lat":43.287,"lon":5.46684,"is_reserved":false,"is_disabled":false,"rental_uris":{"android":"levelo://app?vid=b617c35b-7c51-4687-9948-30e5ef21086e","ios":"levelo://app?vid=b617c35b-7c51-4687-9948-30e5ef21086e"},"vehicle_type_id":"4","last_reported":1784159356,"current_range_meters":22800,"station_id":"st_d6tc3vkotcvc738tfjhg","pricing_plan_id":"cebpf4jnsgd1na2vs0mg"},{"bike_id":"2833affa-0043-4e75-98a0-706cbbf38050","system_id":"levelo_inurba_marseille","lat":43.3031,"lon":5.36898,"is_reserved":false,"is_disabled":false,"rental_uris":{"android":"levelo://app?vid=2833affa-0043-4e75-98a0-706cbbf38050","ios":"levelo://app?vid=2833affa-0043-4e75-98a0-706cbbf38050"},"vehicle_type_id":"4","last_reported":1784159356,"current_range_meters":39200,"station_id":"ce4bgqh2rcd13ifvqc5g","pricing_plan_id":"cebpf4jnsgd1na2vs0mg"},{"bike_id":"6c392390-9384-415f-8fe5-a2d8df3ecd0c","system_id":"levelo_inurba_marseille","lat":43.30924,"lon":5.40138,"is_reserved":false,"is_disabled":false,"rental_uris":{"android":"levelo://app?vid=6c392390-9384-415f-8fe5-a2d8df3ecd0c","ios":"levelo://app?vid=6c392390-9384-415f-8fe5-a2d8df3ecd0c"},"vehicle_type_id":"4","last_reported":1784159356,"current_range_meters":27200,"station_id":"ce4bgvp2rcd13ifvqct0","pricing_plan_id":"cebpf4jnsgd1na2vs0mg"},{"bike_id":"abd28b51-9db3-4251-8023-1ab1c1cc68c9","system_id":"levelo_inurba_marseille","lat":43.27993,"lon":5.41665,"is_reserved":false,"is_disabled":true,"rental_uris":{"android":"levelo://app?vid=abd28b51-9db3-4251-8023-1ab1c1cc68c9","ios":"levelo://app?vid=abd28b51-9db3-4251-8023-1ab1c1cc68c9"},"vehicle_type_id":"4","last_reported":1784159356,"current_range_meters":28800,"station_id":"ce4bho12rcd13ifvqh1g","pricing_plan_id":"cebpf4jnsgd1na2vs0mg"},{"bike_id":"c4263ce1-faa4-480c-9a84-43f172a43366","system_id":"levelo_inurba_marseille","lat":43.28348,"lon":5.381,"is_reserved":false,"is_disabled":false,"rental_uris":{"android":"levelo://app?vid=c4263ce1-faa4-480c-9a84-43f172a43366","ios":"levelo://app?vid=c4263ce1-faa4-480c-9a84-43f172a43366"},"vehicle_type_id":"4","last_reported":1784159356,"current_range_meters":39200,"station_id":"ce4bh412rcd13ifvqdr0","pricing_plan_id":"cebpf4jnsgd1na2vs0mg"},{"bike_id":"6d32b765-aa0d-46a8-942b-fd272d4b06e6","system_id":"levelo_inurba_marseille","lat":43.27604,"lon":5.36123,"is_reserved":false,"is_disabled":true,"rental_uris":{"android":"levelo://app?vid=6d32b765-aa0d-46a8-942b-fd272d4b06e6","ios":"levelo://app?vid=6d32b765-aa0d-46a8-942b-fd272d4b06e6"},"vehicle_type_id":"4","last_reported":1784159356,"current_range_meters":11200,"station_id":"ce4bgj92rcd13ifvqbe0","pricing_plan_id":"cebpf4jnsgd1na2vs0mg"},{"bike_id":"b10841da-598c-4fa1-87ff-6cdd39ea1f90","system_id":"levelo_inurba_marseille","lat":43.27916,"lon":5.39588,"is_reserved":false,"is_disabled":false,"rental_uris":{"android":"levelo://app?vid=b10841da-598c-4fa1-87ff-6cdd39ea1f90","ios":"levelo://app?vid=b10841da-598c-4fa1-87ff-6cdd39ea1f90"},"vehicle_type_id":"4","last_reported":1784159356,"current_range_meters":38400,"station_id":"ce4bhf92rcd13ifvqf40","pricing_plan_id":"cebpf4jnsgd1na2vs0mg"},{"bike_id":"986052d0-6628-4086-802a-1de3c7030650","system_id":"levelo_inurba_marseille","lat":43.31455,"lon":5.37392,"is_reserved":false,"is_disabled":true,"rental_uris":{"android":"levelo://app?vid=986052d0-6628-4086-802a-1de3c7030650","ios":"levelo://app?vid=986052d0-6628-4086-802a-1de3c7030650"},"vehicle_type_id":"4","last_reported":1784159356,"current_range_meters":0,"station_id":"","pricing_plan_id":"cebpf4jnsgd1na2vs0mg"},{"bike_id":"57889d2e-37dd-4f8f-b3ab-1bc0a62b2215","system_id":"levelo_inurba_marseille","lat":43.30482,"lon":5.37918,"is_reserved":false,"is_disabled":true,"rental_uris":{"android":"levelo://app?vid=57889d2e-37dd-4f8f-b3ab-1bc0a62b2215","ios":"levelo://app?vid=57889d2e-37dd-4f8f-b3ab-1bc0a62b2215"},"vehicle_type_id":"4","last_reported":1784159356,"current_range_meters":24400,"station_id":"ce4bgup2rcd13ifvqcn0","pricing_plan_id":"cebpf4jnsgd1na2vs0mg"},{"bike_id":"c6b62028-2fba-481c-a2b5-507778ec7c93","system_id":"levelo_inurba_marseille","lat":43.31536,"lon":5.41357,"is_reserved":false,"is_disabled":true,"rental_uris":{"android":"levelo://app?vid=c6b62028-2fba-481c-a2b5-507778ec7c93","ios":"levelo://app?vid=c6b62028-2fba-481c-a2b5-507778ec7c93"},"vehicle_type_id":"4","last_reported":1784159356,"current_range_meters":0,"station_id":"","pricing_plan_id":"cebpf4jnsgd1na2vs0mg"},{"bike_id":"b45f0205-96d2-4bd2-8ac9-1d2877b8b6cb","system_id":"levelo_inurba_marseille","lat":43.3087,"lon":5.39625,"is_reserved":false,"is_disabled":false,"rental_uris":{"android":"levelo://app?vid=b45f0205-96d2-4bd2-8ac9-1d2877b8b6cb","ios":"levelo://app?vid=b45f0205-96d2-4bd2-8ac9-1d2877b8b6cb"},"vehicle_type_id":"4","last_reported":1784159356,"current_range_meters":22000,"station_id":"ce4bh012rcd13ifvqcv0","pricing_plan_id":"cebpf4jnsgd1na2vs0mg"},{"bike_id":"963f7e35-78de-427c-9878-e094dd434b23","system_id":"levelo_inurba_marseille","lat":43.30779,"lon":5.37657,"is_reserved":false,"is_disabled":false,"rental_uris":{"android":"levelo://app?vid=963f7e35-78de-427c-9878-e094dd434b23","ios":"levelo://app?vid=963f7e35-78de-427c-9878-e094dd434b23"},"vehicle_type_id":"4","last_reported":1784159356,"current_range_meters":28400,"station_id":"ce4bgv92rcd13ifvqcq0","pricing_plan_id":"cebpf4jnsgd1na2vs0mg"},{"bike_id":"8bddaa2b-5360-4ea5-83ef-c7c01db082bc","system_id":"levelo_inurba_marseille","lat":43.30128,"lon":5.43129,"is_reserved":false,"is_disabled":false,"rental_uris":{"android":"levelo://app?vid=8bddaa2b-5360-4ea5-83ef-c7c01db082bc","ios":"levelo://app?vid=8bddaa2b-5360-4ea5-83ef-c7c01db082bc"},"vehicle_type_id":"4","last_reported":1784159356,"current_range_meters":18800,"station_id":"st_d3js3co5814s73ftftug","pricing_plan_id":"cebpf4jnsgd1na2vs0mg"},{"bike_id":"51905566-557d-413c-97fd-b84daf11e827","system_id":"levelo_inurba_marseille","lat":43.2793,"lon":5.39593,"is_reserved":false,"is_disabled":true,"rental_uris":{"android":"levelo://app?vid=51905566-557d-413c-97fd-b84daf11e827","ios":"levelo://app?vid=51905566-557d-413c-97fd-b84daf11e827"},"vehicle_type_id":"4","last_reported":1784159356,"current_range_meters":35200,"station_id":"ce4bhf92rcd13ifvqf40","pricing_plan_id":"cebpf4jnsgd1na2vs0mg"},{"bike_id":"12efef75-86d1-4e71-901c-eee71c4143ca","system_id":"levelo_inurba_marseille","lat":43.29534,"lon":5.39045,"is_reserved":false,"is_disabled":false,"rental_uris":{"android":"levelo://app?vid=12efef75-86d1-4e71-901c-eee71c4143ca","ios":"levelo://app?vid=12efef75-86d1-4e71-901c-eee71c4143ca"},"vehicle_type_id":"4","last_reported":1784159356,"current_range_meters":39200,"station_id":"ce4bh3p2rcd13ifvqdp0","pricing_plan_id":"cebpf4jnsgd1na2vs0mg"},{"bike_id":"3b625d31-66eb-468c-b322-2aaec385b149","system_id":"levelo_inurba_marseille","lat":43.26045,"lon":5.37553,"is_reserved":false,"is_disabled":false,"rental_uris":{"android":"levelo://app?vid=3b625d31-66eb-468c-b322-2aaec385b149","ios":"levelo://app?vid=3b625d31-66eb-468c-b322-2aaec385b149"},"vehicle_type_id":"4","last_reported":1784159356,"current_range_meters":24800,"station_id":"ce4bhgh2rcd13ifvqfa0","pricing_plan_id":"cebpf4jnsgd1na2vs0mg"},{"bike_id":"e75bb913-8602-4230-a524-0680227b40a9","system_id":"levelo_inurba_marseille","lat":43.29218,"lon":5.40928,"is_reserved":false,"is_disabled":false,"rental_uris":{"android":"levelo://app?vid=e75bb913-8602-4230-a524-0680227b40a9","ios":"levelo://app?vid=e75bb913-8602-4230-a524-0680227b40a9"},"vehicle_type_id":"4","last_reported":1784159356,"current_range_meters":32400,"station_id":"ce4bh192rcd13ifvqdc0","pricing_plan_id":"cebpf4jnsgd1na2vs0mg"},{"bike_id":"6393878f-e954-4e2b-b8a8-9c0f8252eae8","system_id":"levelo_inurba_marseille","lat":43.27959,"lon":5.41035,"is_reserved":false,"is_disabled":true,"rental_uris":{"android":"levelo://app?vid=6393878f-e954-4e2b-b8a8-9c0f8252eae8","ios":"levelo://app?vid=6393878f-e954-4e2b-b8a8-9c0f8252eae8"},"vehicle_type_id":"4","last_reported":1784159356,"current_range_meters":6400,"station_id":"ce4bhnp2rcd13ifvqh0g","pricing_plan_id":"cebpf4jnsgd1na2vs0mg"},{"bike_id":"b5d9c396-44c6-46bd-824f-446527c80c88","system_id":"levelo_inurba_marseille","lat":43.29523,"lon":5.39391,"is_reserved":false,"is_disabled":false,"rental_uris":{"android":"levelo://app?vid=b5d9c396-44c6-46bd-824f-446527c80c88","ios":"levelo://app?vid=b5d9c396-44c6-46bd-824f-446527c80c88"},"vehicle_type_id":"4","last_reported":1784159356,"current_range_meters":27200,"station_id":"ce4bh292rcd13ifvqdf0","pricing_plan_id":"cebpf4jnsgd1na2vs0mg"},{"bike_id":"96825e0c-14e6-44a1-9638-22706c4a0540","system_id":"levelo_inurba_marseille","lat":43.27215,"lon":5.39191,"is_reserved":false,"is_disabled":true,"rental_uris":{"android":"levelo://app?vid=96825e0c-14e6-44a1-9638-22706c4a0540","ios":"levelo://app?vid=96825e0c-14e6-44a1-9638-22706c4a0540"},"vehicle_type_id":"4","last_reported":1784159356,"current_range_meters":16400,"station_id":"ce4bhhp2rcd13ifvqfm0","pricing_plan_id":"cebpf4jnsgd1na2vs0mg"},{"bike_id":"58f60e07-17ed-4b6c-a936-d1af0e336e55","system_id":"levelo_inurba_marseille","lat":43.258294,"lon":5.394396,"is_reserved":false,"is_disabled":false,"rental_uris":{"android":"levelo://app?vid=58f60e07-17ed-4b6c-a936-d1af0e336e55","ios":"levelo://app?vid=58f60e07-17ed-4b6c-a936-d1af0e336e55"},"vehicle_type_id":"4","last_reported":1784159356,"current_range_meters":38000,"station_id":"ce4bhip2rcd13ifvqft0","pricing_plan_id":"cebpf4jnsgd1na2vs0mg"},{"bike_id":"1d06f609-a4dd-4a48-b04c-b8a32f7f61cb","system_id":"levelo_inurba_marseille","lat":43.28672,"lon":5.36347,"is_reserved":false,"is_disabled":false,"rental_uris":{"android":"levelo://app?vid=1d06f609-a4dd-4a48-b04c-b8a32f7f61cb","ios":"levelo://app?vid=1d06f609-a4dd-4a48-b04c-b8a32f7f61cb"},"vehicle_type_id":"4","last_reported":1784159356,"current_range_meters":39200,"station_id":"ce4bhah2rcd13ifvqej0","pricing_plan_id":"cebpf4jnsgd1na2vs0mg"},{"bike_id":"3897b37b-5ebf-4f3a-8458-0d1f0b06c771","system_id":"levelo_inurba_marseille","lat":43.30521,"lon":5.36672,"is_reserved":false,"is_disabled":false,"rental_uris":{"android":"levelo://app?vid=3897b37b-5ebf-4f3a-8458-0d1f0b06c771","ios":"levelo://app?vid=3897b37b-5ebf-4f3a-8458-0d1f0b06c771"},"vehicle_type_id":"4","last_reported":1784159356,"current_range_meters":6400,"station_id":"","pricing_plan_id":"cebpf4jnsgd1na2vs0mg"},{"bike_id":"7501a6ba-1e83-4d1e-9471-fbdafd1731ca","system_id":"levelo_inurba_marseille","lat":43.30606,"lon":5.37229,"is_reserved":false,"is_disabled":false,"rental_uris":{"android":"levelo://app?vid=7501a6ba-1e83-4d1e-9471-fbdafd1731ca","ios":"levelo://app?vid=7501a6ba-1e83-4d1e-9471-fbdafd1731ca"},"vehicle_type_id":"4","last_reported":1784159356,"current_range_meters":36000,"station_id":"ce4bgqh2rcd13ifvqc4g","pricing_plan_id":"cebpf4jnsgd1na2vs0mg"},{"bike_id":"9945d993-577c-4caa-9f25-c17b3085dd0d","system_id":"levelo_inurba_marseille","lat":43.31441,"lon":5.37411,"is_reserved":false,"is_disabled":false,"rental_uris":{"android":"levelo://app?vid=9945d993-577c-4caa-9f25-c17b3085dd0d","ios":"levelo://app?vid=9945d993-577c-4caa-9f25-c17b3085dd0d"},"vehicle_type_id":"4","last_reported":1784159356,"current_range_meters":9200,"station_id":"","pricing_plan_id":"cebpf4jnsgd1na2vs0mg"},{"bike_id":"b690cb30-563f-410d-aac5-41d05e78c295","system_id":"levelo_inurba_marseille","lat":43.24832,"lon":5.37473,"is_reserved":false,"is_disabled":false,"rental_uris":{"android":"levelo://app?vid=b690cb30-563f-410d-aac5-41d05e78c295","ios":"levelo://app?vid=b690cb30-563f-410d-aac5-41d05e78c295"},"vehicle_type_id":"4","last_reported":1784159356,"current_range_meters":22800,"station_id":"","pricing_plan_id":"cebpf4jnsgd1na2vs0mg"},{"bike_id":"5cd8d48c-0929-46a1-9f9c-0ca6f599350c","system_id":"levelo_inurba_marseille","lat":43.29563,"lon":5.39992,"is_reserved":false,"is_disabled":false,"rental_uris":{"android":"levelo://app?vid=5cd8d48c-0929-46a1-9f9c-0ca6f599350c","ios":"levelo://app?vid=5cd8d48c-0929-46a1-9f9c-0ca6f599350c"},"vehicle_type_id":"4","last_reported":1784159356,"current_range_meters":26800,"station_id":"ce4bh312rcd13ifvqdj0","pricing_plan_id":"cebpf4jnsgd1na2vs0mg"},{"bike_id":"87cd80c1-765a-40d8-8380-43b47cab9508","system_id":"levelo_inurba_marseille","lat":43.28655,"lon":5.36352,"is_reserved":false,"is_disabled":false,"rental_uris":{"android":"levelo://app?vid=87cd80c1-765a-40d8-8380-43b47cab9508","ios":"levelo://app?vid=87cd80c1-765a-40d8-8380-43b47cab9508"},"vehicle_type_id":"4","last_reported":1784159356,"current_range_meters":32800,"station_id":"ce4bhah2rcd13ifvqej0","pricing_plan_id":"cebpf4jnsgd1na2vs0mg"},{"bike_id":"93f173f0-b5e7-453c-b62d-5cea08429256","system_id":"levelo_inurba_marseille","lat":43.29209,"lon":5.35834,"is_reserved":false,"is_disabled":true,"rental_uris":{"android":"levelo://app?vid=93f173f0-b5e7-453c-b62d-5cea08429256","ios":"levelo://app?vid=93f173f0-b5e7-453c-b62d-5cea08429256"},"vehicle_type_id":"4","last_reported":1784159356,"current_range_meters":35200,"station_id":"ce4bhb12rcd13ifvqel0","pricing_plan_id":"cebpf4jnsgd1na2vs0mg"},{"bike_id":"c05e8784-2da4-4b67-9d12-8ee978734878","system_id":"levelo_inurba_marseille","lat":43.26565,"lon":5.40352,"is_reserved":false,"is_disabled":false,"rental_uris":{"android":"levelo://app?vid=c05e8784-2da4-4b67-9d12-8ee978734878","ios":"levelo://app?vid=c05e8784-2da4-4b67-9d12-8ee978734878"},"vehicle_type_id":"4","last_reported":1784159356,"current_range_meters":8400,"station_id":"ce4bhmp2rcd13ifvqgng","pricing_plan_id":"cebpf4jnsgd1na2vs0mg"},{"bike_id":"935dc5cd-1d54-4d1e-8181-36b46070ea9e","system_id":"levelo_inurba_marseille","lat":43.27958,"lon":5.41039,"is_reserved":false,"is_disabled":false,"rental_uris":{"android":"levelo://app?vid=935dc5cd-1d54-4d1e-8181-36b46070ea9e","ios":"levelo://app?vid=935dc5cd-1d54-4d1e-8181-36b46070ea9e"},"vehicle_type_id":"4","last_reported":1784159356,"current_range_meters":23200,"station_id":"ce4bhnp2rcd13ifvqh0g","pricing_plan_id":"cebpf4jnsgd1na2vs0mg"},{"bike_id":"c0c12634-da58-4425-89c7-83dd3f1069a6","system_id":"levelo_inurba_marseille","lat":43.32108,"lon":5.36772,"is_reserved":false,"is_disabled":false,"rental_uris":{"android":"levelo://app?vid=c0c12634-da58-4425-89c7-83dd3f1069a6","ios":"levelo://app?vid=c0c12634-da58-4425-89c7-83dd3f1069a6"},"vehicle_type_id":"4","last_reported":1784159356,"current_range_meters":7200,"station_id":"ce4bhrh2rcd13ifvqhug","pricing_plan_id":"cebpf4jnsgd1na2vs0mg"},{"bike_id":"8ebea892-706c-47dd-875e-d569386cdfa3","system_id":"levelo_inurba_marseille","lat":43.24661,"lon":5.38169,"is_reserved":false,"is_disabled":false,"rental_uris":{"android":"levelo://app?vid=8ebea892-706c-47dd-875e-d569386cdfa3","ios":"levelo://app?vid=8ebea892-706c-47dd-875e-d569386cdfa3"},"vehicle_type_id":"4","last_reported":1784159356,"current_range_meters":10000,"station_id":"ce4bhih2rcd13ifvqfr0","pricing_plan_id":"cebpf4jnsgd1na2vs0mg"},{"bike_id":"c21e3ebb-49a3-4bfb-8769-8d535067f0b7","system_id":"levelo_inurba_marseille","lat":43.31085,"lon":5.38585,"is_reserved":false,"is_disabled":false,"rental_uris":{"android":"levelo://app?vid=c21e3ebb-49a3-4bfb-8769-8d535067f0b7","ios":"levelo://app?vid=c21e3ebb-49a3-4bfb-8769-8d535067f0b7"},"vehicle_type_id":"4","last_reported":1784159356,"current_range_meters":27200,"station_id":"","pricing_plan_id":"cebpf4jnsgd1na2vs0mg"},{"bike_id":"eb58ab90-ce55-4c60-8055-75f998323481","system_id":"levelo_inurba_marseille","lat":43.25477,"lon":5.37654,"is_reserved":false,"is_disabled":false,"rental_uris":{"android":"levelo://app?vid=eb58ab90-ce55-4c60-8055-75f998323481","ios":"levelo://app?vid=eb58ab90-ce55-4c60-8055-75f998323481"},"vehicle_type_id":"4","last_reported":1784159356,"current_range_meters":29600,"station_id":"ce4bhh12rcd13ifvqff0","pricing_plan_id":"cebpf4jnsgd1na2vs0mg"},{"bike_id":"4a26c072-0421-420b-837a-ab79a476a507","system_id":"levelo_inurba_marseille","lat":43.26549,"lon":5.3904,"is_reserved":false,"is_disabled":false,"rental_uris":{"android":"levelo://app?vid=4a26c072-0421-420b-837a-ab79a476a507","ios":"levelo://app?vid=4a26c072-0421-420b-837a-ab79a476a507"},"vehicle_type_id":"4","last_reported":1784159356,"current_range_meters":3600,"station_id":"ce4bhe12rcd13ifvqf30","pricing_plan_id":"cebpf4jnsgd1na2vs0mg"},{"bike_id":"3738e680-7c4f-4247-aff7-d2b3eea5a73a","system_id":"levelo_inurba_marseille","lat":43.22545,"lon":5.34854,"is_reserved":false,"is_disabled":false,"rental_uris":{"android":"levelo://app?vid=3738e680-7c4f-4247-aff7-d2b3eea5a73a","ios":"levelo://app?vid=3738e680-7c4f-4247-aff7-d2b3eea5a73a"},"vehicle_type_id":"4","last_reported":1784159356,"current_range_meters":30400,"station_id":"st_cvj5dfep6f1abm77gieg","pricing_plan_id":"cebpf4jnsgd1na2vs0mg"},{"bike_id":"d97c609b-426e-4c53-b709-2c63dfa43425","system_id":"levelo_inurba_marseille","lat":43.28595,"lon":5.37072,"is_reserved":false,"is_disabled":true,"rental_uris":{"android":"levelo://app?vid=d97c609b-426e-4c53-b709-2c63dfa43425","ios":"levelo://app?vid=d97c609b-426e-4c53-b709-2c63dfa43425"},"vehicle_type_id":"4","last_reported":1784159356,"current_range_meters":0,"station_id":"ce4bht12rcd13ifvqi60","pricing_plan_id":"cebpf4jnsgd1na2vs0mg"},{"bike_id":"5d694794-9cfb-4504-b5a4-41c2095511c4","system_id":"levelo_inurba_marseille","lat":43.28425,"lon":5.3754,"is_reserved":false,"is_disabled":false,"rental_uris":{"android":"levelo://app?vid=5d694794-9cfb-4504-b5a4-41c2095511c4","ios":"levelo://app?vid=5d694794-9cfb-4504-b5a4-41c2095511c4"},"vehicle_type_id":"4","last_reported":1784159356,"current_range_meters":39200,"station_id":"ce4bh412rcd13ifvqds0","pricing_plan_id":"cebpf4jnsgd1na2vs0mg"},{"bike_id":"5e6b3d0f-0390-41da-a81c-1ae1a216b11d","system_id":"levelo_inurba_marseille","lat":43.30424,"lon":5.41295,"is_reserved":false,"is_disabled":false,"rental_uris":{"android":"levelo://app?vid=5e6b3d0f-0390-41da-a81c-1ae1a216b11d","ios":"levelo://app?vid=5e6b3d0f-0390-41da-a81c-1ae1a216b11d"},"vehicle_type_id":"4","last_reported":1784159356,"current_range_meters":33600,"station_id":"ce4bhop2rcd13ifvqh8g","pricing_plan_id":"cebpf4jnsgd1na2vs0mg"},{"bike_id":"127041c9-3057-4763-bbb4-ce7f0d1a2d71","system_id":"levelo_inurba_marseille","lat":43.337662,"lon":5.374328,"is_reserved":false,"is_disabled":false,"rental_uris":{"android":"levelo://app?vid=127041c9-3057-4763-bbb4-ce7f0d1a2d71","ios":"levelo://app?vid=127041c9-3057-4763-bbb4-ce7f0d1a2d71"},"vehicle_type_id":"4","last_reported":1784159356,"current_range_meters":16800,"station_id":"","pricing_plan_id":"cebpf4jnsgd1na2vs0mg"},{"bike_id":"eaa2f425-0b8e-4abc-aff5-1e5643ff75c3","system_id":"levelo_inurba_marseille","lat":43.2697,"lon":5.36649,"is_reserved":false,"is_disabled":true,"rental_uris":{"android":"levelo://app?vid=eaa2f425-0b8e-4abc-aff5-1e5643ff75c3","ios":"levelo://app?vid=eaa2f425-0b8e-4abc-aff5-1e5643ff75c3"},"vehicle_type_id":"4","last_reported":1784159356,"current_range_meters":0,"station_id":"","pricing_plan_id":"cebpf4jnsgd1na2vs0mg"},{"bike_id":"6ab806e5-1482-44b8-97b4-a9e54df097e1","system_id":"levelo_inurba_marseille","lat":43.30308,"lon":5.36896,"is_reserved":false,"is_disabled":false,"rental_uris":{"android":"levelo://app?vid=6ab806e5-1482-44b8-97b4-a9e54df097e1","ios":"levelo://app?vid=6ab806e5-1482-44b8-97b4-a9e54df097e1"},"vehicle_type_id":"4","last_reported":1784159356,"current_range_meters":35200,"station_id":"ce4bgqh2rcd13ifvqc5g","pricing_plan_id":"cebpf4jnsgd1na2vs0mg"},{"bike_id":"3b93d7f4-bc8b-476c-bed7-718f95233c6c","system_id":"levelo_inurba_marseille","lat":43.28094,"lon":5.37847,"is_reserved":false,"is_disabled":false,"rental_uris":{"android":"levelo://app?vid=3b93d7f4-bc8b-476c-bed7-718f95233c6c","ios":"levelo://app?vid=3b93d7f4-bc8b-476c-bed7-718f95233c6c"},"vehicle_type_id":"4","last_reported":1784159356,"current_range_meters":30400,"station_id":"ce4bha12rcd13ifvqee0","pricing_plan_id":"cebpf4jnsgd1na2vs0mg"},{"bike_id":"3218b910-5569-44cc-9889-6689e1472d14","system_id":"levelo_inurba_marseille","lat":43.30747,"lon":5.42449,"is_reserved":false,"is_disabled":false,"rental_uris":{"android":"levelo://app?vid=3218b910-5569-44cc-9889-6689e1472d14","ios":"levelo://app?vid=3218b910-5569-44cc-9889-6689e1472d14"},"vehicle_type_id":"4","last_reported":1784159356,"current_range_meters":28800,"station_id":"st_cvj6ca6bvosntc0bfgr0","pricing_plan_id":"cebpf4jnsgd1na2vs0mg"},{"bike_id":"3be55253-0925-4ed4-b384-8be188bdc3c3","system_id":"levelo_inurba_marseille","lat":43.28541,"lon":5.39528,"is_reserved":false,"is_disabled":false,"rental_uris":{"android":"levelo://app?vid=3be55253-0925-4ed4-b384-8be188bdc3c3","ios":"levelo://app?vid=3be55253-0925-4ed4-b384-8be188bdc3c3"},"vehicle_type_id":"4","last_reported":1784159356,"current_range_meters":39200,"station_id":"ce4bh292rcd13ifvqdg0","pricing_plan_id":"cebpf4jnsgd1na2vs0mg"},{"bike_id":"78838c0a-be65-4d2a-85c5-92571ee70f5f","system_id":"levelo_inurba_marseille","lat":43.28905,"lon":5.38388,"is_reserved":false,"is_disabled":false,"rental_uris":{"android":"levelo://app?vid=78838c0a-be65-4d2a-85c5-92571ee70f5f","ios":"levelo://app?vid=78838c0a-be65-4d2a-85c5-92571ee70f5f"},"vehicle_type_id":"4","last_reported":1784159356,"current_range_meters":39200,"station_id":"ce4bh612rcd13ifvqe6g","pricing_plan_id":"cebpf4jnsgd1na2vs0mg"},{"bike_id":"7551790c-7aa2-4519-b300-cbe1154c2749","system_id":"levelo_inurba_marseille","lat":43.26925,"lon":5.40282,"is_reserved":false,"is_disabled":false,"rental_uris":{"android":"levelo://app?vid=7551790c-7aa2-4519-b300-cbe1154c2749","ios":"levelo://app?vid=7551790c-7aa2-4519-b300-cbe1154c2749"},"vehicle_type_id":"4","last_reported":1784159356,"current_range_meters":16800,"station_id":"cjm6bp8fraef2m0cb0m0","pricing_plan_id":"cebpf4jnsgd1na2vs0mg"},{"bike_id":"af8e899d-1d46-40ee-a0d7-1c8ce9a4528e","system_id":"levelo_inurba_marseille","lat":43.27548,"lon":5.38429,"is_reserved":false,"is_disabled":false,"rental_uris":{"android":"levelo://app?vid=af8e899d-1d46-40ee-a0d7-1c8ce9a4528e","ios":"levelo://app?vid=af8e899d-1d46-40ee-a0d7-1c8ce9a4528e"},"vehicle_type_id":"4","last_reported":1784159356,"current_range_meters":38800,"station_id":"ce4bhh92rcd13ifvqfi0","pricing_plan_id":"cebpf4jnsgd1na2vs0mg"},{"bike_id":"d1ecb1bc-decb-4a49-8af7-7f5db8aab7e8","system_id":"levelo_inurba_marseille","lat":43.29189,"lon":5.36812,"is_reserved":false,"is_disabled":false,"rental_uris":{"android":"levelo://app?vid=d1ecb1bc-decb-4a49-8af7-7f5db8aab7e8","ios":"levelo://app?vid=d1ecb1bc-decb-4a49-8af7-7f5db8aab7e8"},"vehicle_type_id":"4","last_reported":1784159356,"current_range_meters":32000,"station_id":"","pricing_plan_id":"cebpf4jnsgd1na2vs0mg"},{"bike_id":"85bb93e5-9e0f-4629-8297-d2ea9348f323","system_id":"levelo_inurba_marseille","lat":43.29029,"lon":5.37578,"is_reserved":false,"is_disabled":false,"rental_uris":{"android":"levelo://app?vid=85bb93e5-9e0f-4629-8297-d2ea9348f323","ios":"levelo://app?vid=85bb93e5-9e0f-4629-8297-d2ea9348f323"},"vehicle_type_id":"4","last_reported":1784159356,"current_range_meters":28800,"station_id":"ce4bh692rcd13ifvqe90","pricing_plan_id":"cebpf4jnsgd1na2vs0mg"},{"bike_id":"27ce9d80-bd6b-4e10-a265-a48b1391e250","system_id":"levelo_inurba_marseille","lat":43.33782,"lon":5.37444,"is_reserved":false,"is_disabled":false,"rental_uris":{"android":"levelo://app?vid=27ce9d80-bd6b-4e10-a265-a48b1391e250","ios":"levelo://app?vid=27ce9d80-bd6b-4e10-a265-a48b1391e250"},"vehicle_type_id":"4","last_reported":1784159356,"current_range_meters":36800,"station_id":"","pricing_plan_id":"cebpf4jnsgd1na2vs0mg"},{"bike_id":"8427e0af-d4af-4fb4-89c0-875197efc945","system_id":"levelo_inurba_marseille","lat":43.26505,"lon":5.39553,"is_reserved":false,"is_disabled":false,"rental_uris":{"android":"levelo://app?vid=8427e0af-d4af-4fb4-89c0-875197efc945","ios":"levelo://app?vid=8427e0af-d4af-4fb4-89c0-875197efc945"},"vehicle_type_id":"4","last_reported":1784159356,"current_range_meters":39200,"station_id":"ce4bhi12rcd13ifvqfq0","pricing_plan_id":"cebpf4jnsgd1na2vs0mg"},{"bike_id":"4c445abe-25ad-466b-a445-744bf62fbea8","system_id":"levelo_inurba_marseille","lat":43.24369,"lon":5.37089,"is_reserved":false,"is_disabled":true,"rental_uris":{"android":"levelo://app?vid=4c445abe-25ad-466b-a445-744bf62fbea8","ios":"levelo://app?vid=4c445abe-25ad-466b-a445-744bf62fbea8"},"vehicle_type_id":"4","last_reported":1784159356,"current_range_meters":39200,"station_id":"ce4bhhh2rcd13ifvqfk0","pricing_plan_id":"cebpf4jnsgd1na2vs0mg"},{"bike_id":"eddc32ac-2b9a-42fe-9a92-fc81aceb5ce8","system_id":"levelo_inurba_marseille","lat":43.28466,"lon":5.35889,"is_reserved":false,"is_disabled":false,"rental_uris":{"android":"levelo://app?vid=eddc32ac-2b9a-42fe-9a92-fc81aceb5ce8","ios":"levelo://app?vid=eddc32ac-2b9a-42fe-9a92-fc81aceb5ce8"},"vehicle_type_id":"4","last_reported":1784159356,"current_range_meters":30400,"station_id":"ce4bhah2rcd13ifvqei0","pricing_plan_id":"cebpf4jnsgd1na2vs0mg"},{"bike_id":"85aa1803-8127-4970-ad73-f8de39bdfbb8","system_id":"levelo_inurba_marseille","lat":43.32497,"lon":5.38263,"is_reserved":false,"is_disabled":false,"rental_uris":{"android":"levelo://app?vid=85aa1803-8127-4970-ad73-f8de39bdfbb8","ios":"levelo://app?vid=85aa1803-8127-4970-ad73-f8de39bdfbb8"},"vehicle_type_id":"4","last_reported":1784159356,"current_range_meters":17200,"station_id":"st_d4asgbiv49dc73anf9m0","pricing_plan_id":"cebpf4jnsgd1na2vs0mg"},{"bike_id":"c0b82ba1-8287-4044-be57-abf8ee9f0327","system_id":"levelo_inurba_marseille","lat":43.30787,"lon":5.38164,"is_reserved":false,"is_disabled":false,"rental_uris":{"android":"levelo://app?vid=c0b82ba1-8287-4044-be57-abf8ee9f0327","ios":"levelo://app?vid=c0b82ba1-8287-4044-be57-abf8ee9f0327"},"vehicle_type_id":"4","last_reported":1784159356,"current_range_meters":2800,"station_id":"ce4bgt12rcd13ifvqce0","pricing_plan_id":"cebpf4jnsgd1na2vs0mg"},{"bike_id":"e39132f9-4263-4e36-a763-40d5440eb746","system_id":"levelo_inurba_marseille","lat":43.30796,"lon":5.3816,"is_reserved":false,"is_disabled":false,"rental_uris":{"android":"levelo://app?vid=e39132f9-4263-4e36-a763-40d5440eb746","ios":"levelo://app?vid=e39132f9-4263-4e36-a763-40d5440eb746"},"vehicle_type_id":"4","last_reported":1784159356,"current_range_meters":34000,"station_id":"ce4bgt12rcd13ifvqce0","pricing_plan_id":"cebpf4jnsgd1na2vs0mg"},{"bike_id":"f1224380-ec41-45e9-ac9e-aec8b7ef04f6","system_id":"levelo_inurba_marseille","lat":43.29013,"lon":5.39986,"is_reserved":false,"is_disabled":false,"rental_uris":{"android":"levelo://app?vid=f1224380-ec41-45e9-ac9e-aec8b7ef04f6","ios":"levelo://app?vid=f1224380-ec41-45e9-ac9e-aec8b7ef04f6"},"vehicle_type_id":"4","last_reported":1784159356,"current_range_meters":39200,"station_id":"ce4bh392rcd13ifvqdm0","pricing_plan_id":"cebpf4jnsgd1na2vs0mg"},{"bike_id":"0f34ff65-c41a-414e-929b-c51a425f3622","system_id":"levelo_inurba_marseille","lat":43.27487,"lon":5.42552,"is_reserved":false,"is_disabled":false,"rental_uris":{"android":"levelo://app?vid=0f34ff65-c41a-414e-929b-c51a425f3622","ios":"levelo://app?vid=0f34ff65-c41a-414e-929b-c51a425f3622"},"vehicle_type_id":"4","last_reported":1784159356,"current_range_meters":8400,"station_id":"st_d8t4bh7nbrqs73arha60","pricing_plan_id":"cebpf4jnsgd1na2vs0mg"},{"bike_id":"ecc295da-e6e3-4b72-af91-092433c094df","system_id":"levelo_inurba_marseille","lat":43.29533,"lon":5.3856,"is_reserved":false,"is_disabled":false,"rental_uris":{"android":"levelo://app?vid=ecc295da-e6e3-4b72-af91-092433c094df","ios":"levelo://app?vid=ecc295da-e6e3-4b72-af91-092433c094df"},"vehicle_type_id":"4","last_reported":1784159356,"current_range_meters":27600,"station_id":"ce4bgih2rcd13ifvqba0","pricing_plan_id":"cebpf4jnsgd1na2vs0mg"},{"bike_id":"8c8bf4af-ada5-4806-9785-4eaa67398e78","system_id":"levelo_inurba_marseille","lat":43.26362,"lon":5.41084,"is_reserved":false,"is_disabled":false,"rental_uris":{"android":"levelo://app?vid=8c8bf4af-ada5-4806-9785-4eaa67398e78","ios":"levelo://app?vid=8c8bf4af-ada5-4806-9785-4eaa67398e78"},"vehicle_type_id":"4","last_reported":1784159356,"current_range_meters":27200,"station_id":"st_d4e5ca6na9uc73bfl5fg","pricing_plan_id":"cebpf4jnsgd1na2vs0mg"},{"bike_id":"810007c7-85f8-4310-9f5b-83ba62e60685","system_id":"levelo_inurba_marseille","lat":43.29621,"lon":5.4061,"is_reserved":false,"is_disabled":false,"rental_uris":{"android":"levelo://app?vid=810007c7-85f8-4310-9f5b-83ba62e60685","ios":"levelo://app?vid=810007c7-85f8-4310-9f5b-83ba62e60685"},"vehicle_type_id":"4","last_reported":1784159356,"current_range_meters":18800,"station_id":"ce4bh0h2rcd13ifvqd60","pricing_plan_id":"cebpf4jnsgd1na2vs0mg"},{"bike_id":"a1a49a0f-469c-4e85-8390-627225eedaf2","system_id":"levelo_inurba_marseille","lat":43.29515,"lon":5.39407,"is_reserved":false,"is_disabled":false,"rental_uris":{"android":"levelo://app?vid=a1a49a0f-469c-4e85-8390-627225eedaf2","ios":"levelo://app?vid=a1a49a0f-469c-4e85-8390-627225eedaf2"},"vehicle_type_id":"4","last_reported":1784159356,"current_range_meters":38000,"station_id":"ce4bh292rcd13ifvqdf0","pricing_plan_id":"cebpf4jnsgd1na2vs0mg"},{"bike_id":"7c7285a6-d660-4ebb-bb7f-82706cf6b75c","system_id":"levelo_inurba_marseille","lat":43.29817,"lon":5.40398,"is_reserved":false,"is_disabled":false,"rental_uris":{"android":"levelo://app?vid=7c7285a6-d660-4ebb-bb7f-82706cf6b75c","ios":"levelo://app?vid=7c7285a6-d660-4ebb-bb7f-82706cf6b75c"},"vehicle_type_id":"4","last_reported":1784159356,"current_range_meters":8400,"station_id":"ce4bh112rcd13ifvqd90","pricing_plan_id":"cebpf4jnsgd1na2vs0mg"},{"bike_id":"de086767-1e3a-4071-910c-487f3a439953","system_id":"levelo_inurba_marseille","lat":43.29584,"lon":5.37771,"is_reserved":false,"is_disabled":true,"rental_uris":{"android":"levelo://app?vid=de086767-1e3a-4071-910c-487f3a439953","ios":"levelo://app?vid=de086767-1e3a-4071-910c-487f3a439953"},"vehicle_type_id":"4","last_reported":1784159356,"current_range_meters":25600,"station_id":"","pricing_plan_id":"cebpf4jnsgd1na2vs0mg"},{"bike_id":"b4b7cf45-857d-499f-903c-2153de8727c5","system_id":"levelo_inurba_marseille","lat":43.32478,"lon":5.36578,"is_reserved":false,"is_disabled":false,"rental_uris":{"android":"levelo://app?vid=b4b7cf45-857d-499f-903c-2153de8727c5","ios":"levelo://app?vid=b4b7cf45-857d-499f-903c-2153de8727c5"},"vehicle_type_id":"4","last_reported":1784159356,"current_range_meters":7200,"station_id":"ce4bhs12rcd13ifvqhvg","pricing_plan_id":"cebpf4jnsgd1na2vs0mg"},{"bike_id":"2fa95ab6-8fa9-4190-89d9-c18828602389","system_id":"levelo_inurba_marseille","lat":43.31325,"lon":5.39716,"is_reserved":false,"is_disabled":false,"rental_uris":{"android":"levelo://app?vid=2fa95ab6-8fa9-4190-89d9-c18828602389","ios":"levelo://app?vid=2fa95ab6-8fa9-4190-89d9-c18828602389"},"vehicle_type_id":"4","last_reported":1784159356,"current_range_meters":39200,"station_id":"ce4bgvp2rcd13ifvqcu0","pricing_plan_id":"cebpf4jnsgd1na2vs0mg"},{"bike_id":"c84aef38-3b44-4f7f-aef4-bb78024c1c98","system_id":"levelo_inurba_marseille","lat":43.25509,"lon":5.37678,"is_reserved":false,"is_disabled":false,"rental_uris":{"android":"levelo://app?vid=c84aef38-3b44-4f7f-aef4-bb78024c1c98","ios":"levelo://app?vid=c84aef38-3b44-4f7f-aef4-bb78024c1c98"},"vehicle_type_id":"4","last_reported":1784159356,"current_range_meters":39200,"station_id":"ce4bhh12rcd13ifvqff0","pricing_plan_id":"cebpf4jnsgd1na2vs0mg"},{"bike_id":"de33586d-1ad6-43fb-abac-eff95af90a64","system_id":"levelo_inurba_marseille","lat":43.26042,"lon":5.37566,"is_reserved":false,"is_disabled":true,"rental_uris":{"android":"levelo://app?vid=de33586d-1ad6-43fb-abac-eff95af90a64","ios":"levelo://app?vid=de33586d-1ad6-43fb-abac-eff95af90a64"},"vehicle_type_id":"4","last_reported":1784159356,"current_range_meters":28000,"station_id":"ce4bhgh2rcd13ifvqfa0","pricing_plan_id":"cebpf4jnsgd1na2vs0mg"},{"bike_id":"89847ec5-d323-4491-a78d-67c169cbd924","system_id":"levelo_inurba_marseille","lat":43.28283,"lon":5.35059,"is_reserved":false,"is_disabled":false,"rental_uris":{"android":"levelo://app?vid=89847ec5-d323-4491-a78d-67c169cbd924","ios":"levelo://app?vid=89847ec5-d323-4491-a78d-67c169cbd924"},"vehicle_type_id":"4","last_reported":1784159356,"current_range_meters":39200,"station_id":"ce4bhbp2rcd13ifvqerg","pricing_plan_id":"cebpf4jnsgd1na2vs0mg"},{"bike_id":"6bfecd8b-bb08-41a1-97e0-66de0c033905","system_id":"levelo_inurba_marseille","lat":43.30123,"lon":5.39879,"is_reserved":false,"is_disabled":true,"rental_uris":{"android":"levelo://app?vid=6bfecd8b-bb08-41a1-97e0-66de0c033905","ios":"levelo://app?vid=6bfecd8b-bb08-41a1-97e0-66de0c033905"},"vehicle_type_id":"4","last_reported":1784159356,"current_range_meters":12000,"station_id":"ce4bh0h2rcd13ifvqd40","pricing_plan_id":"cebpf4jnsgd1na2vs0mg"},{"bike_id":"09147d1f-918f-40e1-8096-444fb894c241","system_id":"levelo_inurba_marseille","lat":43.269268,"lon":5.389179,"is_reserved":false,"is_disabled":false,"rental_uris":{"android":"levelo://app?vid=09147d1f-918f-40e1-8096-444fb894c241","ios":"levelo://app?vid=09147d1f-918f-40e1-8096-444fb894c241"},"vehicle_type_id":"4","last_reported":1784159356,"current_range_meters":36400,"station_id":"ce4bhhh2rcd13ifvqfl0","pricing_plan_id":"cebpf4jnsgd1na2vs0mg"},{"bike_id":"13652050-b2e1-4225-9cf4-5b4af3b19551","system_id":"levelo_inurba_marseille","lat":43.3374,"lon":5.37486,"is_reserved":false,"is_disabled":false,"rental_uris":{"android":"levelo://app?vid=13652050-b2e1-4225-9cf4-5b4af3b19551","ios":"levelo://app?vid=13652050-b2e1-4225-9cf4-5b4af3b19551"},"vehicle_type_id":"4","last_reported":1784159356,"current_range_meters":14400,"station_id":"","pricing_plan_id":"cebpf4jnsgd1na2vs0mg"},{"bike_id":"51715928-b767-4063-bdf7-2027d9b3bc27","system_id":"levelo_inurba_marseille","lat":43.27492,"lon":5.42457,"is_reserved":false,"is_disabled":false,"rental_uris":{"android":"levelo://app?vid=51715928-b767-4063-bdf7-2027d9b3bc27","ios":"levelo://app?vid=51715928-b767-4063-bdf7-2027d9b3bc27"},"vehicle_type_id":"4","last_reported":1784159356,"current_range_meters":39200,"station_id":"ce4bhn92rcd13ifvqgrg","pricing_plan_id":"cebpf4jnsgd1na2vs0mg"},{"bike_id":"a25b858b-4a88-484f-96d4-90395ea62528","system_id":"levelo_inurba_marseille","lat":43.337603,"lon":5.37433,"is_reserved":false,"is_disabled":false,"rental_uris":{"android":"levelo://app?vid=a25b858b-4a88-484f-96d4-90395ea62528","ios":"levelo://app?vid=a25b858b-4a88-484f-96d4-90395ea62528"},"vehicle_type_id":"4","last_reported":1784159356,"current_range_meters":27200,"station_id":"","pricing_plan_id":"cebpf4jnsgd1na2vs0mg"},{"bike_id":"eadbf5e7-6bfc-4e3a-b0e9-0f3c75f13d91","system_id":"levelo_inurba_marseille","lat":43.28105,"lon":5.37823,"is_reserved":false,"is_disabled":false,"rental_uris":{"android":"levelo://app?vid=eadbf5e7-6bfc-4e3a-b0e9-0f3c75f13d91","ios":"levelo://app?vid=eadbf5e7-6bfc-4e3a-b0e9-0f3c75f13d91"},"vehicle_type_id":"4","last_reported":1784159356,"current_range_meters":38400,"station_id":"ce4bha12rcd13ifvqee0","pricing_plan_id":"cebpf4jnsgd1na2vs0mg"},{"bike_id":"4beacecd-e8e6-497c-b781-3dee51d4f267","system_id":"levelo_inurba_marseille","lat":43.23193,"lon":5.39984,"is_reserved":false,"is_disabled":false,"rental_uris":{"android":"levelo://app?vid=4beacecd-e8e6-497c-b781-3dee51d4f267","ios":"levelo://app?vid=4beacecd-e8e6-497c-b781-3dee51d4f267"},"vehicle_type_id":"4","last_reported":1784159356,"current_range_meters":19600,"station_id":"ce4bhn12rcd13ifvqgqg","pricing_plan_id":"cebpf4jnsgd1na2vs0mg"},{"bike_id":"e14c842e-50bc-4074-9284-336ad4596845","system_id":"levelo_inurba_marseille","lat":43.28471,"lon":5.35915,"is_reserved":false,"is_disabled":false,"rental_uris":{"android":"levelo://app?vid=e14c842e-50bc-4074-9284-336ad4596845","ios":"levelo://app?vid=e14c842e-50bc-4074-9284-336ad4596845"},