{"last_updated":1685869647,"ttl":30,"version":"2.2","data":{"bikes":[{"bike_id":"177f31da-261d-4487-a802-b92994619dc5","system_id":"levelo_inurba_marseille","lat":43.312239,"lon":5.368562,"is_reserved":false,"is_disabled":false,"rental_uris":{"android":"levelo://app?vid=177f31da-261d-4487-a802-b92994619dc5","ios":"levelo://app?vid=177f31da-261d-4487-a802-b92994619dc5"},"vehicle_type_id":"4","last_reported":1685869647,"current_range_meters":19200,"station_id":"ce4bgl92rcd13ifvqbq0","pricing_plan_id":"free"},{"bike_id":"6d633af9-b883-42dc-86dd-44e95352383d","system_id":"levelo_inurba_marseille","lat":43.31368,"lon":5.37085,"is_reserved":false,"is_disabled":false,"rental_uris":{"android":"levelo://app?vid=6d633af9-b883-42dc-86dd-44e95352383d","ios":"levelo://app?vid=6d633af9-b883-42dc-86dd-44e95352383d"},"vehicle_type_id":"4","last_reported":1685869647,"current_range_meters":22800,"station_id":"","pricing_plan_id":"free"},{"bike_id":"4d43e892-ec90-4fce-8475-f727fed3851f","system_id":"levelo_inurba_marseille","lat":43.31969,"lon":5.36601,"is_reserved":false,"is_disabled":false,"rental_uris":{"android":"levelo://app?vid=4d43e892-ec90-4fce-8475-f727fed3851f","ios":"levelo://app?vid=4d43e892-ec90-4fce-8475-f727fed3851f"},"vehicle_type_id":"4","last_reported":1685869647,"current_range_meters":1600,"station_id":"","pricing_plan_id":"free"},{"bike_id":"cd6ad8cf-eb66-4297-bf6b-6df26dc162bc","system_id":"levelo_inurba_marseille","lat":43.30561,"lon":5.36696,"is_reserved":false,"is_disabled":false,"rental_uris":{"android":"levelo://app?vid=cd6ad8cf-eb66-4297-bf6b-6df26dc162bc","ios":"levelo://app?vid=cd6ad8cf-eb66-4297-bf6b-6df26dc162bc"},"vehicle_type_id":"4","last_reported":1685869647,"current_range_meters":31200,"station_id":"ce4bgrp2rcd13ifvqc9g","pricing_plan_id":"free"},{"bike_id":"090edd55-019c-4a01-bc51-71550aee6a41","system_id":"levelo_inurba_marseille","lat":43.305714,"lon":5.365633,"is_reserved":false,"is_disabled":false,"rental_uris":{"android":"levelo://app?vid=090edd55-019c-4a01-bc51-71550aee6a41","ios":"levelo://app?vid=090edd55-019c-4a01-bc51-71550aee6a41"},"vehicle_type_id":"4","last_reported":1685869647,"current_range_meters":0,"station_id":"ce4bgs12rcd13ifvqcag","pricing_plan_id":"free"},{"bike_id":"7073c67a-19ef-44ee-af06-777ebeb54002","system_id":"levelo_inurba_marseille","lat":43.305368,"lon":5.367343,"is_reserved":false,"is_disabled":false,"rental_uris":{"android":"levelo://app?vid=7073c67a-19ef-44ee-af06-777ebeb54002","ios":"levelo://app?vid=7073c67a-19ef-44ee-af06-777ebeb54002"},"vehicle_type_id":"4","last_reported":1685869647,"current_range_meters":20400,"station_id":"ce4bgrp2rcd13ifvqc9g","pricing_plan_id":"free"},{"bike_id":"87459ae2-bc7e-401b-b3fc-f39455a900d1","system_id":"levelo_inurba_marseille","lat":43.305368,"lon":5.367343,"is_reserved":false,"is_disabled":false,"rental_uris":{"android":"levelo://app?vid=87459ae2-bc7e-401b-b3fc-f39455a900d1","ios":"levelo://app?vid=87459ae2-bc7e-401b-b3fc-f39455a900d1"},"vehicle_type_id":"4","last_reported":1685869647,"current_range_meters":24400,"station_id":"ce4bgrp2rcd13ifvqc9g","pricing_plan_id":"free"},{"bike_id":"cadaaa9d-4d40-4c42-8ba4-67f0e344beed","system_id":"levelo_inurba_marseille","lat":43.305714,"lon":5.365633,"is_reserved":false,"is_disabled":false,"rental_uris":{"android":"levelo://app?vid=cadaaa9d-4d40-4c42-8ba4-67f0e344beed","ios":"levelo://app?vid=cadaaa9d-4d40-4c42-8ba4-67f0e344beed"},"vehicle_type_id":"4","last_reported":1685869647,"current_range_meters":16800,"station_id":"ce4bgs12rcd13ifvqcag","pricing_plan_id":"free"},{"bike_id":"98274e68-2e08-431e-bad9-1dae6dea7001","system_id":"levelo_inurba_marseille","lat":43.305714,"lon":5.365633,"is_reserved":false,"is_disabled":false,"rental_uris":{"android":"levelo://app?vid=98274e68-2e08-431e-bad9-1dae6dea7001","ios":"levelo://app?vid=98274e68-2e08-431e-bad9-1dae6dea7001"},"vehicle_type_id":"4","last_reported":1685869647,"current_range_meters":25200,"station_id":"ce4bgs12rcd13ifvqcag","pricing_plan_id":"free"},{"bike_id":"d5101a64-ef9d-4bc2-ab44-2a51f9770a13","system_id":"levelo_inurba_marseille","lat":43.30549,"lon":5.36533,"is_reserved":false,"is_disabled":false,"rental_uris":{"android":"levelo://app?vid=d5101a64-ef9d-4bc2-ab44-2a51f9770a13","ios":"levelo://app?vid=d5101a64-ef9d-4bc2-ab44-2a51f9770a13"},"vehicle_type_id":"4","last_reported":1685869647,"current_range_meters":0,"station_id":"","pricing_plan_id":"free"},{"bike_id":"1ba982fa-c72c-40ae-9bab-2a5fbe22469b","system_id":"levelo_inurba_marseille","lat":43.305714,"lon":5.365633,"is_reserved":false,"is_disabled":false,"rental_uris":{"android":"levelo://app?vid=1ba982fa-c72c-40ae-9bab-2a5fbe22469b","ios":"levelo://app?vid=1ba982fa-c72c-40ae-9bab-2a5fbe22469b"},"vehicle_type_id":"4","last_reported":1685869647,"current_range_meters":20000,"station_id":"ce4bgs12rcd13ifvqcag","pricing_plan_id":"free"},{"bike_id":"5c849754-c903-4b31-9db5-8e95c01110dc","system_id":"levelo_inurba_marseille","lat":43.305706,"lon":5.365654,"is_reserved":false,"is_disabled":false,"rental_uris":{"android":"levelo://app?vid=5c849754-c903-4b31-9db5-8e95c01110dc","ios":"levelo://app?vid=5c849754-c903-4b31-9db5-8e95c01110dc"},"vehicle_type_id":"4","last_reported":1685869647,"current_range_meters":20000,"station_id":"ce4bgs12rcd13ifvqcag","pricing_plan_id":"free"},{"bike_id":"c962878c-492f-4cdb-af74-e712680ba794","system_id":"levelo_inurba_marseille","lat":43.305706,"lon":5.365654,"is_reserved":false,"is_disabled":false,"rental_uris":{"android":"levelo://app?vid=c962878c-492f-4cdb-af74-e712680ba794","ios":"levelo://app?vid=c962878c-492f-4cdb-af74-e712680ba794"},"vehicle_type_id":"4","last_reported":1685869647,"current_range_meters":22000,"station_id":"ce4bgs12rcd13ifvqcag","pricing_plan_id":"free"},{"bike_id":"64e1d74f-a7cd-4c83-b21a-503234d88c13","system_id":"levelo_inurba_marseille","lat":43.305706,"lon":5.365654,"is_reserved":false,"is_disabled":false,"rental_uris":{"android":"levelo://app?vid=64e1d74f-a7cd-4c83-b21a-503234d88c13","ios":"levelo://app?vid=64e1d74f-a7cd-4c83-b21a-503234d88c13"},"vehicle_type_id":"4","last_reported":1685869647,"current_range_meters":8400,"station_id":"ce4bgs12rcd13ifvqcag","pricing_plan_id":"free"},{"bike_id":"cd3ee73c-ac93-47c9-89ff-7b8d4629c92d","system_id":"levelo_inurba_marseille","lat":43.305989,"lon":5.37225,"is_reserved":false,"is_disabled":false,"rental_uris":{"android":"levelo://app?vid=cd3ee73c-ac93-47c9-89ff-7b8d4629c92d","ios":"levelo://app?vid=cd3ee73c-ac93-47c9-89ff-7b8d4629c92d"},"vehicle_type_id":"4","last_reported":1685869647,"current_range_meters":26400,"station_id":"ce4bgqh2rcd13ifvqc4g","pricing_plan_id":"free"},{"bike_id":"c72811fa-04c1-4e0d-b2d7-8285208ed88d","system_id":"levelo_inurba_marseille","lat":43.305989,"lon":5.37225,"is_reserved":false,"is_disabled":false,"rental_uris":{"android":"levelo://app?vid=c72811fa-04c1-4e0d-b2d7-8285208ed88d","ios":"levelo://app?vid=c72811fa-04c1-4e0d-b2d7-8285208ed88d"},"vehicle_type_id":"4","last_reported":1685869647,"current_range_meters":28800,"station_id":"ce4bgqh2rcd13ifvqc4g","pricing_plan_id":"free"},{"bike_id":"55336a08-c3c4-4f26-9754-ccb7adfd367c","system_id":"levelo_inurba_marseille","lat":43.305989,"lon":5.37225,"is_reserved":false,"is_disabled":false,"rental_uris":{"android":"levelo://app?vid=55336a08-c3c4-4f26-9754-ccb7adfd367c","ios":"levelo://app?vid=55336a08-c3c4-4f26-9754-ccb7adfd367c"},"vehicle_type_id":"4","last_reported":1685869647,"current_range_meters":27200,"station_id":"ce4bgqh2rcd13ifvqc4g","pricing_plan_id":"free"},{"bike_id":"9f556b68-0f87-4cd8-a596-e3a58eb4bd2c","system_id":"levelo_inurba_marseille","lat":43.3031,"lon":5.36877,"is_reserved":false,"is_disabled":false,"rental_uris":{"android":"levelo://app?vid=9f556b68-0f87-4cd8-a596-e3a58eb4bd2c","ios":"levelo://app?vid=9f556b68-0f87-4cd8-a596-e3a58eb4bd2c"},"vehicle_type_id":"4","last_reported":1685869647,"current_range_meters":26800,"station_id":"ce4bgqh2rcd13ifvqc5g","pricing_plan_id":"free"},{"bike_id":"c308f7ae-f915-45f6-afaf-e7f43c3e6d4f","system_id":"levelo_inurba_marseille","lat":43.30304,"lon":5.368987,"is_reserved":false,"is_disabled":false,"rental_uris":{"android":"levelo://app?vid=c308f7ae-f915-45f6-afaf-e7f43c3e6d4f","ios":"levelo://app?vid=c308f7ae-f915-45f6-afaf-e7f43c3e6d4f"},"vehicle_type_id":"4","last_reported":1685869647,"current_range_meters":25600,"station_id":"ce4bgqh2rcd13ifvqc5g","pricing_plan_id":"free"},{"bike_id":"15f7bfa4-1544-4cf5-9e64-53077f061091","system_id":"levelo_inurba_marseille","lat":43.315289,"lon":5.380349,"is_reserved":false,"is_disabled":false,"rental_uris":{"android":"levelo://app?vid=15f7bfa4-1544-4cf5-9e64-53077f061091","ios":"levelo://app?vid=15f7bfa4-1544-4cf5-9e64-53077f061091"},"vehicle_type_id":"4","last_reported":1685869647,"current_range_meters":28400,"station_id":"ce4bhsp2rcd13ifvqi50","pricing_plan_id":"free"},{"bike_id":"6260902a-3d01-4ae4-91f0-c12be5142c6c","system_id":"levelo_inurba_marseille","lat":43.301939,"lon":5.366286,"is_reserved":false,"is_disabled":false,"rental_uris":{"android":"levelo://app?vid=6260902a-3d01-4ae4-91f0-c12be5142c6c","ios":"levelo://app?vid=6260902a-3d01-4ae4-91f0-c12be5142c6c"},"vehicle_type_id":"4","last_reported":1685869647,"current_range_meters":27200,"station_id":"ce4bgrh2rcd13ifvqc8g","pricing_plan_id":"free"},{"bike_id":"41063197-04e0-44b1-a577-20890bd85bf6","system_id":"levelo_inurba_marseille","lat":43.30439,"lon":5.37697,"is_reserved":false,"is_disabled":false,"rental_uris":{"android":"levelo://app?vid=41063197-04e0-44b1-a577-20890bd85bf6","ios":"levelo://app?vid=41063197-04e0-44b1-a577-20890bd85bf6"},"vehicle_type_id":"4","last_reported":1685869647,"current_range_meters":20800,"station_id":"","pricing_plan_id":"free"},{"bike_id":"1caa0dfb-c98a-4b36-8d2a-acfdba55f84b","system_id":"levelo_inurba_marseille","lat":43.308012,"lon":5.381511,"is_reserved":false,"is_disabled":false,"rental_uris":{"android":"levelo://app?vid=1caa0dfb-c98a-4b36-8d2a-acfdba55f84b","ios":"levelo://app?vid=1caa0dfb-c98a-4b36-8d2a-acfdba55f84b"},"vehicle_type_id":"4","last_reported":1685869647,"current_range_meters":14800,"station_id":"ce4bgt12rcd13ifvqce0","pricing_plan_id":"free"},{"bike_id":"890cdc24-ad9c-4fd6-98f3-288b9b6d9bbc","system_id":"levelo_inurba_marseille","lat":43.304606,"lon":5.379026,"is_reserved":false,"is_disabled":false,"rental_uris":{"android":"levelo://app?vid=890cdc24-ad9c-4fd6-98f3-288b9b6d9bbc","ios":"levelo://app?vid=890cdc24-ad9c-4fd6-98f3-288b9b6d9bbc"},"vehicle_type_id":"4","last_reported":1685869647,"current_range_meters":27200,"station_id":"ce4bgup2rcd13ifvqcn0","pricing_plan_id":"free"},{"bike_id":"3d1ae722-a482-401e-95ca-84dfa7ec8fd3","system_id":"levelo_inurba_marseille","lat":43.304606,"lon":5.379026,"is_reserved":false,"is_disabled":false,"rental_uris":{"android":"levelo://app?vid=3d1ae722-a482-401e-95ca-84dfa7ec8fd3","ios":"levelo://app?vid=3d1ae722-a482-401e-95ca-84dfa7ec8fd3"},"vehicle_type_id":"4","last_reported":1685869647,"current_range_meters":21200,"station_id":"ce4bgup2rcd13ifvqcn0","pricing_plan_id":"free"},{"bike_id":"951d1044-6762-4dca-bd6d-8c2b30b43f2b","system_id":"levelo_inurba_marseille","lat":43.304606,"lon":5.379026,"is_reserved":false,"is_disabled":false,"rental_uris":{"android":"levelo://app?vid=951d1044-6762-4dca-bd6d-8c2b30b43f2b","ios":"levelo://app?vid=951d1044-6762-4dca-bd6d-8c2b30b43f2b"},"vehicle_type_id":"4","last_reported":1685869647,"current_range_meters":18000,"station_id":"ce4bgup2rcd13ifvqcn0","pricing_plan_id":"free"},{"bike_id":"048be98a-d3e1-4397-bf58-9e37d125046f","system_id":"levelo_inurba_marseille","lat":43.31641,"lon":5.38351,"is_reserved":false,"is_disabled":false,"rental_uris":{"android":"levelo://app?vid=048be98a-d3e1-4397-bf58-9e37d125046f","ios":"levelo://app?vid=048be98a-d3e1-4397-bf58-9e37d125046f"},"vehicle_type_id":"4","last_reported":1685869647,"current_range_meters":12400,"station_id":"","pricing_plan_id":"free"},{"bike_id":"580c91f6-6c87-4823-b79b-d87cf2e683c9","system_id":"levelo_inurba_marseille","lat":43.319935,"lon":5.381699,"is_reserved":false,"is_disabled":false,"rental_uris":{"android":"levelo://app?vid=580c91f6-6c87-4823-b79b-d87cf2e683c9","ios":"levelo://app?vid=580c91f6-6c87-4823-b79b-d87cf2e683c9"},"vehicle_type_id":"4","last_reported":1685869647,"current_range_meters":0,"station_id":"ce4bhr12rcd13ifvqhpg","pricing_plan_id":"free"},{"bike_id":"1f1dc83b-8ccb-4689-a2db-9ce7e1fda49c","system_id":"levelo_inurba_marseille","lat":43.319935,"lon":5.381699,"is_reserved":false,"is_disabled":false,"rental_uris":{"android":"levelo://app?vid=1f1dc83b-8ccb-4689-a2db-9ce7e1fda49c","ios":"levelo://app?vid=1f1dc83b-8ccb-4689-a2db-9ce7e1fda49c"},"vehicle_type_id":"4","last_reported":1685869647,"current_range_meters":4000,"station_id":"ce4bhr12rcd13ifvqhpg","pricing_plan_id":"free"},{"bike_id":"994fd81e-6db6-4408-acc8-bec511d624f9","system_id":"levelo_inurba_marseille","lat":43.319935,"lon":5.381699,"is_reserved":false,"is_disabled":false,"rental_uris":{"android":"levelo://app?vid=994fd81e-6db6-4408-acc8-bec511d624f9","ios":"levelo://app?vid=994fd81e-6db6-4408-acc8-bec511d624f9"},"vehicle_type_id":"4","last_reported":1685869647,"current_range_meters":17200,"station_id":"ce4bhr12rcd13ifvqhpg","pricing_plan_id":"free"},{"bike_id":"ce0eafea-7a28-40e5-b49f-bbdc4e411c48","system_id":"levelo_inurba_marseille","lat":43.319935,"lon":5.381699,"is_reserved":false,"is_disabled":false,"rental_uris":{"android":"levelo://app?vid=ce0eafea-7a28-40e5-b49f-bbdc4e411c48","ios":"levelo://app?vid=ce0eafea-7a28-40e5-b49f-bbdc4e411c48"},"vehicle_type_id":"4","last_reported":1685869647,"current_range_meters":10800,"station_id":"ce4bhr12rcd13ifvqhpg","pricing_plan_id":"free"},{"bike_id":"e83b9514-b6a7-4d8e-b424-41cbc171d544","system_id":"levelo_inurba_marseille","lat":43.319935,"lon":5.381699,"is_reserved":false,"is_disabled":false,"rental_uris":{"android":"levelo://app?vid=e83b9514-b6a7-4d8e-b424-41cbc171d544","ios":"levelo://app?vid=e83b9514-b6a7-4d8e-b424-41cbc171d544"},"vehicle_type_id":"4","last_reported":1685869647,"current_range_meters":19600,"station_id":"ce4bhr12rcd13ifvqhpg","pricing_plan_id":"free"},{"bike_id":"36136d78-2be3-4b19-a90a-7711a04c3c3a","system_id":"levelo_inurba_marseille","lat":43.31379,"lon":5.38507,"is_reserved":false,"is_disabled":false,"rental_uris":{"android":"levelo://app?vid=36136d78-2be3-4b19-a90a-7711a04c3c3a","ios":"levelo://app?vid=36136d78-2be3-4b19-a90a-7711a04c3c3a"},"vehicle_type_id":"4","last_reported":1685869647,"current_range_meters":16400,"station_id":"ce4bgt92rcd13ifvqcf0","pricing_plan_id":"free"},{"bike_id":"1a95f679-7d3a-4032-adb7-862e41572194","system_id":"levelo_inurba_marseille","lat":43.298433,"lon":5.362774,"is_reserved":false,"is_disabled":false,"rental_uris":{"android":"levelo://app?vid=1a95f679-7d3a-4032-adb7-862e41572194","ios":"levelo://app?vid=1a95f679-7d3a-4032-adb7-862e41572194"},"vehicle_type_id":"4","last_reported":1685869647,"current_range_meters":31600,"station_id":"ce4bgpp2rcd13ifvqc3g","pricing_plan_id":"free"},{"bike_id":"0eaa3d21-ea0d-4d74-a206-37773dbd69f6","system_id":"levelo_inurba_marseille","lat":43.298433,"lon":5.362774,"is_reserved":false,"is_disabled":false,"rental_uris":{"android":"levelo://app?vid=0eaa3d21-ea0d-4d74-a206-37773dbd69f6","ios":"levelo://app?vid=0eaa3d21-ea0d-4d74-a206-37773dbd69f6"},"vehicle_type_id":"4","last_reported":1685869647,"current_range_meters":31200,"station_id":"ce4bgpp2rcd13ifvqc3g","pricing_plan_id":"free"},{"bike_id":"e6787370-9830-4ef0-80d2-0f000d50f246","system_id":"levelo_inurba_marseille","lat":43.298433,"lon":5.362774,"is_reserved":false,"is_disabled":false,"rental_uris":{"android":"levelo://app?vid=e6787370-9830-4ef0-80d2-0f000d50f246","ios":"levelo://app?vid=e6787370-9830-4ef0-80d2-0f000d50f246"},"vehicle_type_id":"4","last_reported":1685869647,"current_range_meters":31200,"station_id":"ce4bgpp2rcd13ifvqc3g","pricing_plan_id":"free"},{"bike_id":"73561192-3d3a-4c1e-8198-16bb41021519","system_id":"levelo_inurba_marseille","lat":43.298433,"lon":5.362774,"is_reserved":false,"is_disabled":false,"rental_uris":{"android":"levelo://app?vid=73561192-3d3a-4c1e-8198-16bb41021519","ios":"levelo://app?vid=73561192-3d3a-4c1e-8198-16bb41021519"},"vehicle_type_id":"4","last_reported":1685869647,"current_range_meters":31200,"station_id":"ce4bgpp2rcd13ifvqc3g","pricing_plan_id":"free"},{"bike_id":"c178d42d-c878-4ca4-bb1f-e2d45aab5715","system_id":"levelo_inurba_marseille","lat":43.298433,"lon":5.362774,"is_reserved":false,"is_disabled":false,"rental_uris":{"android":"levelo://app?vid=c178d42d-c878-4ca4-bb1f-e2d45aab5715","ios":"levelo://app?vid=c178d42d-c878-4ca4-bb1f-e2d45aab5715"},"vehicle_type_id":"4","last_reported":1685869647,"current_range_meters":20000,"station_id":"ce4bgpp2rcd13ifvqc3g","pricing_plan_id":"free"},{"bike_id":"74eadea3-4cb9-4f98-b9e6-07226615fcfe","system_id":"levelo_inurba_marseille","lat":43.298433,"lon":5.362774,"is_reserved":false,"is_disabled":false,"rental_uris":{"android":"levelo://app?vid=74eadea3-4cb9-4f98-b9e6-07226615fcfe","ios":"levelo://app?vid=74eadea3-4cb9-4f98-b9e6-07226615fcfe"},"vehicle_type_id":"4","last_reported":1685869647,"current_range_meters":22400,"station_id":"ce4bgpp2rcd13ifvqc3g","pricing_plan_id":"free"},{"bike_id":"a8b4d3be-be1f-4149-bc71-7ae4e753d884","system_id":"levelo_inurba_marseille","lat":43.298433,"lon":5.362774,"is_reserved":false,"is_disabled":false,"rental_uris":{"android":"levelo://app?vid=a8b4d3be-be1f-4149-bc71-7ae4e753d884","ios":"levelo://app?vid=a8b4d3be-be1f-4149-bc71-7ae4e753d884"},"vehicle_type_id":"4","last_reported":1685869647,"current_range_meters":31200,"station_id":"ce4bgpp2rcd13ifvqc3g","pricing_plan_id":"free"},{"bike_id":"1bf00f59-524c-4f14-8b3a-a752647b0ca8","system_id":"levelo_inurba_marseille","lat":43.298433,"lon":5.362774,"is_reserved":false,"is_disabled":false,"rental_uris":{"android":"levelo://app?vid=1bf00f59-524c-4f14-8b3a-a752647b0ca8","ios":"levelo://app?vid=1bf00f59-524c-4f14-8b3a-a752647b0ca8"},"vehicle_type_id":"4","last_reported":1685869647,"current_range_meters":19200,"station_id":"ce4bgpp2rcd13ifvqc3g","pricing_plan_id":"free"},{"bike_id":"7f4c1f3f-7ba8-4655-9663-55e05147e0ed","system_id":"levelo_inurba_marseille","lat":43.298433,"lon":5.362774,"is_reserved":false,"is_disabled":false,"rental_uris":{"android":"levelo://app?vid=7f4c1f3f-7ba8-4655-9663-55e05147e0ed","ios":"levelo://app?vid=7f4c1f3f-7ba8-4655-9663-55e05147e0ed"},"vehicle_type_id":"4","last_reported":1685869647,"current_range_meters":31600,"station_id":"ce4bgpp2rcd13ifvqc3g","pricing_plan_id":"free"},{"bike_id":"01484989-5bd1-408e-9e52-3bda5f076261","system_id":"levelo_inurba_marseille","lat":43.298433,"lon":5.362774,"is_reserved":false,"is_disabled":false,"rental_uris":{"android":"levelo://app?vid=01484989-5bd1-408e-9e52-3bda5f076261","ios":"levelo://app?vid=01484989-5bd1-408e-9e52-3bda5f076261"},"vehicle_type_id":"4","last_reported":1685869647,"current_range_meters":27200,"station_id":"ce4bgpp2rcd13ifvqc3g","pricing_plan_id":"free"},{"bike_id":"a1e0b41d-3738-422d-8e23-3ffdcabee451","system_id":"levelo_inurba_marseille","lat":43.297794,"lon":5.370888,"is_reserved":false,"is_disabled":false,"rental_uris":{"android":"levelo://app?vid=a1e0b41d-3738-422d-8e23-3ffdcabee451","ios":"levelo://app?vid=a1e0b41d-3738-422d-8e23-3ffdcabee451"},"vehicle_type_id":"4","last_reported":1685869647,"current_range_meters":30400,"station_id":"ce4bgop2rcd13ifvqc1g","pricing_plan_id":"free"},{"bike_id":"620e6429-eda2-4caa-8d17-e87b82da2908","system_id":"levelo_inurba_marseille","lat":43.297794,"lon":5.370888,"is_reserved":false,"is_disabled":false,"rental_uris":{"android":"levelo://app?vid=620e6429-eda2-4caa-8d17-e87b82da2908","ios":"levelo://app?vid=620e6429-eda2-4caa-8d17-e87b82da2908"},"vehicle_type_id":"4","last_reported":1685869647,"current_range_meters":26000,"station_id":"ce4bgop2rcd13ifvqc1g","pricing_plan_id":"free"},{"bike_id":"93fe580d-71c0-4856-a27e-71bfe60b8232","system_id":"levelo_inurba_marseille","lat":43.328371,"lon":5.366912,"is_reserved":false,"is_disabled":false,"rental_uris":{"android":"levelo://app?vid=93fe580d-71c0-4856-a27e-71bfe60b8232","ios":"levelo://app?vid=93fe580d-71c0-4856-a27e-71bfe60b8232"},"vehicle_type_id":"4","last_reported":1685869647,"current_range_meters":21600,"station_id":"ce4bhs92rcd13ifvqi0g","pricing_plan_id":"free"},{"bike_id":"c02c03d9-6482-4fb0-b3f9-b71bfdb30108","system_id":"levelo_inurba_marseille","lat":43.328371,"lon":5.366912,"is_reserved":false,"is_disabled":false,"rental_uris":{"android":"levelo://app?vid=c02c03d9-6482-4fb0-b3f9-b71bfdb30108","ios":"levelo://app?vid=c02c03d9-6482-4fb0-b3f9-b71bfdb30108"},"vehicle_type_id":"4","last_reported":1685869647,"current_range_meters":27200,"station_id":"ce4bhs92rcd13ifvqi0g","pricing_plan_id":"free"},{"bike_id":"cb0f0ec2-75c0-44dc-80f7-2b87cd212352","system_id":"levelo_inurba_marseille","lat":43.328371,"lon":5.366912,"is_reserved":false,"is_disabled":false,"rental_uris":{"android":"levelo://app?vid=cb0f0ec2-75c0-44dc-80f7-2b87cd212352","ios":"levelo://app?vid=cb0f0ec2-75c0-44dc-80f7-2b87cd212352"},"vehicle_type_id":"4","last_reported":1685869647,"current_range_meters":12400,"station_id":"ce4bhs92rcd13ifvqi0g","pricing_plan_id":"free"},{"bike_id":"c1490444-e945-4d29-9ff9-84fb18a2385b","system_id":"levelo_inurba_marseille","lat":43.328371,"lon":5.366912,"is_reserved":false,"is_disabled":false,"rental_uris":{"android":"levelo://app?vid=c1490444-e945-4d29-9ff9-84fb18a2385b","ios":"levelo://app?vid=c1490444-e945-4d29-9ff9-84fb18a2385b"},"vehicle_type_id":"4","last_reported":1685869647,"current_range_meters":22800,"station_id":"ce4bhs92rcd13ifvqi0g","pricing_plan_id":"free"},{"bike_id":"b9cf6557-2db2-4828-97f1-13a369745ef6","system_id":"levelo_inurba_marseille","lat":43.32758,"lon":5.37484,"is_reserved":false,"is_disabled":false,"rental_uris":{"android":"levelo://app?vid=b9cf6557-2db2-4828-97f1-13a369745ef6","ios":"levelo://app?vid=b9cf6557-2db2-4828-97f1-13a369745ef6"},"vehicle_type_id":"4","last_reported":1685869647,"current_range_meters":5200,"station_id":"","pricing_plan_id":"free"},{"bike_id":"7bb642b2-14ea-42b2-a667-c155b6070029","system_id":"levelo_inurba_marseille","lat":43.29573,"lon":5.367355,"is_reserved":false,"is_disabled":false,"rental_uris":{"android":"levelo://app?vid=7bb642b2-14ea-42b2-a667-c155b6070029","ios":"levelo://app?vid=7bb642b2-14ea-42b2-a667-c155b6070029"},"vehicle_type_id":"4","last_reported":1685869647,"current_range_meters":31600,"station_id":"ce4bgph2rcd13ifvqc2g","pricing_plan_id":"free"},{"bike_id":"9a88cebe-d1d4-4989-9117-23c06ff5bf3e","system_id":"levelo_inurba_marseille","lat":43.296131,"lon":5.370773,"is_reserved":false,"is_disabled":false,"rental_uris":{"android":"levelo://app?vid=9a88cebe-d1d4-4989-9117-23c06ff5bf3e","ios":"levelo://app?vid=9a88cebe-d1d4-4989-9117-23c06ff5bf3e"},"vehicle_type_id":"4","last_reported":1685869647,"current_range_meters":6800,"station_id":"ce4bgnh2rcd13ifvqc0g","pricing_plan_id":"free"},{"bike_id":"18ef367d-dc09-41d0-a85e-4538ac3334bb","system_id":"levelo_inurba_marseille","lat":43.29573,"lon":5.367355,"is_reserved":false,"is_disabled":false,"rental_uris":{"android":"levelo://app?vid=18ef367d-dc09-41d0-a85e-4538ac3334bb","ios":"levelo://app?vid=18ef367d-dc09-41d0-a85e-4538ac3334bb"},"vehicle_type_id":"4","last_reported":1685869647,"current_range_meters":31200,"station_id":"ce4bgph2rcd13ifvqc2g","pricing_plan_id":"free"},{"bike_id":"5fd95d00-58e2-4c06-840b-248ae0359ecf","system_id":"levelo_inurba_marseille","lat":43.29573,"lon":5.367355,"is_reserved":false,"is_disabled":false,"rental_uris":{"android":"levelo://app?vid=5fd95d00-58e2-4c06-840b-248ae0359ecf","ios":"levelo://app?vid=5fd95d00-58e2-4c06-840b-248ae0359ecf"},"vehicle_type_id":"4","last_reported":1685869647,"current_range_meters":29200,"station_id":"ce4bgph2rcd13ifvqc2g","pricing_plan_id":"free"},{"bike_id":"956532de-6d58-4c1d-9e85-8375d9163315","system_id":"levelo_inurba_marseille","lat":43.29573,"lon":5.367355,"is_reserved":false,"is_disabled":false,"rental_uris":{"android":"levelo://app?vid=956532de-6d58-4c1d-9e85-8375d9163315","ios":"levelo://app?vid=956532de-6d58-4c1d-9e85-8375d9163315"},"vehicle_type_id":"4","last_reported":1685869647,"current_range_meters":30800,"station_id":"ce4bgph2rcd13ifvqc2g","pricing_plan_id":"free"},{"bike_id":"39d21d2e-2f5d-49cb-af42-42dead1b82e8","system_id":"levelo_inurba_marseille","lat":43.29573,"lon":5.367355,"is_reserved":false,"is_disabled":false,"rental_uris":{"android":"levelo://app?vid=39d21d2e-2f5d-49cb-af42-42dead1b82e8","ios":"levelo://app?vid=39d21d2e-2f5d-49cb-af42-42dead1b82e8"},"vehicle_type_id":"4","last_reported":1685869647,"current_range_meters":25600,"station_id":"ce4bgph2rcd13ifvqc2g","pricing_plan_id":"free"},{"bike_id":"2a3a0b6a-821d-49e5-8034-c87f659a50a1","system_id":"levelo_inurba_marseille","lat":43.29573,"lon":5.367355,"is_reserved":false,"is_disabled":false,"rental_uris":{"android":"levelo://app?vid=2a3a0b6a-821d-49e5-8034-c87f659a50a1","ios":"levelo://app?vid=2a3a0b6a-821d-49e5-8034-c87f659a50a1"},"vehicle_type_id":"4","last_reported":1685869647,"current_range_meters":31600,"station_id":"ce4bgph2rcd13ifvqc2g","pricing_plan_id":"free"},{"bike_id":"f36b184d-85aa-4df6-b1f3-63e1b38057a3","system_id":"levelo_inurba_marseille","lat":43.29573,"lon":5.367355,"is_reserved":false,"is_disabled":false,"rental_uris":{"android":"levelo://app?vid=f36b184d-85aa-4df6-b1f3-63e1b38057a3","ios":"levelo://app?vid=f36b184d-85aa-4df6-b1f3-63e1b38057a3"},"vehicle_type_id":"4","last_reported":1685869647,"current_range_meters":31200,"station_id":"ce4bgph2rcd13ifvqc2g","pricing_plan_id":"free"},{"bike_id":"63197db5-7da9-405e-a200-5f24ef07a809","system_id":"levelo_inurba_marseille","lat":43.309589,"lon":5.390258,"is_reserved":false,"is_disabled":false,"rental_uris":{"android":"levelo://app?vid=63197db5-7da9-405e-a200-5f24ef07a809","ios":"levelo://app?vid=63197db5-7da9-405e-a200-5f24ef07a809"},"vehicle_type_id":"4","last_reported":1685869647,"current_range_meters":20000,"station_id":"ce4bgup2rcd13ifvqco0","pricing_plan_id":"free"},{"bike_id":"4879a260-9f1b-402b-bd89-3bac325db973","system_id":"levelo_inurba_marseille","lat":43.317557,"lon":5.390173,"is_reserved":false,"is_disabled":false,"rental_uris":{"android":"levelo://app?vid=4879a260-9f1b-402b-bd89-3bac325db973","ios":"levelo://app?vid=4879a260-9f1b-402b-bd89-3bac325db973"},"vehicle_type_id":"4","last_reported":1685869647,"current_range_meters":2000,"station_id":"ce4bhqp2rcd13ifvqhng","pricing_plan_id":"free"},{"bike_id":"ab584da6-eba8-4948-8422-f46bf91af291","system_id":"levelo_inurba_marseille","lat":43.295748,"lon":5.37522,"is_reserved":false,"is_disabled":false,"rental_uris":{"android":"levelo://app?vid=ab584da6-eba8-4948-8422-f46bf91af291","ios":"levelo://app?vid=ab584da6-eba8-4948-8422-f46bf91af291"},"vehicle_type_id":"4","last_reported":1685869647,"current_range_meters":17600,"station_id":"ce4bgh92rcd13ifvqb50","pricing_plan_id":"free"},{"bike_id":"46034e42-aa28-48d8-a6ab-f169d7824257","system_id":"levelo_inurba_marseille","lat":43.29791,"lon":5.38098,"is_reserved":false,"is_disabled":false,"rental_uris":{"android":"levelo://app?vid=46034e42-aa28-48d8-a6ab-f169d7824257","ios":"levelo://app?vid=46034e42-aa28-48d8-a6ab-f169d7824257"},"vehicle_type_id":"4","last_reported":1685869647,"current_range_meters":28000,"station_id":"ce4bgip2rcd13ifvqbb0","pricing_plan_id":"free"},{"bike_id":"88a21b34-007c-4c20-be0b-53c926d83d59","system_id":"levelo_inurba_marseille","lat":43.29799,"lon":5.38116,"is_reserved":false,"is_disabled":false,"rental_uris":{"android":"levelo://app?vid=88a21b34-007c-4c20-be0b-53c926d83d59","ios":"levelo://app?vid=88a21b34-007c-4c20-be0b-53c926d83d59"},"vehicle_type_id":"4","last_reported":1685869647,"current_range_meters":18000,"station_id":"ce4bgip2rcd13ifvqbb0","pricing_plan_id":"free"},{"bike_id":"15392ba8-eaef-41be-ab09-5bb13f2f9e0a","system_id":"levelo_inurba_marseille","lat":43.297971,"lon":5.381828,"is_reserved":false,"is_disabled":false,"rental_uris":{"android":"levelo://app?vid=15392ba8-eaef-41be-ab09-5bb13f2f9e0a","ios":"levelo://app?vid=15392ba8-eaef-41be-ab09-5bb13f2f9e0a"},"vehicle_type_id":"4","last_reported":1685869647,"current_range_meters":24400,"station_id":"ce4bgup2rcd13ifvqcn0","pricing_plan_id":"free"},{"bike_id":"36df092f-2f57-47ad-9300-b5c4edbc7608","system_id":"levelo_inurba_marseille","lat":43.29538,"lon":5.37505,"is_reserved":false,"is_disabled":false,"rental_uris":{"android":"levelo://app?vid=36df092f-2f57-47ad-9300-b5c4edbc7608","ios":"levelo://app?vid=36df092f-2f57-47ad-9300-b5c4edbc7608"},"vehicle_type_id":"4","last_reported":1685869647,"current_range_meters":25200,"station_id":"ce4bgkp2rcd13ifvqbmg","pricing_plan_id":"free"},{"bike_id":"235ab176-27c9-4c45-9e6d-982e5c5d596b","system_id":"levelo_inurba_marseille","lat":43.299692,"lon":5.384828,"is_reserved":false,"is_disabled":false,"rental_uris":{"android":"levelo://app?vid=235ab176-27c9-4c45-9e6d-982e5c5d596b","ios":"levelo://app?vid=235ab176-27c9-4c45-9e6d-982e5c5d596b"},"vehicle_type_id":"4","last_reported":1685869647,"current_range_meters":27600,"station_id":"","pricing_plan_id":"free"},{"bike_id":"a5aaf8a8-b676-497f-92d4-c454aa45c212","system_id":"levelo_inurba_marseille","lat":43.32367,"lon":5.388836,"is_reserved":false,"is_disabled":false,"rental_uris":{"android":"levelo://app?vid=a5aaf8a8-b676-497f-92d4-c454aa45c212","ios":"levelo://app?vid=a5aaf8a8-b676-497f-92d4-c454aa45c212"},"vehicle_type_id":"4","last_reported":1685869647,"current_range_meters":0,"station_id":"ce4bhqp2rcd13ifvqhog","pricing_plan_id":"free"},{"bike_id":"aeb5ead0-c09c-49ca-84ce-d23b7cb0491f","system_id":"levelo_inurba_marseille","lat":43.32367,"lon":5.388836,"is_reserved":false,"is_disabled":false,"rental_uris":{"android":"levelo://app?vid=aeb5ead0-c09c-49ca-84ce-d23b7cb0491f","ios":"levelo://app?vid=aeb5ead0-c09c-49ca-84ce-d23b7cb0491f"},"vehicle_type_id":"4","last_reported":1685869647,"current_range_meters":12000,"station_id":"ce4bhqp2rcd13ifvqhog","pricing_plan_id":"free"},{"bike_id":"1619b961-36bd-4a7d-a354-b4d8cf39a904","system_id":"levelo_inurba_marseille","lat":43.32367,"lon":5.388836,"is_reserved":false,"is_disabled":false,"rental_uris":{"android":"levelo://app?vid=1619b961-36bd-4a7d-a354-b4d8cf39a904","ios":"levelo://app?vid=1619b961-36bd-4a7d-a354-b4d8cf39a904"},"vehicle_type_id":"4","last_reported":1685869647,"current_range_meters":8800,"station_id":"ce4bhqp2rcd13ifvqhog","pricing_plan_id":"free"},{"bike_id":"ce28f952-0366-40af-af5d-12fd1e486cbf","system_id":"levelo_inurba_marseille","lat":43.32367,"lon":5.388836,"is_reserved":false,"is_disabled":false,"rental_uris":{"android":"levelo://app?vid=ce28f952-0366-40af-af5d-12fd1e486cbf","ios":"levelo://app?vid=ce28f952-0366-40af-af5d-12fd1e486cbf"},"vehicle_type_id":"4","last_reported":1685869647,"current_range_meters":27600,"station_id":"ce4bhqp2rcd13ifvqhog","pricing_plan_id":"free"},{"bike_id":"b0add680-2a7e-44f9-b917-cdbbb1d64aa8","system_id":"levelo_inurba_marseille","lat":43.29299,"lon":5.3717,"is_reserved":false,"is_disabled":false,"rental_uris":{"android":"levelo://app?vid=b0add680-2a7e-44f9-b917-cdbbb1d64aa8","ios":"levelo://app?vid=b0add680-2a7e-44f9-b917-cdbbb1d64aa8"},"vehicle_type_id":"4","last_reported":1685869647,"current_range_meters":11600,"station_id":"","pricing_plan_id":"free"},{"bike_id":"1e0bea6d-4421-4917-8018-219c70f2a5cd","system_id":"levelo_inurba_marseille","lat":43.29295,"lon":5.37162,"is_reserved":false,"is_disabled":false,"rental_uris":{"android":"levelo://app?vid=1e0bea6d-4421-4917-8018-219c70f2a5cd","ios":"levelo://app?vid=1e0bea6d-4421-4917-8018-219c70f2a5cd"},"vehicle_type_id":"4","last_reported":1685869647,"current_range_meters":24000,"station_id":"","pricing_plan_id":"free"},{"bike_id":"43255449-eb36-482b-a3c0-4649765cb21e","system_id":"levelo_inurba_marseille","lat":43.293009,"lon":5.374584,"is_reserved":false,"is_disabled":false,"rental_uris":{"android":"levelo://app?vid=43255449-eb36-482b-a3c0-4649765cb21e","ios":"levelo://app?vid=43255449-eb36-482b-a3c0-4649765cb21e"},"vehicle_type_id":"4","last_reported":1685869647,"current_range_meters":27200,"station_id":"ce4bgi12rcd13ifvqb70","pricing_plan_id":"free"},{"bike_id":"bdde24c6-f55c-4d94-b709-1842ba64f709","system_id":"levelo_inurba_marseille","lat":43.305994,"lon":5.393687,"is_reserved":false,"is_disabled":false,"rental_uris":{"android":"levelo://app?vid=bdde24c6-f55c-4d94-b709-1842ba64f709","ios":"levelo://app?vid=bdde24c6-f55c-4d94-b709-1842ba64f709"},"vehicle_type_id":"4","last_reported":1685869647,"current_range_meters":7200,"station_id":"ce4bh0p2rcd13ifvqd80","pricing_plan_id":"free"},{"bike_id":"859b776f-5d7a-4880-a0ad-90823db30730","system_id":"levelo_inurba_marseille","lat":43.293009,"lon":5.374584,"is_reserved":false,"is_disabled":false,"rental_uris":{"android":"levelo://app?vid=859b776f-5d7a-4880-a0ad-90823db30730","ios":"levelo://app?vid=859b776f-5d7a-4880-a0ad-90823db30730"},"vehicle_type_id":"4","last_reported":1685869647,"current_range_meters":2000,"station_id":"ce4bgi12rcd13ifvqb70","pricing_plan_id":"free"},{"bike_id":"bf9a0b5b-0b03-4bc0-b590-5f204292811b","system_id":"levelo_inurba_marseille","lat":43.30301,"lon":5.39218,"is_reserved":false,"is_disabled":false,"rental_uris":{"android":"levelo://app?vid=bf9a0b5b-0b03-4bc0-b590-5f204292811b","ios":"levelo://app?vid=bf9a0b5b-0b03-4bc0-b590-5f204292811b"},"vehicle_type_id":"4","last_reported":1685869647,"current_range_meters":2400,"station_id":"ce4bgkh2rcd13ifvqbk0","pricing_plan_id":"free"},{"bike_id":"ee7da5d6-ada5-4abe-8f4f-cc757e5429aa","system_id":"levelo_inurba_marseille","lat":43.2936,"lon":5.37835,"is_reserved":false,"is_disabled":false,"rental_uris":{"android":"levelo://app?vid=ee7da5d6-ada5-4abe-8f4f-cc757e5429aa","ios":"levelo://app?vid=ee7da5d6-ada5-4abe-8f4f-cc757e5429aa"},"vehicle_type_id":"4","last_reported":1685869647,"current_range_meters":26400,"station_id":"ce4bgjh2rcd13ifvqbf0","pricing_plan_id":"free"},{"bike_id":"726e3ec4-6e82-4bf5-934a-f97d1b5b121d","system_id":"levelo_inurba_marseille","lat":43.2936,"lon":5.37835,"is_reserved":false,"is_disabled":false,"rental_uris":{"android":"levelo://app?vid=726e3ec4-6e82-4bf5-934a-f97d1b5b121d","ios":"levelo://app?vid=726e3ec4-6e82-4bf5-934a-f97d1b5b121d"},"vehicle_type_id":"4","last_reported":1685869647,"current_range_meters":14400,"station_id":"ce4bgjh2rcd13ifvqbf0","pricing_plan_id":"free"},{"bike_id":"4b8414c9-1831-43fc-b8f1-60f664482b80","system_id":"levelo_inurba_marseille","lat":43.292311,"lon":5.360731,"is_reserved":false,"is_disabled":false,"rental_uris":{"android":"levelo://app?vid=4b8414c9-1831-43fc-b8f1-60f664482b80","ios":"levelo://app?vid=4b8414c9-1831-43fc-b8f1-60f664482b80"},"vehicle_type_id":"4","last_reported":1685869647,"current_range_meters":31200,"station_id":"ce4bhbh2rcd13ifvqeqg","pricing_plan_id":"free"},{"bike_id":"82be9fb7-3a3b-4ee9-8e48-06a49f1d1254","system_id":"levelo_inurba_marseille","lat":43.292311,"lon":5.360731,"is_reserved":false,"is_disabled":false,"rental_uris":{"android":"levelo://app?vid=82be9fb7-3a3b-4ee9-8e48-06a49f1d1254","ios":"levelo://app?vid=82be9fb7-3a3b-4ee9-8e48-06a49f1d1254"},"vehicle_type_id":"4","last_reported":1685869647,"current_range_meters":29600,"station_id":"ce4bhbh2rcd13ifvqeqg","pricing_plan_id":"free"},{"bike_id":"cdc650a1-efc1-4db5-9176-4c05283dd42d","system_id":"levelo_inurba_marseille","lat":43.30086,"lon":5.39093,"is_reserved":false,"is_disabled":false,"rental_uris":{"android":"levelo://app?vid=cdc650a1-efc1-4db5-9176-4c05283dd42d","ios":"levelo://app?vid=cdc650a1-efc1-4db5-9176-4c05283dd42d"},"vehicle_type_id":"4","last_reported":1685869647,"current_range_meters":10000,"station_id":"ce4bh192rcd13ifvqdb0","pricing_plan_id":"free"},{"bike_id":"ed5c7ced-bc06-44b5-bc16-513c91f8cff8","system_id":"levelo_inurba_marseille","lat":43.292663,"lon":5.376394,"is_reserved":false,"is_disabled":false,"rental_uris":{"android":"levelo://app?vid=ed5c7ced-bc06-44b5-bc16-513c91f8cff8","ios":"levelo://app?vid=ed5c7ced-bc06-44b5-bc16-513c91f8cff8"},"vehicle_type_id":"4","last_reported":1685869647,"current_range_meters":26800,"station_id":"ce4bgi12rcd13ifvqb80","pricing_plan_id":"free"},{"bike_id":"f7b0ac49-d244-4a20-8422-f1b1ee41e2fa","system_id":"levelo_inurba_marseille","lat":43.291671,"lon":5.371575,"is_reserved":false,"is_disabled":false,"rental_uris":{"android":"levelo://app?vid=f7b0ac49-d244-4a20-8422-f1b1ee41e2fa","ios":"levelo://app?vid=f7b0ac49-d244-4a20-8422-f1b1ee41e2fa"},"vehicle_type_id":"4","last_reported":1685869647,"current_range_meters":0,"station_id":"ce4bha92rcd13ifvqeh0","pricing_plan_id":"free"},{"bike_id":"6c5bb474-a9cc-453c-971e-66faa72f0fa4","system_id":"levelo_inurba_marseille","lat":43.291994,"lon":5.357886,"is_reserved":false,"is_disabled":false,"rental_uris":{"android":"levelo://app?vid=6c5bb474-a9cc-453c-971e-66faa72f0fa4","ios":"levelo://app?vid=6c5bb474-a9cc-453c-971e-66faa72f0fa4"},"vehicle_type_id":"4","last_reported":1685869647,"current_range_meters":28000,"station_id":"ce4bhb12rcd13ifvqel0","pricing_plan_id":"free"},{"bike_id":"e590b2fb-237f-4659-9ceb-a32ea7e48e92","system_id":"levelo_inurba_marseille","lat":43.29188,"lon":5.35801,"is_reserved":false,"is_disabled":false,"rental_uris":{"android":"levelo://app?vid=e590b2fb-237f-4659-9ceb-a32ea7e48e92","ios":"levelo://app?vid=e590b2fb-237f-4659-9ceb-a32ea7e48e92"},"vehicle_type_id":"4","last_reported":1685869647,"current_range_meters":0,"station_id":"ce4bhb12rcd13ifvqel0","pricing_plan_id":"free"},{"bike_id":"a1d588f9-8125-4a8f-9f59-c1cf1bdc5430","system_id":"levelo_inurba_marseille","lat":43.32814,"lon":5.38922,"is_reserved":false,"is_disabled":false,"rental_uris":{"android":"levelo://app?vid=a1d588f9-8125-4a8f-9f59-c1cf1bdc5430","ios":"levelo://app?vid=a1d588f9-8125-4a8f-9f59-c1cf1bdc5430"},"vehicle_type_id":"4","last_reported":1685869647,"current_range_meters":13200,"station_id":"","pricing_plan_id":"free"},{"bike_id":"df57c3bd-e9f0-4abc-8b4f-6d141ffc99f9","system_id":"levelo_inurba_marseille","lat":43.294153,"lon":5.386305,"is_reserved":false,"is_disabled":false,"rental_uris":{"android":"levelo://app?vid=df57c3bd-e9f0-4abc-8b4f-6d141ffc99f9","ios":"levelo://app?vid=df57c3bd-e9f0-4abc-8b4f-6d141ffc99f9"},"vehicle_type_id":"4","last_reported":1685869647,"current_range_meters":26400,"station_id":"ce4bh2h2rcd13ifvqdh0","pricing_plan_id":"free"},{"bike_id":"eb8e4412-a3fa-4a69-9d75-1a8b980ed125","system_id":"levelo_inurba_marseille","lat":43.29163,"lon":5.38038,"is_reserved":false,"is_disabled":false,"rental_uris":{"android":"levelo://app?vid=eb8e4412-a3fa-4a69-9d75-1a8b980ed125","ios":"levelo://app?vid=eb8e4412-a3fa-4a69-9d75-1a8b980ed125"},"vehicle_type_id":"4","last_reported":1685869647,"current_range_meters":27200,"station_id":"","pricing_plan_id":"free"},{"bike_id":"0a8aba60-b51b-427d-be66-8709066b23d1","system_id":"levelo_inurba_marseille","lat":43.33254,"lon":5.38496,"is_reserved":false,"is_disabled":false,"rental_uris":{"android":"levelo://app?vid=0a8aba60-b51b-427d-be66-8709066b23d1","ios":"levelo://app?vid=0a8aba60-b51b-427d-be66-8709066b23d1"},"vehicle_type_id":"4","last_reported":1685869647,"current_range_meters":26400,"station_id":"","pricing_plan_id":"free"},{"bike_id":"cfed4e46-495a-4dfa-b7c0-ad5f2ebfb3a2","system_id":"levelo_inurba_marseille","lat":43.292644,"lon":5.384257,"is_reserved":false,"is_disabled":false,"rental_uris":{"android":"levelo://app?vid=cfed4e46-495a-4dfa-b7c0-ad5f2ebfb3a2","ios":"levelo://app?vid=cfed4e46-495a-4dfa-b7c0-ad5f2ebfb3a2"},"vehicle_type_id":"4","last_reported":1685869647,"current_range_meters":23600,"station_id":"ce4bh692rcd13ifvqea0","pricing_plan_id":"free"},{"bike_id":"0456b2c1-8a4f-4e94-ae33-a548e7711bcf","system_id":"levelo_inurba_marseille","lat":43.33039,"lon":5.38918,"is_reserved":false,"is_disabled":false,"rental_uris":{"android":"levelo://app?vid=0456b2c1-8a4f-4e94-ae33-a548e7711bcf","ios":"levelo://app?vid=0456b2c1-8a4f-4e94-ae33-a548e7711bcf"},"vehicle_type_id":"4","last_reported":1685869647,"current_range_meters":13200,"station_id":"ce4bhr92rcd13ifvqhrg","pricing_plan_id":"free"},{"bike_id":"05f1a2c7-d830-495c-86b8-292585194459","system_id":"levelo_inurba_marseille","lat":43.3304,"lon":5.38922,"is_reserved":false,"is_disabled":false,"rental_uris":{"android":"levelo://app?vid=05f1a2c7-d830-495c-86b8-292585194459","ios":"levelo://app?vid=05f1a2c7-d830-495c-86b8-292585194459"},"vehicle_type_id":"4","last_reported":1685869647,"current_range_meters":20000,"station_id":"ce4bhr92rcd13ifvqhrg","pricing_plan_id":"free"},{"bike_id":"e2b942e0-3901-4124-a71d-a8535684af38","system_id":"levelo_inurba_marseille","lat":43.33044,"lon":5.38916,"is_reserved":false,"is_disabled":false,"rental_uris":{"android":"levelo://app?vid=e2b942e0-3901-4124-a71d-a8535684af38","ios":"levelo://app?vid=e2b942e0-3901-4124-a71d-a8535684af38"},"vehicle_type_id":"4","last_reported":1685869647,"current_range_meters":27200,"station_id":"ce4bhr92rcd13ifvqhrg","pricing_plan_id":"free"},{"bike_id":"dcb00244-aef9-4eec-91cd-42ea75ebd82c","system_id":"levelo_inurba_marseille","lat":43.3305,"lon":5.3891,"is_reserved":false,"is_disabled":false,"rental_uris":{"android":"levelo://app?vid=dcb00244-aef9-4eec-91cd-42ea75ebd82c","ios":"levelo://app?vid=dcb00244-aef9-4eec-91cd-42ea75ebd82c"},"vehicle_type_id":"4","last_reported":1685869647,"current_range_meters":4400,"station_id":"ce4bhr92rcd13ifvqhrg","pricing_plan_id":"free"},{"bike_id":"dfcec2ae-f8b6-43f9-9b67-7ed3292806a2","system_id":"levelo_inurba_marseille","lat":43.29019,"lon":5.3813,"is_reserved":false,"is_disabled":false,"rental_uris":{"android":"levelo://app?vid=dfcec2ae-f8b6-43f9-9b67-7ed3292806a2","ios":"levelo://app?vid=dfcec2ae-f8b6-43f9-9b67-7ed3292806a2"},"vehicle_type_id":"4","last_reported":1685869647,"current_range_meters":22000,"station_id":"ce4bh4p2rcd13ifvqe1g","pricing_plan_id":"free"},{"bike_id":"906c92d3-e27e-493a-a6d4-6f465d8a62b6","system_id":"levelo_inurba_marseille","lat":43.29018,"lon":5.38132,"is_reserved":false,"is_disabled":false,"rental_uris":{"android":"levelo://app?vid=906c92d3-e27e-493a-a6d4-6f465d8a62b6","ios":"levelo://app?vid=906c92d3-e27e-493a-a6d4-6f465d8a62b6"},"vehicle_type_id":"4","last_reported":1685869647,"current_range_meters":0,"station_id":"ce4bh4p2rcd13ifvqe1g","pricing_plan_id":"free"},{"bike_id":"1dc2cc99-6997-4e64-abe8-10878865daff","system_id":"levelo_inurba_marseille","lat":43.30932,"lon":5.40143,"is_reserved":false,"is_disabled":false,"rental_uris":{"android":"levelo://app?vid=1dc2cc99-6997-4e64-abe8-10878865daff","ios":"levelo://app?vid=1dc2cc99-6997-4e64-abe8-10878865daff"},"vehicle_type_id":"4","last_reported":1685869647,"current_range_meters":14000,"station_id":"","pricing_plan_id":"free"},{"bike_id":"d6238031-a3ae-4459-8d83-34438c8680d4","system_id":"levelo_inurba_marseille","lat":43.3093,"lon":5.40147,"is_reserved":false,"is_disabled":false,"rental_uris":{"android":"levelo://app?vid=d6238031-a3ae-4459-8d83-34438c8680d4","ios":"levelo://app?vid=d6238031-a3ae-4459-8d83-34438c8680d4"},"vehicle_type_id":"4","last_reported":1685869647,"current_range_meters":13600,"station_id":"","pricing_plan_id":"free"},{"bike_id":"675927e0-ab95-41a0-80be-7ee111a218f5","system_id":"levelo_inurba_marseille","lat":43.3375,"lon":5.37472,"is_reserved":false,"is_disabled":false,"rental_uris":{"android":"levelo://app?vid=675927e0-ab95-41a0-80be-7ee111a218f5","ios":"levelo://app?vid=675927e0-ab95-41a0-80be-7ee111a218f5"},"vehicle_type_id":"4","last_reported":1685869647,"current_range_meters":28400,"station_id":"","pricing_plan_id":"free"},{"bike_id":"cf0caa37-cec8-408b-98f7-37211a80813c","system_id":"levelo_inurba_marseille","lat":43.33775,"lon":5.37425,"is_reserved":false,"is_disabled":false,"rental_uris":{"android":"levelo://app?vid=cf0caa37-cec8-408b-98f7-37211a80813c","ios":"levelo://app?vid=cf0caa37-cec8-408b-98f7-37211a80813c"},"vehicle_type_id":"4","last_reported":1685869647,"current_range_meters":29600,"station_id":"","pricing_plan_id":"free"},{"bike_id":"65da33bb-c2d0-4edb-93df-d4a49e8f6e41","system_id":"levelo_inurba_marseille","lat":43.30642,"lon":5.401031,"is_reserved":false,"is_disabled":false,"rental_uris":{"android":"levelo://app?vid=65da33bb-c2d0-4edb-93df-d4a49e8f6e41","ios":"levelo://app?vid=65da33bb-c2d0-4edb-93df-d4a49e8f6e41"},"vehicle_type_id":"4","last_reported":1685869647,"current_range_meters":25200,"station_id":"ce4bh112rcd13ifvqda0","pricing_plan_id":"free"},{"bike_id":"ee0a127f-6865-449f-9842-639916455908","system_id":"levelo_inurba_marseille","lat":43.302759,"lon":5.400793,"is_reserved":false,"is_disabled":false,"rental_uris":{"android":"levelo://app?vid=ee0a127f-6865-449f-9842-639916455908","ios":"levelo://app?vid=ee0a127f-6865-449f-9842-639916455908"},"vehicle_type_id":"4","last_reported":1685869647,"current_range_meters":26800,"station_id":"ce4bgvh2rcd13ifvqcs0","pricing_plan_id":"free"},{"bike_id":"3fb8ddd4-5204-42b2-af4f-65d1ec4a2896","system_id":"levelo_inurba_marseille","lat":43.290336,"lon":5.386425,"is_reserved":false,"is_disabled":false,"rental_uris":{"android":"levelo://app?vid=3fb8ddd4-5204-42b2-af4f-65d1ec4a2896","ios":"levelo://app?vid=3fb8ddd4-5204-42b2-af4f-65d1ec4a2896"},"vehicle_type_id":"4","last_reported":1685869647,"current_range_meters":14400,"station_id":"ce4bh4p2rcd13ifvqe0g","pricing_plan_id":"free"},{"bike_id":"60fe09c3-ca62-49db-acda-81cf69aab1bb","system_id":"levelo_inurba_marseille","lat":43.290336,"lon":5.386425,"is_reserved":false,"is_disabled":false,"rental_uris":{"android":"levelo://app?vid=60fe09c3-ca62-49db-acda-81cf69aab1bb","ios":"levelo://app?vid=60fe09c3-ca62-49db-acda-81cf69aab1bb"},"vehicle_type_id":"4","last_reported":1685869647,"current_range_meters":22400,"station_id":"ce4bh4p2rcd13ifvqe0g","pricing_plan_id":"free"},{"bike_id":"fa51245b-01db-43ae-982f-5d1b6c90f291","system_id":"levelo_inurba_marseille","lat":43.290345,"lon":5.38646,"is_reserved":false,"is_disabled":false,"rental_uris":{"android":"levelo://app?vid=fa51245b-01db-43ae-982f-5d1b6c90f291","ios":"levelo://app?vid=fa51245b-01db-43ae-982f-5d1b6c90f291"},"vehicle_type_id":"4","last_reported":1685869647,"current_range_meters":28000,"station_id":"ce4bh4p2rcd13ifvqe0g","pricing_plan_id":"free"},{"bike_id":"f200b9e7-9cb3-4154-84a4-a10fc617c864","system_id":"levelo_inurba_marseille","lat":43.30242,"lon":5.40159,"is_reserved":false,"is_disabled":false,"rental_uris":{"android":"levelo://app?vid=f200b9e7-9cb3-4154-84a4-a10fc617c864","ios":"levelo://app?vid=f200b9e7-9cb3-4154-84a4-a10fc617c864"},"vehicle_type_id":"4","last_reported":1685869647,"current_range_meters":0,"station_id":"","pricing_plan_id":"free"},{"bike_id":"47bc9ea5-185b-4081-924d-2a1dd1551651","system_id":"levelo_inurba_marseille","lat":43.316517,"lon":5.404375,"is_reserved":false,"is_disabled":false,"rental_uris":{"android":"levelo://app?vid=47bc9ea5-185b-4081-924d-2a1dd1551651","ios":"levelo://app?vid=47bc9ea5-185b-4081-924d-2a1dd1551651"},"vehicle_type_id":"4","last_reported":1685869647,"current_range_meters":15600,"station_id":"ce4bh012rcd13ifvqd00","pricing_plan_id":"free"},{"bike_id":"7cf0c8f2-6032-4a5a-954c-9f906e055823","system_id":"levelo_inurba_marseille","lat":43.316517,"lon":5.404375,"is_reserved":false,"is_disabled":false,"rental_uris":{"android":"levelo://app?vid=7cf0c8f2-6032-4a5a-954c-9f906e055823","ios":"levelo://app?vid=7cf0c8f2-6032-4a5a-954c-9f906e055823"},"vehicle_type_id":"4","last_reported":1685869647,"current_range_meters":31200,"station_id":"ce4bh012rcd13ifvqd00","pricing_plan_id":"free"},{"bike_id":"c3019c84-f303-4165-9fee-f6ea208b66cc","system_id":"levelo_inurba_marseille","lat":43.30044,"lon":5.40172,"is_reserved":false,"is_disabled":false,"rental_uris":{"android":"levelo://app?vid=c3019c84-f303-4165-9fee-f6ea208b66cc","ios":"levelo://app?vid=c3019c84-f303-4165-9fee-f6ea208b66cc"},"vehicle_type_id":"4","last_reported":1685869647,"current_range_meters":0,"station_id":"","pricing_plan_id":"free"},{"bike_id":"751de416-f13f-4eb1-94fb-df881054114a","system_id":"levelo_inurba_marseille","lat":43.284534,"lon":5.358662,"is_reserved":false,"is_disabled":false,"rental_uris":{"android":"levelo://app?vid=751de416-f13f-4eb1-94fb-df881054114a","ios":"levelo://app?vid=751de416-f13f-4eb1-94fb-df881054114a"},"vehicle_type_id":"4","last_reported":1685869647,"current_range_meters":22400,"station_id":"ce4bhah2rcd13ifvqei0","pricing_plan_id":"free"},{"bike_id":"8055258b-3509-42b0-aced-9faffc514f8a","system_id":"levelo_inurba_marseille","lat":43.285848,"lon":5.350787,"is_reserved":false,"is_disabled":false,"rental_uris":{"android":"levelo://app?vid=8055258b-3509-42b0-aced-9faffc514f8a","ios":"levelo://app?vid=8055258b-3509-42b0-aced-9faffc514f8a"},"vehicle_type_id":"4","last_reported":1685869647,"current_range_meters":27200,"station_id":"ce4bhch2rcd13ifvqeug","pricing_plan_id":"free"},{"bike_id":"3e09b0fa-dd8c-4079-8346-e8dd3caf896d","system_id":"levelo_inurba_marseille","lat":43.285856,"lon":5.350771,"is_reserved":false,"is_disabled":false,"rental_uris":{"android":"levelo://app?vid=3e09b0fa-dd8c-4079-8346-e8dd3caf896d","ios":"levelo://app?vid=3e09b0fa-dd8c-4079-8346-e8dd3caf896d"},"vehicle_type_id":"4","last_reported":1685869647,"current_range_meters":30800,"station_id":"ce4bhch2rcd13ifvqeug","pricing_plan_id":"free"},{"bike_id":"c030ed44-1097-48a9-8354-bbbbde62a048","system_id":"levelo_inurba_marseille","lat":43.285856,"lon":5.350771,"is_reserved":false,"is_disabled":false,"rental_uris":{"android":"levelo://app?vid=c030ed44-1097-48a9-8354-bbbbde62a048","ios":"levelo://app?vid=c030ed44-1097-48a9-8354-bbbbde62a048"},"vehicle_type_id":"4","last_reported":1685869647,"current_range_meters":28800,"station_id":"ce4bhch2rcd13ifvqeug","pricing_plan_id":"free"},{"bike_id":"0a5e25f5-e34a-4905-8427-38a3f4f7cb23","system_id":"levelo_inurba_marseille","lat":43.285856,"lon":5.350771,"is_reserved":false,"is_disabled":false,"rental_uris":{"android":"levelo://app?vid=0a5e25f5-e34a-4905-8427-38a3f4f7cb23","ios":"levelo://app?vid=0a5e25f5-e34a-4905-8427-38a3f4f7cb23"},"vehicle_type_id":"4","last_reported":1685869647,"current_range_meters":24000,"station_id":"ce4bhch2rcd13ifvqeug","pricing_plan_id":"free"},{"bike_id":"63732684-3575-49ca-ac67-b4643cd5bfb5","system_id":"levelo_inurba_marseille","lat":43.285848,"lon":5.350787,"is_reserved":false,"is_disabled":false,"rental_uris":{"android":"levelo://app?vid=63732684-3575-49ca-ac67-b4643cd5bfb5","ios":"levelo://app?vid=63732684-3575-49ca-ac67-b4643cd5bfb5"},"vehicle_type_id":"4","last_reported":1685869647,"current_range_meters":24400,"station_id":"ce4bhch2rcd13ifvqeug","pricing_plan_id":"free"},{"bike_id":"dae057cb-dfa4-43d3-8cfc-b2d3ca24eca1","system_id":"levelo_inurba_marseille","lat":43.285848,"lon":5.350787,"is_reserved":false,"is_disabled":false,"rental_uris":{"android":"levelo://app?vid=dae057cb-dfa4-43d3-8cfc-b2d3ca24eca1","ios":"levelo://app?vid=dae057cb-dfa4-43d3-8cfc-b2d3ca24eca1"},"vehicle_type_id":"4","last_reported":1685869647,"current_range_meters":26400,"station_id":"ce4bhch2rcd13ifvqeug","pricing_plan_id":"free"},{"bike_id":"427ce0d4-ef83-4123-a219-06ea3974a08b","system_id":"levelo_inurba_marseille","lat":43.2853,"lon":5.38391,"is_reserved":false,"is_disabled":false,"rental_uris":{"android":"levelo://app?vid=427ce0d4-ef83-4123-a219-06ea3974a08b","ios":"levelo://app?vid=427ce0d4-ef83-4123-a219-06ea3974a08b"},"vehicle_type_id":"4","last_reported":1685869647,"current_range_meters":24800,"station_id":"","pricing_plan_id":"free"},{"bike_id":"b205e703-9cc6-479d-b47b-dcec15459f4d","system_id":"levelo_inurba_marseille","lat":43.3265,"lon":5.40389,"is_reserved":false,"is_disabled":false,"rental_uris":{"android":"levelo://app?vid=b205e703-9cc6-479d-b47b-dcec15459f4d","ios":"levelo://app?vid=b205e703-9cc6-479d-b47b-dcec15459f4d"},"vehicle_type_id":"4","last_reported":1685869647,"current_range_meters":14000,"station_id":"","pricing_plan_id":"free"},{"bike_id":"dc48d646-2521-45ce-874e-3b2a64ab5dc5","system_id":"levelo_inurba_marseille","lat":43.323464,"lon":5.406297,"is_reserved":false,"is_disabled":false,"rental_uris":{"android":"levelo://app?vid=dc48d646-2521-45ce-874e-3b2a64ab5dc5","ios":"levelo://app?vid=dc48d646-2521-45ce-874e-3b2a64ab5dc5"},"vehicle_type_id":"4","last_reported":1685869647,"current_range_meters":26400,"station_id":"ce4bhq92rcd13ifvqhjg","pricing_plan_id":"free"},{"bike_id":"50907e2b-978d-4878-87d9-05ccc3a86a19","system_id":"levelo_inurba_marseille","lat":43.323464,"lon":5.406297,"is_reserved":false,"is_disabled":false,"rental_uris":{"android":"levelo://app?vid=50907e2b-978d-4878-87d9-05ccc3a86a19","ios":"levelo://app?vid=50907e2b-978d-4878-87d9-05ccc3a86a19"},"vehicle_type_id":"4","last_reported":1685869647,"current_range_meters":31200,"station_id":"ce4bhq92rcd13ifvqhjg","pricing_plan_id":"free"},{"bike_id":"dd930d30-a835-4ffb-bc74-c7fed3105eb4","system_id":"levelo_inurba_marseille","lat":43.288497,"lon":5.393089,"is_reserved":false,"is_disabled":false,"rental_uris":{"android":"levelo://app?vid=dd930d30-a835-4ffb-bc74-c7fed3105eb4","ios":"levelo://app?vid=dd930d30-a835-4ffb-bc74-c7fed3105eb4"},"vehicle_type_id":"4","last_reported":1685869647,"current_range_meters":6800,"station_id":"ce4bh2p2rcd13ifvqdi0","pricing_plan_id":"free"},{"bike_id":"b6741314-0a5a-4b39-951d-b99f5998faa0","system_id":"levelo_inurba_marseille","lat":43.284793,"lon":5.384119,"is_reserved":false,"is_disabled":false,"rental_uris":{"android":"levelo://app?vid=b6741314-0a5a-4b39-951d-b99f5998faa0","ios":"levelo://app?vid=b6741314-0a5a-4b39-951d-b99f5998faa0"},"vehicle_type_id":"4","last_reported":1685869647,"current_range_meters":18000,"station_id":"ce4bh512rcd13ifvqe3g","pricing_plan_id":"free"},{"bike_id":"7e474bf3-ef7c-442b-a8d4-46defa21196a","system_id":"levelo_inurba_marseille","lat":43.282744,"lon":5.350533,"is_reserved":false,"is_disabled":false,"rental_uris":{"android":"levelo://app?vid=7e474bf3-ef7c-442b-a8d4-46defa21196a","ios":"levelo://app?vid=7e474bf3-ef7c-442b-a8d4-46defa21196a"},"vehicle_type_id":"4","last_reported":1685869647,"current_range_meters":19200,"station_id":"ce4bhbp2rcd13ifvqerg","pricing_plan_id":"free"},{"bike_id":"6f712865-1b7d-49c9-a32a-c9e344686099","system_id":"levelo_inurba_marseille","lat":43.282754,"lon":5.350519,"is_reserved":false,"is_disabled":false,"rental_uris":{"android":"levelo://app?vid=6f712865-1b7d-49c9-a32a-c9e344686099","ios":"levelo://app?vid=6f712865-1b7d-49c9-a32a-c9e344686099"},"vehicle_type_id":"4","last_reported":1685869647,"current_range_meters":25200,"station_id":"ce4bhbp2rcd13ifvqerg","pricing_plan_id":"free"},{"bike_id":"5276f476-f989-4f18-a9b1-3318563694e3","system_id":"levelo_inurba_marseille","lat":43.282754,"lon":5.350519,"is_reserved":false,"is_disabled":false,"rental_uris":{"android":"levelo://app?vid=5276f476-f989-4f18-a9b1-3318563694e3","ios":"levelo://app?vid=5276f476-f989-4f18-a9b1-3318563694e3"},"vehicle_type_id":"4","last_reported":1685869647,"current_range_meters":19200,"station_id":"ce4bhbp2rcd13ifvqerg","pricing_plan_id":"free"},{"bike_id":"ee4245c8-fff2-4a87-a1e6-a5b71bbc4f46","system_id":"levelo_inurba_marseille","lat":43.282744,"lon":5.350533,"is_reserved":false,"is_disabled":false,"rental_uris":{"android":"levelo://app?vid=ee4245c8-fff2-4a87-a1e6-a5b71bbc4f46","ios":"levelo://app?vid=ee4245c8-fff2-4a87-a1e6-a5b71bbc4f46"},"vehicle_type_id":"4","last_reported":1685869647,"current_range_meters":19200,"station_id":"ce4bhbp2rcd13ifvqerg","pricing_plan_id":"free"},{"bike_id":"4fdd97f6-161b-4b16-a15c-96931e872610","system_id":"levelo_inurba_marseille","lat":43.282744,"lon":5.350533,"is_reserved":false,"is_disabled":false,"rental_uris":{"android":"levelo://app?vid=4fdd97f6-161b-4b16-a15c-96931e872610","ios":"levelo://app?vid=4fdd97f6-161b-4b16-a15c-96931e872610"},"vehicle_type_id":"4","last_reported":1685869647,"current_range_meters":23200,"station_id":"ce4bhbp2rcd13ifvqerg","pricing_plan_id":"free"},{"bike_id":"fbe194ad-e859-47d5-a0a7-ad284165ae43","system_id":"levelo_inurba_marseille","lat":43.296921,"lon":5.376579,"is_reserved":false,"is_disabled":false,"rental_uris":{"android":"levelo://app?vid=fbe194ad-e859-47d5-a0a7-ad284165ae43","ios":"levelo://app?vid=fbe194ad-e859-47d5-a0a7-ad284165ae43"},"vehicle_type_id":"4","last_reported":1685869647,"current_range_meters":16000,"station_id":"ce4bgkh2rcd13ifvqbl0","pricing_plan_id":"free"},{"bike_id":"a95de987-2309-47fa-807f-4971608d76f9","system_id":"levelo_inurba_marseille","lat":43.284472,"lon":5.392156,"is_reserved":false,"is_disabled":false,"rental_uris":{"android":"levelo://app?vid=a95de987-2309-47fa-807f-4971608d76f9","ios":"levelo://app?vid=a95de987-2309-47fa-807f-4971608d76f9"},"vehicle_type_id":"4","last_reported":1685869647,"current_range_meters":30800,"station_id":"ce4bhoh2rcd13ifvqh5g","pricing_plan_id":"free"},{"bike_id":"882ef9f2-94e0-49ff-831e-c8e3b3ba2c71","system_id":"levelo_inurba_marseille","lat":43.304188,"lon":5.412904,"is_reserved":false,"is_disabled":false,"rental_uris":{"android":"levelo://app?vid=882ef9f2-94e0-49ff-831e-c8e3b3ba2c71","ios":"levelo://app?vid=882ef9f2-94e0-49ff-831e-c8e3b3ba2c71"},"vehicle_type_id":"4","last_reported":1685869647,"current_range_meters":31200,"station_id":"ce4bhop2rcd13ifvqh8g","pricing_plan_id":"free"},{"bike_id":"2da5e5a4-1a01-40ae-b6c2-2260b059d0ef","system_id":"levelo_inurba_marseille","lat":43.320045,"lon":5.415046,"is_reserved":false,"is_disabled":false,"rental_uris":{"android":"levelo://app?vid=2da5e5a4-1a01-40ae-b6c2-2260b059d0ef","ios":"levelo://app?vid=2da5e5a4-1a01-40ae-b6c2-2260b059d0ef"},"vehicle_type_id":"4","last_reported":1685869647,"current_range_meters":27600,"station_id":"ce4bhq92rcd13ifvqhkg","pricing_plan_id":"free"},{"bike_id":"9b0864a2-4eed-4b54-8c3c-16e492dcf29d","system_id":"levelo_inurba_marseille","lat":43.320045,"lon":5.415048,"is_reserved":false,"is_disabled":false,"rental_uris":{"android":"levelo://app?vid=9b0864a2-4eed-4b54-8c3c-16e492dcf29d","ios":"levelo://app?vid=9b0864a2-4eed-4b54-8c3c-16e492dcf29d"},"vehicle_type_id":"4","last_reported":1685869647,"current_range_meters":26800,"station_id":"ce4bhq92rcd13ifvqhkg","pricing_plan_id":"free"},{"bike_id":"9dd45f8e-779e-4940-a82e-7005357ecb61","system_id":"levelo_inurba_marseille","lat":43.320045,"lon":5.415046,"is_reserved":false,"is_disabled":false,"rental_uris":{"android":"levelo://app?vid=9dd45f8e-779e-4940-a82e-7005357ecb61","ios":"levelo://app?vid=9dd45f8e-779e-4940-a82e-7005357ecb61"},"vehicle_type_id":"4","last_reported":1685869647,"current_range_meters":29600,"station_id":"ce4bhq92rcd13ifvqhkg","pricing_plan_id":"free"},{"bike_id":"d0af90bf-a9d6-4e0a-bb03-ec3a7c4a21ff","system_id":"levelo_inurba_marseille","lat":43.320045,"lon":5.415046,"is_reserved":false,"is_disabled":false,"rental_uris":{"android":"levelo://app?vid=d0af90bf-a9d6-4e0a-bb03-ec3a7c4a21ff","ios":"levelo://app?vid=d0af90bf-a9d6-4e0a-bb03-ec3a7c4a21ff"},"vehicle_type_id":"4","last_reported":1685869647,"current_range_meters":31200,"station_id":"ce4bhq92rcd13ifvqhkg","pricing_plan_id":"free"},{"bike_id":"dc0e41a2-03bd-4767-ac81-da228ae1b8b5","system_id":"levelo_inurba_marseille","lat":43.320045,"lon":5.415048,"is_reserved":false,"is_disabled":false,"rental_uris":{"android":"levelo://app?vid=dc0e41a2-03bd-4767-ac81-da228ae1b8b5","ios":"levelo://app?vid=dc0e41a2-03bd-4767-ac81-da228ae1b8b5"},"vehicle_type_id":"4","last_reported":1685869647,"current_range_meters":16000,"station_id":"ce4bhq92rcd13ifvqhkg","pricing_plan_id":"free"},{"bike_id":"6a393bd7-90bb-4794-9445-d37322c69d35","system_id":"levelo_inurba_marseille","lat":43.29959,"lon":5.4132,"is_reserved":false,"is_disabled":false,"rental_uris":{"android":"levelo://app?vid=6a393bd7-90bb-4794-9445-d37322c69d35","ios":"levelo://app?vid=6a393bd7-90bb-4794-9445-d37322c69d35"},"vehicle_type_id":"4","last_reported":1685869647,"current_range_meters":31200,"station_id":"ce4bhp12rcd13ifvqh9g","pricing_plan_id":"free"},{"bike_id":"bb1a3551-3882-4160-b708-148ec7de5e54","system_id":"levelo_inurba_marseille","lat":43.320045,"lon":5.415048,"is_reserved":false,"is_disabled":false,"rental_uris":{"android":"levelo://app?vid=bb1a3551-3882-4160-b708-148ec7de5e54","ios":"levelo://app?vid=bb1a3551-3882-4160-b708-148ec7de5e54"},"vehicle_type_id":"4","last_reported":1685869647,"current_range_meters":28800,"station_id":"ce4bhq92rcd13ifvqhkg","pricing_plan_id":"free"},{"bike_id":"3c811563-1140-4095-9fa7-28db9ea729d8","system_id":"levelo_inurba_marseille","lat":43.320045,"lon":5.415048,"is_reserved":false,"is_disabled":false,"rental_uris":{"android":"levelo://app?vid=3c811563-1140-4095-9fa7-28db9ea729d8","ios":"levelo://app?vid=3c811563-1140-4095-9fa7-28db9ea729d8"},"vehicle_type_id":"4","last_reported":1685869647,"current_range_meters":30000,"station_id":"ce4bhq92rcd13ifvqhkg","pricing_plan_id":"free"},{"bike_id":"a706ea2a-2f80-4ba9-894d-a21b3201e0bc","system_id":"levelo_inurba_marseille","lat":43.320045,"lon":5.415046,"is_reserved":false,"is_disabled":false,"rental_uris":{"android":"levelo://app?vid=a706ea2a-2f80-4ba9-894d-a21b3201e0bc","ios":"levelo://app?vid=a706ea2a-2f80-4ba9-894d-a21b3201e0bc"},"vehicle_type_id":"4","last_reported":1685869647,"current_range_meters":31200,"station_id":"ce4bhq92rcd13ifvqhkg","pricing_plan_id":"free"},{"bike_id":"df6c1fb7-7b02-4d5c-aa4e-fe08d3de6b95","system_id":"levelo_inurba_marseille","lat":43.320045,"lon":5.415048,"is_reserved":false,"is_disabled":false,"rental_uris":{"android":"levelo://app?vid=df6c1fb7-7b02-4d5c-aa4e-fe08d3de6b95","ios":"levelo://app?vid=df6c1fb7-7b02-4d5c-aa4e-fe08d3de6b95"},"vehicle_type_id":"4","last_reported":1685869647,"current_range_meters":31200,"station_id":"ce4bhq92rcd13ifvqhkg","pricing_plan_id":"free"},{"bike_id":"ae6cf5cf-9fd5-42c0-8466-eb012fc96d25","system_id":"levelo_inurba_marseille","lat":43.320045,"lon":5.415046,"is_reserved":false,"is_disabled":false,"rental_uris":{"android":"levelo://app?vid=ae6cf5cf-9fd5-42c0-8466-eb012fc96d25","ios":"levelo://app?vid=ae6cf5cf-9fd5-42c0-8466-eb012fc96d25"},"vehicle_type_id":"4","last_reported":1685869647,"current_range_meters":31600,"station_id":"ce4bhq92rcd13ifvqhkg","pricing_plan_id":"free"},{"bike_id":"89f41c9a-9f75-4bfa-b9e8-88fc24034e55","system_id":"levelo_inurba_marseille","lat":43.320045,"lon":5.415048,"is_reserved":false,"is_disabled":false,"rental_uris":{"android":"levelo://app?vid=89f41c9a-9f75-4bfa-b9e8-88fc24034e55","ios":"levelo://app?vid=89f41c9a-9f75-4bfa-b9e8-88fc24034e55"},"vehicle_type_id":"4","last_reported":1685869647,"current_range_meters":29600,"station_id":"ce4bhq92rcd13ifvqhkg","pricing_plan_id":"free"},{"bike_id":"02b1a7ea-7b44-40cd-ba44-b50ec278a767","system_id":"levelo_inurba_marseille","lat":43.320197,"lon":5.415666,"is_reserved":false,"is_disabled":false,"rental_uris":{"android":"levelo://app?vid=02b1a7ea-7b44-40cd-ba44-b50ec278a767","ios":"levelo://app?vid=02b1a7ea-7b44-40cd-ba44-b50ec278a767"},"vehicle_type_id":"4","last_reported":1685869647,"current_range_meters":13200,"station_id":"","pricing_plan_id":"free"},{"bike_id":"8f583682-bb3f-4a61-94d0-accd616865d0","system_id":"levelo_inurba_marseille","lat":43.320045,"lon":5.415048,"is_reserved":false,"is_disabled":false,"rental_uris":{"android":"levelo://app?vid=8f583682-bb3f-4a61-94d0-accd616865d0","ios":"levelo://app?vid=8f583682-bb3f-4a61-94d0-accd616865d0"},"vehicle_type_id":"4","last_reported":1685869647,"current_range_meters":18800,"station_id":"ce4bhq92rcd13ifvqhkg","pricing_plan_id":"free"},{"bike_id":"69e386d1-7433-4cdc-b124-41af3fb6143d","system_id":"levelo_inurba_marseille","lat":43.320045,"lon":5.415048,"is_reserved":false,"is_disabled":false,"rental_uris":{"android":"levelo://app?vid=69e386d1-7433-4cdc-b124-41af3fb6143d","ios":"levelo://app?vid=69e386d1-7433-4cdc-b124-41af3fb6143d"},"vehicle_type_id":"4","last_reported":1685869647,"current_range_meters":28800,"station_id":"ce4bhq92rcd13ifvqhkg","pricing_plan_id":"free"},{"bike_id":"bc4dc0e7-b26e-44c4-b47d-2893123703b2","system_id":"levelo_inurba_marseille","lat":43.320045,"lon":5.415046,"is_reserved":false,"is_disabled":false,"rental_uris":{"android":"levelo://app?vid=bc4dc0e7-b26e-44c4-b47d-2893123703b2","ios":"levelo://app?vid=bc4dc0e7-b26e-44c4-b47d-2893123703b2"},"vehicle_type_id":"4","last_reported":1685869647,"current_range_meters":31600,"station_id":"ce4bhq92rcd13ifvqhkg","pricing_plan_id":"free"},{"bike_id":"94888bef-8553-4da3-b9a2-441ae92b1bf5","system_id":"levelo_inurba_marseille","lat":43.320045,"lon":5.415048,"is_reserved":false,"is_disabled":false,"rental_uris":{"android":"levelo://app?vid=94888bef-8553-4da3-b9a2-441ae92b1bf5","ios":"levelo://app?vid=94888bef-8553-4da3-b9a2-441ae92b1bf5"},"vehicle_type_id":"4","last_reported":1685869647,"current_range_meters":29200,"station_id":"ce4bhq92rcd13ifvqhkg","pricing_plan_id":"free"},{"bike_id":"162f783d-5834-4465-97fd-ba71b3182bf5","system_id":"levelo_inurba_marseille","lat":43.320045,"lon":5.415046,"is_reserved":false,"is_disabled":false,"rental_uris":{"android":"levelo://app?vid=162f783d-5834-4465-97fd-ba71b3182bf5","ios":"levelo://app?vid=162f783d-5834-4465-97fd-ba71b3182bf5"},"vehicle_type_id":"4","last_reported":1685869647,"current_range_meters":31200,"station_id":"ce4bhq92rcd13ifvqhkg","pricing_plan_id":"free"},{"bike_id":"0c739346-4d08-4d79-a607-c879a11b59ec","system_id":"levelo_inurba_marseille","lat":43.320045,"lon":5.415046,"is_reserved":false,"is_disabled":false,"rental_uris":{"android":"levelo://app?vid=0c739346-4d08-4d79-a607-c879a11b59ec","ios":"levelo://app?vid=0c739346-4d08-4d79-a607-c879a11b59ec"},"vehicle_type_id":"4","last_reported":1685869647,"current_range_meters":30000,"station_id":"ce4bhq92rcd13ifvqhkg","pricing_plan_id":"free"},{"bike_id":"781b2f7b-81ba-4c34-9163-b045dafe359c","system_id":"levelo_inurba_marseille","lat":43.320045,"lon":5.415046,"is_reserved":false,"is_disabled":false,"rental_uris":{"android":"levelo://app?vid=781b2f7b-81ba-4c34-9163-b045dafe359c","ios":"levelo://app?vid=781b2f7b-81ba-4c34-9163-b045dafe359c"},"vehicle_type_id":"4","last_reported":1685869647,"current_range_meters":31600,"station_id":"ce4bhq92rcd13ifvqhkg","pricing_plan_id":"free"},{"bike_id":"15292a35-debd-4d55-ab66-e14fe147b2b9","system_id":"levelo_inurba_marseille","lat":43.320045,"lon":5.415046,"is_reserved":false,"is_disabled":false,"rental_uris":{"android":"levelo://app?vid=15292a35-debd-4d55-ab66-e14fe147b2b9","ios":"levelo://app?vid=15292a35-debd-4d55-ab66-e14fe147b2b9"},"vehicle_type_id":"4","last_reported":1685869647,"current_range_meters":28000,"station_id":"ce4bhq92rcd13ifvqhkg","pricing_plan_id":"free"},{"bike_id":"85080033-a16e-4ce2-a186-35d0563746cb","system_id":"levelo_inurba_marseille","lat":43.320045,"lon":5.415046,"is_reserved":false,"is_disabled":false,"rental_uris":{"android":"levelo://app?vid=85080033-a16e-4ce2-a186-35d0563746cb","ios":"levelo://app?vid=85080033-a16e-4ce2-a186-35d0563746cb"},"vehicle_type_id":"4","last_reported":1685869647,"current_range_meters":26800,"station_id":"ce4bhq92rcd13ifvqhkg","pricing_plan_id":"free"},{"bike_id":"d2550779-ddc9-4e86-830b-cc6b8233b665","system_id":"levelo_inurba_marseille","lat":43.276179,"lon":5.361009,"is_reserved":false,"is_disabled":false,"rental_uris":{"android":"levelo://app?vid=d2550779-ddc9-4e86-830b-cc6b8233b665","ios":"levelo://app?vid=d2550779-ddc9-4e86-830b-cc6b8233b665"},"vehicle_type_id":"4","last_reported":1685869647,"current_range_meters":15600,"station_id":"ce4bgj92rcd13ifvqbe0","pricing_plan_id":"free"},{"bike_id":"07785ef3-5e3d-4590-9985-edd92975a141","system_id":"levelo_inurba_marseille","lat":43.276179,"lon":5.361009,"is_reserved":false,"is_disabled":false,"rental_uris":{"android":"levelo://app?vid=07785ef3-5e3d-4590-9985-edd92975a141","ios":"levelo://app?vid=07785ef3-5e3d-4590-9985-edd92975a141"},"vehicle_type_id":"4","last_reported":1685869647,"current_range_meters":10800,"station_id":"ce4bgj92rcd13ifvqbe0","pricing_plan_id":"free"},{"bike_id":"6639646f-666d-497b-a274-ccdac3054a5f","system_id":"levelo_inurba_marseille","lat":43.29417,"lon":5.41322,"is_reserved":false,"is_disabled":false,"rental_uris":{"android":"levelo://app?vid=6639646f-666d-497b-a274-ccdac3054a5f","ios":"levelo://app?vid=6639646f-666d-497b-a274-ccdac3054a5f"},"vehicle_type_id":"4","last_reported":1685869647,"current_range_meters":0,"station_id":"","pricing_plan_id":"free"},{"bike_id":"b01e34ab-906f-49a5-a261-d064e9757365","system_id":"levelo_inurba_marseille","lat":43.280784,"lon":5.396622,"is_reserved":false,"is_disabled":false,"rental_uris":{"android":"levelo://app?vid=b01e34ab-906f-49a5-a261-d064e9757365","ios":"levelo://app?vid=b01e34ab-906f-49a5-a261-d064e9757365"},"vehicle_type_id":"4","last_reported":1685869647,"current_range_meters":25600,"station_id":"ce4bho12rcd13ifvqh2g","pricing_plan_id":"free"},{"bike_id":"318d0d4b-993b-475a-bdf1-59fa32ac5ad8","system_id":"levelo_inurba_marseille","lat":43.280784,"lon":5.396622,"is_reserved":false,"is_disabled":false,"rental_uris":{"android":"levelo://app?vid=318d0d4b-993b-475a-bdf1-59fa32ac5ad8","ios":"levelo://app?vid=318d0d4b-993b-475a-bdf1-59fa32ac5ad8"},"vehicle_type_id":"4","last_reported":1685869647,"current_range_meters":28400,"station_id":"ce4bho12rcd13ifvqh2g","pricing_plan_id":"free"},{"bike_id":"2c14cda1-afff-497c-9564-a70dedfe34b4","system_id":"levelo_inurba_marseille","lat":43.303837,"lon":5.418724,"is_reserved":false,"is_disabled":false,"rental_uris":{"android":"levelo://app?vid=2c14cda1-afff-497c-9564-a70dedfe34b4","ios":"levelo://app?vid=2c14cda1-afff-497c-9564-a70dedfe34b4"},"vehicle_type_id":"4","last_reported":1685869647,"current_range_meters":24000,"station_id":"ce4bhop2rcd13ifvqh7g","pricing_plan_id":"free"},{"bike_id":"660d6d14-23ec-4cc0-895f-2e83e4b46c94","system_id":"levelo_inurba_marseille","lat":43.30356,"lon":5.41882,"is_reserved":false,"is_disabled":false,"rental_uris":{"android":"levelo://app?vid=660d6d14-23ec-4cc0-895f-2e83e4b46c94","ios":"levelo://app?vid=660d6d14-23ec-4cc0-895f-2e83e4b46c94"},"vehicle_type_id":"4","last_reported":1685869647,"current_range_meters":0,"station_id":"","pricing_plan_id":"free"},{"bike_id":"89f889ef-effd-4e83-a90c-8c425c649ab3","system_id":"levelo_inurba_marseille","lat":43.273613,"lon":5.362705,"is_reserved":false,"is_disabled":false,"rental_uris":{"android":"levelo://app?vid=89f889ef-effd-4e83-a90c-8c425c649ab3","ios":"levelo://app?vid=89f889ef-effd-4e83-a90c-8c425c649ab3"},"vehicle_type_id":"4","last_reported":1685869647,"current_range_meters":28400,"station_id":"ce4bhbh2rcd13ifvqeo0","pricing_plan_id":"free"},{"bike_id":"aece11da-abe5-4650-ba29-dfec19e336af","system_id":"levelo_inurba_marseille","lat":43.33612,"lon":5.410321,"is_reserved":false,"is_disabled":false,"rental_uris":{"android":"levelo://app?vid=aece11da-abe5-4650-ba29-dfec19e336af","ios":"levelo://app?vid=aece11da-abe5-4650-ba29-dfec19e336af"},"vehicle_type_id":"4","last_reported":1685869647,"current_range_meters":31200,"station_id":"ce4bhqh2rcd13ifvqhmg","pricing_plan_id":"free"},{"bike_id":"ab6b722d-48a0-4ac8-8d9c-2464717abf53","system_id":"levelo_inurba_marseille","lat":43.27575,"lon":5.38434,"is_reserved":false,"is_disabled":false,"rental_uris":{"android":"levelo://app?vid=ab6b722d-48a0-4ac8-8d9c-2464717abf53","ios":"levelo://app?vid=ab6b722d-48a0-4ac8-8d9c-2464717abf53"},"vehicle_type_id":"4","last_reported":1685869647,"current_range_meters":30800,"station_id":"","pricing_plan_id":"free"},{"bike_id":"a154b24b-3ccd-4aea-bbac-e3473b881592","system_id":"levelo_inurba_marseille","lat":43.273613,"lon":5.362705,"is_reserved":false,"is_disabled":false,"rental_uris":{"android":"levelo://app?vid=a154b24b-3ccd-4aea-bbac-e3473b881592","ios":"levelo://app?vid=a154b24b-3ccd-4aea-bbac-e3473b881592"},"vehicle_type_id":"4","last_reported":1685869647,"current_range_meters":31200,"station_id":"ce4bhbh2rcd13ifvqeo0","pricing_plan_id":"free"},{"bike_id":"9e3e9364-2c59-49d2-ad66-90ae6c254e2b","system_id":"levelo_inurba_marseille","lat":43.336134,"lon":5.410341,"is_reserved":false,"is_disabled":false,"rental_uris":{"android":"levelo://app?vid=9e3e9364-2c59-49d2-ad66-90ae6c254e2b","ios":"levelo://app?vid=9e3e9364-2c59-49d2-ad66-90ae6c254e2b"},"vehicle_type_id":"4","last_reported":1685869647,"current_range_meters":31200,"station_id":"ce4bhqh2rcd13ifvqhmg","pricing_plan_id":"free"},{"bike_id":"86b87e1b-6479-4cc5-9458-06a576e8e6ce","system_id":"levelo_inurba_marseille","lat":43.273613,"lon":5.362705,"is_reserved":false,"is_disabled":false,"rental_uris":{"android":"levelo://app?vid=86b87e1b-6479-4cc5-9458-06a576e8e6ce","ios":"levelo://app?vid=86b87e1b-6479-4cc5-9458-06a576e8e6ce"},"vehicle_type_id":"4","last_reported":1685869647,"current_range_meters":26400,"station_id":"ce4bhbh2rcd13ifvqeo0","pricing_plan_id":"free"},{"bike_id":"8f593800-6dac-47f0-928e-ab7ad6647a21","system_id":"levelo_inurba_marseille","lat":43.273613,"lon":5.362705,"is_reserved":false,"is_disabled":false,"rental_uris":{"android":"levelo://app?vid=8f593800-6dac-47f0-928e-ab7ad6647a21","ios":"levelo://app?vid=8f593800-6dac-47f0-928e-ab7ad6647a21"},"vehicle_type_id":"4","last_reported":1685869647,"current_range_meters":31200,"station_id":"ce4bhbh2rcd13ifvqeo0","pricing_plan_id":"free"},{"bike_id":"3b14e52f-7df5-46e4-b2ce-369ea39314a9","system_id":"levelo_inurba_marseille","lat":43.336134,"lon":5.410341,"is_reserved":false,"is_disabled":false,"rental_uris":{"android":"levelo://app?vid=3b14e52f-7df5-46e4-b2ce-369ea39314a9","ios":"levelo://app?vid=3b14e52f-7df5-46e4-b2ce-369ea39314a9"},"vehicle_type_id":"4","last_reported":1685869647,"current_range_meters":8000,"station_id":"ce4bhqh2rcd13ifvqhmg","pricing_plan_id":"free"},{"bike_id":"449eeb59-bd7e-4175-860b-36c5840ef090","system_id":"levelo_inurba_marseille","lat":43.336134,"lon":5.410341,"is_reserved":false,"is_disabled":false,"rental_uris":{"android":"levelo://app?vid=449eeb59-bd7e-4175-860b-36c5840ef090","ios":"levelo://app?vid=449eeb59-bd7e-4175-860b-36c5840ef090"},"vehicle_type_id":"4","last_reported":1685869647,"current_range_meters":31200,"station_id":"ce4bhqh2rcd13ifvqhmg","pricing_plan_id":"free"},{"bike_id":"1047baed-e4e4-44e1-a721-8cb09706769a","system_id":"levelo_inurba_marseille","lat":43.336134,"lon":5.410341,"is_reserved":false,"is_disabled":false,"rental_uris":{"android":"levelo://app?vid=1047baed-e4e4-44e1-a721-8cb09706769a","ios":"levelo://app?vid=1047baed-e4e4-44e1-a721-8cb09706769a"},"vehicle_type_id":"4","last_reported":1685869647,"current_range_meters":31200,"station_id":"ce4bhqh2rcd13ifvqhmg","pricing_plan_id":"free"},{"bike_id":"72d6e606-7619-40a7-b7b3-8f993fd696e6","system_id":"levelo_inurba_marseille","lat":43.2767,"lon":5.38914,"is_reserved":false,"is_disabled":false,"rental_uris":{"android":"levelo://app?vid=72d6e606-7619-40a7-b7b3-8f993fd696e6","ios":"levelo://app?vid=72d6e606-7619-40a7-b7b3-8f993fd696e6"},"vehicle_type_id":"4","last_reported":1685869647,"current_range_meters":0,"station_id":"ce4bhi12rcd13ifvqfo0","pricing_plan_id":"free"},{"bike_id":"9908a2eb-cceb-4359-b2f6-31b6ef3dee84","system_id":"levelo_inurba_marseille","lat":43.275243,"lon":5.384237,"is_reserved":false,"is_disabled":false,"rental_uris":{"android":"levelo://app?vid=9908a2eb-cceb-4359-b2f6-31b6ef3dee84","ios":"levelo://app?vid=9908a2eb-cceb-4359-b2f6-31b6ef3dee84"},"vehicle_type_id":"4","last_reported":1685869647,"current_range_meters":22800,"station_id":"ce4bhe12rcd13ifvqf30","pricing_plan_id":"free"},{"bike_id":"75f0d486-53fc-42cb-b503-b7d057083f35","system_id":"levelo_inurba_marseille","lat":43.29824,"lon":5.42071,"is_reserved":false,"is_disabled":false,"rental_uris":{"android":"levelo://app?vid=75f0d486-53fc-42cb-b503-b7d057083f35","ios":"levelo://app?vid=75f0d486-53fc-42cb-b503-b7d057083f35"},"vehicle_type_id":"4","last_reported":1685869647,"current_range_meters":0,"station_id":"","pricing_plan_id":"free"},{"bike_id":"e59acce4-3c30-4b53-8515-ded770fac2b5","system_id":"levelo_inurba_marseille","lat":43.310785,"lon":5.424305,"is_reserved":false,"is_disabled":false,"rental_uris":{"android":"levelo://app?vid=e59acce4-3c30-4b53-8515-ded770fac2b5","ios":"levelo://app?vid=e59acce4-3c30-4b53-8515-ded770fac2b5"},"vehicle_type_id":"4","last_reported":1685869647,"current_range_meters":15600,"station_id":"ce4bhp92rcd13ifvqhag","pricing_plan_id":"free"},{"bike_id":"9db9545d-f63d-42be-a674-9c25625f916b","system_id":"levelo_inurba_marseille","lat":43.29389,"lon":5.41919,"is_reserved":false,"is_disabled":false,"rental_uris":{"android":"levelo://app?vid=9db9545d-f63d-42be-a674-9c25625f916b","ios":"levelo://app?vid=9db9545d-f63d-42be-a674-9c25625f916b"},"vehicle_type_id":"4","last_reported":1685869647,"current_range_meters":9200,"station_id":"","pricing_plan_id":"free"},{"bike_id":"4d80717c-1ab1-4ff1-8e16-4b8981f90281","system_id":"levelo_inurba_marseille","lat":43.32824,"lon":5.42147,"is_reserved":false,"is_disabled":false,"rental_uris":{"android":"levelo://app?vid=4d80717c-1ab1-4ff1-8e16-4b8981f90281","ios":"levelo://app?vid=4d80717c-1ab1-4ff1-8e16-4b8981f90281"},"vehicle_type_id":"4","last_reported":1685869647,"current_range_meters":26800,"station_id":"","pricing_plan_id":"free"},{"bike_id":"08184b34-29b1-499c-8d0c-27c721acf203","system_id":"levelo_inurba_marseille","lat":43.273125,"lon":5.390731,"is_reserved":false,"is_disabled":false,"rental_uris":{"android":"levelo://app?vid=08184b34-29b1-499c-8d0c-27c721acf203","ios":"levelo://app?vid=08184b34-29b1-499c-8d0c-27c721acf203"},"vehicle_type_id":"4","last_reported":1685869647,"current_range_meters":29600,"station_id":"ce4bhgp2rcd13ifvqfe0","pricing_plan_id":"free"},{"bike_id":"7c88a96f-2f62-4c0d-b595-394c20932d71","system_id":"levelo_inurba_marseille","lat":43.295523,"lon":5.422926,"is_reserved":false,"is_disabled":false,"rental_uris":{"android":"levelo://app?vid=7c88a96f-2f62-4c0d-b595-394c20932d71","ios":"levelo://app?vid=7c88a96f-2f62-4c0d-b595-394c20932d71"},"vehicle_type_id":"4","last_reported":1685869647,"current_range_meters":22400,"station_id":"ce4bhph2rcd13ifvqhdg","pricing_plan_id":"free"},{"bike_id":"17ffd29e-2f16-4027-b998-9b86a4ae8182","system_id":"levelo_inurba_marseille","lat":43.269319,"lon":5.389397,"is_reserved":false,"is_disabled":false,"rental_uris":{"android":"levelo://app?vid=17ffd29e-2f16-4027-b998-9b86a4ae8182","ios":"levelo://app?vid=17ffd29e-2f16-4027-b998-9b86a4ae8182"},"vehicle_type_id":"4","last_reported":1685869647,"current_range_meters":30400,"station_id":"ce4bhhh2rcd13ifvqfl0","pricing_plan_id":"free"},{"bike_id":"ca7febb0-5025-40a1-a679-71e5f6e93bb0","system_id":"levelo_inurba_marseille","lat":43.265714,"lon":5.372891,"is_reserved":false,"is_disabled":false,"rental_uris":{"android":"levelo://app?vid=ca7febb0-5025-40a1-a679-71e5f6e93bb0","ios":"levelo://app?vid=ca7febb0-5025-40a1-a679-71e5f6e93bb0"},"vehicle_type_id":"4","last_reported":1685869647,"current_range_meters":26000,"station_id":"ce4bhg12rcd13ifvqf70","pricing_plan_id":"free"},{"bike_id":"0b904612-0071-4721-a5e2-8495530f6a55","system_id":"levelo_inurba_marseille","lat":43.265714,"lon":5.372891,"is_reserved":false,"is_disabled":false,"rental_uris":{"android":"levelo://app?vid=0b904612-0071-4721-a5e2-8495530f6a55","ios":"levelo://app?vid=0b904612-0071-4721-a5e2-8495530f6a55"},"vehicle_type_id":"4","last_reported":1685869647,"current_range_meters":1200,"station_id":"ce4bhg12rcd13ifvqf70","pricing_plan_id":"free"},{"bike_id":"72a8cb24-0481-47a2-8fa3-00c7b8bfea2a","system_id":"levelo_inurba_marseille","lat":43.265714,"lon":5.372891,"is_reserved":false,"is_disabled":false,"rental_uris":{"android":"levelo://app?vid=72a8cb24-0481-47a2-8fa3-00c7b8bfea2a","ios":"levelo://app?vid=72a8cb24-0481-47a2-8fa3-00c7b8bfea2a"},"vehicle_type_id":"4","last_reported":1685869647,"current_range_meters":24000,"station_id":"ce4bhg12rcd13ifvqf70","pricing_plan_id":"free"},{"bike_id":"8186a615-6b09-418e-94e5-8e3ddd8ce091","system_id":"levelo_inurba_marseille","lat":43.265714,"lon":5.372891,"is_reserved":false,"is_disabled":false,"rental_uris":{"android":"levelo://app?vid=8186a615-6b09-418e-94e5-8e3ddd8ce091","ios":"levelo://app?vid=8186a615-6b09-418e-94e5-8e3ddd8ce091"},"vehicle_type_id":"4","last_reported":1685869647,"current_range_meters":24400,"station_id":"ce4bhg12rcd13ifvqf70","pricing_plan_id":"free"},{"bike_id":"4b2fd070-eeb3-4dd3-9f40-313410299eed","system_id":"levelo_inurba_marseille","lat":43.265714,"lon":5.372891,"is_reserved":false,"is_disabled":false,"rental_uris":{"android":"levelo://app?vid=4b2fd070-eeb3-4dd3-9f40-313410299eed","ios":"levelo://app?vid=4b2fd070-eeb3-4dd3-9f40-313410299eed"},"vehicle_type_id":"4","last_reported":1685869647,"current_range_meters":21200,"station_id":"ce4bhg12rcd13ifvqf70","pricing_plan_id":"free"},{"bike_id":"49a0a751-6e95-4e26-977f-926b237f3815","system_id":"levelo_inurba_marseille","lat":43.265714,"lon":5.372891,"is_reserved":false,"is_disabled":false,"rental_uris":{"android":"levelo://app?vid=49a0a751-6e95-4e26-977f-926b237f3815","ios":"levelo://app?vid=49a0a751-6e95-4e26-977f-926b237f3815"},"vehicle_type_id":"4","last_reported":1685869647,"current_range_meters":21200,"station_id":"ce4bhg12rcd13ifvqf70","pricing_plan_id":"free"},{"bike_id":"de548236-8fbd-4b7b-830e-08ee4001f0df","system_id":"levelo_inurba_marseille","lat":43.26555,"lon":5.37283,"is_reserved":false,"is_disabled":false,"rental_uris":{"android":"levelo://app?vid=de548236-8fbd-4b7b-830e-08ee4001f0df","ios":"levelo://app?vid=de548236-8fbd-4b7b-830e-08ee4001f0df"},"vehicle_type_id":"4","last_reported":1685869647,"current_range_meters":30400,"station_id":"ce4bhg12rcd13ifvqf70","pricing_plan_id":"free"},{"bike_id":"662a5e6d-f17b-4a33-9f5d-cca09748c2cc","system_id":"levelo_inurba_marseille","lat":43.265714,"lon":5.372891,"is_reserved":false,"is_disabled":false,"rental_uris":{"android":"levelo://app?vid=662a5e6d-f17b-4a33-9f5d-cca09748c2cc","ios":"levelo://app?vid=662a5e6d-f17b-4a33-9f5d-cca09748c2cc"},"vehicle_type_id":"4","last_reported":1685869647,"current_range_meters":22000,"station_id":"ce4bhg12rcd13ifvqf70","pricing_plan_id":"free"},{"bike_id":"46710c45-0f8a-4ce5-8142-b47cfea9c026","system_id":"levelo_inurba_marseille","lat":43.265714,"lon":5.372891,"is_reserved":false,"is_disabled":false,"rental_uris":{"android":"levelo://app?vid=46710c45-0f8a-4ce5-8142-b47cfea9c026","ios":"levelo://app?vid=46710c45-0f8a-4ce5-8142-b47cfea9c026"},"vehicle_type_id":"4","last_reported":1685869647,"current_range_meters":12800,"station_id":"ce4bhg12rcd13ifvqf70","pricing_plan_id":"free"},{"bike_id":"fbc00101-a554-4c81-b57b-7d7bd92e7367","system_id":"levelo_inurba_marseille","lat":43.265714,"lon":5.372891,"is_reserved":false,"is_disabled":false,"rental_uris":{"android":"levelo://app?vid=fbc00101-a554-4c81-b57b-7d7bd92e7367","ios":"levelo://app?vid=fbc00101-a554-4c81-b57b-7d7bd92e7367"},"vehicle_type_id":"4","last_reported":1685869647,"current_range_meters":22000,"station_id":"ce4bhg12rcd13ifvqf70","pricing_plan_id":"free"},{"bike_id":"816760ee-e8ba-4cf4-80a9-d37a11668ff5","system_id":"levelo_inurba_marseille","lat":43.265714,"lon":5.372891,"is_reserved":false,"is_disabled":false,"rental_uris":{"android":"levelo://app?vid=816760ee-e8ba-4cf4-80a9-d37a11668ff5","ios":"levelo://app?vid=816760ee-e8ba-4cf4-80a9-d37a11668ff5"},"vehicle_type_id":"4","last_reported":1685869647,"current_range_meters":28000,"station_id":"ce4bhg12rcd13ifvqf70","pricing_plan_id":"free"},{"bike_id":"477c9b24-a1bd-4af2-9e3a-7a10b9af13d1","system_id":"levelo_inurba_marseille","lat":43.31705,"lon":5.4332,"is_reserved":false,"is_disabled":false,"rental_uris":{"android":"levelo://app?vid=477c9b24-a1bd-4af2-9e3a-7a10b9af13d1","ios":"levelo://app?vid=477c9b24-a1bd-4af2-9e3a-7a10b9af13d1"},"vehicle_type_id":"4","last_reported":1685869647,"current_range_meters":0,"station_id":"","pricing_plan_id":"free"},{"bike_id":"832290c7-e9c9-4ed6-93bc-376ba4e88dc1","system_id":"levelo_inurba_marseille","lat":43.27998,"lon":5.41655,"is_reserved":false,"is_disabled":false,"rental_uris":{"android":"levelo://app?vid=832290c7-e9c9-4ed6-93bc-376ba4e88dc1","ios":"levelo://app?vid=832290c7-e9c9-4ed6-93bc-376ba4e88dc1"},"vehicle_type_id":"4","last_reported":1685869647,"current_range_meters":31200,"station_id":"ce4bho12rcd13ifvqh1g","pricing_plan_id":"free"},{"bike_id":"f85d126b-e407-425e-8f17-1d4b1b34b061","system_id":"levelo_inurba_marseille","lat":43.27999,"lon":5.41657,"is_reserved":false,"is_disabled":false,"rental_uris":{"android":"levelo://app?vid=f85d126b-e407-425e-8f17-1d4b1b34b061","ios":"levelo://app?vid=f85d126b-e407-425e-8f17-1d4b1b34b061"},"vehicle_type_id":"4","last_reported":1685869647,"current_range_meters":23200,"station_id":"ce4bho12rcd13ifvqh1g","pricing_plan_id":"free"},{"bike_id":"997e8240-6214-4485-b7be-e8c2119b59cc","system_id":"levelo_inurba_marseille","lat":43.27992,"lon":5.41652,"is_reserved":false,"is_disabled":false,"rental_uris":{"android":"levelo://app?vid=997e8240-6214-4485-b7be-e8c2119b59cc","ios":"levelo://app?vid=997e8240-6214-4485-b7be-e8c2119b59cc"},"vehicle_type_id":"4","last_reported":1685869647,"current_range_meters":19200,"station_id":"ce4bho12rcd13ifvqh1g","pricing_plan_id":"free"},{"bike_id":"1ea02180-39cf-4c75-8aea-9faf9195fa6b","system_id":"levelo_inurba_marseille","lat":43.27996,"lon":5.41658,"is_reserved":false,"is_disabled":false,"rental_uris":{"android":"levelo://app?vid=1ea02180-39cf-4c75-8aea-9faf9195fa6b","ios":"levelo://app?vid=1ea02180-39cf-4c75-8aea-9faf9195fa6b"},"vehicle_type_id":"4","last_reported":1685869647,"current_range_meters":12000,"station_id":"ce4bho12rcd13ifvqh1g","pricing_plan_id":"free"},{"bike_id":"b2dc2e2f-3b39-4f28-a735-f24159149b8d","system_id":"levelo_inurba_marseille","lat":43.27996,"lon":5.416624,"is_reserved":false,"is_disabled":false,"rental_uris":{"android":"levelo://app?vid=b2dc2e2f-3b39-4f28-a735-f24159149b8d","ios":"levelo://app?vid=b2dc2e2f-3b39-4f28-a735-f24159149b8d"},"vehicle_type_id":"4","last_reported":1685869647,"current_range_meters":24400,"station_id":"ce4bho12rcd13ifvqh1g","pricing_plan_id":"free"},{"bike_id":"7d2a6803-94d8-4c77-b103-16da7afdb1cf","system_id":"levelo_inurba_marseille","lat":43.2799,"lon":5.41657,"is_reserved":false,"is_disabled":false,"rental_uris":{"android":"levelo://app?vid=7d2a6803-94d8-4c77-b103-16da7afdb1cf","ios":"levelo://app?vid=7d2a6803-94d8-4c77-b103-16da7afdb1cf"},"vehicle_type_id":"4","last_reported":1685869647,"current_range_meters":16400,"station_id":"ce4bho12rcd13ifvqh1g","pricing_plan_id":"free"},{"bike_id":"57143554-6bd2-4ac3-a9a3-581bc0ed1a91","system_id":"levelo_inurba_marseille","lat":43.27996,"lon":5.416624,"is_reserved":false,"is_disabled":false,"rental_uris":{"android":"levelo://app?vid=57143554-6bd2-4ac3-a9a3-581bc0ed1a91","ios":"levelo://app?vid=57143554-6bd2-4ac3-a9a3-581bc0ed1a91"},"vehicle_type_id":"4","last_reported":1685869647,"current_range_meters":26800,"station_id":"ce4bho12rcd13ifvqh1g","pricing_plan_id":"free"},{"bike_id":"162bbf76-93f1-405e-9171-692f46f54a80","system_id":"levelo_inurba_marseille","lat":43.27991,"lon":5.4166,"is_reserved":false,"is_disabled":false,"rental_uris":{"android":"levelo://app?vid=162bbf76-93f1-405e-9171-692f46f54a80","ios":"levelo://app?vid=162bbf76-93f1-405e-9171-692f46f54a80"},"vehicle_type_id":"4","last_reported":1685869647,"current_range_meters":18800,"station_id":"ce4bho12rcd13ifvqh1g","pricing_plan_id":"free"},{"bike_id":"bf8176d7-3c9a-4666-9476-80921713d8fb","system_id":"levelo_inurba_marseille","lat":43.27996,"lon":5.416624,"is_reserved":false,"is_disabled":false,"rental_uris":{"android":"levelo://app?vid=bf8176d7-3c9a-4666-9476-80921713d8fb","ios":"levelo://app?vid=bf8176d7-3c9a-4666-9476-80921713d8fb"},"vehicle_type_id":"4","last_reported":1685869647,"current_range_meters":28400,"station_id":"ce4bho12rcd13ifvqh1g","pricing_plan_id":"free"},{"bike_id":"47f9f9ed-249a-439d-b417-2e62e3013491","system_id":"levelo_inurba_marseille","lat":43.27996,"lon":5.416624,"is_reserved":false,"is_disabled":false,"rental_uris":{"android":"levelo://app?vid=47f9f9ed-249a-439d-b417-2e62e3013491","ios":"levelo://app?vid=47f9f9ed-249a-439d-b417-2e62e3013491"},"vehicle_type_id":"4","last_reported":1685869647,"current_range_meters":30400,"station_id":"ce4bho12rcd13ifvqh1g","pricing_plan_id":"free"},{"bike_id":"41a55e85-588d-4f8e-9446-cd08ffebfb50","system_id":"levelo_inurba_marseille","lat":43.27996,"lon":5.416624,"is_reserved":false,"is_disabled":false,"rental_uris":{"android":"levelo://app?vid=41a55e85-588d-4f8e-9446-cd08ffebfb50","ios":"levelo://app?vid=41a55e85-588d-4f8e-9446-cd08ffebfb50"},"vehicle_type_id":"4","last_reported":1685869647,"current_range_meters":24800,"station_id":"ce4bho12rcd13ifvqh1g","pricing_plan_id":"free"},{"bike_id":"e5002f7b-92de-46f6-8594-6cf771688c5d","system_id":"levelo_inurba_marseille","lat":43.27996,"lon":5.416624,"is_reserved":false,"is_disabled":false,"rental_uris":{"android":"levelo://app?vid=e5002f7b-92de-46f6-8594-6cf771688c5d","ios":"levelo://app?vid=e5002f7b-92de-46f6-8594-6cf771688c5d"},"vehicle_type_id":"4","last_reported":1685869647,"current_range_meters":30000,"station_id":"ce4bho12rcd13ifvqh1g","pricing_plan_id":"free"},{"bike_id":"60ae7ed9-b4be-45cb-8816-1e1827314260","system_id":"levelo_inurba_marseille","lat":43.27986,"lon":5.41659,"is_reserved":false,"is_disabled":false,"rental_uris":{"android":"levelo://app?vid=60ae7ed9-b4be-45cb-8816-1e1827314260","ios":"levelo://app?vid=60ae7ed9-b4be-45cb-8816-1e1827314260"},"vehicle_type_id":"4","last_reported":1685869647,"current_range_meters":21600,"station_id":"ce4bho12rcd13ifvqh1g","pricing_plan_id":"free"},{"bike_id":"9aea0ca1-b346-425d-a79a-14fc2c79905d","system_id":"levelo_inurba_marseille","lat":43.27996,"lon":5.416624,"is_reserved":false,"is_disabled":false,"rental_uris":{"android":"levelo://app?vid=9aea0ca1-b346-425d-a79a-14fc2c79905d","ios":"levelo://app?vid=9aea0ca1-b346-425d-a79a-14fc2c79905d"},"vehicle_type_id":"4","last_reported":1685869647,"current_range_meters":30400,"station_id":"ce4bho12rcd13ifvqh1g","pricing_plan_id":"free"},{"bike_id":"b557ba17-de7e-4403-86b9-baf4bf48ed1b","system_id":"levelo_inurba_marseille","lat":43.27996,"lon":5.416624,"is_reserved":false,"is_disabled":false,"rental_uris":{"android":"levelo://app?vid=b557ba17-de7e-4403-86b9-baf4bf48ed1b","ios":"levelo://app?vid=b557ba17-de7e-4403-86b9-baf4bf48ed1b"},"vehicle_type_id":"4","last_reported":1685869647,"current_range_meters":30000,"station_id":"ce4bho12rcd13ifvqh1g","pricing_plan_id":"free"},{"bike_id":"9b028610-6fa9-4032-9e3d-7b6ddaafdbf2","system_id":"levelo_inurba_marseille","lat":43.30802,"lon":5.43527,"is_reserved":false,"is_disabled":false,"rental_uris":{"android":"levelo://app?vid=9b028610-6fa9-4032-9e3d-7b6ddaafdbf2","ios":"levelo://app?vid=9b028610-6fa9-4032-9e3d-7b6ddaafdbf2"},"vehicle_type_id":"4","last_reported":1685869647,"current_range_meters":23200,"station_id":"","pricing_plan_id":"free"},{"bike_id":"8b710fcf-5c8c-47cf-af70-e0adcc46836f","system_id":"levelo_inurba_marseille","lat":43.265569,"lon":5.390047,"is_reserved":false,"is_disabled":false,"rental_uris":{"android":"levelo://app?vid=8b710fcf-5c8c-47cf-af70-e0adcc46836f","ios":"levelo://app?vid=8b710fcf-5c8c-47cf-af70-e0adcc46836f"},"vehicle_type_id":"4","last_reported":1685869647,"current_range_meters":29200,"station_id":"ce4bhe12rcd13ifvqf30","pricing_plan_id":"free"},{"bike_id":"ac57f2e5-8830-4f60-a8bb-59b1db76925a","system_id":"levelo_inurba_marseille","lat":43.26563,"lon":5.39001,"is_reserved":false,"is_disabled":false,"rental_uris":{"android":"levelo://app?vid=ac57f2e5-8830-4f60-a8bb-59b1db76925a","ios":"levelo://app?vid=ac57f2e5-8830-4f60-a8bb-59b1db76925a"},"vehicle_type_id":"4","last_reported":1685869647,"current_range_meters":12800,"station_id":"ce4bhe12rcd13ifvqf30","pricing_plan_id":"free"},{"bike_id":"e416a29b-29ca-4f1f-bce4-eba37ff2090f","system_id":"levelo_inurba_marseille","lat":43.317104,"lon":5.436818,"is_reserved":false,"is_disabled":false,"rental_uris":{"android":"levelo://app?vid=e416a29b-29ca-4f1f-bce4-eba37ff2090f","ios":"levelo://app?vid=e416a29b-29ca-4f1f-bce4-eba37ff2090f"},"vehicle_type_id":"4","last_reported":1685869647,"current_range_meters":28800,"station_id":"ce4bhp92rcd13ifvqhcg","pricing_plan_id":"free"},{"bike_id":"98d5e3b5-5e53-4d87-876a-4098c1db1c72","system_id":"levelo_inurba_marseille","lat":43.261782,"lon":5.374515,"is_reserved":false,"is_disabled":false,"rental_uris":{"android":"levelo://app?vid=98d5e3b5-5e53-4d87-876a-4098c1db1c72","ios":"levelo://app?vid=98d5e3b5-5e53-4d87-876a-4098c1db1c72"},"vehicle_type_id":"4","last_reported":1685869647,"current_range_meters":27600,"station_id":"ce4bhgp2rcd13ifvqfc0","pricing_plan_id":"free"},{"bike_id":"86ebb24d-94ae-438d-9220-2e7c988acba6","system_id":"levelo_inurba_marseille","lat":43.261782,"lon":5.374515,"is_reserved":false,"is_disabled":false,"rental_uris":{"android":"levelo://app?vid=86ebb24d-94ae-438d-9220-2e7c988acba6","ios":"levelo://app?vid=86ebb24d-94ae-438d-9220-2e7c988acba6"},"vehicle_type_id":"4","last_reported":1685869647,"current_range_meters":1600,"station_id":"ce4bhgp2rcd13ifvqfc0","pricing_plan_id":"free"},{"bike_id":"981b5391-79f9-4aa8-977e-8d97b60ce49d","system_id":"levelo_inurba_marseille","lat":43.26186,"lon":5.37437,"is_reserved":false,"is_disabled":false,"rental_uris":{"android":"levelo://app?vid=981b5391-79f9-4aa8-977e-8d97b60ce49d","ios":"levelo://app?vid=981b5391-79f9-4aa8-977e-8d97b60ce49d"},"vehicle_type_id":"4","last_reported":1685869647,"current_range_meters":0,"station_id":"ce4bhgp2rcd13ifvqfc0","pricing_plan_id":"free"},{"bike_id":"13f875aa-ccae-431d-a660-74e32f07081b","system_id":"levelo_inurba_marseille","lat":43.261782,"lon":5.374515,"is_reserved":false,"is_disabled":false,"rental_uris":{"android":"levelo://app?vid=13f875aa-ccae-431d-a660-74e32f07081b","ios":"levelo://app?vid=13f875aa-ccae-431d-a660-74e32f07081b"},"vehicle_type_id":"4","last_reported":1685869647,"current_range_meters":26000,"station_id":"ce4bhgp2rcd13ifvqfc0","pricing_plan_id":"free"},{"bike_id":"7eeff333-f92a-44d5-843c-f2e248e43835","system_id":"levelo_inurba_marseille","lat":43.261782,"lon":5.374515,"is_reserved":false,"is_disabled":false,"rental_uris":{"android":"levelo://app?vid=7eeff333-f92a-44d5-843c-f2e248e43835","ios":"levelo://app?vid=7eeff333-f92a-44d5-843c-f2e248e43835"},"vehicle_type_id":"4","last_reported":1685869647,"current_range_meters":29600,"station_id":"ce4bhgp2rcd13ifvqfc0","pricing_plan_id":"free"},{"bike_id":"99d8481f-dacb-432f-a12f-a3ddc6a28202","system_id":"levelo_inurba_marseille","lat":43.317104,"lon":5.436818,"is_reserved":false,"is_disabled":false,"rental_uris":{"android":"levelo://app?vid=99d8481f-dacb-432f-a12f-a3ddc6a28202","ios":"levelo://app?vid=99d8481f-dacb-432f-a12f-a3ddc6a28202"},"vehicle_type_id":"4","last_reported":1685869647,"current_range_meters":31600,"station_id":"ce4bhp92rcd13ifvqhcg","pricing_plan_id":"free"},{"bike_id":"d0ddddb9-c762-40ee-8bf5-4901d5d117bd","system_id":"levelo_inurba_marseille","lat":43.261782,"lon":5.374515,"is_reserved":false,"is_disabled":false,"rental_uris":{"android":"levelo://app?vid=d0ddddb9-c762-40ee-8bf5-4901d5d117bd","ios":"levelo://app?vid=d0ddddb9-c762-40ee-8bf5-4901d5d117bd"},"vehicle_type_id":"4","last_reported":1685869647,"current_range_meters":24800,"station_id":"ce4bhgp2rcd13ifvqfc0","pricing_plan_id":"free"},{"bike_id":"2bc36e8d-06f1-44be-a05c-7b46eae24054","system_id":"levelo_inurba_marseille","lat":43.317104,"lon":5.436818,"is_reserved":false,"is_disabled":false,"rental_uris":{"android":"levelo://app?vid=2bc36e8d-06f1-44be-a05c-7b46eae24054","ios":"levelo://app?vid=2bc36e8d-06f1-44be-a05c-7b46eae24054"},"vehicle_type_id":"4","last_reported":1685869647,"current_range_meters":31200,"station_id":"ce4bhp92rcd13ifvqhcg","pricing_plan_id":"free"},{"bike_id":"2a48043e-0223-418b-bf9b-d91374083f1f","system_id":"levelo_inurba_marseille","lat":43.317104,"lon":5.436818,"is_reserved":false,"is_disabled":false,"rental_uris":{"android":"levelo://app?vid=2a48043e-0223-418b-bf9b-d91374083f1f","ios":"levelo://app?vid=2a48043e-0223-418b-bf9b-d91374083f1f"},"vehicle_type_id":"4","last_reported":1685869647,"current_range_meters":25600,"station_id":"ce4bhp92rcd13ifvqhcg","pricing_plan_id":"free"},{"bike_id":"0ebbcf5f-611f-47df-9f5c-d6cc3220cf07","system_id":"levelo_inurba_marseille","lat":43.262012,"lon":5.379307,"is_reserved":false,"is_disabled":false,"rental_uris":{"android":"levelo://app?vid=0ebbcf5f-611f-47df-9f5c-d6cc3220cf07","ios":"levelo://app?vid=0ebbcf5f-611f-47df-9f5c-d6cc3220cf07"},"vehicle_type_id":"4","last_reported":1685869647,"current_range_meters":17200,"station_id":"ce4bhjp2rcd13ifvqg90","pricing_plan_id":"free"},{"bike_id":"6599addb-8736-4c2f-9d71-63e2ce1d23ef","system_id":"levelo_inurba_marseille","lat":43.262012,"lon":5.379307,"is_reserved":false,"is_disabled":false,"rental_uris":{"android":"levelo://app?vid=6599addb-8736-4c2f-9d71-63e2ce1d23ef","ios":"levelo://app?vid=6599addb-8736-4c2f-9d71-63e2ce1d23ef"},"vehicle_type_id":"4","last_reported":1685869647,"current_range_meters":24400,"station_id":"ce4bhjp2rcd13ifvqg90","pricing_plan_id":"free"},{"bike_id":"b4b5d1a2-1c78-436d-8f86-2ca969bcf36e","system_id":"levelo_inurba_marseille","lat":43.262012,"lon":5.379307,"is_reserved":false,"is_disabled":false,"rental_uris":{"android":"levelo://app?vid=b4b5d1a2-1c78-436d-8f86-2ca969bcf36e","ios":"levelo://app?vid=b4b5d1a2-1c78-436d-8f86-2ca969bcf36e"},"vehicle_type_id":"4","last_reported":1685869647,"current_range_meters":21600,"station_id":"ce4bhjp2rcd13ifvqg90","pricing_plan_id":"free"},{"bike_id":"34ba6cc8-2bdb-4948-97a3-9696e103b856","system_id":"levelo_inurba_marseille","lat":43.271388,"lon":5.409269,"is_reserved":false,"is_disabled":false,"rental_uris":{"android":"levelo://app?vid=34ba6cc8-2bdb-4948-97a3-9696e103b856","ios":"levelo://app?vid=34ba6cc8-2bdb-4948-97a3-9696e103b856"},"vehicle_type_id":"4","last_reported":1685869647,"current_range_meters":30000,"station_id":"ce4bhl12rcd13ifvqgf0","pricing_plan_id":"free"},{"bike_id":"ed6f5116-9e52-4fe1-bff9-12a944291a0c","system_id":"levelo_inurba_marseille","lat":43.262012,"lon":5.379307,"is_reserved":false,"is_disabled":false,"rental_uris":{"android":"levelo://app?vid=ed6f5116-9e52-4fe1-bff9-12a944291a0c","ios":"levelo://app?vid=ed6f5116-9e52-4fe1-bff9-12a944291a0c"},"vehicle_type_id":"4","last_reported":1685869647,"current_range_meters":24800,"station_id":"ce4bhjp2rcd13ifvqg90","pricing_plan_id":"free"},{"bike_id":"60ab7054-04fb-4e55-890c-154a1ea179c7","system_id":"levelo_inurba_marseille","lat":43.267959,"lon":5.402685,"is_reserved":false,"is_disabled":false,"rental_uris":{"android":"levelo://app?vid=60ab7054-04fb-4e55-890c-154a1ea179c7","ios":"levelo://app?vid=60ab7054-04fb-4e55-890c-154a1ea179c7"},"vehicle_type_id":"4","last_reported":1685869647,"current_range_meters":25600,"station_id":"ce501612rcd8frsf0b60","pricing_plan_id":"free"},{"bike_id":"cd44746c-1052-455b-9cfb-f7ffcb49b35f","system_id":"levelo_inurba_marseille","lat":43.26806,"lon":5.40263,"is_reserved":false,"is_disabled":false,"rental_uris":{"android":"levelo://app?vid=cd44746c-1052-455b-9cfb-f7ffcb49b35f","ios":"levelo://app?vid=cd44746c-1052-455b-9cfb-f7ffcb49b35f"},"vehicle_type_id":"4","last_reported":1685869647,"current_range_meters":0,"station_id":"ce501612rcd8frsf0b60","pricing_plan_id":"free"},{"bike_id":"deca7443-e1ae-4c58-a7f8-44e65dab06ed","system_id":"levelo_inurba_marseille","lat":43.298768,"lon":5.43643,"is_reserved":false,"is_disabled":false,"rental_uris":{"android":"levelo://app?vid=deca7443-e1ae-4c58-a7f8-44e65dab06ed","ios":"levelo://app?vid=deca7443-e1ae-4c58-a7f8-44e65dab06ed"},"vehicle_type_id":"4","last_reported":1685869647,"current_range_meters":25200,"station_id":"ce4bhpp2rcd13ifvqhfg","pricing_plan_id":"free"},{"bike_id":"32d4de84-c245-4873-9ab4-3846f922e554","system_id":"levelo_inurba_marseille","lat":43.298768,"lon":5.43643,"is_reserved":false,"is_disabled":false,"rental_uris":{"android":"levelo://app?vid=32d4de84-c245-4873-9ab4-3846f922e554","ios":"levelo://app?vid=32d4de84-c245-4873-9ab4-3846f922e554"},"vehicle_type_id":"4","last_reported":1685869647,"current_range_meters":27600,"station_id":"ce4bhpp2rcd13ifvqhfg","pricing_plan_id":"free"},