{"last_updated":1760735338,"ttl":60,"version":"2.2","data":{"bikes":[{"bike_id":"d70e1133-fb5c-4317-bd33-149ae778122c","system_id":"levelo_inurba_marseille","lat":43.26804,"lon":5.39404,"is_reserved":false,"is_disabled":false,"rental_uris":{"android":"levelo://app?vid=d70e1133-fb5c-4317-bd33-149ae778122c","ios":"levelo://app?vid=d70e1133-fb5c-4317-bd33-149ae778122c"},"vehicle_type_id":"4","last_reported":1760735338,"current_range_meters":2800,"station_id":"ce4bhh12rcd13ifvqfg0","pricing_plan_id":"cebpf4jnsgd1na2vs0mg"},{"bike_id":"ecd9150a-82d1-439a-8ac1-0ab83b979277","system_id":"levelo_inurba_marseille","lat":43.30812,"lon":5.43512,"is_reserved":false,"is_disabled":true,"rental_uris":{"android":"levelo://app?vid=ecd9150a-82d1-439a-8ac1-0ab83b979277","ios":"levelo://app?vid=ecd9150a-82d1-439a-8ac1-0ab83b979277"},"vehicle_type_id":"4","last_reported":1760735338,"current_range_meters":2800,"station_id":"ce4bhph2rcd13ifvqheg","pricing_plan_id":"cebpf4jnsgd1na2vs0mg"},{"bike_id":"504914e8-9d4f-4ed4-a608-46f089c88304","system_id":"levelo_inurba_marseille","lat":43.29298,"lon":5.37461,"is_reserved":false,"is_disabled":false,"rental_uris":{"android":"levelo://app?vid=504914e8-9d4f-4ed4-a608-46f089c88304","ios":"levelo://app?vid=504914e8-9d4f-4ed4-a608-46f089c88304"},"vehicle_type_id":"4","last_reported":1760735338,"current_range_meters":2800,"station_id":"ce4bgi12rcd13ifvqb70","pricing_plan_id":"cebpf4jnsgd1na2vs0mg"},{"bike_id":"736816ff-7d97-4f71-8648-d29be285697b","system_id":"levelo_inurba_marseille","lat":43.334024,"lon":5.410337,"is_reserved":false,"is_disabled":false,"rental_uris":{"android":"levelo://app?vid=736816ff-7d97-4f71-8648-d29be285697b","ios":"levelo://app?vid=736816ff-7d97-4f71-8648-d29be285697b"},"vehicle_type_id":"4","last_reported":1760735338,"current_range_meters":3200,"station_id":"ce4bhqh2rcd13ifvqhmg","pricing_plan_id":"cebpf4jnsgd1na2vs0mg"},{"bike_id":"6cd16192-c813-4136-876c-ae8ebf20d344","system_id":"levelo_inurba_marseille","lat":43.33799,"lon":5.37439,"is_reserved":false,"is_disabled":false,"rental_uris":{"android":"levelo://app?vid=6cd16192-c813-4136-876c-ae8ebf20d344","ios":"levelo://app?vid=6cd16192-c813-4136-876c-ae8ebf20d344"},"vehicle_type_id":"4","last_reported":1760735338,"current_range_meters":3200,"station_id":"","pricing_plan_id":"cebpf4jnsgd1na2vs0mg"},{"bike_id":"8209ed44-cdde-4154-a1d6-6db5f30ca2f3","system_id":"levelo_inurba_marseille","lat":43.29935,"lon":5.36553,"is_reserved":false,"is_disabled":false,"rental_uris":{"android":"levelo://app?vid=8209ed44-cdde-4154-a1d6-6db5f30ca2f3","ios":"levelo://app?vid=8209ed44-cdde-4154-a1d6-6db5f30ca2f3"},"vehicle_type_id":"4","last_reported":1760735338,"current_range_meters":3200,"station_id":"ce4bgm92rcd13ifvqbr0","pricing_plan_id":"cebpf4jnsgd1na2vs0mg"},{"bike_id":"d68b41be-366f-40d7-a414-434cfe0517a5","system_id":"levelo_inurba_marseille","lat":43.3177,"lon":5.422171,"is_reserved":false,"is_disabled":false,"rental_uris":{"android":"levelo://app?vid=d68b41be-366f-40d7-a414-434cfe0517a5","ios":"levelo://app?vid=d68b41be-366f-40d7-a414-434cfe0517a5"},"vehicle_type_id":"4","last_reported":1760735338,"current_range_meters":3600,"station_id":"","pricing_plan_id":"cebpf4jnsgd1na2vs0mg"},{"bike_id":"bad13b78-dbc8-4004-a777-c21ba54a5bc6","system_id":"levelo_inurba_marseille","lat":43.28614,"lon":5.3706,"is_reserved":false,"is_disabled":false,"rental_uris":{"android":"levelo://app?vid=bad13b78-dbc8-4004-a777-c21ba54a5bc6","ios":"levelo://app?vid=bad13b78-dbc8-4004-a777-c21ba54a5bc6"},"vehicle_type_id":"4","last_reported":1760735338,"current_range_meters":3600,"station_id":"ce4bht12rcd13ifvqi60","pricing_plan_id":"cebpf4jnsgd1na2vs0mg"},{"bike_id":"61e09bc4-20dd-4904-80a3-af1b41d73fe0","system_id":"levelo_inurba_marseille","lat":43.32635,"lon":5.40973,"is_reserved":false,"is_disabled":false,"rental_uris":{"android":"levelo://app?vid=61e09bc4-20dd-4904-80a3-af1b41d73fe0","ios":"levelo://app?vid=61e09bc4-20dd-4904-80a3-af1b41d73fe0"},"vehicle_type_id":"4","last_reported":1760735338,"current_range_meters":4000,"station_id":"ce4bhpp2rcd13ifvqhgg","pricing_plan_id":"cebpf4jnsgd1na2vs0mg"},{"bike_id":"514bd5c5-f05c-4c41-9ad7-422eb543844d","system_id":"levelo_inurba_marseille","lat":43.23183,"lon":5.39991,"is_reserved":false,"is_disabled":false,"rental_uris":{"android":"levelo://app?vid=514bd5c5-f05c-4c41-9ad7-422eb543844d","ios":"levelo://app?vid=514bd5c5-f05c-4c41-9ad7-422eb543844d"},"vehicle_type_id":"4","last_reported":1760735338,"current_range_meters":4000,"station_id":"ce4bhn12rcd13ifvqgqg","pricing_plan_id":"cebpf4jnsgd1na2vs0mg"},{"bike_id":"b2933fd8-69f5-4464-a168-c61e227b1a56","system_id":"levelo_inurba_marseille","lat":43.24692,"lon":5.38179,"is_reserved":false,"is_disabled":false,"rental_uris":{"android":"levelo://app?vid=b2933fd8-69f5-4464-a168-c61e227b1a56","ios":"levelo://app?vid=b2933fd8-69f5-4464-a168-c61e227b1a56"},"vehicle_type_id":"4","last_reported":1760735338,"current_range_meters":4000,"station_id":"ce4bhih2rcd13ifvqfr0","pricing_plan_id":"cebpf4jnsgd1na2vs0mg"},{"bike_id":"e1e0037e-8214-47f5-a4bb-998a2f34d005","system_id":"levelo_inurba_marseille","lat":43.23179,"lon":5.39989,"is_reserved":false,"is_disabled":false,"rental_uris":{"android":"levelo://app?vid=e1e0037e-8214-47f5-a4bb-998a2f34d005","ios":"levelo://app?vid=e1e0037e-8214-47f5-a4bb-998a2f34d005"},"vehicle_type_id":"4","last_reported":1760735338,"current_range_meters":4000,"station_id":"ce4bhn12rcd13ifvqgqg","pricing_plan_id":"cebpf4jnsgd1na2vs0mg"},{"bike_id":"a794a8d7-b0f4-4816-9567-10e9d8cf2529","system_id":"levelo_inurba_marseille","lat":43.27347,"lon":5.39091,"is_reserved":false,"is_disabled":false,"rental_uris":{"android":"levelo://app?vid=a794a8d7-b0f4-4816-9567-10e9d8cf2529","ios":"levelo://app?vid=a794a8d7-b0f4-4816-9567-10e9d8cf2529"},"vehicle_type_id":"4","last_reported":1760735338,"current_range_meters":4400,"station_id":"","pricing_plan_id":"cebpf4jnsgd1na2vs0mg"},{"bike_id":"625af995-8e17-47bb-b221-6209870755a5","system_id":"levelo_inurba_marseille","lat":43.278185,"lon":5.41536,"is_reserved":false,"is_disabled":false,"rental_uris":{"android":"levelo://app?vid=625af995-8e17-47bb-b221-6209870755a5","ios":"levelo://app?vid=625af995-8e17-47bb-b221-6209870755a5"},"vehicle_type_id":"4","last_reported":1760735338,"current_range_meters":4400,"station_id":"","pricing_plan_id":"cebpf4jnsgd1na2vs0mg"},{"bike_id":"af96e380-ef8b-412e-8dbe-07ad526806b5","system_id":"levelo_inurba_marseille","lat":43.33771,"lon":5.37425,"is_reserved":false,"is_disabled":false,"rental_uris":{"android":"levelo://app?vid=af96e380-ef8b-412e-8dbe-07ad526806b5","ios":"levelo://app?vid=af96e380-ef8b-412e-8dbe-07ad526806b5"},"vehicle_type_id":"4","last_reported":1760735338,"current_range_meters":4400,"station_id":"","pricing_plan_id":"cebpf4jnsgd1na2vs0mg"},{"bike_id":"817e90b6-3500-48bf-9da7-dcd6a192f2f5","system_id":"levelo_inurba_marseille","lat":43.315295,"lon":5.380262,"is_reserved":false,"is_disabled":true,"rental_uris":{"android":"levelo://app?vid=817e90b6-3500-48bf-9da7-dcd6a192f2f5","ios":"levelo://app?vid=817e90b6-3500-48bf-9da7-dcd6a192f2f5"},"vehicle_type_id":"4","last_reported":1760735338,"current_range_meters":4800,"station_id":"ce4bhsp2rcd13ifvqi50","pricing_plan_id":"cebpf4jnsgd1na2vs0mg"},{"bike_id":"7856590a-1572-412a-918e-77843d1b598a","system_id":"levelo_inurba_marseille","lat":43.280938,"lon":5.421817,"is_reserved":false,"is_disabled":false,"rental_uris":{"android":"levelo://app?vid=7856590a-1572-412a-918e-77843d1b598a","ios":"levelo://app?vid=7856590a-1572-412a-918e-77843d1b598a"},"vehicle_type_id":"4","last_reported":1760735338,"current_range_meters":4800,"station_id":"","pricing_plan_id":"cebpf4jnsgd1na2vs0mg"},{"bike_id":"3b4a6892-afe7-4859-af32-6ae3189127f6","system_id":"levelo_inurba_marseille","lat":43.295227,"lon":5.390372,"is_reserved":false,"is_disabled":false,"rental_uris":{"android":"levelo://app?vid=3b4a6892-afe7-4859-af32-6ae3189127f6","ios":"levelo://app?vid=3b4a6892-afe7-4859-af32-6ae3189127f6"},"vehicle_type_id":"4","last_reported":1760735338,"current_range_meters":5600,"station_id":"ce4bh3p2rcd13ifvqdp0","pricing_plan_id":"cebpf4jnsgd1na2vs0mg"},{"bike_id":"7a63795d-d6ae-4db3-866d-c16b2af002f1","system_id":"levelo_inurba_marseille","lat":43.29958,"lon":5.37519,"is_reserved":false,"is_disabled":false,"rental_uris":{"android":"levelo://app?vid=7a63795d-d6ae-4db3-866d-c16b2af002f1","ios":"levelo://app?vid=7a63795d-d6ae-4db3-866d-c16b2af002f1"},"vehicle_type_id":"4","last_reported":1760735338,"current_range_meters":5600,"station_id":"ce4bgjh2rcd13ifvqbg0","pricing_plan_id":"cebpf4jnsgd1na2vs0mg"},{"bike_id":"7e444206-20cf-47e2-a819-82c6ab3d59a7","system_id":"levelo_inurba_marseille","lat":43.33762,"lon":5.40682,"is_reserved":false,"is_disabled":false,"rental_uris":{"android":"levelo://app?vid=7e444206-20cf-47e2-a819-82c6ab3d59a7","ios":"levelo://app?vid=7e444206-20cf-47e2-a819-82c6ab3d59a7"},"vehicle_type_id":"4","last_reported":1760735338,"current_range_meters":5600,"station_id":"","pricing_plan_id":"cebpf4jnsgd1na2vs0mg"},{"bike_id":"cdba3967-fed7-4933-af52-b7d3ed0fceea","system_id":"levelo_inurba_marseille","lat":43.3091,"lon":5.37208,"is_reserved":false,"is_disabled":false,"rental_uris":{"android":"levelo://app?vid=cdba3967-fed7-4933-af52-b7d3ed0fceea","ios":"levelo://app?vid=cdba3967-fed7-4933-af52-b7d3ed0fceea"},"vehicle_type_id":"4","last_reported":1760735338,"current_range_meters":5600,"station_id":"ce4bguh2rcd13ifvqckg","pricing_plan_id":"cebpf4jnsgd1na2vs0mg"},{"bike_id":"1dc3768d-0b4e-4859-817c-5a4ee299d7ad","system_id":"levelo_inurba_marseille","lat":43.29725,"lon":5.37867,"is_reserved":false,"is_disabled":false,"rental_uris":{"android":"levelo://app?vid=1dc3768d-0b4e-4859-817c-5a4ee299d7ad","ios":"levelo://app?vid=1dc3768d-0b4e-4859-817c-5a4ee299d7ad"},"vehicle_type_id":"4","last_reported":1760735338,"current_range_meters":5600,"station_id":"","pricing_plan_id":"cebpf4jnsgd1na2vs0mg"},{"bike_id":"ca88772e-eddc-4040-a591-d81c236a9aab","system_id":"levelo_inurba_marseille","lat":43.28439,"lon":5.3918,"is_reserved":false,"is_disabled":false,"rental_uris":{"android":"levelo://app?vid=ca88772e-eddc-4040-a591-d81c236a9aab","ios":"levelo://app?vid=ca88772e-eddc-4040-a591-d81c236a9aab"},"vehicle_type_id":"4","last_reported":1760735338,"current_range_meters":6000,"station_id":"ce4bhoh2rcd13ifvqh5g","pricing_plan_id":"cebpf4jnsgd1na2vs0mg"},{"bike_id":"8f4e5143-1127-445c-9078-6d62b4c56745","system_id":"levelo_inurba_marseille","lat":43.31215,"lon":5.37928,"is_reserved":false,"is_disabled":false,"rental_uris":{"android":"levelo://app?vid=8f4e5143-1127-445c-9078-6d62b4c56745","ios":"levelo://app?vid=8f4e5143-1127-445c-9078-6d62b4c56745"},"vehicle_type_id":"4","last_reported":1760735338,"current_range_meters":6000,"station_id":"","pricing_plan_id":"cebpf4jnsgd1na2vs0mg"},{"bike_id":"5a38fece-551d-4e35-8cdd-533b01ad00f7","system_id":"levelo_inurba_marseille","lat":43.312677,"lon":5.401702,"is_reserved":false,"is_disabled":false,"rental_uris":{"android":"levelo://app?vid=5a38fece-551d-4e35-8cdd-533b01ad00f7","ios":"levelo://app?vid=5a38fece-551d-4e35-8cdd-533b01ad00f7"},"vehicle_type_id":"4","last_reported":1760735338,"current_range_meters":6000,"station_id":"ce4bh092rcd13ifvqd30","pricing_plan_id":"cebpf4jnsgd1na2vs0mg"},{"bike_id":"0acd0fab-be1d-4282-aab1-87f2accdac46","system_id":"levelo_inurba_marseille","lat":43.24064,"lon":5.37758,"is_reserved":false,"is_disabled":false,"rental_uris":{"android":"levelo://app?vid=0acd0fab-be1d-4282-aab1-87f2accdac46","ios":"levelo://app?vid=0acd0fab-be1d-4282-aab1-87f2accdac46"},"vehicle_type_id":"4","last_reported":1760735338,"current_range_meters":6400,"station_id":"ce4bhnp2rcd13ifvqgvg","pricing_plan_id":"cebpf4jnsgd1na2vs0mg"},{"bike_id":"73158b9c-cec3-4095-9bc3-06e962107ae1","system_id":"levelo_inurba_marseille","lat":43.30323,"lon":5.39185,"is_reserved":false,"is_disabled":false,"rental_uris":{"android":"levelo://app?vid=73158b9c-cec3-4095-9bc3-06e962107ae1","ios":"levelo://app?vid=73158b9c-cec3-4095-9bc3-06e962107ae1"},"vehicle_type_id":"4","last_reported":1760735338,"current_range_meters":6400,"station_id":"ce4bgkh2rcd13ifvqbk0","pricing_plan_id":"cebpf4jnsgd1na2vs0mg"},{"bike_id":"4f09611f-4f02-443e-a88b-de73bfbacade","system_id":"levelo_inurba_marseille","lat":43.28159,"lon":5.42634,"is_reserved":false,"is_disabled":false,"rental_uris":{"android":"levelo://app?vid=4f09611f-4f02-443e-a88b-de73bfbacade","ios":"levelo://app?vid=4f09611f-4f02-443e-a88b-de73bfbacade"},"vehicle_type_id":"4","last_reported":1760735338,"current_range_meters":6400,"station_id":"ce4bhnh2rcd13ifvqgug","pricing_plan_id":"cebpf4jnsgd1na2vs0mg"},{"bike_id":"be1c4bc2-ea26-4165-ae2c-40ac4665f215","system_id":"levelo_inurba_marseille","lat":43.294394,"lon":5.428659,"is_reserved":false,"is_disabled":true,"rental_uris":{"android":"levelo://app?vid=be1c4bc2-ea26-4165-ae2c-40ac4665f215","ios":"levelo://app?vid=be1c4bc2-ea26-4165-ae2c-40ac4665f215"},"vehicle_type_id":"4","last_reported":1760735338,"current_range_meters":6400,"station_id":"","pricing_plan_id":"cebpf4jnsgd1na2vs0mg"},{"bike_id":"ed274910-f967-489e-bcb0-abdaae7a4334","system_id":"levelo_inurba_marseille","lat":43.31224,"lon":5.38674,"is_reserved":false,"is_disabled":false,"rental_uris":{"android":"levelo://app?vid=ed274910-f967-489e-bcb0-abdaae7a4334","ios":"levelo://app?vid=ed274910-f967-489e-bcb0-abdaae7a4334"},"vehicle_type_id":"4","last_reported":1760735338,"current_range_meters":6400,"station_id":"","pricing_plan_id":"cebpf4jnsgd1na2vs0mg"},{"bike_id":"95f49e44-18e5-4046-8b8d-59b476edf2a0","system_id":"levelo_inurba_marseille","lat":43.30886,"lon":5.3966,"is_reserved":false,"is_disabled":false,"rental_uris":{"android":"levelo://app?vid=95f49e44-18e5-4046-8b8d-59b476edf2a0","ios":"levelo://app?vid=95f49e44-18e5-4046-8b8d-59b476edf2a0"},"vehicle_type_id":"4","last_reported":1760735338,"current_range_meters":6400,"station_id":"ce4bh012rcd13ifvqcv0","pricing_plan_id":"cebpf4jnsgd1na2vs0mg"},{"bike_id":"40f228c7-99ca-459f-81db-77fbc09be216","system_id":"levelo_inurba_marseille","lat":43.30798,"lon":5.4352,"is_reserved":false,"is_disabled":false,"rental_uris":{"android":"levelo://app?vid=40f228c7-99ca-459f-81db-77fbc09be216","ios":"levelo://app?vid=40f228c7-99ca-459f-81db-77fbc09be216"},"vehicle_type_id":"4","last_reported":1760735338,"current_range_meters":6400,"station_id":"ce4bhph2rcd13ifvqheg","pricing_plan_id":"cebpf4jnsgd1na2vs0mg"},{"bike_id":"73169588-47b6-466d-9d6c-d6ac891ae7ae","system_id":"levelo_inurba_marseille","lat":43.29298,"lon":5.3746,"is_reserved":false,"is_disabled":false,"rental_uris":{"android":"levelo://app?vid=73169588-47b6-466d-9d6c-d6ac891ae7ae","ios":"levelo://app?vid=73169588-47b6-466d-9d6c-d6ac891ae7ae"},"vehicle_type_id":"4","last_reported":1760735338,"current_range_meters":6400,"station_id":"ce4bgi12rcd13ifvqb70","pricing_plan_id":"cebpf4jnsgd1na2vs0mg"},{"bike_id":"a94b24cd-3790-42c8-a79f-5e3d253575bb","system_id":"levelo_inurba_marseille","lat":43.29262,"lon":5.38437,"is_reserved":false,"is_disabled":false,"rental_uris":{"android":"levelo://app?vid=a94b24cd-3790-42c8-a79f-5e3d253575bb","ios":"levelo://app?vid=a94b24cd-3790-42c8-a79f-5e3d253575bb"},"vehicle_type_id":"4","last_reported":1760735338,"current_range_meters":6400,"station_id":"ce4bh692rcd13ifvqea0","pricing_plan_id":"cebpf4jnsgd1na2vs0mg"},{"bike_id":"b14f48fc-83c2-43d5-a60c-3d0019cae2de","system_id":"levelo_inurba_marseille","lat":43.24393,"lon":5.37059,"is_reserved":false,"is_disabled":false,"rental_uris":{"android":"levelo://app?vid=b14f48fc-83c2-43d5-a60c-3d0019cae2de","ios":"levelo://app?vid=b14f48fc-83c2-43d5-a60c-3d0019cae2de"},"vehicle_type_id":"4","last_reported":1760735338,"current_range_meters":6800,"station_id":"ce4bhhh2rcd13ifvqfk0","pricing_plan_id":"cebpf4jnsgd1na2vs0mg"},{"bike_id":"c871ca87-9ea0-4c82-8f96-1d74fe568265","system_id":"levelo_inurba_marseille","lat":43.285605,"lon":5.413817,"is_reserved":false,"is_disabled":false,"rental_uris":{"android":"levelo://app?vid=c871ca87-9ea0-4c82-8f96-1d74fe568265","ios":"levelo://app?vid=c871ca87-9ea0-4c82-8f96-1d74fe568265"},"vehicle_type_id":"4","last_reported":1760735338,"current_range_meters":6800,"station_id":"","pricing_plan_id":"cebpf4jnsgd1na2vs0mg"},{"bike_id":"47b6a661-48b8-461f-9827-f48295e67bbf","system_id":"levelo_inurba_marseille","lat":43.26323,"lon":5.39817,"is_reserved":false,"is_disabled":false,"rental_uris":{"android":"levelo://app?vid=47b6a661-48b8-461f-9827-f48295e67bbf","ios":"levelo://app?vid=47b6a661-48b8-461f-9827-f48295e67bbf"},"vehicle_type_id":"4","last_reported":1760735338,"current_range_meters":7200,"station_id":"","pricing_plan_id":"cebpf4jnsgd1na2vs0mg"},{"bike_id":"121f55c8-5a85-4142-a96c-bf52eb873442","system_id":"levelo_inurba_marseille","lat":43.30477,"lon":5.36909,"is_reserved":false,"is_disabled":false,"rental_uris":{"android":"levelo://app?vid=121f55c8-5a85-4142-a96c-bf52eb873442","ios":"levelo://app?vid=121f55c8-5a85-4142-a96c-bf52eb873442"},"vehicle_type_id":"4","last_reported":1760735338,"current_range_meters":7200,"station_id":"","pricing_plan_id":"cebpf4jnsgd1na2vs0mg"},{"bike_id":"e87b71c7-895a-4869-8c40-bac209ca98c2","system_id":"levelo_inurba_marseille","lat":43.297662,"lon":5.37938,"is_reserved":false,"is_disabled":false,"rental_uris":{"android":"levelo://app?vid=e87b71c7-895a-4869-8c40-bac209ca98c2","ios":"levelo://app?vid=e87b71c7-895a-4869-8c40-bac209ca98c2"},"vehicle_type_id":"4","last_reported":1760735338,"current_range_meters":7200,"station_id":"ce4bgip2rcd13ifvqbb0","pricing_plan_id":"cebpf4jnsgd1na2vs0mg"},{"bike_id":"8f7b46fe-adfc-4ce0-bcb0-5259d8886a75","system_id":"levelo_inurba_marseille","lat":43.28472,"lon":5.35892,"is_reserved":false,"is_disabled":true,"rental_uris":{"android":"levelo://app?vid=8f7b46fe-adfc-4ce0-bcb0-5259d8886a75","ios":"levelo://app?vid=8f7b46fe-adfc-4ce0-bcb0-5259d8886a75"},"vehicle_type_id":"4","last_reported":1760735338,"current_range_meters":7200,"station_id":"ce4bhah2rcd13ifvqei0","pricing_plan_id":"cebpf4jnsgd1na2vs0mg"},{"bike_id":"b263f66d-64e4-4369-b2d1-6d2508769b89","system_id":"levelo_inurba_marseille","lat":43.27995,"lon":5.39995,"is_reserved":false,"is_disabled":false,"rental_uris":{"android":"levelo://app?vid=b263f66d-64e4-4369-b2d1-6d2508769b89","ios":"levelo://app?vid=b263f66d-64e4-4369-b2d1-6d2508769b89"},"vehicle_type_id":"4","last_reported":1760735338,"current_range_meters":8000,"station_id":"ce4bho92rcd13ifvqh4g","pricing_plan_id":"cebpf4jnsgd1na2vs0mg"},{"bike_id":"e257a5c9-b99e-4af1-ac4f-b017f1c8b418","system_id":"levelo_inurba_marseille","lat":43.33759,"lon":5.37438,"is_reserved":false,"is_disabled":false,"rental_uris":{"android":"levelo://app?vid=e257a5c9-b99e-4af1-ac4f-b017f1c8b418","ios":"levelo://app?vid=e257a5c9-b99e-4af1-ac4f-b017f1c8b418"},"vehicle_type_id":"4","last_reported":1760735338,"current_range_meters":8000,"station_id":"","pricing_plan_id":"cebpf4jnsgd1na2vs0mg"},{"bike_id":"245a030c-0c43-41f8-a4cc-088d55252b06","system_id":"levelo_inurba_marseille","lat":43.24476,"lon":5.36914,"is_reserved":false,"is_disabled":false,"rental_uris":{"android":"levelo://app?vid=245a030c-0c43-41f8-a4cc-088d55252b06","ios":"levelo://app?vid=245a030c-0c43-41f8-a4cc-088d55252b06"},"vehicle_type_id":"4","last_reported":1760735338,"current_range_meters":8000,"station_id":"","pricing_plan_id":"cebpf4jnsgd1na2vs0mg"},{"bike_id":"f33b9fc8-b771-46c2-99d2-3f7ef990d3ab","system_id":"levelo_inurba_marseille","lat":43.2721,"lon":5.39173,"is_reserved":false,"is_disabled":false,"rental_uris":{"android":"levelo://app?vid=f33b9fc8-b771-46c2-99d2-3f7ef990d3ab","ios":"levelo://app?vid=f33b9fc8-b771-46c2-99d2-3f7ef990d3ab"},"vehicle_type_id":"4","last_reported":1760735338,"current_range_meters":8000,"station_id":"ce4bhhp2rcd13ifvqfm0","pricing_plan_id":"cebpf4jnsgd1na2vs0mg"},{"bike_id":"0670def4-b15a-4c00-8829-0cd906a61bcb","system_id":"levelo_inurba_marseille","lat":43.337653,"lon":5.37437,"is_reserved":false,"is_disabled":false,"rental_uris":{"android":"levelo://app?vid=0670def4-b15a-4c00-8829-0cd906a61bcb","ios":"levelo://app?vid=0670def4-b15a-4c00-8829-0cd906a61bcb"},"vehicle_type_id":"4","last_reported":1760735338,"current_range_meters":8000,"station_id":"","pricing_plan_id":"cebpf4jnsgd1na2vs0mg"},{"bike_id":"26416dae-68db-465d-ba83-72f605f27523","system_id":"levelo_inurba_marseille","lat":43.337665,"lon":5.374725,"is_reserved":false,"is_disabled":false,"rental_uris":{"android":"levelo://app?vid=26416dae-68db-465d-ba83-72f605f27523","ios":"levelo://app?vid=26416dae-68db-465d-ba83-72f605f27523"},"vehicle_type_id":"4","last_reported":1760735338,"current_range_meters":8000,"station_id":"","pricing_plan_id":"cebpf4jnsgd1na2vs0mg"},{"bike_id":"6977beda-5ff5-44e6-b8f9-765108f98d50","system_id":"levelo_inurba_marseille","lat":43.32699,"lon":5.39225,"is_reserved":false,"is_disabled":false,"rental_uris":{"android":"levelo://app?vid=6977beda-5ff5-44e6-b8f9-765108f98d50","ios":"levelo://app?vid=6977beda-5ff5-44e6-b8f9-765108f98d50"},"vehicle_type_id":"4","last_reported":1760735338,"current_range_meters":8000,"station_id":"","pricing_plan_id":"cebpf4jnsgd1na2vs0mg"},{"bike_id":"d0b851f6-d561-4ed9-8c9a-6e79ab4ff8f5","system_id":"levelo_inurba_marseille","lat":43.31984,"lon":5.38145,"is_reserved":false,"is_disabled":false,"rental_uris":{"android":"levelo://app?vid=d0b851f6-d561-4ed9-8c9a-6e79ab4ff8f5","ios":"levelo://app?vid=d0b851f6-d561-4ed9-8c9a-6e79ab4ff8f5"},"vehicle_type_id":"4","last_reported":1760735338,"current_range_meters":8000,"station_id":"ce4bhr12rcd13ifvqhpg","pricing_plan_id":"cebpf4jnsgd1na2vs0mg"},{"bike_id":"45f7b563-d090-4289-9633-8aa3146cb53c","system_id":"levelo_inurba_marseille","lat":43.28935,"lon":5.39622,"is_reserved":false,"is_disabled":false,"rental_uris":{"android":"levelo://app?vid=45f7b563-d090-4289-9633-8aa3146cb53c","ios":"levelo://app?vid=45f7b563-d090-4289-9633-8aa3146cb53c"},"vehicle_type_id":"4","last_reported":1760735338,"current_range_meters":8400,"station_id":"ce4bh3h2rcd13ifvqdn0","pricing_plan_id":"cebpf4jnsgd1na2vs0mg"},{"bike_id":"a488770f-a178-49a6-a80c-a1fb40e34fab","system_id":"levelo_inurba_marseille","lat":43.30937,"lon":5.40132,"is_reserved":false,"is_disabled":false,"rental_uris":{"android":"levelo://app?vid=a488770f-a178-49a6-a80c-a1fb40e34fab","ios":"levelo://app?vid=a488770f-a178-49a6-a80c-a1fb40e34fab"},"vehicle_type_id":"4","last_reported":1760735338,"current_range_meters":8400,"station_id":"ce4bgvp2rcd13ifvqct0","pricing_plan_id":"cebpf4jnsgd1na2vs0mg"},{"bike_id":"16ca5bf0-c556-4810-a030-8d0c08ee87dc","system_id":"levelo_inurba_marseille","lat":43.33598,"lon":5.41019,"is_reserved":false,"is_disabled":false,"rental_uris":{"android":"levelo://app?vid=16ca5bf0-c556-4810-a030-8d0c08ee87dc","ios":"levelo://app?vid=16ca5bf0-c556-4810-a030-8d0c08ee87dc"},"vehicle_type_id":"4","last_reported":1760735338,"current_range_meters":8400,"station_id":"ce4bhqh2rcd13ifvqhmg","pricing_plan_id":"cebpf4jnsgd1na2vs0mg"},{"bike_id":"b46c1f92-f897-4f1a-b590-282ead6c4e45","system_id":"levelo_inurba_marseille","lat":43.30785,"lon":5.37643,"is_reserved":false,"is_disabled":false,"rental_uris":{"android":"levelo://app?vid=b46c1f92-f897-4f1a-b590-282ead6c4e45","ios":"levelo://app?vid=b46c1f92-f897-4f1a-b590-282ead6c4e45"},"vehicle_type_id":"4","last_reported":1760735338,"current_range_meters":8400,"station_id":"ce4bgv92rcd13ifvqcq0","pricing_plan_id":"cebpf4jnsgd1na2vs0mg"},{"bike_id":"df64ddd6-5ab6-4c2f-ae3a-3d0994b9a933","system_id":"levelo_inurba_marseille","lat":43.32867,"lon":5.39159,"is_reserved":false,"is_disabled":false,"rental_uris":{"android":"levelo://app?vid=df64ddd6-5ab6-4c2f-ae3a-3d0994b9a933","ios":"levelo://app?vid=df64ddd6-5ab6-4c2f-ae3a-3d0994b9a933"},"vehicle_type_id":"4","last_reported":1760735338,"current_range_meters":8400,"station_id":"","pricing_plan_id":"cebpf4jnsgd1na2vs0mg"},{"bike_id":"2a5498ee-d604-476f-a7c3-7260eebaa7f3","system_id":"levelo_inurba_marseille","lat":43.29571,"lon":5.37426,"is_reserved":false,"is_disabled":false,"rental_uris":{"android":"levelo://app?vid=2a5498ee-d604-476f-a7c3-7260eebaa7f3","ios":"levelo://app?vid=2a5498ee-d604-476f-a7c3-7260eebaa7f3"},"vehicle_type_id":"4","last_reported":1760735338,"current_range_meters":8800,"station_id":"","pricing_plan_id":"cebpf4jnsgd1na2vs0mg"},{"bike_id":"24d82d64-1145-442f-a9f5-19238b0b39ef","system_id":"levelo_inurba_marseille","lat":43.272133,"lon":5.391866,"is_reserved":false,"is_disabled":false,"rental_uris":{"android":"levelo://app?vid=24d82d64-1145-442f-a9f5-19238b0b39ef","ios":"levelo://app?vid=24d82d64-1145-442f-a9f5-19238b0b39ef"},"vehicle_type_id":"4","last_reported":1760735338,"current_range_meters":9200,"station_id":"","pricing_plan_id":"cebpf4jnsgd1na2vs0mg"},{"bike_id":"b8f90e59-7520-413b-88b6-725027c4fe2d","system_id":"levelo_inurba_marseille","lat":43.27211,"lon":5.40941,"is_reserved":false,"is_disabled":false,"rental_uris":{"android":"levelo://app?vid=b8f90e59-7520-413b-88b6-725027c4fe2d","ios":"levelo://app?vid=b8f90e59-7520-413b-88b6-725027c4fe2d"},"vehicle_type_id":"4","last_reported":1760735338,"current_range_meters":9200,"station_id":"ce4bhl12rcd13ifvqgf0","pricing_plan_id":"cebpf4jnsgd1na2vs0mg"},{"bike_id":"edc2b540-f4d1-424e-9002-80823ed0b6b2","system_id":"levelo_inurba_marseille","lat":43.28377,"lon":5.36994,"is_reserved":false,"is_disabled":false,"rental_uris":{"android":"levelo://app?vid=edc2b540-f4d1-424e-9002-80823ed0b6b2","ios":"levelo://app?vid=edc2b540-f4d1-424e-9002-80823ed0b6b2"},"vehicle_type_id":"4","last_reported":1760735338,"current_range_meters":9200,"station_id":"","pricing_plan_id":"cebpf4jnsgd1na2vs0mg"},{"bike_id":"3ba7436c-4ef1-481e-935c-5728f6e2f897","system_id":"levelo_inurba_marseille","lat":43.28076,"lon":5.39653,"is_reserved":false,"is_disabled":false,"rental_uris":{"android":"levelo://app?vid=3ba7436c-4ef1-481e-935c-5728f6e2f897","ios":"levelo://app?vid=3ba7436c-4ef1-481e-935c-5728f6e2f897"},"vehicle_type_id":"4","last_reported":1760735338,"current_range_meters":9200,"station_id":"ce4bho12rcd13ifvqh2g","pricing_plan_id":"cebpf4jnsgd1na2vs0mg"},{"bike_id":"cfb3fcf1-7d43-4247-8d54-ff93bd89ba87","system_id":"levelo_inurba_marseille","lat":43.30705,"lon":5.39721,"is_reserved":false,"is_disabled":false,"rental_uris":{"android":"levelo://app?vid=cfb3fcf1-7d43-4247-8d54-ff93bd89ba87","ios":"levelo://app?vid=cfb3fcf1-7d43-4247-8d54-ff93bd89ba87"},"vehicle_type_id":"4","last_reported":1760735338,"current_range_meters":9200,"station_id":"","pricing_plan_id":"cebpf4jnsgd1na2vs0mg"},{"bike_id":"9dd1d8fe-c2a8-4a70-a175-61f5f9fe7fd2","system_id":"levelo_inurba_marseille","lat":43.32195,"lon":5.38744,"is_reserved":false,"is_disabled":false,"rental_uris":{"android":"levelo://app?vid=9dd1d8fe-c2a8-4a70-a175-61f5f9fe7fd2","ios":"levelo://app?vid=9dd1d8fe-c2a8-4a70-a175-61f5f9fe7fd2"},"vehicle_type_id":"4","last_reported":1760735338,"current_range_meters":9600,"station_id":"","pricing_plan_id":"cebpf4jnsgd1na2vs0mg"},{"bike_id":"c22425e9-7730-4f53-8303-925b61cf91e0","system_id":"levelo_inurba_marseille","lat":43.29272,"lon":5.38426,"is_reserved":false,"is_disabled":false,"rental_uris":{"android":"levelo://app?vid=c22425e9-7730-4f53-8303-925b61cf91e0","ios":"levelo://app?vid=c22425e9-7730-4f53-8303-925b61cf91e0"},"vehicle_type_id":"4","last_reported":1760735338,"current_range_meters":9600,"station_id":"ce4bh692rcd13ifvqea0","pricing_plan_id":"cebpf4jnsgd1na2vs0mg"},{"bike_id":"28c1f9b1-2594-4bad-b96c-ab19e297c481","system_id":"levelo_inurba_marseille","lat":43.30131,"lon":5.39861,"is_reserved":false,"is_disabled":false,"rental_uris":{"android":"levelo://app?vid=28c1f9b1-2594-4bad-b96c-ab19e297c481","ios":"levelo://app?vid=28c1f9b1-2594-4bad-b96c-ab19e297c481"},"vehicle_type_id":"4","last_reported":1760735338,"current_range_meters":9600,"station_id":"ce4bh0h2rcd13ifvqd40","pricing_plan_id":"cebpf4jnsgd1na2vs0mg"},{"bike_id":"489a9937-29f4-41ff-a4af-8cacb51230c8","system_id":"levelo_inurba_marseille","lat":43.29707,"lon":5.38136,"is_reserved":false,"is_disabled":false,"rental_uris":{"android":"levelo://app?vid=489a9937-29f4-41ff-a4af-8cacb51230c8","ios":"levelo://app?vid=489a9937-29f4-41ff-a4af-8cacb51230c8"},"vehicle_type_id":"4","last_reported":1760735338,"current_range_meters":9600,"station_id":"","pricing_plan_id":"cebpf4jnsgd1na2vs0mg"},{"bike_id":"522a7cf6-ff0c-4c4d-8050-c9e49a064859","system_id":"levelo_inurba_marseille","lat":43.30796,"lon":5.38148,"is_reserved":false,"is_disabled":false,"rental_uris":{"android":"levelo://app?vid=522a7cf6-ff0c-4c4d-8050-c9e49a064859","ios":"levelo://app?vid=522a7cf6-ff0c-4c4d-8050-c9e49a064859"},"vehicle_type_id":"4","last_reported":1760735338,"current_range_meters":9600,"station_id":"ce4bgt12rcd13ifvqce0","pricing_plan_id":"cebpf4jnsgd1na2vs0mg"},{"bike_id":"0d9e4622-1faf-4aa9-b37f-5b92c930f9ef","system_id":"levelo_inurba_marseille","lat":43.30307,"lon":5.39224,"is_reserved":false,"is_disabled":false,"rental_uris":{"android":"levelo://app?vid=0d9e4622-1faf-4aa9-b37f-5b92c930f9ef","ios":"levelo://app?vid=0d9e4622-1faf-4aa9-b37f-5b92c930f9ef"},"vehicle_type_id":"4","last_reported":1760735338,"current_range_meters":9600,"station_id":"ce4bgkh2rcd13ifvqbk0","pricing_plan_id":"cebpf4jnsgd1na2vs0mg"},{"bike_id":"a618858a-1e57-45a4-8b00-c08af3644355","system_id":"levelo_inurba_marseille","lat":43.28219,"lon":5.3906,"is_reserved":false,"is_disabled":false,"rental_uris":{"android":"levelo://app?vid=a618858a-1e57-45a4-8b00-c08af3644355","ios":"levelo://app?vid=a618858a-1e57-45a4-8b00-c08af3644355"},"vehicle_type_id":"4","last_reported":1760735338,"current_range_meters":9600,"station_id":"ce4bhn92rcd13ifvqgsg","pricing_plan_id":"cebpf4jnsgd1na2vs0mg"},{"bike_id":"416f580b-31c7-4ade-8604-dbd86eb8155f","system_id":"levelo_inurba_marseille","lat":43.28184,"lon":5.42098,"is_reserved":false,"is_disabled":false,"rental_uris":{"android":"levelo://app?vid=416f580b-31c7-4ade-8604-dbd86eb8155f","ios":"levelo://app?vid=416f580b-31c7-4ade-8604-dbd86eb8155f"},"vehicle_type_id":"4","last_reported":1760735338,"current_range_meters":9600,"station_id":"","pricing_plan_id":"cebpf4jnsgd1na2vs0mg"},{"bike_id":"f08b900a-221e-438b-9b91-097200d935f2","system_id":"levelo_inurba_marseille","lat":43.29285,"lon":5.38407,"is_reserved":false,"is_disabled":false,"rental_uris":{"android":"levelo://app?vid=f08b900a-221e-438b-9b91-097200d935f2","ios":"levelo://app?vid=f08b900a-221e-438b-9b91-097200d935f2"},"vehicle_type_id":"4","last_reported":1760735338,"current_range_meters":9600,"station_id":"ce4bh692rcd13ifvqea0","pricing_plan_id":"cebpf4jnsgd1na2vs0mg"},{"bike_id":"c2dc3cec-aa89-415d-9130-0b603e56cb01","system_id":"levelo_inurba_marseille","lat":43.29287,"lon":5.38424,"is_reserved":false,"is_disabled":false,"rental_uris":{"android":"levelo://app?vid=c2dc3cec-aa89-415d-9130-0b603e56cb01","ios":"levelo://app?vid=c2dc3cec-aa89-415d-9130-0b603e56cb01"},"vehicle_type_id":"4","last_reported":1760735338,"current_range_meters":10000,"station_id":"ce4bh692rcd13ifvqea0","pricing_plan_id":"cebpf4jnsgd1na2vs0mg"},{"bike_id":"804e7aea-6ead-4463-8752-530e1640c483","system_id":"levelo_inurba_marseille","lat":43.296035,"lon":5.380958,"is_reserved":false,"is_disabled":false,"rental_uris":{"android":"levelo://app?vid=804e7aea-6ead-4463-8752-530e1640c483","ios":"levelo://app?vid=804e7aea-6ead-4463-8752-530e1640c483"},"vehicle_type_id":"4","last_reported":1760735338,"current_range_meters":10800,"station_id":"ce4bgl12rcd13ifvqbo0","pricing_plan_id":"cebpf4jnsgd1na2vs0mg"},{"bike_id":"a6adbbd9-aa94-4808-a798-2bbe3c39c4f4","system_id":"levelo_inurba_marseille","lat":43.31364,"lon":5.38485,"is_reserved":false,"is_disabled":false,"rental_uris":{"android":"levelo://app?vid=a6adbbd9-aa94-4808-a798-2bbe3c39c4f4","ios":"levelo://app?vid=a6adbbd9-aa94-4808-a798-2bbe3c39c4f4"},"vehicle_type_id":"4","last_reported":1760735338,"current_range_meters":10800,"station_id":"ce4bgt92rcd13ifvqcf0","pricing_plan_id":"cebpf4jnsgd1na2vs0mg"},{"bike_id":"0f9c20ae-f80b-4bc4-a84d-e94070c41d3b","system_id":"levelo_inurba_marseille","lat":43.22573,"lon":5.41644,"is_reserved":false,"is_disabled":false,"rental_uris":{"android":"levelo://app?vid=0f9c20ae-f80b-4bc4-a84d-e94070c41d3b","ios":"levelo://app?vid=0f9c20ae-f80b-4bc4-a84d-e94070c41d3b"},"vehicle_type_id":"4","last_reported":1760735338,"current_range_meters":10800,"station_id":"st_d2o4gvlbi1j2169b742g","pricing_plan_id":"cebpf4jnsgd1na2vs0mg"},{"bike_id":"2fad9211-819b-4892-bf52-014fbefdb6cb","system_id":"levelo_inurba_marseille","lat":43.301519,"lon":5.373953,"is_reserved":false,"is_disabled":false,"rental_uris":{"android":"levelo://app?vid=2fad9211-819b-4892-bf52-014fbefdb6cb","ios":"levelo://app?vid=2fad9211-819b-4892-bf52-014fbefdb6cb"},"vehicle_type_id":"4","last_reported":1760735338,"current_range_meters":10800,"station_id":"ce4bgs92rcd13ifvqcc0","pricing_plan_id":"cebpf4jnsgd1na2vs0mg"},{"bike_id":"5fe6e873-dba1-40dd-bc65-77de126f2710","system_id":"levelo_inurba_marseille","lat":43.332893,"lon":5.395256,"is_reserved":false,"is_disabled":false,"rental_uris":{"android":"levelo://app?vid=5fe6e873-dba1-40dd-bc65-77de126f2710","ios":"levelo://app?vid=5fe6e873-dba1-40dd-bc65-77de126f2710"},"vehicle_type_id":"4","last_reported":1760735338,"current_range_meters":10800,"station_id":"","pricing_plan_id":"cebpf4jnsgd1na2vs0mg"},{"bike_id":"a817b630-bbed-48d3-97f4-9bd571b9ebab","system_id":"levelo_inurba_marseille","lat":43.30001,"lon":5.37345,"is_reserved":false,"is_disabled":false,"rental_uris":{"android":"levelo://app?vid=a817b630-bbed-48d3-97f4-9bd571b9ebab","ios":"levelo://app?vid=a817b630-bbed-48d3-97f4-9bd571b9ebab"},"vehicle_type_id":"4","last_reported":1760735338,"current_range_meters":10800,"station_id":"","pricing_plan_id":"cebpf4jnsgd1na2vs0mg"},{"bike_id":"da4fa759-7f24-42fe-9210-618b886bff89","system_id":"levelo_inurba_marseille","lat":43.27971,"lon":5.387237,"is_reserved":false,"is_disabled":false,"rental_uris":{"android":"levelo://app?vid=da4fa759-7f24-42fe-9210-618b886bff89","ios":"levelo://app?vid=da4fa759-7f24-42fe-9210-618b886bff89"},"vehicle_type_id":"4","last_reported":1760735338,"current_range_meters":10800,"station_id":"ce4bhg12rcd13ifvqf80","pricing_plan_id":"cebpf4jnsgd1na2vs0mg"},{"bike_id":"82c8816f-eed3-440f-a0e9-0fee6f6e6474","system_id":"levelo_inurba_marseille","lat":43.28861,"lon":5.3584,"is_reserved":false,"is_disabled":false,"rental_uris":{"android":"levelo://app?vid=82c8816f-eed3-440f-a0e9-0fee6f6e6474","ios":"levelo://app?vid=82c8816f-eed3-440f-a0e9-0fee6f6e6474"},"vehicle_type_id":"4","last_reported":1760735338,"current_range_meters":11200,"station_id":"ce4bhb12rcd13ifvqem0","pricing_plan_id":"cebpf4jnsgd1na2vs0mg"},{"bike_id":"efeed3e0-0d89-49c8-88ee-54fc372b67ef","system_id":"levelo_inurba_marseille","lat":43.2748,"lon":5.4245,"is_reserved":false,"is_disabled":true,"rental_uris":{"android":"levelo://app?vid=efeed3e0-0d89-49c8-88ee-54fc372b67ef","ios":"levelo://app?vid=efeed3e0-0d89-49c8-88ee-54fc372b67ef"},"vehicle_type_id":"4","last_reported":1760735338,"current_range_meters":11200,"station_id":"ce4bhn92rcd13ifvqgrg","pricing_plan_id":"cebpf4jnsgd1na2vs0mg"},{"bike_id":"a3e64914-a52c-40dd-acdf-6c8ec6a2c7ab","system_id":"levelo_inurba_marseille","lat":43.29921,"lon":5.37495,"is_reserved":false,"is_disabled":false,"rental_uris":{"android":"levelo://app?vid=a3e64914-a52c-40dd-acdf-6c8ec6a2c7ab","ios":"levelo://app?vid=a3e64914-a52c-40dd-acdf-6c8ec6a2c7ab"},"vehicle_type_id":"4","last_reported":1760735338,"current_range_meters":11200,"station_id":"ce4bgjh2rcd13ifvqbg0","pricing_plan_id":"cebpf4jnsgd1na2vs0mg"},{"bike_id":"fcfef5ef-4890-4876-818d-1db245f59f58","system_id":"levelo_inurba_marseille","lat":43.297109,"lon":5.376105,"is_reserved":false,"is_disabled":false,"rental_uris":{"android":"levelo://app?vid=fcfef5ef-4890-4876-818d-1db245f59f58","ios":"levelo://app?vid=fcfef5ef-4890-4876-818d-1db245f59f58"},"vehicle_type_id":"4","last_reported":1760735338,"current_range_meters":11200,"station_id":"","pricing_plan_id":"cebpf4jnsgd1na2vs0mg"},{"bike_id":"2f427ffa-023f-4f18-948d-448a449d3df0","system_id":"levelo_inurba_marseille","lat":43.2417,"lon":5.364,"is_reserved":false,"is_disabled":false,"rental_uris":{"android":"levelo://app?vid=2f427ffa-023f-4f18-948d-448a449d3df0","ios":"levelo://app?vid=2f427ffa-023f-4f18-948d-448a449d3df0"},"vehicle_type_id":"4","last_reported":1760735338,"current_range_meters":11200,"station_id":"cpo36qri1sfpv3e86is0","pricing_plan_id":"cebpf4jnsgd1na2vs0mg"},{"bike_id":"aa97a038-de4a-498d-a4b4-8ec99e18be3a","system_id":"levelo_inurba_marseille","lat":43.30871,"lon":5.396422,"is_reserved":false,"is_disabled":true,"rental_uris":{"android":"levelo://app?vid=aa97a038-de4a-498d-a4b4-8ec99e18be3a","ios":"levelo://app?vid=aa97a038-de4a-498d-a4b4-8ec99e18be3a"},"vehicle_type_id":"4","last_reported":1760735338,"current_range_meters":11200,"station_id":"ce4bh012rcd13ifvqcv0","pricing_plan_id":"cebpf4jnsgd1na2vs0mg"},{"bike_id":"887ae0cd-852b-4c3e-8383-09da22b1d71d","system_id":"levelo_inurba_marseille","lat":43.24062,"lon":5.37759,"is_reserved":false,"is_disabled":false,"rental_uris":{"android":"levelo://app?vid=887ae0cd-852b-4c3e-8383-09da22b1d71d","ios":"levelo://app?vid=887ae0cd-852b-4c3e-8383-09da22b1d71d"},"vehicle_type_id":"4","last_reported":1760735338,"current_range_meters":11600,"station_id":"ce4bhnp2rcd13ifvqgvg","pricing_plan_id":"cebpf4jnsgd1na2vs0mg"},{"bike_id":"c5e45447-2956-450f-bd7e-88aaf308c04d","system_id":"levelo_inurba_marseille","lat":43.28991,"lon":5.36537,"is_reserved":false,"is_disabled":false,"rental_uris":{"android":"levelo://app?vid=c5e45447-2956-450f-bd7e-88aaf308c04d","ios":"levelo://app?vid=c5e45447-2956-450f-bd7e-88aaf308c04d"},"vehicle_type_id":"4","last_reported":1760735338,"current_range_meters":11600,"station_id":"","pricing_plan_id":"cebpf4jnsgd1na2vs0mg"},{"bike_id":"eee6fc5a-a5e6-4f0c-a6a4-97824048b485","system_id":"levelo_inurba_marseille","lat":43.23956,"lon":5.36644,"is_reserved":false,"is_disabled":false,"rental_uris":{"android":"levelo://app?vid=eee6fc5a-a5e6-4f0c-a6a4-97824048b485","ios":"levelo://app?vid=eee6fc5a-a5e6-4f0c-a6a4-97824048b485"},"vehicle_type_id":"4","last_reported":1760735338,"current_range_meters":11600,"station_id":"ce4bhi12rcd13ifvqfp0","pricing_plan_id":"cebpf4jnsgd1na2vs0mg"},{"bike_id":"94f60e57-4ea5-4506-9b0b-d49e351bbd01","system_id":"levelo_inurba_marseille","lat":43.29386,"lon":5.38291,"is_reserved":false,"is_disabled":false,"rental_uris":{"android":"levelo://app?vid=94f60e57-4ea5-4506-9b0b-d49e351bbd01","ios":"levelo://app?vid=94f60e57-4ea5-4506-9b0b-d49e351bbd01"},"vehicle_type_id":"4","last_reported":1760735338,"current_range_meters":11600,"station_id":"","pricing_plan_id":"cebpf4jnsgd1na2vs0mg"},{"bike_id":"ea883585-d0e4-4bcb-922c-57b2a3efdeac","system_id":"levelo_inurba_marseille","lat":43.30528,"lon":5.36797,"is_reserved":false,"is_disabled":false,"rental_uris":{"android":"levelo://app?vid=ea883585-d0e4-4bcb-922c-57b2a3efdeac","ios":"levelo://app?vid=ea883585-d0e4-4bcb-922c-57b2a3efdeac"},"vehicle_type_id":"4","last_reported":1760735338,"current_range_meters":11600,"station_id":"","pricing_plan_id":"cebpf4jnsgd1na2vs0mg"},{"bike_id":"7eea2d45-9948-4cb7-88df-b70d74125da8","system_id":"levelo_inurba_marseille","lat":43.25501,"lon":5.37649,"is_reserved":false,"is_disabled":false,"rental_uris":{"android":"levelo://app?vid=7eea2d45-9948-4cb7-88df-b70d74125da8","ios":"levelo://app?vid=7eea2d45-9948-4cb7-88df-b70d74125da8"},"vehicle_type_id":"4","last_reported":1760735338,"current_range_meters":11600,"station_id":"ce4bhh12rcd13ifvqff0","pricing_plan_id":"cebpf4jnsgd1na2vs0mg"},{"bike_id":"283ba00b-4fb5-4685-9aaa-d6b28cdb8f0a","system_id":"levelo_inurba_marseille","lat":43.29188,"lon":5.39321,"is_reserved":false,"is_disabled":false,"rental_uris":{"android":"levelo://app?vid=283ba00b-4fb5-4685-9aaa-d6b28cdb8f0a","ios":"levelo://app?vid=283ba00b-4fb5-4685-9aaa-d6b28cdb8f0a"},"vehicle_type_id":"4","last_reported":1760735338,"current_range_meters":11600,"station_id":"ce4bh192rcd13ifvqdd0","pricing_plan_id":"cebpf4jnsgd1na2vs0mg"},{"bike_id":"59ee4d43-eb61-4aed-a406-b083fa9d27d8","system_id":"levelo_inurba_marseille","lat":43.31071,"lon":5.38338,"is_reserved":false,"is_disabled":true,"rental_uris":{"android":"levelo://app?vid=59ee4d43-eb61-4aed-a406-b083fa9d27d8","ios":"levelo://app?vid=59ee4d43-eb61-4aed-a406-b083fa9d27d8"},"vehicle_type_id":"4","last_reported":1760735338,"current_range_meters":11600,"station_id":"ce4bgv92rcd13ifvqcr0","pricing_plan_id":"cebpf4jnsgd1na2vs0mg"},{"bike_id":"c4c8e762-8a26-4257-9d60-d747eb2d8508","system_id":"levelo_inurba_marseille","lat":43.33191,"lon":5.35575,"is_reserved":false,"is_disabled":false,"rental_uris":{"android":"levelo://app?vid=c4c8e762-8a26-4257-9d60-d747eb2d8508","ios":"levelo://app?vid=c4c8e762-8a26-4257-9d60-d747eb2d8508"},"vehicle_type_id":"4","last_reported":1760735338,"current_range_meters":11600,"station_id":"","pricing_plan_id":"cebpf4jnsgd1na2vs0mg"},{"bike_id":"c3507be6-8fd3-4021-9265-6a1c71576d1c","system_id":"levelo_inurba_marseille","lat":43.274148,"lon":5.393865,"is_reserved":false,"is_disabled":false,"rental_uris":{"android":"levelo://app?vid=c3507be6-8fd3-4021-9265-6a1c71576d1c","ios":"levelo://app?vid=c3507be6-8fd3-4021-9265-6a1c71576d1c"},"vehicle_type_id":"4","last_reported":1760735338,"current_range_meters":12000,"station_id":"ce4bhh12rcd13ifvqfg0","pricing_plan_id":"cebpf4jnsgd1na2vs0mg"},{"bike_id":"ba2479bd-5a5a-46c2-83c3-00588f4cf74a","system_id":"levelo_inurba_marseille","lat":43.29788,"lon":5.36485,"is_reserved":false,"is_disabled":false,"rental_uris":{"android":"levelo://app?vid=ba2479bd-5a5a-46c2-83c3-00588f4cf74a","ios":"levelo://app?vid=ba2479bd-5a5a-46c2-83c3-00588f4cf74a"},"vehicle_type_id":"4","last_reported":1760735338,"current_range_meters":12000,"station_id":"","pricing_plan_id":"cebpf4jnsgd1na2vs0mg"},{"bike_id":"bfeaff65-9542-4384-a3f7-902ae9a4b803","system_id":"levelo_inurba_marseille","lat":43.26269,"lon":5.39676,"is_reserved":false,"is_disabled":false,"rental_uris":{"android":"levelo://app?vid=bfeaff65-9542-4384-a3f7-902ae9a4b803","ios":"levelo://app?vid=bfeaff65-9542-4384-a3f7-902ae9a4b803"},"vehicle_type_id":"4","last_reported":1760735338,"current_range_meters":12000,"station_id":"","pricing_plan_id":"cebpf4jnsgd1na2vs0mg"},{"bike_id":"48327ce6-67bf-4756-8ceb-fd8050b240fa","system_id":"levelo_inurba_marseille","lat":43.29261,"lon":5.38445,"is_reserved":false,"is_disabled":false,"rental_uris":{"android":"levelo://app?vid=48327ce6-67bf-4756-8ceb-fd8050b240fa","ios":"levelo://app?vid=48327ce6-67bf-4756-8ceb-fd8050b240fa"},"vehicle_type_id":"4","last_reported":1760735338,"current_range_meters":12000,"station_id":"ce4bh692rcd13ifvqea0","pricing_plan_id":"cebpf4jnsgd1na2vs0mg"},{"bike_id":"e0740bd5-c7be-4ef3-a863-7c83a09c464d","system_id":"levelo_inurba_marseille","lat":43.29987,"lon":5.38479,"is_reserved":false,"is_disabled":false,"rental_uris":{"android":"levelo://app?vid=e0740bd5-c7be-4ef3-a863-7c83a09c464d","ios":"levelo://app?vid=e0740bd5-c7be-4ef3-a863-7c83a09c464d"},"vehicle_type_id":"4","last_reported":1760735338,"current_range_meters":12000,"station_id":"ce4bgj92rcd13ifvqbd0","pricing_plan_id":"cebpf4jnsgd1na2vs0mg"},{"bike_id":"e6fc2e1e-3316-4938-a972-2b58c7c5445e","system_id":"levelo_inurba_marseille","lat":43.29284,"lon":5.38416,"is_reserved":false,"is_disabled":false,"rental_uris":{"android":"levelo://app?vid=e6fc2e1e-3316-4938-a972-2b58c7c5445e","ios":"levelo://app?vid=e6fc2e1e-3316-4938-a972-2b58c7c5445e"},"vehicle_type_id":"4","last_reported":1760735338,"current_range_meters":12000,"station_id":"ce4bh692rcd13ifvqea0","pricing_plan_id":"cebpf4jnsgd1na2vs0mg"},{"bike_id":"53e45f66-6c88-47d1-a739-fad578ecef73","system_id":"levelo_inurba_marseille","lat":43.23798,"lon":5.36611,"is_reserved":false,"is_disabled":false,"rental_uris":{"android":"levelo://app?vid=53e45f66-6c88-47d1-a739-fad578ecef73","ios":"levelo://app?vid=53e45f66-6c88-47d1-a739-fad578ecef73"},"vehicle_type_id":"4","last_reported":1760735338,"current_range_meters":12000,"station_id":"st_d3nk18o9ro0c73en2l3g","pricing_plan_id":"cebpf4jnsgd1na2vs0mg"},{"bike_id":"a618d75f-c056-4d7b-8ccd-3fcd16a7d304","system_id":"levelo_inurba_marseille","lat":43.34146,"lon":5.409077,"is_reserved":false,"is_disabled":false,"rental_uris":{"android":"levelo://app?vid=a618d75f-c056-4d7b-8ccd-3fcd16a7d304","ios":"levelo://app?vid=a618d75f-c056-4d7b-8ccd-3fcd16a7d304"},"vehicle_type_id":"4","last_reported":1760735338,"current_range_meters":12000,"station_id":"cki0cbj6b192h4jlfktg","pricing_plan_id":"cebpf4jnsgd1na2vs0mg"},{"bike_id":"6a04a226-b299-4f8c-991a-3de5687cd401","system_id":"levelo_inurba_marseille","lat":43.29361,"lon":5.408053,"is_reserved":false,"is_disabled":false,"rental_uris":{"android":"levelo://app?vid=6a04a226-b299-4f8c-991a-3de5687cd401","ios":"levelo://app?vid=6a04a226-b299-4f8c-991a-3de5687cd401"},"vehicle_type_id":"4","last_reported":1760735338,"current_range_meters":12400,"station_id":"ce4bh192rcd13ifvqdc0","pricing_plan_id":"cebpf4jnsgd1na2vs0mg"},{"bike_id":"1ea58d06-2bc8-43e6-9700-ceffc676d32c","system_id":"levelo_inurba_marseille","lat":43.21748,"lon":5.34599,"is_reserved":false,"is_disabled":true,"rental_uris":{"android":"levelo://app?vid=1ea58d06-2bc8-43e6-9700-ceffc676d32c","ios":"levelo://app?vid=1ea58d06-2bc8-43e6-9700-ceffc676d32c"},"vehicle_type_id":"4","last_reported":1760735338,"current_range_meters":12400,"station_id":"cpo36qri1sfpv3e86is0","pricing_plan_id":"cebpf4jnsgd1na2vs0mg"},{"bike_id":"a75d3bab-eae6-46c9-b1da-18975c090f98","system_id":"levelo_inurba_marseille","lat":43.2836,"lon":5.38115,"is_reserved":false,"is_disabled":false,"rental_uris":{"android":"levelo://app?vid=a75d3bab-eae6-46c9-b1da-18975c090f98","ios":"levelo://app?vid=a75d3bab-eae6-46c9-b1da-18975c090f98"},"vehicle_type_id":"4","last_reported":1760735338,"current_range_meters":12400,"station_id":"ce4bh412rcd13ifvqdr0","pricing_plan_id":"cebpf4jnsgd1na2vs0mg"},{"bike_id":"ec26b977-d22d-407f-95c8-b224aec67ea2","system_id":"levelo_inurba_marseille","lat":43.29537,"lon":5.38523,"is_reserved":false,"is_disabled":false,"rental_uris":{"android":"levelo://app?vid=ec26b977-d22d-407f-95c8-b224aec67ea2","ios":"levelo://app?vid=ec26b977-d22d-407f-95c8-b224aec67ea2"},"vehicle_type_id":"4","last_reported":1760735338,"current_range_meters":12400,"station_id":"ce4bgih2rcd13ifvqba0","pricing_plan_id":"cebpf4jnsgd1na2vs0mg"},{"bike_id":"ab8dbe06-49f3-423b-99b1-2274be7ed343","system_id":"levelo_inurba_marseille","lat":43.29699,"lon":5.366,"is_reserved":false,"is_disabled":true,"rental_uris":{"android":"levelo://app?vid=ab8dbe06-49f3-423b-99b1-2274be7ed343","ios":"levelo://app?vid=ab8dbe06-49f3-423b-99b1-2274be7ed343"},"vehicle_type_id":"4","last_reported":1760735338,"current_range_meters":12400,"station_id":"ce4bgn12rcd13ifvqbt0","pricing_plan_id":"cebpf4jnsgd1na2vs0mg"},{"bike_id":"565a254f-187c-496e-82ed-1b6c18ce600b","system_id":"levelo_inurba_marseille","lat":43.30303,"lon":5.39204,"is_reserved":false,"is_disabled":false,"rental_uris":{"android":"levelo://app?vid=565a254f-187c-496e-82ed-1b6c18ce600b","ios":"levelo://app?vid=565a254f-187c-496e-82ed-1b6c18ce600b"},"vehicle_type_id":"4","last_reported":1760735338,"current_range_meters":12400,"station_id":"ce4bgkh2rcd13ifvqbk0","pricing_plan_id":"cebpf4jnsgd1na2vs0mg"},{"bike_id":"4d85bc44-f700-4e39-ad61-7c1dc9f9acfc","system_id":"levelo_inurba_marseille","lat":43.2953,"lon":5.3903,"is_reserved":false,"is_disabled":false,"rental_uris":{"android":"levelo://app?vid=4d85bc44-f700-4e39-ad61-7c1dc9f9acfc","ios":"levelo://app?vid=4d85bc44-f700-4e39-ad61-7c1dc9f9acfc"},"vehicle_type_id":"4","last_reported":1760735338,"current_range_meters":12800,"station_id":"ce4bh3p2rcd13ifvqdp0","pricing_plan_id":"cebpf4jnsgd1na2vs0mg"},{"bike_id":"d85f20b3-dc36-4ae1-b220-17b2a71444df","system_id":"levelo_inurba_marseille","lat":43.30769,"lon":5.37659,"is_reserved":false,"is_disabled":false,"rental_uris":{"android":"levelo://app?vid=d85f20b3-dc36-4ae1-b220-17b2a71444df","ios":"levelo://app?vid=d85f20b3-dc36-4ae1-b220-17b2a71444df"},"vehicle_type_id":"4","last_reported":1760735338,"current_range_meters":12800,"station_id":"ce4bgv92rcd13ifvqcq0","pricing_plan_id":"cebpf4jnsgd1na2vs0mg"},{"bike_id":"c06e60f2-6a1d-4a69-a355-f26e80205718","system_id":"levelo_inurba_marseille","lat":43.27995,"lon":5.40005,"is_reserved":false,"is_disabled":false,"rental_uris":{"android":"levelo://app?vid=c06e60f2-6a1d-4a69-a355-f26e80205718","ios":"levelo://app?vid=c06e60f2-6a1d-4a69-a355-f26e80205718"},"vehicle_type_id":"4","last_reported":1760735338,"current_range_meters":12800,"station_id":"ce4bho92rcd13ifvqh4g","pricing_plan_id":"cebpf4jnsgd1na2vs0mg"},{"bike_id":"924ac669-be8b-47aa-9a8e-6f22baf815eb","system_id":"levelo_inurba_marseille","lat":43.337716,"lon":5.374759,"is_reserved":false,"is_disabled":false,"rental_uris":{"android":"levelo://app?vid=924ac669-be8b-47aa-9a8e-6f22baf815eb","ios":"levelo://app?vid=924ac669-be8b-47aa-9a8e-6f22baf815eb"},"vehicle_type_id":"4","last_reported":1760735338,"current_range_meters":13600,"station_id":"","pricing_plan_id":"cebpf4jnsgd1na2vs0mg"},{"bike_id":"3fc4983f-cca4-423d-a767-1e058f80285b","system_id":"levelo_inurba_marseille","lat":43.31762,"lon":5.39017,"is_reserved":false,"is_disabled":false,"rental_uris":{"android":"levelo://app?vid=3fc4983f-cca4-423d-a767-1e058f80285b","ios":"levelo://app?vid=3fc4983f-cca4-423d-a767-1e058f80285b"},"vehicle_type_id":"4","last_reported":1760735338,"current_range_meters":13600,"station_id":"ce4bhqp2rcd13ifvqhng","pricing_plan_id":"cebpf4jnsgd1na2vs0mg"},{"bike_id":"4c435c82-0bc4-4369-80cf-ae9046a83658","system_id":"levelo_inurba_marseille","lat":43.2417,"lon":5.36389,"is_reserved":false,"is_disabled":false,"rental_uris":{"android":"levelo://app?vid=4c435c82-0bc4-4369-80cf-ae9046a83658","ios":"levelo://app?vid=4c435c82-0bc4-4369-80cf-ae9046a83658"},"vehicle_type_id":"4","last_reported":1760735338,"current_range_meters":13600,"station_id":"cpo36qri1sfpv3e86is0","pricing_plan_id":"cebpf4jnsgd1na2vs0mg"},{"bike_id":"ad48bc71-6b20-46bf-a261-ca3f3e0ae61d","system_id":"levelo_inurba_marseille","lat":43.29529,"lon":5.39031,"is_reserved":false,"is_disabled":false,"rental_uris":{"android":"levelo://app?vid=ad48bc71-6b20-46bf-a261-ca3f3e0ae61d","ios":"levelo://app?vid=ad48bc71-6b20-46bf-a261-ca3f3e0ae61d"},"vehicle_type_id":"4","last_reported":1760735338,"current_range_meters":13600,"station_id":"ce4bh3p2rcd13ifvqdp0","pricing_plan_id":"cebpf4jnsgd1na2vs0mg"},{"bike_id":"3133d297-9fac-461b-b6eb-45b232032f0b","system_id":"levelo_inurba_marseille","lat":43.312284,"lon":5.396293,"is_reserved":false,"is_disabled":false,"rental_uris":{"android":"levelo://app?vid=3133d297-9fac-461b-b6eb-45b232032f0b","ios":"levelo://app?vid=3133d297-9fac-461b-b6eb-45b232032f0b"},"vehicle_type_id":"4","last_reported":1760735338,"current_range_meters":14000,"station_id":"ce4bgvp2rcd13ifvqcu0","pricing_plan_id":"cebpf4jnsgd1na2vs0mg"},{"bike_id":"119cba4e-fa35-4af9-a6a7-1c68b402b8c8","system_id":"levelo_inurba_marseille","lat":43.32655,"lon":5.409944,"is_reserved":false,"is_disabled":false,"rental_uris":{"android":"levelo://app?vid=119cba4e-fa35-4af9-a6a7-1c68b402b8c8","ios":"levelo://app?vid=119cba4e-fa35-4af9-a6a7-1c68b402b8c8"},"vehicle_type_id":"4","last_reported":1760735338,"current_range_meters":14000,"station_id":"ce4bhpp2rcd13ifvqhgg","pricing_plan_id":"cebpf4jnsgd1na2vs0mg"},{"bike_id":"a1328e73-0d5e-4d41-b9e6-12ac8514a499","system_id":"levelo_inurba_marseille","lat":43.27997,"lon":5.41672,"is_reserved":false,"is_disabled":false,"rental_uris":{"android":"levelo://app?vid=a1328e73-0d5e-4d41-b9e6-12ac8514a499","ios":"levelo://app?vid=a1328e73-0d5e-4d41-b9e6-12ac8514a499"},"vehicle_type_id":"4","last_reported":1760735338,"current_range_meters":14000,"station_id":"ce4bho12rcd13ifvqh1g","pricing_plan_id":"cebpf4jnsgd1na2vs0mg"},{"bike_id":"ba658672-2c7c-4db6-9c9a-1275bbab00b3","system_id":"levelo_inurba_marseille","lat":43.27924,"lon":5.38752,"is_reserved":false,"is_disabled":false,"rental_uris":{"android":"levelo://app?vid=ba658672-2c7c-4db6-9c9a-1275bbab00b3","ios":"levelo://app?vid=ba658672-2c7c-4db6-9c9a-1275bbab00b3"},"vehicle_type_id":"4","last_reported":1760735338,"current_range_meters":14000,"station_id":"","pricing_plan_id":"cebpf4jnsgd1na2vs0mg"},{"bike_id":"b070dc53-6de9-45ba-9e1f-a8ffc7fe9e03","system_id":"levelo_inurba_marseille","lat":43.28926,"lon":5.36623,"is_reserved":false,"is_disabled":false,"rental_uris":{"android":"levelo://app?vid=b070dc53-6de9-45ba-9e1f-a8ffc7fe9e03","ios":"levelo://app?vid=b070dc53-6de9-45ba-9e1f-a8ffc7fe9e03"},"vehicle_type_id":"4","last_reported":1760735338,"current_range_meters":14000,"station_id":"ce4bhap2rcd13ifvqek0","pricing_plan_id":"cebpf4jnsgd1na2vs0mg"},{"bike_id":"4b676340-84a1-434f-989d-aa20b878ac5e","system_id":"levelo_inurba_marseille","lat":43.26752,"lon":5.42946,"is_reserved":false,"is_disabled":false,"rental_uris":{"android":"levelo://app?vid=4b676340-84a1-434f-989d-aa20b878ac5e","ios":"levelo://app?vid=4b676340-84a1-434f-989d-aa20b878ac5e"},"vehicle_type_id":"4","last_reported":1760735338,"current_range_meters":14000,"station_id":"","pricing_plan_id":"cebpf4jnsgd1na2vs0mg"},{"bike_id":"bcd0c47c-d63e-4fec-9893-7a8ec76c9d39","system_id":"levelo_inurba_marseille","lat":43.29516,"lon":5.39397,"is_reserved":false,"is_disabled":false,"rental_uris":{"android":"levelo://app?vid=bcd0c47c-d63e-4fec-9893-7a8ec76c9d39","ios":"levelo://app?vid=bcd0c47c-d63e-4fec-9893-7a8ec76c9d39"},"vehicle_type_id":"4","last_reported":1760735338,"current_range_meters":14000,"station_id":"ce4bh292rcd13ifvqdf0","pricing_plan_id":"cebpf4jnsgd1na2vs0mg"},{"bike_id":"6794aced-3408-4bb4-a1bc-1d7715bc1c11","system_id":"levelo_inurba_marseille","lat":43.29271,"lon":5.38434,"is_reserved":false,"is_disabled":false,"rental_uris":{"android":"levelo://app?vid=6794aced-3408-4bb4-a1bc-1d7715bc1c11","ios":"levelo://app?vid=6794aced-3408-4bb4-a1bc-1d7715bc1c11"},"vehicle_type_id":"4","last_reported":1760735338,"current_range_meters":14000,"station_id":"ce4bh692rcd13ifvqea0","pricing_plan_id":"cebpf4jnsgd1na2vs0mg"},{"bike_id":"5d9e5707-e3c3-4931-b6e2-513a13cb42b6","system_id":"levelo_inurba_marseille","lat":43.24824,"lon":5.37428,"is_reserved":false,"is_disabled":false,"rental_uris":{"android":"levelo://app?vid=5d9e5707-e3c3-4931-b6e2-513a13cb42b6","ios":"levelo://app?vid=5d9e5707-e3c3-4931-b6e2-513a13cb42b6"},"vehicle_type_id":"4","last_reported":1760735338,"current_range_meters":14000,"station_id":"ce4bhgh2rcd13ifvqfb0","pricing_plan_id":"cebpf4jnsgd1na2vs0mg"},{"bike_id":"87f571da-1550-4bfd-b3db-47b5ce011d18","system_id":"levelo_inurba_marseille","lat":43.28666,"lon":5.38679,"is_reserved":false,"is_disabled":false,"rental_uris":{"android":"levelo://app?vid=87f571da-1550-4bfd-b3db-47b5ce011d18","ios":"levelo://app?vid=87f571da-1550-4bfd-b3db-47b5ce011d18"},"vehicle_type_id":"4","last_reported":1760735338,"current_range_meters":14000,"station_id":"ce4bh492rcd13ifvqdug","pricing_plan_id":"cebpf4jnsgd1na2vs0mg"},{"bike_id":"83766457-f22c-4838-8389-91439f35c0f8","system_id":"levelo_inurba_marseille","lat":43.311742,"lon":5.368141,"is_reserved":false,"is_disabled":false,"rental_uris":{"android":"levelo://app?vid=83766457-f22c-4838-8389-91439f35c0f8","ios":"levelo://app?vid=83766457-f22c-4838-8389-91439f35c0f8"},"vehicle_type_id":"4","last_reported":1760735338,"current_range_meters":14400,"station_id":"","pricing_plan_id":"cebpf4jnsgd1na2vs0mg"},{"bike_id":"b3edc609-7782-46af-831c-544f1d118f47","system_id":"levelo_inurba_marseille","lat":43.30804,"lon":5.43533,"is_reserved":false,"is_disabled":false,"rental_uris":{"android":"levelo://app?vid=b3edc609-7782-46af-831c-544f1d118f47","ios":"levelo://app?vid=b3edc609-7782-46af-831c-544f1d118f47"},"vehicle_type_id":"4","last_reported":1760735338,"current_range_meters":14400,"station_id":"ce4bhph2rcd13ifvqheg","pricing_plan_id":"cebpf4jnsgd1na2vs0mg"},{"bike_id":"69529aab-cd7d-4adf-b8cd-38d28cd23ece","system_id":"levelo_inurba_marseille","lat":43.278303,"lon":5.407059,"is_reserved":false,"is_disabled":false,"rental_uris":{"android":"levelo://app?vid=69529aab-cd7d-4adf-b8cd-38d28cd23ece","ios":"levelo://app?vid=69529aab-cd7d-4adf-b8cd-38d28cd23ece"},"vehicle_type_id":"4","last_reported":1760735338,"current_range_meters":14400,"station_id":"ce4bhnh2rcd13ifvqgtg","pricing_plan_id":"cebpf4jnsgd1na2vs0mg"},{"bike_id":"5ac40018-0ca3-4d87-8a35-61cacaf40107","system_id":"levelo_inurba_marseille","lat":43.28459,"lon":5.359,"is_reserved":false,"is_disabled":false,"rental_uris":{"android":"levelo://app?vid=5ac40018-0ca3-4d87-8a35-61cacaf40107","ios":"levelo://app?vid=5ac40018-0ca3-4d87-8a35-61cacaf40107"},"vehicle_type_id":"4","last_reported":1760735338,"current_range_meters":14400,"station_id":"ce4bhah2rcd13ifvqei0","pricing_plan_id":"cebpf4jnsgd1na2vs0mg"},{"bike_id":"fcb11c7b-40e0-4017-9bb4-378a06239864","system_id":"levelo_inurba_marseille","lat":43.29523,"lon":5.39027,"is_reserved":false,"is_disabled":false,"rental_uris":{"android":"levelo://app?vid=fcb11c7b-40e0-4017-9bb4-378a06239864","ios":"levelo://app?vid=fcb11c7b-40e0-4017-9bb4-378a06239864"},"vehicle_type_id":"4","last_reported":1760735338,"current_range_meters":14400,"station_id":"ce4bh3p2rcd13ifvqdp0","pricing_plan_id":"cebpf4jnsgd1na2vs0mg"},{"bike_id":"53aaa11e-04d0-4977-8b5f-54df51c17cd1","system_id":"levelo_inurba_marseille","lat":43.26548,"lon":5.40318,"is_reserved":false,"is_disabled":false,"rental_uris":{"android":"levelo://app?vid=53aaa11e-04d0-4977-8b5f-54df51c17cd1","ios":"levelo://app?vid=53aaa11e-04d0-4977-8b5f-54df51c17cd1"},"vehicle_type_id":"4","last_reported":1760735338,"current_range_meters":14400,"station_id":"ce4bhmp2rcd13ifvqgng","pricing_plan_id":"cebpf4jnsgd1na2vs0mg"},{"bike_id":"3b9cd492-9385-4432-b30e-64a7d4d7f313","system_id":"levelo_inurba_marseille","lat":43.28009,"lon":5.40002,"is_reserved":false,"is_disabled":false,"rental_uris":{"android":"levelo://app?vid=3b9cd492-9385-4432-b30e-64a7d4d7f313","ios":"levelo://app?vid=3b9cd492-9385-4432-b30e-64a7d4d7f313"},"vehicle_type_id":"4","last_reported":1760735338,"current_range_meters":14400,"station_id":"ce4bho92rcd13ifvqh4g","pricing_plan_id":"cebpf4jnsgd1na2vs0mg"},{"bike_id":"75096fdb-7132-4d31-9dc4-141bceea1894","system_id":"levelo_inurba_marseille","lat":43.28,"lon":5.41663,"is_reserved":false,"is_disabled":false,"rental_uris":{"android":"levelo://app?vid=75096fdb-7132-4d31-9dc4-141bceea1894","ios":"levelo://app?vid=75096fdb-7132-4d31-9dc4-141bceea1894"},"vehicle_type_id":"4","last_reported":1760735338,"current_range_meters":14400,"station_id":"ce4bho12rcd13ifvqh1g","pricing_plan_id":"cebpf4jnsgd1na2vs0mg"},{"bike_id":"8aa3ec83-557d-4118-b42f-7e9ff74932f2","system_id":"levelo_inurba_marseille","lat":43.2417,"lon":5.36395,"is_reserved":false,"is_disabled":false,"rental_uris":{"android":"levelo://app?vid=8aa3ec83-557d-4118-b42f-7e9ff74932f2","ios":"levelo://app?vid=8aa3ec83-557d-4118-b42f-7e9ff74932f2"},"vehicle_type_id":"4","last_reported":1760735338,"current_range_meters":14400,"station_id":"cpo36qri1sfpv3e86is0","pricing_plan_id":"cebpf4jnsgd1na2vs0mg"},{"bike_id":"75b02a51-1325-435e-9661-29bb451a696a","system_id":"levelo_inurba_marseille","lat":43.31448,"lon":5.38488,"is_reserved":false,"is_disabled":false,"rental_uris":{"android":"levelo://app?vid=75b02a51-1325-435e-9661-29bb451a696a","ios":"levelo://app?vid=75b02a51-1325-435e-9661-29bb451a696a"},"vehicle_type_id":"4","last_reported":1760735338,"current_range_meters":14400,"station_id":"","pricing_plan_id":"cebpf4jnsgd1na2vs0mg"},{"bike_id":"24144226-aec7-448f-999d-5e99aafc2acf","system_id":"levelo_inurba_marseille","lat":43.298221,"lon":5.387811,"is_reserved":false,"is_disabled":false,"rental_uris":{"android":"levelo://app?vid=24144226-aec7-448f-999d-5e99aafc2acf","ios":"levelo://app?vid=24144226-aec7-448f-999d-5e99aafc2acf"},"vehicle_type_id":"4","last_reported":1760735338,"current_range_meters":14400,"station_id":"ce4bh192rcd13ifvqdb0","pricing_plan_id":"cebpf4jnsgd1na2vs0mg"},{"bike_id":"d3dd0689-ce65-4c10-939c-012e48ab8d19","system_id":"levelo_inurba_marseille","lat":43.28349,"lon":5.38098,"is_reserved":false,"is_disabled":false,"rental_uris":{"android":"levelo://app?vid=d3dd0689-ce65-4c10-939c-012e48ab8d19","ios":"levelo://app?vid=d3dd0689-ce65-4c10-939c-012e48ab8d19"},"vehicle_type_id":"4","last_reported":1760735338,"current_range_meters":14400,"station_id":"ce4bh412rcd13ifvqdr0","pricing_plan_id":"cebpf4jnsgd1na2vs0mg"},{"bike_id":"0190f17d-7bed-4fc1-be22-c6bd783e3bc5","system_id":"levelo_inurba_marseille","lat":43.31997,"lon":5.38147,"is_reserved":false,"is_disabled":false,"rental_uris":{"android":"levelo://app?vid=0190f17d-7bed-4fc1-be22-c6bd783e3bc5","ios":"levelo://app?vid=0190f17d-7bed-4fc1-be22-c6bd783e3bc5"},"vehicle_type_id":"4","last_reported":1760735338,"current_range_meters":14800,"station_id":"ce4bhr12rcd13ifvqhpg","pricing_plan_id":"cebpf4jnsgd1na2vs0mg"},{"bike_id":"c386641d-a1e2-4563-ad85-c2e237fd8077","system_id":"levelo_inurba_marseille","lat":43.29252,"lon":5.38455,"is_reserved":false,"is_disabled":false,"rental_uris":{"android":"levelo://app?vid=c386641d-a1e2-4563-ad85-c2e237fd8077","ios":"levelo://app?vid=c386641d-a1e2-4563-ad85-c2e237fd8077"},"vehicle_type_id":"4","last_reported":1760735338,"current_range_meters":14800,"station_id":"ce4bh692rcd13ifvqea0","pricing_plan_id":"cebpf4jnsgd1na2vs0mg"},{"bike_id":"4b150ed4-2a96-4f05-bf50-dde36c31ec68","system_id":"levelo_inurba_marseille","lat":43.33946,"lon":5.406557,"is_reserved":false,"is_disabled":false,"rental_uris":{"android":"levelo://app?vid=4b150ed4-2a96-4f05-bf50-dde36c31ec68","ios":"levelo://app?vid=4b150ed4-2a96-4f05-bf50-dde36c31ec68"},"vehicle_type_id":"4","last_reported":1760735338,"current_range_meters":14800,"station_id":"","pricing_plan_id":"cebpf4jnsgd1na2vs0mg"},{"bike_id":"df2d3d6e-26dc-4145-b74c-60aa297416fb","system_id":"levelo_inurba_marseille","lat":43.27667,"lon":5.38909,"is_reserved":false,"is_disabled":true,"rental_uris":{"android":"levelo://app?vid=df2d3d6e-26dc-4145-b74c-60aa297416fb","ios":"levelo://app?vid=df2d3d6e-26dc-4145-b74c-60aa297416fb"},"vehicle_type_id":"4","last_reported":1760735338,"current_range_meters":14800,"station_id":"ce4bhi12rcd13ifvqfo0","pricing_plan_id":"cebpf4jnsgd1na2vs0mg"},{"bike_id":"9cadcbed-b3cf-44bf-abd2-ca3deda43712","system_id":"levelo_inurba_marseille","lat":43.28037,"lon":5.36961,"is_reserved":false,"is_disabled":false,"rental_uris":{"android":"levelo://app?vid=9cadcbed-b3cf-44bf-abd2-ca3deda43712","ios":"levelo://app?vid=9cadcbed-b3cf-44bf-abd2-ca3deda43712"},"vehicle_type_id":"4","last_reported":1760735338,"current_range_meters":14800,"station_id":"ce4bha12rcd13ifvqef0","pricing_plan_id":"cebpf4jnsgd1na2vs0mg"},{"bike_id":"0b2ae132-8bfa-4b68-8807-de76d233682b","system_id":"levelo_inurba_marseille","lat":43.29038,"lon":5.39959,"is_reserved":false,"is_disabled":false,"rental_uris":{"android":"levelo://app?vid=0b2ae132-8bfa-4b68-8807-de76d233682b","ios":"levelo://app?vid=0b2ae132-8bfa-4b68-8807-de76d233682b"},"vehicle_type_id":"4","last_reported":1760735338,"current_range_meters":14800,"station_id":"ce4bh392rcd13ifvqdm0","pricing_plan_id":"cebpf4jnsgd1na2vs0mg"},{"bike_id":"0b170382-a38a-48fc-b060-b901de311f1a","system_id":"levelo_inurba_marseille","lat":43.33047,"lon":5.39024,"is_reserved":false,"is_disabled":false,"rental_uris":{"android":"levelo://app?vid=0b170382-a38a-48fc-b060-b901de311f1a","ios":"levelo://app?vid=0b170382-a38a-48fc-b060-b901de311f1a"},"vehicle_type_id":"4","last_reported":1760735338,"current_range_meters":15200,"station_id":"ce4bhr92rcd13ifvqhrg","pricing_plan_id":"cebpf4jnsgd1na2vs0mg"},{"bike_id":"1b3d544d-cd4f-45a4-a697-bbe14a44ed4f","system_id":"levelo_inurba_marseille","lat":43.290287,"lon":5.386574,"is_reserved":false,"is_disabled":false,"rental_uris":{"android":"levelo://app?vid=1b3d544d-cd4f-45a4-a697-bbe14a44ed4f","ios":"levelo://app?vid=1b3d544d-cd4f-45a4-a697-bbe14a44ed4f"},"vehicle_type_id":"4","last_reported":1760735338,"current_range_meters":15200,"station_id":"ce4bh4p2rcd13ifvqe0g","pricing_plan_id":"cebpf4jnsgd1na2vs0mg"},{"bike_id":"95df8dd3-5762-4a85-aabc-48ebea1b878c","system_id":"levelo_inurba_marseille","lat":43.29625,"lon":5.38085,"is_reserved":false,"is_disabled":false,"rental_uris":{"android":"levelo://app?vid=95df8dd3-5762-4a85-aabc-48ebea1b878c","ios":"levelo://app?vid=95df8dd3-5762-4a85-aabc-48ebea1b878c"},"vehicle_type_id":"4","last_reported":1760735338,"current_range_meters":15200,"station_id":"ce4bgl12rcd13ifvqbo0","pricing_plan_id":"cebpf4jnsgd1na2vs0mg"},{"bike_id":"9743f61a-89be-4bac-afd3-9e096b7fe719","system_id":"levelo_inurba_marseille","lat":43.294346,"lon":5.397533,"is_reserved":false,"is_disabled":false,"rental_uris":{"android":"levelo://app?vid=9743f61a-89be-4bac-afd3-9e096b7fe719","ios":"levelo://app?vid=9743f61a-89be-4bac-afd3-9e096b7fe719"},"vehicle_type_id":"4","last_reported":1760735338,"current_range_meters":15200,"station_id":"ce4bh3h2rcd13ifvqdo0","pricing_plan_id":"cebpf4jnsgd1na2vs0mg"},{"bike_id":"7ea188e5-2767-4734-bb78-c8421fef3d7a","system_id":"levelo_inurba_marseille","lat":43.29974,"lon":5.371915,"is_reserved":false,"is_disabled":false,"rental_uris":{"android":"levelo://app?vid=7ea188e5-2767-4734-bb78-c8421fef3d7a","ios":"levelo://app?vid=7ea188e5-2767-4734-bb78-c8421fef3d7a"},"vehicle_type_id":"4","last_reported":1760735338,"current_range_meters":15200,"station_id":"ce4bgr92rcd13ifvqc7g","pricing_plan_id":"cebpf4jnsgd1na2vs0mg"},{"bike_id":"931d8666-f428-4995-aff8-622d46a7371b","system_id":"levelo_inurba_marseille","lat":43.24171,"lon":5.3638,"is_reserved":false,"is_disabled":false,"rental_uris":{"android":"levelo://app?vid=931d8666-f428-4995-aff8-622d46a7371b","ios":"levelo://app?vid=931d8666-f428-4995-aff8-622d46a7371b"},"vehicle_type_id":"4","last_reported":1760735338,"current_range_meters":15200,"station_id":"cpo36qri1sfpv3e86is0","pricing_plan_id":"cebpf4jnsgd1na2vs0mg"},{"bike_id":"e082eb77-dff0-4841-8bc1-1b3492c0d507","system_id":"levelo_inurba_marseille","lat":43.27992,"lon":5.41672,"is_reserved":false,"is_disabled":false,"rental_uris":{"android":"levelo://app?vid=e082eb77-dff0-4841-8bc1-1b3492c0d507","ios":"levelo://app?vid=e082eb77-dff0-4841-8bc1-1b3492c0d507"},"vehicle_type_id":"4","last_reported":1760735338,"current_range_meters":15200,"station_id":"ce4bho12rcd13ifvqh1g","pricing_plan_id":"cebpf4jnsgd1na2vs0mg"},{"bike_id":"c33f97a9-0ab3-4619-86a9-592cd9477db8","system_id":"levelo_inurba_marseille","lat":43.26685,"lon":5.38271,"is_reserved":false,"is_disabled":true,"rental_uris":{"android":"levelo://app?vid=c33f97a9-0ab3-4619-86a9-592cd9477db8","ios":"levelo://app?vid=c33f97a9-0ab3-4619-86a9-592cd9477db8"},"vehicle_type_id":"4","last_reported":1760735338,"current_range_meters":15200,"station_id":"ce4bhg92rcd13ifvqf90","pricing_plan_id":"cebpf4jnsgd1na2vs0mg"},{"bike_id":"d21353f9-39a9-4792-ab22-ad6a7f764db4","system_id":"levelo_inurba_marseille","lat":43.2928,"lon":5.38428,"is_reserved":false,"is_disabled":false,"rental_uris":{"android":"levelo://app?vid=d21353f9-39a9-4792-ab22-ad6a7f764db4","ios":"levelo://app?vid=d21353f9-39a9-4792-ab22-ad6a7f764db4"},"vehicle_type_id":"4","last_reported":1760735338,"current_range_meters":15200,"station_id":"ce4bh692rcd13ifvqea0","pricing_plan_id":"cebpf4jnsgd1na2vs0mg"},{"bike_id":"edcb744a-1021-4493-86cd-94aad7a8dbc8","system_id":"levelo_inurba_marseille","lat":43.30542,"lon":5.37453,"is_reserved":false,"is_disabled":false,"rental_uris":{"android":"levelo://app?vid=edcb744a-1021-4493-86cd-94aad7a8dbc8","ios":"levelo://app?vid=edcb744a-1021-4493-86cd-94aad7a8dbc8"},"vehicle_type_id":"4","last_reported":1760735338,"current_range_meters":15200,"station_id":"","pricing_plan_id":"cebpf4jnsgd1na2vs0mg"},{"bike_id":"6f27ed7d-73e6-4413-b43f-2b83d8364c0d","system_id":"levelo_inurba_marseille","lat":43.29276,"lon":5.38439,"is_reserved":false,"is_disabled":false,"rental_uris":{"android":"levelo://app?vid=6f27ed7d-73e6-4413-b43f-2b83d8364c0d","ios":"levelo://app?vid=6f27ed7d-73e6-4413-b43f-2b83d8364c0d"},"vehicle_type_id":"4","last_reported":1760735338,"current_range_meters":15200,"station_id":"ce4bh692rcd13ifvqea0","pricing_plan_id":"cebpf4jnsgd1na2vs0mg"},{"bike_id":"b3de5f35-da94-4965-b940-8cd14144ea0b","system_id":"levelo_inurba_marseille","lat":43.28546,"lon":5.44079,"is_reserved":false,"is_disabled":false,"rental_uris":{"android":"levelo://app?vid=b3de5f35-da94-4965-b940-8cd14144ea0b","ios":"levelo://app?vid=b3de5f35-da94-4965-b940-8cd14144ea0b"},"vehicle_type_id":"4","last_reported":1760735338,"current_range_meters":15200,"station_id":"st_d3j3df2ikq2c7380ej80","pricing_plan_id":"cebpf4jnsgd1na2vs0mg"},{"bike_id":"4702d9d2-8b80-4474-a658-ff37921cb742","system_id":"levelo_inurba_marseille","lat":43.29169,"lon":5.38817,"is_reserved":false,"is_disabled":false,"rental_uris":{"android":"levelo://app?vid=4702d9d2-8b80-4474-a658-ff37921cb742","ios":"levelo://app?vid=4702d9d2-8b80-4474-a658-ff37921cb742"},"vehicle_type_id":"4","last_reported":1760735338,"current_range_meters":15200,"station_id":"","pricing_plan_id":"cebpf4jnsgd1na2vs0mg"},{"bike_id":"97e4c7d5-16c4-46cb-a802-8e57bf6edfec","system_id":"levelo_inurba_marseille","lat":43.23023,"lon":5.43889,"is_reserved":false,"is_disabled":false,"rental_uris":{"android":"levelo://app?vid=97e4c7d5-16c4-46cb-a802-8e57bf6edfec","ios":"levelo://app?vid=97e4c7d5-16c4-46cb-a802-8e57bf6edfec"},"vehicle_type_id":"4","last_reported":1760735338,"current_range_meters":15200,"station_id":"","pricing_plan_id":"cebpf4jnsgd1na2vs0mg"},{"bike_id":"38383ba5-79d9-4179-8273-dc0f21e200c6","system_id":"levelo_inurba_marseille","lat":43.2928,"lon":5.38426,"is_reserved":false,"is_disabled":false,"rental_uris":{"android":"levelo://app?vid=38383ba5-79d9-4179-8273-dc0f21e200c6","ios":"levelo://app?vid=38383ba5-79d9-4179-8273-dc0f21e200c6"},"vehicle_type_id":"4","last_reported":1760735338,"current_range_meters":15200,"station_id":"ce4bh692rcd13ifvqea0","pricing_plan_id":"cebpf4jnsgd1na2vs0mg"},{"bike_id":"a379dfa0-d4a8-47be-876f-78e8582996a3","system_id":"levelo_inurba_marseille","lat":43.30604,"lon":5.37205,"is_reserved":false,"is_disabled":false,"rental_uris":{"android":"levelo://app?vid=a379dfa0-d4a8-47be-876f-78e8582996a3","ios":"levelo://app?vid=a379dfa0-d4a8-47be-876f-78e8582996a3"},"vehicle_type_id":"4","last_reported":1760735338,"current_range_meters":16000,"station_id":"ce4bgqh2rcd13ifvqc4g","pricing_plan_id":"cebpf4jnsgd1na2vs0mg"},{"bike_id":"5e60d4c6-6937-4dc2-ae49-1e72dbfe6e52","system_id":"levelo_inurba_marseille","lat":43.31361,"lon":5.38488,"is_reserved":false,"is_disabled":false,"rental_uris":{"android":"levelo://app?vid=5e60d4c6-6937-4dc2-ae49-1e72dbfe6e52","ios":"levelo://app?vid=5e60d4c6-6937-4dc2-ae49-1e72dbfe6e52"},"vehicle_type_id":"4","last_reported":1760735338,"current_range_meters":16000,"station_id":"ce4bgt92rcd13ifvqcf0","pricing_plan_id":"cebpf4jnsgd1na2vs0mg"},{"bike_id":"eee87ccd-dba8-4a2d-8933-e73f0b2ed455","system_id":"levelo_inurba_marseille","lat":43.28926,"lon":5.38399,"is_reserved":false,"is_disabled":false,"rental_uris":{"android":"levelo://app?vid=eee87ccd-dba8-4a2d-8933-e73f0b2ed455","ios":"levelo://app?vid=eee87ccd-dba8-4a2d-8933-e73f0b2ed455"},"vehicle_type_id":"4","last_reported":1760735338,"current_range_meters":16000,"station_id":"ce4bh612rcd13ifvqe6g","pricing_plan_id":"cebpf4jnsgd1na2vs0mg"},{"bike_id":"4128fbca-1a08-4f01-b82c-c22d73118cf8","system_id":"levelo_inurba_marseille","lat":43.28921,"lon":5.38406,"is_reserved":false,"is_disabled":false,"rental_uris":{"android":"levelo://app?vid=4128fbca-1a08-4f01-b82c-c22d73118cf8","ios":"levelo://app?vid=4128fbca-1a08-4f01-b82c-c22d73118cf8"},"vehicle_type_id":"4","last_reported":1760735338,"current_range_meters":16000,"station_id":"ce4bh612rcd13ifvqe6g","pricing_plan_id":"cebpf4jnsgd1na2vs0mg"},{"bike_id":"1d4b6109-0a93-41a9-b70b-514a233df11a","system_id":"levelo_inurba_marseille","lat":43.291872,"lon":5.35815,"is_reserved":false,"is_disabled":false,"rental_uris":{"android":"levelo://app?vid=1d4b6109-0a93-41a9-b70b-514a233df11a","ios":"levelo://app?vid=1d4b6109-0a93-41a9-b70b-514a233df11a"},"vehicle_type_id":"4","last_reported":1760735338,"current_range_meters":16000,"station_id":"","pricing_plan_id":"cebpf4jnsgd1na2vs0mg"},{"bike_id":"8c30526d-4d62-49e0-92a1-2ed039e24496","system_id":"levelo_inurba_marseille","lat":43.28706,"lon":5.38418,"is_reserved":false,"is_disabled":false,"rental_uris":{"android":"levelo://app?vid=8c30526d-4d62-49e0-92a1-2ed039e24496","ios":"levelo://app?vid=8c30526d-4d62-49e0-92a1-2ed039e24496"},"vehicle_type_id":"4","last_reported":1760735338,"current_range_meters":16000,"station_id":"","pricing_plan_id":"cebpf4jnsgd1na2vs0mg"},{"bike_id":"4b08cfe7-5df1-4e29-905e-03a9992f8dfa","system_id":"levelo_inurba_marseille","lat":43.337674,"lon":5.374212,"is_reserved":false,"is_disabled":false,"rental_uris":{"android":"levelo://app?vid=4b08cfe7-5df1-4e29-905e-03a9992f8dfa","ios":"levelo://app?vid=4b08cfe7-5df1-4e29-905e-03a9992f8dfa"},"vehicle_type_id":"4","last_reported":1760735338,"current_range_meters":16000,"station_id":"","pricing_plan_id":"cebpf4jnsgd1na2vs0mg"},{"bike_id":"13602366-f220-4faa-adc2-56e0b4a84c9c","system_id":"levelo_inurba_marseille","lat":43.2991,"lon":5.43656,"is_reserved":false,"is_disabled":true,"rental_uris":{"android":"levelo://app?vid=13602366-f220-4faa-adc2-56e0b4a84c9c","ios":"levelo://app?vid=13602366-f220-4faa-adc2-56e0b4a84c9c"},"vehicle_type_id":"4","last_reported":1760735338,"current_range_meters":16000,"station_id":"ce4bhpp2rcd13ifvqhfg","pricing_plan_id":"cebpf4jnsgd1na2vs0mg"},{"bike_id":"c0c1a64d-1b65-4e70-9e95-16dc3a03c6a0","system_id":"levelo_inurba_marseille","lat":43.30423,"lon":5.41273,"is_reserved":false,"is_disabled":false,"rental_uris":{"android":"levelo://app?vid=c0c1a64d-1b65-4e70-9e95-16dc3a03c6a0","ios":"levelo://app?vid=c0c1a64d-1b65-4e70-9e95-16dc3a03c6a0"},"vehicle_type_id":"4","last_reported":1760735338,"current_range_meters":16000,"station_id":"ce4bhop2rcd13ifvqh8g","pricing_plan_id":"cebpf4jnsgd1na2vs0mg"},{"bike_id":"9640e288-d1d4-48b3-8f8c-c40c2b101231","system_id":"levelo_inurba_marseille","lat":43.30148,"lon":5.38078,"is_reserved":false,"is_disabled":false,"rental_uris":{"android":"levelo://app?vid=9640e288-d1d4-48b3-8f8c-c40c2b101231","ios":"levelo://app?vid=9640e288-d1d4-48b3-8f8c-c40c2b101231"},"vehicle_type_id":"4","last_reported":1760735338,"current_range_meters":16000,"station_id":"ce4bgjp2rcd13ifvqbh0","pricing_plan_id":"cebpf4jnsgd1na2vs0mg"},{"bike_id":"59df906b-bfbe-4766-b95e-c159bbfc7d8e","system_id":"levelo_inurba_marseille","lat":43.30192,"lon":5.36611,"is_reserved":false,"is_disabled":false,"rental_uris":{"android":"levelo://app?vid=59df906b-bfbe-4766-b95e-c159bbfc7d8e","ios":"levelo://app?vid=59df906b-bfbe-4766-b95e-c159bbfc7d8e"},"vehicle_type_id":"4","last_reported":1760735338,"current_range_meters":16000,"station_id":"ce4bgrh2rcd13ifvqc8g","pricing_plan_id":"cebpf4jnsgd1na2vs0mg"},{"bike_id":"df699e50-5c68-4319-992b-691d0e6ecb01","system_id":"levelo_inurba_marseille","lat":43.27992,"lon":5.41637,"is_reserved":false,"is_disabled":false,"rental_uris":{"android":"levelo://app?vid=df699e50-5c68-4319-992b-691d0e6ecb01","ios":"levelo://app?vid=df699e50-5c68-4319-992b-691d0e6ecb01"},"vehicle_type_id":"4","last_reported":1760735338,"current_range_meters":16000,"station_id":"ce4bho12rcd13ifvqh1g","pricing_plan_id":"cebpf4jnsgd1na2vs0mg"},{"bike_id":"0a414463-fe1a-4833-8a11-178a3c2c879a","system_id":"levelo_inurba_marseille","lat":43.29852,"lon":5.37897,"is_reserved":false,"is_disabled":false,"rental_uris":{"android":"levelo://app?vid=0a414463-fe1a-4833-8a11-178a3c2c879a","ios":"levelo://app?vid=0a414463-fe1a-4833-8a11-178a3c2c879a"},"vehicle_type_id":"4","last_reported":1760735338,"current_range_meters":16400,"station_id":"","pricing_plan_id":"cebpf4jnsgd1na2vs0mg"},{"bike_id":"7e98c73c-0daf-470c-8187-471fc9a15ebd","system_id":"levelo_inurba_marseille","lat":43.24167,"lon":5.36381,"is_reserved":false,"is_disabled":false,"rental_uris":{"android":"levelo://app?vid=7e98c73c-0daf-470c-8187-471fc9a15ebd","ios":"levelo://app?vid=7e98c73c-0daf-470c-8187-471fc9a15ebd"},"vehicle_type_id":"4","last_reported":1760735338,"current_range_meters":16400,"station_id":"cpo36qri1sfpv3e86is0","pricing_plan_id":"cebpf4jnsgd1na2vs0mg"},{"bike_id":"f90bb0c2-7cde-4e82-b346-99a0da152945","system_id":"levelo_inurba_marseille","lat":43.29442,"lon":5.39743,"is_reserved":false,"is_disabled":false,"rental_uris":{"android":"levelo://app?vid=f90bb0c2-7cde-4e82-b346-99a0da152945","ios":"levelo://app?vid=f90bb0c2-7cde-4e82-b346-99a0da152945"},"vehicle_type_id":"4","last_reported":1760735338,"current_range_meters":16400,"station_id":"ce4bh3h2rcd13ifvqdo0","pricing_plan_id":"cebpf4jnsgd1na2vs0mg"},{"bike_id":"3167035f-52b6-4f40-b16a-74665807022e","system_id":"levelo_inurba_marseille","lat":43.29264,"lon":5.38448,"is_reserved":false,"is_disabled":false,"rental_uris":{"android":"levelo://app?vid=3167035f-52b6-4f40-b16a-74665807022e","ios":"levelo://app?vid=3167035f-52b6-4f40-b16a-74665807022e"},"vehicle_type_id":"4","last_reported":1760735338,"current_range_meters":16400,"station_id":"ce4bh692rcd13ifvqea0","pricing_plan_id":"cebpf4jnsgd1na2vs0mg"},{"bike_id":"d6b629e1-2684-4ec1-95b7-6d5d5a4b0803","system_id":"levelo_inurba_marseille","lat":43.24546,"lon":5.39522,"is_reserved":false,"is_disabled":false,"rental_uris":{"android":"levelo://app?vid=d6b629e1-2684-4ec1-95b7-6d5d5a4b0803","ios":"levelo://app?vid=d6b629e1-2684-4ec1-95b7-6d5d5a4b0803"},"vehicle_type_id":"4","last_reported":1760735338,"current_range_meters":16400,"station_id":"ce4bhlp2rcd13ifvqgjg","pricing_plan_id":"cebpf4jnsgd1na2vs0mg"},{"bike_id":"fcf0dc62-cbb8-4c37-a9c5-5969f6c258d5","system_id":"levelo_inurba_marseille","lat":43.29274,"lon":5.38435,"is_reserved":false,"is_disabled":false,"rental_uris":{"android":"levelo://app?vid=fcf0dc62-cbb8-4c37-a9c5-5969f6c258d5","ios":"levelo://app?vid=fcf0dc62-cbb8-4c37-a9c5-5969f6c258d5"},"vehicle_type_id":"4","last_reported":1760735338,"current_range_meters":16800,"station_id":"ce4bh692rcd13ifvqea0","pricing_plan_id":"cebpf4jnsgd1na2vs0mg"},{"bike_id":"fb53d8b0-da2f-4170-8723-cf10f8f980d5","system_id":"levelo_inurba_marseille","lat":43.29265,"lon":5.38436,"is_reserved":false,"is_disabled":false,"rental_uris":{"android":"levelo://app?vid=fb53d8b0-da2f-4170-8723-cf10f8f980d5","ios":"levelo://app?vid=fb53d8b0-da2f-4170-8723-cf10f8f980d5"},"vehicle_type_id":"4","last_reported":1760735338,"current_range_meters":16800,"station_id":"ce4bh692rcd13ifvqea0","pricing_plan_id":"cebpf4jnsgd1na2vs0mg"},{"bike_id":"f32908c4-0e99-4345-a617-9b21d353ba3a","system_id":"levelo_inurba_marseille","lat":43.31205,"lon":5.36862,"is_reserved":false,"is_disabled":false,"rental_uris":{"android":"levelo://app?vid=f32908c4-0e99-4345-a617-9b21d353ba3a","ios":"levelo://app?vid=f32908c4-0e99-4345-a617-9b21d353ba3a"},"vehicle_type_id":"4","last_reported":1760735338,"current_range_meters":16800,"station_id":"ce4bgl92rcd13ifvqbq0","pricing_plan_id":"cebpf4jnsgd1na2vs0mg"},{"bike_id":"c3e9b645-7231-48e1-b4f3-bbfc6b411c34","system_id":"levelo_inurba_marseille","lat":43.29029,"lon":5.38663,"is_reserved":false,"is_disabled":false,"rental_uris":{"android":"levelo://app?vid=c3e9b645-7231-48e1-b4f3-bbfc6b411c34","ios":"levelo://app?vid=c3e9b645-7231-48e1-b4f3-bbfc6b411c34"},"vehicle_type_id":"4","last_reported":1760735338,"current_range_meters":16800,"station_id":"ce4bh4p2rcd13ifvqe0g","pricing_plan_id":"cebpf4jnsgd1na2vs0mg"},{"bike_id":"0be93fcb-396b-4f52-b498-8f7029181a63","system_id":"levelo_inurba_marseille","lat":43.24054,"lon":5.40706,"is_reserved":false,"is_disabled":false,"rental_uris":{"android":"levelo://app?vid=0be93fcb-396b-4f52-b498-8f7029181a63","ios":"levelo://app?vid=0be93fcb-396b-4f52-b498-8f7029181a63"},"vehicle_type_id":"4","last_reported":1760735338,"current_range_meters":16800,"station_id":"","pricing_plan_id":"cebpf4jnsgd1na2vs0mg"},{"bike_id":"d86174e1-6b72-4c4f-9ae3-3617b808b3c1","system_id":"levelo_inurba_marseille","lat":43.25723,"lon":5.41106,"is_reserved":false,"is_disabled":false,"rental_uris":{"android":"levelo://app?vid=d86174e1-6b72-4c4f-9ae3-3617b808b3c1","ios":"levelo://app?vid=d86174e1-6b72-4c4f-9ae3-3617b808b3c1"},"vehicle_type_id":"4","last_reported":1760735338,"current_range_meters":16800,"station_id":"ce4bhkp2rcd13ifvqgd0","pricing_plan_id":"cebpf4jnsgd1na2vs0mg"},{"bike_id":"594bf9e2-ac63-4989-bdb8-d9e3dbc67546","system_id":"levelo_inurba_marseille","lat":43.29607,"lon":5.38104,"is_reserved":false,"is_disabled":false,"rental_uris":{"android":"levelo://app?vid=594bf9e2-ac63-4989-bdb8-d9e3dbc67546","ios":"levelo://app?vid=594bf9e2-ac63-4989-bdb8-d9e3dbc67546"},"vehicle_type_id":"4","last_reported":1760735338,"current_range_meters":16800,"station_id":"ce4bgl12rcd13ifvqbo0","pricing_plan_id":"cebpf4jnsgd1na2vs0mg"},{"bike_id":"6f274092-c836-4709-8bf1-a7cdbeb6f733","system_id":"levelo_inurba_marseille","lat":43.33765,"lon":5.37482,"is_reserved":false,"is_disabled":false,"rental_uris":{"android":"levelo://app?vid=6f274092-c836-4709-8bf1-a7cdbeb6f733","ios":"levelo://app?vid=6f274092-c836-4709-8bf1-a7cdbeb6f733"},"vehicle_type_id":"4","last_reported":1760735338,"current_range_meters":16800,"station_id":"","pricing_plan_id":"cebpf4jnsgd1na2vs0mg"},{"bike_id":"b35843bb-8826-4f0d-a706-15255e94599e","system_id":"levelo_inurba_marseille","lat":43.27941,"lon":5.40384,"is_reserved":false,"is_disabled":false,"rental_uris":{"android":"levelo://app?vid=b35843bb-8826-4f0d-a706-15255e94599e","ios":"levelo://app?vid=b35843bb-8826-4f0d-a706-15255e94599e"},"vehicle_type_id":"4","last_reported":1760735338,"current_range_meters":16800,"station_id":"","pricing_plan_id":"cebpf4jnsgd1na2vs0mg"},{"bike_id":"bf1d6413-a130-43ab-b21d-2120489602a9","system_id":"levelo_inurba_marseille","lat":43.23176,"lon":5.39989,"is_reserved":false,"is_disabled":false,"rental_uris":{"android":"levelo://app?vid=bf1d6413-a130-43ab-b21d-2120489602a9","ios":"levelo://app?vid=bf1d6413-a130-43ab-b21d-2120489602a9"},"vehicle_type_id":"4","last_reported":1760735338,"current_range_meters":16800,"station_id":"ce4bhn12rcd13ifvqgqg","pricing_plan_id":"cebpf4jnsgd1na2vs0mg"},{"bike_id":"74e3e01c-66c4-481d-b08c-6c10af99936d","system_id":"levelo_inurba_marseille","lat":43.3421,"lon":5.40112,"is_reserved":false,"is_disabled":false,"rental_uris":{"android":"levelo://app?vid=74e3e01c-66c4-481d-b08c-6c10af99936d","ios":"levelo://app?vid=74e3e01c-66c4-481d-b08c-6c10af99936d"},"vehicle_type_id":"4","last_reported":1760735338,"current_range_meters":16800,"station_id":"","pricing_plan_id":"cebpf4jnsgd1na2vs0mg"},{"bike_id":"bb7af0a7-317a-4ac5-8ad5-6b16e3c78325","system_id":"levelo_inurba_marseille","lat":43.2743,"lon":5.39416,"is_reserved":false,"is_disabled":false,"rental_uris":{"android":"levelo://app?vid=bb7af0a7-317a-4ac5-8ad5-6b16e3c78325","ios":"levelo://app?vid=bb7af0a7-317a-4ac5-8ad5-6b16e3c78325"},"vehicle_type_id":"4","last_reported":1760735338,"current_range_meters":16800,"station_id":"ce4bhdp2rcd13ifvqf20","pricing_plan_id":"cebpf4jnsgd1na2vs0mg"},{"bike_id":"f79ca0da-b2b5-4f7c-aa77-e7fc02834c8b","system_id":"levelo_inurba_marseille","lat":43.32104,"lon":5.36775,"is_reserved":false,"is_disabled":false,"rental_uris":{"android":"levelo://app?vid=f79ca0da-b2b5-4f7c-aa77-e7fc02834c8b","ios":"levelo://app?vid=f79ca0da-b2b5-4f7c-aa77-e7fc02834c8b"},"vehicle_type_id":"4","last_reported":1760735338,"current_range_meters":16800,"station_id":"ce4bhrh2rcd13ifvqhug","pricing_plan_id":"cebpf4jnsgd1na2vs0mg"},{"bike_id":"94b31ce3-4d4b-4973-b874-bb1982aad693","system_id":"levelo_inurba_marseille","lat":43.29022,"lon":5.38626,"is_reserved":false,"is_disabled":false,"rental_uris":{"android":"levelo://app?vid=94b31ce3-4d4b-4973-b874-bb1982aad693","ios":"levelo://app?vid=94b31ce3-4d4b-4973-b874-bb1982aad693"},"vehicle_type_id":"4","last_reported":1760735338,"current_range_meters":17200,"station_id":"ce4bh4p2rcd13ifvqe0g","pricing_plan_id":"cebpf4jnsgd1na2vs0mg"},{"bike_id":"da443b2f-264b-4d99-89ea-5228fb70a1f9","system_id":"levelo_inurba_marseille","lat":43.29511,"lon":5.39401,"is_reserved":false,"is_disabled":true,"rental_uris":{"android":"levelo://app?vid=da443b2f-264b-4d99-89ea-5228fb70a1f9","ios":"levelo://app?vid=da443b2f-264b-4d99-89ea-5228fb70a1f9"},"vehicle_type_id":"4","last_reported":1760735338,"current_range_meters":17200,"station_id":"ce4bh292rcd13ifvqdf0","pricing_plan_id":"cebpf4jnsgd1na2vs0mg"},{"bike_id":"efa47ef6-2761-487f-acfa-0c8579b592a0","system_id":"levelo_inurba_marseille","lat":43.29453,"lon":5.39739,"is_reserved":false,"is_disabled":false,"rental_uris":{"android":"levelo://app?vid=efa47ef6-2761-487f-acfa-0c8579b592a0","ios":"levelo://app?vid=efa47ef6-2761-487f-acfa-0c8579b592a0"},"vehicle_type_id":"4","last_reported":1760735338,"current_range_meters":17200,"station_id":"ce4bh3h2rcd13ifvqdo0","pricing_plan_id":"cebpf4jnsgd1na2vs0mg"},{"bike_id":"69bc6503-7fbe-4ee5-bdcf-422d2fbb7f8d","system_id":"levelo_inurba_marseille","lat":43.30886,"lon":5.37191,"is_reserved":false,"is_disabled":false,"rental_uris":{"android":"levelo://app?vid=69bc6503-7fbe-4ee5-bdcf-422d2fbb7f8d","ios":"levelo://app?vid=69bc6503-7fbe-4ee5-bdcf-422d2fbb7f8d"},"vehicle_type_id":"4","last_reported":1760735338,"current_range_meters":17200,"station_id":"ce4bguh2rcd13ifvqckg","pricing_plan_id":"cebpf4jnsgd1na2vs0mg"},{"bike_id":"e9b42dd2-63ad-4090-b4e1-d0798255957c","system_id":"levelo_inurba_marseille","lat":43.2395,"lon":5.366274,"is_reserved":false,"is_disabled":false,"rental_uris":{"android":"levelo://app?vid=e9b42dd2-63ad-4090-b4e1-d0798255957c","ios":"levelo://app?vid=e9b42dd2-63ad-4090-b4e1-d0798255957c"},"vehicle_type_id":"4","last_reported":1760735338,"current_range_meters":17200,"station_id":"ce4bhi12rcd13ifvqfp0","pricing_plan_id":"cebpf4jnsgd1na2vs0mg"},{"bike_id":"b5384ef3-f722-490e-a099-66d8c4d1cd6b","system_id":"levelo_inurba_marseille","lat":43.28549,"lon":5.44085,"is_reserved":false,"is_disabled":false,"rental_uris":{"android":"levelo://app?vid=b5384ef3-f722-490e-a099-66d8c4d1cd6b","ios":"levelo://app?vid=b5384ef3-f722-490e-a099-66d8c4d1cd6b"},"vehicle_type_id":"4","last_reported":1760735338,"current_range_meters":17200,"station_id":"st_d3j3df2ikq2c7380ej80","pricing_plan_id":"cebpf4jnsgd1na2vs0mg"},{"bike_id":"3b569fdc-60fd-457c-8ebd-5f08a125e901","system_id":"levelo_inurba_marseille","lat":43.29269,"lon":5.38433,"is_reserved":false,"is_disabled":false,"rental_uris":{"android":"levelo://app?vid=3b569fdc-60fd-457c-8ebd-5f08a125e901","ios":"levelo://app?vid=3b569fdc-60fd-457c-8ebd-5f08a125e901"},"vehicle_type_id":"4","last_reported":1760735338,"current_range_meters":17200,"station_id":"ce4bh692rcd13ifvqea0","pricing_plan_id":"cebpf4jnsgd1na2vs0mg"},{"bike_id":"97701e11-e594-4a29-8c3f-8a1ed84e46c8","system_id":"levelo_inurba_marseille","lat":43.27992,"lon":5.41664,"is_reserved":false,"is_disabled":false,"rental_uris":{"android":"levelo://app?vid=97701e11-e594-4a29-8c3f-8a1ed84e46c8","ios":"levelo://app?vid=97701e11-e594-4a29-8c3f-8a1ed84e46c8"},"vehicle_type_id":"4","last_reported":1760735338,"current_range_meters":17200,"station_id":"ce4bho12rcd13ifvqh1g","pricing_plan_id":"cebpf4jnsgd1na2vs0mg"},{"bike_id":"aba7c1aa-9034-492e-8d2a-bfd31a88b2f4","system_id":"levelo_inurba_marseille","lat":43.28947,"lon":5.36395,"is_reserved":false,"is_disabled":false,"rental_uris":{"android":"levelo://app?vid=aba7c1aa-9034-492e-8d2a-bfd31a88b2f4","ios":"levelo://app?vid=aba7c1aa-9034-492e-8d2a-bfd31a88b2f4"},"vehicle_type_id":"4","last_reported":1760735338,"current_range_meters":17200,"station_id":"ce4bhc92rcd13ifvqetg","pricing_plan_id":"cebpf4jnsgd1na2vs0mg"},{"bike_id":"d6dc35ca-d60e-489f-a9fd-83abfefb737f","system_id":"levelo_inurba_marseille","lat":43.31135,"lon":5.37749,"is_reserved":false,"is_disabled":false,"rental_uris":{"android":"levelo://app?vid=d6dc35ca-d60e-489f-a9fd-83abfefb737f","ios":"levelo://app?vid=d6dc35ca-d60e-489f-a9fd-83abfefb737f"},"vehicle_type_id":"4","last_reported":1760735338,"current_range_meters":17200,"station_id":"ce4bgt92rcd13ifvqcg0","pricing_plan_id":"cebpf4jnsgd1na2vs0mg"},{"bike_id":"62a0f678-edf0-4086-bd2d-8b4e0e75ba8a","system_id":"levelo_inurba_marseille","lat":43.299367,"lon":5.365645,"is_reserved":false,"is_disabled":false,"rental_uris":{"android":"levelo://app?vid=62a0f678-edf0-4086-bd2d-8b4e0e75ba8a","ios":"levelo://app?vid=62a0f678-edf0-4086-bd2d-8b4e0e75ba8a"},"vehicle_type_id":"4","last_reported":1760735338,"current_range_meters":17200,"station_id":"ce4bgm92rcd13ifvqbr0","pricing_plan_id":"cebpf4jnsgd1na2vs0mg"},{"bike_id":"80169f54-eb23-492f-8f27-99c0a3388875","system_id":"levelo_inurba_marseille","lat":43.25085,"lon":5.39505,"is_reserved":false,"is_disabled":false,"rental_uris":{"android":"levelo://app?vid=80169f54-eb23-492f-8f27-99c0a3388875","ios":"levelo://app?vid=80169f54-eb23-492f-8f27-99c0a3388875"},"vehicle_type_id":"4","last_reported":1760735338,"current_range_meters":17200,"station_id":"ce4bhm12rcd13ifvqgkg","pricing_plan_id":"cebpf4jnsgd1na2vs0mg"},{"bike_id":"448e02c2-29e0-45fd-ac12-04b26df79335","system_id":"levelo_inurba_marseille","lat":43.29801,"lon":5.3936,"is_reserved":false,"is_disabled":false,"rental_uris":{"android":"levelo://app?vid=448e02c2-29e0-45fd-ac12-04b26df79335","ios":"levelo://app?vid=448e02c2-29e0-45fd-ac12-04b26df79335"},"vehicle_type_id":"4","last_reported":1760735338,"current_range_meters":17200,"station_id":"chh1huq6cuj3fo74tm60","pricing_plan_id":"cebpf4jnsgd1na2vs0mg"},{"bike_id":"a4953fc9-3461-4324-a6aa-4228aef02bc6","system_id":"levelo_inurba_marseille","lat":43.29441,"lon":5.39754,"is_reserved":false,"is_disabled":false,"rental_uris":{"android":"levelo://app?vid=a4953fc9-3461-4324-a6aa-4228aef02bc6","ios":"levelo://app?vid=a4953fc9-3461-4324-a6aa-4228aef02bc6"},"vehicle_type_id":"4","last_reported":1760735338,"current_range_meters":17200,"station_id":"ce4bh3h2rcd13ifvqdo0","pricing_plan_id":"cebpf4jnsgd1na2vs0mg"},{"bike_id":"ae6eb0f2-4874-4ceb-8d8c-7385a8266f58","system_id":"levelo_inurba_marseille","lat":43.2952,"lon":5.37937,"is_reserved":false,"is_disabled":false,"rental_uris":{"android":"levelo://app?vid=ae6eb0f2-4874-4ceb-8d8c-7385a8266f58","ios":"levelo://app?vid=ae6eb0f2-4874-4ceb-8d8c-7385a8266f58"},"vehicle_type_id":"4","last_reported":1760735338,"current_range_meters":17200,"station_id":"","pricing_plan_id":"cebpf4jnsgd1na2vs0mg"},{"bike_id":"ec9208ba-fcef-4caf-b50e-b633bbd28f2b","system_id":"levelo_inurba_marseille","lat":43.31531,"lon":5.3804,"is_reserved":false,"is_disabled":false,"rental_uris":{"android":"levelo://app?vid=ec9208ba-fcef-4caf-b50e-b633bbd28f2b","ios":"levelo://app?vid=ec9208ba-fcef-4caf-b50e-b633bbd28f2b"},"vehicle_type_id":"4","last_reported":1760735338,"current_range_meters":17600,"station_id":"ce4bhsp2rcd13ifvqi50","pricing_plan_id":"cebpf4jnsgd1na2vs0mg"},{"bike_id":"eb2819b4-bfb3-4dce-bbb6-7eaaf07a3d9d","system_id":"levelo_inurba_marseille","lat":43.24179,"lon":5.36388,"is_reserved":false,"is_disabled":false,"rental_uris":{"android":"levelo://app?vid=eb2819b4-bfb3-4dce-bbb6-7eaaf07a3d9d","ios":"levelo://app?vid=eb2819b4-bfb3-4dce-bbb6-7eaaf07a3d9d"},"vehicle_type_id":"4","last_reported":1760735338,"current_range_meters":17600,"station_id":"cpo36qri1sfpv3e86is0","pricing_plan_id":"cebpf4jnsgd1na2vs0mg"},{"bike_id":"a01230d2-dcf2-459f-83ea-746e78c7f33c","system_id":"levelo_inurba_marseille","lat":43.2902,"lon":5.38634,"is_reserved":false,"is_disabled":false,"rental_uris":{"android":"levelo://app?vid=a01230d2-dcf2-459f-83ea-746e78c7f33c","ios":"levelo://app?vid=a01230d2-dcf2-459f-83ea-746e78c7f33c"},"vehicle_type_id":"4","last_reported":1760735338,"current_range_meters":17600,"station_id":"ce4bh4p2rcd13ifvqe0g","pricing_plan_id":"cebpf4jnsgd1na2vs0mg"},{"bike_id":"c44c478e-7d56-460e-a89f-902969cb45b4","system_id":"levelo_inurba_marseille","lat":43.30416,"lon":5.41283,"is_reserved":false,"is_disabled":false,"rental_uris":{"android":"levelo://app?vid=c44c478e-7d56-460e-a89f-902969cb45b4","ios":"levelo://app?vid=c44c478e-7d56-460e-a89f-902969cb45b4"},"vehicle_type_id":"4","last_reported":1760735338,"current_range_meters":17600,"station_id":"ce4bhop2rcd13ifvqh8g","pricing_plan_id":"cebpf4jnsgd1na2vs0mg"},{"bike_id":"f65099c1-0e05-4f4a-bc25-f79f6d385828","system_id":"levelo_inurba_marseille","lat":43.292738,"lon":5.384342,"is_reserved":false,"is_disabled":false,"rental_uris":{"android":"levelo://app?vid=f65099c1-0e05-4f4a-bc25-f79f6d385828","ios":"levelo://app?vid=f65099c1-0e05-4f4a-bc25-f79f6d385828"},"vehicle_type_id":"4","last_reported":1760735338,"current_range_meters":17600,"station_id":"ce4bhbh2rcd13ifvqeqg","pricing_plan_id":"cebpf4jnsgd1na2vs0mg"},{"bike_id":"c3acb9dc-3178-4e4f-8a89-24595d17b881","system_id":"levelo_inurba_marseille","lat":43.33963,"lon":5.40646,"is_reserved":false,"is_disabled":false,"rental_uris":{"android":"levelo://app?vid=c3acb9dc-3178-4e4f-8a89-24595d17b881","ios":"levelo://app?vid=c3acb9dc-3178-4e4f-8a89-24595d17b881"},"vehicle_type_id":"4","last_reported":1760735338,"current_range_meters":17600,"station_id":"","pricing_plan_id":"cebpf4jnsgd1na2vs0mg"},{"bike_id":"bf761a01-8ef1-4303-b622-58c6d6879dbb","system_id":"levelo_inurba_marseille","lat":43.30792,"lon":5.38164,"is_reserved":false,"is_disabled":false,"rental_uris":{"android":"levelo://app?vid=bf761a01-8ef1-4303-b622-58c6d6879dbb","ios":"levelo://app?vid=bf761a01-8ef1-4303-b622-58c6d6879dbb"},"vehicle_type_id":"4","last_reported":1760735338,"current_range_meters":17600,"station_id":"ce4bgt12rcd13ifvqce0","pricing_plan_id":"cebpf4jnsgd1na2vs0mg"},{"bike_id":"b1db1391-3474-48f3-85bd-dfc79b190eda","system_id":"levelo_inurba_marseille","lat":43.29277,"lon":5.36053,"is_reserved":false,"is_disabled":false,"rental_uris":{"android":"levelo://app?vid=b1db1391-3474-48f3-85bd-dfc79b190eda","ios":"levelo://app?vid=b1db1391-3474-48f3-85bd-dfc79b190eda"},"vehicle_type_id":"4","last_reported":1760735338,"current_range_meters":17600,"station_id":"","pricing_plan_id":"cebpf4jnsgd1na2vs0mg"},{"bike_id":"fb0d803a-7ea8-4dda-b6e8-9d0b3e76740f","system_id":"levelo_inurba_marseille","lat":43.29903,"lon":5.38368,"is_reserved":false,"is_disabled":false,"rental_uris":{"android":"levelo://app?vid=fb0d803a-7ea8-4dda-b6e8-9d0b3e76740f","ios":"levelo://app?vid=fb0d803a-7ea8-4dda-b6e8-9d0b3e76740f"},"vehicle_type_id":"4","last_reported":1760735338,"current_range_meters":17600,"station_id":"","pricing_plan_id":"cebpf4jnsgd1na2vs0mg"},{"bike_id":"72ab309b-b3fe-4848-a7c5-aa685c3c47b8","system_id":"levelo_inurba_marseille","lat":43.31898,"lon":5.43888,"is_reserved":false,"is_disabled":false,"rental_uris":{"android":"levelo://app?vid=72ab309b-b3fe-4848-a7c5-aa685c3c47b8","ios":"levelo://app?vid=72ab309b-b3fe-4848-a7c5-aa685c3c47b8"},"vehicle_type_id":"4","last_reported":1760735338,"current_range_meters":17600,"station_id":"","pricing_plan_id":"cebpf4jnsgd1na2vs0mg"},{"bike_id":"45f85a19-a2ab-4cb7-abca-927fea786c85","system_id":"levelo_inurba_marseille","lat":43.29598,"lon":5.38109,"is_reserved":false,"is_disabled":false,"rental_uris":{"android":"levelo://app?vid=45f85a19-a2ab-4cb7-abca-927fea786c85","ios":"levelo://app?vid=45f85a19-a2ab-4cb7-abca-927fea786c85"},"vehicle_type_id":"4","last_reported":1760735338,"current_range_meters":17600,"station_id":"ce4bgl12rcd13ifvqbo0","pricing_plan_id":"cebpf4jnsgd1na2vs0mg"},{"bike_id":"5de922bc-2c1c-4fbd-8edd-47ecbe4bc272","system_id":"levelo_inurba_marseille","lat":43.31485,"lon":5.373034,"is_reserved":false,"is_disabled":false,"rental_uris":{"android":"levelo://app?vid=5de922bc-2c1c-4fbd-8edd-47ecbe4bc272","ios":"levelo://app?vid=5de922bc-2c1c-4fbd-8edd-47ecbe4bc272"},"vehicle_type_id":"4","last_reported":1760735338,"current_range_meters":18000,"station_id":"ce4bgt12rcd13ifvqcd0","pricing_plan_id":"cebpf4jnsgd1na2vs0mg"},{"bike_id":"af806066-d313-4142-a8aa-4cd0a99a2538","system_id":"levelo_inurba_marseille","lat":43.24195,"lon":5.36361,"is_reserved":false,"is_disabled":false,"rental_uris":{"android":"levelo://app?vid=af806066-d313-4142-a8aa-4cd0a99a2538","ios":"levelo://app?vid=af806066-d313-4142-a8aa-4cd0a99a2538"},"vehicle_type_id":"4","last_reported":1760735338,"current_range_meters":18000,"station_id":"cpo36qri1sfpv3e86is0","pricing_plan_id":"cebpf4jnsgd1na2vs0mg"},{"bike_id":"6426e4fa-7f79-410d-acfa-0a51b3b2658a","system_id":"levelo_inurba_marseille","lat":43.312474,"lon":5.40407,"is_reserved":false,"is_disabled":false,"rental_uris":{"android":"levelo://app?vid=6426e4fa-7f79-410d-acfa-0a51b3b2658a","ios":"levelo://app?vid=6426e4fa-7f79-410d-acfa-0a51b3b2658a"},"vehicle_type_id":"4","last_reported":1760735338,"current_range_meters":18000,"station_id":"","pricing_plan_id":"cebpf4jnsgd1na2vs0mg"},{"bike_id":"e2f1a5a7-28c1-454d-aa88-fd2ac4240f4b","system_id":"levelo_inurba_marseille","lat":43.31988,"lon":5.38152,"is_reserved":false,"is_disabled":false,"rental_uris":{"android":"levelo://app?vid=e2f1a5a7-28c1-454d-aa88-fd2ac4240f4b","ios":"levelo://app?vid=e2f1a5a7-28c1-454d-aa88-fd2ac4240f4b"},"vehicle_type_id":"4","last_reported":1760735338,"current_range_meters":18000,"station_id":"ce4bhr12rcd13ifvqhpg","pricing_plan_id":"cebpf4jnsgd1na2vs0mg"},{"bike_id":"fc552ba3-6766-452a-909a-d38e38218c0f","system_id":"levelo_inurba_marseille","lat":43.283456,"lon":5.381018,"is_reserved":false,"is_disabled":false,"rental_uris":{"android":"levelo://app?vid=fc552ba3-6766-452a-909a-d38e38218c0f","ios":"levelo://app?vid=fc552ba3-6766-452a-909a-d38e38218c0f"},"vehicle_type_id":"4","last_reported":1760735338,"current_range_meters":18000,"station_id":"ce4bh412rcd13ifvqdr0","pricing_plan_id":"cebpf4jnsgd1na2vs0mg"},{"bike_id":"44b15c40-8c0b-4c11-9695-a734f320e3aa","system_id":"levelo_inurba_marseille","lat":43.23187,"lon":5.39993,"is_reserved":false,"is_disabled":false,"rental_uris":{"android":"levelo://app?vid=44b15c40-8c0b-4c11-9695-a734f320e3aa","ios":"levelo://app?vid=44b15c40-8c0b-4c11-9695-a734f320e3aa"},"vehicle_type_id":"4","last_reported":1760735338,"current_range_meters":18000,"station_id":"ce4bhn12rcd13ifvqgqg","pricing_plan_id":"cebpf4jnsgd1na2vs0mg"},{"bike_id":"ac6d2c4d-74a8-443d-a9f9-0d9807feacda","system_id":"levelo_inurba_marseille","lat":43.33772,"lon":5.37469,"is_reserved":false,"is_disabled":false,"rental_uris":{"android":"levelo://app?vid=ac6d2c4d-74a8-443d-a9f9-0d9807feacda","ios":"levelo://app?vid=ac6d2c4d-74a8-443d-a9f9-0d9807feacda"},"vehicle_type_id":"4","last_reported":1760735338,"current_range_meters":18000,"station_id":"","pricing_plan_id":"cebpf4jnsgd1na2vs0mg"},{"bike_id":"fa68b210-55bb-4a86-a8f5-f651a77004e6","system_id":"levelo_inurba_marseille","lat":43.23209,"lon":5.35571,"is_reserved":false,"is_disabled":false,"rental_uris":{"android":"levelo://app?vid=fa68b210-55bb-4a86-a8f5-f651a77004e6","ios":"levelo://app?vid=fa68b210-55bb-4a86-a8f5-f651a77004e6"},"vehicle_type_id":"4","last_reported":1760735338,"current_range_meters":18000,"station_id":"ce4bhu92rcd13ifvqi70","pricing_plan_id":"cebpf4jnsgd1na2vs0mg"},{"bike_id":"da99d524-0ccd-412a-9747-aba53a215795","system_id":"levelo_inurba_marseille","lat":43.29534,"lon":5.38538,"is_reserved":false,"is_disabled":false,"rental_uris":{"android":"levelo://app?vid=da99d524-0ccd-412a-9747-aba53a215795","ios":"levelo://app?vid=da99d524-0ccd-412a-9747-aba53a215795"},"vehicle_type_id":"4","last_reported":1760735338,"current_range_meters":18000,"station_id":"ce4bgih2rcd13ifvqba0","pricing_plan_id":"cebpf4jnsgd1na2vs0mg"},{"bike_id":"62822cc1-e2be-45b1-9485-7960fb52e692","system_id":"levelo_inurba_marseille","lat":43.30142,"lon":5.3877,"is_reserved":false,"is_disabled":false,"rental_uris":{"android":"levelo://app?vid=62822cc1-e2be-45b1-9485-7960fb52e692","ios":"levelo://app?vid=62822cc1-e2be-45b1-9485-7960fb52e692"},"vehicle_type_id":"4","last_reported":1760735338,"current_range_meters":18000,"station_id":"ce4bghh2rcd13ifvqb60","pricing_plan_id":"cebpf4jnsgd1na2vs0mg"},