{"last_updated":1774390791,"ttl":60,"version":"2.2","data":{"bikes":[{"bike_id":"2842721a-c01c-43d2-a6a9-cd86a8c8467e","system_id":"levelo_inurba_marseille","lat":43.23154,"lon":5.43716,"is_reserved":false,"is_disabled":false,"rental_uris":{"android":"levelo://app?vid=2842721a-c01c-43d2-a6a9-cd86a8c8467e","ios":"levelo://app?vid=2842721a-c01c-43d2-a6a9-cd86a8c8467e"},"vehicle_type_id":"4","last_reported":1774390792,"current_range_meters":2800,"station_id":"ce4bhmp2rcd13ifvqgog","pricing_plan_id":"cebpf4jnsgd1na2vs0mg"},{"bike_id":"f38cc4b9-3e93-424c-9816-2176913a6272","system_id":"levelo_inurba_marseille","lat":43.297945,"lon":5.38079,"is_reserved":false,"is_disabled":false,"rental_uris":{"android":"levelo://app?vid=f38cc4b9-3e93-424c-9816-2176913a6272","ios":"levelo://app?vid=f38cc4b9-3e93-424c-9816-2176913a6272"},"vehicle_type_id":"4","last_reported":1774390792,"current_range_meters":2800,"station_id":"ce4bh9p2rcd13ifvqed0","pricing_plan_id":"cebpf4jnsgd1na2vs0mg"},{"bike_id":"f7fa1ad5-099f-49b7-ba3e-26442c9181b9","system_id":"levelo_inurba_marseille","lat":43.3052,"lon":5.36507,"is_reserved":false,"is_disabled":true,"rental_uris":{"android":"levelo://app?vid=f7fa1ad5-099f-49b7-ba3e-26442c9181b9","ios":"levelo://app?vid=f7fa1ad5-099f-49b7-ba3e-26442c9181b9"},"vehicle_type_id":"4","last_reported":1774390792,"current_range_meters":2800,"station_id":"","pricing_plan_id":"cebpf4jnsgd1na2vs0mg"},{"bike_id":"bbb20be4-a4e3-4756-bf9e-de6efa0abbb9","system_id":"levelo_inurba_marseille","lat":43.29182,"lon":5.42559,"is_reserved":false,"is_disabled":false,"rental_uris":{"android":"levelo://app?vid=bbb20be4-a4e3-4756-bf9e-de6efa0abbb9","ios":"levelo://app?vid=bbb20be4-a4e3-4756-bf9e-de6efa0abbb9"},"vehicle_type_id":"4","last_reported":1774390792,"current_range_meters":2800,"station_id":"","pricing_plan_id":"cebpf4jnsgd1na2vs0mg"},{"bike_id":"ff734142-516f-489b-8dd9-4af408a453c5","system_id":"levelo_inurba_marseille","lat":43.25489,"lon":5.37636,"is_reserved":false,"is_disabled":false,"rental_uris":{"android":"levelo://app?vid=ff734142-516f-489b-8dd9-4af408a453c5","ios":"levelo://app?vid=ff734142-516f-489b-8dd9-4af408a453c5"},"vehicle_type_id":"4","last_reported":1774390792,"current_range_meters":2800,"station_id":"ce4bhh12rcd13ifvqff0","pricing_plan_id":"cebpf4jnsgd1na2vs0mg"},{"bike_id":"29a9597c-4485-4e3e-a002-8905a0247a1d","system_id":"levelo_inurba_marseille","lat":43.26551,"lon":5.37289,"is_reserved":false,"is_disabled":false,"rental_uris":{"android":"levelo://app?vid=29a9597c-4485-4e3e-a002-8905a0247a1d","ios":"levelo://app?vid=29a9597c-4485-4e3e-a002-8905a0247a1d"},"vehicle_type_id":"4","last_reported":1774390792,"current_range_meters":2800,"station_id":"ce4bhg12rcd13ifvqf70","pricing_plan_id":"cebpf4jnsgd1na2vs0mg"},{"bike_id":"edc16db6-0042-4215-9aaf-108e0300da68","system_id":"levelo_inurba_marseille","lat":43.2895,"lon":5.36595,"is_reserved":false,"is_disabled":true,"rental_uris":{"android":"levelo://app?vid=edc16db6-0042-4215-9aaf-108e0300da68","ios":"levelo://app?vid=edc16db6-0042-4215-9aaf-108e0300da68"},"vehicle_type_id":"4","last_reported":1774390792,"current_range_meters":3200,"station_id":"ce4bhap2rcd13ifvqek0","pricing_plan_id":"cebpf4jnsgd1na2vs0mg"},{"bike_id":"96801967-4165-48e7-9f67-9455bcfec3d3","system_id":"levelo_inurba_marseille","lat":43.31328,"lon":5.39686,"is_reserved":false,"is_disabled":false,"rental_uris":{"android":"levelo://app?vid=96801967-4165-48e7-9f67-9455bcfec3d3","ios":"levelo://app?vid=96801967-4165-48e7-9f67-9455bcfec3d3"},"vehicle_type_id":"4","last_reported":1774390792,"current_range_meters":3200,"station_id":"ce4bgvp2rcd13ifvqcu0","pricing_plan_id":"cebpf4jnsgd1na2vs0mg"},{"bike_id":"f0e1b326-c995-4bf9-940d-598ad9ebb63e","system_id":"levelo_inurba_marseille","lat":43.27075,"lon":5.42277,"is_reserved":false,"is_disabled":false,"rental_uris":{"android":"levelo://app?vid=f0e1b326-c995-4bf9-940d-598ad9ebb63e","ios":"levelo://app?vid=f0e1b326-c995-4bf9-940d-598ad9ebb63e"},"vehicle_type_id":"4","last_reported":1774390792,"current_range_meters":3200,"station_id":"ce4bhk92rcd13ifvqgb0","pricing_plan_id":"cebpf4jnsgd1na2vs0mg"},{"bike_id":"850766fb-1707-4f17-858f-22ba0bd2d6e3","system_id":"levelo_inurba_marseille","lat":43.28412,"lon":5.37512,"is_reserved":false,"is_disabled":false,"rental_uris":{"android":"levelo://app?vid=850766fb-1707-4f17-858f-22ba0bd2d6e3","ios":"levelo://app?vid=850766fb-1707-4f17-858f-22ba0bd2d6e3"},"vehicle_type_id":"4","last_reported":1774390792,"current_range_meters":3200,"station_id":"ce4bh412rcd13ifvqds0","pricing_plan_id":"cebpf4jnsgd1na2vs0mg"},{"bike_id":"3e11443c-b472-4fb4-9aaf-e421f962d3f7","system_id":"levelo_inurba_marseille","lat":43.25338,"lon":5.42178,"is_reserved":false,"is_disabled":false,"rental_uris":{"android":"levelo://app?vid=3e11443c-b472-4fb4-9aaf-e421f962d3f7","ios":"levelo://app?vid=3e11443c-b472-4fb4-9aaf-e421f962d3f7"},"vehicle_type_id":"4","last_reported":1774390792,"current_range_meters":3200,"station_id":"st_d2m65c5bi1j21697t3ng","pricing_plan_id":"cebpf4jnsgd1na2vs0mg"},{"bike_id":"451c8ab7-cd8a-4d95-a817-027eec8c0510","system_id":"levelo_inurba_marseille","lat":43.2845,"lon":5.35905,"is_reserved":false,"is_disabled":false,"rental_uris":{"android":"levelo://app?vid=451c8ab7-cd8a-4d95-a817-027eec8c0510","ios":"levelo://app?vid=451c8ab7-cd8a-4d95-a817-027eec8c0510"},"vehicle_type_id":"4","last_reported":1774390792,"current_range_meters":3200,"station_id":"ce4bhah2rcd13ifvqei0","pricing_plan_id":"cebpf4jnsgd1na2vs0mg"},{"bike_id":"c0339bad-3a71-412f-99d4-15aa57e709e3","system_id":"levelo_inurba_marseille","lat":43.33013,"lon":5.39046,"is_reserved":false,"is_disabled":false,"rental_uris":{"android":"levelo://app?vid=c0339bad-3a71-412f-99d4-15aa57e709e3","ios":"levelo://app?vid=c0339bad-3a71-412f-99d4-15aa57e709e3"},"vehicle_type_id":"4","last_reported":1774390792,"current_range_meters":3200,"station_id":"ce4bhr92rcd13ifvqhrg","pricing_plan_id":"cebpf4jnsgd1na2vs0mg"},{"bike_id":"c44ab6dd-76f6-476a-af22-468b2fd29f34","system_id":"levelo_inurba_marseille","lat":43.3128,"lon":5.40177,"is_reserved":false,"is_disabled":false,"rental_uris":{"android":"levelo://app?vid=c44ab6dd-76f6-476a-af22-468b2fd29f34","ios":"levelo://app?vid=c44ab6dd-76f6-476a-af22-468b2fd29f34"},"vehicle_type_id":"4","last_reported":1774390792,"current_range_meters":3200,"station_id":"ce4bh092rcd13ifvqd30","pricing_plan_id":"cebpf4jnsgd1na2vs0mg"},{"bike_id":"bbcec521-b2cb-4752-a30b-3cc813f9ce07","system_id":"levelo_inurba_marseille","lat":43.28746,"lon":5.44825,"is_reserved":false,"is_disabled":false,"rental_uris":{"android":"levelo://app?vid=bbcec521-b2cb-4752-a30b-3cc813f9ce07","ios":"levelo://app?vid=bbcec521-b2cb-4752-a30b-3cc813f9ce07"},"vehicle_type_id":"4","last_reported":1774390792,"current_range_meters":3200,"station_id":"","pricing_plan_id":"cebpf4jnsgd1na2vs0mg"},{"bike_id":"aa4ae7db-6903-4737-a0f4-393c33c4a129","system_id":"levelo_inurba_marseille","lat":43.29751,"lon":5.40411,"is_reserved":false,"is_disabled":false,"rental_uris":{"android":"levelo://app?vid=aa4ae7db-6903-4737-a0f4-393c33c4a129","ios":"levelo://app?vid=aa4ae7db-6903-4737-a0f4-393c33c4a129"},"vehicle_type_id":"4","last_reported":1774390792,"current_range_meters":3200,"station_id":"","pricing_plan_id":"cebpf4jnsgd1na2vs0mg"},{"bike_id":"6ed06c84-247c-4760-be38-239ce91ce8f9","system_id":"levelo_inurba_marseille","lat":43.30889,"lon":5.39645,"is_reserved":false,"is_disabled":false,"rental_uris":{"android":"levelo://app?vid=6ed06c84-247c-4760-be38-239ce91ce8f9","ios":"levelo://app?vid=6ed06c84-247c-4760-be38-239ce91ce8f9"},"vehicle_type_id":"4","last_reported":1774390792,"current_range_meters":3200,"station_id":"ce4bh012rcd13ifvqcv0","pricing_plan_id":"cebpf4jnsgd1na2vs0mg"},{"bike_id":"40906df4-17dd-4d9f-ac1f-0880c5eb117e","system_id":"levelo_inurba_marseille","lat":43.3235,"lon":5.36748,"is_reserved":false,"is_disabled":false,"rental_uris":{"android":"levelo://app?vid=40906df4-17dd-4d9f-ac1f-0880c5eb117e","ios":"levelo://app?vid=40906df4-17dd-4d9f-ac1f-0880c5eb117e"},"vehicle_type_id":"4","last_reported":1774390792,"current_range_meters":3600,"station_id":"ce4bhsh2rcd13ifvqi2g","pricing_plan_id":"cebpf4jnsgd1na2vs0mg"},{"bike_id":"19a6325e-af45-41c2-bbca-14b8a136ed80","system_id":"levelo_inurba_marseille","lat":43.25866,"lon":5.39925,"is_reserved":false,"is_disabled":false,"rental_uris":{"android":"levelo://app?vid=19a6325e-af45-41c2-bbca-14b8a136ed80","ios":"levelo://app?vid=19a6325e-af45-41c2-bbca-14b8a136ed80"},"vehicle_type_id":"4","last_reported":1774390792,"current_range_meters":3600,"station_id":"ce4bhl92rcd13ifvqghg","pricing_plan_id":"cebpf4jnsgd1na2vs0mg"},{"bike_id":"eb7f051c-07f1-41d2-9450-33cd5a984ca1","system_id":"levelo_inurba_marseille","lat":43.23057,"lon":5.35511,"is_reserved":false,"is_disabled":false,"rental_uris":{"android":"levelo://app?vid=eb7f051c-07f1-41d2-9450-33cd5a984ca1","ios":"levelo://app?vid=eb7f051c-07f1-41d2-9450-33cd5a984ca1"},"vehicle_type_id":"4","last_reported":1774390792,"current_range_meters":3600,"station_id":"cpo3342slgdg3j2ifvpg","pricing_plan_id":"cebpf4jnsgd1na2vs0mg"},{"bike_id":"95af4c9e-a5dd-4e09-b63a-5b344598613e","system_id":"levelo_inurba_marseille","lat":43.22949,"lon":5.35368,"is_reserved":false,"is_disabled":false,"rental_uris":{"android":"levelo://app?vid=95af4c9e-a5dd-4e09-b63a-5b344598613e","ios":"levelo://app?vid=95af4c9e-a5dd-4e09-b63a-5b344598613e"},"vehicle_type_id":"4","last_reported":1774390792,"current_range_meters":3600,"station_id":"cpo3532slgdg3j2ikp40","pricing_plan_id":"cebpf4jnsgd1na2vs0mg"},{"bike_id":"3fd853dd-d705-45b5-aeb3-b2ba2ee56a3f","system_id":"levelo_inurba_marseille","lat":43.31278,"lon":5.40157,"is_reserved":false,"is_disabled":false,"rental_uris":{"android":"levelo://app?vid=3fd853dd-d705-45b5-aeb3-b2ba2ee56a3f","ios":"levelo://app?vid=3fd853dd-d705-45b5-aeb3-b2ba2ee56a3f"},"vehicle_type_id":"4","last_reported":1774390792,"current_range_meters":3600,"station_id":"ce4bh092rcd13ifvqd30","pricing_plan_id":"cebpf4jnsgd1na2vs0mg"},{"bike_id":"69a34fac-fc80-43dc-bb66-91eee3bdfb90","system_id":"levelo_inurba_marseille","lat":43.28766,"lon":5.35333,"is_reserved":false,"is_disabled":false,"rental_uris":{"android":"levelo://app?vid=69a34fac-fc80-43dc-bb66-91eee3bdfb90","ios":"levelo://app?vid=69a34fac-fc80-43dc-bb66-91eee3bdfb90"},"vehicle_type_id":"4","last_reported":1774390792,"current_range_meters":3600,"station_id":"","pricing_plan_id":"cebpf4jnsgd1na2vs0mg"},{"bike_id":"6b01523c-be2b-4486-afb1-69132ac0a533","system_id":"levelo_inurba_marseille","lat":43.29266,"lon":5.40891,"is_reserved":false,"is_disabled":false,"rental_uris":{"android":"levelo://app?vid=6b01523c-be2b-4486-afb1-69132ac0a533","ios":"levelo://app?vid=6b01523c-be2b-4486-afb1-69132ac0a533"},"vehicle_type_id":"4","last_reported":1774390792,"current_range_meters":3600,"station_id":"ce4bh192rcd13ifvqdc0","pricing_plan_id":"cebpf4jnsgd1na2vs0mg"},{"bike_id":"e032ab58-6cd1-4dde-af1f-11967a9af0ed","system_id":"levelo_inurba_marseille","lat":43.24658,"lon":5.38165,"is_reserved":false,"is_disabled":false,"rental_uris":{"android":"levelo://app?vid=e032ab58-6cd1-4dde-af1f-11967a9af0ed","ios":"levelo://app?vid=e032ab58-6cd1-4dde-af1f-11967a9af0ed"},"vehicle_type_id":"4","last_reported":1774390792,"current_range_meters":3600,"station_id":"","pricing_plan_id":"cebpf4jnsgd1na2vs0mg"},{"bike_id":"d2260517-36eb-498b-95a6-a249410b03cf","system_id":"levelo_inurba_marseille","lat":43.26576,"lon":5.3981,"is_reserved":false,"is_disabled":false,"rental_uris":{"android":"levelo://app?vid=d2260517-36eb-498b-95a6-a249410b03cf","ios":"levelo://app?vid=d2260517-36eb-498b-95a6-a249410b03cf"},"vehicle_type_id":"4","last_reported":1774390792,"current_range_meters":3600,"station_id":"","pricing_plan_id":"cebpf4jnsgd1na2vs0mg"},{"bike_id":"48f06639-b415-4834-b4ad-3ce8cc3a50b3","system_id":"levelo_inurba_marseille","lat":43.30575,"lon":5.3921,"is_reserved":false,"is_disabled":false,"rental_uris":{"android":"levelo://app?vid=48f06639-b415-4834-b4ad-3ce8cc3a50b3","ios":"levelo://app?vid=48f06639-b415-4834-b4ad-3ce8cc3a50b3"},"vehicle_type_id":"4","last_reported":1774390792,"current_range_meters":3600,"station_id":"","pricing_plan_id":"cebpf4jnsgd1na2vs0mg"},{"bike_id":"0ea24090-160f-41c0-8c21-0c211f8ac15f","system_id":"levelo_inurba_marseille","lat":43.3059,"lon":5.37221,"is_reserved":false,"is_disabled":false,"rental_uris":{"android":"levelo://app?vid=0ea24090-160f-41c0-8c21-0c211f8ac15f","ios":"levelo://app?vid=0ea24090-160f-41c0-8c21-0c211f8ac15f"},"vehicle_type_id":"4","last_reported":1774390792,"current_range_meters":3600,"station_id":"ce4bgqh2rcd13ifvqc4g","pricing_plan_id":"cebpf4jnsgd1na2vs0mg"},{"bike_id":"81c656bd-7c21-4504-a12d-dd282d1b1b7a","system_id":"levelo_inurba_marseille","lat":43.23196,"lon":5.39982,"is_reserved":false,"is_disabled":false,"rental_uris":{"android":"levelo://app?vid=81c656bd-7c21-4504-a12d-dd282d1b1b7a","ios":"levelo://app?vid=81c656bd-7c21-4504-a12d-dd282d1b1b7a"},"vehicle_type_id":"4","last_reported":1774390792,"current_range_meters":3600,"station_id":"ce4bhn12rcd13ifvqgqg","pricing_plan_id":"cebpf4jnsgd1na2vs0mg"},{"bike_id":"a2fabdf4-bd61-4352-82b4-201f5349c59d","system_id":"levelo_inurba_marseille","lat":43.26559,"lon":5.39015,"is_reserved":false,"is_disabled":false,"rental_uris":{"android":"levelo://app?vid=a2fabdf4-bd61-4352-82b4-201f5349c59d","ios":"levelo://app?vid=a2fabdf4-bd61-4352-82b4-201f5349c59d"},"vehicle_type_id":"4","last_reported":1774390792,"current_range_meters":4000,"station_id":"ce4bhe12rcd13ifvqf30","pricing_plan_id":"cebpf4jnsgd1na2vs0mg"},{"bike_id":"e41c893a-4032-48f3-bf3a-8efcbfe1465c","system_id":"levelo_inurba_marseille","lat":43.25829,"lon":5.39459,"is_reserved":false,"is_disabled":true,"rental_uris":{"android":"levelo://app?vid=e41c893a-4032-48f3-bf3a-8efcbfe1465c","ios":"levelo://app?vid=e41c893a-4032-48f3-bf3a-8efcbfe1465c"},"vehicle_type_id":"4","last_reported":1774390792,"current_range_meters":4000,"station_id":"ce4bhip2rcd13ifvqft0","pricing_plan_id":"cebpf4jnsgd1na2vs0mg"},{"bike_id":"80edcf5d-76f7-4ac8-99bc-6edd05fd6fcc","system_id":"levelo_inurba_marseille","lat":43.26548,"lon":5.39023,"is_reserved":false,"is_disabled":false,"rental_uris":{"android":"levelo://app?vid=80edcf5d-76f7-4ac8-99bc-6edd05fd6fcc","ios":"levelo://app?vid=80edcf5d-76f7-4ac8-99bc-6edd05fd6fcc"},"vehicle_type_id":"4","last_reported":1774390792,"current_range_meters":4000,"station_id":"ce4bhe12rcd13ifvqf30","pricing_plan_id":"cebpf4jnsgd1na2vs0mg"},{"bike_id":"c76b377e-0060-4be7-aebe-7351859ef346","system_id":"levelo_inurba_marseille","lat":43.24092,"lon":5.37782,"is_reserved":false,"is_disabled":false,"rental_uris":{"android":"levelo://app?vid=c76b377e-0060-4be7-aebe-7351859ef346","ios":"levelo://app?vid=c76b377e-0060-4be7-aebe-7351859ef346"},"vehicle_type_id":"4","last_reported":1774390792,"current_range_meters":4000,"station_id":"ce4bhnp2rcd13ifvqgvg","pricing_plan_id":"cebpf4jnsgd1na2vs0mg"},{"bike_id":"ac8e86da-55a1-458d-b594-72eeab74387c","system_id":"levelo_inurba_marseille","lat":43.25568,"lon":5.38244,"is_reserved":false,"is_disabled":false,"rental_uris":{"android":"levelo://app?vid=ac8e86da-55a1-458d-b594-72eeab74387c","ios":"levelo://app?vid=ac8e86da-55a1-458d-b594-72eeab74387c"},"vehicle_type_id":"4","last_reported":1774390792,"current_range_meters":4000,"station_id":"ce4bhih2rcd13ifvqfs0","pricing_plan_id":"cebpf4jnsgd1na2vs0mg"},{"bike_id":"6e6161fe-edfa-4833-a177-c1358d249809","system_id":"levelo_inurba_marseille","lat":43.31208,"lon":5.38718,"is_reserved":false,"is_disabled":true,"rental_uris":{"android":"levelo://app?vid=6e6161fe-edfa-4833-a177-c1358d249809","ios":"levelo://app?vid=6e6161fe-edfa-4833-a177-c1358d249809"},"vehicle_type_id":"4","last_reported":1774390792,"current_range_meters":4400,"station_id":"ce4bgv12rcd13ifvqcp0","pricing_plan_id":"cebpf4jnsgd1na2vs0mg"},{"bike_id":"4092e27a-c421-4624-a082-6f6fdcfd1d27","system_id":"levelo_inurba_marseille","lat":43.25859,"lon":5.39931,"is_reserved":false,"is_disabled":false,"rental_uris":{"android":"levelo://app?vid=4092e27a-c421-4624-a082-6f6fdcfd1d27","ios":"levelo://app?vid=4092e27a-c421-4624-a082-6f6fdcfd1d27"},"vehicle_type_id":"4","last_reported":1774390792,"current_range_meters":4400,"station_id":"ce4bhl92rcd13ifvqghg","pricing_plan_id":"cebpf4jnsgd1na2vs0mg"},{"bike_id":"29a577df-c925-4ad4-8796-1af1c698b4d5","system_id":"levelo_inurba_marseille","lat":43.27929,"lon":5.41105,"is_reserved":false,"is_disabled":false,"rental_uris":{"android":"levelo://app?vid=29a577df-c925-4ad4-8796-1af1c698b4d5","ios":"levelo://app?vid=29a577df-c925-4ad4-8796-1af1c698b4d5"},"vehicle_type_id":"4","last_reported":1774390792,"current_range_meters":4400,"station_id":"ce4bhnp2rcd13ifvqh0g","pricing_plan_id":"cebpf4jnsgd1na2vs0mg"},{"bike_id":"4382fefe-9d6a-4e31-b368-6a94fb3585d0","system_id":"levelo_inurba_marseille","lat":43.30647,"lon":5.40098,"is_reserved":false,"is_disabled":false,"rental_uris":{"android":"levelo://app?vid=4382fefe-9d6a-4e31-b368-6a94fb3585d0","ios":"levelo://app?vid=4382fefe-9d6a-4e31-b368-6a94fb3585d0"},"vehicle_type_id":"4","last_reported":1774390792,"current_range_meters":4400,"station_id":"ce4bh112rcd13ifvqda0","pricing_plan_id":"cebpf4jnsgd1na2vs0mg"},{"bike_id":"4ce98637-072f-4197-bd69-11f207a88eab","system_id":"levelo_inurba_marseille","lat":43.28496,"lon":5.47279,"is_reserved":false,"is_disabled":false,"rental_uris":{"android":"levelo://app?vid=4ce98637-072f-4197-bd69-11f207a88eab","ios":"levelo://app?vid=4ce98637-072f-4197-bd69-11f207a88eab"},"vehicle_type_id":"4","last_reported":1774390792,"current_range_meters":4400,"station_id":"","pricing_plan_id":"cebpf4jnsgd1na2vs0mg"},{"bike_id":"62b4b24a-25c2-413c-a9e9-7d8f1f6621f7","system_id":"levelo_inurba_marseille","lat":43.24483,"lon":5.42543,"is_reserved":false,"is_disabled":false,"rental_uris":{"android":"levelo://app?vid=62b4b24a-25c2-413c-a9e9-7d8f1f6621f7","ios":"levelo://app?vid=62b4b24a-25c2-413c-a9e9-7d8f1f6621f7"},"vehicle_type_id":"4","last_reported":1774390792,"current_range_meters":4400,"station_id":"st_d4a3vfp97mjs738cd8kg","pricing_plan_id":"cebpf4jnsgd1na2vs0mg"},{"bike_id":"5cff8034-4c2b-46d8-a63b-5de6b6d29d3f","system_id":"levelo_inurba_marseille","lat":43.29784,"lon":5.39361,"is_reserved":false,"is_disabled":true,"rental_uris":{"android":"levelo://app?vid=5cff8034-4c2b-46d8-a63b-5de6b6d29d3f","ios":"levelo://app?vid=5cff8034-4c2b-46d8-a63b-5de6b6d29d3f"},"vehicle_type_id":"4","last_reported":1774390792,"current_range_meters":4400,"station_id":"chh1huq6cuj3fo74tm60","pricing_plan_id":"cebpf4jnsgd1na2vs0mg"},{"bike_id":"b2da6f3d-1e4f-4582-b96b-f070d7f08236","system_id":"levelo_inurba_marseille","lat":43.28786,"lon":5.35251,"is_reserved":false,"is_disabled":false,"rental_uris":{"android":"levelo://app?vid=b2da6f3d-1e4f-4582-b96b-f070d7f08236","ios":"levelo://app?vid=b2da6f3d-1e4f-4582-b96b-f070d7f08236"},"vehicle_type_id":"4","last_reported":1774390792,"current_range_meters":4400,"station_id":"","pricing_plan_id":"cebpf4jnsgd1na2vs0mg"},{"bike_id":"afaed1ce-d9f0-4990-8274-d34093e4a465","system_id":"levelo_inurba_marseille","lat":43.308685,"lon":5.396613,"is_reserved":false,"is_disabled":false,"rental_uris":{"android":"levelo://app?vid=afaed1ce-d9f0-4990-8274-d34093e4a465","ios":"levelo://app?vid=afaed1ce-d9f0-4990-8274-d34093e4a465"},"vehicle_type_id":"4","last_reported":1774390792,"current_range_meters":4400,"station_id":"","pricing_plan_id":"cebpf4jnsgd1na2vs0mg"},{"bike_id":"a7a52aba-258b-4437-9c95-9cb2b62e58b7","system_id":"levelo_inurba_marseille","lat":43.30148,"lon":5.37416,"is_reserved":false,"is_disabled":false,"rental_uris":{"android":"levelo://app?vid=a7a52aba-258b-4437-9c95-9cb2b62e58b7","ios":"levelo://app?vid=a7a52aba-258b-4437-9c95-9cb2b62e58b7"},"vehicle_type_id":"4","last_reported":1774390792,"current_range_meters":4400,"station_id":"ce4bgs92rcd13ifvqcc0","pricing_plan_id":"cebpf4jnsgd1na2vs0mg"},{"bike_id":"c6ed3d40-fb82-47ee-b3b0-f7061751a297","system_id":"levelo_inurba_marseille","lat":43.2886,"lon":5.42514,"is_reserved":false,"is_disabled":false,"rental_uris":{"android":"levelo://app?vid=c6ed3d40-fb82-47ee-b3b0-f7061751a297","ios":"levelo://app?vid=c6ed3d40-fb82-47ee-b3b0-f7061751a297"},"vehicle_type_id":"4","last_reported":1774390792,"current_range_meters":4400,"station_id":"","pricing_plan_id":"cebpf4jnsgd1na2vs0mg"},{"bike_id":"4a736293-d843-438d-b221-b5f358713e85","system_id":"levelo_inurba_marseille","lat":43.2872,"lon":5.37937,"is_reserved":false,"is_disabled":false,"rental_uris":{"android":"levelo://app?vid=4a736293-d843-438d-b221-b5f358713e85","ios":"levelo://app?vid=4a736293-d843-438d-b221-b5f358713e85"},"vehicle_type_id":"4","last_reported":1774390792,"current_range_meters":4800,"station_id":"ce4bh9p2rcd13ifvqec0","pricing_plan_id":"cebpf4jnsgd1na2vs0mg"},{"bike_id":"763571bb-b88d-45db-9a18-7962f9620cad","system_id":"levelo_inurba_marseille","lat":43.23195,"lon":5.35555,"is_reserved":false,"is_disabled":false,"rental_uris":{"android":"levelo://app?vid=763571bb-b88d-45db-9a18-7962f9620cad","ios":"levelo://app?vid=763571bb-b88d-45db-9a18-7962f9620cad"},"vehicle_type_id":"4","last_reported":1774390792,"current_range_meters":4800,"station_id":"ce4bhu92rcd13ifvqi70","pricing_plan_id":"cebpf4jnsgd1na2vs0mg"},{"bike_id":"d8118bee-e741-4d8d-9013-a59d684cd086","system_id":"levelo_inurba_marseille","lat":43.29601,"lon":5.38103,"is_reserved":false,"is_disabled":false,"rental_uris":{"android":"levelo://app?vid=d8118bee-e741-4d8d-9013-a59d684cd086","ios":"levelo://app?vid=d8118bee-e741-4d8d-9013-a59d684cd086"},"vehicle_type_id":"4","last_reported":1774390792,"current_range_meters":4800,"station_id":"ce4bgl12rcd13ifvqbo0","pricing_plan_id":"cebpf4jnsgd1na2vs0mg"},{"bike_id":"7b6c8f1e-bc5a-4218-9383-b05da73318e0","system_id":"levelo_inurba_marseille","lat":43.32345,"lon":5.36762,"is_reserved":false,"is_disabled":false,"rental_uris":{"android":"levelo://app?vid=7b6c8f1e-bc5a-4218-9383-b05da73318e0","ios":"levelo://app?vid=7b6c8f1e-bc5a-4218-9383-b05da73318e0"},"vehicle_type_id":"4","last_reported":1774390792,"current_range_meters":4800,"station_id":"ce4bhsh2rcd13ifvqi2g","pricing_plan_id":"cebpf4jnsgd1na2vs0mg"},{"bike_id":"f910acab-e234-4475-91c9-ec3fea6d1bf3","system_id":"levelo_inurba_marseille","lat":43.29901,"lon":5.43704,"is_reserved":false,"is_disabled":false,"rental_uris":{"android":"levelo://app?vid=f910acab-e234-4475-91c9-ec3fea6d1bf3","ios":"levelo://app?vid=f910acab-e234-4475-91c9-ec3fea6d1bf3"},"vehicle_type_id":"4","last_reported":1774390792,"current_range_meters":4800,"station_id":"ce4bhpp2rcd13ifvqhfg","pricing_plan_id":"cebpf4jnsgd1na2vs0mg"},{"bike_id":"263c47b7-472c-40eb-be9c-bcefa2903249","system_id":"levelo_inurba_marseille","lat":43.27804,"lon":5.40728,"is_reserved":false,"is_disabled":false,"rental_uris":{"android":"levelo://app?vid=263c47b7-472c-40eb-be9c-bcefa2903249","ios":"levelo://app?vid=263c47b7-472c-40eb-be9c-bcefa2903249"},"vehicle_type_id":"4","last_reported":1774390792,"current_range_meters":4800,"station_id":"ce4bhnh2rcd13ifvqgtg","pricing_plan_id":"cebpf4jnsgd1na2vs0mg"},{"bike_id":"22123110-8f4d-447c-a492-e91d3e302abc","system_id":"levelo_inurba_marseille","lat":43.284071,"lon":5.349812,"is_reserved":false,"is_disabled":false,"rental_uris":{"android":"levelo://app?vid=22123110-8f4d-447c-a492-e91d3e302abc","ios":"levelo://app?vid=22123110-8f4d-447c-a492-e91d3e302abc"},"vehicle_type_id":"4","last_reported":1774390792,"current_range_meters":4800,"station_id":"ce4bhbh2rcd13ifvqepg","pricing_plan_id":"cebpf4jnsgd1na2vs0mg"},{"bike_id":"d754a161-551f-4193-b8cb-ebcca83b2ad4","system_id":"levelo_inurba_marseille","lat":43.24637,"lon":5.38899,"is_reserved":false,"is_disabled":false,"rental_uris":{"android":"levelo://app?vid=d754a161-551f-4193-b8cb-ebcca83b2ad4","ios":"levelo://app?vid=d754a161-551f-4193-b8cb-ebcca83b2ad4"},"vehicle_type_id":"4","last_reported":1774390792,"current_range_meters":4800,"station_id":"ce4bhg12rcd13ifvqf60","pricing_plan_id":"cebpf4jnsgd1na2vs0mg"},{"bike_id":"d315d4d4-78e9-45de-8981-a7b0a1f81c91","system_id":"levelo_inurba_marseille","lat":43.27514,"lon":5.41592,"is_reserved":false,"is_disabled":false,"rental_uris":{"android":"levelo://app?vid=d315d4d4-78e9-45de-8981-a7b0a1f81c91","ios":"levelo://app?vid=d315d4d4-78e9-45de-8981-a7b0a1f81c91"},"vehicle_type_id":"4","last_reported":1774390792,"current_range_meters":4800,"station_id":"st_d6im8g6chgec73a5pndg","pricing_plan_id":"cebpf4jnsgd1na2vs0mg"},{"bike_id":"ae8f7260-7181-4342-a22b-a5fdf4a9e302","system_id":"levelo_inurba_marseille","lat":43.31536,"lon":5.38034,"is_reserved":false,"is_disabled":false,"rental_uris":{"android":"levelo://app?vid=ae8f7260-7181-4342-a22b-a5fdf4a9e302","ios":"levelo://app?vid=ae8f7260-7181-4342-a22b-a5fdf4a9e302"},"vehicle_type_id":"4","last_reported":1774390792,"current_range_meters":4800,"station_id":"ce4bhsp2rcd13ifvqi50","pricing_plan_id":"cebpf4jnsgd1na2vs0mg"},{"bike_id":"7300b463-32fa-4145-b8b7-ce6ad16ba04c","system_id":"levelo_inurba_marseille","lat":43.29199,"lon":5.39315,"is_reserved":false,"is_disabled":false,"rental_uris":{"android":"levelo://app?vid=7300b463-32fa-4145-b8b7-ce6ad16ba04c","ios":"levelo://app?vid=7300b463-32fa-4145-b8b7-ce6ad16ba04c"},"vehicle_type_id":"4","last_reported":1774390792,"current_range_meters":4800,"station_id":"ce4bh192rcd13ifvqdd0","pricing_plan_id":"cebpf4jnsgd1na2vs0mg"},{"bike_id":"26e7f08a-7e84-4397-b6a3-eb87d40aa9ee","system_id":"levelo_inurba_marseille","lat":43.24797,"lon":5.37452,"is_reserved":false,"is_disabled":false,"rental_uris":{"android":"levelo://app?vid=26e7f08a-7e84-4397-b6a3-eb87d40aa9ee","ios":"levelo://app?vid=26e7f08a-7e84-4397-b6a3-eb87d40aa9ee"},"vehicle_type_id":"4","last_reported":1774390792,"current_range_meters":5600,"station_id":"ce4bhgh2rcd13ifvqfb0","pricing_plan_id":"cebpf4jnsgd1na2vs0mg"},{"bike_id":"0e2f4137-e82a-401c-945f-6a1c7c098239","system_id":"levelo_inurba_marseille","lat":43.29618,"lon":5.37142,"is_reserved":false,"is_disabled":false,"rental_uris":{"android":"levelo://app?vid=0e2f4137-e82a-401c-945f-6a1c7c098239","ios":"levelo://app?vid=0e2f4137-e82a-401c-945f-6a1c7c098239"},"vehicle_type_id":"4","last_reported":1774390792,"current_range_meters":5600,"station_id":"ce4bgnh2rcd13ifvqc0g","pricing_plan_id":"cebpf4jnsgd1na2vs0mg"},{"bike_id":"b75036ac-d81d-4bfd-a9c8-a051a6ff39fe","system_id":"levelo_inurba_marseille","lat":43.28529,"lon":5.44126,"is_reserved":false,"is_disabled":false,"rental_uris":{"android":"levelo://app?vid=b75036ac-d81d-4bfd-a9c8-a051a6ff39fe","ios":"levelo://app?vid=b75036ac-d81d-4bfd-a9c8-a051a6ff39fe"},"vehicle_type_id":"4","last_reported":1774390792,"current_range_meters":5600,"station_id":"st_d3j3df2ikq2c7380ej80","pricing_plan_id":"cebpf4jnsgd1na2vs0mg"},{"bike_id":"77deb619-deef-42c1-ade2-8dca83a843fb","system_id":"levelo_inurba_marseille","lat":43.29155,"lon":5.43995,"is_reserved":false,"is_disabled":false,"rental_uris":{"android":"levelo://app?vid=77deb619-deef-42c1-ade2-8dca83a843fb","ios":"levelo://app?vid=77deb619-deef-42c1-ade2-8dca83a843fb"},"vehicle_type_id":"4","last_reported":1774390792,"current_range_meters":5600,"station_id":"","pricing_plan_id":"cebpf4jnsgd1na2vs0mg"},{"bike_id":"0b4a36c9-468c-4770-8280-af4cc610443d","system_id":"levelo_inurba_marseille","lat":43.29286,"lon":5.36849,"is_reserved":false,"is_disabled":false,"rental_uris":{"android":"levelo://app?vid=0b4a36c9-468c-4770-8280-af4cc610443d","ios":"levelo://app?vid=0b4a36c9-468c-4770-8280-af4cc610443d"},"vehicle_type_id":"4","last_reported":1774390792,"current_range_meters":5600,"station_id":"ce4bhbp2rcd13ifvqesg","pricing_plan_id":"cebpf4jnsgd1na2vs0mg"},{"bike_id":"e2877cb6-3183-465c-be69-4dce3502065b","system_id":"levelo_inurba_marseille","lat":43.28763,"lon":5.37404,"is_reserved":false,"is_disabled":false,"rental_uris":{"android":"levelo://app?vid=e2877cb6-3183-465c-be69-4dce3502065b","ios":"levelo://app?vid=e2877cb6-3183-465c-be69-4dce3502065b"},"vehicle_type_id":"4","last_reported":1774390792,"current_range_meters":5600,"station_id":"","pricing_plan_id":"cebpf4jnsgd1na2vs0mg"},{"bike_id":"2a02a3e7-6f53-48a3-ab29-526ed2f5cbb2","system_id":"levelo_inurba_marseille","lat":43.29966,"lon":5.37189,"is_reserved":false,"is_disabled":false,"rental_uris":{"android":"levelo://app?vid=2a02a3e7-6f53-48a3-ab29-526ed2f5cbb2","ios":"levelo://app?vid=2a02a3e7-6f53-48a3-ab29-526ed2f5cbb2"},"vehicle_type_id":"4","last_reported":1774390792,"current_range_meters":5600,"station_id":"ce4bgr92rcd13ifvqc7g","pricing_plan_id":"cebpf4jnsgd1na2vs0mg"},{"bike_id":"0503ed00-51a9-40c2-99fd-dbbaf9e61da3","system_id":"levelo_inurba_marseille","lat":43.28702,"lon":5.37391,"is_reserved":false,"is_disabled":false,"rental_uris":{"android":"levelo://app?vid=0503ed00-51a9-40c2-99fd-dbbaf9e61da3","ios":"levelo://app?vid=0503ed00-51a9-40c2-99fd-dbbaf9e61da3"},"vehicle_type_id":"4","last_reported":1774390792,"current_range_meters":5600,"station_id":"ce4bh3p2rcd13ifvqdq0","pricing_plan_id":"cebpf4jnsgd1na2vs0mg"},{"bike_id":"0b786319-6d9f-4d1c-890a-5150198e272a","system_id":"levelo_inurba_marseille","lat":43.28474,"lon":5.48395,"is_reserved":false,"is_disabled":false,"rental_uris":{"android":"levelo://app?vid=0b786319-6d9f-4d1c-890a-5150198e272a","ios":"levelo://app?vid=0b786319-6d9f-4d1c-890a-5150198e272a"},"vehicle_type_id":"4","last_reported":1774390792,"current_range_meters":5600,"station_id":"st_d3svhcjqgbts73a3dn0g","pricing_plan_id":"cebpf4jnsgd1na2vs0mg"},{"bike_id":"f35a9644-f102-427c-8b00-579a35988db3","system_id":"levelo_inurba_marseille","lat":43.21181,"lon":5.351,"is_reserved":false,"is_disabled":false,"rental_uris":{"android":"levelo://app?vid=f35a9644-f102-427c-8b00-579a35988db3","ios":"levelo://app?vid=f35a9644-f102-427c-8b00-579a35988db3"},"vehicle_type_id":"4","last_reported":1774390792,"current_range_meters":5600,"station_id":"st_cvj6sg6p6f1abm77japg","pricing_plan_id":"cebpf4jnsgd1na2vs0mg"},{"bike_id":"45ce07bf-1dc3-441d-be3e-98069ebaa649","system_id":"levelo_inurba_marseille","lat":43.27823,"lon":5.40686,"is_reserved":false,"is_disabled":false,"rental_uris":{"android":"levelo://app?vid=45ce07bf-1dc3-441d-be3e-98069ebaa649","ios":"levelo://app?vid=45ce07bf-1dc3-441d-be3e-98069ebaa649"},"vehicle_type_id":"4","last_reported":1774390792,"current_range_meters":5600,"station_id":"ce4bhnh2rcd13ifvqgtg","pricing_plan_id":"cebpf4jnsgd1na2vs0mg"},{"bike_id":"1640993b-d278-49ed-aac8-4524836b0a26","system_id":"levelo_inurba_marseille","lat":43.28215,"lon":5.3905,"is_reserved":false,"is_disabled":true,"rental_uris":{"android":"levelo://app?vid=1640993b-d278-49ed-aac8-4524836b0a26","ios":"levelo://app?vid=1640993b-d278-49ed-aac8-4524836b0a26"},"vehicle_type_id":"4","last_reported":1774390792,"current_range_meters":5600,"station_id":"ce4bhn92rcd13ifvqgsg","pricing_plan_id":"cebpf4jnsgd1na2vs0mg"},{"bike_id":"e9b07658-a8f0-465c-b976-645cd41e5970","system_id":"levelo_inurba_marseille","lat":43.27175,"lon":5.40996,"is_reserved":false,"is_disabled":false,"rental_uris":{"android":"levelo://app?vid=e9b07658-a8f0-465c-b976-645cd41e5970","ios":"levelo://app?vid=e9b07658-a8f0-465c-b976-645cd41e5970"},"vehicle_type_id":"4","last_reported":1774390792,"current_range_meters":5600,"station_id":"ce4bhl12rcd13ifvqgf0","pricing_plan_id":"cebpf4jnsgd1na2vs0mg"},{"bike_id":"b86068ab-97ee-4456-8b24-8dc8e9d3870c","system_id":"levelo_inurba_marseille","lat":43.28455,"lon":5.35876,"is_reserved":false,"is_disabled":false,"rental_uris":{"android":"levelo://app?vid=b86068ab-97ee-4456-8b24-8dc8e9d3870c","ios":"levelo://app?vid=b86068ab-97ee-4456-8b24-8dc8e9d3870c"},"vehicle_type_id":"4","last_reported":1774390792,"current_range_meters":5600,"station_id":"ce4bhah2rcd13ifvqei0","pricing_plan_id":"cebpf4jnsgd1na2vs0mg"},{"bike_id":"aa7239d2-0211-4898-b89f-0f5a834ce8df","system_id":"levelo_inurba_marseille","lat":43.27836,"lon":5.39222,"is_reserved":false,"is_disabled":false,"rental_uris":{"android":"levelo://app?vid=aa7239d2-0211-4898-b89f-0f5a834ce8df","ios":"levelo://app?vid=aa7239d2-0211-4898-b89f-0f5a834ce8df"},"vehicle_type_id":"4","last_reported":1774390792,"current_range_meters":5600,"station_id":"ce4bhjp2rcd13ifvqga0","pricing_plan_id":"cebpf4jnsgd1na2vs0mg"},{"bike_id":"63802da6-1f74-4b92-958d-77f8c78524d6","system_id":"levelo_inurba_marseille","lat":43.28579,"lon":5.39905,"is_reserved":false,"is_disabled":false,"rental_uris":{"android":"levelo://app?vid=63802da6-1f74-4b92-958d-77f8c78524d6","ios":"levelo://app?vid=63802da6-1f74-4b92-958d-77f8c78524d6"},"vehicle_type_id":"4","last_reported":1774390792,"current_range_meters":5600,"station_id":"st_d4a7ka997mjs738ck50g","pricing_plan_id":"cebpf4jnsgd1na2vs0mg"},{"bike_id":"7e239537-6c6b-4563-a73b-680f69586595","system_id":"levelo_inurba_marseille","lat":43.29002,"lon":5.3561,"is_reserved":false,"is_disabled":true,"rental_uris":{"android":"levelo://app?vid=7e239537-6c6b-4563-a73b-680f69586595","ios":"levelo://app?vid=7e239537-6c6b-4563-a73b-680f69586595"},"vehicle_type_id":"4","last_reported":1774390792,"current_range_meters":5600,"station_id":"ce4bhb92rcd13ifvqen0","pricing_plan_id":"cebpf4jnsgd1na2vs0mg"},{"bike_id":"1a1b717b-04fd-4f24-8074-1f22e4e55e21","system_id":"levelo_inurba_marseille","lat":43.29029,"lon":5.38647,"is_reserved":false,"is_disabled":false,"rental_uris":{"android":"levelo://app?vid=1a1b717b-04fd-4f24-8074-1f22e4e55e21","ios":"levelo://app?vid=1a1b717b-04fd-4f24-8074-1f22e4e55e21"},"vehicle_type_id":"4","last_reported":1774390792,"current_range_meters":6000,"station_id":"ce4bh4p2rcd13ifvqe0g","pricing_plan_id":"cebpf4jnsgd1na2vs0mg"},{"bike_id":"d153865b-277c-49ad-92ee-2c9d0756119d","system_id":"levelo_inurba_marseille","lat":43.30645,"lon":5.40074,"is_reserved":false,"is_disabled":false,"rental_uris":{"android":"levelo://app?vid=d153865b-277c-49ad-92ee-2c9d0756119d","ios":"levelo://app?vid=d153865b-277c-49ad-92ee-2c9d0756119d"},"vehicle_type_id":"4","last_reported":1774390792,"current_range_meters":6000,"station_id":"ce4bh112rcd13ifvqda0","pricing_plan_id":"cebpf4jnsgd1na2vs0mg"},{"bike_id":"fadd83d2-5a56-4dab-abd3-4fc024887366","system_id":"levelo_inurba_marseille","lat":43.28475,"lon":5.48395,"is_reserved":false,"is_disabled":false,"rental_uris":{"android":"levelo://app?vid=fadd83d2-5a56-4dab-abd3-4fc024887366","ios":"levelo://app?vid=fadd83d2-5a56-4dab-abd3-4fc024887366"},"vehicle_type_id":"4","last_reported":1774390792,"current_range_meters":6000,"station_id":"","pricing_plan_id":"cebpf4jnsgd1na2vs0mg"},{"bike_id":"3c95cbbf-d045-4b3e-bc25-575252972b9c","system_id":"levelo_inurba_marseille","lat":43.29797,"lon":5.37088,"is_reserved":false,"is_disabled":false,"rental_uris":{"android":"levelo://app?vid=3c95cbbf-d045-4b3e-bc25-575252972b9c","ios":"levelo://app?vid=3c95cbbf-d045-4b3e-bc25-575252972b9c"},"vehicle_type_id":"4","last_reported":1774390792,"current_range_meters":6000,"station_id":"ce4bgop2rcd13ifvqc1g","pricing_plan_id":"cebpf4jnsgd1na2vs0mg"},{"bike_id":"07035ceb-7f0e-449d-a264-2cea17dace41","system_id":"levelo_inurba_marseille","lat":43.23784,"lon":5.36621,"is_reserved":false,"is_disabled":false,"rental_uris":{"android":"levelo://app?vid=07035ceb-7f0e-449d-a264-2cea17dace41","ios":"levelo://app?vid=07035ceb-7f0e-449d-a264-2cea17dace41"},"vehicle_type_id":"4","last_reported":1774390792,"current_range_meters":6000,"station_id":"st_d3nk18o9ro0c73en2l3g","pricing_plan_id":"cebpf4jnsgd1na2vs0mg"},{"bike_id":"72044df5-0102-492f-9c7c-f11fdfd24118","system_id":"levelo_inurba_marseille","lat":43.28702,"lon":5.37399,"is_reserved":false,"is_disabled":false,"rental_uris":{"android":"levelo://app?vid=72044df5-0102-492f-9c7c-f11fdfd24118","ios":"levelo://app?vid=72044df5-0102-492f-9c7c-f11fdfd24118"},"vehicle_type_id":"4","last_reported":1774390792,"current_range_meters":6000,"station_id":"ce4bh3p2rcd13ifvqdq0","pricing_plan_id":"cebpf4jnsgd1na2vs0mg"},{"bike_id":"7e03e45c-d69c-4371-8267-aa26cde43729","system_id":"levelo_inurba_marseille","lat":43.25574,"lon":5.38237,"is_reserved":false,"is_disabled":true,"rental_uris":{"android":"levelo://app?vid=7e03e45c-d69c-4371-8267-aa26cde43729","ios":"levelo://app?vid=7e03e45c-d69c-4371-8267-aa26cde43729"},"vehicle_type_id":"4","last_reported":1774390792,"current_range_meters":6000,"station_id":"ce4bhih2rcd13ifvqfs0","pricing_plan_id":"cebpf4jnsgd1na2vs0mg"},{"bike_id":"f3dccb27-25f8-415f-8a8c-207408b72398","system_id":"levelo_inurba_marseille","lat":43.32078,"lon":5.36769,"is_reserved":false,"is_disabled":false,"rental_uris":{"android":"levelo://app?vid=f3dccb27-25f8-415f-8a8c-207408b72398","ios":"levelo://app?vid=f3dccb27-25f8-415f-8a8c-207408b72398"},"vehicle_type_id":"4","last_reported":1774390792,"current_range_meters":6000,"station_id":"ce4bhrh2rcd13ifvqhug","pricing_plan_id":"cebpf4jnsgd1na2vs0mg"},{"bike_id":"9ca4b1da-0df4-426d-b237-eed2d4351450","system_id":"levelo_inurba_marseille","lat":43.23193,"lon":5.39972,"is_reserved":false,"is_disabled":false,"rental_uris":{"android":"levelo://app?vid=9ca4b1da-0df4-426d-b237-eed2d4351450","ios":"levelo://app?vid=9ca4b1da-0df4-426d-b237-eed2d4351450"},"vehicle_type_id":"4","last_reported":1774390792,"current_range_meters":6000,"station_id":"ce4bhn12rcd13ifvqgqg","pricing_plan_id":"cebpf4jnsgd1na2vs0mg"},{"bike_id":"a9b0556e-e257-4c86-baec-32c674fd9499","system_id":"levelo_inurba_marseille","lat":43.30215,"lon":5.39448,"is_reserved":false,"is_disabled":true,"rental_uris":{"android":"levelo://app?vid=a9b0556e-e257-4c86-baec-32c674fd9499","ios":"levelo://app?vid=a9b0556e-e257-4c86-baec-32c674fd9499"},"vehicle_type_id":"4","last_reported":1774390792,"current_range_meters":6400,"station_id":"ce4bh0p2rcd13ifvqd70","pricing_plan_id":"cebpf4jnsgd1na2vs0mg"},{"bike_id":"21212254-e5a0-4af6-a45f-ed4c631ca773","system_id":"levelo_inurba_marseille","lat":43.25523,"lon":5.37667,"is_reserved":false,"is_disabled":false,"rental_uris":{"android":"levelo://app?vid=21212254-e5a0-4af6-a45f-ed4c631ca773","ios":"levelo://app?vid=21212254-e5a0-4af6-a45f-ed4c631ca773"},"vehicle_type_id":"4","last_reported":1774390792,"current_range_meters":6400,"station_id":"ce4bhh12rcd13ifvqff0","pricing_plan_id":"cebpf4jnsgd1na2vs0mg"},{"bike_id":"dba25020-eb6f-4854-9ae1-c56cc824a4e9","system_id":"levelo_inurba_marseille","lat":43.2844,"lon":5.39185,"is_reserved":false,"is_disabled":false,"rental_uris":{"android":"levelo://app?vid=dba25020-eb6f-4854-9ae1-c56cc824a4e9","ios":"levelo://app?vid=dba25020-eb6f-4854-9ae1-c56cc824a4e9"},"vehicle_type_id":"4","last_reported":1774390792,"current_range_meters":6400,"station_id":"ce4bhoh2rcd13ifvqh5g","pricing_plan_id":"cebpf4jnsgd1na2vs0mg"},{"bike_id":"8e331d09-f777-47e4-a327-164db2e188a9","system_id":"levelo_inurba_marseille","lat":43.26568,"lon":5.40329,"is_reserved":false,"is_disabled":true,"rental_uris":{"android":"levelo://app?vid=8e331d09-f777-47e4-a327-164db2e188a9","ios":"levelo://app?vid=8e331d09-f777-47e4-a327-164db2e188a9"},"vehicle_type_id":"4","last_reported":1774390792,"current_range_meters":6400,"station_id":"ce4bhmp2rcd13ifvqgng","pricing_plan_id":"cebpf4jnsgd1na2vs0mg"},{"bike_id":"066cfe81-714d-4a28-ba8d-e13baf5bbb1b","system_id":"levelo_inurba_marseille","lat":43.27266,"lon":5.41147,"is_reserved":false,"is_disabled":false,"rental_uris":{"android":"levelo://app?vid=066cfe81-714d-4a28-ba8d-e13baf5bbb1b","ios":"levelo://app?vid=066cfe81-714d-4a28-ba8d-e13baf5bbb1b"},"vehicle_type_id":"4","last_reported":1774390792,"current_range_meters":6400,"station_id":"","pricing_plan_id":"cebpf4jnsgd1na2vs0mg"},{"bike_id":"af28f2f5-abfc-4590-b2cf-7d3d7492db13","system_id":"levelo_inurba_marseille","lat":43.24613,"lon":5.38226,"is_reserved":false,"is_disabled":false,"rental_uris":{"android":"levelo://app?vid=af28f2f5-abfc-4590-b2cf-7d3d7492db13","ios":"levelo://app?vid=af28f2f5-abfc-4590-b2cf-7d3d7492db13"},"vehicle_type_id":"4","last_reported":1774390792,"current_range_meters":6400,"station_id":"","pricing_plan_id":"cebpf4jnsgd1na2vs0mg"},{"bike_id":"92492a78-3672-4445-bf40-2206f94ab4b7","system_id":"levelo_inurba_marseille","lat":43.30413,"lon":5.39743,"is_reserved":false,"is_disabled":false,"rental_uris":{"android":"levelo://app?vid=92492a78-3672-4445-bf40-2206f94ab4b7","ios":"levelo://app?vid=92492a78-3672-4445-bf40-2206f94ab4b7"},"vehicle_type_id":"4","last_reported":1774390792,"current_range_meters":6400,"station_id":"ce4bh092rcd13ifvqd20","pricing_plan_id":"cebpf4jnsgd1na2vs0mg"},{"bike_id":"06411c2b-d0f9-4665-8144-3cdf55131f03","system_id":"levelo_inurba_marseille","lat":43.29634,"lon":5.40604,"is_reserved":false,"is_disabled":false,"rental_uris":{"android":"levelo://app?vid=06411c2b-d0f9-4665-8144-3cdf55131f03","ios":"levelo://app?vid=06411c2b-d0f9-4665-8144-3cdf55131f03"},"vehicle_type_id":"4","last_reported":1774390792,"current_range_meters":6400,"station_id":"ce4bh0h2rcd13ifvqd60","pricing_plan_id":"cebpf4jnsgd1na2vs0mg"},{"bike_id":"9723db1c-04c4-43c6-bee8-ac289f2e0c55","system_id":"levelo_inurba_marseille","lat":43.28598,"lon":5.37066,"is_reserved":false,"is_disabled":false,"rental_uris":{"android":"levelo://app?vid=9723db1c-04c4-43c6-bee8-ac289f2e0c55","ios":"levelo://app?vid=9723db1c-04c4-43c6-bee8-ac289f2e0c55"},"vehicle_type_id":"4","last_reported":1774390792,"current_range_meters":6400,"station_id":"ce4bht12rcd13ifvqi60","pricing_plan_id":"cebpf4jnsgd1na2vs0mg"},{"bike_id":"705ed374-c7e4-4970-9778-57421b22c7bc","system_id":"levelo_inurba_marseille","lat":43.27818,"lon":5.4071,"is_reserved":false,"is_disabled":false,"rental_uris":{"android":"levelo://app?vid=705ed374-c7e4-4970-9778-57421b22c7bc","ios":"levelo://app?vid=705ed374-c7e4-4970-9778-57421b22c7bc"},"vehicle_type_id":"4","last_reported":1774390792,"current_range_meters":6400,"station_id":"ce4bhnh2rcd13ifvqgtg","pricing_plan_id":"cebpf4jnsgd1na2vs0mg"},{"bike_id":"e6349eb3-2730-461c-ae14-f386689052fa","system_id":"levelo_inurba_marseille","lat":43.31624,"lon":5.37805,"is_reserved":false,"is_disabled":true,"rental_uris":{"android":"levelo://app?vid=e6349eb3-2730-461c-ae14-f386689052fa","ios":"levelo://app?vid=e6349eb3-2730-461c-ae14-f386689052fa"},"vehicle_type_id":"4","last_reported":1774390792,"current_range_meters":6400,"station_id":"","pricing_plan_id":"cebpf4jnsgd1na2vs0mg"},{"bike_id":"2fa3fb7f-1f0a-4d6e-b7e5-bfe1f8fcd964","system_id":"levelo_inurba_marseille","lat":43.25809,"lon":5.39448,"is_reserved":false,"is_disabled":false,"rental_uris":{"android":"levelo://app?vid=2fa3fb7f-1f0a-4d6e-b7e5-bfe1f8fcd964","ios":"levelo://app?vid=2fa3fb7f-1f0a-4d6e-b7e5-bfe1f8fcd964"},"vehicle_type_id":"4","last_reported":1774390792,"current_range_meters":6400,"station_id":"ce4bhip2rcd13ifvqft0","pricing_plan_id":"cebpf4jnsgd1na2vs0mg"},{"bike_id":"d09d228d-2f6a-477f-99e2-2109d7ccc63c","system_id":"levelo_inurba_marseille","lat":43.25096,"lon":5.39517,"is_reserved":false,"is_disabled":false,"rental_uris":{"android":"levelo://app?vid=d09d228d-2f6a-477f-99e2-2109d7ccc63c","ios":"levelo://app?vid=d09d228d-2f6a-477f-99e2-2109d7ccc63c"},"vehicle_type_id":"4","last_reported":1774390792,"current_range_meters":6400,"station_id":"ce4bhm12rcd13ifvqgkg","pricing_plan_id":"cebpf4jnsgd1na2vs0mg"},{"bike_id":"35bae270-5434-4e69-82a2-7081c50b37f8","system_id":"levelo_inurba_marseille","lat":43.28605,"lon":5.39897,"is_reserved":false,"is_disabled":false,"rental_uris":{"android":"levelo://app?vid=35bae270-5434-4e69-82a2-7081c50b37f8","ios":"levelo://app?vid=35bae270-5434-4e69-82a2-7081c50b37f8"},"vehicle_type_id":"4","last_reported":1774390792,"current_range_meters":6400,"station_id":"st_d4a7ka997mjs738ck50g","pricing_plan_id":"cebpf4jnsgd1na2vs0mg"},{"bike_id":"b1ceaa1d-f7d5-4f1b-b74b-3e9a13f9efeb","system_id":"levelo_inurba_marseille","lat":43.23971,"lon":5.36613,"is_reserved":false,"is_disabled":false,"rental_uris":{"android":"levelo://app?vid=b1ceaa1d-f7d5-4f1b-b74b-3e9a13f9efeb","ios":"levelo://app?vid=b1ceaa1d-f7d5-4f1b-b74b-3e9a13f9efeb"},"vehicle_type_id":"4","last_reported":1774390792,"current_range_meters":6400,"station_id":"ce4bhi12rcd13ifvqfp0","pricing_plan_id":"cebpf4jnsgd1na2vs0mg"},{"bike_id":"04696bc5-8154-4c46-9c9f-db8416a35051","system_id":"levelo_inurba_marseille","lat":43.31006,"lon":5.37226,"is_reserved":false,"is_disabled":false,"rental_uris":{"android":"levelo://app?vid=04696bc5-8154-4c46-9c9f-db8416a35051","ios":"levelo://app?vid=04696bc5-8154-4c46-9c9f-db8416a35051"},"vehicle_type_id":"4","last_reported":1774390792,"current_range_meters":6800,"station_id":"","pricing_plan_id":"cebpf4jnsgd1na2vs0mg"},{"bike_id":"0df6d16f-36d4-42c1-8335-b8a697e6bb13","system_id":"levelo_inurba_marseille","lat":43.29563,"lon":5.3753,"is_reserved":false,"is_disabled":false,"rental_uris":{"android":"levelo://app?vid=0df6d16f-36d4-42c1-8335-b8a697e6bb13","ios":"levelo://app?vid=0df6d16f-36d4-42c1-8335-b8a697e6bb13"},"vehicle_type_id":"4","last_reported":1774390792,"current_range_meters":6800,"station_id":"ce4bgh92rcd13ifvqb50","pricing_plan_id":"cebpf4jnsgd1na2vs0mg"},{"bike_id":"a14d2edd-85c5-4116-8db5-355e3fb2ddbe","system_id":"levelo_inurba_marseille","lat":43.3355,"lon":5.37456,"is_reserved":false,"is_disabled":false,"rental_uris":{"android":"levelo://app?vid=a14d2edd-85c5-4116-8db5-355e3fb2ddbe","ios":"levelo://app?vid=a14d2edd-85c5-4116-8db5-355e3fb2ddbe"},"vehicle_type_id":"4","last_reported":1774390792,"current_range_meters":6800,"station_id":"st_d46tts09ee8s73dlu43g","pricing_plan_id":"cebpf4jnsgd1na2vs0mg"},{"bike_id":"c1de2c65-0476-46cf-9ed7-7dbf07b95ee3","system_id":"levelo_inurba_marseille","lat":43.29623,"lon":5.40635,"is_reserved":false,"is_disabled":false,"rental_uris":{"android":"levelo://app?vid=c1de2c65-0476-46cf-9ed7-7dbf07b95ee3","ios":"levelo://app?vid=c1de2c65-0476-46cf-9ed7-7dbf07b95ee3"},"vehicle_type_id":"4","last_reported":1774390792,"current_range_meters":6800,"station_id":"ce4bh0h2rcd13ifvqd60","pricing_plan_id":"cebpf4jnsgd1na2vs0mg"},{"bike_id":"dffad5ff-7d58-4152-91b4-69c4f0e2e182","system_id":"levelo_inurba_marseille","lat":43.29746,"lon":5.42781,"is_reserved":false,"is_disabled":false,"rental_uris":{"android":"levelo://app?vid=dffad5ff-7d58-4152-91b4-69c4f0e2e182","ios":"levelo://app?vid=dffad5ff-7d58-4152-91b4-69c4f0e2e182"},"vehicle_type_id":"4","last_reported":1774390792,"current_range_meters":6800,"station_id":"st_d3md5207bmas73dh9klg","pricing_plan_id":"cebpf4jnsgd1na2vs0mg"},{"bike_id":"a738e86d-0de3-47ef-a6ab-51f555655c3f","system_id":"levelo_inurba_marseille","lat":43.31126,"lon":5.37761,"is_reserved":false,"is_disabled":false,"rental_uris":{"android":"levelo://app?vid=a738e86d-0de3-47ef-a6ab-51f555655c3f","ios":"levelo://app?vid=a738e86d-0de3-47ef-a6ab-51f555655c3f"},"vehicle_type_id":"4","last_reported":1774390792,"current_range_meters":6800,"station_id":"ce4bgt92rcd13ifvqcg0","pricing_plan_id":"cebpf4jnsgd1na2vs0mg"},{"bike_id":"68f77dfc-69e3-4c6a-b19f-b7e0a415acb5","system_id":"levelo_inurba_marseille","lat":43.28857,"lon":5.35849,"is_reserved":false,"is_disabled":false,"rental_uris":{"android":"levelo://app?vid=68f77dfc-69e3-4c6a-b19f-b7e0a415acb5","ios":"levelo://app?vid=68f77dfc-69e3-4c6a-b19f-b7e0a415acb5"},"vehicle_type_id":"4","last_reported":1774390792,"current_range_meters":6800,"station_id":"","pricing_plan_id":"cebpf4jnsgd1na2vs0mg"},{"bike_id":"b944e609-5e6c-418f-a8af-97899a61e0c7","system_id":"levelo_inurba_marseille","lat":43.30884,"lon":5.39635,"is_reserved":false,"is_disabled":false,"rental_uris":{"android":"levelo://app?vid=b944e609-5e6c-418f-a8af-97899a61e0c7","ios":"levelo://app?vid=b944e609-5e6c-418f-a8af-97899a61e0c7"},"vehicle_type_id":"4","last_reported":1774390792,"current_range_meters":6800,"station_id":"ce4bh012rcd13ifvqcv0","pricing_plan_id":"cebpf4jnsgd1na2vs0mg"},{"bike_id":"fe332a28-7761-474f-ad2d-b84cd0257740","system_id":"levelo_inurba_marseille","lat":43.2378,"lon":5.36632,"is_reserved":false,"is_disabled":false,"rental_uris":{"android":"levelo://app?vid=fe332a28-7761-474f-ad2d-b84cd0257740","ios":"levelo://app?vid=fe332a28-7761-474f-ad2d-b84cd0257740"},"vehicle_type_id":"4","last_reported":1774390792,"current_range_meters":6800,"station_id":"st_d3nk18o9ro0c73en2l3g","pricing_plan_id":"cebpf4jnsgd1na2vs0mg"},{"bike_id":"ab33f621-d1f1-4434-983f-0a37388ad222","system_id":"levelo_inurba_marseille","lat":43.30761,"lon":5.37173,"is_reserved":false,"is_disabled":false,"rental_uris":{"android":"levelo://app?vid=ab33f621-d1f1-4434-983f-0a37388ad222","ios":"levelo://app?vid=ab33f621-d1f1-4434-983f-0a37388ad222"},"vehicle_type_id":"4","last_reported":1774390792,"current_range_meters":6800,"station_id":"","pricing_plan_id":"cebpf4jnsgd1na2vs0mg"},{"bike_id":"f1c56b00-b60b-4025-b8e8-2645583ffac8","system_id":"levelo_inurba_marseille","lat":43.30465,"lon":5.37905,"is_reserved":false,"is_disabled":false,"rental_uris":{"android":"levelo://app?vid=f1c56b00-b60b-4025-b8e8-2645583ffac8","ios":"levelo://app?vid=f1c56b00-b60b-4025-b8e8-2645583ffac8"},"vehicle_type_id":"4","last_reported":1774390792,"current_range_meters":6800,"station_id":"ce4bgup2rcd13ifvqcn0","pricing_plan_id":"cebpf4jnsgd1na2vs0mg"},{"bike_id":"c7d9cc3b-29e7-4a7f-a93d-62932c7bb62a","system_id":"levelo_inurba_marseille","lat":43.2842,"lon":5.34983,"is_reserved":false,"is_disabled":false,"rental_uris":{"android":"levelo://app?vid=c7d9cc3b-29e7-4a7f-a93d-62932c7bb62a","ios":"levelo://app?vid=c7d9cc3b-29e7-4a7f-a93d-62932c7bb62a"},"vehicle_type_id":"4","last_reported":1774390792,"current_range_meters":6800,"station_id":"ce4bhbh2rcd13ifvqepg","pricing_plan_id":"cebpf4jnsgd1na2vs0mg"},{"bike_id":"9d29295a-778d-434c-af0f-fee5fe32917c","system_id":"levelo_inurba_marseille","lat":43.24671,"lon":5.38183,"is_reserved":false,"is_disabled":false,"rental_uris":{"android":"levelo://app?vid=9d29295a-778d-434c-af0f-fee5fe32917c","ios":"levelo://app?vid=9d29295a-778d-434c-af0f-fee5fe32917c"},"vehicle_type_id":"4","last_reported":1774390792,"current_range_meters":6800,"station_id":"ce4bhih2rcd13ifvqfr0","pricing_plan_id":"cebpf4jnsgd1na2vs0mg"},{"bike_id":"107301ff-a3ab-4eed-8839-ab5422ae13d4","system_id":"levelo_inurba_marseille","lat":43.24804,"lon":5.37428,"is_reserved":false,"is_disabled":false,"rental_uris":{"android":"levelo://app?vid=107301ff-a3ab-4eed-8839-ab5422ae13d4","ios":"levelo://app?vid=107301ff-a3ab-4eed-8839-ab5422ae13d4"},"vehicle_type_id":"4","last_reported":1774390792,"current_range_meters":6800,"station_id":"ce4bhgh2rcd13ifvqfb0","pricing_plan_id":"cebpf4jnsgd1na2vs0mg"},{"bike_id":"58da38a9-dad2-464f-a10a-fb486fca1caf","system_id":"levelo_inurba_marseille","lat":43.28248,"lon":5.40561,"is_reserved":false,"is_disabled":false,"rental_uris":{"android":"levelo://app?vid=58da38a9-dad2-464f-a10a-fb486fca1caf","ios":"levelo://app?vid=58da38a9-dad2-464f-a10a-fb486fca1caf"},"vehicle_type_id":"4","last_reported":1774390792,"current_range_meters":6800,"station_id":"","pricing_plan_id":"cebpf4jnsgd1na2vs0mg"},{"bike_id":"e51f3b8f-2277-4636-88c7-d4fed1c89dba","system_id":"levelo_inurba_marseille","lat":43.29821,"lon":5.40926,"is_reserved":false,"is_disabled":false,"rental_uris":{"android":"levelo://app?vid=e51f3b8f-2277-4636-88c7-d4fed1c89dba","ios":"levelo://app?vid=e51f3b8f-2277-4636-88c7-d4fed1c89dba"},"vehicle_type_id":"4","last_reported":1774390792,"current_range_meters":6800,"station_id":"","pricing_plan_id":"cebpf4jnsgd1na2vs0mg"},{"bike_id":"fde7c990-ea71-4125-9b7f-4cda0f7e1677","system_id":"levelo_inurba_marseille","lat":43.23792,"lon":5.36621,"is_reserved":false,"is_disabled":false,"rental_uris":{"android":"levelo://app?vid=fde7c990-ea71-4125-9b7f-4cda0f7e1677","ios":"levelo://app?vid=fde7c990-ea71-4125-9b7f-4cda0f7e1677"},"vehicle_type_id":"4","last_reported":1774390792,"current_range_meters":6800,"station_id":"st_d3nk18o9ro0c73en2l3g","pricing_plan_id":"cebpf4jnsgd1na2vs0mg"},{"bike_id":"bae6218d-76b2-49f7-a1ac-2d661366a996","system_id":"levelo_inurba_marseille","lat":43.27814,"lon":5.40708,"is_reserved":false,"is_disabled":false,"rental_uris":{"android":"levelo://app?vid=bae6218d-76b2-49f7-a1ac-2d661366a996","ios":"levelo://app?vid=bae6218d-76b2-49f7-a1ac-2d661366a996"},"vehicle_type_id":"4","last_reported":1774390792,"current_range_meters":6800,"station_id":"ce4bhnh2rcd13ifvqgtg","pricing_plan_id":"cebpf4jnsgd1na2vs0mg"},{"bike_id":"6711ca2b-9a4e-46b1-892e-1007cc2a656e","system_id":"levelo_inurba_marseille","lat":43.28548,"lon":5.44108,"is_reserved":false,"is_disabled":false,"rental_uris":{"android":"levelo://app?vid=6711ca2b-9a4e-46b1-892e-1007cc2a656e","ios":"levelo://app?vid=6711ca2b-9a4e-46b1-892e-1007cc2a656e"},"vehicle_type_id":"4","last_reported":1774390792,"current_range_meters":6800,"station_id":"st_d3j3df2ikq2c7380ej80","pricing_plan_id":"cebpf4jnsgd1na2vs0mg"},{"bike_id":"605fa132-5d33-421b-aaed-f9331f20153d","system_id":"levelo_inurba_marseille","lat":43.29027,"lon":5.38107,"is_reserved":false,"is_disabled":false,"rental_uris":{"android":"levelo://app?vid=605fa132-5d33-421b-aaed-f9331f20153d","ios":"levelo://app?vid=605fa132-5d33-421b-aaed-f9331f20153d"},"vehicle_type_id":"4","last_reported":1774390792,"current_range_meters":6800,"station_id":"ce4bh4p2rcd13ifvqe1g","pricing_plan_id":"cebpf4jnsgd1na2vs0mg"},{"bike_id":"cbb9ef95-d825-4d1c-b4a0-4b27eec53822","system_id":"levelo_inurba_marseille","lat":43.2866,"lon":5.36347,"is_reserved":false,"is_disabled":false,"rental_uris":{"android":"levelo://app?vid=cbb9ef95-d825-4d1c-b4a0-4b27eec53822","ios":"levelo://app?vid=cbb9ef95-d825-4d1c-b4a0-4b27eec53822"},"vehicle_type_id":"4","last_reported":1774390792,"current_range_meters":6800,"station_id":"ce4bhah2rcd13ifvqej0","pricing_plan_id":"cebpf4jnsgd1na2vs0mg"},{"bike_id":"e94d83da-a52c-4009-83db-8b37093608a6","system_id":"levelo_inurba_marseille","lat":43.23175,"lon":5.39984,"is_reserved":false,"is_disabled":false,"rental_uris":{"android":"levelo://app?vid=e94d83da-a52c-4009-83db-8b37093608a6","ios":"levelo://app?vid=e94d83da-a52c-4009-83db-8b37093608a6"},"vehicle_type_id":"4","last_reported":1774390792,"current_range_meters":6800,"station_id":"ce4bhn12rcd13ifvqgqg","pricing_plan_id":"cebpf4jnsgd1na2vs0mg"},{"bike_id":"5208ee98-7e4f-445b-9dbc-5d8fbec80d74","system_id":"levelo_inurba_marseille","lat":43.23382,"lon":5.41247,"is_reserved":false,"is_disabled":false,"rental_uris":{"android":"levelo://app?vid=5208ee98-7e4f-445b-9dbc-5d8fbec80d74","ios":"levelo://app?vid=5208ee98-7e4f-445b-9dbc-5d8fbec80d74"},"vehicle_type_id":"4","last_reported":1774390792,"current_range_meters":6800,"station_id":"","pricing_plan_id":"cebpf4jnsgd1na2vs0mg"},{"bike_id":"9776abc1-14f9-4360-b1c4-22280aed12f1","system_id":"levelo_inurba_marseille","lat":43.29568,"lon":5.38119,"is_reserved":false,"is_disabled":false,"rental_uris":{"android":"levelo://app?vid=9776abc1-14f9-4360-b1c4-22280aed12f1","ios":"levelo://app?vid=9776abc1-14f9-4360-b1c4-22280aed12f1"},"vehicle_type_id":"4","last_reported":1774390792,"current_range_meters":6800,"station_id":"ce4bgl12rcd13ifvqbo0","pricing_plan_id":"cebpf4jnsgd1na2vs0mg"},{"bike_id":"063baa28-1d27-4092-b393-54e2c8abdfeb","system_id":"levelo_inurba_marseille","lat":43.30634,"lon":5.4008,"is_reserved":false,"is_disabled":false,"rental_uris":{"android":"levelo://app?vid=063baa28-1d27-4092-b393-54e2c8abdfeb","ios":"levelo://app?vid=063baa28-1d27-4092-b393-54e2c8abdfeb"},"vehicle_type_id":"4","last_reported":1774390792,"current_range_meters":6800,"station_id":"ce4bh112rcd13ifvqda0","pricing_plan_id":"cebpf4jnsgd1na2vs0mg"},{"bike_id":"2159f981-c6a8-4439-bb67-1723675b05d9","system_id":"levelo_inurba_marseille","lat":43.29039,"lon":5.38647,"is_reserved":false,"is_disabled":false,"rental_uris":{"android":"levelo://app?vid=2159f981-c6a8-4439-bb67-1723675b05d9","ios":"levelo://app?vid=2159f981-c6a8-4439-bb67-1723675b05d9"},"vehicle_type_id":"4","last_reported":1774390792,"current_range_meters":7200,"station_id":"ce4bh4p2rcd13ifvqe0g","pricing_plan_id":"cebpf4jnsgd1na2vs0mg"},{"bike_id":"bb85b854-c47c-4191-a8f6-7b401c5c72ea","system_id":"levelo_inurba_marseille","lat":43.28417,"lon":5.37519,"is_reserved":false,"is_disabled":false,"rental_uris":{"android":"levelo://app?vid=bb85b854-c47c-4191-a8f6-7b401c5c72ea","ios":"levelo://app?vid=bb85b854-c47c-4191-a8f6-7b401c5c72ea"},"vehicle_type_id":"4","last_reported":1774390792,"current_range_meters":7200,"station_id":"ce4bh412rcd13ifvqds0","pricing_plan_id":"cebpf4jnsgd1na2vs0mg"},{"bike_id":"f7e664bc-8cfe-465d-9dbe-128ca982aa9c","system_id":"levelo_inurba_marseille","lat":43.25101,"lon":5.39039,"is_reserved":false,"is_disabled":false,"rental_uris":{"android":"levelo://app?vid=f7e664bc-8cfe-465d-9dbe-128ca982aa9c","ios":"levelo://app?vid=f7e664bc-8cfe-465d-9dbe-128ca982aa9c"},"vehicle_type_id":"4","last_reported":1774390792,"current_range_meters":7200,"station_id":"","pricing_plan_id":"cebpf4jnsgd1na2vs0mg"},{"bike_id":"3e359a89-6259-43ce-94e2-6783f3c71446","system_id":"levelo_inurba_marseille","lat":43.30952,"lon":5.39047,"is_reserved":false,"is_disabled":false,"rental_uris":{"android":"levelo://app?vid=3e359a89-6259-43ce-94e2-6783f3c71446","ios":"levelo://app?vid=3e359a89-6259-43ce-94e2-6783f3c71446"},"vehicle_type_id":"4","last_reported":1774390792,"current_range_meters":7200,"station_id":"ce4bgup2rcd13ifvqco0","pricing_plan_id":"cebpf4jnsgd1na2vs0mg"},{"bike_id":"445a363e-6635-4c6f-9d9b-6ed1d223c4e8","system_id":"levelo_inurba_marseille","lat":43.29562,"lon":5.43889,"is_reserved":false,"is_disabled":false,"rental_uris":{"android":"levelo://app?vid=445a363e-6635-4c6f-9d9b-6ed1d223c4e8","ios":"levelo://app?vid=445a363e-6635-4c6f-9d9b-6ed1d223c4e8"},"vehicle_type_id":"4","last_reported":1774390792,"current_range_meters":7200,"station_id":"","pricing_plan_id":"cebpf4jnsgd1na2vs0mg"},{"bike_id":"ce1ca696-5540-44ed-b207-f9acc1332d82","system_id":"levelo_inurba_marseille","lat":43.28198,"lon":5.39054,"is_reserved":false,"is_disabled":false,"rental_uris":{"android":"levelo://app?vid=ce1ca696-5540-44ed-b207-f9acc1332d82","ios":"levelo://app?vid=ce1ca696-5540-44ed-b207-f9acc1332d82"},"vehicle_type_id":"4","last_reported":1774390792,"current_range_meters":7200,"station_id":"ce4bhn92rcd13ifvqgsg","pricing_plan_id":"cebpf4jnsgd1na2vs0mg"},{"bike_id":"11e270f4-fef7-471c-9adc-54747540acc9","system_id":"levelo_inurba_marseille","lat":43.28641,"lon":5.36386,"is_reserved":false,"is_disabled":false,"rental_uris":{"android":"levelo://app?vid=11e270f4-fef7-471c-9adc-54747540acc9","ios":"levelo://app?vid=11e270f4-fef7-471c-9adc-54747540acc9"},"vehicle_type_id":"4","last_reported":1774390792,"current_range_meters":7200,"station_id":"ce4bhah2rcd13ifvqej0","pricing_plan_id":"cebpf4jnsgd1na2vs0mg"},{"bike_id":"8b5d40a1-73a5-4996-8aaa-10b91006d761","system_id":"levelo_inurba_marseille","lat":43.30646,"lon":5.40077,"is_reserved":false,"is_disabled":false,"rental_uris":{"android":"levelo://app?vid=8b5d40a1-73a5-4996-8aaa-10b91006d761","ios":"levelo://app?vid=8b5d40a1-73a5-4996-8aaa-10b91006d761"},"vehicle_type_id":"4","last_reported":1774390792,"current_range_meters":7200,"station_id":"ce4bh112rcd13ifvqda0","pricing_plan_id":"cebpf4jnsgd1na2vs0mg"},{"bike_id":"6a457767-964e-4adf-825f-575138a70ca2","system_id":"levelo_inurba_marseille","lat":43.30814,"lon":5.38136,"is_reserved":false,"is_disabled":false,"rental_uris":{"android":"levelo://app?vid=6a457767-964e-4adf-825f-575138a70ca2","ios":"levelo://app?vid=6a457767-964e-4adf-825f-575138a70ca2"},"vehicle_type_id":"4","last_reported":1774390792,"current_range_meters":7200,"station_id":"ce4bgt12rcd13ifvqce0","pricing_plan_id":"cebpf4jnsgd1na2vs0mg"},{"bike_id":"1a751648-291f-4319-a34f-249a761c3662","system_id":"levelo_inurba_marseille","lat":43.33589,"lon":5.3634,"is_reserved":false,"is_disabled":false,"rental_uris":{"android":"levelo://app?vid=1a751648-291f-4319-a34f-249a761c3662","ios":"levelo://app?vid=1a751648-291f-4319-a34f-249a761c3662"},"vehicle_type_id":"4","last_reported":1774390792,"current_range_meters":7200,"station_id":"","pricing_plan_id":"cebpf4jnsgd1na2vs0mg"},{"bike_id":"ce5344ce-4c16-4dd1-aa82-8f1e2691f17b","system_id":"levelo_inurba_marseille","lat":43.2834,"lon":5.38101,"is_reserved":false,"is_disabled":false,"rental_uris":{"android":"levelo://app?vid=ce5344ce-4c16-4dd1-aa82-8f1e2691f17b","ios":"levelo://app?vid=ce5344ce-4c16-4dd1-aa82-8f1e2691f17b"},"vehicle_type_id":"4","last_reported":1774390792,"current_range_meters":7200,"station_id":"ce4bh412rcd13ifvqdr0","pricing_plan_id":"cebpf4jnsgd1na2vs0mg"},{"bike_id":"e0996d0d-f6cf-4428-acad-fd84bac2c9fe","system_id":"levelo_inurba_marseille","lat":43.23219,"lon":5.35556,"is_reserved":false,"is_disabled":false,"rental_uris":{"android":"levelo://app?vid=e0996d0d-f6cf-4428-acad-fd84bac2c9fe","ios":"levelo://app?vid=e0996d0d-f6cf-4428-acad-fd84bac2c9fe"},"vehicle_type_id":"4","last_reported":1774390792,"current_range_meters":7200,"station_id":"ce4bhu92rcd13ifvqi70","pricing_plan_id":"cebpf4jnsgd1na2vs0mg"},{"bike_id":"7ce27239-c9be-4bf2-831d-01ce9cc7b549","system_id":"levelo_inurba_marseille","lat":43.29776,"lon":5.37106,"is_reserved":false,"is_disabled":false,"rental_uris":{"android":"levelo://app?vid=7ce27239-c9be-4bf2-831d-01ce9cc7b549","ios":"levelo://app?vid=7ce27239-c9be-4bf2-831d-01ce9cc7b549"},"vehicle_type_id":"4","last_reported":1774390792,"current_range_meters":7200,"station_id":"ce4bgop2rcd13ifvqc1g","pricing_plan_id":"cebpf4jnsgd1na2vs0mg"},{"bike_id":"136d52cc-fa0a-4a7c-bade-15efb48d4199","system_id":"levelo_inurba_marseille","lat":43.30203,"lon":5.39499,"is_reserved":false,"is_disabled":false,"rental_uris":{"android":"levelo://app?vid=136d52cc-fa0a-4a7c-bade-15efb48d4199","ios":"levelo://app?vid=136d52cc-fa0a-4a7c-bade-15efb48d4199"},"vehicle_type_id":"4","last_reported":1774390792,"current_range_meters":7200,"station_id":"ce4bh0p2rcd13ifvqd70","pricing_plan_id":"cebpf4jnsgd1na2vs0mg"},{"bike_id":"cbe143e8-3e8d-46c8-8239-3389a4661d28","system_id":"levelo_inurba_marseille","lat":43.30313,"lon":5.36912,"is_reserved":false,"is_disabled":false,"rental_uris":{"android":"levelo://app?vid=cbe143e8-3e8d-46c8-8239-3389a4661d28","ios":"levelo://app?vid=cbe143e8-3e8d-46c8-8239-3389a4661d28"},"vehicle_type_id":"4","last_reported":1774390792,"current_range_meters":7200,"station_id":"ce4bgqh2rcd13ifvqc5g","pricing_plan_id":"cebpf4jnsgd1na2vs0mg"},{"bike_id":"7b6d5c55-18aa-457c-b87d-7fdf8f9076cc","system_id":"levelo_inurba_marseille","lat":43.23894,"lon":5.37446,"is_reserved":false,"is_disabled":false,"rental_uris":{"android":"levelo://app?vid=7b6d5c55-18aa-457c-b87d-7fdf8f9076cc","ios":"levelo://app?vid=7b6d5c55-18aa-457c-b87d-7fdf8f9076cc"},"vehicle_type_id":"4","last_reported":1774390792,"current_range_meters":7200,"station_id":"st_d6sm7csbq4hs73f8fpjg","pricing_plan_id":"cebpf4jnsgd1na2vs0mg"},{"bike_id":"52525216-4854-4520-880f-f19bec71c920","system_id":"levelo_inurba_marseille","lat":43.27819,"lon":5.40702,"is_reserved":false,"is_disabled":false,"rental_uris":{"android":"levelo://app?vid=52525216-4854-4520-880f-f19bec71c920","ios":"levelo://app?vid=52525216-4854-4520-880f-f19bec71c920"},"vehicle_type_id":"4","last_reported":1774390792,"current_range_meters":8000,"station_id":"ce4bhnh2rcd13ifvqgtg","pricing_plan_id":"cebpf4jnsgd1na2vs0mg"},{"bike_id":"22a24422-8367-44e3-afc2-fd1672c2c7f5","system_id":"levelo_inurba_marseille","lat":43.28477,"lon":5.484,"is_reserved":false,"is_disabled":false,"rental_uris":{"android":"levelo://app?vid=22a24422-8367-44e3-afc2-fd1672c2c7f5","ios":"levelo://app?vid=22a24422-8367-44e3-afc2-fd1672c2c7f5"},"vehicle_type_id":"4","last_reported":1774390792,"current_range_meters":8000,"station_id":"","pricing_plan_id":"cebpf4jnsgd1na2vs0mg"},{"bike_id":"c0b689e5-350b-4835-a209-95a8604ec264","system_id":"levelo_inurba_marseille","lat":43.27415,"lon":5.39409,"is_reserved":false,"is_disabled":true,"rental_uris":{"android":"levelo://app?vid=c0b689e5-350b-4835-a209-95a8604ec264","ios":"levelo://app?vid=c0b689e5-350b-4835-a209-95a8604ec264"},"vehicle_type_id":"4","last_reported":1774390792,"current_range_meters":8000,"station_id":"ce4bhdp2rcd13ifvqf20","pricing_plan_id":"cebpf4jnsgd1na2vs0mg"},{"bike_id":"aa929685-e4dd-4a31-a1c6-979463fa81a3","system_id":"levelo_inurba_marseille","lat":43.28477,"lon":5.48406,"is_reserved":false,"is_disabled":false,"rental_uris":{"android":"levelo://app?vid=aa929685-e4dd-4a31-a1c6-979463fa81a3","ios":"levelo://app?vid=aa929685-e4dd-4a31-a1c6-979463fa81a3"},"vehicle_type_id":"4","last_reported":1774390792,"current_range_meters":8000,"station_id":"st_d3svhcjqgbts73a3dn0g","pricing_plan_id":"cebpf4jnsgd1na2vs0mg"},{"bike_id":"62c0eda8-c666-40c1-b62d-71242266f316","system_id":"levelo_inurba_marseille","lat":43.28441,"lon":5.39181,"is_reserved":false,"is_disabled":true,"rental_uris":{"android":"levelo://app?vid=62c0eda8-c666-40c1-b62d-71242266f316","ios":"levelo://app?vid=62c0eda8-c666-40c1-b62d-71242266f316"},"vehicle_type_id":"4","last_reported":1774390792,"current_range_meters":8000,"station_id":"ce4bhoh2rcd13ifvqh5g","pricing_plan_id":"cebpf4jnsgd1na2vs0mg"},{"bike_id":"3074c978-0473-4ace-92c4-df6fec6e4eed","system_id":"levelo_inurba_marseille","lat":43.27612,"lon":5.36115,"is_reserved":false,"is_disabled":false,"rental_uris":{"android":"levelo://app?vid=3074c978-0473-4ace-92c4-df6fec6e4eed","ios":"levelo://app?vid=3074c978-0473-4ace-92c4-df6fec6e4eed"},"vehicle_type_id":"4","last_reported":1774390792,"current_range_meters":8000,"station_id":"ce4bgj92rcd13ifvqbe0","pricing_plan_id":"cebpf4jnsgd1na2vs0mg"},{"bike_id":"74d09088-df0d-4d2f-9102-a4003960d0b6","system_id":"levelo_inurba_marseille","lat":43.30526,"lon":5.36713,"is_reserved":false,"is_disabled":false,"rental_uris":{"android":"levelo://app?vid=74d09088-df0d-4d2f-9102-a4003960d0b6","ios":"levelo://app?vid=74d09088-df0d-4d2f-9102-a4003960d0b6"},"vehicle_type_id":"4","last_reported":1774390792,"current_range_meters":8000,"station_id":"ce4bgrp2rcd13ifvqc9g","pricing_plan_id":"cebpf4jnsgd1na2vs0mg"},{"bike_id":"a83d5f36-c969-4ea3-8581-ea1fd7b9e5f4","system_id":"levelo_inurba_marseille","lat":43.286167,"lon":5.351076,"is_reserved":false,"is_disabled":false,"rental_uris":{"android":"levelo://app?vid=a83d5f36-c969-4ea3-8581-ea1fd7b9e5f4","ios":"levelo://app?vid=a83d5f36-c969-4ea3-8581-ea1fd7b9e5f4"},"vehicle_type_id":"4","last_reported":1774390792,"current_range_meters":8000,"station_id":"ce4bhch2rcd13ifvqeug","pricing_plan_id":"cebpf4jnsgd1na2vs0mg"},{"bike_id":"0467a61b-3c6c-4519-8ae2-ab7b582ec154","system_id":"levelo_inurba_marseille","lat":43.24635,"lon":5.38909,"is_reserved":false,"is_disabled":false,"rental_uris":{"android":"levelo://app?vid=0467a61b-3c6c-4519-8ae2-ab7b582ec154","ios":"levelo://app?vid=0467a61b-3c6c-4519-8ae2-ab7b582ec154"},"vehicle_type_id":"4","last_reported":1774390792,"current_range_meters":8000,"station_id":"ce4bhg12rcd13ifvqf60","pricing_plan_id":"cebpf4jnsgd1na2vs0mg"},{"bike_id":"33d690ea-2224-41d6-9053-095cd784a885","system_id":"levelo_inurba_marseille","lat":43.287407,"lon":5.365334,"is_reserved":false,"is_disabled":false,"rental_uris":{"android":"levelo://app?vid=33d690ea-2224-41d6-9053-095cd784a885","ios":"levelo://app?vid=33d690ea-2224-41d6-9053-095cd784a885"},"vehicle_type_id":"4","last_reported":1774390792,"current_range_meters":8000,"station_id":"ce4bhah2rcd13ifvqej0","pricing_plan_id":"cebpf4jnsgd1na2vs0mg"},{"bike_id":"10da4574-f2d9-4ae1-91ba-9a914cc4e851","system_id":"levelo_inurba_marseille","lat":43.23883,"lon":5.37447,"is_reserved":false,"is_disabled":false,"rental_uris":{"android":"levelo://app?vid=10da4574-f2d9-4ae1-91ba-9a914cc4e851","ios":"levelo://app?vid=10da4574-f2d9-4ae1-91ba-9a914cc4e851"},"vehicle_type_id":"4","last_reported":1774390792,"current_range_meters":8000,"station_id":"st_d6sm7csbq4hs73f8fpjg","pricing_plan_id":"cebpf4jnsgd1na2vs0mg"},{"bike_id":"46088d7c-5c89-4b44-9651-3d7ccfe8a818","system_id":"levelo_inurba_marseille","lat":43.30597,"lon":5.37193,"is_reserved":false,"is_disabled":false,"rental_uris":{"android":"levelo://app?vid=46088d7c-5c89-4b44-9651-3d7ccfe8a818","ios":"levelo://app?vid=46088d7c-5c89-4b44-9651-3d7ccfe8a818"},"vehicle_type_id":"4","last_reported":1774390792,"current_range_meters":8000,"station_id":"ce4bgqh2rcd13ifvqc4g","pricing_plan_id":"cebpf4jnsgd1na2vs0mg"},{"bike_id":"8c7ce2ac-36a4-4d74-9f4d-c3062a5fb5dd","system_id":"levelo_inurba_marseille","lat":43.24951,"lon":5.40487,"is_reserved":false,"is_disabled":false,"rental_uris":{"android":"levelo://app?vid=8c7ce2ac-36a4-4d74-9f4d-c3062a5fb5dd","ios":"levelo://app?vid=8c7ce2ac-36a4-4d74-9f4d-c3062a5fb5dd"},"vehicle_type_id":"4","last_reported":1774390792,"current_range_meters":8000,"station_id":"st_d2ngiaodas8pm72gd1h0","pricing_plan_id":"cebpf4jnsgd1na2vs0mg"},{"bike_id":"8bae53a5-7900-4843-92d8-25d6b0a2ed38","system_id":"levelo_inurba_marseille","lat":43.30788,"lon":5.37647,"is_reserved":false,"is_disabled":false,"rental_uris":{"android":"levelo://app?vid=8bae53a5-7900-4843-92d8-25d6b0a2ed38","ios":"levelo://app?vid=8bae53a5-7900-4843-92d8-25d6b0a2ed38"},"vehicle_type_id":"4","last_reported":1774390792,"current_range_meters":8000,"station_id":"ce4bgv92rcd13ifvqcq0","pricing_plan_id":"cebpf4jnsgd1na2vs0mg"},{"bike_id":"9e6209c2-8d1d-42b3-b60a-1dbb8e1406fe","system_id":"levelo_inurba_marseille","lat":43.33149,"lon":5.377,"is_reserved":false,"is_disabled":false,"rental_uris":{"android":"levelo://app?vid=9e6209c2-8d1d-42b3-b60a-1dbb8e1406fe","ios":"levelo://app?vid=9e6209c2-8d1d-42b3-b60a-1dbb8e1406fe"},"vehicle_type_id":"4","last_reported":1774390792,"current_range_meters":8000,"station_id":"st_d46cu089ee8s73dldbu0","pricing_plan_id":"cebpf4jnsgd1na2vs0mg"},{"bike_id":"17a8706e-1e75-4bad-bc2e-fdc67b9068be","system_id":"levelo_inurba_marseille","lat":43.31315,"lon":5.39695,"is_reserved":false,"is_disabled":false,"rental_uris":{"android":"levelo://app?vid=17a8706e-1e75-4bad-bc2e-fdc67b9068be","ios":"levelo://app?vid=17a8706e-1e75-4bad-bc2e-fdc67b9068be"},"vehicle_type_id":"4","last_reported":1774390792,"current_range_meters":8000,"station_id":"ce4bgvp2rcd13ifvqcu0","pricing_plan_id":"cebpf4jnsgd1na2vs0mg"},{"bike_id":"2672b27f-06ac-4343-b9e7-9f9b166f9c87","system_id":"levelo_inurba_marseille","lat":43.30243,"lon":5.40029,"is_reserved":false,"is_disabled":false,"rental_uris":{"android":"levelo://app?vid=2672b27f-06ac-4343-b9e7-9f9b166f9c87","ios":"levelo://app?vid=2672b27f-06ac-4343-b9e7-9f9b166f9c87"},"vehicle_type_id":"4","last_reported":1774390792,"current_range_meters":8000,"station_id":"ce4bgvh2rcd13ifvqcs0","pricing_plan_id":"cebpf4jnsgd1na2vs0mg"},{"bike_id":"8d8566de-f03a-4e5e-aa8c-ad2e3c17ab03","system_id":"levelo_inurba_marseille","lat":43.31547,"lon":5.37281,"is_reserved":false,"is_disabled":false,"rental_uris":{"android":"levelo://app?vid=8d8566de-f03a-4e5e-aa8c-ad2e3c17ab03","ios":"levelo://app?vid=8d8566de-f03a-4e5e-aa8c-ad2e3c17ab03"},"vehicle_type_id":"4","last_reported":1774390792,"current_range_meters":8000,"station_id":"","pricing_plan_id":"cebpf4jnsgd1na2vs0mg"},{"bike_id":"875063f8-c637-45b8-8964-8222489d351d","system_id":"levelo_inurba_marseille","lat":43.28398,"lon":5.37507,"is_reserved":false,"is_disabled":false,"rental_uris":{"android":"levelo://app?vid=875063f8-c637-45b8-8964-8222489d351d","ios":"levelo://app?vid=875063f8-c637-45b8-8964-8222489d351d"},"vehicle_type_id":"4","last_reported":1774390792,"current_range_meters":8000,"station_id":"ce4bh412rcd13ifvqds0","pricing_plan_id":"cebpf4jnsgd1na2vs0mg"},{"bike_id":"a946788c-036a-471d-800a-79bcb05eefc2","system_id":"levelo_inurba_marseille","lat":43.2849,"lon":5.38412,"is_reserved":false,"is_disabled":false,"rental_uris":{"android":"levelo://app?vid=a946788c-036a-471d-800a-79bcb05eefc2","ios":"levelo://app?vid=a946788c-036a-471d-800a-79bcb05eefc2"},"vehicle_type_id":"4","last_reported":1774390792,"current_range_meters":8000,"station_id":"ce4bh512rcd13ifvqe3g","pricing_plan_id":"cebpf4jnsgd1na2vs0mg"},{"bike_id":"715aaeb5-0d16-47e0-ba84-f56328a24f5b","system_id":"levelo_inurba_marseille","lat":43.29888,"lon":5.43658,"is_reserved":false,"is_disabled":false,"rental_uris":{"android":"levelo://app?vid=715aaeb5-0d16-47e0-ba84-f56328a24f5b","ios":"levelo://app?vid=715aaeb5-0d16-47e0-ba84-f56328a24f5b"},"vehicle_type_id":"4","last_reported":1774390792,"current_range_meters":8400,"station_id":"ce4bhpp2rcd13ifvqhfg","pricing_plan_id":"cebpf4jnsgd1na2vs0mg"},{"bike_id":"ccf5f660-4656-4e00-8b91-4a8c6e08442b","system_id":"levelo_inurba_marseille","lat":43.30651,"lon":5.4008,"is_reserved":false,"is_disabled":false,"rental_uris":{"android":"levelo://app?vid=ccf5f660-4656-4e00-8b91-4a8c6e08442b","ios":"levelo://app?vid=ccf5f660-4656-4e00-8b91-4a8c6e08442b"},"vehicle_type_id":"4","last_reported":1774390792,"current_range_meters":8400,"station_id":"ce4bh112rcd13ifvqda0","pricing_plan_id":"cebpf4jnsgd1na2vs0mg"},{"bike_id":"a925be4f-af4d-4c6c-804d-cf6aef5dd66c","system_id":"levelo_inurba_marseille","lat":43.3111,"lon":5.37773,"is_reserved":false,"is_disabled":false,"rental_uris":{"android":"levelo://app?vid=a925be4f-af4d-4c6c-804d-cf6aef5dd66c","ios":"levelo://app?vid=a925be4f-af4d-4c6c-804d-cf6aef5dd66c"},"vehicle_type_id":"4","last_reported":1774390792,"current_range_meters":8400,"station_id":"ce4bgt92rcd13ifvqcg0","pricing_plan_id":"cebpf4jnsgd1na2vs0mg"},{"bike_id":"992d461f-8839-4086-b27a-9edc1d38b03d","system_id":"levelo_inurba_marseille","lat":43.33547,"lon":5.3746,"is_reserved":false,"is_disabled":false,"rental_uris":{"android":"levelo://app?vid=992d461f-8839-4086-b27a-9edc1d38b03d","ios":"levelo://app?vid=992d461f-8839-4086-b27a-9edc1d38b03d"},"vehicle_type_id":"4","last_reported":1774390792,"current_range_meters":8400,"station_id":"st_d46tts09ee8s73dlu43g","pricing_plan_id":"cebpf4jnsgd1na2vs0mg"},{"bike_id":"c183ea56-6995-4ab9-9d2b-e07807bdb413","system_id":"levelo_inurba_marseille","lat":43.2865,"lon":5.3636,"is_reserved":false,"is_disabled":false,"rental_uris":{"android":"levelo://app?vid=c183ea56-6995-4ab9-9d2b-e07807bdb413","ios":"levelo://app?vid=c183ea56-6995-4ab9-9d2b-e07807bdb413"},"vehicle_type_id":"4","last_reported":1774390792,"current_range_meters":8400,"station_id":"ce4bhah2rcd13ifvqej0","pricing_plan_id":"cebpf4jnsgd1na2vs0mg"},{"bike_id":"13f9f031-67ea-407a-a66e-c4b749576cd4","system_id":"levelo_inurba_marseille","lat":43.23929,"lon":5.36663,"is_reserved":false,"is_disabled":false,"rental_uris":{"android":"levelo://app?vid=13f9f031-67ea-407a-a66e-c4b749576cd4","ios":"levelo://app?vid=13f9f031-67ea-407a-a66e-c4b749576cd4"},"vehicle_type_id":"4","last_reported":1774390792,"current_range_meters":8400,"station_id":"ce4bhi12rcd13ifvqfp0","pricing_plan_id":"cebpf4jnsgd1na2vs0mg"},{"bike_id":"bee48866-5a48-4149-ade9-68f00a92c3e4","system_id":"levelo_inurba_marseille","lat":43.29647,"lon":5.3776,"is_reserved":false,"is_disabled":false,"rental_uris":{"android":"levelo://app?vid=bee48866-5a48-4149-ade9-68f00a92c3e4","ios":"levelo://app?vid=bee48866-5a48-4149-ade9-68f00a92c3e4"},"vehicle_type_id":"4","last_reported":1774390792,"current_range_meters":8400,"station_id":"ce4bgi92rcd13ifvqb90","pricing_plan_id":"cebpf4jnsgd1na2vs0mg"},{"bike_id":"6a209565-16db-4aba-85c7-7097837dcc24","system_id":"levelo_inurba_marseille","lat":43.24174,"lon":5.36403,"is_reserved":false,"is_disabled":false,"rental_uris":{"android":"levelo://app?vid=6a209565-16db-4aba-85c7-7097837dcc24","ios":"levelo://app?vid=6a209565-16db-4aba-85c7-7097837dcc24"},"vehicle_type_id":"4","last_reported":1774390792,"current_range_meters":8400,"station_id":"cpo36qri1sfpv3e86is0","pricing_plan_id":"cebpf4jnsgd1na2vs0mg"},{"bike_id":"489b1f47-9bf9-4f10-90f5-3b4dff230700","system_id":"levelo_inurba_marseille","lat":43.23785,"lon":5.36618,"is_reserved":false,"is_disabled":false,"rental_uris":{"android":"levelo://app?vid=489b1f47-9bf9-4f10-90f5-3b4dff230700","ios":"levelo://app?vid=489b1f47-9bf9-4f10-90f5-3b4dff230700"},"vehicle_type_id":"4","last_reported":1774390792,"current_range_meters":8400,"station_id":"st_d3nk18o9ro0c73en2l3g","pricing_plan_id":"cebpf4jnsgd1na2vs0mg"},{"bike_id":"9b358e2d-16b7-4dac-973f-42e61ae3043a","system_id":"levelo_inurba_marseille","lat":43.30891,"lon":5.39619,"is_reserved":false,"is_disabled":false,"rental_uris":{"android":"levelo://app?vid=9b358e2d-16b7-4dac-973f-42e61ae3043a","ios":"levelo://app?vid=9b358e2d-16b7-4dac-973f-42e61ae3043a"},"vehicle_type_id":"4","last_reported":1774390792,"current_range_meters":8400,"station_id":"ce4bh012rcd13ifvqcv0","pricing_plan_id":"cebpf4jnsgd1na2vs0mg"},{"bike_id":"edb49fff-b654-4e99-95c8-bfa9c3753f89","system_id":"levelo_inurba_marseille","lat":43.2292,"lon":5.35407,"is_reserved":false,"is_disabled":false,"rental_uris":{"android":"levelo://app?vid=edb49fff-b654-4e99-95c8-bfa9c3753f89","ios":"levelo://app?vid=edb49fff-b654-4e99-95c8-bfa9c3753f89"},"vehicle_type_id":"4","last_reported":1774390792,"current_range_meters":8400,"station_id":"cpo3532slgdg3j2ikp40","pricing_plan_id":"cebpf4jnsgd1na2vs0mg"},{"bike_id":"93cebdd1-30e6-468f-a0fc-fd387c0c05d1","system_id":"levelo_inurba_marseille","lat":43.24347,"lon":5.41211,"is_reserved":false,"is_disabled":false,"rental_uris":{"android":"levelo://app?vid=93cebdd1-30e6-468f-a0fc-fd387c0c05d1","ios":"levelo://app?vid=93cebdd1-30e6-468f-a0fc-fd387c0c05d1"},"vehicle_type_id":"4","last_reported":1774390792,"current_range_meters":8400,"station_id":"","pricing_plan_id":"cebpf4jnsgd1na2vs0mg"},{"bike_id":"0eb34252-e709-4308-b510-246d6ada0455","system_id":"levelo_inurba_marseille","lat":43.31217,"lon":5.36854,"is_reserved":false,"is_disabled":false,"rental_uris":{"android":"levelo://app?vid=0eb34252-e709-4308-b510-246d6ada0455","ios":"levelo://app?vid=0eb34252-e709-4308-b510-246d6ada0455"},"vehicle_type_id":"4","last_reported":1774390792,"current_range_meters":8400,"station_id":"ce4bgl92rcd13ifvqbq0","pricing_plan_id":"cebpf4jnsgd1na2vs0mg"},{"bike_id":"ef18859a-6eff-4988-ae0d-a0b715efe1eb","system_id":"levelo_inurba_marseille","lat":43.30801,"lon":5.38155,"is_reserved":false,"is_disabled":false,"rental_uris":{"android":"levelo://app?vid=ef18859a-6eff-4988-ae0d-a0b715efe1eb","ios":"levelo://app?vid=ef18859a-6eff-4988-ae0d-a0b715efe1eb"},"vehicle_type_id":"4","last_reported":1774390792,"current_range_meters":8400,"station_id":"ce4bgt12rcd13ifvqce0","pricing_plan_id":"cebpf4jnsgd1na2vs0mg"},{"bike_id":"17603604-4058-452c-b237-b0fb5d39625d","system_id":"levelo_inurba_marseille","lat":43.25485,"lon":5.37643,"is_reserved":false,"is_disabled":false,"rental_uris":{"android":"levelo://app?vid=17603604-4058-452c-b237-b0fb5d39625d","ios":"levelo://app?vid=17603604-4058-452c-b237-b0fb5d39625d"},"vehicle_type_id":"4","last_reported":1774390792,"current_range_meters":8400,"station_id":"ce4bhh12rcd13ifvqff0","pricing_plan_id":"cebpf4jnsgd1na2vs0mg"},{"bike_id":"c1e92c70-aede-452c-8e8c-6914c0324e0c","system_id":"levelo_inurba_marseille","lat":43.29035,"lon":5.35916,"is_reserved":false,"is_disabled":true,"rental_uris":{"android":"levelo://app?vid=c1e92c70-aede-452c-8e8c-6914c0324e0c","ios":"levelo://app?vid=c1e92c70-aede-452c-8e8c-6914c0324e0c"},"vehicle_type_id":"4","last_reported":1774390792,"current_range_meters":8400,"station_id":"ce4bha92rcd13ifvqeg0","pricing_plan_id":"cebpf4jnsgd1na2vs0mg"},{"bike_id":"ad3f3d88-4463-474b-802d-6cff79eea73f","system_id":"levelo_inurba_marseille","lat":43.24645,"lon":5.38904,"is_reserved":false,"is_disabled":false,"rental_uris":{"android":"levelo://app?vid=ad3f3d88-4463-474b-802d-6cff79eea73f","ios":"levelo://app?vid=ad3f3d88-4463-474b-802d-6cff79eea73f"},"vehicle_type_id":"4","last_reported":1774390792,"current_range_meters":8400,"station_id":"ce4bhg12rcd13ifvqf60","pricing_plan_id":"cebpf4jnsgd1na2vs0mg"},{"bike_id":"4324d875-5537-4332-89e0-4f0dda2e23b5","system_id":"levelo_inurba_marseille","lat":43.24466,"lon":5.42536,"is_reserved":false,"is_disabled":false,"rental_uris":{"android":"levelo://app?vid=4324d875-5537-4332-89e0-4f0dda2e23b5","ios":"levelo://app?vid=4324d875-5537-4332-89e0-4f0dda2e23b5"},"vehicle_type_id":"4","last_reported":1774390792,"current_range_meters":8400,"station_id":"st_d4a3vfp97mjs738cd8kg","pricing_plan_id":"cebpf4jnsgd1na2vs0mg"},{"bike_id":"6dd3e844-6ffc-4bd4-a560-7f08d4f07161","system_id":"levelo_inurba_marseille","lat":43.30466,"lon":5.37904,"is_reserved":false,"is_disabled":false,"rental_uris":{"android":"levelo://app?vid=6dd3e844-6ffc-4bd4-a560-7f08d4f07161","ios":"levelo://app?vid=6dd3e844-6ffc-4bd4-a560-7f08d4f07161"},"vehicle_type_id":"4","last_reported":1774390792,"current_range_meters":8400,"station_id":"ce4bgup2rcd13ifvqcn0","pricing_plan_id":"cebpf4jnsgd1na2vs0mg"},{"bike_id":"e5e66389-b179-4527-8fef-169bdc244df2","system_id":"levelo_inurba_marseille","lat":43.29573,"lon":5.39958,"is_reserved":false,"is_disabled":false,"rental_uris":{"android":"levelo://app?vid=e5e66389-b179-4527-8fef-169bdc244df2","ios":"levelo://app?vid=e5e66389-b179-4527-8fef-169bdc244df2"},"vehicle_type_id":"4","last_reported":1774390792,"current_range_meters":8800,"station_id":"ce4bh312rcd13ifvqdj0","pricing_plan_id":"cebpf4jnsgd1na2vs0mg"},{"bike_id":"da6972b3-b161-480b-8ef0-1ff556fc7299","system_id":"levelo_inurba_marseille","lat":43.23829,"lon":5.36678,"is_reserved":false,"is_disabled":false,"rental_uris":{"android":"levelo://app?vid=da6972b3-b161-480b-8ef0-1ff556fc7299","ios":"levelo://app?vid=da6972b3-b161-480b-8ef0-1ff556fc7299"},"vehicle_type_id":"4","last_reported":1774390792,"current_range_meters":8800,"station_id":"","pricing_plan_id":"cebpf4jnsgd1na2vs0mg"},{"bike_id":"02ac24c3-a223-4e0c-9504-f595a2bed021","system_id":"levelo_inurba_marseille","lat":43.29247,"lon":5.40912,"is_reserved":false,"is_disabled":false,"rental_uris":{"android":"levelo://app?vid=02ac24c3-a223-4e0c-9504-f595a2bed021","ios":"levelo://app?vid=02ac24c3-a223-4e0c-9504-f595a2bed021"},"vehicle_type_id":"4","last_reported":1774390792,"current_range_meters":8800,"station_id":"ce4bh192rcd13ifvqdc0","pricing_plan_id":"cebpf4jnsgd1na2vs0mg"},{"bike_id":"21a45244-c1c4-423b-9d37-4deb92a4a9b7","system_id":"levelo_inurba_marseille","lat":43.31061,"lon":5.37117,"is_reserved":false,"is_disabled":false,"rental_uris":{"android":"levelo://app?vid=21a45244-c1c4-423b-9d37-4deb92a4a9b7","ios":"levelo://app?vid=21a45244-c1c4-423b-9d37-4deb92a4a9b7"},"vehicle_type_id":"4","last_reported":1774390792,"current_range_meters":8800,"station_id":"st_d4kl2rp97mjs73e7tdfg","pricing_plan_id":"cebpf4jnsgd1na2vs0mg"},{"bike_id":"d975341b-676a-49cc-9e48-efa05a85e18a","system_id":"levelo_inurba_marseille","lat":43.30088,"lon":5.39116,"is_reserved":false,"is_disabled":false,"rental_uris":{"android":"levelo://app?vid=d975341b-676a-49cc-9e48-efa05a85e18a","ios":"levelo://app?vid=d975341b-676a-49cc-9e48-efa05a85e18a"},"vehicle_type_id":"4","last_reported":1774390792,"current_range_meters":8800,"station_id":"ce4bh192rcd13ifvqdb0","pricing_plan_id":"cebpf4jnsgd1na2vs0mg"},{"bike_id":"168ccf17-3133-4472-85a2-824035dc8266","system_id":"levelo_inurba_marseille","lat":43.22915,"lon":5.3541,"is_reserved":false,"is_disabled":false,"rental_uris":{"android":"levelo://app?vid=168ccf17-3133-4472-85a2-824035dc8266","ios":"levelo://app?vid=168ccf17-3133-4472-85a2-824035dc8266"},"vehicle_type_id":"4","last_reported":1774390792,"current_range_meters":8800,"station_id":"cpo3532slgdg3j2ikp40","pricing_plan_id":"cebpf4jnsgd1na2vs0mg"},{"bike_id":"adaf8e00-ca2c-49b5-9b35-6749da32aa87","system_id":"levelo_inurba_marseille","lat":43.33557,"lon":5.3746,"is_reserved":false,"is_disabled":false,"rental_uris":{"android":"levelo://app?vid=adaf8e00-ca2c-49b5-9b35-6749da32aa87","ios":"levelo://app?vid=adaf8e00-ca2c-49b5-9b35-6749da32aa87"},"vehicle_type_id":"4","last_reported":1774390792,"current_range_meters":8800,"station_id":"st_d46tts09ee8s73dlu43g","pricing_plan_id":"cebpf4jnsgd1na2vs0mg"},{"bike_id":"d6ff709b-527c-499b-bc4e-f4b1b46d6753","system_id":"levelo_inurba_marseille","lat":43.31326,"lon":5.39685,"is_reserved":false,"is_disabled":false,"rental_uris":{"android":"levelo://app?vid=d6ff709b-527c-499b-bc4e-f4b1b46d6753","ios":"levelo://app?vid=d6ff709b-527c-499b-bc4e-f4b1b46d6753"},"vehicle_type_id":"4","last_reported":1774390792,"current_range_meters":8800,"station_id":"ce4bgvp2rcd13ifvqcu0","pricing_plan_id":"cebpf4jnsgd1na2vs0mg"},{"bike_id":"0d489b01-590f-434e-9649-624f92bba9bb","system_id":"levelo_inurba_marseille","lat":43.23218,"lon":5.35547,"is_reserved":false,"is_disabled":false,"rental_uris":{"android":"levelo://app?vid=0d489b01-590f-434e-9649-624f92bba9bb","ios":"levelo://app?vid=0d489b01-590f-434e-9649-624f92bba9bb"},"vehicle_type_id":"4","last_reported":1774390792,"current_range_meters":8800,"station_id":"ce4bhu92rcd13ifvqi70","pricing_plan_id":"cebpf4jnsgd1na2vs0mg"},{"bike_id":"866b1c87-edf5-40a8-8ca0-c6aceda22bb3","system_id":"levelo_inurba_marseille","lat":43.27917,"lon":5.3957,"is_reserved":false,"is_disabled":true,"rental_uris":{"android":"levelo://app?vid=866b1c87-edf5-40a8-8ca0-c6aceda22bb3","ios":"levelo://app?vid=866b1c87-edf5-40a8-8ca0-c6aceda22bb3"},"vehicle_type_id":"4","last_reported":1774390792,"current_range_meters":8800,"station_id":"ce4bhf92rcd13ifvqf40","pricing_plan_id":"cebpf4jnsgd1na2vs0mg"},{"bike_id":"81afbade-9b61-4865-965d-d9c81a599521","system_id":"levelo_inurba_marseille","lat":43.23779,"lon":5.36628,"is_reserved":false,"is_disabled":false,"rental_uris":{"android":"levelo://app?vid=81afbade-9b61-4865-965d-d9c81a599521","ios":"levelo://app?vid=81afbade-9b61-4865-965d-d9c81a599521"},"vehicle_type_id":"4","last_reported":1774390792,"current_range_meters":8800,"station_id":"st_d3nk18o9ro0c73en2l3g","pricing_plan_id":"cebpf4jnsgd1na2vs0mg"},{"bike_id":"331e477d-e9f4-43fd-9723-1e80bdbc0255","system_id":"levelo_inurba_marseille","lat":43.30363,"lon":5.39809,"is_reserved":false,"is_disabled":false,"rental_uris":{"android":"levelo://app?vid=331e477d-e9f4-43fd-9723-1e80bdbc0255","ios":"levelo://app?vid=331e477d-e9f4-43fd-9723-1e80bdbc0255"},"vehicle_type_id":"4","last_reported":1774390792,"current_range_meters":8800,"station_id":"","pricing_plan_id":"cebpf4jnsgd1na2vs0mg"},{"bike_id":"780d6412-f267-4da6-9e69-c114c1347123","system_id":"levelo_inurba_marseille","lat":43.2623,"lon":5.4046,"is_reserved":false,"is_disabled":false,"rental_uris":{"android":"levelo://app?vid=780d6412-f267-4da6-9e69-c114c1347123","ios":"levelo://app?vid=780d6412-f267-4da6-9e69-c114c1347123"},"vehicle_type_id":"4","last_reported":1774390792,"current_range_meters":8800,"station_id":"ce4bhmh2rcd13ifvqgmg","pricing_plan_id":"cebpf4jnsgd1na2vs0mg"},{"bike_id":"2f430c62-15bb-430c-969c-56b5339d66a3","system_id":"levelo_inurba_marseille","lat":43.28527,"lon":5.44103,"is_reserved":false,"is_disabled":false,"rental_uris":{"android":"levelo://app?vid=2f430c62-15bb-430c-969c-56b5339d66a3","ios":"levelo://app?vid=2f430c62-15bb-430c-969c-56b5339d66a3"},"vehicle_type_id":"4","last_reported":1774390792,"current_range_meters":8800,"station_id":"st_d3j3df2ikq2c7380ej80","pricing_plan_id":"cebpf4jnsgd1na2vs0mg"},{"bike_id":"8d55540b-3918-4aa9-b8c3-e70632535bd8","system_id":"levelo_inurba_marseille","lat":43.28452,"lon":5.35888,"is_reserved":false,"is_disabled":false,"rental_uris":{"android":"levelo://app?vid=8d55540b-3918-4aa9-b8c3-e70632535bd8","ios":"levelo://app?vid=8d55540b-3918-4aa9-b8c3-e70632535bd8"},"vehicle_type_id":"4","last_reported":1774390792,"current_range_meters":8800,"station_id":"ce4bhah2rcd13ifvqei0","pricing_plan_id":"cebpf4jnsgd1na2vs0mg"},{"bike_id":"b9d157e4-adb0-4d64-b93d-349f42c39fcf","system_id":"levelo_inurba_marseille","lat":43.31898,"lon":5.36792,"is_reserved":false,"is_disabled":false,"rental_uris":{"android":"levelo://app?vid=b9d157e4-adb0-4d64-b93d-349f42c39fcf","ios":"levelo://app?vid=b9d157e4-adb0-4d64-b93d-349f42c39fcf"},"vehicle_type_id":"4","last_reported":1774390792,"current_range_meters":8800,"station_id":"st_d6o2h0d0559c73evc1b0","pricing_plan_id":"cebpf4jnsgd1na2vs0mg"},{"bike_id":"c322bd60-cbf0-4bb1-96d3-aa2cc92ed507","system_id":"levelo_inurba_marseille","lat":43.26568,"lon":5.3901,"is_reserved":false,"is_disabled":false,"rental_uris":{"android":"levelo://app?vid=c322bd60-cbf0-4bb1-96d3-aa2cc92ed507","ios":"levelo://app?vid=c322bd60-cbf0-4bb1-96d3-aa2cc92ed507"},"vehicle_type_id":"4","last_reported":1774390792,"current_range_meters":8800,"station_id":"ce4bhe12rcd13ifvqf30","pricing_plan_id":"cebpf4jnsgd1na2vs0mg"},{"bike_id":"d594e935-ec7a-4a10-af1c-e7aeb3a4a3cc","system_id":"levelo_inurba_marseille","lat":43.25334,"lon":5.42147,"is_reserved":false,"is_disabled":false,"rental_uris":{"android":"levelo://app?vid=d594e935-ec7a-4a10-af1c-e7aeb3a4a3cc","ios":"levelo://app?vid=d594e935-ec7a-4a10-af1c-e7aeb3a4a3cc"},"vehicle_type_id":"4","last_reported":1774390792,"current_range_meters":8800,"station_id":"st_d2m65c5bi1j21697t3ng","pricing_plan_id":"cebpf4jnsgd1na2vs0mg"},{"bike_id":"f7964fa2-d7a6-41b0-97f9-1f4fa6b33c53","system_id":"levelo_inurba_marseille","lat":43.2533,"lon":5.42159,"is_reserved":false,"is_disabled":false,"rental_uris":{"android":"levelo://app?vid=f7964fa2-d7a6-41b0-97f9-1f4fa6b33c53","ios":"levelo://app?vid=f7964fa2-d7a6-41b0-97f9-1f4fa6b33c53"},"vehicle_type_id":"4","last_reported":1774390792,"current_range_meters":9200,"station_id":"","pricing_plan_id":"cebpf4jnsgd1na2vs0mg"},{"bike_id":"f4e12de3-12ee-449c-bb7b-82b4b799a0fa","system_id":"levelo_inurba_marseille","lat":43.246511,"lon":5.388933,"is_reserved":false,"is_disabled":true,"rental_uris":{"android":"levelo://app?vid=f4e12de3-12ee-449c-bb7b-82b4b799a0fa","ios":"levelo://app?vid=f4e12de3-12ee-449c-bb7b-82b4b799a0fa"},"vehicle_type_id":"4","last_reported":1774390792,"current_range_meters":9200,"station_id":"ce4bgg92rcd13ifvqb30","pricing_plan_id":"cebpf4jnsgd1na2vs0mg"},{"bike_id":"390642d5-ebc3-4bda-abf8-55b0c8070dc5","system_id":"levelo_inurba_marseille","lat":43.26681,"lon":5.3826,"is_reserved":false,"is_disabled":true,"rental_uris":{"android":"levelo://app?vid=390642d5-ebc3-4bda-abf8-55b0c8070dc5","ios":"levelo://app?vid=390642d5-ebc3-4bda-abf8-55b0c8070dc5"},"vehicle_type_id":"4","last_reported":1774390792,"current_range_meters":9200,"station_id":"ce4bhg92rcd13ifvqf90","pricing_plan_id":"cebpf4jnsgd1na2vs0mg"},{"bike_id":"fdd8bf84-b2fe-4508-9572-06ea662fa5ac","system_id":"levelo_inurba_marseille","lat":43.28477,"lon":5.48386,"is_reserved":false,"is_disabled":false,"rental_uris":{"android":"levelo://app?vid=fdd8bf84-b2fe-4508-9572-06ea662fa5ac","ios":"levelo://app?vid=fdd8bf84-b2fe-4508-9572-06ea662fa5ac"},"vehicle_type_id":"4","last_reported":1774390792,"current_range_meters":9200,"station_id":"","pricing_plan_id":"cebpf4jnsgd1na2vs0mg"},{"bike_id":"140fffea-ded2-4b53-a55a-ce65aaf1968d","system_id":"levelo_inurba_marseille","lat":43.26544,"lon":5.37299,"is_reserved":false,"is_disabled":false,"rental_uris":{"android":"levelo://app?vid=140fffea-ded2-4b53-a55a-ce65aaf1968d","ios":"levelo://app?vid=140fffea-ded2-4b53-a55a-ce65aaf1968d"},"vehicle_type_id":"4","last_reported":1774390792,"current_range_meters":9200,"station_id":"ce4bhg12rcd13ifvqf70","pricing_plan_id":"cebpf4jnsgd1na2vs0mg"},{"bike_id":"8adbc3a6-45d9-4a9d-aebc-32f509cb2c3e","system_id":"levelo_inurba_marseille","lat":43.24636,"lon":5.43155,"is_reserved":false,"is_disabled":false,"rental_uris":{"android":"levelo://app?vid=8adbc3a6-45d9-4a9d-aebc-32f509cb2c3e","ios":"levelo://app?vid=8adbc3a6-45d9-4a9d-aebc-32f509cb2c3e"},"vehicle_type_id":"4","last_reported":1774390792,"current_range_meters":9200,"station_id":"","pricing_plan_id":"cebpf4jnsgd1na2vs0mg"},{"bike_id":"5487f2c1-c4a8-4daf-8490-88d7b84744cf","system_id":"levelo_inurba_marseille","lat":43.30302,"lon":5.36914,"is_reserved":false,"is_disabled":false,"rental_uris":{"android":"levelo://app?vid=5487f2c1-c4a8-4daf-8490-88d7b84744cf","ios":"levelo://app?vid=5487f2c1-c4a8-4daf-8490-88d7b84744cf"},"vehicle_type_id":"4","last_reported":1774390792,"current_range_meters":9200,"station_id":"ce4bgqh2rcd13ifvqc5g","pricing_plan_id":"cebpf4jnsgd1na2vs0mg"},{"bike_id":"0d7bffdc-d5d7-4164-be1b-12b80a9c9fbe","system_id":"levelo_inurba_marseille","lat":43.24667,"lon":5.38144,"is_reserved":false,"is_disabled":false,"rental_uris":{"android":"levelo://app?vid=0d7bffdc-d5d7-4164-be1b-12b80a9c9fbe","ios":"levelo://app?vid=0d7bffdc-d5d7-4164-be1b-12b80a9c9fbe"},"vehicle_type_id":"4","last_reported":1774390792,"current_range_meters":9200,"station_id":"ce4bhih2rcd13ifvqfr0","pricing_plan_id":"cebpf4jnsgd1na2vs0mg"},{"bike_id":"b36d4d41-dec8-4dd0-8767-4b6c24932b5a","system_id":"levelo_inurba_marseille","lat":43.30926,"lon":5.4014,"is_reserved":false,"is_disabled":false,"rental_uris":{"android":"levelo://app?vid=b36d4d41-dec8-4dd0-8767-4b6c24932b5a","ios":"levelo://app?vid=b36d4d41-dec8-4dd0-8767-4b6c24932b5a"},"vehicle_type_id":"4","last_reported":1774390792,"current_range_meters":9200,"station_id":"ce4bgvp2rcd13ifvqct0","pricing_plan_id":"cebpf4jnsgd1na2vs0mg"},{"bike_id":"38743f0d-93ba-4263-b51a-7cc68a4d115b","system_id":"levelo_inurba_marseille","lat":43.28445,"lon":5.39187,"is_reserved":false,"is_disabled":false,"rental_uris":{"android":"levelo://app?vid=38743f0d-93ba-4263-b51a-7cc68a4d115b","ios":"levelo://app?vid=38743f0d-93ba-4263-b51a-7cc68a4d115b"},"vehicle_type_id":"4","last_reported":1774390792,"current_range_meters":9200,"station_id":"ce4bhoh2rcd13ifvqh5g","pricing_plan_id":"cebpf4jnsgd1na2vs0mg"},{"bike_id":"aae792bd-1c8a-454d-ba57-45007311d229","system_id":"levelo_inurba_marseille","lat":43.2257,"lon":5.41624,"is_reserved":false,"is_disabled":false,"rental_uris":{"android":"levelo://app?vid=aae792bd-1c8a-454d-ba57-45007311d229","ios":"levelo://app?vid=aae792bd-1c8a-454d-ba57-45007311d229"},"vehicle_type_id":"4","last_reported":1774390792,"current_range_meters":9200,"station_id":"st_d2o4gvlbi1j2169b742g","pricing_plan_id":"cebpf4jnsgd1na2vs0mg"},{"bike_id":"168902e2-ff80-4242-a8bf-ab3c76fe6521","system_id":"levelo_inurba_marseille","lat":43.30882,"lon":5.39632,"is_reserved":false,"is_disabled":false,"rental_uris":{"android":"levelo://app?vid=168902e2-ff80-4242-a8bf-ab3c76fe6521","ios":"levelo://app?vid=168902e2-ff80-4242-a8bf-ab3c76fe6521"},"vehicle_type_id":"4","last_reported":1774390792,"current_range_meters":9200,"station_id":"ce4bh012rcd13ifvqcv0","pricing_plan_id":"cebpf4jnsgd1na2vs0mg"},{"bike_id":"846a050a-42ef-46f3-a91e-10af4efdacce","system_id":"levelo_inurba_marseille","lat":43.30797,"lon":5.38156,"is_reserved":false,"is_disabled":false,"rental_uris":{"android":"levelo://app?vid=846a050a-42ef-46f3-a91e-10af4efdacce","ios":"levelo://app?vid=846a050a-42ef-46f3-a91e-10af4efdacce"},"vehicle_type_id":"4","last_reported":1774390792,"current_range_meters":9200,"station_id":"ce4bgt12rcd13ifvqce0","pricing_plan_id":"cebpf4jnsgd1na2vs0mg"},{"bike_id":"743383d3-68fd-4243-85ba-4364b2e7a080","system_id":"levelo_inurba_marseille","lat":43.24543,"lon":5.39507,"is_reserved":false,"is_disabled":true,"rental_uris":{"android":"levelo://app?vid=743383d3-68fd-4243-85ba-4364b2e7a080","ios":"levelo://app?vid=743383d3-68fd-4243-85ba-4364b2e7a080"},"vehicle_type_id":"4","last_reported":1774390792,"current_range_meters":9200,"station_id":"ce4bhlp2rcd13ifvqgjg","pricing_plan_id":"cebpf4jnsgd1na2vs0mg"},{"bike_id":"451e822b-d17c-41b3-aa86-e9da4e66ded2","system_id":"levelo_inurba_marseille","lat":43.23987,"lon":5.36662,"is_reserved":false,"is_disabled":false,"rental_uris":{"android":"levelo://app?vid=451e822b-d17c-41b3-aa86-e9da4e66ded2","ios":"levelo://app?vid=451e822b-d17c-41b3-aa86-e9da4e66ded2"},"vehicle_type_id":"4","last_reported":1774390792,"current_range_meters":9200,"station_id":"ce4bhi12rcd13ifvqfp0","pricing_plan_id":"cebpf4jnsgd1na2vs0mg"},{"bike_id":"2ffcc2dd-acc7-4c1f-83fe-76a51bfe4c59","system_id":"levelo_inurba_marseille","lat":43.23769,"lon":5.36642,"is_reserved":false,"is_disabled":false,"rental_uris":{"android":"levelo://app?vid=2ffcc2dd-acc7-4c1f-83fe-76a51bfe4c59","ios":"levelo://app?vid=2ffcc2dd-acc7-4c1f-83fe-76a51bfe4c59"},"vehicle_type_id":"4","last_reported":1774390792,"current_range_meters":9200,"station_id":"st_d3nk18o9ro0c73en2l3g","pricing_plan_id":"cebpf4jnsgd1na2vs0mg"},{"bike_id":"a262f43d-85a2-4a30-93dd-8651921757f5","system_id":"levelo_inurba_marseille","lat":43.23152,"lon":5.4372,"is_reserved":false,"is_disabled":false,"rental_uris":{"android":"levelo://app?vid=a262f43d-85a2-4a30-93dd-8651921757f5","ios":"levelo://app?vid=a262f43d-85a2-4a30-93dd-8651921757f5"},"vehicle_type_id":"4","last_reported":1774390792,"current_range_meters":9200,"station_id":"ce4bhmp2rcd13ifvqgog","pricing_plan_id":"cebpf4jnsgd1na2vs0mg"},{"bike_id":"f3b94933-5431-41e1-bb45-b1afcda4b193","system_id":"levelo_inurba_marseille","lat":43.29522,"lon":5.394,"is_reserved":false,"is_disabled":false,"rental_uris":{"android":"levelo://app?vid=f3b94933-5431-41e1-bb45-b1afcda4b193","ios":"levelo://app?vid=f3b94933-5431-41e1-bb45-b1afcda4b193"},"vehicle_type_id":"4","last_reported":1774390792,"current_range_meters":9200,"station_id":"ce4bh292rcd13ifvqdf0","pricing_plan_id":"cebpf4jnsgd1na2vs0mg"},{"bike_id":"92124dbe-944a-4a81-92b5-cdcc56fa6fdf","system_id":"levelo_inurba_marseille","lat":43.30251,"lon":5.40067,"is_reserved":false,"is_disabled":false,"rental_uris":{"android":"levelo://app?vid=92124dbe-944a-4a81-92b5-cdcc56fa6fdf","ios":"levelo://app?vid=92124dbe-944a-4a81-92b5-cdcc56fa6fdf"},"vehicle_type_id":"4","last_reported":1774390792,"current_range_meters":9200,"station_id":"ce4bgvh2rcd13ifvqcs0","pricing_plan_id":"cebpf4jnsgd1na2vs0mg"},{"bike_id":"3969d9ff-e51e-44fd-8e71-b3c87bcabc26","system_id":"levelo_inurba_marseille","lat":43.25831,"lon":5.39435,"is_reserved":false,"is_disabled":false,"rental_uris":{"android":"levelo://app?vid=3969d9ff-e51e-44fd-8e71-b3c87bcabc26","ios":"levelo://app?vid=3969d9ff-e51e-44fd-8e71-b3c87bcabc26"},"vehicle_type_id":"4","last_reported":1774390792,"current_range_meters":9200,"station_id":"ce4bhip2rcd13ifvqft0","pricing_plan_id":"cebpf4jnsgd1na2vs0mg"},{"bike_id":"e2668e80-9b61-4e93-8e87-8a9732231159","system_id":"levelo_inurba_marseille","lat":43.33102,"lon":5.3779,"is_reserved":false,"is_disabled":false,"rental_uris":{"android":"levelo://app?vid=e2668e80-9b61-4e93-8e87-8a9732231159","ios":"levelo://app?vid=e2668e80-9b61-4e93-8e87-8a9732231159"},"vehicle_type_id":"4","last_reported":1774390792,"current_range_meters":9200,"station_id":"st_d46cu089ee8s73dldbu0","pricing_plan_id":"cebpf4jnsgd1na2vs0mg"},{"bike_id":"0ca3a7da-11df-4415-a144-e3c69f230997","system_id":"levelo_inurba_marseille","lat":43.30889,"lon":5.39645,"is_reserved":false,"is_disabled":false,"rental_uris":{"android":"levelo://app?vid=0ca3a7da-11df-4415-a144-e3c69f230997","ios":"levelo://app?vid=0ca3a7da-11df-4415-a144-e3c69f230997"},"vehicle_type_id":"4","last_reported":1774390792,"current_range_meters":9200,"station_id":"ce4bh012rcd13ifvqcv0","pricing_plan_id":"cebpf4jnsgd1na2vs0mg"},{"bike_id":"617078d2-3b64-425d-a854-1bc48d95c1bf","system_id":"levelo_inurba_marseille","lat":43.29069,"lon":5.39951,"is_reserved":false,"is_disabled":false,"rental_uris":{"android":"levelo://app?vid=617078d2-3b64-425d-a854-1bc48d95c1bf","ios":"levelo://app?vid=617078d2-3b64-425d-a854-1bc48d95c1bf"},"vehicle_type_id":"4","last_reported":1774390792,"current_range_meters":9200,"station_id":"ce4bh392rcd13ifvqdm0","pricing_plan_id":"cebpf4jnsgd1na2vs0mg"},{"bike_id":"d0adcb6d-011f-4790-8aee-c3605358f198","system_id":"levelo_inurba_marseille","lat":43.33022,"lon":5.39063,"is_reserved":false,"is_disabled":false,"rental_uris":{"android":"levelo://app?vid=d0adcb6d-011f-4790-8aee-c3605358f198","ios":"levelo://app?vid=d0adcb6d-011f-4790-8aee-c3605358f198"},"vehicle_type_id":"4","last_reported":1774390792,"current_range_meters":9600,"station_id":"ce4bhr92rcd13ifvqhrg","pricing_plan_id":"cebpf4jnsgd1na2vs0mg"},{"bike_id":"b66a2e2d-206b-4ad0-bc12-5793add35a82","system_id":"levelo_inurba_marseille","lat":43.28613,"lon":5.39865,"is_reserved":false,"is_disabled":false,"rental_uris":{"android":"levelo://app?vid=b66a2e2d-206b-4ad0-bc12-5793add35a82","ios":"levelo://app?vid=b66a2e2d-206b-4ad0-bc12-5793add35a82"},"vehicle_type_id":"4","last_reported":1774390792,"current_range_meters":9600,"station_id":"st_d4a7ka997mjs738ck50g","pricing_plan_id":"cebpf4jnsgd1na2vs0mg"},