{"last_updated":1700856433,"ttl":30,"version":"2.2","data":{"bikes":[{"bike_id":"373a0046-98e1-49ec-883e-0aded0a6c670","system_id":"levelo_inurba_marseille","lat":43.312239,"lon":5.368562,"is_reserved":false,"is_disabled":false,"rental_uris":{"android":"levelo://app?vid=373a0046-98e1-49ec-883e-0aded0a6c670","ios":"levelo://app?vid=373a0046-98e1-49ec-883e-0aded0a6c670"},"vehicle_type_id":"4","last_reported":1700856433,"current_range_meters":16400,"station_id":"ce4bgl92rcd13ifvqbq0","pricing_plan_id":"free"},{"bike_id":"4a49f3f2-574d-41e5-8d22-0af75eb2ddc7","system_id":"levelo_inurba_marseille","lat":43.309076,"lon":5.368465,"is_reserved":false,"is_disabled":false,"rental_uris":{"android":"levelo://app?vid=4a49f3f2-574d-41e5-8d22-0af75eb2ddc7","ios":"levelo://app?vid=4a49f3f2-574d-41e5-8d22-0af75eb2ddc7"},"vehicle_type_id":"4","last_reported":1700856433,"current_range_meters":6800,"station_id":"ce4bgn92rcd13ifvqbvg","pricing_plan_id":"free"},{"bike_id":"7a323f9f-35ca-43c7-b6dc-b56fa969ff40","system_id":"levelo_inurba_marseille","lat":43.314811,"lon":5.373104,"is_reserved":false,"is_disabled":false,"rental_uris":{"android":"levelo://app?vid=7a323f9f-35ca-43c7-b6dc-b56fa969ff40","ios":"levelo://app?vid=7a323f9f-35ca-43c7-b6dc-b56fa969ff40"},"vehicle_type_id":"4","last_reported":1700856433,"current_range_meters":7600,"station_id":"ce4bgt12rcd13ifvqcd0","pricing_plan_id":"free"},{"bike_id":"71440e8f-d815-43fd-9926-9bac535d2861","system_id":"levelo_inurba_marseille","lat":43.309039,"lon":5.371797,"is_reserved":false,"is_disabled":false,"rental_uris":{"android":"levelo://app?vid=71440e8f-d815-43fd-9926-9bac535d2861","ios":"levelo://app?vid=71440e8f-d815-43fd-9926-9bac535d2861"},"vehicle_type_id":"4","last_reported":1700856433,"current_range_meters":9200,"station_id":"ce4bguh2rcd13ifvqckg","pricing_plan_id":"free"},{"bike_id":"9e042d1b-ac34-43b7-bb03-aa071e4dddd9","system_id":"levelo_inurba_marseille","lat":43.309039,"lon":5.371797,"is_reserved":false,"is_disabled":false,"rental_uris":{"android":"levelo://app?vid=9e042d1b-ac34-43b7-bb03-aa071e4dddd9","ios":"levelo://app?vid=9e042d1b-ac34-43b7-bb03-aa071e4dddd9"},"vehicle_type_id":"4","last_reported":1700856433,"current_range_meters":18800,"station_id":"ce4bguh2rcd13ifvqckg","pricing_plan_id":"free"},{"bike_id":"c5ffb7fe-e728-41af-b299-b70cb5141d84","system_id":"levelo_inurba_marseille","lat":43.309039,"lon":5.371797,"is_reserved":false,"is_disabled":false,"rental_uris":{"android":"levelo://app?vid=c5ffb7fe-e728-41af-b299-b70cb5141d84","ios":"levelo://app?vid=c5ffb7fe-e728-41af-b299-b70cb5141d84"},"vehicle_type_id":"4","last_reported":1700856433,"current_range_meters":4800,"station_id":"ce4bguh2rcd13ifvqckg","pricing_plan_id":"free"},{"bike_id":"ee0b4cc3-d0ad-4d27-8678-8add54622f02","system_id":"levelo_inurba_marseille","lat":43.305714,"lon":5.365633,"is_reserved":false,"is_disabled":false,"rental_uris":{"android":"levelo://app?vid=ee0b4cc3-d0ad-4d27-8678-8add54622f02","ios":"levelo://app?vid=ee0b4cc3-d0ad-4d27-8678-8add54622f02"},"vehicle_type_id":"4","last_reported":1700856433,"current_range_meters":15200,"station_id":"ce4bgs12rcd13ifvqcag","pricing_plan_id":"free"},{"bike_id":"77730932-ab5c-4f3b-acb5-eff855471a70","system_id":"levelo_inurba_marseille","lat":43.305714,"lon":5.365633,"is_reserved":false,"is_disabled":false,"rental_uris":{"android":"levelo://app?vid=77730932-ab5c-4f3b-acb5-eff855471a70","ios":"levelo://app?vid=77730932-ab5c-4f3b-acb5-eff855471a70"},"vehicle_type_id":"4","last_reported":1700856433,"current_range_meters":18800,"station_id":"ce4bgs12rcd13ifvqcag","pricing_plan_id":"free"},{"bike_id":"0e3a20c0-fbe4-4be1-8a70-167c2d1fc9f6","system_id":"levelo_inurba_marseille","lat":43.305202,"lon":5.365471,"is_reserved":false,"is_disabled":false,"rental_uris":{"android":"levelo://app?vid=0e3a20c0-fbe4-4be1-8a70-167c2d1fc9f6","ios":"levelo://app?vid=0e3a20c0-fbe4-4be1-8a70-167c2d1fc9f6"},"vehicle_type_id":"4","last_reported":1700856433,"current_range_meters":2000,"station_id":"ce4bgs12rcd13ifvqcag","pricing_plan_id":"free"},{"bike_id":"547c262f-1d4b-42d5-b031-aff9b76faaaa","system_id":"levelo_inurba_marseille","lat":43.305989,"lon":5.37225,"is_reserved":false,"is_disabled":false,"rental_uris":{"android":"levelo://app?vid=547c262f-1d4b-42d5-b031-aff9b76faaaa","ios":"levelo://app?vid=547c262f-1d4b-42d5-b031-aff9b76faaaa"},"vehicle_type_id":"4","last_reported":1700856433,"current_range_meters":800,"station_id":"ce4bgqh2rcd13ifvqc4g","pricing_plan_id":"free"},{"bike_id":"dd789fb5-c3f4-4258-8093-a5442c79c056","system_id":"levelo_inurba_marseille","lat":43.311131,"lon":5.377651,"is_reserved":false,"is_disabled":false,"rental_uris":{"android":"levelo://app?vid=dd789fb5-c3f4-4258-8093-a5442c79c056","ios":"levelo://app?vid=dd789fb5-c3f4-4258-8093-a5442c79c056"},"vehicle_type_id":"4","last_reported":1700856433,"current_range_meters":24000,"station_id":"ce4bgt92rcd13ifvqcg0","pricing_plan_id":"free"},{"bike_id":"c067753e-bad7-4705-9bf8-d4417eedd393","system_id":"levelo_inurba_marseille","lat":43.31114,"lon":5.377696,"is_reserved":false,"is_disabled":false,"rental_uris":{"android":"levelo://app?vid=c067753e-bad7-4705-9bf8-d4417eedd393","ios":"levelo://app?vid=c067753e-bad7-4705-9bf8-d4417eedd393"},"vehicle_type_id":"4","last_reported":1700856433,"current_range_meters":21600,"station_id":"ce4bgt92rcd13ifvqcg0","pricing_plan_id":"free"},{"bike_id":"573a870a-b6c4-429d-8587-8103772b84bc","system_id":"levelo_inurba_marseille","lat":43.308227,"lon":5.37661,"is_reserved":false,"is_disabled":false,"rental_uris":{"android":"levelo://app?vid=573a870a-b6c4-429d-8587-8103772b84bc","ios":"levelo://app?vid=573a870a-b6c4-429d-8587-8103772b84bc"},"vehicle_type_id":"4","last_reported":1700856433,"current_range_meters":7600,"station_id":"ce4bgv92rcd13ifvqcq0","pricing_plan_id":"free"},{"bike_id":"f427a2c3-6e4a-446b-ae2f-9be8aa7f4122","system_id":"levelo_inurba_marseille","lat":43.31719,"lon":5.376813,"is_reserved":false,"is_disabled":false,"rental_uris":{"android":"levelo://app?vid=f427a2c3-6e4a-446b-ae2f-9be8aa7f4122","ios":"levelo://app?vid=f427a2c3-6e4a-446b-ae2f-9be8aa7f4122"},"vehicle_type_id":"4","last_reported":1700856433,"current_range_meters":27600,"station_id":"ce4bgth2rcd13ifvqch0","pricing_plan_id":"free"},{"bike_id":"b898b018-f57d-4901-bab2-fdd15d391de9","system_id":"levelo_inurba_marseille","lat":43.317168,"lon":5.376883,"is_reserved":false,"is_disabled":false,"rental_uris":{"android":"levelo://app?vid=b898b018-f57d-4901-bab2-fdd15d391de9","ios":"levelo://app?vid=b898b018-f57d-4901-bab2-fdd15d391de9"},"vehicle_type_id":"4","last_reported":1700856433,"current_range_meters":30000,"station_id":"ce4bgth2rcd13ifvqch0","pricing_plan_id":"free"},{"bike_id":"83356b9c-86f2-40c4-a451-06764ff3e6ff","system_id":"levelo_inurba_marseille","lat":43.317075,"lon":5.377367,"is_reserved":false,"is_disabled":false,"rental_uris":{"android":"levelo://app?vid=83356b9c-86f2-40c4-a451-06764ff3e6ff","ios":"levelo://app?vid=83356b9c-86f2-40c4-a451-06764ff3e6ff"},"vehicle_type_id":"4","last_reported":1700856433,"current_range_meters":9200,"station_id":"ce4bgth2rcd13ifvqch0","pricing_plan_id":"free"},{"bike_id":"801a5cab-6c4a-4660-a14c-64dca1bef785","system_id":"levelo_inurba_marseille","lat":43.317075,"lon":5.377367,"is_reserved":false,"is_disabled":false,"rental_uris":{"android":"levelo://app?vid=801a5cab-6c4a-4660-a14c-64dca1bef785","ios":"levelo://app?vid=801a5cab-6c4a-4660-a14c-64dca1bef785"},"vehicle_type_id":"4","last_reported":1700856433,"current_range_meters":24000,"station_id":"ce4bgth2rcd13ifvqch0","pricing_plan_id":"free"},{"bike_id":"0109dba6-d5bd-4ae3-815d-4c101d8be0c5","system_id":"levelo_inurba_marseille","lat":43.30272,"lon":5.36906,"is_reserved":false,"is_disabled":false,"rental_uris":{"android":"levelo://app?vid=0109dba6-d5bd-4ae3-815d-4c101d8be0c5","ios":"levelo://app?vid=0109dba6-d5bd-4ae3-815d-4c101d8be0c5"},"vehicle_type_id":"4","last_reported":1700856433,"current_range_meters":20000,"station_id":"","pricing_plan_id":"free"},{"bike_id":"e0bd7827-a66c-4dc7-bce5-3bfa1fbedb3b","system_id":"levelo_inurba_marseille","lat":43.301939,"lon":5.366286,"is_reserved":false,"is_disabled":false,"rental_uris":{"android":"levelo://app?vid=e0bd7827-a66c-4dc7-bce5-3bfa1fbedb3b","ios":"levelo://app?vid=e0bd7827-a66c-4dc7-bce5-3bfa1fbedb3b"},"vehicle_type_id":"4","last_reported":1700856433,"current_range_meters":13200,"station_id":"ce4bgrh2rcd13ifvqc8g","pricing_plan_id":"free"},{"bike_id":"40651570-2caa-481e-83f2-ed9b577fc84a","system_id":"levelo_inurba_marseille","lat":43.323155,"lon":5.374592,"is_reserved":false,"is_disabled":false,"rental_uris":{"android":"levelo://app?vid=40651570-2caa-481e-83f2-ed9b577fc84a","ios":"levelo://app?vid=40651570-2caa-481e-83f2-ed9b577fc84a"},"vehicle_type_id":"4","last_reported":1700856433,"current_range_meters":12800,"station_id":"","pricing_plan_id":"free"},{"bike_id":"bbd7c10c-db03-4741-a6c8-89f1871a4335","system_id":"levelo_inurba_marseille","lat":43.30408,"lon":5.37811,"is_reserved":false,"is_disabled":false,"rental_uris":{"android":"levelo://app?vid=bbd7c10c-db03-4741-a6c8-89f1871a4335","ios":"levelo://app?vid=bbd7c10c-db03-4741-a6c8-89f1871a4335"},"vehicle_type_id":"4","last_reported":1700856433,"current_range_meters":0,"station_id":"","pricing_plan_id":"free"},{"bike_id":"7ff90deb-1d28-4449-b2ed-dc2abfb826c3","system_id":"levelo_inurba_marseille","lat":43.304606,"lon":5.379026,"is_reserved":false,"is_disabled":false,"rental_uris":{"android":"levelo://app?vid=7ff90deb-1d28-4449-b2ed-dc2abfb826c3","ios":"levelo://app?vid=7ff90deb-1d28-4449-b2ed-dc2abfb826c3"},"vehicle_type_id":"4","last_reported":1700856433,"current_range_meters":13200,"station_id":"ce4bgup2rcd13ifvqcn0","pricing_plan_id":"free"},{"bike_id":"ee7b2315-1ca6-4f8e-a62a-6313cf5cda28","system_id":"levelo_inurba_marseille","lat":43.32484,"lon":5.36566,"is_reserved":false,"is_disabled":false,"rental_uris":{"android":"levelo://app?vid=ee7b2315-1ca6-4f8e-a62a-6313cf5cda28","ios":"levelo://app?vid=ee7b2315-1ca6-4f8e-a62a-6313cf5cda28"},"vehicle_type_id":"4","last_reported":1700856433,"current_range_meters":16800,"station_id":"ce4bhs12rcd13ifvqhvg","pricing_plan_id":"free"},{"bike_id":"3cf7df4e-117c-401f-a50b-b48096222f3f","system_id":"levelo_inurba_marseille","lat":43.299222,"lon":5.365554,"is_reserved":false,"is_disabled":false,"rental_uris":{"android":"levelo://app?vid=3cf7df4e-117c-401f-a50b-b48096222f3f","ios":"levelo://app?vid=3cf7df4e-117c-401f-a50b-b48096222f3f"},"vehicle_type_id":"4","last_reported":1700856433,"current_range_meters":0,"station_id":"ce4bgm92rcd13ifvqbr0","pricing_plan_id":"free"},{"bike_id":"8eccf735-9f13-4d66-89ee-04a7bf59eec2","system_id":"levelo_inurba_marseille","lat":43.320721,"lon":5.383009,"is_reserved":false,"is_disabled":false,"rental_uris":{"android":"levelo://app?vid=8eccf735-9f13-4d66-89ee-04a7bf59eec2","ios":"levelo://app?vid=8eccf735-9f13-4d66-89ee-04a7bf59eec2"},"vehicle_type_id":"4","last_reported":1700856433,"current_range_meters":30800,"station_id":"","pricing_plan_id":"free"},{"bike_id":"74d9f721-090d-49b4-9e60-c47bb58b09ff","system_id":"levelo_inurba_marseille","lat":43.298433,"lon":5.362774,"is_reserved":false,"is_disabled":false,"rental_uris":{"android":"levelo://app?vid=74d9f721-090d-49b4-9e60-c47bb58b09ff","ios":"levelo://app?vid=74d9f721-090d-49b4-9e60-c47bb58b09ff"},"vehicle_type_id":"4","last_reported":1700856433,"current_range_meters":3200,"station_id":"ce4bgpp2rcd13ifvqc3g","pricing_plan_id":"free"},{"bike_id":"799f10c9-81c3-4d79-a9aa-505ce434ae93","system_id":"levelo_inurba_marseille","lat":43.298433,"lon":5.362774,"is_reserved":false,"is_disabled":false,"rental_uris":{"android":"levelo://app?vid=799f10c9-81c3-4d79-a9aa-505ce434ae93","ios":"levelo://app?vid=799f10c9-81c3-4d79-a9aa-505ce434ae93"},"vehicle_type_id":"4","last_reported":1700856433,"current_range_meters":16400,"station_id":"ce4bgpp2rcd13ifvqc3g","pricing_plan_id":"free"},{"bike_id":"1a40b385-68ba-48d5-a1cb-20965b2f9dc5","system_id":"levelo_inurba_marseille","lat":43.320404,"lon":5.384184,"is_reserved":false,"is_disabled":false,"rental_uris":{"android":"levelo://app?vid=1a40b385-68ba-48d5-a1cb-20965b2f9dc5","ios":"levelo://app?vid=1a40b385-68ba-48d5-a1cb-20965b2f9dc5"},"vehicle_type_id":"4","last_reported":1700856433,"current_range_meters":1200,"station_id":"","pricing_plan_id":"free"},{"bike_id":"4a434ae3-4bbd-44b3-94e8-cae2c8b0ba17","system_id":"levelo_inurba_marseille","lat":43.311722,"lon":5.387247,"is_reserved":false,"is_disabled":false,"rental_uris":{"android":"levelo://app?vid=4a434ae3-4bbd-44b3-94e8-cae2c8b0ba17","ios":"levelo://app?vid=4a434ae3-4bbd-44b3-94e8-cae2c8b0ba17"},"vehicle_type_id":"4","last_reported":1700856433,"current_range_meters":25600,"station_id":"ce4bgv12rcd13ifvqcp0","pricing_plan_id":"free"},{"bike_id":"168a8a72-4486-4b98-8731-efbdc9ff1283","system_id":"levelo_inurba_marseille","lat":43.311722,"lon":5.387247,"is_reserved":false,"is_disabled":false,"rental_uris":{"android":"levelo://app?vid=168a8a72-4486-4b98-8731-efbdc9ff1283","ios":"levelo://app?vid=168a8a72-4486-4b98-8731-efbdc9ff1283"},"vehicle_type_id":"4","last_reported":1700856433,"current_range_meters":24000,"station_id":"ce4bgv12rcd13ifvqcp0","pricing_plan_id":"free"},{"bike_id":"57f07daa-f979-41b2-bf81-49ff7a829b2a","system_id":"levelo_inurba_marseille","lat":43.32287,"lon":5.38256,"is_reserved":false,"is_disabled":false,"rental_uris":{"android":"levelo://app?vid=57f07daa-f979-41b2-bf81-49ff7a829b2a","ios":"levelo://app?vid=57f07daa-f979-41b2-bf81-49ff7a829b2a"},"vehicle_type_id":"4","last_reported":1700856433,"current_range_meters":31200,"station_id":"ce4bhr12rcd13ifvqhqg","pricing_plan_id":"free"},{"bike_id":"7c93eefc-07fe-4a09-b42f-ee22a5cbe113","system_id":"levelo_inurba_marseille","lat":43.322872,"lon":5.382756,"is_reserved":false,"is_disabled":false,"rental_uris":{"android":"levelo://app?vid=7c93eefc-07fe-4a09-b42f-ee22a5cbe113","ios":"levelo://app?vid=7c93eefc-07fe-4a09-b42f-ee22a5cbe113"},"vehicle_type_id":"4","last_reported":1700856433,"current_range_meters":24400,"station_id":"ce4bhr12rcd13ifvqhqg","pricing_plan_id":"free"},{"bike_id":"f8736720-e966-45a6-a671-1e9c1c844291","system_id":"levelo_inurba_marseille","lat":43.322872,"lon":5.382756,"is_reserved":false,"is_disabled":false,"rental_uris":{"android":"levelo://app?vid=f8736720-e966-45a6-a671-1e9c1c844291","ios":"levelo://app?vid=f8736720-e966-45a6-a671-1e9c1c844291"},"vehicle_type_id":"4","last_reported":1700856433,"current_range_meters":25600,"station_id":"ce4bhr12rcd13ifvqhqg","pricing_plan_id":"free"},{"bike_id":"f9ce9c3f-5ce0-442f-986c-f1a94ddddd6a","system_id":"levelo_inurba_marseille","lat":43.322872,"lon":5.382756,"is_reserved":false,"is_disabled":false,"rental_uris":{"android":"levelo://app?vid=f9ce9c3f-5ce0-442f-986c-f1a94ddddd6a","ios":"levelo://app?vid=f9ce9c3f-5ce0-442f-986c-f1a94ddddd6a"},"vehicle_type_id":"4","last_reported":1700856433,"current_range_meters":31200,"station_id":"ce4bhr12rcd13ifvqhqg","pricing_plan_id":"free"},{"bike_id":"1a43851e-90fe-4bd3-bf83-8e67c213fe9f","system_id":"levelo_inurba_marseille","lat":43.322872,"lon":5.382756,"is_reserved":false,"is_disabled":false,"rental_uris":{"android":"levelo://app?vid=1a43851e-90fe-4bd3-bf83-8e67c213fe9f","ios":"levelo://app?vid=1a43851e-90fe-4bd3-bf83-8e67c213fe9f"},"vehicle_type_id":"4","last_reported":1700856433,"current_range_meters":28000,"station_id":"ce4bhr12rcd13ifvqhqg","pricing_plan_id":"free"},{"bike_id":"4625bec6-4af3-44cb-8699-3acd72afd201","system_id":"levelo_inurba_marseille","lat":43.322872,"lon":5.382756,"is_reserved":false,"is_disabled":false,"rental_uris":{"android":"levelo://app?vid=4625bec6-4af3-44cb-8699-3acd72afd201","ios":"levelo://app?vid=4625bec6-4af3-44cb-8699-3acd72afd201"},"vehicle_type_id":"4","last_reported":1700856433,"current_range_meters":22800,"station_id":"ce4bhr12rcd13ifvqhqg","pricing_plan_id":"free"},{"bike_id":"d3044786-2431-4822-96f8-37c5954b4b4c","system_id":"levelo_inurba_marseille","lat":43.322913,"lon":5.382803,"is_reserved":false,"is_disabled":false,"rental_uris":{"android":"levelo://app?vid=d3044786-2431-4822-96f8-37c5954b4b4c","ios":"levelo://app?vid=d3044786-2431-4822-96f8-37c5954b4b4c"},"vehicle_type_id":"4","last_reported":1700856433,"current_range_meters":29600,"station_id":"","pricing_plan_id":"free"},{"bike_id":"22dcc355-c6c3-4950-90c4-bd4abfc9165f","system_id":"levelo_inurba_marseille","lat":43.328371,"lon":5.366909,"is_reserved":false,"is_disabled":false,"rental_uris":{"android":"levelo://app?vid=22dcc355-c6c3-4950-90c4-bd4abfc9165f","ios":"levelo://app?vid=22dcc355-c6c3-4950-90c4-bd4abfc9165f"},"vehicle_type_id":"4","last_reported":1700856433,"current_range_meters":31200,"station_id":"ce4bhs92rcd13ifvqi0g","pricing_plan_id":"free"},{"bike_id":"4d7509f5-9559-42ca-a60d-bef9e80f0981","system_id":"levelo_inurba_marseille","lat":43.2996,"lon":5.37923,"is_reserved":false,"is_disabled":false,"rental_uris":{"android":"levelo://app?vid=4d7509f5-9559-42ca-a60d-bef9e80f0981","ios":"levelo://app?vid=4d7509f5-9559-42ca-a60d-bef9e80f0981"},"vehicle_type_id":"4","last_reported":1700856433,"current_range_meters":0,"station_id":"","pricing_plan_id":"free"},{"bike_id":"0c0a1bff-050b-4958-9a30-e16f291f9436","system_id":"levelo_inurba_marseille","lat":43.2968,"lon":5.37291,"is_reserved":false,"is_disabled":false,"rental_uris":{"android":"levelo://app?vid=0c0a1bff-050b-4958-9a30-e16f291f9436","ios":"levelo://app?vid=0c0a1bff-050b-4958-9a30-e16f291f9436"},"vehicle_type_id":"4","last_reported":1700856433,"current_range_meters":19600,"station_id":"ce4bgk12rcd13ifvqbj0","pricing_plan_id":"free"},{"bike_id":"3f5a69c3-0704-418a-95a5-641c72133f01","system_id":"levelo_inurba_marseille","lat":43.309589,"lon":5.390258,"is_reserved":false,"is_disabled":false,"rental_uris":{"android":"levelo://app?vid=3f5a69c3-0704-418a-95a5-641c72133f01","ios":"levelo://app?vid=3f5a69c3-0704-418a-95a5-641c72133f01"},"vehicle_type_id":"4","last_reported":1700856433,"current_range_meters":1600,"station_id":"ce4bgup2rcd13ifvqco0","pricing_plan_id":"free"},{"bike_id":"a4603200-a956-4b27-bc52-8f22fc00857f","system_id":"levelo_inurba_marseille","lat":43.29602,"lon":5.36826,"is_reserved":false,"is_disabled":false,"rental_uris":{"android":"levelo://app?vid=a4603200-a956-4b27-bc52-8f22fc00857f","ios":"levelo://app?vid=a4603200-a956-4b27-bc52-8f22fc00857f"},"vehicle_type_id":"4","last_reported":1700856433,"current_range_meters":12800,"station_id":"","pricing_plan_id":"free"},{"bike_id":"b9613191-1946-4bfa-ab6e-e81430b20743","system_id":"levelo_inurba_marseille","lat":43.29573,"lon":5.367355,"is_reserved":false,"is_disabled":false,"rental_uris":{"android":"levelo://app?vid=b9613191-1946-4bfa-ab6e-e81430b20743","ios":"levelo://app?vid=b9613191-1946-4bfa-ab6e-e81430b20743"},"vehicle_type_id":"4","last_reported":1700856433,"current_range_meters":26000,"station_id":"ce4bgph2rcd13ifvqc2g","pricing_plan_id":"free"},{"bike_id":"656459cf-498f-49a1-bb2c-2df4545f7de5","system_id":"levelo_inurba_marseille","lat":43.31758,"lon":5.390225,"is_reserved":false,"is_disabled":false,"rental_uris":{"android":"levelo://app?vid=656459cf-498f-49a1-bb2c-2df4545f7de5","ios":"levelo://app?vid=656459cf-498f-49a1-bb2c-2df4545f7de5"},"vehicle_type_id":"4","last_reported":1700856433,"current_range_meters":29200,"station_id":"ce4bhqp2rcd13ifvqhng","pricing_plan_id":"free"},{"bike_id":"7d523648-a6d8-41f5-b833-f7afcac7fa20","system_id":"levelo_inurba_marseille","lat":43.298037,"lon":5.381066,"is_reserved":false,"is_disabled":false,"rental_uris":{"android":"levelo://app?vid=7d523648-a6d8-41f5-b833-f7afcac7fa20","ios":"levelo://app?vid=7d523648-a6d8-41f5-b833-f7afcac7fa20"},"vehicle_type_id":"4","last_reported":1700856433,"current_range_meters":10800,"station_id":"ce4bgip2rcd13ifvqbb0","pricing_plan_id":"free"},{"bike_id":"32947740-f5cc-41bf-91eb-e09e53a2b686","system_id":"levelo_inurba_marseille","lat":43.304274,"lon":5.388873,"is_reserved":false,"is_disabled":false,"rental_uris":{"android":"levelo://app?vid=32947740-f5cc-41bf-91eb-e09e53a2b686","ios":"levelo://app?vid=32947740-f5cc-41bf-91eb-e09e53a2b686"},"vehicle_type_id":"4","last_reported":1700856433,"current_range_meters":7600,"station_id":"ce4bgk12rcd13ifvqbi0","pricing_plan_id":"free"},{"bike_id":"e1618351-9c83-4d00-9225-3294a7cbc92f","system_id":"levelo_inurba_marseille","lat":43.304274,"lon":5.388873,"is_reserved":false,"is_disabled":false,"rental_uris":{"android":"levelo://app?vid=e1618351-9c83-4d00-9225-3294a7cbc92f","ios":"levelo://app?vid=e1618351-9c83-4d00-9225-3294a7cbc92f"},"vehicle_type_id":"4","last_reported":1700856433,"current_range_meters":22000,"station_id":"ce4bgk12rcd13ifvqbi0","pricing_plan_id":"free"},{"bike_id":"11edea96-ae18-4cab-b454-60390f816b13","system_id":"levelo_inurba_marseille","lat":43.304278,"lon":5.388868,"is_reserved":false,"is_disabled":false,"rental_uris":{"android":"levelo://app?vid=11edea96-ae18-4cab-b454-60390f816b13","ios":"levelo://app?vid=11edea96-ae18-4cab-b454-60390f816b13"},"vehicle_type_id":"4","last_reported":1700856433,"current_range_meters":6800,"station_id":"ce4bgk12rcd13ifvqbi0","pricing_plan_id":"free"},{"bike_id":"6465c45f-5df3-469c-b91d-23a0cb81fbdd","system_id":"levelo_inurba_marseille","lat":43.295748,"lon":5.37522,"is_reserved":false,"is_disabled":false,"rental_uris":{"android":"levelo://app?vid=6465c45f-5df3-469c-b91d-23a0cb81fbdd","ios":"levelo://app?vid=6465c45f-5df3-469c-b91d-23a0cb81fbdd"},"vehicle_type_id":"4","last_reported":1700856433,"current_range_meters":12800,"station_id":"ce4bgh92rcd13ifvqb50","pricing_plan_id":"free"},{"bike_id":"ff822368-00cb-4dfa-8697-959628b6f270","system_id":"levelo_inurba_marseille","lat":43.330237,"lon":5.359023,"is_reserved":false,"is_disabled":false,"rental_uris":{"android":"levelo://app?vid=ff822368-00cb-4dfa-8697-959628b6f270","ios":"levelo://app?vid=ff822368-00cb-4dfa-8697-959628b6f270"},"vehicle_type_id":"4","last_reported":1700856433,"current_range_meters":20400,"station_id":"","pricing_plan_id":"free"},{"bike_id":"fef2474f-be0f-4a74-9eb5-a1fa3e7181c2","system_id":"levelo_inurba_marseille","lat":43.295225,"lon":5.37496,"is_reserved":false,"is_disabled":false,"rental_uris":{"android":"levelo://app?vid=fef2474f-be0f-4a74-9eb5-a1fa3e7181c2","ios":"levelo://app?vid=fef2474f-be0f-4a74-9eb5-a1fa3e7181c2"},"vehicle_type_id":"4","last_reported":1700856433,"current_range_meters":3600,"station_id":"ce4bgkp2rcd13ifvqbmg","pricing_plan_id":"free"},{"bike_id":"83ed032c-a99e-4f28-b103-a996133f7d13","system_id":"levelo_inurba_marseille","lat":43.299717,"lon":5.384845,"is_reserved":false,"is_disabled":false,"rental_uris":{"android":"levelo://app?vid=83ed032c-a99e-4f28-b103-a996133f7d13","ios":"levelo://app?vid=83ed032c-a99e-4f28-b103-a996133f7d13"},"vehicle_type_id":"4","last_reported":1700856433,"current_range_meters":28800,"station_id":"ce4bgj92rcd13ifvqbd0","pricing_plan_id":"free"},{"bike_id":"56dc1fcb-c5eb-47c0-8555-dce6d2fca695","system_id":"levelo_inurba_marseille","lat":43.2996,"lon":5.38483,"is_reserved":false,"is_disabled":false,"rental_uris":{"android":"levelo://app?vid=56dc1fcb-c5eb-47c0-8555-dce6d2fca695","ios":"levelo://app?vid=56dc1fcb-c5eb-47c0-8555-dce6d2fca695"},"vehicle_type_id":"4","last_reported":1700856433,"current_range_meters":0,"station_id":"","pricing_plan_id":"free"},{"bike_id":"20262c10-5793-4c78-8251-1eb5668f289a","system_id":"levelo_inurba_marseille","lat":43.29514,"lon":5.37492,"is_reserved":false,"is_disabled":false,"rental_uris":{"android":"levelo://app?vid=20262c10-5793-4c78-8251-1eb5668f289a","ios":"levelo://app?vid=20262c10-5793-4c78-8251-1eb5668f289a"},"vehicle_type_id":"4","last_reported":1700856433,"current_range_meters":27200,"station_id":"ce4bgkp2rcd13ifvqbmg","pricing_plan_id":"free"},{"bike_id":"6b621983-5e9e-42f7-990d-ad5a093820d2","system_id":"levelo_inurba_marseille","lat":43.293801,"lon":5.363066,"is_reserved":false,"is_disabled":false,"rental_uris":{"android":"levelo://app?vid=6b621983-5e9e-42f7-990d-ad5a093820d2","ios":"levelo://app?vid=6b621983-5e9e-42f7-990d-ad5a093820d2"},"vehicle_type_id":"4","last_reported":1700856433,"current_range_meters":3600,"station_id":"","pricing_plan_id":"free"},{"bike_id":"fb016264-dd26-45be-9484-6f79a8dd3cdb","system_id":"levelo_inurba_marseille","lat":43.29602,"lon":5.381084,"is_reserved":false,"is_disabled":false,"rental_uris":{"android":"levelo://app?vid=fb016264-dd26-45be-9484-6f79a8dd3cdb","ios":"levelo://app?vid=fb016264-dd26-45be-9484-6f79a8dd3cdb"},"vehicle_type_id":"4","last_reported":1700856433,"current_range_meters":25200,"station_id":"ce4bgl12rcd13ifvqbo0","pricing_plan_id":"free"},{"bike_id":"a1da9d28-33e5-4e7e-97f3-38244fbea239","system_id":"levelo_inurba_marseille","lat":43.292864,"lon":5.368478,"is_reserved":false,"is_disabled":false,"rental_uris":{"android":"levelo://app?vid=a1da9d28-33e5-4e7e-97f3-38244fbea239","ios":"levelo://app?vid=a1da9d28-33e5-4e7e-97f3-38244fbea239"},"vehicle_type_id":"4","last_reported":1700856433,"current_range_meters":0,"station_id":"ce4bhbp2rcd13ifvqesg","pricing_plan_id":"free"},{"bike_id":"a0188fd3-7244-446c-88ab-7a8891b3f940","system_id":"levelo_inurba_marseille","lat":43.293259,"lon":5.371586,"is_reserved":false,"is_disabled":false,"rental_uris":{"android":"levelo://app?vid=a0188fd3-7244-446c-88ab-7a8891b3f940","ios":"levelo://app?vid=a0188fd3-7244-446c-88ab-7a8891b3f940"},"vehicle_type_id":"4","last_reported":1700856433,"current_range_meters":14400,"station_id":"ce4bgh92rcd13ifvqb40","pricing_plan_id":"free"},{"bike_id":"658a6cf4-bf34-4310-8d7b-416571f5af1a","system_id":"levelo_inurba_marseille","lat":43.303002,"lon":5.392142,"is_reserved":false,"is_disabled":false,"rental_uris":{"android":"levelo://app?vid=658a6cf4-bf34-4310-8d7b-416571f5af1a","ios":"levelo://app?vid=658a6cf4-bf34-4310-8d7b-416571f5af1a"},"vehicle_type_id":"4","last_reported":1700856433,"current_range_meters":25200,"station_id":"ce4bgkh2rcd13ifvqbk0","pricing_plan_id":"free"},{"bike_id":"1061f151-caee-47eb-82c8-1647a211c772","system_id":"levelo_inurba_marseille","lat":43.302992,"lon":5.392136,"is_reserved":false,"is_disabled":false,"rental_uris":{"android":"levelo://app?vid=1061f151-caee-47eb-82c8-1647a211c772","ios":"levelo://app?vid=1061f151-caee-47eb-82c8-1647a211c772"},"vehicle_type_id":"4","last_reported":1700856433,"current_range_meters":2000,"station_id":"ce4bgkh2rcd13ifvqbk0","pricing_plan_id":"free"},{"bike_id":"9b8829c4-272f-4e78-b2c4-79fb5c0da66b","system_id":"levelo_inurba_marseille","lat":43.29871,"lon":5.388057,"is_reserved":false,"is_disabled":false,"rental_uris":{"android":"levelo://app?vid=9b8829c4-272f-4e78-b2c4-79fb5c0da66b","ios":"levelo://app?vid=9b8829c4-272f-4e78-b2c4-79fb5c0da66b"},"vehicle_type_id":"4","last_reported":1700856433,"current_range_meters":0,"station_id":"","pricing_plan_id":"free"},{"bike_id":"c1739e6d-1020-41d7-a6dc-1d894d2b7952","system_id":"levelo_inurba_marseille","lat":43.300852,"lon":5.390859,"is_reserved":false,"is_disabled":false,"rental_uris":{"android":"levelo://app?vid=c1739e6d-1020-41d7-a6dc-1d894d2b7952","ios":"levelo://app?vid=c1739e6d-1020-41d7-a6dc-1d894d2b7952"},"vehicle_type_id":"4","last_reported":1700856433,"current_range_meters":30800,"station_id":"ce4bh192rcd13ifvqdb0","pricing_plan_id":"free"},{"bike_id":"566efe1d-cfb6-4d9d-b699-6791707ea36e","system_id":"levelo_inurba_marseille","lat":43.291675,"lon":5.371583,"is_reserved":false,"is_disabled":false,"rental_uris":{"android":"levelo://app?vid=566efe1d-cfb6-4d9d-b699-6791707ea36e","ios":"levelo://app?vid=566efe1d-cfb6-4d9d-b699-6791707ea36e"},"vehicle_type_id":"4","last_reported":1700856433,"current_range_meters":2800,"station_id":"ce4bha92rcd13ifvqeh0","pricing_plan_id":"free"},{"bike_id":"178eb7c0-6a62-4bf1-a56f-a82d0e477eba","system_id":"levelo_inurba_marseille","lat":43.333651,"lon":5.360146,"is_reserved":false,"is_disabled":false,"rental_uris":{"android":"levelo://app?vid=178eb7c0-6a62-4bf1-a56f-a82d0e477eba","ios":"levelo://app?vid=178eb7c0-6a62-4bf1-a56f-a82d0e477eba"},"vehicle_type_id":"4","last_reported":1700856433,"current_range_meters":3600,"station_id":"","pricing_plan_id":"free"},{"bike_id":"ffde5b7b-10d0-4e1c-aa78-6f31b7935b61","system_id":"levelo_inurba_marseille","lat":43.309038,"lon":5.396546,"is_reserved":false,"is_disabled":false,"rental_uris":{"android":"levelo://app?vid=ffde5b7b-10d0-4e1c-aa78-6f31b7935b61","ios":"levelo://app?vid=ffde5b7b-10d0-4e1c-aa78-6f31b7935b61"},"vehicle_type_id":"4","last_reported":1700856433,"current_range_meters":7600,"station_id":"ce4bh012rcd13ifvqcv0","pricing_plan_id":"free"},{"bike_id":"1d10a1b1-d55f-4279-928a-9c6858f32ca9","system_id":"levelo_inurba_marseille","lat":43.33211,"lon":5.38112,"is_reserved":false,"is_disabled":false,"rental_uris":{"android":"levelo://app?vid=1d10a1b1-d55f-4279-928a-9c6858f32ca9","ios":"levelo://app?vid=1d10a1b1-d55f-4279-928a-9c6858f32ca9"},"vehicle_type_id":"4","last_reported":1700856433,"current_range_meters":0,"station_id":"","pricing_plan_id":"free"},{"bike_id":"50ff15f5-48cf-4c5d-98bd-8ec1ef314a31","system_id":"levelo_inurba_marseille","lat":43.29529,"lon":5.385581,"is_reserved":false,"is_disabled":false,"rental_uris":{"android":"levelo://app?vid=50ff15f5-48cf-4c5d-98bd-8ec1ef314a31","ios":"levelo://app?vid=50ff15f5-48cf-4c5d-98bd-8ec1ef314a31"},"vehicle_type_id":"4","last_reported":1700856433,"current_range_meters":2000,"station_id":"ce4bgih2rcd13ifvqba0","pricing_plan_id":"free"},{"bike_id":"4cd5589a-2a81-45f5-912f-aca9fd7ef8c0","system_id":"levelo_inurba_marseille","lat":43.290779,"lon":5.371482,"is_reserved":false,"is_disabled":false,"rental_uris":{"android":"levelo://app?vid=4cd5589a-2a81-45f5-912f-aca9fd7ef8c0","ios":"levelo://app?vid=4cd5589a-2a81-45f5-912f-aca9fd7ef8c0"},"vehicle_type_id":"4","last_reported":1700856433,"current_range_meters":21200,"station_id":"ce4bh5p2rcd13ifvqe4g","pricing_plan_id":"free"},{"bike_id":"85a2ff4a-055f-4327-a93f-7cfe99a11b03","system_id":"levelo_inurba_marseille","lat":43.30205,"lon":5.394577,"is_reserved":false,"is_disabled":false,"rental_uris":{"android":"levelo://app?vid=85a2ff4a-055f-4327-a93f-7cfe99a11b03","ios":"levelo://app?vid=85a2ff4a-055f-4327-a93f-7cfe99a11b03"},"vehicle_type_id":"4","last_reported":1700856433,"current_range_meters":0,"station_id":"ce4bh0p2rcd13ifvqd70","pricing_plan_id":"free"},{"bike_id":"43cdf951-3b65-4a63-ac1d-646ed0436392","system_id":"levelo_inurba_marseille","lat":43.29006,"lon":5.37174,"is_reserved":false,"is_disabled":false,"rental_uris":{"android":"levelo://app?vid=43cdf951-3b65-4a63-ac1d-646ed0436392","ios":"levelo://app?vid=43cdf951-3b65-4a63-ac1d-646ed0436392"},"vehicle_type_id":"4","last_reported":1700856433,"current_range_meters":27600,"station_id":"","pricing_plan_id":"free"},{"bike_id":"6315098d-d29b-4292-b5ed-9d6064631222","system_id":"levelo_inurba_marseille","lat":43.294153,"lon":5.386305,"is_reserved":false,"is_disabled":false,"rental_uris":{"android":"levelo://app?vid=6315098d-d29b-4292-b5ed-9d6064631222","ios":"levelo://app?vid=6315098d-d29b-4292-b5ed-9d6064631222"},"vehicle_type_id":"4","last_reported":1700856433,"current_range_meters":10000,"station_id":"ce4bh2h2rcd13ifvqdh0","pricing_plan_id":"free"},{"bike_id":"4feedcd6-eb13-4f02-a8b4-884fff49ffe4","system_id":"levelo_inurba_marseille","lat":43.294162,"lon":5.386292,"is_reserved":false,"is_disabled":false,"rental_uris":{"android":"levelo://app?vid=4feedcd6-eb13-4f02-a8b4-884fff49ffe4","ios":"levelo://app?vid=4feedcd6-eb13-4f02-a8b4-884fff49ffe4"},"vehicle_type_id":"4","last_reported":1700856433,"current_range_meters":0,"station_id":"ce4bh2h2rcd13ifvqdh0","pricing_plan_id":"free"},{"bike_id":"a358f34d-b65a-458b-acde-c3f3b33c56ea","system_id":"levelo_inurba_marseille","lat":43.294153,"lon":5.386305,"is_reserved":false,"is_disabled":false,"rental_uris":{"android":"levelo://app?vid=a358f34d-b65a-458b-acde-c3f3b33c56ea","ios":"levelo://app?vid=a358f34d-b65a-458b-acde-c3f3b33c56ea"},"vehicle_type_id":"4","last_reported":1700856433,"current_range_meters":0,"station_id":"ce4bh2h2rcd13ifvqdh0","pricing_plan_id":"free"},{"bike_id":"4e3b9166-35df-40cb-964f-bd9906bd9150","system_id":"levelo_inurba_marseille","lat":43.304274,"lon":5.397513,"is_reserved":false,"is_disabled":false,"rental_uris":{"android":"levelo://app?vid=4e3b9166-35df-40cb-964f-bd9906bd9150","ios":"levelo://app?vid=4e3b9166-35df-40cb-964f-bd9906bd9150"},"vehicle_type_id":"4","last_reported":1700856433,"current_range_meters":25200,"station_id":"ce4bh092rcd13ifvqd20","pricing_plan_id":"free"},{"bike_id":"dcfa5beb-5254-4131-bcb8-f980b1a0bd68","system_id":"levelo_inurba_marseille","lat":43.330442,"lon":5.389148,"is_reserved":false,"is_disabled":false,"rental_uris":{"android":"levelo://app?vid=dcfa5beb-5254-4131-bcb8-f980b1a0bd68","ios":"levelo://app?vid=dcfa5beb-5254-4131-bcb8-f980b1a0bd68"},"vehicle_type_id":"4","last_reported":1700856433,"current_range_meters":28400,"station_id":"ce4bhr92rcd13ifvqhrg","pricing_plan_id":"free"},{"bike_id":"4f080e12-3419-4997-bd7e-b716121d92a2","system_id":"levelo_inurba_marseille","lat":43.33041,"lon":5.389205,"is_reserved":false,"is_disabled":false,"rental_uris":{"android":"levelo://app?vid=4f080e12-3419-4997-bd7e-b716121d92a2","ios":"levelo://app?vid=4f080e12-3419-4997-bd7e-b716121d92a2"},"vehicle_type_id":"4","last_reported":1700856433,"current_range_meters":0,"station_id":"ce4bhr92rcd13ifvqhrg","pricing_plan_id":"free"},{"bike_id":"dd848e4d-9bc3-4bd2-98a6-29f3b4c564aa","system_id":"levelo_inurba_marseille","lat":43.290103,"lon":5.356114,"is_reserved":false,"is_disabled":false,"rental_uris":{"android":"levelo://app?vid=dd848e4d-9bc3-4bd2-98a6-29f3b4c564aa","ios":"levelo://app?vid=dd848e4d-9bc3-4bd2-98a6-29f3b4c564aa"},"vehicle_type_id":"4","last_reported":1700856433,"current_range_meters":14400,"station_id":"ce4bhb92rcd13ifvqen0","pricing_plan_id":"free"},{"bike_id":"1965ecc6-f8c9-4d6e-ba0e-eaf657173e38","system_id":"levelo_inurba_marseille","lat":43.290995,"lon":5.381361,"is_reserved":false,"is_disabled":false,"rental_uris":{"android":"levelo://app?vid=1965ecc6-f8c9-4d6e-ba0e-eaf657173e38","ios":"levelo://app?vid=1965ecc6-f8c9-4d6e-ba0e-eaf657173e38"},"vehicle_type_id":"4","last_reported":1700856433,"current_range_meters":0,"station_id":"ce4bh512rcd13ifvqe2g","pricing_plan_id":"free"},{"bike_id":"6b039b14-cb78-4125-bad1-429d439ecfa4","system_id":"levelo_inurba_marseille","lat":43.297831,"lon":5.393264,"is_reserved":false,"is_disabled":false,"rental_uris":{"android":"levelo://app?vid=6b039b14-cb78-4125-bad1-429d439ecfa4","ios":"levelo://app?vid=6b039b14-cb78-4125-bad1-429d439ecfa4"},"vehicle_type_id":"4","last_reported":1700856433,"current_range_meters":3200,"station_id":"chh1huq6cuj3fo74tm60","pricing_plan_id":"free"},{"bike_id":"b34fc4ea-9682-490e-9812-20a95b3859fe","system_id":"levelo_inurba_marseille","lat":43.295169,"lon":5.390426,"is_reserved":false,"is_disabled":false,"rental_uris":{"android":"levelo://app?vid=b34fc4ea-9682-490e-9812-20a95b3859fe","ios":"levelo://app?vid=b34fc4ea-9682-490e-9812-20a95b3859fe"},"vehicle_type_id":"4","last_reported":1700856433,"current_range_meters":2000,"station_id":"ce4bh3p2rcd13ifvqdp0","pricing_plan_id":"free"},{"bike_id":"db061e58-15a7-4c3b-bf07-338c1e3ec922","system_id":"levelo_inurba_marseille","lat":43.295169,"lon":5.390426,"is_reserved":false,"is_disabled":false,"rental_uris":{"android":"levelo://app?vid=db061e58-15a7-4c3b-bf07-338c1e3ec922","ios":"levelo://app?vid=db061e58-15a7-4c3b-bf07-338c1e3ec922"},"vehicle_type_id":"4","last_reported":1700856433,"current_range_meters":1200,"station_id":"ce4bh3p2rcd13ifvqdp0","pricing_plan_id":"free"},{"bike_id":"bc31c133-8d74-4a4b-bfcc-0b66c35cce69","system_id":"levelo_inurba_marseille","lat":43.28856,"lon":5.358371,"is_reserved":false,"is_disabled":false,"rental_uris":{"android":"levelo://app?vid=bc31c133-8d74-4a4b-bfcc-0b66c35cce69","ios":"levelo://app?vid=bc31c133-8d74-4a4b-bfcc-0b66c35cce69"},"vehicle_type_id":"4","last_reported":1700856433,"current_range_meters":12000,"station_id":"ce4bhb12rcd13ifvqem0","pricing_plan_id":"free"},{"bike_id":"02e33df6-adb0-4efe-b636-8bf02c2451db","system_id":"levelo_inurba_marseille","lat":43.30924,"lon":5.40147,"is_reserved":false,"is_disabled":false,"rental_uris":{"android":"levelo://app?vid=02e33df6-adb0-4efe-b636-8bf02c2451db","ios":"levelo://app?vid=02e33df6-adb0-4efe-b636-8bf02c2451db"},"vehicle_type_id":"4","last_reported":1700856433,"current_range_meters":4000,"station_id":"ce4bgvp2rcd13ifvqct0","pricing_plan_id":"free"},{"bike_id":"611c7336-64e4-4156-819d-267223504a0f","system_id":"levelo_inurba_marseille","lat":43.3092,"lon":5.40149,"is_reserved":false,"is_disabled":false,"rental_uris":{"android":"levelo://app?vid=611c7336-64e4-4156-819d-267223504a0f","ios":"levelo://app?vid=611c7336-64e4-4156-819d-267223504a0f"},"vehicle_type_id":"4","last_reported":1700856433,"current_range_meters":13200,"station_id":"ce4bgvp2rcd13ifvqct0","pricing_plan_id":"free"},{"bike_id":"6ebf7f46-15ee-4bf6-a076-b183e2921d50","system_id":"levelo_inurba_marseille","lat":43.306412,"lon":5.401035,"is_reserved":false,"is_disabled":false,"rental_uris":{"android":"levelo://app?vid=6ebf7f46-15ee-4bf6-a076-b183e2921d50","ios":"levelo://app?vid=6ebf7f46-15ee-4bf6-a076-b183e2921d50"},"vehicle_type_id":"4","last_reported":1700856433,"current_range_meters":14800,"station_id":"ce4bh112rcd13ifvqda0","pricing_plan_id":"free"},{"bike_id":"6e1b586c-0f9c-40c2-b321-2e498582c132","system_id":"levelo_inurba_marseille","lat":43.287037,"lon":5.373763,"is_reserved":false,"is_disabled":false,"rental_uris":{"android":"levelo://app?vid=6e1b586c-0f9c-40c2-b321-2e498582c132","ios":"levelo://app?vid=6e1b586c-0f9c-40c2-b321-2e498582c132"},"vehicle_type_id":"4","last_reported":1700856433,"current_range_meters":29600,"station_id":"ce4bh3p2rcd13ifvqdq0","pricing_plan_id":"free"},{"bike_id":"0d910ec9-10a3-4049-a7d9-567b5ae0d989","system_id":"levelo_inurba_marseille","lat":43.286961,"lon":5.373785,"is_reserved":false,"is_disabled":false,"rental_uris":{"android":"levelo://app?vid=0d910ec9-10a3-4049-a7d9-567b5ae0d989","ios":"levelo://app?vid=0d910ec9-10a3-4049-a7d9-567b5ae0d989"},"vehicle_type_id":"4","last_reported":1700856433,"current_range_meters":18400,"station_id":"ce4bh3p2rcd13ifvqdq0","pricing_plan_id":"free"},{"bike_id":"ed13027d-004e-49e1-bd94-829722873a5c","system_id":"levelo_inurba_marseille","lat":43.286993,"lon":5.373949,"is_reserved":false,"is_disabled":false,"rental_uris":{"android":"levelo://app?vid=ed13027d-004e-49e1-bd94-829722873a5c","ios":"levelo://app?vid=ed13027d-004e-49e1-bd94-829722873a5c"},"vehicle_type_id":"4","last_reported":1700856433,"current_range_meters":5200,"station_id":"ce4bh3p2rcd13ifvqdq0","pricing_plan_id":"free"},{"bike_id":"3fe428c9-b58f-4ed5-bec8-079b6e0d8616","system_id":"levelo_inurba_marseille","lat":43.295196,"lon":5.39397,"is_reserved":false,"is_disabled":false,"rental_uris":{"android":"levelo://app?vid=3fe428c9-b58f-4ed5-bec8-079b6e0d8616","ios":"levelo://app?vid=3fe428c9-b58f-4ed5-bec8-079b6e0d8616"},"vehicle_type_id":"4","last_reported":1700856433,"current_range_meters":400,"station_id":"ce4bh292rcd13ifvqdf0","pricing_plan_id":"free"},{"bike_id":"168de769-23c6-4011-ba95-b9a9bbdc5317","system_id":"levelo_inurba_marseille","lat":43.295194,"lon":5.39397,"is_reserved":false,"is_disabled":false,"rental_uris":{"android":"levelo://app?vid=168de769-23c6-4011-ba95-b9a9bbdc5317","ios":"levelo://app?vid=168de769-23c6-4011-ba95-b9a9bbdc5317"},"vehicle_type_id":"4","last_reported":1700856433,"current_range_meters":27200,"station_id":"ce4bh292rcd13ifvqdf0","pricing_plan_id":"free"},{"bike_id":"6a429281-6b7a-4514-ae28-4a55b45538c0","system_id":"levelo_inurba_marseille","lat":43.295194,"lon":5.39397,"is_reserved":false,"is_disabled":false,"rental_uris":{"android":"levelo://app?vid=6a429281-6b7a-4514-ae28-4a55b45538c0","ios":"levelo://app?vid=6a429281-6b7a-4514-ae28-4a55b45538c0"},"vehicle_type_id":"4","last_reported":1700856433,"current_range_meters":31200,"station_id":"ce4bh292rcd13ifvqdf0","pricing_plan_id":"free"},{"bike_id":"4f2d0581-1a3c-4911-b668-d558cec71273","system_id":"levelo_inurba_marseille","lat":43.295194,"lon":5.39397,"is_reserved":false,"is_disabled":false,"rental_uris":{"android":"levelo://app?vid=4f2d0581-1a3c-4911-b668-d558cec71273","ios":"levelo://app?vid=4f2d0581-1a3c-4911-b668-d558cec71273"},"vehicle_type_id":"4","last_reported":1700856433,"current_range_meters":30000,"station_id":"ce4bh292rcd13ifvqdf0","pricing_plan_id":"free"},{"bike_id":"d4b1f0e2-ef81-4bfd-94ed-b87af8cbe894","system_id":"levelo_inurba_marseille","lat":43.302759,"lon":5.400793,"is_reserved":false,"is_disabled":false,"rental_uris":{"android":"levelo://app?vid=d4b1f0e2-ef81-4bfd-94ed-b87af8cbe894","ios":"levelo://app?vid=d4b1f0e2-ef81-4bfd-94ed-b87af8cbe894"},"vehicle_type_id":"4","last_reported":1700856433,"current_range_meters":14400,"station_id":"ce4bgvh2rcd13ifvqcs0","pricing_plan_id":"free"},{"bike_id":"86850b4b-072c-4158-933c-58951345c423","system_id":"levelo_inurba_marseille","lat":43.31642,"lon":5.40434,"is_reserved":false,"is_disabled":false,"rental_uris":{"android":"levelo://app?vid=86850b4b-072c-4158-933c-58951345c423","ios":"levelo://app?vid=86850b4b-072c-4158-933c-58951345c423"},"vehicle_type_id":"4","last_reported":1700856433,"current_range_meters":0,"station_id":"ce4bh012rcd13ifvqd00","pricing_plan_id":"free"},{"bike_id":"2d1c4025-ebbe-461c-9c12-49f26ca3b811","system_id":"levelo_inurba_marseille","lat":43.29197,"lon":5.39303,"is_reserved":false,"is_disabled":false,"rental_uris":{"android":"levelo://app?vid=2d1c4025-ebbe-461c-9c12-49f26ca3b811","ios":"levelo://app?vid=2d1c4025-ebbe-461c-9c12-49f26ca3b811"},"vehicle_type_id":"4","last_reported":1700856433,"current_range_meters":4000,"station_id":"ce4bh192rcd13ifvqdd0","pricing_plan_id":"free"},{"bike_id":"531abdb9-5c12-41d5-a9f3-70a3d30b12b5","system_id":"levelo_inurba_marseille","lat":43.291994,"lon":5.392907,"is_reserved":false,"is_disabled":false,"rental_uris":{"android":"levelo://app?vid=531abdb9-5c12-41d5-a9f3-70a3d30b12b5","ios":"levelo://app?vid=531abdb9-5c12-41d5-a9f3-70a3d30b12b5"},"vehicle_type_id":"4","last_reported":1700856433,"current_range_meters":16400,"station_id":"ce4bh192rcd13ifvqdd0","pricing_plan_id":"free"},{"bike_id":"eb8277aa-155d-4715-a944-bc1417a500cb","system_id":"levelo_inurba_marseille","lat":43.2862,"lon":5.35105,"is_reserved":false,"is_disabled":false,"rental_uris":{"android":"levelo://app?vid=eb8277aa-155d-4715-a944-bc1417a500cb","ios":"levelo://app?vid=eb8277aa-155d-4715-a944-bc1417a500cb"},"vehicle_type_id":"4","last_reported":1700856433,"current_range_meters":3200,"station_id":"ce4bhch2rcd13ifvqeug","pricing_plan_id":"free"},{"bike_id":"37ff114d-e4f2-4925-9a7a-3f82acf8890f","system_id":"levelo_inurba_marseille","lat":43.285856,"lon":5.350771,"is_reserved":false,"is_disabled":false,"rental_uris":{"android":"levelo://app?vid=37ff114d-e4f2-4925-9a7a-3f82acf8890f","ios":"levelo://app?vid=37ff114d-e4f2-4925-9a7a-3f82acf8890f"},"vehicle_type_id":"4","last_reported":1700856433,"current_range_meters":20000,"station_id":"ce4bhch2rcd13ifvqeug","pricing_plan_id":"free"},{"bike_id":"e8caa0bb-8176-445f-9f23-b711c843ed20","system_id":"levelo_inurba_marseille","lat":43.28615,"lon":5.35099,"is_reserved":false,"is_disabled":false,"rental_uris":{"android":"levelo://app?vid=e8caa0bb-8176-445f-9f23-b711c843ed20","ios":"levelo://app?vid=e8caa0bb-8176-445f-9f23-b711c843ed20"},"vehicle_type_id":"4","last_reported":1700856433,"current_range_meters":20400,"station_id":"ce4bhch2rcd13ifvqeug","pricing_plan_id":"free"},{"bike_id":"7181b4d0-96cc-4f2e-817f-660bd23e0a85","system_id":"levelo_inurba_marseille","lat":43.295713,"lon":5.399639,"is_reserved":false,"is_disabled":false,"rental_uris":{"android":"levelo://app?vid=7181b4d0-96cc-4f2e-817f-660bd23e0a85","ios":"levelo://app?vid=7181b4d0-96cc-4f2e-817f-660bd23e0a85"},"vehicle_type_id":"4","last_reported":1700856433,"current_range_meters":22400,"station_id":"ce4bh312rcd13ifvqdj0","pricing_plan_id":"free"},{"bike_id":"60fb846c-95d4-493d-8ff0-fc77dde513c4","system_id":"levelo_inurba_marseille","lat":43.33723,"lon":5.391594,"is_reserved":false,"is_disabled":false,"rental_uris":{"android":"levelo://app?vid=60fb846c-95d4-493d-8ff0-fc77dde513c4","ios":"levelo://app?vid=60fb846c-95d4-493d-8ff0-fc77dde513c4"},"vehicle_type_id":"4","last_reported":1700856433,"current_range_meters":10000,"station_id":"ce4bhr92rcd13ifvqhsg","pricing_plan_id":"free"},{"bike_id":"142e96e6-a82b-4d09-8358-94e26d393744","system_id":"levelo_inurba_marseille","lat":43.322903,"lon":5.406263,"is_reserved":false,"is_disabled":false,"rental_uris":{"android":"levelo://app?vid=142e96e6-a82b-4d09-8358-94e26d393744","ios":"levelo://app?vid=142e96e6-a82b-4d09-8358-94e26d393744"},"vehicle_type_id":"4","last_reported":1700856433,"current_range_meters":15200,"station_id":"","pricing_plan_id":"free"},{"bike_id":"fbed67cb-7d52-4e0c-8488-1d40e28e0960","system_id":"levelo_inurba_marseille","lat":43.32339,"lon":5.40616,"is_reserved":false,"is_disabled":false,"rental_uris":{"android":"levelo://app?vid=fbed67cb-7d52-4e0c-8488-1d40e28e0960","ios":"levelo://app?vid=fbed67cb-7d52-4e0c-8488-1d40e28e0960"},"vehicle_type_id":"4","last_reported":1700856433,"current_range_meters":400,"station_id":"ce4bhq92rcd13ifvqhjg","pricing_plan_id":"free"},{"bike_id":"265f24ad-a2a7-49d1-9f64-3c5bf8d963bd","system_id":"levelo_inurba_marseille","lat":43.284787,"lon":5.384116,"is_reserved":false,"is_disabled":false,"rental_uris":{"android":"levelo://app?vid=265f24ad-a2a7-49d1-9f64-3c5bf8d963bd","ios":"levelo://app?vid=265f24ad-a2a7-49d1-9f64-3c5bf8d963bd"},"vehicle_type_id":"4","last_reported":1700856433,"current_range_meters":0,"station_id":"ce4bh512rcd13ifvqe3g","pricing_plan_id":"free"},{"bike_id":"d5d0d644-71fd-46a1-83a4-d37ca492c429","system_id":"levelo_inurba_marseille","lat":43.297946,"lon":5.404063,"is_reserved":false,"is_disabled":false,"rental_uris":{"android":"levelo://app?vid=d5d0d644-71fd-46a1-83a4-d37ca492c429","ios":"levelo://app?vid=d5d0d644-71fd-46a1-83a4-d37ca492c429"},"vehicle_type_id":"4","last_reported":1700856433,"current_range_meters":6800,"station_id":"ce4bh112rcd13ifvqd90","pricing_plan_id":"free"},{"bike_id":"13b5b379-e7de-4215-b8c4-bd10897b039b","system_id":"levelo_inurba_marseille","lat":43.284217,"lon":5.349697,"is_reserved":false,"is_disabled":false,"rental_uris":{"android":"levelo://app?vid=13b5b379-e7de-4215-b8c4-bd10897b039b","ios":"levelo://app?vid=13b5b379-e7de-4215-b8c4-bd10897b039b"},"vehicle_type_id":"4","last_reported":1700856433,"current_range_meters":21200,"station_id":"ce4bhbh2rcd13ifvqepg","pricing_plan_id":"free"},{"bike_id":"131884d1-3181-47a1-9298-e34d35ba0298","system_id":"levelo_inurba_marseille","lat":43.284219,"lon":5.3497,"is_reserved":false,"is_disabled":false,"rental_uris":{"android":"levelo://app?vid=131884d1-3181-47a1-9298-e34d35ba0298","ios":"levelo://app?vid=131884d1-3181-47a1-9298-e34d35ba0298"},"vehicle_type_id":"4","last_reported":1700856433,"current_range_meters":24000,"station_id":"ce4bhbh2rcd13ifvqepg","pricing_plan_id":"free"},{"bike_id":"e2284003-4e46-4e0a-93e7-73d05c3666d9","system_id":"levelo_inurba_marseille","lat":43.33508,"lon":5.397755,"is_reserved":false,"is_disabled":false,"rental_uris":{"android":"levelo://app?vid=e2284003-4e46-4e0a-93e7-73d05c3666d9","ios":"levelo://app?vid=e2284003-4e46-4e0a-93e7-73d05c3666d9"},"vehicle_type_id":"4","last_reported":1700856433,"current_range_meters":25200,"station_id":"","pricing_plan_id":"free"},{"bike_id":"37a21022-a5e1-4076-b91e-b59ec7106c3a","system_id":"levelo_inurba_marseille","lat":43.28938,"lon":5.39631,"is_reserved":false,"is_disabled":false,"rental_uris":{"android":"levelo://app?vid=37a21022-a5e1-4076-b91e-b59ec7106c3a","ios":"levelo://app?vid=37a21022-a5e1-4076-b91e-b59ec7106c3a"},"vehicle_type_id":"4","last_reported":1700856433,"current_range_meters":8400,"station_id":"ce4bh3h2rcd13ifvqdn0","pricing_plan_id":"free"},{"bike_id":"b4bc6c19-20e6-4b1e-b989-40d4ba171e93","system_id":"levelo_inurba_marseille","lat":43.335238,"lon":5.397578,"is_reserved":false,"is_disabled":false,"rental_uris":{"android":"levelo://app?vid=b4bc6c19-20e6-4b1e-b989-40d4ba171e93","ios":"levelo://app?vid=b4bc6c19-20e6-4b1e-b989-40d4ba171e93"},"vehicle_type_id":"4","last_reported":1700856433,"current_range_meters":6800,"station_id":"","pricing_plan_id":"free"},{"bike_id":"ddcd2341-5379-47f6-a92a-5349f79cca16","system_id":"levelo_inurba_marseille","lat":43.283502,"lon":5.386471,"is_reserved":false,"is_disabled":false,"rental_uris":{"android":"levelo://app?vid=ddcd2341-5379-47f6-a92a-5349f79cca16","ios":"levelo://app?vid=ddcd2341-5379-47f6-a92a-5349f79cca16"},"vehicle_type_id":"4","last_reported":1700856433,"current_range_meters":8800,"station_id":"ce4bh492rcd13ifvqdvg","pricing_plan_id":"free"},{"bike_id":"09a88198-c1d5-46a8-9a74-3393cd531e27","system_id":"levelo_inurba_marseille","lat":43.28039,"lon":5.369297,"is_reserved":false,"is_disabled":false,"rental_uris":{"android":"levelo://app?vid=09a88198-c1d5-46a8-9a74-3393cd531e27","ios":"levelo://app?vid=09a88198-c1d5-46a8-9a74-3393cd531e27"},"vehicle_type_id":"4","last_reported":1700856433,"current_range_meters":13200,"station_id":"ce4bha12rcd13ifvqef0","pricing_plan_id":"free"},{"bike_id":"00db6a0f-4206-4dd1-9691-6c57595e99eb","system_id":"levelo_inurba_marseille","lat":43.296263,"lon":5.40601,"is_reserved":false,"is_disabled":false,"rental_uris":{"android":"levelo://app?vid=00db6a0f-4206-4dd1-9691-6c57595e99eb","ios":"levelo://app?vid=00db6a0f-4206-4dd1-9691-6c57595e99eb"},"vehicle_type_id":"4","last_reported":1700856433,"current_range_meters":24000,"station_id":"ce4bh0h2rcd13ifvqd60","pricing_plan_id":"free"},{"bike_id":"18c4d2dd-07b6-4cef-8a47-d52962ebfdc8","system_id":"levelo_inurba_marseille","lat":43.284462,"lon":5.392121,"is_reserved":false,"is_disabled":false,"rental_uris":{"android":"levelo://app?vid=18c4d2dd-07b6-4cef-8a47-d52962ebfdc8","ios":"levelo://app?vid=18c4d2dd-07b6-4cef-8a47-d52962ebfdc8"},"vehicle_type_id":"4","last_reported":1700856433,"current_range_meters":800,"station_id":"ce4bhoh2rcd13ifvqh5g","pricing_plan_id":"free"},{"bike_id":"dfb04f6c-5792-4ec6-b542-6d471aad0409","system_id":"levelo_inurba_marseille","lat":43.28434,"lon":5.39174,"is_reserved":false,"is_disabled":false,"rental_uris":{"android":"levelo://app?vid=dfb04f6c-5792-4ec6-b542-6d471aad0409","ios":"levelo://app?vid=dfb04f6c-5792-4ec6-b542-6d471aad0409"},"vehicle_type_id":"4","last_reported":1700856433,"current_range_meters":8000,"station_id":"ce4bhoh2rcd13ifvqh5g","pricing_plan_id":"free"},{"bike_id":"59e761ea-e1c4-4aaa-a75f-dcc85eab25c7","system_id":"levelo_inurba_marseille","lat":43.285742,"lon":5.395004,"is_reserved":false,"is_disabled":false,"rental_uris":{"android":"levelo://app?vid=59e761ea-e1c4-4aaa-a75f-dcc85eab25c7","ios":"levelo://app?vid=59e761ea-e1c4-4aaa-a75f-dcc85eab25c7"},"vehicle_type_id":"4","last_reported":1700856433,"current_range_meters":0,"station_id":"ce4bh292rcd13ifvqdg0","pricing_plan_id":"free"},{"bike_id":"c371bff1-b3d2-4c0b-a23c-92960c679caf","system_id":"levelo_inurba_marseille","lat":43.326605,"lon":5.409903,"is_reserved":false,"is_disabled":false,"rental_uris":{"android":"levelo://app?vid=c371bff1-b3d2-4c0b-a23c-92960c679caf","ios":"levelo://app?vid=c371bff1-b3d2-4c0b-a23c-92960c679caf"},"vehicle_type_id":"4","last_reported":1700856433,"current_range_meters":2800,"station_id":"ce4bhpp2rcd13ifvqhgg","pricing_plan_id":"free"},{"bike_id":"e8997d84-e9e0-4aaa-a76a-c6d2af7271c7","system_id":"levelo_inurba_marseille","lat":43.29884,"lon":5.410176,"is_reserved":false,"is_disabled":false,"rental_uris":{"android":"levelo://app?vid=e8997d84-e9e0-4aaa-a76a-c6d2af7271c7","ios":"levelo://app?vid=e8997d84-e9e0-4aaa-a76a-c6d2af7271c7"},"vehicle_type_id":"4","last_reported":1700856433,"current_range_meters":0,"station_id":"","pricing_plan_id":"free"},{"bike_id":"926465e2-01c5-4483-a2ca-bd4b4a73a9fb","system_id":"levelo_inurba_marseille","lat":43.304188,"lon":5.412904,"is_reserved":false,"is_disabled":false,"rental_uris":{"android":"levelo://app?vid=926465e2-01c5-4483-a2ca-bd4b4a73a9fb","ios":"levelo://app?vid=926465e2-01c5-4483-a2ca-bd4b4a73a9fb"},"vehicle_type_id":"4","last_reported":1700856433,"current_range_meters":23600,"station_id":"ce4bhop2rcd13ifvqh8g","pricing_plan_id":"free"},{"bike_id":"8c86544b-69b1-4539-89b9-18f27975fcba","system_id":"levelo_inurba_marseille","lat":43.279087,"lon":5.380114,"is_reserved":false,"is_disabled":false,"rental_uris":{"android":"levelo://app?vid=8c86544b-69b1-4539-89b9-18f27975fcba","ios":"levelo://app?vid=8c86544b-69b1-4539-89b9-18f27975fcba"},"vehicle_type_id":"4","last_reported":1700856433,"current_range_meters":23600,"station_id":"ce4bhf92rcd13ifvqf50","pricing_plan_id":"free"},{"bike_id":"d0bb53f7-f1b8-4609-a668-27efdac67f66","system_id":"levelo_inurba_marseille","lat":43.27959,"lon":5.38764,"is_reserved":false,"is_disabled":false,"rental_uris":{"android":"levelo://app?vid=d0bb53f7-f1b8-4609-a668-27efdac67f66","ios":"levelo://app?vid=d0bb53f7-f1b8-4609-a668-27efdac67f66"},"vehicle_type_id":"4","last_reported":1700856433,"current_range_meters":0,"station_id":"ce4bhg12rcd13ifvqf80","pricing_plan_id":"free"},{"bike_id":"80ad672d-7cda-49f4-843e-7a8540e0770d","system_id":"levelo_inurba_marseille","lat":43.280784,"lon":5.396622,"is_reserved":false,"is_disabled":false,"rental_uris":{"android":"levelo://app?vid=80ad672d-7cda-49f4-843e-7a8540e0770d","ios":"levelo://app?vid=80ad672d-7cda-49f4-843e-7a8540e0770d"},"vehicle_type_id":"4","last_reported":1700856433,"current_range_meters":30000,"station_id":"ce4bho12rcd13ifvqh2g","pricing_plan_id":"free"},{"bike_id":"505bc0ec-0c48-4841-90f3-ca45b286b8db","system_id":"levelo_inurba_marseille","lat":43.280784,"lon":5.396622,"is_reserved":false,"is_disabled":false,"rental_uris":{"android":"levelo://app?vid=505bc0ec-0c48-4841-90f3-ca45b286b8db","ios":"levelo://app?vid=505bc0ec-0c48-4841-90f3-ca45b286b8db"},"vehicle_type_id":"4","last_reported":1700856433,"current_range_meters":31200,"station_id":"ce4bho12rcd13ifvqh2g","pricing_plan_id":"free"},{"bike_id":"d7e96dab-8a31-411e-9eb2-a0c89e002e0c","system_id":"levelo_inurba_marseille","lat":43.303837,"lon":5.418724,"is_reserved":false,"is_disabled":false,"rental_uris":{"android":"levelo://app?vid=d7e96dab-8a31-411e-9eb2-a0c89e002e0c","ios":"levelo://app?vid=d7e96dab-8a31-411e-9eb2-a0c89e002e0c"},"vehicle_type_id":"4","last_reported":1700856433,"current_range_meters":25200,"station_id":"ce4bhop2rcd13ifvqh7g","pricing_plan_id":"free"},{"bike_id":"354adf10-a6cf-4fdf-ad28-995d5514f5ec","system_id":"levelo_inurba_marseille","lat":43.30349,"lon":5.41879,"is_reserved":false,"is_disabled":false,"rental_uris":{"android":"levelo://app?vid=354adf10-a6cf-4fdf-ad28-995d5514f5ec","ios":"levelo://app?vid=354adf10-a6cf-4fdf-ad28-995d5514f5ec"},"vehicle_type_id":"4","last_reported":1700856433,"current_range_meters":1600,"station_id":"ce4bhop2rcd13ifvqh7g","pricing_plan_id":"free"},{"bike_id":"fdfeaf54-3d11-4ae6-9991-d110814f29a8","system_id":"levelo_inurba_marseille","lat":43.28002,"lon":5.4001,"is_reserved":false,"is_disabled":false,"rental_uris":{"android":"levelo://app?vid=fdfeaf54-3d11-4ae6-9991-d110814f29a8","ios":"levelo://app?vid=fdfeaf54-3d11-4ae6-9991-d110814f29a8"},"vehicle_type_id":"4","last_reported":1700856433,"current_range_meters":9200,"station_id":"ce4bho92rcd13ifvqh4g","pricing_plan_id":"free"},{"bike_id":"561d56c0-616a-4955-bd15-b0e0ddd3d6ba","system_id":"levelo_inurba_marseille","lat":43.279952,"lon":5.400085,"is_reserved":false,"is_disabled":false,"rental_uris":{"android":"levelo://app?vid=561d56c0-616a-4955-bd15-b0e0ddd3d6ba","ios":"levelo://app?vid=561d56c0-616a-4955-bd15-b0e0ddd3d6ba"},"vehicle_type_id":"4","last_reported":1700856433,"current_range_meters":14800,"station_id":"ce4bho92rcd13ifvqh4g","pricing_plan_id":"free"},{"bike_id":"fc8a50fc-7fb9-4b58-ae5e-3658ebaf4b71","system_id":"levelo_inurba_marseille","lat":43.34181,"lon":5.40612,"is_reserved":false,"is_disabled":false,"rental_uris":{"android":"levelo://app?vid=fc8a50fc-7fb9-4b58-ae5e-3658ebaf4b71","ios":"levelo://app?vid=fc8a50fc-7fb9-4b58-ae5e-3658ebaf4b71"},"vehicle_type_id":"4","last_reported":1700856433,"current_range_meters":0,"station_id":"","pricing_plan_id":"free"},{"bike_id":"4fcce5d9-071c-4eeb-873d-e2b8131ef5b1","system_id":"levelo_inurba_marseille","lat":43.317121,"lon":5.423936,"is_reserved":false,"is_disabled":false,"rental_uris":{"android":"levelo://app?vid=4fcce5d9-071c-4eeb-873d-e2b8131ef5b1","ios":"levelo://app?vid=4fcce5d9-071c-4eeb-873d-e2b8131ef5b1"},"vehicle_type_id":"4","last_reported":1700856433,"current_range_meters":19200,"station_id":"ce4bhp92rcd13ifvqhbg","pricing_plan_id":"free"},{"bike_id":"3b5836a7-12bc-4eeb-81a3-25b20505d9af","system_id":"levelo_inurba_marseille","lat":43.317121,"lon":5.423936,"is_reserved":false,"is_disabled":false,"rental_uris":{"android":"levelo://app?vid=3b5836a7-12bc-4eeb-81a3-25b20505d9af","ios":"levelo://app?vid=3b5836a7-12bc-4eeb-81a3-25b20505d9af"},"vehicle_type_id":"4","last_reported":1700856433,"current_range_meters":12400,"station_id":"ce4bhp92rcd13ifvqhbg","pricing_plan_id":"free"},{"bike_id":"6fcb3cdf-ed31-4c66-a797-f8fbee03a459","system_id":"levelo_inurba_marseille","lat":43.304088,"lon":5.425388,"is_reserved":false,"is_disabled":false,"rental_uris":{"android":"levelo://app?vid=6fcb3cdf-ed31-4c66-a797-f8fbee03a459","ios":"levelo://app?vid=6fcb3cdf-ed31-4c66-a797-f8fbee03a459"},"vehicle_type_id":"4","last_reported":1700856433,"current_range_meters":21200,"station_id":"ce4bhoh2rcd13ifvqh6g","pricing_plan_id":"free"},{"bike_id":"36c661af-b1d4-4283-adeb-a6b360ed03cd","system_id":"levelo_inurba_marseille","lat":43.29555,"lon":5.42277,"is_reserved":false,"is_disabled":false,"rental_uris":{"android":"levelo://app?vid=36c661af-b1d4-4283-adeb-a6b360ed03cd","ios":"levelo://app?vid=36c661af-b1d4-4283-adeb-a6b360ed03cd"},"vehicle_type_id":"4","last_reported":1700856433,"current_range_meters":15200,"station_id":"ce4bhph2rcd13ifvqhdg","pricing_plan_id":"free"},{"bike_id":"c0e7c921-2f34-4325-9644-1440c95e11ac","system_id":"levelo_inurba_marseille","lat":43.295523,"lon":5.422926,"is_reserved":false,"is_disabled":false,"rental_uris":{"android":"levelo://app?vid=c0e7c921-2f34-4325-9644-1440c95e11ac","ios":"levelo://app?vid=c0e7c921-2f34-4325-9644-1440c95e11ac"},"vehicle_type_id":"4","last_reported":1700856433,"current_range_meters":18000,"station_id":"ce4bhph2rcd13ifvqhdg","pricing_plan_id":"free"},{"bike_id":"39ba2a28-4e45-47ae-b54e-2e865e84aa2a","system_id":"levelo_inurba_marseille","lat":43.295523,"lon":5.422926,"is_reserved":false,"is_disabled":false,"rental_uris":{"android":"levelo://app?vid=39ba2a28-4e45-47ae-b54e-2e865e84aa2a","ios":"levelo://app?vid=39ba2a28-4e45-47ae-b54e-2e865e84aa2a"},"vehicle_type_id":"4","last_reported":1700856433,"current_range_meters":28800,"station_id":"ce4bhph2rcd13ifvqhdg","pricing_plan_id":"free"},{"bike_id":"1a90ad96-70fc-4155-86e7-f16ea0bf6707","system_id":"levelo_inurba_marseille","lat":43.295523,"lon":5.422926,"is_reserved":false,"is_disabled":false,"rental_uris":{"android":"levelo://app?vid=1a90ad96-70fc-4155-86e7-f16ea0bf6707","ios":"levelo://app?vid=1a90ad96-70fc-4155-86e7-f16ea0bf6707"},"vehicle_type_id":"4","last_reported":1700856433,"current_range_meters":28800,"station_id":"ce4bhph2rcd13ifvqhdg","pricing_plan_id":"free"},{"bike_id":"ec3d03da-78c9-4642-80f1-267154a38bb0","system_id":"levelo_inurba_marseille","lat":43.295511,"lon":5.422926,"is_reserved":false,"is_disabled":false,"rental_uris":{"android":"levelo://app?vid=ec3d03da-78c9-4642-80f1-267154a38bb0","ios":"levelo://app?vid=ec3d03da-78c9-4642-80f1-267154a38bb0"},"vehicle_type_id":"4","last_reported":1700856433,"current_range_meters":31600,"station_id":"ce4bhph2rcd13ifvqhdg","pricing_plan_id":"free"},{"bike_id":"9830637b-caf5-476f-85b7-c02033487ff2","system_id":"levelo_inurba_marseille","lat":43.295511,"lon":5.422926,"is_reserved":false,"is_disabled":false,"rental_uris":{"android":"levelo://app?vid=9830637b-caf5-476f-85b7-c02033487ff2","ios":"levelo://app?vid=9830637b-caf5-476f-85b7-c02033487ff2"},"vehicle_type_id":"4","last_reported":1700856433,"current_range_meters":31200,"station_id":"ce4bhph2rcd13ifvqhdg","pricing_plan_id":"free"},{"bike_id":"886b94e7-3f0f-4f28-ab90-06e9345b689d","system_id":"levelo_inurba_marseille","lat":43.295523,"lon":5.422926,"is_reserved":false,"is_disabled":false,"rental_uris":{"android":"levelo://app?vid=886b94e7-3f0f-4f28-ab90-06e9345b689d","ios":"levelo://app?vid=886b94e7-3f0f-4f28-ab90-06e9345b689d"},"vehicle_type_id":"4","last_reported":1700856433,"current_range_meters":3200,"station_id":"ce4bhph2rcd13ifvqhdg","pricing_plan_id":"free"},{"bike_id":"9f3ea0ae-761e-43b1-ad64-979f3efc0236","system_id":"levelo_inurba_marseille","lat":43.295511,"lon":5.422926,"is_reserved":false,"is_disabled":false,"rental_uris":{"android":"levelo://app?vid=9f3ea0ae-761e-43b1-ad64-979f3efc0236","ios":"levelo://app?vid=9f3ea0ae-761e-43b1-ad64-979f3efc0236"},"vehicle_type_id":"4","last_reported":1700856433,"current_range_meters":24800,"station_id":"ce4bhph2rcd13ifvqhdg","pricing_plan_id":"free"},{"bike_id":"118822d8-6e1e-4e74-a488-66c0b9bac4ea","system_id":"levelo_inurba_marseille","lat":43.29561,"lon":5.42289,"is_reserved":false,"is_disabled":false,"rental_uris":{"android":"levelo://app?vid=118822d8-6e1e-4e74-a488-66c0b9bac4ea","ios":"levelo://app?vid=118822d8-6e1e-4e74-a488-66c0b9bac4ea"},"vehicle_type_id":"4","last_reported":1700856433,"current_range_meters":22800,"station_id":"ce4bhph2rcd13ifvqhdg","pricing_plan_id":"free"},{"bike_id":"60384595-5838-46d3-8ef9-ce34760ba3f9","system_id":"levelo_inurba_marseille","lat":43.295511,"lon":5.422926,"is_reserved":false,"is_disabled":false,"rental_uris":{"android":"levelo://app?vid=60384595-5838-46d3-8ef9-ce34760ba3f9","ios":"levelo://app?vid=60384595-5838-46d3-8ef9-ce34760ba3f9"},"vehicle_type_id":"4","last_reported":1700856433,"current_range_meters":31600,"station_id":"ce4bhph2rcd13ifvqhdg","pricing_plan_id":"free"},{"bike_id":"6d892d9f-8bb7-466b-91e4-6b4cd5e06b20","system_id":"levelo_inurba_marseille","lat":43.295511,"lon":5.422926,"is_reserved":false,"is_disabled":false,"rental_uris":{"android":"levelo://app?vid=6d892d9f-8bb7-466b-91e4-6b4cd5e06b20","ios":"levelo://app?vid=6d892d9f-8bb7-466b-91e4-6b4cd5e06b20"},"vehicle_type_id":"4","last_reported":1700856433,"current_range_meters":27600,"station_id":"ce4bhph2rcd13ifvqhdg","pricing_plan_id":"free"},{"bike_id":"a8458d8a-3aa9-4c66-838d-2a59487f070d","system_id":"levelo_inurba_marseille","lat":43.278128,"lon":5.407195,"is_reserved":false,"is_disabled":false,"rental_uris":{"android":"levelo://app?vid=a8458d8a-3aa9-4c66-838d-2a59487f070d","ios":"levelo://app?vid=a8458d8a-3aa9-4c66-838d-2a59487f070d"},"vehicle_type_id":"4","last_reported":1700856433,"current_range_meters":24800,"station_id":"ce4bhnh2rcd13ifvqgtg","pricing_plan_id":"free"},{"bike_id":"58ba1594-dbb6-46f4-89e7-d4cbdd79499a","system_id":"levelo_inurba_marseille","lat":43.278128,"lon":5.407195,"is_reserved":false,"is_disabled":false,"rental_uris":{"android":"levelo://app?vid=58ba1594-dbb6-46f4-89e7-d4cbdd79499a","ios":"levelo://app?vid=58ba1594-dbb6-46f4-89e7-d4cbdd79499a"},"vehicle_type_id":"4","last_reported":1700856433,"current_range_meters":20800,"station_id":"ce4bhnh2rcd13ifvqgtg","pricing_plan_id":"free"},{"bike_id":"28e8ce00-6b21-4e06-9930-c7c4408cc650","system_id":"levelo_inurba_marseille","lat":43.278164,"lon":5.407143,"is_reserved":false,"is_disabled":false,"rental_uris":{"android":"levelo://app?vid=28e8ce00-6b21-4e06-9930-c7c4408cc650","ios":"levelo://app?vid=28e8ce00-6b21-4e06-9930-c7c4408cc650"},"vehicle_type_id":"4","last_reported":1700856433,"current_range_meters":0,"station_id":"","pricing_plan_id":"free"},{"bike_id":"143b2fff-69da-4899-a45d-9740b6b83a8b","system_id":"levelo_inurba_marseille","lat":43.278128,"lon":5.407195,"is_reserved":false,"is_disabled":false,"rental_uris":{"android":"levelo://app?vid=143b2fff-69da-4899-a45d-9740b6b83a8b","ios":"levelo://app?vid=143b2fff-69da-4899-a45d-9740b6b83a8b"},"vehicle_type_id":"4","last_reported":1700856433,"current_range_meters":30400,"station_id":"ce4bhnh2rcd13ifvqgtg","pricing_plan_id":"free"},{"bike_id":"89a1ff33-0e14-4cd3-a8bc-87a198c4f371","system_id":"levelo_inurba_marseille","lat":43.278128,"lon":5.407195,"is_reserved":false,"is_disabled":false,"rental_uris":{"android":"levelo://app?vid=89a1ff33-0e14-4cd3-a8bc-87a198c4f371","ios":"levelo://app?vid=89a1ff33-0e14-4cd3-a8bc-87a198c4f371"},"vehicle_type_id":"4","last_reported":1700856433,"current_range_meters":31200,"station_id":"ce4bhnh2rcd13ifvqgtg","pricing_plan_id":"free"},{"bike_id":"229fd7f6-ab14-4456-9aa5-22c620e5a4f0","system_id":"levelo_inurba_marseille","lat":43.278128,"lon":5.407195,"is_reserved":false,"is_disabled":false,"rental_uris":{"android":"levelo://app?vid=229fd7f6-ab14-4456-9aa5-22c620e5a4f0","ios":"levelo://app?vid=229fd7f6-ab14-4456-9aa5-22c620e5a4f0"},"vehicle_type_id":"4","last_reported":1700856433,"current_range_meters":30800,"station_id":"ce4bhnh2rcd13ifvqgtg","pricing_plan_id":"free"},{"bike_id":"fc3c3486-b5e3-401b-9cc4-f32844ec20e0","system_id":"levelo_inurba_marseille","lat":43.279578,"lon":5.410484,"is_reserved":false,"is_disabled":false,"rental_uris":{"android":"levelo://app?vid=fc3c3486-b5e3-401b-9cc4-f32844ec20e0","ios":"levelo://app?vid=fc3c3486-b5e3-401b-9cc4-f32844ec20e0"},"vehicle_type_id":"4","last_reported":1700856433,"current_range_meters":0,"station_id":"ce4bhnp2rcd13ifvqh0g","pricing_plan_id":"free"},{"bike_id":"f23d8119-b478-4639-98c5-6883279f9f84","system_id":"levelo_inurba_marseille","lat":43.32592,"lon":5.43067,"is_reserved":false,"is_disabled":false,"rental_uris":{"android":"levelo://app?vid=f23d8119-b478-4639-98c5-6883279f9f84","ios":"levelo://app?vid=f23d8119-b478-4639-98c5-6883279f9f84"},"vehicle_type_id":"4","last_reported":1700856433,"current_range_meters":29600,"station_id":"","pricing_plan_id":"free"},{"bike_id":"e7b368e8-9edf-4ac8-acef-7e9558d427aa","system_id":"levelo_inurba_marseille","lat":43.32591,"lon":5.430713,"is_reserved":false,"is_disabled":false,"rental_uris":{"android":"levelo://app?vid=e7b368e8-9edf-4ac8-acef-7e9558d427aa","ios":"levelo://app?vid=e7b368e8-9edf-4ac8-acef-7e9558d427aa"},"vehicle_type_id":"4","last_reported":1700856433,"current_range_meters":0,"station_id":"","pricing_plan_id":"free"},{"bike_id":"ed30d6a1-b23a-49e5-9c83-5546be72a734","system_id":"levelo_inurba_marseille","lat":43.3259,"lon":5.43075,"is_reserved":false,"is_disabled":false,"rental_uris":{"android":"levelo://app?vid=ed30d6a1-b23a-49e5-9c83-5546be72a734","ios":"levelo://app?vid=ed30d6a1-b23a-49e5-9c83-5546be72a734"},"vehicle_type_id":"4","last_reported":1700856433,"current_range_meters":24400,"station_id":"","pricing_plan_id":"free"},{"bike_id":"d67469ee-5362-4610-a163-fe05ae3cf4f7","system_id":"levelo_inurba_marseille","lat":43.32604,"lon":5.430817,"is_reserved":false,"is_disabled":false,"rental_uris":{"android":"levelo://app?vid=d67469ee-5362-4610-a163-fe05ae3cf4f7","ios":"levelo://app?vid=d67469ee-5362-4610-a163-fe05ae3cf4f7"},"vehicle_type_id":"4","last_reported":1700856433,"current_range_meters":12800,"station_id":"","pricing_plan_id":"free"},{"bike_id":"c85f7616-3a9e-47a4-ae16-28a03e51ab4f","system_id":"levelo_inurba_marseille","lat":43.29163,"lon":5.42731,"is_reserved":false,"is_disabled":false,"rental_uris":{"android":"levelo://app?vid=c85f7616-3a9e-47a4-ae16-28a03e51ab4f","ios":"levelo://app?vid=c85f7616-3a9e-47a4-ae16-28a03e51ab4f"},"vehicle_type_id":"4","last_reported":1700856433,"current_range_meters":2000,"station_id":"","pricing_plan_id":"free"},{"bike_id":"06bdcf0e-5a9a-4369-8e9b-bf176d97953b","system_id":"levelo_inurba_marseille","lat":43.26518,"lon":5.38344,"is_reserved":false,"is_disabled":false,"rental_uris":{"android":"levelo://app?vid=06bdcf0e-5a9a-4369-8e9b-bf176d97953b","ios":"levelo://app?vid=06bdcf0e-5a9a-4369-8e9b-bf176d97953b"},"vehicle_type_id":"4","last_reported":1700856433,"current_range_meters":4400,"station_id":"","pricing_plan_id":"free"},{"bike_id":"2b5f0b27-ae58-4e9e-bd76-c585f78e8a73","system_id":"levelo_inurba_marseille","lat":43.26386,"lon":5.37454,"is_reserved":false,"is_disabled":false,"rental_uris":{"android":"levelo://app?vid=2b5f0b27-ae58-4e9e-bd76-c585f78e8a73","ios":"levelo://app?vid=2b5f0b27-ae58-4e9e-bd76-c585f78e8a73"},"vehicle_type_id":"4","last_reported":1700856433,"current_range_meters":13600,"station_id":"","pricing_plan_id":"free"},{"bike_id":"a1d95e35-bc72-40fd-9474-104870c03b88","system_id":"levelo_inurba_marseille","lat":43.308051,"lon":5.43527,"is_reserved":false,"is_disabled":false,"rental_uris":{"android":"levelo://app?vid=a1d95e35-bc72-40fd-9474-104870c03b88","ios":"levelo://app?vid=a1d95e35-bc72-40fd-9474-104870c03b88"},"vehicle_type_id":"4","last_reported":1700856433,"current_range_meters":7600,"station_id":"ce4bhph2rcd13ifvqheg","pricing_plan_id":"free"},{"bike_id":"8bb5fb4c-f033-472d-9384-8c187d29c15f","system_id":"levelo_inurba_marseille","lat":43.308051,"lon":5.43527,"is_reserved":false,"is_disabled":false,"rental_uris":{"android":"levelo://app?vid=8bb5fb4c-f033-472d-9384-8c187d29c15f","ios":"levelo://app?vid=8bb5fb4c-f033-472d-9384-8c187d29c15f"},"vehicle_type_id":"4","last_reported":1700856433,"current_range_meters":31200,"station_id":"ce4bhph2rcd13ifvqheg","pricing_plan_id":"free"},{"bike_id":"70463576-b446-411d-b3ef-9f48f4cf5a5e","system_id":"levelo_inurba_marseille","lat":43.265582,"lon":5.390004,"is_reserved":false,"is_disabled":false,"rental_uris":{"android":"levelo://app?vid=70463576-b446-411d-b3ef-9f48f4cf5a5e","ios":"levelo://app?vid=70463576-b446-411d-b3ef-9f48f4cf5a5e"},"vehicle_type_id":"4","last_reported":1700856433,"current_range_meters":5200,"station_id":"ce4bhe12rcd13ifvqf30","pricing_plan_id":"free"},{"bike_id":"5137aad6-9aa6-45b8-b011-6bb9bc3ba129","system_id":"levelo_inurba_marseille","lat":43.265507,"lon":5.389975,"is_reserved":false,"is_disabled":false,"rental_uris":{"android":"levelo://app?vid=5137aad6-9aa6-45b8-b011-6bb9bc3ba129","ios":"levelo://app?vid=5137aad6-9aa6-45b8-b011-6bb9bc3ba129"},"vehicle_type_id":"4","last_reported":1700856433,"current_range_meters":6400,"station_id":"ce4bhe12rcd13ifvqf30","pricing_plan_id":"free"},{"bike_id":"a6cf9b04-855d-4dc5-9c72-ce4a8e5bbb9c","system_id":"levelo_inurba_marseille","lat":43.31724,"lon":5.43696,"is_reserved":false,"is_disabled":false,"rental_uris":{"android":"levelo://app?vid=a6cf9b04-855d-4dc5-9c72-ce4a8e5bbb9c","ios":"levelo://app?vid=a6cf9b04-855d-4dc5-9c72-ce4a8e5bbb9c"},"vehicle_type_id":"4","last_reported":1700856433,"current_range_meters":1600,"station_id":"ce4bhp92rcd13ifvqhcg","pricing_plan_id":"free"},{"bike_id":"58f06a5a-fab0-4e47-86ce-26fb451193b2","system_id":"levelo_inurba_marseille","lat":43.317104,"lon":5.436818,"is_reserved":false,"is_disabled":false,"rental_uris":{"android":"levelo://app?vid=58f06a5a-fab0-4e47-86ce-26fb451193b2","ios":"levelo://app?vid=58f06a5a-fab0-4e47-86ce-26fb451193b2"},"vehicle_type_id":"4","last_reported":1700856433,"current_range_meters":17600,"station_id":"ce4bhp92rcd13ifvqhcg","pricing_plan_id":"free"},{"bike_id":"2f057b81-6fc8-4570-8186-e577abd426a5","system_id":"levelo_inurba_marseille","lat":43.262012,"lon":5.379307,"is_reserved":false,"is_disabled":false,"rental_uris":{"android":"levelo://app?vid=2f057b81-6fc8-4570-8186-e577abd426a5","ios":"levelo://app?vid=2f057b81-6fc8-4570-8186-e577abd426a5"},"vehicle_type_id":"4","last_reported":1700856433,"current_range_meters":6000,"station_id":"ce4bhjp2rcd13ifvqg90","pricing_plan_id":"free"},{"bike_id":"1e272c67-0721-4a45-a082-8c54474509d1","system_id":"levelo_inurba_marseille","lat":43.29901,"lon":5.436851,"is_reserved":false,"is_disabled":false,"rental_uris":{"android":"levelo://app?vid=1e272c67-0721-4a45-a082-8c54474509d1","ios":"levelo://app?vid=1e272c67-0721-4a45-a082-8c54474509d1"},"vehicle_type_id":"4","last_reported":1700856433,"current_range_meters":0,"station_id":"ce4bhpp2rcd13ifvqhfg","pricing_plan_id":"free"},{"bike_id":"2c0e6769-9ad4-4de5-8cad-fbe974261d68","system_id":"levelo_inurba_marseille","lat":43.281562,"lon":5.426362,"is_reserved":false,"is_disabled":false,"rental_uris":{"android":"levelo://app?vid=2c0e6769-9ad4-4de5-8cad-fbe974261d68","ios":"levelo://app?vid=2c0e6769-9ad4-4de5-8cad-fbe974261d68"},"vehicle_type_id":"4","last_reported":1700856433,"current_range_meters":5200,"station_id":"ce4bhnh2rcd13ifvqgug","pricing_plan_id":"free"},{"bike_id":"5cc76595-4035-4213-b74e-41dabe622aaf","system_id":"levelo_inurba_marseille","lat":43.28151,"lon":5.42632,"is_reserved":false,"is_disabled":false,"rental_uris":{"android":"levelo://app?vid=5cc76595-4035-4213-b74e-41dabe622aaf","ios":"levelo://app?vid=5cc76595-4035-4213-b74e-41dabe622aaf"},"vehicle_type_id":"4","last_reported":1700856433,"current_range_meters":7600,"station_id":"ce4bhnh2rcd13ifvqgug","pricing_plan_id":"free"},{"bike_id":"df5dbc25-1b6a-4167-870f-0b830a8d1ac3","system_id":"levelo_inurba_marseille","lat":43.28153,"lon":5.42641,"is_reserved":false,"is_disabled":false,"rental_uris":{"android":"levelo://app?vid=df5dbc25-1b6a-4167-870f-0b830a8d1ac3","ios":"levelo://app?vid=df5dbc25-1b6a-4167-870f-0b830a8d1ac3"},"vehicle_type_id":"4","last_reported":1700856433,"current_range_meters":2800,"station_id":"ce4bhnh2rcd13ifvqgug","pricing_plan_id":"free"},{"bike_id":"2496f70c-ec07-44fb-9b04-b20b54c5e53f","system_id":"levelo_inurba_marseille","lat":43.281548,"lon":5.42643,"is_reserved":false,"is_disabled":false,"rental_uris":{"android":"levelo://app?vid=2496f70c-ec07-44fb-9b04-b20b54c5e53f","ios":"levelo://app?vid=2496f70c-ec07-44fb-9b04-b20b54c5e53f"},"vehicle_type_id":"4","last_reported":1700856433,"current_range_meters":25200,"station_id":"ce4bhnh2rcd13ifvqgug","pricing_plan_id":"free"},{"bike_id":"5ac38179-4d98-4b89-80f2-dc6cd474e479","system_id":"levelo_inurba_marseille","lat":43.28155,"lon":5.42647,"is_reserved":false,"is_disabled":false,"rental_uris":{"android":"levelo://app?vid=5ac38179-4d98-4b89-80f2-dc6cd474e479","ios":"levelo://app?vid=5ac38179-4d98-4b89-80f2-dc6cd474e479"},"vehicle_type_id":"4","last_reported":1700856433,"current_range_meters":20400,"station_id":"ce4bhnh2rcd13ifvqgug","pricing_plan_id":"free"},{"bike_id":"57e79899-8ad3-45b7-9635-8cfec915ab09","system_id":"levelo_inurba_marseille","lat":43.281548,"lon":5.42643,"is_reserved":false,"is_disabled":false,"rental_uris":{"android":"levelo://app?vid=57e79899-8ad3-45b7-9635-8cfec915ab09","ios":"levelo://app?vid=57e79899-8ad3-45b7-9635-8cfec915ab09"},"vehicle_type_id":"4","last_reported":1700856433,"current_range_meters":28400,"station_id":"ce4bhnh2rcd13ifvqgug","pricing_plan_id":"free"},{"bike_id":"6181795c-d57f-4dce-a524-f46690bf06cb","system_id":"levelo_inurba_marseille","lat":43.28151,"lon":5.4265,"is_reserved":false,"is_disabled":false,"rental_uris":{"android":"levelo://app?vid=6181795c-d57f-4dce-a524-f46690bf06cb","ios":"levelo://app?vid=6181795c-d57f-4dce-a524-f46690bf06cb"},"vehicle_type_id":"4","last_reported":1700856433,"current_range_meters":28400,"station_id":"ce4bhnh2rcd13ifvqgug","pricing_plan_id":"free"},{"bike_id":"a397e803-15ed-4f7f-93b9-1d8a8de9f50a","system_id":"levelo_inurba_marseille","lat":43.29949,"lon":5.44003,"is_reserved":false,"is_disabled":false,"rental_uris":{"android":"levelo://app?vid=a397e803-15ed-4f7f-93b9-1d8a8de9f50a","ios":"levelo://app?vid=a397e803-15ed-4f7f-93b9-1d8a8de9f50a"},"vehicle_type_id":"4","last_reported":1700856433,"current_range_meters":7200,"station_id":"","pricing_plan_id":"free"},{"bike_id":"24f1bf1f-5268-45e6-a816-869a92bcc51d","system_id":"levelo_inurba_marseille","lat":43.27494,"lon":5.42452,"is_reserved":false,"is_disabled":false,"rental_uris":{"android":"levelo://app?vid=24f1bf1f-5268-45e6-a816-869a92bcc51d","ios":"levelo://app?vid=24f1bf1f-5268-45e6-a816-869a92bcc51d"},"vehicle_type_id":"4","last_reported":1700856433,"current_range_meters":22400,"station_id":"ce4bhn92rcd13ifvqgrg","pricing_plan_id":"free"},{"bike_id":"d17c369d-52ad-4a88-a869-88a8b1196620","system_id":"levelo_inurba_marseille","lat":43.260909,"lon":5.397591,"is_reserved":false,"is_disabled":false,"rental_uris":{"android":"levelo://app?vid=d17c369d-52ad-4a88-a869-88a8b1196620","ios":"levelo://app?vid=d17c369d-52ad-4a88-a869-88a8b1196620"},"vehicle_type_id":"4","last_reported":1700856433,"current_range_meters":15200,"station_id":"ce4bhi12rcd13ifvqfq0","pricing_plan_id":"free"},{"bike_id":"c4d54089-7d7d-4a09-85b9-e70e49f97247","system_id":"levelo_inurba_marseille","lat":43.25827,"lon":5.39435,"is_reserved":false,"is_disabled":false,"rental_uris":{"android":"levelo://app?vid=c4d54089-7d7d-4a09-85b9-e70e49f97247","ios":"levelo://app?vid=c4d54089-7d7d-4a09-85b9-e70e49f97247"},"vehicle_type_id":"4","last_reported":1700856433,"current_range_meters":16400,"station_id":"ce4bhip2rcd13ifvqft0","pricing_plan_id":"free"},{"bike_id":"fc2ddff9-0694-4655-b9ff-b79c8125f7fd","system_id":"levelo_inurba_marseille","lat":43.258224,"lon":5.394369,"is_reserved":false,"is_disabled":false,"rental_uris":{"android":"levelo://app?vid=fc2ddff9-0694-4655-b9ff-b79c8125f7fd","ios":"levelo://app?vid=fc2ddff9-0694-4655-b9ff-b79c8125f7fd"},"vehicle_type_id":"4","last_reported":1700856433,"current_range_meters":12400,"station_id":"ce4bhip2rcd13ifvqft0","pricing_plan_id":"free"},{"bike_id":"952f2723-4258-4e52-9589-4111ff422cbe","system_id":"levelo_inurba_marseille","lat":43.258224,"lon":5.394369,"is_reserved":false,"is_disabled":false,"rental_uris":{"android":"levelo://app?vid=952f2723-4258-4e52-9589-4111ff422cbe","ios":"levelo://app?vid=952f2723-4258-4e52-9589-4111ff422cbe"},"vehicle_type_id":"4","last_reported":1700856433,"current_range_meters":2400,"station_id":"ce4bhip2rcd13ifvqft0","pricing_plan_id":"free"},{"bike_id":"33365e98-9ada-4f35-b9c4-ebe09a662b13","system_id":"levelo_inurba_marseille","lat":43.254947,"lon":5.376454,"is_reserved":false,"is_disabled":false,"rental_uris":{"android":"levelo://app?vid=33365e98-9ada-4f35-b9c4-ebe09a662b13","ios":"levelo://app?vid=33365e98-9ada-4f35-b9c4-ebe09a662b13"},"vehicle_type_id":"4","last_reported":1700856433,"current_range_meters":0,"station_id":"ce4bhh12rcd13ifvqff0","pricing_plan_id":"free"},{"bike_id":"cfd2dccf-2ef8-4b4a-8469-7caa00dd869f","system_id":"levelo_inurba_marseille","lat":43.270721,"lon":5.422764,"is_reserved":false,"is_disabled":false,"rental_uris":{"android":"levelo://app?vid=cfd2dccf-2ef8-4b4a-8469-7caa00dd869f","ios":"levelo://app?vid=cfd2dccf-2ef8-4b4a-8469-7caa00dd869f"},"vehicle_type_id":"4","last_reported":1700856433,"current_range_meters":17600,"station_id":"ce4bhk92rcd13ifvqgb0","pricing_plan_id":"free"},{"bike_id":"ad657e31-d5a7-459b-a7ef-89532e280c6c","system_id":"levelo_inurba_marseille","lat":43.270721,"lon":5.422764,"is_reserved":false,"is_disabled":false,"rental_uris":{"android":"levelo://app?vid=ad657e31-d5a7-459b-a7ef-89532e280c6c","ios":"levelo://app?vid=ad657e31-d5a7-459b-a7ef-89532e280c6c"},"vehicle_type_id":"4","last_reported":1700856433,"current_range_meters":13200,"station_id":"ce4bhk92rcd13ifvqgb0","pricing_plan_id":"free"},{"bike_id":"6e55057c-225a-49d9-92b8-4a4d26b84634","system_id":"levelo_inurba_marseille","lat":43.26897,"lon":5.420966,"is_reserved":false,"is_disabled":false,"rental_uris":{"android":"levelo://app?vid=6e55057c-225a-49d9-92b8-4a4d26b84634","ios":"levelo://app?vid=6e55057c-225a-49d9-92b8-4a4d26b84634"},"vehicle_type_id":"4","last_reported":1700856433,"current_range_meters":31200,"station_id":"","pricing_plan_id":"free"},{"bike_id":"932b3241-dcb8-48b5-a0c3-1202f478e4ac","system_id":"levelo_inurba_marseille","lat":43.24999,"lon":5.38924,"is_reserved":false,"is_disabled":false,"rental_uris":{"android":"levelo://app?vid=932b3241-dcb8-48b5-a0c3-1202f478e4ac","ios":"levelo://app?vid=932b3241-dcb8-48b5-a0c3-1202f478e4ac"},"vehicle_type_id":"4","last_reported":1700856433,"current_range_meters":26800,"station_id":"ce4bhgp2rcd13ifvqfd0","pricing_plan_id":"free"},{"bike_id":"88519be8-7050-4d98-8f39-11b31a4d68cd","system_id":"levelo_inurba_marseille","lat":43.2479,"lon":5.374457,"is_reserved":false,"is_disabled":false,"rental_uris":{"android":"levelo://app?vid=88519be8-7050-4d98-8f39-11b31a4d68cd","ios":"levelo://app?vid=88519be8-7050-4d98-8f39-11b31a4d68cd"},"vehicle_type_id":"4","last_reported":1700856433,"current_range_meters":0,"station_id":"ce4bhgh2rcd13ifvqfb0","pricing_plan_id":"free"},{"bike_id":"7cc5c991-5865-4d9b-b1db-3548f54cfc5d","system_id":"levelo_inurba_marseille","lat":43.2479,"lon":5.374457,"is_reserved":false,"is_disabled":false,"rental_uris":{"android":"levelo://app?vid=7cc5c991-5865-4d9b-b1db-3548f54cfc5d","ios":"levelo://app?vid=7cc5c991-5865-4d9b-b1db-3548f54cfc5d"},"vehicle_type_id":"4","last_reported":1700856433,"current_range_meters":24400,"station_id":"ce4bhgh2rcd13ifvqfb0","pricing_plan_id":"free"},{"bike_id":"467ad821-f4eb-4635-b3c8-d92c8baf5eac","system_id":"levelo_inurba_marseille","lat":43.250966,"lon":5.395186,"is_reserved":false,"is_disabled":false,"rental_uris":{"android":"levelo://app?vid=467ad821-f4eb-4635-b3c8-d92c8baf5eac","ios":"levelo://app?vid=467ad821-f4eb-4635-b3c8-d92c8baf5eac"},"vehicle_type_id":"4","last_reported":1700856433,"current_range_meters":24400,"station_id":"ce4bhm12rcd13ifvqgkg","pricing_plan_id":"free"},{"bike_id":"d0a4f35f-2897-4674-8a69-c0c6eeee0156","system_id":"levelo_inurba_marseille","lat":43.250966,"lon":5.395186,"is_reserved":false,"is_disabled":false,"rental_uris":{"android":"levelo://app?vid=d0a4f35f-2897-4674-8a69-c0c6eeee0156","ios":"levelo://app?vid=d0a4f35f-2897-4674-8a69-c0c6eeee0156"},"vehicle_type_id":"4","last_reported":1700856433,"current_range_meters":24400,"station_id":"ce4bhm12rcd13ifvqgkg","pricing_plan_id":"free"},{"bike_id":"4ef0619b-5e9b-4bba-b8d3-4779dab6deef","system_id":"levelo_inurba_marseille","lat":43.250872,"lon":5.395188,"is_reserved":false,"is_disabled":false,"rental_uris":{"android":"levelo://app?vid=4ef0619b-5e9b-4bba-b8d3-4779dab6deef","ios":"levelo://app?vid=4ef0619b-5e9b-4bba-b8d3-4779dab6deef"},"vehicle_type_id":"4","last_reported":1700856433,"current_range_meters":10800,"station_id":"ce4bhm12rcd13ifvqgkg","pricing_plan_id":"free"},{"bike_id":"eae92935-d2e4-436e-884b-389e9d56d41a","system_id":"levelo_inurba_marseille","lat":43.250966,"lon":5.395186,"is_reserved":false,"is_disabled":false,"rental_uris":{"android":"levelo://app?vid=eae92935-d2e4-436e-884b-389e9d56d41a","ios":"levelo://app?vid=eae92935-d2e4-436e-884b-389e9d56d41a"},"vehicle_type_id":"4","last_reported":1700856433,"current_range_meters":30800,"station_id":"ce4bhm12rcd13ifvqgkg","pricing_plan_id":"free"},{"bike_id":"42f49140-9965-47cd-8af7-3e161c2f7b46","system_id":"levelo_inurba_marseille","lat":43.250966,"lon":5.395186,"is_reserved":false,"is_disabled":false,"rental_uris":{"android":"levelo://app?vid=42f49140-9965-47cd-8af7-3e161c2f7b46","ios":"levelo://app?vid=42f49140-9965-47cd-8af7-3e161c2f7b46"},"vehicle_type_id":"4","last_reported":1700856433,"current_range_meters":29600,"station_id":"ce4bhm12rcd13ifvqgkg","pricing_plan_id":"free"},{"bike_id":"957b7262-74a7-4086-b66e-ee2415a42a5a","system_id":"levelo_inurba_marseille","lat":43.250966,"lon":5.395186,"is_reserved":false,"is_disabled":false,"rental_uris":{"android":"levelo://app?vid=957b7262-74a7-4086-b66e-ee2415a42a5a","ios":"levelo://app?vid=957b7262-74a7-4086-b66e-ee2415a42a5a"},"vehicle_type_id":"4","last_reported":1700856433,"current_range_meters":30800,"station_id":"ce4bhm12rcd13ifvqgkg","pricing_plan_id":"free"},{"bike_id":"6c271cd0-75e1-4e8a-9d2e-1f7de10ab6a5","system_id":"levelo_inurba_marseille","lat":43.24667,"lon":5.38152,"is_reserved":false,"is_disabled":false,"rental_uris":{"android":"levelo://app?vid=6c271cd0-75e1-4e8a-9d2e-1f7de10ab6a5","ios":"levelo://app?vid=6c271cd0-75e1-4e8a-9d2e-1f7de10ab6a5"},"vehicle_type_id":"4","last_reported":1700856433,"current_range_meters":12800,"station_id":"ce4bhih2rcd13ifvqfr0","pricing_plan_id":"free"},{"bike_id":"bf0d24a5-c468-4bdf-bd5d-e6edd0b33f5b","system_id":"levelo_inurba_marseille","lat":43.24693,"lon":5.382096,"is_reserved":false,"is_disabled":false,"rental_uris":{"android":"levelo://app?vid=bf0d24a5-c468-4bdf-bd5d-e6edd0b33f5b","ios":"levelo://app?vid=bf0d24a5-c468-4bdf-bd5d-e6edd0b33f5b"},"vehicle_type_id":"4","last_reported":1700856433,"current_range_meters":19600,"station_id":"ce4bhih2rcd13ifvqfr0","pricing_plan_id":"free"},{"bike_id":"f701d975-8718-4aef-8565-cdc46e0b7582","system_id":"levelo_inurba_marseille","lat":43.251199,"lon":5.403213,"is_reserved":false,"is_disabled":false,"rental_uris":{"android":"levelo://app?vid=f701d975-8718-4aef-8565-cdc46e0b7582","ios":"levelo://app?vid=f701d975-8718-4aef-8565-cdc46e0b7582"},"vehicle_type_id":"4","last_reported":1700856433,"current_range_meters":26000,"station_id":"ce4bhlh2rcd13ifvqgig","pricing_plan_id":"free"},{"bike_id":"6938b06d-41a4-4063-a043-1b2565c1fa8a","system_id":"levelo_inurba_marseille","lat":43.25114,"lon":5.40319,"is_reserved":false,"is_disabled":false,"rental_uris":{"android":"levelo://app?vid=6938b06d-41a4-4063-a043-1b2565c1fa8a","ios":"levelo://app?vid=6938b06d-41a4-4063-a043-1b2565c1fa8a"},"vehicle_type_id":"4","last_reported":1700856433,"current_range_meters":3600,"station_id":"ce4bhlh2rcd13ifvqgig","pricing_plan_id":"free"},{"bike_id":"ca04600f-137e-44a2-8296-e203c271cd53","system_id":"levelo_inurba_marseille","lat":43.2511,"lon":5.40323,"is_reserved":false,"is_disabled":false,"rental_uris":{"android":"levelo://app?vid=ca04600f-137e-44a2-8296-e203c271cd53","ios":"levelo://app?vid=ca04600f-137e-44a2-8296-e203c271cd53"},"vehicle_type_id":"4","last_reported":1700856433,"current_range_meters":24800,"station_id":"ce4bhlh2rcd13ifvqgig","pricing_plan_id":"free"},{"bike_id":"e08dc0c1-f0c8-4f2e-8de4-3478db56ea24","system_id":"levelo_inurba_marseille","lat":43.246467,"lon":5.388984,"is_reserved":false,"is_disabled":false,"rental_uris":{"android":"levelo://app?vid=e08dc0c1-f0c8-4f2e-8de4-3478db56ea24","ios":"levelo://app?vid=e08dc0c1-f0c8-4f2e-8de4-3478db56ea24"},"vehicle_type_id":"4","last_reported":1700856433,"current_range_meters":16800,"station_id":"ce4bhg12rcd13ifvqf60","pricing_plan_id":"free"},{"bike_id":"08753944-a6b7-4197-8845-018959ac6a8d","system_id":"levelo_inurba_marseille","lat":43.245581,"lon":5.395069,"is_reserved":false,"is_disabled":false,"rental_uris":{"android":"levelo://app?vid=08753944-a6b7-4197-8845-018959ac6a8d","ios":"levelo://app?vid=08753944-a6b7-4197-8845-018959ac6a8d"},"vehicle_type_id":"4","last_reported":1700856433,"current_range_meters":1600,"station_id":"ce4bhlp2rcd13ifvqgjg","pricing_plan_id":"free"},{"bike_id":"5a8a1267-10f3-45c3-9c2b-7e20416542b5","system_id":"levelo_inurba_marseille","lat":43.245581,"lon":5.395069,"is_reserved":false,"is_disabled":false,"rental_uris":{"android":"levelo://app?vid=5a8a1267-10f3-45c3-9c2b-7e20416542b5","ios":"levelo://app?vid=5a8a1267-10f3-45c3-9c2b-7e20416542b5"},"vehicle_type_id":"4","last_reported":1700856433,"current_range_meters":4000,"station_id":"ce4bhlp2rcd13ifvqgjg","pricing_plan_id":"free"},{"bike_id":"be7db1d3-2346-46b2-96c0-52aca19ba475","system_id":"levelo_inurba_marseille","lat":43.24069,"lon":5.37761,"is_reserved":false,"is_disabled":false,"rental_uris":{"android":"levelo://app?vid=be7db1d3-2346-46b2-96c0-52aca19ba475","ios":"levelo://app?vid=be7db1d3-2346-46b2-96c0-52aca19ba475"},"vehicle_type_id":"4","last_reported":1700856433,"current_range_meters":14400,"station_id":"ce4bhnp2rcd13ifvqgvg","pricing_plan_id":"free"},{"bike_id":"7bbb2cbe-9188-4741-b0a7-290144f4d32b","system_id":"levelo_inurba_marseille","lat":43.240623,"lon":5.377642,"is_reserved":false,"is_disabled":false,"rental_uris":{"android":"levelo://app?vid=7bbb2cbe-9188-4741-b0a7-290144f4d32b","ios":"levelo://app?vid=7bbb2cbe-9188-4741-b0a7-290144f4d32b"},"vehicle_type_id":"4","last_reported":1700856433,"current_range_meters":26000,"station_id":"ce4bhnp2rcd13ifvqgvg","pricing_plan_id":"free"},{"bike_id":"3c7fa71f-eea3-4dca-beba-593f51f59c9c","system_id":"levelo_inurba_marseille","lat":43.239684,"lon":5.366356,"is_reserved":false,"is_disabled":false,"rental_uris":{"android":"levelo://app?vid=3c7fa71f-eea3-4dca-beba-593f51f59c9c","ios":"levelo://app?vid=3c7fa71f-eea3-4dca-beba-593f51f59c9c"},"vehicle_type_id":"4","last_reported":1700856433,"current_range_meters":14800,"station_id":"ce4bhi12rcd13ifvqfp0","pricing_plan_id":"free"},{"bike_id":"3230c7d1-644f-45ad-b14a-e355b2b6b66e","system_id":"levelo_inurba_marseille","lat":43.23966,"lon":5.36635,"is_reserved":false,"is_disabled":false,"rental_uris":{"android":"levelo://app?vid=3230c7d1-644f-45ad-b14a-e355b2b6b66e","ios":"levelo://app?vid=3230c7d1-644f-45ad-b14a-e355b2b6b66e"},"vehicle_type_id":"4","last_reported":1700856433,"current_range_meters":20800,"station_id":"ce4bhi12rcd13ifvqfp0","pricing_plan_id":"free"},{"bike_id":"56b0f98d-ecc1-47fa-bd3e-9dc560c42354","system_id":"levelo_inurba_marseille","lat":43.23966,"lon":5.3663,"is_reserved":false,"is_disabled":false,"rental_uris":{"android":"levelo://app?vid=56b0f98d-ecc1-47fa-bd3e-9dc560c42354","ios":"levelo://app?vid=56b0f98d-ecc1-47fa-bd3e-9dc560c42354"},"vehicle_type_id":"4","last_reported":1700856433,"current_range_meters":20400,"station_id":"ce4bhi12rcd13ifvqfp0","pricing_plan_id":"free"},{"bike_id":"15742252-95da-4bdb-8112-ce95178755dc","system_id":"levelo_inurba_marseille","lat":43.23966,"lon":5.36629,"is_reserved":false,"is_disabled":false,"rental_uris":{"android":"levelo://app?vid=15742252-95da-4bdb-8112-ce95178755dc","ios":"levelo://app?vid=15742252-95da-4bdb-8112-ce95178755dc"},"vehicle_type_id":"4","last_reported":1700856433,"current_range_meters":8400,"station_id":"ce4bhi12rcd13ifvqfp0","pricing_plan_id":"free"},{"bike_id":"8ce3aabf-1913-43c2-9ac8-a071171e85a8","system_id":"levelo_inurba_marseille","lat":43.23965,"lon":5.36628,"is_reserved":false,"is_disabled":false,"rental_uris":{"android":"levelo://app?vid=8ce3aabf-1913-43c2-9ac8-a071171e85a8","ios":"levelo://app?vid=8ce3aabf-1913-43c2-9ac8-a071171e85a8"},"vehicle_type_id":"4","last_reported":1700856433,"current_range_meters":28400,"station_id":"ce4bhi12rcd13ifvqfp0","pricing_plan_id":"free"},{"bike_id":"1c07a5ad-1fa3-4b2f-ad72-6a07be76875e","system_id":"levelo_inurba_marseille","lat":43.239649,"lon":5.366314,"is_reserved":false,"is_disabled":false,"rental_uris":{"android":"levelo://app?vid=1c07a5ad-1fa3-4b2f-ad72-6a07be76875e","ios":"levelo://app?vid=1c07a5ad-1fa3-4b2f-ad72-6a07be76875e"},"vehicle_type_id":"4","last_reported":1700856433,"current_range_meters":17200,"station_id":"ce4bhi12rcd13ifvqfp0","pricing_plan_id":"free"},{"bike_id":"7ed82735-fc0b-4fa0-9f0c-2b545e5720cc","system_id":"levelo_inurba_marseille","lat":43.23964,"lon":5.36627,"is_reserved":false,"is_disabled":false,"rental_uris":{"android":"levelo://app?vid=7ed82735-fc0b-4fa0-9f0c-2b545e5720cc","ios":"levelo://app?vid=7ed82735-fc0b-4fa0-9f0c-2b545e5720cc"},"vehicle_type_id":"4","last_reported":1700856433,"current_range_meters":16800,"station_id":"ce4bhi12rcd13ifvqfp0","pricing_plan_id":"free"},{"bike_id":"3ef70aed-f117-47c7-8cf5-f087e626237b","system_id":"levelo_inurba_marseille","lat":43.23963,"lon":5.36644,"is_reserved":false,"is_disabled":false,"rental_uris":{"android":"levelo://app?vid=3ef70aed-f117-47c7-8cf5-f087e626237b","ios":"levelo://app?vid=3ef70aed-f117-47c7-8cf5-f087e626237b"},"vehicle_type_id":"4","last_reported":1700856433,"current_range_meters":10800,"station_id":"ce4bhi12rcd13ifvqfp0","pricing_plan_id":"free"},{"bike_id":"6a80754d-d19c-44e3-b85f-afe20e8d4da1","system_id":"levelo_inurba_marseille","lat":43.239623,"lon":5.366363,"is_reserved":false,"is_disabled":false,"rental_uris":{"android":"levelo://app?vid=6a80754d-d19c-44e3-b85f-afe20e8d4da1","ios":"levelo://app?vid=6a80754d-d19c-44e3-b85f-afe20e8d4da1"},"vehicle_type_id":"4","last_reported":1700856433,"current_range_meters":6400,"station_id":"ce4bhi12rcd13ifvqfp0","pricing_plan_id":"free"},{"bike_id":"124f1bf7-9af9-4782-a052-dd6aa38caf9d","system_id":"levelo_inurba_marseille","lat":43.239622,"lon":5.366436,"is_reserved":false,"is_disabled":false,"rental_uris":{"android":"levelo://app?vid=124f1bf7-9af9-4782-a052-dd6aa38caf9d","ios":"levelo://app?vid=124f1bf7-9af9-4782-a052-dd6aa38caf9d"},"vehicle_type_id":"4","last_reported":1700856433,"current_range_meters":29200,"station_id":"ce4bhi12rcd13ifvqfp0","pricing_plan_id":"free"},{"bike_id":"884cad8c-9715-4994-b1f8-a21278fa1a1d","system_id":"levelo_inurba_marseille","lat":43.23961,"lon":5.36628,"is_reserved":false,"is_disabled":false,"rental_uris":{"android":"levelo://app?vid=884cad8c-9715-4994-b1f8-a21278fa1a1d","ios":"levelo://app?vid=884cad8c-9715-4994-b1f8-a21278fa1a1d"},"vehicle_type_id":"4","last_reported":1700856433,"current_range_meters":27200,"station_id":"ce4bhi12rcd13ifvqfp0","pricing_plan_id":"free"},{"bike_id":"8904bfdf-f635-49c0-b8a9-6f183c7a093b","system_id":"levelo_inurba_marseille","lat":43.239607,"lon":5.366306,"is_reserved":false,"is_disabled":false,"rental_uris":{"android":"levelo://app?vid=8904bfdf-f635-49c0-b8a9-6f183c7a093b","ios":"levelo://app?vid=8904bfdf-f635-49c0-b8a9-6f183c7a093b"},"vehicle_type_id":"4","last_reported":1700856433,"current_range_meters":28800,"station_id":"ce4bhi12rcd13ifvqfp0","pricing_plan_id":"free"},{"bike_id":"1a7a1613-1624-4afd-bf68-9497936761e0","system_id":"levelo_inurba_marseille","lat":43.23959,"lon":5.36635,"is_reserved":false,"is_disabled":false,"rental_uris":{"android":"levelo://app?vid=1a7a1613-1624-4afd-bf68-9497936761e0","ios":"levelo://app?vid=1a7a1613-1624-4afd-bf68-9497936761e0"},"vehicle_type_id":"4","last_reported":1700856433,"current_range_meters":14800,"station_id":"ce4bhi12rcd13ifvqfp0","pricing_plan_id":"free"},{"bike_id":"4a869bbe-62ba-42c3-bd34-c3712786719a","system_id":"levelo_inurba_marseille","lat":43.24181,"lon":5.39729,"is_reserved":false,"is_disabled":false,"rental_uris":{"android":"levelo://app?vid=4a869bbe-62ba-42c3-bd34-c3712786719a","ios":"levelo://app?vid=4a869bbe-62ba-42c3-bd34-c3712786719a"},"vehicle_type_id":"4","last_reported":1700856433,"current_range_meters":5200,"station_id":"ce4bhn12rcd13ifvqgpg","pricing_plan_id":"free"},{"bike_id":"48217564-eee6-47a9-ae01-f8f1659e40db","system_id":"levelo_inurba_marseille","lat":43.231923,"lon":5.355545,"is_reserved":false,"is_disabled":false,"rental_uris":{"android":"levelo://app?vid=48217564-eee6-47a9-ae01-f8f1659e40db","ios":"levelo://app?vid=48217564-eee6-47a9-ae01-f8f1659e40db"},"vehicle_type_id":"4","last_reported":1700856433,"current_range_meters":31200,"station_id":"ce4bhu92rcd13ifvqi70","pricing_plan_id":"free"},{"bike_id":"dcc8f0d2-659c-44cb-9a1d-9d57ae623781","system_id":"levelo_inurba_marseille","lat":43.232007,"lon":5.35552,"is_reserved":false,"is_disabled":false,"rental_uris":{"android":"levelo://app?vid=dcc8f0d2-659c-44cb-9a1d-9d57ae623781","ios":"levelo://app?vid=dcc8f0d2-659c-44cb-9a1d-9d57ae623781"},"vehicle_type_id":"4","last_reported":1700856433,"current_range_meters":23200,"station_id":"ce4bhu92rcd13ifvqi70","pricing_plan_id":"free"},{"bike_id":"e5e514e7-58d5-4766-902e-a692950e8b38","system_id":"levelo_inurba_marseille","lat":43.232,"lon":5.35541,"is_reserved":false,"is_disabled":false,"rental_uris":{"android":"levelo://app?vid=e5e514e7-58d5-4766-902e-a692950e8b38","ios":"levelo://app?vid=e5e514e7-58d5-4766-902e-a692950e8b38"},"vehicle_type_id":"4","last_reported":1700856433,"current_range_meters":28000,"station_id":"ce4bhu92rcd13ifvqi70","pricing_plan_id":"free"},{"bike_id":"43681cb1-80b5-4457-bc0d-4145b1f41dfc","system_id":"levelo_inurba_marseille","lat":43.231923,"lon":5.355545,"is_reserved":false,"is_disabled":false,"rental_uris":{"android":"levelo://app?vid=43681cb1-80b5-4457-bc0d-4145b1f41dfc","ios":"levelo://app?vid=43681cb1-80b5-4457-bc0d-4145b1f41dfc"},"vehicle_type_id":"4","last_reported":1700856433,"current_range_meters":11200,"station_id":"ce4bhu92rcd13ifvqi70","pricing_plan_id":"free"},{"bike_id":"0a349838-8936-442e-8a55-c173dbb54834","system_id":"levelo_inurba_marseille","lat":43.231919,"lon":5.355532,"is_reserved":false,"is_disabled":false,"rental_uris":{"android":"levelo://app?vid=0a349838-8936-442e-8a55-c173dbb54834","ios":"levelo://app?vid=0a349838-8936-442e-8a55-c173dbb54834"},"vehicle_type_id":"4","last_reported":1700856433,"current_range_meters":28800,"station_id":"ce4bhu92rcd13ifvqi70","pricing_plan_id":"free"},{"bike_id":"b6ad3896-d180-4d39-a4d6-8a7be3e8c6bd","system_id":"levelo_inurba_marseille","lat":43.231923,"lon":5.355545,"is_reserved":false,"is_disabled":false,"rental_uris":{"android":"levelo://app?vid=b6ad3896-d180-4d39-a4d6-8a7be3e8c6bd","ios":"levelo://app?vid=b6ad3896-d180-4d39-a4d6-8a7be3e8c6bd"},"vehicle_type_id":"4","last_reported":1700856433,"current_range_meters":29200,"station_id":"ce4bhu92rcd13ifvqi70","pricing_plan_id":"free"},{"bike_id":"032441f0-e0c8-4260-9bd9-e57c93d62884","system_id":"levelo_inurba_marseille","lat":43.231919,"lon":5.355532,"is_reserved":false,"is_disabled":false,"rental_uris":{"android":"levelo://app?vid=032441f0-e0c8-4260-9bd9-e57c93d62884","ios":"levelo://app?vid=032441f0-e0c8-4260-9bd9-e57c93d62884"},"vehicle_type_id":"4","last_reported":1700856433,"current_range_meters":14000,"station_id":"ce4bhu92rcd13ifvqi70","pricing_plan_id":"free"},{"bike_id":"aeb874ed-5a67-45f7-94cd-1c1e110219bc","system_id":"levelo_inurba_marseille","lat":43.231919,"lon":5.355532,"is_reserved":false,"is_disabled":false,"rental_uris":{"android":"levelo://app?vid=aeb874ed-5a67-45f7-94cd-1c1e110219bc","ios":"levelo://app?vid=aeb874ed-5a67-45f7-94cd-1c1e110219bc"},"vehicle_type_id":"4","last_reported":1700856433,"current_range_meters":31200,"station_id":"ce4bhu92rcd13ifvqi70","pricing_plan_id":"free"},{"bike_id":"edd2b3c8-67fd-4064-8af7-f698e6d9963c","system_id":"levelo_inurba_marseille","lat":43.231919,"lon":5.355532,"is_reserved":false,"is_disabled":false,"rental_uris":{"android":"levelo://app?vid=edd2b3c8-67fd-4064-8af7-f698e6d9963c","ios":"levelo://app?vid=edd2b3c8-67fd-4064-8af7-f698e6d9963c"},"vehicle_type_id":"4","last_reported":1700856433,"current_range_meters":24800,"station_id":"ce4bhu92rcd13ifvqi70","pricing_plan_id":"free"},{"bike_id":"76da77ba-a8a2-45d9-bea0-75d9631bba15","system_id":"levelo_inurba_marseille","lat":43.231923,"lon":5.355545,"is_reserved":false,"is_disabled":false,"rental_uris":{"android":"levelo://app?vid=76da77ba-a8a2-45d9-bea0-75d9631bba15","ios":"levelo://app?vid=76da77ba-a8a2-45d9-bea0-75d9631bba15"},"vehicle_type_id":"4","last_reported":1700856433,"current_range_meters":26000,"station_id":"ce4bhu92rcd13ifvqi70","pricing_plan_id":"free"},{"bike_id":"0c6b2677-ce68-4f02-9a73-e017061e320e","system_id":"levelo_inurba_marseille","lat":43.231793,"lon":5.400044,"is_reserved":false,"is_disabled":false,"rental_uris":{"android":"levelo://app?vid=0c6b2677-ce68-4f02-9a73-e017061e320e","ios":"levelo://app?vid=0c6b2677-ce68-4f02-9a73-e017061e320e"},"vehicle_type_id":"4","last_reported":1700856433,"current_range_meters":30800,"station_id":"ce4bhn12rcd13ifvqgqg","pricing_plan_id":"free"},{"bike_id":"9780e49b-8eb6-4c96-95ee-9b6d1e553d68","system_id":"levelo_inurba_marseille","lat":43.231794,"lon":5.400052,"is_reserved":false,"is_disabled":false,"rental_uris":{"android":"levelo://app?vid=9780e49b-8eb6-4c96-95ee-9b6d1e553d68","ios":"levelo://app?vid=9780e49b-8eb6-4c96-95ee-9b6d1e553d68"},"vehicle_type_id":"4","last_reported":1700856433,"current_range_meters":26400,"station_id":"ce4bhn12rcd13ifvqgqg","pricing_plan_id":"free"},{"bike_id":"216d01e0-0894-4b88-9379-35377c1f196b","system_id":"levelo_inurba_marseille","lat":43.231794,"lon":5.400052,"is_reserved":false,"is_disabled":false,"rental_uris":{"android":"levelo://app?vid=216d01e0-0894-4b88-9379-35377c1f196b","ios":"levelo://app?vid=216d01e0-0894-4b88-9379-35377c1f196b"},"vehicle_type_id":"4","last_reported":1700856433,"current_range_meters":32000,"station_id":"ce4bhn12rcd13ifvqgqg","pricing_plan_id":"free"},