{"last_updated":1745485896,"ttl":60,"version":"2.2","data":{"bikes":[{"bike_id":"bfda0544-3ecf-4068-ba1f-b38dfb020b06","system_id":"levelo_inurba_marseille","lat":43.30949,"lon":5.39012,"is_reserved":false,"is_disabled":false,"rental_uris":{"android":"levelo://app?vid=bfda0544-3ecf-4068-ba1f-b38dfb020b06","ios":"levelo://app?vid=bfda0544-3ecf-4068-ba1f-b38dfb020b06"},"vehicle_type_id":"4","last_reported":1745485896,"current_range_meters":2800,"station_id":"ce4bgup2rcd13ifvqco0","pricing_plan_id":"cebpf4jnsgd1na2vs0mg"},{"bike_id":"0e956a52-9f1c-4373-9fd9-05b1de4dc5a0","system_id":"levelo_inurba_marseille","lat":43.30889,"lon":5.39633,"is_reserved":false,"is_disabled":true,"rental_uris":{"android":"levelo://app?vid=0e956a52-9f1c-4373-9fd9-05b1de4dc5a0","ios":"levelo://app?vid=0e956a52-9f1c-4373-9fd9-05b1de4dc5a0"},"vehicle_type_id":"4","last_reported":1745485896,"current_range_meters":2800,"station_id":"ce4bh012rcd13ifvqcv0","pricing_plan_id":"cebpf4jnsgd1na2vs0mg"},{"bike_id":"bc37969f-560a-403b-a0a6-050b880d7db0","system_id":"levelo_inurba_marseille","lat":43.31325,"lon":5.39686,"is_reserved":false,"is_disabled":false,"rental_uris":{"android":"levelo://app?vid=bc37969f-560a-403b-a0a6-050b880d7db0","ios":"levelo://app?vid=bc37969f-560a-403b-a0a6-050b880d7db0"},"vehicle_type_id":"4","last_reported":1745485896,"current_range_meters":2800,"station_id":"ce4bgvp2rcd13ifvqcu0","pricing_plan_id":"cebpf4jnsgd1na2vs0mg"},{"bike_id":"7b15b4a2-2009-4f03-9ec7-579b01abe490","system_id":"levelo_inurba_marseille","lat":43.29038,"lon":5.39963,"is_reserved":false,"is_disabled":false,"rental_uris":{"android":"levelo://app?vid=7b15b4a2-2009-4f03-9ec7-579b01abe490","ios":"levelo://app?vid=7b15b4a2-2009-4f03-9ec7-579b01abe490"},"vehicle_type_id":"4","last_reported":1745485896,"current_range_meters":2800,"station_id":"ce4bh392rcd13ifvqdm0","pricing_plan_id":"cebpf4jnsgd1na2vs0mg"},{"bike_id":"c94e26c1-7575-4802-86ec-0bd6f82482cc","system_id":"levelo_inurba_marseille","lat":43.28617,"lon":5.37064,"is_reserved":false,"is_disabled":false,"rental_uris":{"android":"levelo://app?vid=c94e26c1-7575-4802-86ec-0bd6f82482cc","ios":"levelo://app?vid=c94e26c1-7575-4802-86ec-0bd6f82482cc"},"vehicle_type_id":"4","last_reported":1745485896,"current_range_meters":3200,"station_id":"ce4bht12rcd13ifvqi60","pricing_plan_id":"cebpf4jnsgd1na2vs0mg"},{"bike_id":"3c986d49-4c59-4fce-9389-7b631455012c","system_id":"levelo_inurba_marseille","lat":43.23147,"lon":5.43715,"is_reserved":false,"is_disabled":false,"rental_uris":{"android":"levelo://app?vid=3c986d49-4c59-4fce-9389-7b631455012c","ios":"levelo://app?vid=3c986d49-4c59-4fce-9389-7b631455012c"},"vehicle_type_id":"4","last_reported":1745485896,"current_range_meters":3200,"station_id":"ce4bhmp2rcd13ifvqgog","pricing_plan_id":"cebpf4jnsgd1na2vs0mg"},{"bike_id":"c4acdda8-611f-4fd7-b195-9cd2c92480fe","system_id":"levelo_inurba_marseille","lat":43.28723,"lon":5.37932,"is_reserved":false,"is_disabled":false,"rental_uris":{"android":"levelo://app?vid=c4acdda8-611f-4fd7-b195-9cd2c92480fe","ios":"levelo://app?vid=c4acdda8-611f-4fd7-b195-9cd2c92480fe"},"vehicle_type_id":"4","last_reported":1745485896,"current_range_meters":3600,"station_id":"ce4bh9p2rcd13ifvqec0","pricing_plan_id":"cebpf4jnsgd1na2vs0mg"},{"bike_id":"e88ac0aa-172e-418f-9134-2e3c247b5863","system_id":"levelo_inurba_marseille","lat":43.2396,"lon":5.3664,"is_reserved":false,"is_disabled":false,"rental_uris":{"android":"levelo://app?vid=e88ac0aa-172e-418f-9134-2e3c247b5863","ios":"levelo://app?vid=e88ac0aa-172e-418f-9134-2e3c247b5863"},"vehicle_type_id":"4","last_reported":1745485896,"current_range_meters":3600,"station_id":"ce4bhi12rcd13ifvqfp0","pricing_plan_id":"cebpf4jnsgd1na2vs0mg"},{"bike_id":"0f36c06d-b34a-4b6a-9c76-b87640418fc7","system_id":"levelo_inurba_marseille","lat":43.23068,"lon":5.35484,"is_reserved":false,"is_disabled":false,"rental_uris":{"android":"levelo://app?vid=0f36c06d-b34a-4b6a-9c76-b87640418fc7","ios":"levelo://app?vid=0f36c06d-b34a-4b6a-9c76-b87640418fc7"},"vehicle_type_id":"4","last_reported":1745485896,"current_range_meters":4000,"station_id":"cpo3342slgdg3j2ifvpg","pricing_plan_id":"cebpf4jnsgd1na2vs0mg"},{"bike_id":"79002201-4bcb-4fd9-acde-ff5363d0e039","system_id":"levelo_inurba_marseille","lat":43.30535,"lon":5.36708,"is_reserved":false,"is_disabled":false,"rental_uris":{"android":"levelo://app?vid=79002201-4bcb-4fd9-acde-ff5363d0e039","ios":"levelo://app?vid=79002201-4bcb-4fd9-acde-ff5363d0e039"},"vehicle_type_id":"4","last_reported":1745485896,"current_range_meters":4400,"station_id":"ce4bgrp2rcd13ifvqc9g","pricing_plan_id":"cebpf4jnsgd1na2vs0mg"},{"bike_id":"f2777800-a4f6-4647-92a6-c041602388b2","system_id":"levelo_inurba_marseille","lat":43.29834,"lon":5.36261,"is_reserved":false,"is_disabled":false,"rental_uris":{"android":"levelo://app?vid=f2777800-a4f6-4647-92a6-c041602388b2","ios":"levelo://app?vid=f2777800-a4f6-4647-92a6-c041602388b2"},"vehicle_type_id":"4","last_reported":1745485896,"current_range_meters":4400,"station_id":"ce4bgpp2rcd13ifvqc3g","pricing_plan_id":"cebpf4jnsgd1na2vs0mg"},{"bike_id":"53ebce65-fe20-410c-8727-fca659396bc8","system_id":"levelo_inurba_marseille","lat":43.29033,"lon":5.39964,"is_reserved":false,"is_disabled":false,"rental_uris":{"android":"levelo://app?vid=53ebce65-fe20-410c-8727-fca659396bc8","ios":"levelo://app?vid=53ebce65-fe20-410c-8727-fca659396bc8"},"vehicle_type_id":"4","last_reported":1745485896,"current_range_meters":4400,"station_id":"ce4bh392rcd13ifvqdm0","pricing_plan_id":"cebpf4jnsgd1na2vs0mg"},{"bike_id":"1c5ec038-935d-45d4-ab05-1768d5c6745a","system_id":"levelo_inurba_marseille","lat":43.24088,"lon":5.37768,"is_reserved":false,"is_disabled":true,"rental_uris":{"android":"levelo://app?vid=1c5ec038-935d-45d4-ab05-1768d5c6745a","ios":"levelo://app?vid=1c5ec038-935d-45d4-ab05-1768d5c6745a"},"vehicle_type_id":"4","last_reported":1745485896,"current_range_meters":4800,"station_id":"ce4bhnp2rcd13ifvqgvg","pricing_plan_id":"cebpf4jnsgd1na2vs0mg"},{"bike_id":"1bc7b9a0-9bf1-488a-b6cc-77b44d6c04bd","system_id":"levelo_inurba_marseille","lat":43.30163,"lon":5.3808,"is_reserved":false,"is_disabled":false,"rental_uris":{"android":"levelo://app?vid=1bc7b9a0-9bf1-488a-b6cc-77b44d6c04bd","ios":"levelo://app?vid=1bc7b9a0-9bf1-488a-b6cc-77b44d6c04bd"},"vehicle_type_id":"4","last_reported":1745485896,"current_range_meters":4800,"station_id":"ce4bgjp2rcd13ifvqbh0","pricing_plan_id":"cebpf4jnsgd1na2vs0mg"},{"bike_id":"4cab18a5-33a1-41c2-ac0a-26a44ed7b8f4","system_id":"levelo_inurba_marseille","lat":43.28108,"lon":5.37839,"is_reserved":false,"is_disabled":false,"rental_uris":{"android":"levelo://app?vid=4cab18a5-33a1-41c2-ac0a-26a44ed7b8f4","ios":"levelo://app?vid=4cab18a5-33a1-41c2-ac0a-26a44ed7b8f4"},"vehicle_type_id":"4","last_reported":1745485896,"current_range_meters":4800,"station_id":"ce4bha12rcd13ifvqee0","pricing_plan_id":"cebpf4jnsgd1na2vs0mg"},{"bike_id":"8be3b069-701c-489b-a2f4-0d895d5d14d1","system_id":"levelo_inurba_marseille","lat":43.25943,"lon":5.40884,"is_reserved":false,"is_disabled":false,"rental_uris":{"android":"levelo://app?vid=8be3b069-701c-489b-a2f4-0d895d5d14d1","ios":"levelo://app?vid=8be3b069-701c-489b-a2f4-0d895d5d14d1"},"vehicle_type_id":"4","last_reported":1745485896,"current_range_meters":5600,"station_id":"ce4bhm92rcd13ifvqglg","pricing_plan_id":"cebpf4jnsgd1na2vs0mg"},{"bike_id":"35ee1e7a-ed4b-489a-ad85-a78f3746e5e7","system_id":"levelo_inurba_marseille","lat":43.2315,"lon":5.43706,"is_reserved":false,"is_disabled":false,"rental_uris":{"android":"levelo://app?vid=35ee1e7a-ed4b-489a-ad85-a78f3746e5e7","ios":"levelo://app?vid=35ee1e7a-ed4b-489a-ad85-a78f3746e5e7"},"vehicle_type_id":"4","last_reported":1745485896,"current_range_meters":6400,"station_id":"ce4bhmp2rcd13ifvqgog","pricing_plan_id":"cebpf4jnsgd1na2vs0mg"},{"bike_id":"b6553d69-feb1-4f55-99dc-e45ef526cd58","system_id":"levelo_inurba_marseille","lat":43.29551,"lon":5.42288,"is_reserved":false,"is_disabled":true,"rental_uris":{"android":"levelo://app?vid=b6553d69-feb1-4f55-99dc-e45ef526cd58","ios":"levelo://app?vid=b6553d69-feb1-4f55-99dc-e45ef526cd58"},"vehicle_type_id":"4","last_reported":1745485896,"current_range_meters":6400,"station_id":"ce4bhph2rcd13ifvqhdg","pricing_plan_id":"cebpf4jnsgd1na2vs0mg"},{"bike_id":"1a613ed9-8ee2-494f-adc0-2b895ea310dd","system_id":"levelo_inurba_marseille","lat":43.30903,"lon":5.38868,"is_reserved":false,"is_disabled":false,"rental_uris":{"android":"levelo://app?vid=1a613ed9-8ee2-494f-adc0-2b895ea310dd","ios":"levelo://app?vid=1a613ed9-8ee2-494f-adc0-2b895ea310dd"},"vehicle_type_id":"4","last_reported":1745485896,"current_range_meters":6400,"station_id":"ce4bgup2rcd13ifvqco0","pricing_plan_id":"cebpf4jnsgd1na2vs0mg"},{"bike_id":"2bcb81b1-4a9f-4d3c-8030-2373cc42cc11","system_id":"levelo_inurba_marseille","lat":43.27055,"lon":5.40262,"is_reserved":false,"is_disabled":false,"rental_uris":{"android":"levelo://app?vid=2bcb81b1-4a9f-4d3c-8030-2373cc42cc11","ios":"levelo://app?vid=2bcb81b1-4a9f-4d3c-8030-2373cc42cc11"},"vehicle_type_id":"4","last_reported":1745485896,"current_range_meters":6400,"station_id":"ce4bhk92rcd13ifvqgc0","pricing_plan_id":"cebpf4jnsgd1na2vs0mg"},{"bike_id":"76ea871c-aa24-4cff-b7ba-8a3d05708377","system_id":"levelo_inurba_marseille","lat":43.26952,"lon":5.38633,"is_reserved":false,"is_disabled":false,"rental_uris":{"android":"levelo://app?vid=76ea871c-aa24-4cff-b7ba-8a3d05708377","ios":"levelo://app?vid=76ea871c-aa24-4cff-b7ba-8a3d05708377"},"vehicle_type_id":"4","last_reported":1745485896,"current_range_meters":6400,"station_id":"ce4bhh92rcd13ifvqfh0","pricing_plan_id":"cebpf4jnsgd1na2vs0mg"},{"bike_id":"c22a587f-232a-42e8-ace6-7d655099f9b2","system_id":"levelo_inurba_marseille","lat":43.28931,"lon":5.3664,"is_reserved":false,"is_disabled":false,"rental_uris":{"android":"levelo://app?vid=c22a587f-232a-42e8-ace6-7d655099f9b2","ios":"levelo://app?vid=c22a587f-232a-42e8-ace6-7d655099f9b2"},"vehicle_type_id":"4","last_reported":1745485896,"current_range_meters":6800,"station_id":"ce4bhap2rcd13ifvqek0","pricing_plan_id":"cebpf4jnsgd1na2vs0mg"},{"bike_id":"82ba0e00-e553-41e4-a716-c5929e6133e6","system_id":"levelo_inurba_marseille","lat":43.25922,"lon":5.40886,"is_reserved":false,"is_disabled":false,"rental_uris":{"android":"levelo://app?vid=82ba0e00-e553-41e4-a716-c5929e6133e6","ios":"levelo://app?vid=82ba0e00-e553-41e4-a716-c5929e6133e6"},"vehicle_type_id":"4","last_reported":1745485896,"current_range_meters":6800,"station_id":"ce4bhm92rcd13ifvqglg","pricing_plan_id":"cebpf4jnsgd1na2vs0mg"},{"bike_id":"223ac5df-a9be-4336-bc9c-2487b3ed9ffb","system_id":"levelo_inurba_marseille","lat":43.3054,"lon":5.3655,"is_reserved":false,"is_disabled":false,"rental_uris":{"android":"levelo://app?vid=223ac5df-a9be-4336-bc9c-2487b3ed9ffb","ios":"levelo://app?vid=223ac5df-a9be-4336-bc9c-2487b3ed9ffb"},"vehicle_type_id":"4","last_reported":1745485896,"current_range_meters":6800,"station_id":"ce4bgs12rcd13ifvqcag","pricing_plan_id":"cebpf4jnsgd1na2vs0mg"},{"bike_id":"49c0f902-eac7-4a79-adf0-d142aff51e11","system_id":"levelo_inurba_marseille","lat":43.24164,"lon":5.36394,"is_reserved":false,"is_disabled":false,"rental_uris":{"android":"levelo://app?vid=49c0f902-eac7-4a79-adf0-d142aff51e11","ios":"levelo://app?vid=49c0f902-eac7-4a79-adf0-d142aff51e11"},"vehicle_type_id":"4","last_reported":1745485896,"current_range_meters":6800,"station_id":"cpo36qri1sfpv3e86is0","pricing_plan_id":"cebpf4jnsgd1na2vs0mg"},{"bike_id":"f3954582-3e71-4ea1-8ba1-7086fcd2ae57","system_id":"levelo_inurba_marseille","lat":43.30377,"lon":5.42491,"is_reserved":false,"is_disabled":false,"rental_uris":{"android":"levelo://app?vid=f3954582-3e71-4ea1-8ba1-7086fcd2ae57","ios":"levelo://app?vid=f3954582-3e71-4ea1-8ba1-7086fcd2ae57"},"vehicle_type_id":"4","last_reported":1745485896,"current_range_meters":7200,"station_id":"ce4bhoh2rcd13ifvqh6g","pricing_plan_id":"cebpf4jnsgd1na2vs0mg"},{"bike_id":"9a22cbd5-0e23-4be6-a3dc-fc07447abd3b","system_id":"levelo_inurba_marseille","lat":43.30883,"lon":5.39656,"is_reserved":false,"is_disabled":false,"rental_uris":{"android":"levelo://app?vid=9a22cbd5-0e23-4be6-a3dc-fc07447abd3b","ios":"levelo://app?vid=9a22cbd5-0e23-4be6-a3dc-fc07447abd3b"},"vehicle_type_id":"4","last_reported":1745485896,"current_range_meters":7200,"station_id":"ce4bh012rcd13ifvqcv0","pricing_plan_id":"cebpf4jnsgd1na2vs0mg"},{"bike_id":"150aa8d6-a286-4fd3-87fc-9d419f64689b","system_id":"levelo_inurba_marseille","lat":43.292685,"lon":5.384416,"is_reserved":false,"is_disabled":false,"rental_uris":{"android":"levelo://app?vid=150aa8d6-a286-4fd3-87fc-9d419f64689b","ios":"levelo://app?vid=150aa8d6-a286-4fd3-87fc-9d419f64689b"},"vehicle_type_id":"4","last_reported":1745485896,"current_range_meters":7200,"station_id":"ce4bh292rcd13ifvqdf0","pricing_plan_id":"cebpf4jnsgd1na2vs0mg"},{"bike_id":"79bd79e5-2689-4555-9f17-c8259855709f","system_id":"levelo_inurba_marseille","lat":43.29605,"lon":5.37714,"is_reserved":false,"is_disabled":false,"rental_uris":{"android":"levelo://app?vid=79bd79e5-2689-4555-9f17-c8259855709f","ios":"levelo://app?vid=79bd79e5-2689-4555-9f17-c8259855709f"},"vehicle_type_id":"4","last_reported":1745485896,"current_range_meters":8000,"station_id":"ce4bgi92rcd13ifvqb90","pricing_plan_id":"cebpf4jnsgd1na2vs0mg"},{"bike_id":"9b567709-a307-4850-bb54-d66af6b3b1b3","system_id":"levelo_inurba_marseille","lat":43.31336,"lon":5.36707,"is_reserved":false,"is_disabled":false,"rental_uris":{"android":"levelo://app?vid=9b567709-a307-4850-bb54-d66af6b3b1b3","ios":"levelo://app?vid=9b567709-a307-4850-bb54-d66af6b3b1b3"},"vehicle_type_id":"4","last_reported":1745485896,"current_range_meters":8000,"station_id":"ce4bgr92rcd13ifvqc6g","pricing_plan_id":"cebpf4jnsgd1na2vs0mg"},{"bike_id":"e2fc4d5b-c5af-4729-bcc2-e1a6c63d8b14","system_id":"levelo_inurba_marseille","lat":43.30141,"lon":5.3807,"is_reserved":false,"is_disabled":false,"rental_uris":{"android":"levelo://app?vid=e2fc4d5b-c5af-4729-bcc2-e1a6c63d8b14","ios":"levelo://app?vid=e2fc4d5b-c5af-4729-bcc2-e1a6c63d8b14"},"vehicle_type_id":"4","last_reported":1745485896,"current_range_meters":8000,"station_id":"ce4bgjp2rcd13ifvqbh0","pricing_plan_id":"cebpf4jnsgd1na2vs0mg"},{"bike_id":"3070cec2-559a-4cb5-b38b-e5f337917feb","system_id":"levelo_inurba_marseille","lat":43.2396,"lon":5.36639,"is_reserved":false,"is_disabled":false,"rental_uris":{"android":"levelo://app?vid=3070cec2-559a-4cb5-b38b-e5f337917feb","ios":"levelo://app?vid=3070cec2-559a-4cb5-b38b-e5f337917feb"},"vehicle_type_id":"4","last_reported":1745485896,"current_range_meters":8000,"station_id":"ce4bhi12rcd13ifvqfp0","pricing_plan_id":"cebpf4jnsgd1na2vs0mg"},{"bike_id":"cacd6d8a-6692-4ad8-8742-caa006587b95","system_id":"levelo_inurba_marseille","lat":43.284007,"lon":5.375096,"is_reserved":false,"is_disabled":false,"rental_uris":{"android":"levelo://app?vid=cacd6d8a-6692-4ad8-8742-caa006587b95","ios":"levelo://app?vid=cacd6d8a-6692-4ad8-8742-caa006587b95"},"vehicle_type_id":"4","last_reported":1745485896,"current_range_meters":8000,"station_id":"ce4bh412rcd13ifvqds0","pricing_plan_id":"cebpf4jnsgd1na2vs0mg"},{"bike_id":"e5767de9-601b-404a-9842-8eabb5712b4b","system_id":"levelo_inurba_marseille","lat":43.28264,"lon":5.35074,"is_reserved":false,"is_disabled":false,"rental_uris":{"android":"levelo://app?vid=e5767de9-601b-404a-9842-8eabb5712b4b","ios":"levelo://app?vid=e5767de9-601b-404a-9842-8eabb5712b4b"},"vehicle_type_id":"4","last_reported":1745485896,"current_range_meters":8000,"station_id":"ce4bhbp2rcd13ifvqerg","pricing_plan_id":"cebpf4jnsgd1na2vs0mg"},{"bike_id":"c3569a44-0824-4dff-8a4f-ab1830c624b3","system_id":"levelo_inurba_marseille","lat":43.25912,"lon":5.40883,"is_reserved":false,"is_disabled":false,"rental_uris":{"android":"levelo://app?vid=c3569a44-0824-4dff-8a4f-ab1830c624b3","ios":"levelo://app?vid=c3569a44-0824-4dff-8a4f-ab1830c624b3"},"vehicle_type_id":"4","last_reported":1745485896,"current_range_meters":8000,"station_id":"ce4bhm92rcd13ifvqglg","pricing_plan_id":"cebpf4jnsgd1na2vs0mg"},{"bike_id":"820b4151-620f-4b89-a7ed-758df0709835","system_id":"levelo_inurba_marseille","lat":43.30888,"lon":5.37181,"is_reserved":false,"is_disabled":false,"rental_uris":{"android":"levelo://app?vid=820b4151-620f-4b89-a7ed-758df0709835","ios":"levelo://app?vid=820b4151-620f-4b89-a7ed-758df0709835"},"vehicle_type_id":"4","last_reported":1745485896,"current_range_meters":8000,"station_id":"ce4bguh2rcd13ifvqckg","pricing_plan_id":"cebpf4jnsgd1na2vs0mg"},{"bike_id":"92c3b340-d069-4f1c-b55b-44c52f19597b","system_id":"levelo_inurba_marseille","lat":43.282505,"lon":5.377914,"is_reserved":false,"is_disabled":false,"rental_uris":{"android":"levelo://app?vid=92c3b340-d069-4f1c-b55b-44c52f19597b","ios":"levelo://app?vid=92c3b340-d069-4f1c-b55b-44c52f19597b"},"vehicle_type_id":"4","last_reported":1745485896,"current_range_meters":8400,"station_id":"","pricing_plan_id":"cebpf4jnsgd1na2vs0mg"},{"bike_id":"7e9d26b8-b748-4e10-b3e2-977d9fd05087","system_id":"levelo_inurba_marseille","lat":43.32599,"lon":5.36153,"is_reserved":false,"is_disabled":false,"rental_uris":{"android":"levelo://app?vid=7e9d26b8-b748-4e10-b3e2-977d9fd05087","ios":"levelo://app?vid=7e9d26b8-b748-4e10-b3e2-977d9fd05087"},"vehicle_type_id":"4","last_reported":1745485896,"current_range_meters":8400,"station_id":"","pricing_plan_id":"cebpf4jnsgd1na2vs0mg"},{"bike_id":"fcf1127b-1224-4535-b1e7-4a2899c19e25","system_id":"levelo_inurba_marseille","lat":43.29256,"lon":5.3762,"is_reserved":false,"is_disabled":false,"rental_uris":{"android":"levelo://app?vid=fcf1127b-1224-4535-b1e7-4a2899c19e25","ios":"levelo://app?vid=fcf1127b-1224-4535-b1e7-4a2899c19e25"},"vehicle_type_id":"4","last_reported":1745485896,"current_range_meters":8400,"station_id":"ce4bgi12rcd13ifvqb80","pricing_plan_id":"cebpf4jnsgd1na2vs0mg"},{"bike_id":"c01d3967-3a51-4706-b45b-74269320ddda","system_id":"levelo_inurba_marseille","lat":43.217498,"lon":5.345992,"is_reserved":false,"is_disabled":false,"rental_uris":{"android":"levelo://app?vid=c01d3967-3a51-4706-b45b-74269320ddda","ios":"levelo://app?vid=c01d3967-3a51-4706-b45b-74269320ddda"},"vehicle_type_id":"4","last_reported":1745485896,"current_range_meters":8400,"station_id":"st_cvj6r9ubvosntc0bgbag","pricing_plan_id":"cebpf4jnsgd1na2vs0mg"},{"bike_id":"3f465901-b591-4ad2-9369-c056945efa2d","system_id":"levelo_inurba_marseille","lat":43.298896,"lon":5.365149,"is_reserved":false,"is_disabled":false,"rental_uris":{"android":"levelo://app?vid=3f465901-b591-4ad2-9369-c056945efa2d","ios":"levelo://app?vid=3f465901-b591-4ad2-9369-c056945efa2d"},"vehicle_type_id":"4","last_reported":1745485896,"current_range_meters":8400,"station_id":"ce4bgm92rcd13ifvqbr0","pricing_plan_id":"cebpf4jnsgd1na2vs0mg"},{"bike_id":"c97a8321-d4b7-4562-8ef3-855a605e6cf6","system_id":"levelo_inurba_marseille","lat":43.25908,"lon":5.40869,"is_reserved":false,"is_disabled":false,"rental_uris":{"android":"levelo://app?vid=c97a8321-d4b7-4562-8ef3-855a605e6cf6","ios":"levelo://app?vid=c97a8321-d4b7-4562-8ef3-855a605e6cf6"},"vehicle_type_id":"4","last_reported":1745485896,"current_range_meters":8400,"station_id":"ce4bhm92rcd13ifvqglg","pricing_plan_id":"cebpf4jnsgd1na2vs0mg"},{"bike_id":"8c7cba96-a3d5-439a-9e64-c18b09dd7aa5","system_id":"levelo_inurba_marseille","lat":43.295449,"lon":5.422788,"is_reserved":false,"is_disabled":false,"rental_uris":{"android":"levelo://app?vid=8c7cba96-a3d5-439a-9e64-c18b09dd7aa5","ios":"levelo://app?vid=8c7cba96-a3d5-439a-9e64-c18b09dd7aa5"},"vehicle_type_id":"4","last_reported":1745485896,"current_range_meters":8400,"station_id":"ce4bhph2rcd13ifvqhdg","pricing_plan_id":"cebpf4jnsgd1na2vs0mg"},{"bike_id":"b96d48d5-fc65-423b-9a30-5d2c864e8939","system_id":"levelo_inurba_marseille","lat":43.22503,"lon":5.34776,"is_reserved":false,"is_disabled":false,"rental_uris":{"android":"levelo://app?vid=b96d48d5-fc65-423b-9a30-5d2c864e8939","ios":"levelo://app?vid=b96d48d5-fc65-423b-9a30-5d2c864e8939"},"vehicle_type_id":"4","last_reported":1745485896,"current_range_meters":8800,"station_id":"st_cvj5dfep6f1abm77gieg","pricing_plan_id":"cebpf4jnsgd1na2vs0mg"},{"bike_id":"14728e8c-c5db-46b1-8001-26ea2cd5ea40","system_id":"levelo_inurba_marseille","lat":43.30432,"lon":5.38891,"is_reserved":false,"is_disabled":false,"rental_uris":{"android":"levelo://app?vid=14728e8c-c5db-46b1-8001-26ea2cd5ea40","ios":"levelo://app?vid=14728e8c-c5db-46b1-8001-26ea2cd5ea40"},"vehicle_type_id":"4","last_reported":1745485896,"current_range_meters":2800,"station_id":"ce4bgk12rcd13ifvqbi0","pricing_plan_id":"cebpf4jnsgd1na2vs0mg"},{"bike_id":"78a2d2df-c853-406c-bcd3-7727439f0b4e","system_id":"levelo_inurba_marseille","lat":43.291978,"lon":5.393278,"is_reserved":false,"is_disabled":false,"rental_uris":{"android":"levelo://app?vid=78a2d2df-c853-406c-bcd3-7727439f0b4e","ios":"levelo://app?vid=78a2d2df-c853-406c-bcd3-7727439f0b4e"},"vehicle_type_id":"4","last_reported":1745485896,"current_range_meters":8800,"station_id":"ce4bh2p2rcd13ifvqdi0","pricing_plan_id":"cebpf4jnsgd1na2vs0mg"},{"bike_id":"5cec985c-475e-4a47-afd7-2118745a458f","system_id":"levelo_inurba_marseille","lat":43.22947,"lon":5.35373,"is_reserved":false,"is_disabled":false,"rental_uris":{"android":"levelo://app?vid=5cec985c-475e-4a47-afd7-2118745a458f","ios":"levelo://app?vid=5cec985c-475e-4a47-afd7-2118745a458f"},"vehicle_type_id":"4","last_reported":1745485896,"current_range_meters":8800,"station_id":"cpo3532slgdg3j2ikp40","pricing_plan_id":"cebpf4jnsgd1na2vs0mg"},{"bike_id":"d6a28369-c85e-4f77-8bbb-e08b0cdd02e6","system_id":"levelo_inurba_marseille","lat":43.3095,"lon":5.39035,"is_reserved":false,"is_disabled":false,"rental_uris":{"android":"levelo://app?vid=d6a28369-c85e-4f77-8bbb-e08b0cdd02e6","ios":"levelo://app?vid=d6a28369-c85e-4f77-8bbb-e08b0cdd02e6"},"vehicle_type_id":"4","last_reported":1745485896,"current_range_meters":9600,"station_id":"ce4bgup2rcd13ifvqco0","pricing_plan_id":"cebpf4jnsgd1na2vs0mg"},{"bike_id":"0bad78a4-9b23-4a44-bb0a-e56e7c1e85b3","system_id":"levelo_inurba_marseille","lat":43.30509,"lon":5.37864,"is_reserved":false,"is_disabled":false,"rental_uris":{"android":"levelo://app?vid=0bad78a4-9b23-4a44-bb0a-e56e7c1e85b3","ios":"levelo://app?vid=0bad78a4-9b23-4a44-bb0a-e56e7c1e85b3"},"vehicle_type_id":"4","last_reported":1745485896,"current_range_meters":9200,"station_id":"","pricing_plan_id":"cebpf4jnsgd1na2vs0mg"},{"bike_id":"abf7ca30-2a37-43a5-a755-8cd682f346c0","system_id":"levelo_inurba_marseille","lat":43.311676,"lon":5.387165,"is_reserved":false,"is_disabled":false,"rental_uris":{"android":"levelo://app?vid=abf7ca30-2a37-43a5-a755-8cd682f346c0","ios":"levelo://app?vid=abf7ca30-2a37-43a5-a755-8cd682f346c0"},"vehicle_type_id":"4","last_reported":1745485896,"current_range_meters":11200,"station_id":"ce4bhh12rcd13ifvqff0","pricing_plan_id":"cebpf4jnsgd1na2vs0mg"},{"bike_id":"abd226a8-d003-4133-b9d2-b7c952b7ead1","system_id":"levelo_inurba_marseille","lat":43.2306,"lon":5.35468,"is_reserved":false,"is_disabled":false,"rental_uris":{"android":"levelo://app?vid=abd226a8-d003-4133-b9d2-b7c952b7ead1","ios":"levelo://app?vid=abd226a8-d003-4133-b9d2-b7c952b7ead1"},"vehicle_type_id":"4","last_reported":1745485896,"current_range_meters":9200,"station_id":"cpo3342slgdg3j2ifvpg","pricing_plan_id":"cebpf4jnsgd1na2vs0mg"},{"bike_id":"cda2307c-312d-45a0-87be-dd5e1621dc98","system_id":"levelo_inurba_marseille","lat":43.26498,"lon":5.39534,"is_reserved":false,"is_disabled":false,"rental_uris":{"android":"levelo://app?vid=cda2307c-312d-45a0-87be-dd5e1621dc98","ios":"levelo://app?vid=cda2307c-312d-45a0-87be-dd5e1621dc98"},"vehicle_type_id":"4","last_reported":1745485896,"current_range_meters":9200,"station_id":"ce4bhi12rcd13ifvqfq0","pricing_plan_id":"cebpf4jnsgd1na2vs0mg"},{"bike_id":"1b8b7145-49a7-4fe1-96a2-72a1d6e84a54","system_id":"levelo_inurba_marseille","lat":43.23053,"lon":5.35505,"is_reserved":false,"is_disabled":false,"rental_uris":{"android":"levelo://app?vid=1b8b7145-49a7-4fe1-96a2-72a1d6e84a54","ios":"levelo://app?vid=1b8b7145-49a7-4fe1-96a2-72a1d6e84a54"},"vehicle_type_id":"4","last_reported":1745485896,"current_range_meters":9200,"station_id":"cpo3342slgdg3j2ifvpg","pricing_plan_id":"cebpf4jnsgd1na2vs0mg"},{"bike_id":"a59792f2-9698-4955-a489-e6e4866201e4","system_id":"levelo_inurba_marseille","lat":43.24542,"lon":5.39522,"is_reserved":false,"is_disabled":false,"rental_uris":{"android":"levelo://app?vid=a59792f2-9698-4955-a489-e6e4866201e4","ios":"levelo://app?vid=a59792f2-9698-4955-a489-e6e4866201e4"},"vehicle_type_id":"4","last_reported":1745485896,"current_range_meters":9200,"station_id":"ce4bhlp2rcd13ifvqgjg","pricing_plan_id":"cebpf4jnsgd1na2vs0mg"},{"bike_id":"f7204dbe-aaf9-4564-8c1a-52cfb9b35b31","system_id":"levelo_inurba_marseille","lat":43.29846,"lon":5.36262,"is_reserved":false,"is_disabled":false,"rental_uris":{"android":"levelo://app?vid=f7204dbe-aaf9-4564-8c1a-52cfb9b35b31","ios":"levelo://app?vid=f7204dbe-aaf9-4564-8c1a-52cfb9b35b31"},"vehicle_type_id":"4","last_reported":1745485896,"current_range_meters":9200,"station_id":"ce4bgpp2rcd13ifvqc3g","pricing_plan_id":"cebpf4jnsgd1na2vs0mg"},{"bike_id":"532176c0-bb9e-42cb-b4d0-0d5318320268","system_id":"levelo_inurba_marseille","lat":43.30948,"lon":5.3903,"is_reserved":false,"is_disabled":false,"rental_uris":{"android":"levelo://app?vid=532176c0-bb9e-42cb-b4d0-0d5318320268","ios":"levelo://app?vid=532176c0-bb9e-42cb-b4d0-0d5318320268"},"vehicle_type_id":"4","last_reported":1745485896,"current_range_meters":9600,"station_id":"ce4bgup2rcd13ifvqco0","pricing_plan_id":"cebpf4jnsgd1na2vs0mg"},{"bike_id":"b59e6860-8f4d-4985-a296-2870f9b84ddc","system_id":"levelo_inurba_marseille","lat":43.291096,"lon":5.381913,"is_reserved":false,"is_disabled":false,"rental_uris":{"android":"levelo://app?vid=b59e6860-8f4d-4985-a296-2870f9b84ddc","ios":"levelo://app?vid=b59e6860-8f4d-4985-a296-2870f9b84ddc"},"vehicle_type_id":"4","last_reported":1745485896,"current_range_meters":9600,"station_id":"ce4bh512rcd13ifvqe2g","pricing_plan_id":"cebpf4jnsgd1na2vs0mg"},{"bike_id":"fc2594f5-29c2-4736-a3e8-a8cef3a2f2f6","system_id":"levelo_inurba_marseille","lat":43.25922,"lon":5.40893,"is_reserved":false,"is_disabled":false,"rental_uris":{"android":"levelo://app?vid=fc2594f5-29c2-4736-a3e8-a8cef3a2f2f6","ios":"levelo://app?vid=fc2594f5-29c2-4736-a3e8-a8cef3a2f2f6"},"vehicle_type_id":"4","last_reported":1745485896,"current_range_meters":9600,"station_id":"ce4bhm92rcd13ifvqglg","pricing_plan_id":"cebpf4jnsgd1na2vs0mg"},{"bike_id":"4390b373-4b57-4040-b21d-893f139aba53","system_id":"levelo_inurba_marseille","lat":43.33724,"lon":5.39184,"is_reserved":false,"is_disabled":false,"rental_uris":{"android":"levelo://app?vid=4390b373-4b57-4040-b21d-893f139aba53","ios":"levelo://app?vid=4390b373-4b57-4040-b21d-893f139aba53"},"vehicle_type_id":"4","last_reported":1745485896,"current_range_meters":9600,"station_id":"ce4bhr92rcd13ifvqhsg","pricing_plan_id":"cebpf4jnsgd1na2vs0mg"},{"bike_id":"a95d8566-fed6-419c-8c62-985ddaff9c6c","system_id":"levelo_inurba_marseille","lat":43.25714,"lon":5.41109,"is_reserved":false,"is_disabled":false,"rental_uris":{"android":"levelo://app?vid=a95d8566-fed6-419c-8c62-985ddaff9c6c","ios":"levelo://app?vid=a95d8566-fed6-419c-8c62-985ddaff9c6c"},"vehicle_type_id":"4","last_reported":1745485896,"current_range_meters":9600,"station_id":"ce4bhkp2rcd13ifvqgd0","pricing_plan_id":"cebpf4jnsgd1na2vs0mg"},{"bike_id":"242c422f-fe10-4cc5-89bc-fe2c138d7525","system_id":"levelo_inurba_marseille","lat":43.29837,"lon":5.3627,"is_reserved":false,"is_disabled":false,"rental_uris":{"android":"levelo://app?vid=242c422f-fe10-4cc5-89bc-fe2c138d7525","ios":"levelo://app?vid=242c422f-fe10-4cc5-89bc-fe2c138d7525"},"vehicle_type_id":"4","last_reported":1745485896,"current_range_meters":9600,"station_id":"ce4bgpp2rcd13ifvqc3g","pricing_plan_id":"cebpf4jnsgd1na2vs0mg"},{"bike_id":"79552dee-baba-453d-bdbf-620f9f8510aa","system_id":"levelo_inurba_marseille","lat":43.30903,"lon":5.36843,"is_reserved":false,"is_disabled":false,"rental_uris":{"android":"levelo://app?vid=79552dee-baba-453d-bdbf-620f9f8510aa","ios":"levelo://app?vid=79552dee-baba-453d-bdbf-620f9f8510aa"},"vehicle_type_id":"4","last_reported":1745485896,"current_range_meters":9600,"station_id":"ce4bgn92rcd13ifvqbvg","pricing_plan_id":"cebpf4jnsgd1na2vs0mg"},{"bike_id":"bdcc29ba-c9ac-42ac-9da0-b21f9c5bf966","system_id":"levelo_inurba_marseille","lat":43.23149,"lon":5.4372,"is_reserved":false,"is_disabled":false,"rental_uris":{"android":"levelo://app?vid=bdcc29ba-c9ac-42ac-9da0-b21f9c5bf966","ios":"levelo://app?vid=bdcc29ba-c9ac-42ac-9da0-b21f9c5bf966"},"vehicle_type_id":"4","last_reported":1745485896,"current_range_meters":10000,"station_id":"ce4bhmp2rcd13ifvqgog","pricing_plan_id":"cebpf4jnsgd1na2vs0mg"},{"bike_id":"6caeee23-4243-4619-bed0-0c06e29dba93","system_id":"levelo_inurba_marseille","lat":43.28265,"lon":5.35057,"is_reserved":false,"is_disabled":false,"rental_uris":{"android":"levelo://app?vid=6caeee23-4243-4619-bed0-0c06e29dba93","ios":"levelo://app?vid=6caeee23-4243-4619-bed0-0c06e29dba93"},"vehicle_type_id":"4","last_reported":1745485896,"current_range_meters":10000,"station_id":"ce4bhbp2rcd13ifvqerg","pricing_plan_id":"cebpf4jnsgd1na2vs0mg"},{"bike_id":"42c4d805-af28-4fb3-8d1a-032fd934199d","system_id":"levelo_inurba_marseille","lat":43.27432,"lon":5.39392,"is_reserved":false,"is_disabled":false,"rental_uris":{"android":"levelo://app?vid=42c4d805-af28-4fb3-8d1a-032fd934199d","ios":"levelo://app?vid=42c4d805-af28-4fb3-8d1a-032fd934199d"},"vehicle_type_id":"4","last_reported":1745485896,"current_range_meters":10000,"station_id":"ce4bhdp2rcd13ifvqf20","pricing_plan_id":"cebpf4jnsgd1na2vs0mg"},{"bike_id":"051e4bd2-ccb0-4829-957f-c16919c9a3f0","system_id":"levelo_inurba_marseille","lat":43.29547,"lon":5.42292,"is_reserved":false,"is_disabled":false,"rental_uris":{"android":"levelo://app?vid=051e4bd2-ccb0-4829-957f-c16919c9a3f0","ios":"levelo://app?vid=051e4bd2-ccb0-4829-957f-c16919c9a3f0"},"vehicle_type_id":"4","last_reported":1745485896,"current_range_meters":10000,"station_id":"ce4bhph2rcd13ifvqhdg","pricing_plan_id":"cebpf4jnsgd1na2vs0mg"},{"bike_id":"aa62aaf0-ae6a-4453-8158-dea4460354ba","system_id":"levelo_inurba_marseille","lat":43.27677,"lon":5.3887,"is_reserved":false,"is_disabled":false,"rental_uris":{"android":"levelo://app?vid=aa62aaf0-ae6a-4453-8158-dea4460354ba","ios":"levelo://app?vid=aa62aaf0-ae6a-4453-8158-dea4460354ba"},"vehicle_type_id":"4","last_reported":1745485896,"current_range_meters":10800,"station_id":"ce4bhi12rcd13ifvqfo0","pricing_plan_id":"cebpf4jnsgd1na2vs0mg"},{"bike_id":"8227aa34-70b7-45b6-bb41-8993ed86362d","system_id":"levelo_inurba_marseille","lat":43.288617,"lon":5.358517,"is_reserved":false,"is_disabled":false,"rental_uris":{"android":"levelo://app?vid=8227aa34-70b7-45b6-bb41-8993ed86362d","ios":"levelo://app?vid=8227aa34-70b7-45b6-bb41-8993ed86362d"},"vehicle_type_id":"4","last_reported":1745485896,"current_range_meters":11200,"station_id":"ce4bhb12rcd13ifvqem0","pricing_plan_id":"cebpf4jnsgd1na2vs0mg"},{"bike_id":"552ca33f-b1b5-4f34-9c9d-42b8f25d0821","system_id":"levelo_inurba_marseille","lat":43.27568,"lon":5.38408,"is_reserved":false,"is_disabled":false,"rental_uris":{"android":"levelo://app?vid=552ca33f-b1b5-4f34-9c9d-42b8f25d0821","ios":"levelo://app?vid=552ca33f-b1b5-4f34-9c9d-42b8f25d0821"},"vehicle_type_id":"4","last_reported":1745485896,"current_range_meters":11200,"station_id":"ce4bhh92rcd13ifvqfi0","pricing_plan_id":"cebpf4jnsgd1na2vs0mg"},{"bike_id":"9856f5df-ec08-479b-8c97-08682b8bd12f","system_id":"levelo_inurba_marseille","lat":43.29888,"lon":5.39731,"is_reserved":false,"is_disabled":false,"rental_uris":{"android":"levelo://app?vid=9856f5df-ec08-479b-8c97-08682b8bd12f","ios":"levelo://app?vid=9856f5df-ec08-479b-8c97-08682b8bd12f"},"vehicle_type_id":"4","last_reported":1745485896,"current_range_meters":11200,"station_id":"ce4bh0h2rcd13ifvqd50","pricing_plan_id":"cebpf4jnsgd1na2vs0mg"},{"bike_id":"11ce02ec-5de1-4d28-b35b-b9d2498a4135","system_id":"levelo_inurba_marseille","lat":43.2306,"lon":5.35486,"is_reserved":false,"is_disabled":false,"rental_uris":{"android":"levelo://app?vid=11ce02ec-5de1-4d28-b35b-b9d2498a4135","ios":"levelo://app?vid=11ce02ec-5de1-4d28-b35b-b9d2498a4135"},"vehicle_type_id":"4","last_reported":1745485896,"current_range_meters":11600,"station_id":"cpo3342slgdg3j2ifvpg","pricing_plan_id":"cebpf4jnsgd1na2vs0mg"},{"bike_id":"885dba09-5268-463f-bfac-c2b8a32dbaab","system_id":"levelo_inurba_marseille","lat":43.23151,"lon":5.43707,"is_reserved":false,"is_disabled":false,"rental_uris":{"android":"levelo://app?vid=885dba09-5268-463f-bfac-c2b8a32dbaab","ios":"levelo://app?vid=885dba09-5268-463f-bfac-c2b8a32dbaab"},"vehicle_type_id":"4","last_reported":1745485896,"current_range_meters":11600,"station_id":"ce4bhmp2rcd13ifvqgog","pricing_plan_id":"cebpf4jnsgd1na2vs0mg"},{"bike_id":"4d186d4b-dbf0-4b38-a32d-0fd128e40359","system_id":"levelo_inurba_marseille","lat":43.30248,"lon":5.4004,"is_reserved":false,"is_disabled":false,"rental_uris":{"android":"levelo://app?vid=4d186d4b-dbf0-4b38-a32d-0fd128e40359","ios":"levelo://app?vid=4d186d4b-dbf0-4b38-a32d-0fd128e40359"},"vehicle_type_id":"4","last_reported":1745485896,"current_range_meters":11600,"station_id":"ce4bgvh2rcd13ifvqcs0","pricing_plan_id":"cebpf4jnsgd1na2vs0mg"},{"bike_id":"30e08c8c-a2b6-45d6-9704-9460af4f4d07","system_id":"levelo_inurba_marseille","lat":43.310779,"lon":5.424339,"is_reserved":false,"is_disabled":false,"rental_uris":{"android":"levelo://app?vid=30e08c8c-a2b6-45d6-9704-9460af4f4d07","ios":"levelo://app?vid=30e08c8c-a2b6-45d6-9704-9460af4f4d07"},"vehicle_type_id":"4","last_reported":1745485896,"current_range_meters":11600,"station_id":"ce4bhp92rcd13ifvqhag","pricing_plan_id":"cebpf4jnsgd1na2vs0mg"},{"bike_id":"ba26b299-ecfd-4c46-adab-21a0e91df5e4","system_id":"levelo_inurba_marseille","lat":43.299017,"lon":5.387024,"is_reserved":false,"is_disabled":false,"rental_uris":{"android":"levelo://app?vid=ba26b299-ecfd-4c46-adab-21a0e91df5e4","ios":"levelo://app?vid=ba26b299-ecfd-4c46-adab-21a0e91df5e4"},"vehicle_type_id":"4","last_reported":1745485896,"current_range_meters":12000,"station_id":"ce4bh392rcd13ifvqdl0","pricing_plan_id":"cebpf4jnsgd1na2vs0mg"},{"bike_id":"d89cef5d-c108-41b4-b228-8000e612484b","system_id":"levelo_inurba_marseille","lat":43.30887,"lon":5.37184,"is_reserved":false,"is_disabled":false,"rental_uris":{"android":"levelo://app?vid=d89cef5d-c108-41b4-b228-8000e612484b","ios":"levelo://app?vid=d89cef5d-c108-41b4-b228-8000e612484b"},"vehicle_type_id":"4","last_reported":1745485896,"current_range_meters":12000,"station_id":"ce4bguh2rcd13ifvqckg","pricing_plan_id":"cebpf4jnsgd1na2vs0mg"},{"bike_id":"f7088e60-e703-4ef3-9bbc-74ed6aa9de63","system_id":"levelo_inurba_marseille","lat":43.24109,"lon":5.37819,"is_reserved":false,"is_disabled":false,"rental_uris":{"android":"levelo://app?vid=f7088e60-e703-4ef3-9bbc-74ed6aa9de63","ios":"levelo://app?vid=f7088e60-e703-4ef3-9bbc-74ed6aa9de63"},"vehicle_type_id":"4","last_reported":1745485896,"current_range_meters":12400,"station_id":"","pricing_plan_id":"cebpf4jnsgd1na2vs0mg"},{"bike_id":"df11b469-c9ef-41ef-a3ff-e21b4cfee7c7","system_id":"levelo_inurba_marseille","lat":43.32357,"lon":5.36756,"is_reserved":false,"is_disabled":false,"rental_uris":{"android":"levelo://app?vid=df11b469-c9ef-41ef-a3ff-e21b4cfee7c7","ios":"levelo://app?vid=df11b469-c9ef-41ef-a3ff-e21b4cfee7c7"},"vehicle_type_id":"4","last_reported":1745485896,"current_range_meters":12400,"station_id":"ce4bhsh2rcd13ifvqi2g","pricing_plan_id":"cebpf4jnsgd1na2vs0mg"},{"bike_id":"46374c49-3adc-4c5a-8966-e00f056c0d57","system_id":"levelo_inurba_marseille","lat":43.27846,"lon":5.35442,"is_reserved":false,"is_disabled":false,"rental_uris":{"android":"levelo://app?vid=46374c49-3adc-4c5a-8966-e00f056c0d57","ios":"levelo://app?vid=46374c49-3adc-4c5a-8966-e00f056c0d57"},"vehicle_type_id":"4","last_reported":1745485896,"current_range_meters":12400,"station_id":"","pricing_plan_id":"cebpf4jnsgd1na2vs0mg"},{"bike_id":"0a4aab9f-8a71-4fe1-9d7a-a1171198a2d7","system_id":"levelo_inurba_marseille","lat":43.23152,"lon":5.43714,"is_reserved":false,"is_disabled":false,"rental_uris":{"android":"levelo://app?vid=0a4aab9f-8a71-4fe1-9d7a-a1171198a2d7","ios":"levelo://app?vid=0a4aab9f-8a71-4fe1-9d7a-a1171198a2d7"},"vehicle_type_id":"4","last_reported":1745485896,"current_range_meters":12400,"station_id":"ce4bhmp2rcd13ifvqgog","pricing_plan_id":"cebpf4jnsgd1na2vs0mg"},{"bike_id":"99d72299-7ef3-4227-afef-ffb04c475743","system_id":"levelo_inurba_marseille","lat":43.29409,"lon":5.38622,"is_reserved":false,"is_disabled":false,"rental_uris":{"android":"levelo://app?vid=99d72299-7ef3-4227-afef-ffb04c475743","ios":"levelo://app?vid=99d72299-7ef3-4227-afef-ffb04c475743"},"vehicle_type_id":"4","last_reported":1745485896,"current_range_meters":8400,"station_id":"ce4bh2h2rcd13ifvqdh0","pricing_plan_id":"cebpf4jnsgd1na2vs0mg"},{"bike_id":"f7c13b48-86c5-4ae0-875b-8a996e5c4ae0","system_id":"levelo_inurba_marseille","lat":43.29574,"lon":5.36736,"is_reserved":false,"is_disabled":false,"rental_uris":{"android":"levelo://app?vid=f7c13b48-86c5-4ae0-875b-8a996e5c4ae0","ios":"levelo://app?vid=f7c13b48-86c5-4ae0-875b-8a996e5c4ae0"},"vehicle_type_id":"4","last_reported":1745485896,"current_range_meters":12400,"station_id":"ce4bgph2rcd13ifvqc2g","pricing_plan_id":"cebpf4jnsgd1na2vs0mg"},{"bike_id":"5f47d0c6-ea7f-4031-beca-108ca52404d8","system_id":"levelo_inurba_marseille","lat":43.30523,"lon":5.36486,"is_reserved":false,"is_disabled":false,"rental_uris":{"android":"levelo://app?vid=5f47d0c6-ea7f-4031-beca-108ca52404d8","ios":"levelo://app?vid=5f47d0c6-ea7f-4031-beca-108ca52404d8"},"vehicle_type_id":"4","last_reported":1745485896,"current_range_meters":12400,"station_id":"","pricing_plan_id":"cebpf4jnsgd1na2vs0mg"},{"bike_id":"755abc1a-f797-479c-8e88-5f59f436c9d9","system_id":"levelo_inurba_marseille","lat":43.23962,"lon":5.3662,"is_reserved":false,"is_disabled":true,"rental_uris":{"android":"levelo://app?vid=755abc1a-f797-479c-8e88-5f59f436c9d9","ios":"levelo://app?vid=755abc1a-f797-479c-8e88-5f59f436c9d9"},"vehicle_type_id":"4","last_reported":1745485896,"current_range_meters":12800,"station_id":"ce4bhi12rcd13ifvqfp0","pricing_plan_id":"cebpf4jnsgd1na2vs0mg"},{"bike_id":"0edc30e2-f5e4-4261-b21d-93b66fbd36d6","system_id":"levelo_inurba_marseille","lat":43.298645,"lon":5.397263,"is_reserved":false,"is_disabled":false,"rental_uris":{"android":"levelo://app?vid=0edc30e2-f5e4-4261-b21d-93b66fbd36d6","ios":"levelo://app?vid=0edc30e2-f5e4-4261-b21d-93b66fbd36d6"},"vehicle_type_id":"4","last_reported":1745485896,"current_range_meters":12800,"station_id":"","pricing_plan_id":"cebpf4jnsgd1na2vs0mg"},{"bike_id":"8e8a052a-78c3-4139-8ae6-24c6b7027f42","system_id":"levelo_inurba_marseille","lat":43.27562,"lon":5.38426,"is_reserved":false,"is_disabled":false,"rental_uris":{"android":"levelo://app?vid=8e8a052a-78c3-4139-8ae6-24c6b7027f42","ios":"levelo://app?vid=8e8a052a-78c3-4139-8ae6-24c6b7027f42"},"vehicle_type_id":"4","last_reported":1745485896,"current_range_meters":10800,"station_id":"ce4bhh92rcd13ifvqfi0","pricing_plan_id":"cebpf4jnsgd1na2vs0mg"},{"bike_id":"9ab7bf5e-724a-45c5-a946-61afe36b1204","system_id":"levelo_inurba_marseille","lat":43.30325,"lon":5.40444,"is_reserved":false,"is_disabled":true,"rental_uris":{"android":"levelo://app?vid=9ab7bf5e-724a-45c5-a946-61afe36b1204","ios":"levelo://app?vid=9ab7bf5e-724a-45c5-a946-61afe36b1204"},"vehicle_type_id":"4","last_reported":1745485896,"current_range_meters":13600,"station_id":"ce4bh012rcd13ifvqd10","pricing_plan_id":"cebpf4jnsgd1na2vs0mg"},{"bike_id":"8d82527d-7806-4669-be77-e8088dbc78a1","system_id":"levelo_inurba_marseille","lat":43.27175,"lon":5.40988,"is_reserved":false,"is_disabled":false,"rental_uris":{"android":"levelo://app?vid=8d82527d-7806-4669-be77-e8088dbc78a1","ios":"levelo://app?vid=8d82527d-7806-4669-be77-e8088dbc78a1"},"vehicle_type_id":"4","last_reported":1745485896,"current_range_meters":13600,"station_id":"ce4bhl12rcd13ifvqgf0","pricing_plan_id":"cebpf4jnsgd1na2vs0mg"},{"bike_id":"6c8a3000-5081-4d91-a139-2ac9ff5601d8","system_id":"levelo_inurba_marseille","lat":43.25491,"lon":5.37646,"is_reserved":false,"is_disabled":false,"rental_uris":{"android":"levelo://app?vid=6c8a3000-5081-4d91-a139-2ac9ff5601d8","ios":"levelo://app?vid=6c8a3000-5081-4d91-a139-2ac9ff5601d8"},"vehicle_type_id":"4","last_reported":1745485896,"current_range_meters":13600,"station_id":"ce4bhh12rcd13ifvqff0","pricing_plan_id":"cebpf4jnsgd1na2vs0mg"},{"bike_id":"840b9d4c-c469-47e1-befa-035630cb22c9","system_id":"levelo_inurba_marseille","lat":43.27423,"lon":5.39416,"is_reserved":false,"is_disabled":false,"rental_uris":{"android":"levelo://app?vid=840b9d4c-c469-47e1-befa-035630cb22c9","ios":"levelo://app?vid=840b9d4c-c469-47e1-befa-035630cb22c9"},"vehicle_type_id":"4","last_reported":1745485896,"current_range_meters":14000,"station_id":"ce4bhdp2rcd13ifvqf20","pricing_plan_id":"cebpf4jnsgd1na2vs0mg"},{"bike_id":"82f67ef8-1b36-4992-8bdd-9ffa30f314a7","system_id":"levelo_inurba_marseille","lat":43.26216,"lon":5.37441,"is_reserved":false,"is_disabled":false,"rental_uris":{"android":"levelo://app?vid=82f67ef8-1b36-4992-8bdd-9ffa30f314a7","ios":"levelo://app?vid=82f67ef8-1b36-4992-8bdd-9ffa30f314a7"},"vehicle_type_id":"4","last_reported":1745485896,"current_range_meters":14000,"station_id":"ce4bhgp2rcd13ifvqfc0","pricing_plan_id":"cebpf4jnsgd1na2vs0mg"},{"bike_id":"3deed28f-67d6-4dee-a5ac-a9d445dc8d89","system_id":"levelo_inurba_marseille","lat":43.29843,"lon":5.36268,"is_reserved":false,"is_disabled":false,"rental_uris":{"android":"levelo://app?vid=3deed28f-67d6-4dee-a5ac-a9d445dc8d89","ios":"levelo://app?vid=3deed28f-67d6-4dee-a5ac-a9d445dc8d89"},"vehicle_type_id":"4","last_reported":1745485896,"current_range_meters":14000,"station_id":"ce4bgpp2rcd13ifvqc3g","pricing_plan_id":"cebpf4jnsgd1na2vs0mg"},{"bike_id":"a44cca37-446e-4f73-8169-eff5d1d7089e","system_id":"levelo_inurba_marseille","lat":43.30945,"lon":5.39034,"is_reserved":false,"is_disabled":false,"rental_uris":{"android":"levelo://app?vid=a44cca37-446e-4f73-8169-eff5d1d7089e","ios":"levelo://app?vid=a44cca37-446e-4f73-8169-eff5d1d7089e"},"vehicle_type_id":"4","last_reported":1745485896,"current_range_meters":14400,"station_id":"ce4bgup2rcd13ifvqco0","pricing_plan_id":"cebpf4jnsgd1na2vs0mg"},{"bike_id":"5d598f50-0289-4d7e-b163-7f0386e0682b","system_id":"levelo_inurba_marseille","lat":43.23152,"lon":5.43701,"is_reserved":false,"is_disabled":false,"rental_uris":{"android":"levelo://app?vid=5d598f50-0289-4d7e-b163-7f0386e0682b","ios":"levelo://app?vid=5d598f50-0289-4d7e-b163-7f0386e0682b"},"vehicle_type_id":"4","last_reported":1745485896,"current_range_meters":14400,"station_id":"ce4bhmp2rcd13ifvqgog","pricing_plan_id":"cebpf4jnsgd1na2vs0mg"},{"bike_id":"11823a51-ce6a-4329-86c9-73570c28fb5e","system_id":"levelo_inurba_marseille","lat":43.29583,"lon":5.37515,"is_reserved":false,"is_disabled":false,"rental_uris":{"android":"levelo://app?vid=11823a51-ce6a-4329-86c9-73570c28fb5e","ios":"levelo://app?vid=11823a51-ce6a-4329-86c9-73570c28fb5e"},"vehicle_type_id":"4","last_reported":1745485896,"current_range_meters":14400,"station_id":"ce4bgh92rcd13ifvqb50","pricing_plan_id":"cebpf4jnsgd1na2vs0mg"},{"bike_id":"6f92f117-db41-48e4-8e04-0cb28a1484e0","system_id":"levelo_inurba_marseille","lat":43.30544,"lon":5.36685,"is_reserved":false,"is_disabled":false,"rental_uris":{"android":"levelo://app?vid=6f92f117-db41-48e4-8e04-0cb28a1484e0","ios":"levelo://app?vid=6f92f117-db41-48e4-8e04-0cb28a1484e0"},"vehicle_type_id":"4","last_reported":1745485896,"current_range_meters":14800,"station_id":"ce4bgrp2rcd13ifvqc9g","pricing_plan_id":"cebpf4jnsgd1na2vs0mg"},{"bike_id":"382baf77-1a90-4a91-807e-68d00c31fc76","system_id":"levelo_inurba_marseille","lat":43.29841,"lon":5.36273,"is_reserved":false,"is_disabled":false,"rental_uris":{"android":"levelo://app?vid=382baf77-1a90-4a91-807e-68d00c31fc76","ios":"levelo://app?vid=382baf77-1a90-4a91-807e-68d00c31fc76"},"vehicle_type_id":"4","last_reported":1745485896,"current_range_meters":14800,"station_id":"ce4bgpp2rcd13ifvqc3g","pricing_plan_id":"cebpf4jnsgd1na2vs0mg"},{"bike_id":"ae079be0-c376-44c4-a88a-6e4859a2854f","system_id":"levelo_inurba_marseille","lat":43.29932,"lon":5.36556,"is_reserved":false,"is_disabled":false,"rental_uris":{"android":"levelo://app?vid=ae079be0-c376-44c4-a88a-6e4859a2854f","ios":"levelo://app?vid=ae079be0-c376-44c4-a88a-6e4859a2854f"},"vehicle_type_id":"4","last_reported":1745485896,"current_range_meters":14800,"station_id":"ce4bgm92rcd13ifvqbr0","pricing_plan_id":"cebpf4jnsgd1na2vs0mg"},{"bike_id":"35090959-b112-46be-be27-4c96af2a8fd4","system_id":"levelo_inurba_marseille","lat":43.29256,"lon":5.37617,"is_reserved":false,"is_disabled":false,"rental_uris":{"android":"levelo://app?vid=35090959-b112-46be-be27-4c96af2a8fd4","ios":"levelo://app?vid=35090959-b112-46be-be27-4c96af2a8fd4"},"vehicle_type_id":"4","last_reported":1745485896,"current_range_meters":14800,"station_id":"ce4bgi12rcd13ifvqb80","pricing_plan_id":"cebpf4jnsgd1na2vs0mg"},{"bike_id":"04e0fff1-7873-41aa-a352-f64bde3cefa8","system_id":"levelo_inurba_marseille","lat":43.23198,"lon":5.35522,"is_reserved":false,"is_disabled":false,"rental_uris":{"android":"levelo://app?vid=04e0fff1-7873-41aa-a352-f64bde3cefa8","ios":"levelo://app?vid=04e0fff1-7873-41aa-a352-f64bde3cefa8"},"vehicle_type_id":"4","last_reported":1745485896,"current_range_meters":14800,"station_id":"ce4bhu92rcd13ifvqi70","pricing_plan_id":"cebpf4jnsgd1na2vs0mg"},{"bike_id":"4d543d53-c734-43cb-9ace-6f7dffec9d78","system_id":"levelo_inurba_marseille","lat":43.30603,"lon":5.37225,"is_reserved":false,"is_disabled":false,"rental_uris":{"android":"levelo://app?vid=4d543d53-c734-43cb-9ace-6f7dffec9d78","ios":"levelo://app?vid=4d543d53-c734-43cb-9ace-6f7dffec9d78"},"vehicle_type_id":"4","last_reported":1745485896,"current_range_meters":14800,"station_id":"ce4bgqh2rcd13ifvqc4g","pricing_plan_id":"cebpf4jnsgd1na2vs0mg"},{"bike_id":"fa8a552a-d2d3-4e8d-8d8e-02bdba037836","system_id":"levelo_inurba_marseille","lat":43.23101,"lon":5.35507,"is_reserved":false,"is_disabled":false,"rental_uris":{"android":"levelo://app?vid=fa8a552a-d2d3-4e8d-8d8e-02bdba037836","ios":"levelo://app?vid=fa8a552a-d2d3-4e8d-8d8e-02bdba037836"},"vehicle_type_id":"4","last_reported":1745485896,"current_range_meters":14800,"station_id":"","pricing_plan_id":"cebpf4jnsgd1na2vs0mg"},{"bike_id":"0ff6b84a-444f-4c2c-b642-fa162a5071c8","system_id":"levelo_inurba_marseille","lat":43.279166,"lon":5.395762,"is_reserved":false,"is_disabled":false,"rental_uris":{"android":"levelo://app?vid=0ff6b84a-444f-4c2c-b642-fa162a5071c8","ios":"levelo://app?vid=0ff6b84a-444f-4c2c-b642-fa162a5071c8"},"vehicle_type_id":"4","last_reported":1745485896,"current_range_meters":15200,"station_id":"ce4bhf92rcd13ifvqf40","pricing_plan_id":"cebpf4jnsgd1na2vs0mg"},{"bike_id":"43dcbe30-6e2c-40f3-850f-933aac101c43","system_id":"levelo_inurba_marseille","lat":43.29173,"lon":5.38576,"is_reserved":false,"is_disabled":false,"rental_uris":{"android":"levelo://app?vid=43dcbe30-6e2c-40f3-850f-933aac101c43","ios":"levelo://app?vid=43dcbe30-6e2c-40f3-850f-933aac101c43"},"vehicle_type_id":"4","last_reported":1745485896,"current_range_meters":15200,"station_id":"ce4bh692rcd13ifvqea0","pricing_plan_id":"cebpf4jnsgd1na2vs0mg"},{"bike_id":"3ac7a256-bc93-444a-b034-fb7fdc853f81","system_id":"levelo_inurba_marseille","lat":43.26227,"lon":5.40448,"is_reserved":false,"is_disabled":false,"rental_uris":{"android":"levelo://app?vid=3ac7a256-bc93-444a-b034-fb7fdc853f81","ios":"levelo://app?vid=3ac7a256-bc93-444a-b034-fb7fdc853f81"},"vehicle_type_id":"4","last_reported":1745485896,"current_range_meters":15200,"station_id":"ce4bhmh2rcd13ifvqgmg","pricing_plan_id":"cebpf4jnsgd1na2vs0mg"},{"bike_id":"a11e7b4a-7ef3-464c-b629-ad14086956ef","system_id":"levelo_inurba_marseille","lat":43.309235,"lon":5.401394,"is_reserved":false,"is_disabled":false,"rental_uris":{"android":"levelo://app?vid=a11e7b4a-7ef3-464c-b629-ad14086956ef","ios":"levelo://app?vid=a11e7b4a-7ef3-464c-b629-ad14086956ef"},"vehicle_type_id":"4","last_reported":1745485896,"current_range_meters":15200,"station_id":"ce4bgvp2rcd13ifvqct0","pricing_plan_id":"cebpf4jnsgd1na2vs0mg"},{"bike_id":"527999c3-7431-407e-96d9-15db82eb0dac","system_id":"levelo_inurba_marseille","lat":43.305394,"lon":5.367047,"is_reserved":false,"is_disabled":false,"rental_uris":{"android":"levelo://app?vid=527999c3-7431-407e-96d9-15db82eb0dac","ios":"levelo://app?vid=527999c3-7431-407e-96d9-15db82eb0dac"},"vehicle_type_id":"4","last_reported":1745485896,"current_range_meters":16000,"station_id":"ce4bgrp2rcd13ifvqc9g","pricing_plan_id":"cebpf4jnsgd1na2vs0mg"},{"bike_id":"9929c731-9702-4da2-a4ad-0d3ee18ab654","system_id":"levelo_inurba_marseille","lat":43.25933,"lon":5.40907,"is_reserved":false,"is_disabled":false,"rental_uris":{"android":"levelo://app?vid=9929c731-9702-4da2-a4ad-0d3ee18ab654","ios":"levelo://app?vid=9929c731-9702-4da2-a4ad-0d3ee18ab654"},"vehicle_type_id":"4","last_reported":1745485896,"current_range_meters":16000,"station_id":"ce4bhm92rcd13ifvqglg","pricing_plan_id":"cebpf4jnsgd1na2vs0mg"},{"bike_id":"98622a89-aa43-4bb3-a4bf-925cf1740826","system_id":"levelo_inurba_marseille","lat":43.25584,"lon":5.38229,"is_reserved":false,"is_disabled":false,"rental_uris":{"android":"levelo://app?vid=98622a89-aa43-4bb3-a4bf-925cf1740826","ios":"levelo://app?vid=98622a89-aa43-4bb3-a4bf-925cf1740826"},"vehicle_type_id":"4","last_reported":1745485896,"current_range_meters":16000,"station_id":"ce4bhih2rcd13ifvqfs0","pricing_plan_id":"cebpf4jnsgd1na2vs0mg"},{"bike_id":"9e3ec1b8-90aa-41f8-b4cf-95d8498727ff","system_id":"levelo_inurba_marseille","lat":43.29855,"lon":5.36282,"is_reserved":false,"is_disabled":false,"rental_uris":{"android":"levelo://app?vid=9e3ec1b8-90aa-41f8-b4cf-95d8498727ff","ios":"levelo://app?vid=9e3ec1b8-90aa-41f8-b4cf-95d8498727ff"},"vehicle_type_id":"4","last_reported":1745485896,"current_range_meters":16400,"station_id":"ce4bgpp2rcd13ifvqc3g","pricing_plan_id":"cebpf4jnsgd1na2vs0mg"},{"bike_id":"da5c6c1e-36f5-41ea-ac61-0956cef995e3","system_id":"levelo_inurba_marseille","lat":43.305298,"lon":5.384289,"is_reserved":false,"is_disabled":false,"rental_uris":{"android":"levelo://app?vid=da5c6c1e-36f5-41ea-ac61-0956cef995e3","ios":"levelo://app?vid=da5c6c1e-36f5-41ea-ac61-0956cef995e3"},"vehicle_type_id":"4","last_reported":1745485896,"current_range_meters":16400,"station_id":"ce4bgg92rcd13ifvqb30","pricing_plan_id":"cebpf4jnsgd1na2vs0mg"},{"bike_id":"8492447e-6a4e-4de2-8526-5f1e1e6fd6a3","system_id":"levelo_inurba_marseille","lat":43.29258,"lon":5.37613,"is_reserved":false,"is_disabled":false,"rental_uris":{"android":"levelo://app?vid=8492447e-6a4e-4de2-8526-5f1e1e6fd6a3","ios":"levelo://app?vid=8492447e-6a4e-4de2-8526-5f1e1e6fd6a3"},"vehicle_type_id":"4","last_reported":1745485896,"current_range_meters":16400,"station_id":"ce4bgi12rcd13ifvqb80","pricing_plan_id":"cebpf4jnsgd1na2vs0mg"},{"bike_id":"4d8697b4-e520-4025-83e9-e9246902a88c","system_id":"levelo_inurba_marseille","lat":43.30909,"lon":5.36857,"is_reserved":false,"is_disabled":false,"rental_uris":{"android":"levelo://app?vid=4d8697b4-e520-4025-83e9-e9246902a88c","ios":"levelo://app?vid=4d8697b4-e520-4025-83e9-e9246902a88c"},"vehicle_type_id":"4","last_reported":1745485896,"current_range_meters":16400,"station_id":"ce4bgn92rcd13ifvqbvg","pricing_plan_id":"cebpf4jnsgd1na2vs0mg"},{"bike_id":"ab660249-0742-4ee6-9f3c-cbf7eabd0145","system_id":"levelo_inurba_marseille","lat":43.28605,"lon":5.37063,"is_reserved":false,"is_disabled":false,"rental_uris":{"android":"levelo://app?vid=ab660249-0742-4ee6-9f3c-cbf7eabd0145","ios":"levelo://app?vid=ab660249-0742-4ee6-9f3c-cbf7eabd0145"},"vehicle_type_id":"4","last_reported":1745485896,"current_range_meters":16400,"station_id":"ce4bht12rcd13ifvqi60","pricing_plan_id":"cebpf4jnsgd1na2vs0mg"},{"bike_id":"19b1e669-c0ec-46a9-8c21-4f491a13468c","system_id":"levelo_inurba_marseille","lat":43.29531,"lon":5.38549,"is_reserved":false,"is_disabled":true,"rental_uris":{"android":"levelo://app?vid=19b1e669-c0ec-46a9-8c21-4f491a13468c","ios":"levelo://app?vid=19b1e669-c0ec-46a9-8c21-4f491a13468c"},"vehicle_type_id":"4","last_reported":1745485896,"current_range_meters":16800,"station_id":"ce4bgih2rcd13ifvqba0","pricing_plan_id":"cebpf4jnsgd1na2vs0mg"},{"bike_id":"cd906bce-52be-45be-8f08-cdeb623de131","system_id":"levelo_inurba_marseille","lat":43.28194,"lon":5.40362,"is_reserved":false,"is_disabled":false,"rental_uris":{"android":"levelo://app?vid=cd906bce-52be-45be-8f08-cdeb623de131","ios":"levelo://app?vid=cd906bce-52be-45be-8f08-cdeb623de131"},"vehicle_type_id":"4","last_reported":1745485896,"current_range_meters":16800,"station_id":"","pricing_plan_id":"cebpf4jnsgd1na2vs0mg"},{"bike_id":"4e259911-67c1-4742-976c-ddc411ce90fd","system_id":"levelo_inurba_marseille","lat":43.24072,"lon":5.37766,"is_reserved":false,"is_disabled":false,"rental_uris":{"android":"levelo://app?vid=4e259911-67c1-4742-976c-ddc411ce90fd","ios":"levelo://app?vid=4e259911-67c1-4742-976c-ddc411ce90fd"},"vehicle_type_id":"4","last_reported":1745485896,"current_range_meters":16800,"station_id":"ce4bhnp2rcd13ifvqgvg","pricing_plan_id":"cebpf4jnsgd1na2vs0mg"},{"bike_id":"ea4b1d0e-0566-46bf-9ab6-545429e3b392","system_id":"levelo_inurba_marseille","lat":43.24675,"lon":5.38153,"is_reserved":false,"is_disabled":false,"rental_uris":{"android":"levelo://app?vid=ea4b1d0e-0566-46bf-9ab6-545429e3b392","ios":"levelo://app?vid=ea4b1d0e-0566-46bf-9ab6-545429e3b392"},"vehicle_type_id":"4","last_reported":1745485896,"current_range_meters":16800,"station_id":"ce4bhih2rcd13ifvqfr0","pricing_plan_id":"cebpf4jnsgd1na2vs0mg"},{"bike_id":"d802d433-91f5-46da-9a5b-42a725289286","system_id":"levelo_inurba_marseille","lat":43.30906,"lon":5.3685,"is_reserved":false,"is_disabled":false,"rental_uris":{"android":"levelo://app?vid=d802d433-91f5-46da-9a5b-42a725289286","ios":"levelo://app?vid=d802d433-91f5-46da-9a5b-42a725289286"},"vehicle_type_id":"4","last_reported":1745485896,"current_range_meters":16800,"station_id":"ce4bgn92rcd13ifvqbvg","pricing_plan_id":"cebpf4jnsgd1na2vs0mg"},{"bike_id":"28836886-7905-4569-92fc-bf9a9c47a46b","system_id":"levelo_inurba_marseille","lat":43.298665,"lon":5.397175,"is_reserved":false,"is_disabled":false,"rental_uris":{"android":"levelo://app?vid=28836886-7905-4569-92fc-bf9a9c47a46b","ios":"levelo://app?vid=28836886-7905-4569-92fc-bf9a9c47a46b"},"vehicle_type_id":"4","last_reported":1745485896,"current_range_meters":16800,"station_id":"ce4bh0h2rcd13ifvqd50","pricing_plan_id":"cebpf4jnsgd1na2vs0mg"},{"bike_id":"ab8406b2-4f8d-4381-8821-3db52b0a4d4d","system_id":"levelo_inurba_marseille","lat":43.27351,"lon":5.37839,"is_reserved":false,"is_disabled":false,"rental_uris":{"android":"levelo://app?vid=ab8406b2-4f8d-4381-8821-3db52b0a4d4d","ios":"levelo://app?vid=ab8406b2-4f8d-4381-8821-3db52b0a4d4d"},"vehicle_type_id":"4","last_reported":1745485896,"current_range_meters":17200,"station_id":"","pricing_plan_id":"cebpf4jnsgd1na2vs0mg"},{"bike_id":"eaf73369-bdd5-4351-8036-47f5e09d5e0f","system_id":"levelo_inurba_marseille","lat":43.29256,"lon":5.37611,"is_reserved":false,"is_disabled":false,"rental_uris":{"android":"levelo://app?vid=eaf73369-bdd5-4351-8036-47f5e09d5e0f","ios":"levelo://app?vid=eaf73369-bdd5-4351-8036-47f5e09d5e0f"},"vehicle_type_id":"4","last_reported":1745485896,"current_range_meters":17200,"station_id":"ce4bgi12rcd13ifvqb80","pricing_plan_id":"cebpf4jnsgd1na2vs0mg"},{"bike_id":"4d73eb63-fbf3-4b4e-b98c-2638c8651a19","system_id":"levelo_inurba_marseille","lat":43.29269,"lon":5.38427,"is_reserved":false,"is_disabled":false,"rental_uris":{"android":"levelo://app?vid=4d73eb63-fbf3-4b4e-b98c-2638c8651a19","ios":"levelo://app?vid=4d73eb63-fbf3-4b4e-b98c-2638c8651a19"},"vehicle_type_id":"4","last_reported":1745485896,"current_range_meters":17200,"station_id":"ce4bh692rcd13ifvqea0","pricing_plan_id":"cebpf4jnsgd1na2vs0mg"},{"bike_id":"5bbcc998-da8c-429a-a2f0-08cf4eaac56f","system_id":"levelo_inurba_marseille","lat":43.30539,"lon":5.36699,"is_reserved":false,"is_disabled":false,"rental_uris":{"android":"levelo://app?vid=5bbcc998-da8c-429a-a2f0-08cf4eaac56f","ios":"levelo://app?vid=5bbcc998-da8c-429a-a2f0-08cf4eaac56f"},"vehicle_type_id":"4","last_reported":1745485896,"current_range_meters":17200,"station_id":"ce4bgrp2rcd13ifvqc9g","pricing_plan_id":"cebpf4jnsgd1na2vs0mg"},{"bike_id":"c5d8f2d3-6784-448e-bb96-65f4372de6b9","system_id":"levelo_inurba_marseille","lat":43.24662,"lon":5.38165,"is_reserved":false,"is_disabled":false,"rental_uris":{"android":"levelo://app?vid=c5d8f2d3-6784-448e-bb96-65f4372de6b9","ios":"levelo://app?vid=c5d8f2d3-6784-448e-bb96-65f4372de6b9"},"vehicle_type_id":"4","last_reported":1745485896,"current_range_meters":17600,"station_id":"ce4bhih2rcd13ifvqfr0","pricing_plan_id":"cebpf4jnsgd1na2vs0mg"},{"bike_id":"31da1346-3463-47f4-a623-b764b6986d94","system_id":"levelo_inurba_marseille","lat":43.23192,"lon":5.35553,"is_reserved":false,"is_disabled":false,"rental_uris":{"android":"levelo://app?vid=31da1346-3463-47f4-a623-b764b6986d94","ios":"levelo://app?vid=31da1346-3463-47f4-a623-b764b6986d94"},"vehicle_type_id":"4","last_reported":1745485896,"current_range_meters":17600,"station_id":"ce4bhu92rcd13ifvqi70","pricing_plan_id":"cebpf4jnsgd1na2vs0mg"},{"bike_id":"97f00e91-4a81-4998-8f3d-60d5de3cea7c","system_id":"levelo_inurba_marseille","lat":43.30537,"lon":5.36669,"is_reserved":false,"is_disabled":false,"rental_uris":{"android":"levelo://app?vid=97f00e91-4a81-4998-8f3d-60d5de3cea7c","ios":"levelo://app?vid=97f00e91-4a81-4998-8f3d-60d5de3cea7c"},"vehicle_type_id":"4","last_reported":1745485896,"current_range_meters":17600,"station_id":"ce4bgrp2rcd13ifvqc9g","pricing_plan_id":"cebpf4jnsgd1na2vs0mg"},{"bike_id":"8425c1ca-8e4f-4dd7-87f3-4ba4f9a8e79d","system_id":"levelo_inurba_marseille","lat":43.30907,"lon":5.36852,"is_reserved":false,"is_disabled":false,"rental_uris":{"android":"levelo://app?vid=8425c1ca-8e4f-4dd7-87f3-4ba4f9a8e79d","ios":"levelo://app?vid=8425c1ca-8e4f-4dd7-87f3-4ba4f9a8e79d"},"vehicle_type_id":"4","last_reported":1745485896,"current_range_meters":17600,"station_id":"ce4bgn92rcd13ifvqbvg","pricing_plan_id":"cebpf4jnsgd1na2vs0mg"},{"bike_id":"e71ef8d3-4cab-483b-9fe0-0d67b49a0325","system_id":"levelo_inurba_marseille","lat":43.284359,"lon":5.392003,"is_reserved":false,"is_disabled":false,"rental_uris":{"android":"levelo://app?vid=e71ef8d3-4cab-483b-9fe0-0d67b49a0325","ios":"levelo://app?vid=e71ef8d3-4cab-483b-9fe0-0d67b49a0325"},"vehicle_type_id":"4","last_reported":1745485896,"current_range_meters":17600,"station_id":"","pricing_plan_id":"cebpf4jnsgd1na2vs0mg"},{"bike_id":"2c26c42c-bf3f-41d1-b95f-dc8d1ff640bb","system_id":"levelo_inurba_marseille","lat":43.26565,"lon":5.38997,"is_reserved":false,"is_disabled":false,"rental_uris":{"android":"levelo://app?vid=2c26c42c-bf3f-41d1-b95f-dc8d1ff640bb","ios":"levelo://app?vid=2c26c42c-bf3f-41d1-b95f-dc8d1ff640bb"},"vehicle_type_id":"4","last_reported":1745485896,"current_range_meters":17600,"station_id":"ce4bhe12rcd13ifvqf30","pricing_plan_id":"cebpf4jnsgd1na2vs0mg"},{"bike_id":"587e0c3c-50df-43bf-b3b3-be5fb2df8161","system_id":"levelo_inurba_marseille","lat":43.24163,"lon":5.36398,"is_reserved":false,"is_disabled":false,"rental_uris":{"android":"levelo://app?vid=587e0c3c-50df-43bf-b3b3-be5fb2df8161","ios":"levelo://app?vid=587e0c3c-50df-43bf-b3b3-be5fb2df8161"},"vehicle_type_id":"4","last_reported":1745485896,"current_range_meters":17600,"station_id":"cpo36qri1sfpv3e86is0","pricing_plan_id":"cebpf4jnsgd1na2vs0mg"},{"bike_id":"1de81498-62d9-4d22-9f89-aa82823dfef1","system_id":"levelo_inurba_marseille","lat":43.26555,"lon":5.37278,"is_reserved":false,"is_disabled":false,"rental_uris":{"android":"levelo://app?vid=1de81498-62d9-4d22-9f89-aa82823dfef1","ios":"levelo://app?vid=1de81498-62d9-4d22-9f89-aa82823dfef1"},"vehicle_type_id":"4","last_reported":1745485896,"current_range_meters":17600,"station_id":"ce4bhg12rcd13ifvqf70","pricing_plan_id":"cebpf4jnsgd1na2vs0mg"},{"bike_id":"51960722-4228-4c0b-88ab-ca04f82f96d7","system_id":"levelo_inurba_marseille","lat":43.284088,"lon":5.375038,"is_reserved":false,"is_disabled":false,"rental_uris":{"android":"levelo://app?vid=51960722-4228-4c0b-88ab-ca04f82f96d7","ios":"levelo://app?vid=51960722-4228-4c0b-88ab-ca04f82f96d7"},"vehicle_type_id":"4","last_reported":1745485896,"current_range_meters":18000,"station_id":"","pricing_plan_id":"cebpf4jnsgd1na2vs0mg"},{"bike_id":"4ad44271-4ca7-4dac-b8d2-6bb546d4598b","system_id":"levelo_inurba_marseille","lat":43.309457,"lon":5.390315,"is_reserved":false,"is_disabled":false,"rental_uris":{"android":"levelo://app?vid=4ad44271-4ca7-4dac-b8d2-6bb546d4598b","ios":"levelo://app?vid=4ad44271-4ca7-4dac-b8d2-6bb546d4598b"},"vehicle_type_id":"4","last_reported":1745485896,"current_range_meters":18000,"station_id":"ce4bgup2rcd13ifvqco0","pricing_plan_id":"cebpf4jnsgd1na2vs0mg"},{"bike_id":"30da752e-5450-4da3-965e-773778ce5d7d","system_id":"levelo_inurba_marseille","lat":43.24159,"lon":5.36407,"is_reserved":false,"is_disabled":false,"rental_uris":{"android":"levelo://app?vid=30da752e-5450-4da3-965e-773778ce5d7d","ios":"levelo://app?vid=30da752e-5450-4da3-965e-773778ce5d7d"},"vehicle_type_id":"4","last_reported":1745485896,"current_range_meters":18000,"station_id":"cpo36qri1sfpv3e86is0","pricing_plan_id":"cebpf4jnsgd1na2vs0mg"},{"bike_id":"abf2df00-70d9-4a3b-b09a-35d6c9e9796f","system_id":"levelo_inurba_marseille","lat":43.29544,"lon":5.42275,"is_reserved":false,"is_disabled":false,"rental_uris":{"android":"levelo://app?vid=abf2df00-70d9-4a3b-b09a-35d6c9e9796f","ios":"levelo://app?vid=abf2df00-70d9-4a3b-b09a-35d6c9e9796f"},"vehicle_type_id":"4","last_reported":1745485896,"current_range_meters":18000,"station_id":"ce4bhph2rcd13ifvqhdg","pricing_plan_id":"cebpf4jnsgd1na2vs0mg"},{"bike_id":"511b03e0-2c42-42b4-bb64-0faed2aa4637","system_id":"levelo_inurba_marseille","lat":43.23065,"lon":5.35488,"is_reserved":false,"is_disabled":false,"rental_uris":{"android":"levelo://app?vid=511b03e0-2c42-42b4-bb64-0faed2aa4637","ios":"levelo://app?vid=511b03e0-2c42-42b4-bb64-0faed2aa4637"},"vehicle_type_id":"4","last_reported":1745485896,"current_range_meters":18000,"station_id":"cpo3342slgdg3j2ifvpg","pricing_plan_id":"cebpf4jnsgd1na2vs0mg"},{"bike_id":"55c60548-a6dc-40bb-a829-32622b5f419e","system_id":"levelo_inurba_marseille","lat":43.259,"lon":5.40866,"is_reserved":false,"is_disabled":false,"rental_uris":{"android":"levelo://app?vid=55c60548-a6dc-40bb-a829-32622b5f419e","ios":"levelo://app?vid=55c60548-a6dc-40bb-a829-32622b5f419e"},"vehicle_type_id":"4","last_reported":1745485896,"current_range_meters":18000,"station_id":"ce4bhm92rcd13ifvqglg","pricing_plan_id":"cebpf4jnsgd1na2vs0mg"},{"bike_id":"ff1e2f5b-071c-4283-a49b-9c9f51ff4981","system_id":"levelo_inurba_marseille","lat":43.3053,"lon":5.36545,"is_reserved":false,"is_disabled":false,"rental_uris":{"android":"levelo://app?vid=ff1e2f5b-071c-4283-a49b-9c9f51ff4981","ios":"levelo://app?vid=ff1e2f5b-071c-4283-a49b-9c9f51ff4981"},"vehicle_type_id":"4","last_reported":1745485896,"current_range_meters":18000,"station_id":"ce4bgs12rcd13ifvqcag","pricing_plan_id":"cebpf4jnsgd1na2vs0mg"},{"bike_id":"28ad4672-7ae8-4221-926c-a4c7d7b8fb01","system_id":"levelo_inurba_marseille","lat":43.29842,"lon":5.36268,"is_reserved":false,"is_disabled":false,"rental_uris":{"android":"levelo://app?vid=28ad4672-7ae8-4221-926c-a4c7d7b8fb01","ios":"levelo://app?vid=28ad4672-7ae8-4221-926c-a4c7d7b8fb01"},"vehicle_type_id":"4","last_reported":1745485896,"current_range_meters":18000,"station_id":"ce4bgpp2rcd13ifvqc3g","pricing_plan_id":"cebpf4jnsgd1na2vs0mg"},{"bike_id":"78d1e8ca-e2c8-4b31-83eb-1d6e6ac4c151","system_id":"levelo_inurba_marseille","lat":43.28458,"lon":5.35897,"is_reserved":false,"is_disabled":false,"rental_uris":{"android":"levelo://app?vid=78d1e8ca-e2c8-4b31-83eb-1d6e6ac4c151","ios":"levelo://app?vid=78d1e8ca-e2c8-4b31-83eb-1d6e6ac4c151"},"vehicle_type_id":"4","last_reported":1745485896,"current_range_meters":18800,"station_id":"ce4bhah2rcd13ifvqei0","pricing_plan_id":"cebpf4jnsgd1na2vs0mg"},{"bike_id":"f106f414-13c3-4e0d-b872-f4010c13d223","system_id":"levelo_inurba_marseille","lat":43.30908,"lon":5.36854,"is_reserved":false,"is_disabled":false,"rental_uris":{"android":"levelo://app?vid=f106f414-13c3-4e0d-b872-f4010c13d223","ios":"levelo://app?vid=f106f414-13c3-4e0d-b872-f4010c13d223"},"vehicle_type_id":"4","last_reported":1745485896,"current_range_meters":18800,"station_id":"ce4bgn92rcd13ifvqbvg","pricing_plan_id":"cebpf4jnsgd1na2vs0mg"},{"bike_id":"4b0ada37-3caa-4bc6-ba95-da3d07fb1c36","system_id":"levelo_inurba_marseille","lat":43.25921,"lon":5.40884,"is_reserved":false,"is_disabled":false,"rental_uris":{"android":"levelo://app?vid=4b0ada37-3caa-4bc6-ba95-da3d07fb1c36","ios":"levelo://app?vid=4b0ada37-3caa-4bc6-ba95-da3d07fb1c36"},"vehicle_type_id":"4","last_reported":1745485896,"current_range_meters":18800,"station_id":"ce4bhm92rcd13ifvqglg","pricing_plan_id":"cebpf4jnsgd1na2vs0mg"},{"bike_id":"e2dcabcf-64d8-4394-bb9a-ff877bee611a","system_id":"levelo_inurba_marseille","lat":43.32055,"lon":5.41538,"is_reserved":false,"is_disabled":false,"rental_uris":{"android":"levelo://app?vid=e2dcabcf-64d8-4394-bb9a-ff877bee611a","ios":"levelo://app?vid=e2dcabcf-64d8-4394-bb9a-ff877bee611a"},"vehicle_type_id":"4","last_reported":1745485896,"current_range_meters":18800,"station_id":"ce4bhq92rcd13ifvqhkg","pricing_plan_id":"cebpf4jnsgd1na2vs0mg"},{"bike_id":"dc488267-f8e6-497d-9fa0-cfb286474b9e","system_id":"levelo_inurba_marseille","lat":43.2815,"lon":5.42643,"is_reserved":false,"is_disabled":false,"rental_uris":{"android":"levelo://app?vid=dc488267-f8e6-497d-9fa0-cfb286474b9e","ios":"levelo://app?vid=dc488267-f8e6-497d-9fa0-cfb286474b9e"},"vehicle_type_id":"4","last_reported":1745485896,"current_range_meters":18800,"station_id":"ce4bhnh2rcd13ifvqgug","pricing_plan_id":"cebpf4jnsgd1na2vs0mg"},{"bike_id":"d058ea01-7d7d-432c-be39-914fbf06ba51","system_id":"levelo_inurba_marseille","lat":43.30148,"lon":5.38091,"is_reserved":false,"is_disabled":false,"rental_uris":{"android":"levelo://app?vid=d058ea01-7d7d-432c-be39-914fbf06ba51","ios":"levelo://app?vid=d058ea01-7d7d-432c-be39-914fbf06ba51"},"vehicle_type_id":"4","last_reported":1745485896,"current_range_meters":19200,"station_id":"ce4bgjp2rcd13ifvqbh0","pricing_plan_id":"cebpf4jnsgd1na2vs0mg"},{"bike_id":"8b92e386-23fb-48d6-a3c0-fb15d8ebb4bb","system_id":"levelo_inurba_marseille","lat":43.3359,"lon":5.41019,"is_reserved":false,"is_disabled":false,"rental_uris":{"android":"levelo://app?vid=8b92e386-23fb-48d6-a3c0-fb15d8ebb4bb","ios":"levelo://app?vid=8b92e386-23fb-48d6-a3c0-fb15d8ebb4bb"},"vehicle_type_id":"4","last_reported":1745485896,"current_range_meters":19200,"station_id":"ce4bhqh2rcd13ifvqhmg","pricing_plan_id":"cebpf4jnsgd1na2vs0mg"},{"bike_id":"aa8a0102-3785-4fd7-9ba9-a39f0c22cd79","system_id":"levelo_inurba_marseille","lat":43.24386,"lon":5.37061,"is_reserved":false,"is_disabled":false,"rental_uris":{"android":"levelo://app?vid=aa8a0102-3785-4fd7-9ba9-a39f0c22cd79","ios":"levelo://app?vid=aa8a0102-3785-4fd7-9ba9-a39f0c22cd79"},"vehicle_type_id":"4","last_reported":1745485896,"current_range_meters":19200,"station_id":"ce4bhhh2rcd13ifvqfk0","pricing_plan_id":"cebpf4jnsgd1na2vs0mg"},{"bike_id":"9d62c9dd-8739-44b0-98a4-6fbfa8f33370","system_id":"levelo_inurba_marseille","lat":43.25931,"lon":5.40902,"is_reserved":false,"is_disabled":false,"rental_uris":{"android":"levelo://app?vid=9d62c9dd-8739-44b0-98a4-6fbfa8f33370","ios":"levelo://app?vid=9d62c9dd-8739-44b0-98a4-6fbfa8f33370"},"vehicle_type_id":"4","last_reported":1745485896,"current_range_meters":19200,"station_id":"ce4bhm92rcd13ifvqglg","pricing_plan_id":"cebpf4jnsgd1na2vs0mg"},{"bike_id":"95d57124-1efa-48b8-ba13-32ad31e77801","system_id":"levelo_inurba_marseille","lat":43.28567,"lon":5.39493,"is_reserved":false,"is_disabled":false,"rental_uris":{"android":"levelo://app?vid=95d57124-1efa-48b8-ba13-32ad31e77801","ios":"levelo://app?vid=95d57124-1efa-48b8-ba13-32ad31e77801"},"vehicle_type_id":"4","last_reported":1745485896,"current_range_meters":19200,"station_id":"ce4bh292rcd13ifvqdg0","pricing_plan_id":"cebpf4jnsgd1na2vs0mg"},{"bike_id":"1fad0618-6d26-4697-9bee-ec5e0a80c437","system_id":"levelo_inurba_marseille","lat":43.31359,"lon":5.36706,"is_reserved":false,"is_disabled":false,"rental_uris":{"android":"levelo://app?vid=1fad0618-6d26-4697-9bee-ec5e0a80c437","ios":"levelo://app?vid=1fad0618-6d26-4697-9bee-ec5e0a80c437"},"vehicle_type_id":"4","last_reported":1745485896,"current_range_meters":19200,"station_id":"ce4bgr92rcd13ifvqc6g","pricing_plan_id":"cebpf4jnsgd1na2vs0mg"},{"bike_id":"15849669-eb0e-4ddf-9c01-b3b64a9ffcbe","system_id":"levelo_inurba_marseille","lat":43.25935,"lon":5.40879,"is_reserved":false,"is_disabled":false,"rental_uris":{"android":"levelo://app?vid=15849669-eb0e-4ddf-9c01-b3b64a9ffcbe","ios":"levelo://app?vid=15849669-eb0e-4ddf-9c01-b3b64a9ffcbe"},"vehicle_type_id":"4","last_reported":1745485896,"current_range_meters":19600,"station_id":"ce4bhm92rcd13ifvqglg","pricing_plan_id":"cebpf4jnsgd1na2vs0mg"},{"bike_id":"016d1c33-236f-4281-bd30-10c7bc88d5ce","system_id":"levelo_inurba_marseille","lat":43.24078,"lon":5.37763,"is_reserved":false,"is_disabled":false,"rental_uris":{"android":"levelo://app?vid=016d1c33-236f-4281-bd30-10c7bc88d5ce","ios":"levelo://app?vid=016d1c33-236f-4281-bd30-10c7bc88d5ce"},"vehicle_type_id":"4","last_reported":1745485896,"current_range_meters":19600,"station_id":"ce4bhnp2rcd13ifvqgvg","pricing_plan_id":"cebpf4jnsgd1na2vs0mg"},{"bike_id":"81c822d8-ebbe-4d24-aa97-095046fd1c36","system_id":"levelo_inurba_marseille","lat":43.23147,"lon":5.4372,"is_reserved":false,"is_disabled":false,"rental_uris":{"android":"levelo://app?vid=81c822d8-ebbe-4d24-aa97-095046fd1c36","ios":"levelo://app?vid=81c822d8-ebbe-4d24-aa97-095046fd1c36"},"vehicle_type_id":"4","last_reported":1745485896,"current_range_meters":19600,"station_id":"ce4bhmp2rcd13ifvqgog","pricing_plan_id":"cebpf4jnsgd1na2vs0mg"},{"bike_id":"0bfff189-ec6a-4439-b345-e9dd168ab867","system_id":"levelo_inurba_marseille","lat":43.33719,"lon":5.39176,"is_reserved":false,"is_disabled":false,"rental_uris":{"android":"levelo://app?vid=0bfff189-ec6a-4439-b345-e9dd168ab867","ios":"levelo://app?vid=0bfff189-ec6a-4439-b345-e9dd168ab867"},"vehicle_type_id":"4","last_reported":1745485896,"current_range_meters":19600,"station_id":"ce4bhr92rcd13ifvqhsg","pricing_plan_id":"cebpf4jnsgd1na2vs0mg"},{"bike_id":"c2f7a788-c936-453c-a344-dae81f52ba6c","system_id":"levelo_inurba_marseille","lat":43.305361,"lon":5.366933,"is_reserved":false,"is_disabled":false,"rental_uris":{"android":"levelo://app?vid=c2f7a788-c936-453c-a344-dae81f52ba6c","ios":"levelo://app?vid=c2f7a788-c936-453c-a344-dae81f52ba6c"},"vehicle_type_id":"4","last_reported":1745485896,"current_range_meters":20000,"station_id":"ce4bgrp2rcd13ifvqc9g","pricing_plan_id":"cebpf4jnsgd1na2vs0mg"},{"bike_id":"27fc9594-b16a-4e7d-8925-56d936c07a2f","system_id":"levelo_inurba_marseille","lat":43.2984,"lon":5.36262,"is_reserved":false,"is_disabled":false,"rental_uris":{"android":"levelo://app?vid=27fc9594-b16a-4e7d-8925-56d936c07a2f","ios":"levelo://app?vid=27fc9594-b16a-4e7d-8925-56d936c07a2f"},"vehicle_type_id":"4","last_reported":1745485896,"current_range_meters":20000,"station_id":"ce4bgpp2rcd13ifvqc3g","pricing_plan_id":"cebpf4jnsgd1na2vs0mg"},{"bike_id":"ae8a8ff7-043d-46b2-b08a-24e4ebd9fce0","system_id":"levelo_inurba_marseille","lat":43.29295,"lon":5.37457,"is_reserved":false,"is_disabled":false,"rental_uris":{"android":"levelo://app?vid=ae8a8ff7-043d-46b2-b08a-24e4ebd9fce0","ios":"levelo://app?vid=ae8a8ff7-043d-46b2-b08a-24e4ebd9fce0"},"vehicle_type_id":"4","last_reported":1745485896,"current_range_meters":20000,"station_id":"ce4bgi12rcd13ifvqb70","pricing_plan_id":"cebpf4jnsgd1na2vs0mg"},{"bike_id":"47932da0-cb56-4d1c-bbf4-73014e8bd7a7","system_id":"levelo_inurba_marseille","lat":43.24072,"lon":5.37747,"is_reserved":false,"is_disabled":false,"rental_uris":{"android":"levelo://app?vid=47932da0-cb56-4d1c-bbf4-73014e8bd7a7","ios":"levelo://app?vid=47932da0-cb56-4d1c-bbf4-73014e8bd7a7"},"vehicle_type_id":"4","last_reported":1745485896,"current_range_meters":20000,"station_id":"ce4bhnp2rcd13ifvqgvg","pricing_plan_id":"cebpf4jnsgd1na2vs0mg"},{"bike_id":"54a65ea7-93b8-42ec-8567-ce2db234e6bd","system_id":"levelo_inurba_marseille","lat":43.298623,"lon":5.362831,"is_reserved":false,"is_disabled":false,"rental_uris":{"android":"levelo://app?vid=54a65ea7-93b8-42ec-8567-ce2db234e6bd","ios":"levelo://app?vid=54a65ea7-93b8-42ec-8567-ce2db234e6bd"},"vehicle_type_id":"4","last_reported":1745485896,"current_range_meters":20000,"station_id":"ce4bgpp2rcd13ifvqc3g","pricing_plan_id":"cebpf4jnsgd1na2vs0mg"},{"bike_id":"ea5dd29e-f7f0-401a-adda-e0cb0dfe66df","system_id":"levelo_inurba_marseille","lat":43.336007,"lon":5.41027,"is_reserved":false,"is_disabled":false,"rental_uris":{"android":"levelo://app?vid=ea5dd29e-f7f0-401a-adda-e0cb0dfe66df","ios":"levelo://app?vid=ea5dd29e-f7f0-401a-adda-e0cb0dfe66df"},"vehicle_type_id":"4","last_reported":1745485896,"current_range_meters":20000,"station_id":"ce4bhqh2rcd13ifvqhmg","pricing_plan_id":"cebpf4jnsgd1na2vs0mg"},{"bike_id":"58727b13-3ca0-4842-baa1-1faeff5caa77","system_id":"levelo_inurba_marseille","lat":43.2314,"lon":5.43717,"is_reserved":false,"is_disabled":true,"rental_uris":{"android":"levelo://app?vid=58727b13-3ca0-4842-baa1-1faeff5caa77","ios":"levelo://app?vid=58727b13-3ca0-4842-baa1-1faeff5caa77"},"vehicle_type_id":"4","last_reported":1745485896,"current_range_meters":20000,"station_id":"ce4bhmp2rcd13ifvqgog","pricing_plan_id":"cebpf4jnsgd1na2vs0mg"},{"bike_id":"ecc2bb2b-d522-48c7-ba6c-7294d73b8bd4","system_id":"levelo_inurba_marseille","lat":43.29713,"lon":5.405,"is_reserved":false,"is_disabled":true,"rental_uris":{"android":"levelo://app?vid=ecc2bb2b-d522-48c7-ba6c-7294d73b8bd4","ios":"levelo://app?vid=ecc2bb2b-d522-48c7-ba6c-7294d73b8bd4"},"vehicle_type_id":"4","last_reported":1745485896,"current_range_meters":20400,"station_id":"","pricing_plan_id":"cebpf4jnsgd1na2vs0mg"},{"bike_id":"8dff3327-c704-4870-8401-73b9c1029785","system_id":"levelo_inurba_marseille","lat":43.25861,"lon":5.39907,"is_reserved":false,"is_disabled":false,"rental_uris":{"android":"levelo://app?vid=8dff3327-c704-4870-8401-73b9c1029785","ios":"levelo://app?vid=8dff3327-c704-4870-8401-73b9c1029785"},"vehicle_type_id":"4","last_reported":1745485896,"current_range_meters":20400,"station_id":"ce4bhl92rcd13ifvqghg","pricing_plan_id":"cebpf4jnsgd1na2vs0mg"},{"bike_id":"ce49e62d-de0e-4cc9-8a97-f69b4e11b270","system_id":"levelo_inurba_marseille","lat":43.29025,"lon":5.38634,"is_reserved":false,"is_disabled":false,"rental_uris":{"android":"levelo://app?vid=ce49e62d-de0e-4cc9-8a97-f69b4e11b270","ios":"levelo://app?vid=ce49e62d-de0e-4cc9-8a97-f69b4e11b270"},"vehicle_type_id":"4","last_reported":1745485896,"current_range_meters":20400,"station_id":"ce4bh4p2rcd13ifvqe0g","pricing_plan_id":"cebpf4jnsgd1na2vs0mg"},{"bike_id":"0511eaef-e620-4443-8c39-8b9425063ec4","system_id":"levelo_inurba_marseille","lat":43.291022,"lon":5.381663,"is_reserved":false,"is_disabled":true,"rental_uris":{"android":"levelo://app?vid=0511eaef-e620-4443-8c39-8b9425063ec4","ios":"levelo://app?vid=0511eaef-e620-4443-8c39-8b9425063ec4"},"vehicle_type_id":"4","last_reported":1745485896,"current_range_meters":20400,"station_id":"ce4bh512rcd13ifvqe2g","pricing_plan_id":"cebpf4jnsgd1na2vs0mg"},{"bike_id":"06a6ec8d-f1b4-4120-8203-729d3c0a21f3","system_id":"levelo_inurba_marseille","lat":43.24062,"lon":5.37749,"is_reserved":false,"is_disabled":false,"rental_uris":{"android":"levelo://app?vid=06a6ec8d-f1b4-4120-8203-729d3c0a21f3","ios":"levelo://app?vid=06a6ec8d-f1b4-4120-8203-729d3c0a21f3"},"vehicle_type_id":"4","last_reported":1745485896,"current_range_meters":20800,"station_id":"ce4bhnp2rcd13ifvqgvg","pricing_plan_id":"cebpf4jnsgd1na2vs0mg"},{"bike_id":"fc9b49cb-ef16-4f87-9de6-d59131c2b35a","system_id":"levelo_inurba_marseille","lat":43.24797,"lon":5.37454,"is_reserved":false,"is_disabled":false,"rental_uris":{"android":"levelo://app?vid=fc9b49cb-ef16-4f87-9de6-d59131c2b35a","ios":"levelo://app?vid=fc9b49cb-ef16-4f87-9de6-d59131c2b35a"},"vehicle_type_id":"4","last_reported":1745485896,"current_range_meters":20800,"station_id":"ce4bhgh2rcd13ifvqfb0","pricing_plan_id":"cebpf4jnsgd1na2vs0mg"},{"bike_id":"9a1c0be7-bd1a-4081-ab84-3ef05258b407","system_id":"levelo_inurba_marseille","lat":43.2319,"lon":5.35561,"is_reserved":false,"is_disabled":false,"rental_uris":{"android":"levelo://app?vid=9a1c0be7-bd1a-4081-ab84-3ef05258b407","ios":"levelo://app?vid=9a1c0be7-bd1a-4081-ab84-3ef05258b407"},"vehicle_type_id":"4","last_reported":1745485896,"current_range_meters":20800,"station_id":"ce4bhu92rcd13ifvqi70","pricing_plan_id":"cebpf4jnsgd1na2vs0mg"},{"bike_id":"f6341b5b-1f7b-4d13-869e-e14c081b350b","system_id":"levelo_inurba_marseille","lat":43.33021,"lon":5.39034,"is_reserved":false,"is_disabled":false,"rental_uris":{"android":"levelo://app?vid=f6341b5b-1f7b-4d13-869e-e14c081b350b","ios":"levelo://app?vid=f6341b5b-1f7b-4d13-869e-e14c081b350b"},"vehicle_type_id":"4","last_reported":1745485896,"current_range_meters":20800,"station_id":"ce4bhr92rcd13ifvqhrg","pricing_plan_id":"cebpf4jnsgd1na2vs0mg"},{"bike_id":"595be203-7ade-4e7c-96ea-7917cd0bff06","system_id":"levelo_inurba_marseille","lat":43.29577,"lon":5.36739,"is_reserved":false,"is_disabled":false,"rental_uris":{"android":"levelo://app?vid=595be203-7ade-4e7c-96ea-7917cd0bff06","ios":"levelo://app?vid=595be203-7ade-4e7c-96ea-7917cd0bff06"},"vehicle_type_id":"4","last_reported":1745485896,"current_range_meters":20800,"station_id":"ce4bgph2rcd13ifvqc2g","pricing_plan_id":"cebpf4jnsgd1na2vs0mg"},{"bike_id":"d1924ce2-d1db-449d-a53a-181db53670b3","system_id":"levelo_inurba_marseille","lat":43.30457,"lon":5.37905,"is_reserved":false,"is_disabled":false,"rental_uris":{"android":"levelo://app?vid=d1924ce2-d1db-449d-a53a-181db53670b3","ios":"levelo://app?vid=d1924ce2-d1db-449d-a53a-181db53670b3"},"vehicle_type_id":"4","last_reported":1745485896,"current_range_meters":20800,"station_id":"ce4bgup2rcd13ifvqcn0","pricing_plan_id":"cebpf4jnsgd1na2vs0mg"},{"bike_id":"73b05d89-8586-4d94-8ac2-7f53dfee0c5a","system_id":"levelo_inurba_marseille","lat":43.25912,"lon":5.40854,"is_reserved":false,"is_disabled":false,"rental_uris":{"android":"levelo://app?vid=73b05d89-8586-4d94-8ac2-7f53dfee0c5a","ios":"levelo://app?vid=73b05d89-8586-4d94-8ac2-7f53dfee0c5a"},"vehicle_type_id":"4","last_reported":1745485896,"current_range_meters":20800,"station_id":"ce4bhm92rcd13ifvqglg","pricing_plan_id":"cebpf4jnsgd1na2vs0mg"},{"bike_id":"0d0131a1-4364-4745-9e5a-44f13e4acbca","system_id":"levelo_inurba_marseille","lat":43.30252,"lon":5.40062,"is_reserved":false,"is_disabled":false,"rental_uris":{"android":"levelo://app?vid=0d0131a1-4364-4745-9e5a-44f13e4acbca","ios":"levelo://app?vid=0d0131a1-4364-4745-9e5a-44f13e4acbca"},"vehicle_type_id":"4","last_reported":1745485896,"current_range_meters":20800,"station_id":"ce4bgvh2rcd13ifvqcs0","pricing_plan_id":"cebpf4jnsgd1na2vs0mg"},{"bike_id":"28c655a4-6907-4d6b-b598-69019c264ec2","system_id":"levelo_inurba_marseille","lat":43.337444,"lon":5.374475,"is_reserved":false,"is_disabled":false,"rental_uris":{"android":"levelo://app?vid=28c655a4-6907-4d6b-b598-69019c264ec2","ios":"levelo://app?vid=28c655a4-6907-4d6b-b598-69019c264ec2"},"vehicle_type_id":"4","last_reported":1745485896,"current_range_meters":21600,"station_id":"","pricing_plan_id":"cebpf4jnsgd1na2vs0mg"},{"bike_id":"5e13bdbf-8c4a-4be5-8c51-20b7595a81c9","system_id":"levelo_inurba_marseille","lat":43.298473,"lon":5.362856,"is_reserved":false,"is_disabled":false,"rental_uris":{"android":"levelo://app?vid=5e13bdbf-8c4a-4be5-8c51-20b7595a81c9","ios":"levelo://app?vid=5e13bdbf-8c4a-4be5-8c51-20b7595a81c9"},"vehicle_type_id":"4","last_reported":1745485896,"current_range_meters":21600,"station_id":"ce4bgpp2rcd13ifvqc3g","pricing_plan_id":"cebpf4jnsgd1na2vs0mg"},{"bike_id":"87d02d3e-1d42-4c2e-83e3-9322d951b909","system_id":"levelo_inurba_marseille","lat":43.29849,"lon":5.36275,"is_reserved":false,"is_disabled":false,"rental_uris":{"android":"levelo://app?vid=87d02d3e-1d42-4c2e-83e3-9322d951b909","ios":"levelo://app?vid=87d02d3e-1d42-4c2e-83e3-9322d951b909"},"vehicle_type_id":"4","last_reported":1745485896,"current_range_meters":21600,"station_id":"ce4bgpp2rcd13ifvqc3g","pricing_plan_id":"cebpf4jnsgd1na2vs0mg"},{"bike_id":"a1806440-64e9-41c7-92f8-e851aa7c98fd","system_id":"levelo_inurba_marseille","lat":43.24074,"lon":5.37744,"is_reserved":false,"is_disabled":false,"rental_uris":{"android":"levelo://app?vid=a1806440-64e9-41c7-92f8-e851aa7c98fd","ios":"levelo://app?vid=a1806440-64e9-41c7-92f8-e851aa7c98fd"},"vehicle_type_id":"4","last_reported":1745485896,"current_range_meters":21600,"station_id":"ce4bhnp2rcd13ifvqgvg","pricing_plan_id":"cebpf4jnsgd1na2vs0mg"},{"bike_id":"1f59e238-3237-432a-b70e-2a6dd469cece","system_id":"levelo_inurba_marseille","lat":43.31327,"lon":5.39686,"is_reserved":false,"is_disabled":false,"rental_uris":{"android":"levelo://app?vid=1f59e238-3237-432a-b70e-2a6dd469cece","ios":"levelo://app?vid=1f59e238-3237-432a-b70e-2a6dd469cece"},"vehicle_type_id":"4","last_reported":1745485896,"current_range_meters":21600,"station_id":"ce4bgvp2rcd13ifvqcu0","pricing_plan_id":"cebpf4jnsgd1na2vs0mg"},{"bike_id":"f5222fbb-aed5-4ae0-a798-77557f4cc313","system_id":"levelo_inurba_marseille","lat":43.29846,"lon":5.36281,"is_reserved":false,"is_disabled":false,"rental_uris":{"android":"levelo://app?vid=f5222fbb-aed5-4ae0-a798-77557f4cc313","ios":"levelo://app?vid=f5222fbb-aed5-4ae0-a798-77557f4cc313"},"vehicle_type_id":"4","last_reported":1745485896,"current_range_meters":21600,"station_id":"ce4bgpp2rcd13ifvqc3g","pricing_plan_id":"cebpf4jnsgd1na2vs0mg"},{"bike_id":"88a20b6e-93a1-413a-8bfd-436cdb64bf54","system_id":"levelo_inurba_marseille","lat":43.24077,"lon":5.3775,"is_reserved":false,"is_disabled":false,"rental_uris":{"android":"levelo://app?vid=88a20b6e-93a1-413a-8bfd-436cdb64bf54","ios":"levelo://app?vid=88a20b6e-93a1-413a-8bfd-436cdb64bf54"},"vehicle_type_id":"4","last_reported":1745485896,"current_range_meters":21600,"station_id":"ce4bhnp2rcd13ifvqgvg","pricing_plan_id":"cebpf4jnsgd1na2vs0mg"},{"bike_id":"066af90f-287e-48c8-b8cb-6eec10e0abbb","system_id":"levelo_inurba_marseille","lat":43.30541,"lon":5.36551,"is_reserved":false,"is_disabled":false,"rental_uris":{"android":"levelo://app?vid=066af90f-287e-48c8-b8cb-6eec10e0abbb","ios":"levelo://app?vid=066af90f-287e-48c8-b8cb-6eec10e0abbb"},"vehicle_type_id":"4","last_reported":1745485896,"current_range_meters":21600,"station_id":"ce4bgs12rcd13ifvqcag","pricing_plan_id":"cebpf4jnsgd1na2vs0mg"},{"bike_id":"de176d11-fc50-43f3-85f2-db96c4b6be15","system_id":"levelo_inurba_marseille","lat":43.21195,"lon":5.35073,"is_reserved":false,"is_disabled":false,"rental_uris":{"android":"levelo://app?vid=de176d11-fc50-43f3-85f2-db96c4b6be15","ios":"levelo://app?vid=de176d11-fc50-43f3-85f2-db96c4b6be15"},"vehicle_type_id":"4","last_reported":1745485896,"current_range_meters":21600,"station_id":"st_cvj6sg6p6f1abm77japg","pricing_plan_id":"cebpf4jnsgd1na2vs0mg"},{"bike_id":"987d7900-bb2a-45cb-bed7-6d69f6fd4fa3","system_id":"levelo_inurba_marseille","lat":43.28525,"lon":5.38481,"is_reserved":false,"is_disabled":false,"rental_uris":{"android":"levelo://app?vid=987d7900-bb2a-45cb-bed7-6d69f6fd4fa3","ios":"levelo://app?vid=987d7900-bb2a-45cb-bed7-6d69f6fd4fa3"},"vehicle_type_id":"4","last_reported":1745485896,"current_range_meters":21600,"station_id":"","pricing_plan_id":"cebpf4jnsgd1na2vs0mg"},{"bike_id":"c051267c-e7a3-4eb4-84fe-775b888a14e6","system_id":"levelo_inurba_marseille","lat":43.25869,"lon":5.3989,"is_reserved":false,"is_disabled":false,"rental_uris":{"android":"levelo://app?vid=c051267c-e7a3-4eb4-84fe-775b888a14e6","ios":"levelo://app?vid=c051267c-e7a3-4eb4-84fe-775b888a14e6"},"vehicle_type_id":"4","last_reported":1745485896,"current_range_meters":21600,"station_id":"ce4bhl92rcd13ifvqghg","pricing_plan_id":"cebpf4jnsgd1na2vs0mg"},{"bike_id":"7e244672-59fc-4317-8e68-04b7823071d6","system_id":"levelo_inurba_marseille","lat":43.23967,"lon":5.36644,"is_reserved":false,"is_disabled":false,"rental_uris":{"android":"levelo://app?vid=7e244672-59fc-4317-8e68-04b7823071d6","ios":"levelo://app?vid=7e244672-59fc-4317-8e68-04b7823071d6"},"vehicle_type_id":"4","last_reported":1745485896,"current_range_meters":21600,"station_id":"ce4bhi12rcd13ifvqfp0","pricing_plan_id":"cebpf4jnsgd1na2vs0mg"},{"bike_id":"e3b8e030-8e8a-4a69-93be-c137039eaa20","system_id":"levelo_inurba_marseille","lat":43.29767,"lon":5.37117,"is_reserved":false,"is_disabled":false,"rental_uris":{"android":"levelo://app?vid=e3b8e030-8e8a-4a69-93be-c137039eaa20","ios":"levelo://app?vid=e3b8e030-8e8a-4a69-93be-c137039eaa20"},"vehicle_type_id":"4","last_reported":1745485896,"current_range_meters":22000,"station_id":"ce4bgop2rcd13ifvqc1g","pricing_plan_id":"cebpf4jnsgd1na2vs0mg"},{"bike_id":"829e6027-c98c-4052-9336-7fe801b0bc22","system_id":"levelo_inurba_marseille","lat":43.23085,"lon":5.43764,"is_reserved":false,"is_disabled":true,"rental_uris":{"android":"levelo://app?vid=829e6027-c98c-4052-9336-7fe801b0bc22","ios":"levelo://app?vid=829e6027-c98c-4052-9336-7fe801b0bc22"},"vehicle_type_id":"4","last_reported":1745485896,"current_range_meters":22000,"station_id":"","pricing_plan_id":"cebpf4jnsgd1na2vs0mg"},{"bike_id":"23af337b-dd73-4f86-9f81-ca98be6bef03","system_id":"levelo_inurba_marseille","lat":43.31222,"lon":5.36903,"is_reserved":false,"is_disabled":false,"rental_uris":{"android":"levelo://app?vid=23af337b-dd73-4f86-9f81-ca98be6bef03","ios":"levelo://app?vid=23af337b-dd73-4f86-9f81-ca98be6bef03"},"vehicle_type_id":"4","last_reported":1745485896,"current_range_meters":22000,"station_id":"ce4bgl92rcd13ifvqbq0","pricing_plan_id":"cebpf4jnsgd1na2vs0mg"},{"bike_id":"f2314f08-cf4a-4d8c-bd3d-b9b8baea6582","system_id":"levelo_inurba_marseille","lat":43.25925,"lon":5.40874,"is_reserved":false,"is_disabled":false,"rental_uris":{"android":"levelo://app?vid=f2314f08-cf4a-4d8c-bd3d-b9b8baea6582","ios":"levelo://app?vid=f2314f08-cf4a-4d8c-bd3d-b9b8baea6582"},"vehicle_type_id":"4","last_reported":1745485896,"current_range_meters":22000,"station_id":"ce4bhm92rcd13ifvqglg","pricing_plan_id":"cebpf4jnsgd1na2vs0mg"},{"bike_id":"c43257d0-09e6-45ac-b14d-f45a5edb7f92","system_id":"levelo_inurba_marseille","lat":43.29793,"lon":5.38102,"is_reserved":false,"is_disabled":false,"rental_uris":{"android":"levelo://app?vid=c43257d0-09e6-45ac-b14d-f45a5edb7f92","ios":"levelo://app?vid=c43257d0-09e6-45ac-b14d-f45a5edb7f92"},"vehicle_type_id":"4","last_reported":1745485896,"current_range_meters":22400,"station_id":"ce4bgip2rcd13ifvqbb0","pricing_plan_id":"cebpf4jnsgd1na2vs0mg"},{"bike_id":"6e771602-4d38-4f7b-867c-e30189585937","system_id":"levelo_inurba_marseille","lat":43.30132,"lon":5.37429,"is_reserved":false,"is_disabled":false,"rental_uris":{"android":"levelo://app?vid=6e771602-4d38-4f7b-867c-e30189585937","ios":"levelo://app?vid=6e771602-4d38-4f7b-867c-e30189585937"},"vehicle_type_id":"4","last_reported":1745485896,"current_range_meters":22400,"station_id":"ce4bgs92rcd13ifvqcc0","pricing_plan_id":"cebpf4jnsgd1na2vs0mg"},{"bike_id":"b7b393f0-b786-42df-989c-4a6cb72210f4","system_id":"levelo_inurba_marseille","lat":43.32325,"lon":5.36658,"is_reserved":false,"is_disabled":false,"rental_uris":{"android":"levelo://app?vid=b7b393f0-b786-42df-989c-4a6cb72210f4","ios":"levelo://app?vid=b7b393f0-b786-42df-989c-4a6cb72210f4"},"vehicle_type_id":"4","last_reported":1745485896,"current_range_meters":22400,"station_id":"ce4bhsh2rcd13ifvqi2g","pricing_plan_id":"cebpf4jnsgd1na2vs0mg"},{"bike_id":"96fcada9-a9e4-43b6-8285-c0f4cb34f2e8","system_id":"levelo_inurba_marseille","lat":43.28268,"lon":5.35077,"is_reserved":false,"is_disabled":false,"rental_uris":{"android":"levelo://app?vid=96fcada9-a9e4-43b6-8285-c0f4cb34f2e8","ios":"levelo://app?vid=96fcada9-a9e4-43b6-8285-c0f4cb34f2e8"},"vehicle_type_id":"4","last_reported":1745485896,"current_range_meters":22400,"station_id":"ce4bhbp2rcd13ifvqerg","pricing_plan_id":"cebpf4jnsgd1na2vs0mg"},{"bike_id":"61b533f5-0616-463d-989b-3631c4a4941a","system_id":"levelo_inurba_marseille","lat":43.30374,"lon":5.42483,"is_reserved":false,"is_disabled":false,"rental_uris":{"android":"levelo://app?vid=61b533f5-0616-463d-989b-3631c4a4941a","ios":"levelo://app?vid=61b533f5-0616-463d-989b-3631c4a4941a"},"vehicle_type_id":"4","last_reported":1745485896,"current_range_meters":22400,"station_id":"ce4bhoh2rcd13ifvqh6g","pricing_plan_id":"cebpf4jnsgd1na2vs0mg"},{"bike_id":"5c0de8bf-cc64-4a34-ac0b-2af951aabd22","system_id":"levelo_inurba_marseille","lat":43.30541,"lon":5.367,"is_reserved":false,"is_disabled":false,"rental_uris":{"android":"levelo://app?vid=5c0de8bf-cc64-4a34-ac0b-2af951aabd22","ios":"levelo://app?vid=5c0de8bf-cc64-4a34-ac0b-2af951aabd22"},"vehicle_type_id":"4","last_reported":1745485896,"current_range_meters":22400,"station_id":"ce4bgrp2rcd13ifvqc9g","pricing_plan_id":"cebpf4jnsgd1na2vs0mg"},{"bike_id":"f3517c2c-9d50-4291-937b-617bf93d5dc9","system_id":"levelo_inurba_marseille","lat":43.30549,"lon":5.36699,"is_reserved":false,"is_disabled":false,"rental_uris":{"android":"levelo://app?vid=f3517c2c-9d50-4291-937b-617bf93d5dc9","ios":"levelo://app?vid=f3517c2c-9d50-4291-937b-617bf93d5dc9"},"vehicle_type_id":"4","last_reported":1745485896,"current_range_meters":22400,"station_id":"ce4bgrp2rcd13ifvqc9g","pricing_plan_id":"cebpf4jnsgd1na2vs0mg"},{"bike_id":"8b74e6d2-2801-4af0-ade0-ee66e1b12a37","system_id":"levelo_inurba_marseille","lat":43.284128,"lon":5.37499,"is_reserved":false,"is_disabled":false,"rental_uris":{"android":"levelo://app?vid=8b74e6d2-2801-4af0-ade0-ee66e1b12a37","ios":"levelo://app?vid=8b74e6d2-2801-4af0-ade0-ee66e1b12a37"},"vehicle_type_id":"4","last_reported":1745485896,"current_range_meters":22000,"station_id":"ce4bgih2rcd13ifvqba0","pricing_plan_id":"cebpf4jnsgd1na2vs0mg"},{"bike_id":"89b04bb5-3e61-4482-99b1-05491f1251c0","system_id":"levelo_inurba_marseille","lat":43.25908,"lon":5.40887,"is_reserved":false,"is_disabled":false,"rental_uris":{"android":"levelo://app?vid=89b04bb5-3e61-4482-99b1-05491f1251c0","ios":"levelo://app?vid=89b04bb5-3e61-4482-99b1-05491f1251c0"},"vehicle_type_id":"4","last_reported":1745485896,"current_range_meters":22800,"station_id":"ce4bhm92rcd13ifvqglg","pricing_plan_id":"cebpf4jnsgd1na2vs0mg"},{"bike_id":"3f38f3f1-1433-4681-b839-0e721f93be1f","system_id":"levelo_inurba_marseille","lat":43.28989,"lon":5.3782,"is_reserved":false,"is_disabled":false,"rental_uris":{"android":"levelo://app?vid=3f38f3f1-1433-4681-b839-0e721f93be1f","ios":"levelo://app?vid=3f38f3f1-1433-4681-b839-0e721f93be1f"},"vehicle_type_id":"4","last_reported":1745485896,"current_range_meters":22800,"station_id":"ce4bh9p2rcd13ifvqed0","pricing_plan_id":"cebpf4jnsgd1na2vs0mg"},{"bike_id":"b7eeb9eb-38a3-47dd-aeb5-f4cbf8ae338a","system_id":"levelo_inurba_marseille","lat":43.24029,"lon":5.37696,"is_reserved":false,"is_disabled":false,"rental_uris":{"android":"levelo://app?vid=b7eeb9eb-38a3-47dd-aeb5-f4cbf8ae338a","ios":"levelo://app?vid=b7eeb9eb-38a3-47dd-aeb5-f4cbf8ae338a"},"vehicle_type_id":"4","last_reported":1745485896,"current_range_meters":22800,"station_id":"","pricing_plan_id":"cebpf4jnsgd1na2vs0mg"},{"bike_id":"cd38a253-bec5-496f-8191-e96970bf53c7","system_id":"levelo_inurba_marseille","lat":43.29266,"lon":5.3843,"is_reserved":false,"is_disabled":false,"rental_uris":{"android":"levelo://app?vid=cd38a253-bec5-496f-8191-e96970bf53c7","ios":"levelo://app?vid=cd38a253-bec5-496f-8191-e96970bf53c7"},"vehicle_type_id":"4","last_reported":1745485896,"current_range_meters":22800,"station_id":"ce4bh692rcd13ifvqea0","pricing_plan_id":"cebpf4jnsgd1na2vs0mg"},{"bike_id":"c161a87f-2be8-4ae7-9647-b5c784939fdd","system_id":"levelo_inurba_marseille","lat":43.301394,"lon":5.387837,"is_reserved":false,"is_disabled":true,"rental_uris":{"android":"levelo://app?vid=c161a87f-2be8-4ae7-9647-b5c784939fdd","ios":"levelo://app?vid=c161a87f-2be8-4ae7-9647-b5c784939fdd"},"vehicle_type_id":"4","last_reported":1745485896,"current_range_meters":22800,"station_id":"ce4bghh2rcd13ifvqb60","pricing_plan_id":"cebpf4jnsgd1na2vs0mg"},{"bike_id":"961fbaee-7893-4ed9-bcac-f1474778e132","system_id":"levelo_inurba_marseille","lat":43.26498,"lon":5.39537,"is_reserved":false,"is_disabled":false,"rental_uris":{"android":"levelo://app?vid=961fbaee-7893-4ed9-bcac-f1474778e132","ios":"levelo://app?vid=961fbaee-7893-4ed9-bcac-f1474778e132"},"vehicle_type_id":"4","last_reported":1745485896,"current_range_meters":23200,"station_id":"ce4bhi12rcd13ifvqfq0","pricing_plan_id":"cebpf4jnsgd1na2vs0mg"},{"bike_id":"ead60119-c84d-43e7-b8b1-a714e27384ba","system_id":"levelo_inurba_marseille","lat":43.2315,"lon":5.43722,"is_reserved":false,"is_disabled":false,"rental_uris":{"android":"levelo://app?vid=ead60119-c84d-43e7-b8b1-a714e27384ba","ios":"levelo://app?vid=ead60119-c84d-43e7-b8b1-a714e27384ba"},"vehicle_type_id":"4","last_reported":1745485896,"current_range_meters":23200,"station_id":"ce4bhmp2rcd13ifvqgog","pricing_plan_id":"cebpf4jnsgd1na2vs0mg"},{"bike_id":"35c53403-2a69-47ee-b5c7-817bab3bf848","system_id":"levelo_inurba_marseille","lat":43.2918,"lon":5.39322,"is_reserved":false,"is_disabled":false,"rental_uris":{"android":"levelo://app?vid=35c53403-2a69-47ee-b5c7-817bab3bf848","ios":"levelo://app?vid=35c53403-2a69-47ee-b5c7-817bab3bf848"},"vehicle_type_id":"4","last_reported":1745485896,"current_range_meters":23200,"station_id":"ce4bh192rcd13ifvqdd0","pricing_plan_id":"cebpf4jnsgd1na2vs0mg"},{"bike_id":"6b945acd-5f36-41d7-a997-d39f08b7255b","system_id":"levelo_inurba_marseille","lat":43.31897,"lon":5.40729,"is_reserved":false,"is_disabled":true,"rental_uris":{"android":"levelo://app?vid=6b945acd-5f36-41d7-a997-d39f08b7255b","ios":"levelo://app?vid=6b945acd-5f36-41d7-a997-d39f08b7255b"},"vehicle_type_id":"4","last_reported":1745485896,"current_range_meters":23200,"station_id":"ce4bhq12rcd13ifvqhig","pricing_plan_id":"cebpf4jnsgd1na2vs0mg"},{"bike_id":"620cd473-6436-4e04-a5d8-64a795038887","system_id":"levelo_inurba_marseille","lat":43.25948,"lon":5.40866,"is_reserved":false,"is_disabled":false,"rental_uris":{"android":"levelo://app?vid=620cd473-6436-4e04-a5d8-64a795038887","ios":"levelo://app?vid=620cd473-6436-4e04-a5d8-64a795038887"},"vehicle_type_id":"4","last_reported":1745485896,"current_range_meters":23200,"station_id":"ce4bhm92rcd13ifvqglg","pricing_plan_id":"cebpf4jnsgd1na2vs0mg"},{"bike_id":"4ac02582-822e-4b8f-8247-e7a04e3fe59f","system_id":"levelo_inurba_marseille","lat":43.30926,"lon":5.40143,"is_reserved":false,"is_disabled":false,"rental_uris":{"android":"levelo://app?vid=4ac02582-822e-4b8f-8247-e7a04e3fe59f","ios":"levelo://app?vid=4ac02582-822e-4b8f-8247-e7a04e3fe59f"},"vehicle_type_id":"4","last_reported":1745485896,"current_range_meters":24000,"station_id":"ce4bgvp2rcd13ifvqct0","pricing_plan_id":"cebpf4jnsgd1na2vs0mg"},{"bike_id":"af5a4e4a-6ea9-4dee-9d2c-e61040e8c37b","system_id":"levelo_inurba_marseille","lat":43.25926,"lon":5.40905,"is_reserved":false,"is_disabled":false,"rental_uris":{"android":"levelo://app?vid=af5a4e4a-6ea9-4dee-9d2c-e61040e8c37b","ios":"levelo://app?vid=af5a4e4a-6ea9-4dee-9d2c-e61040e8c37b"},"vehicle_type_id":"4","last_reported":1745485896,"current_range_meters":24000,"station_id":"ce4bhm92rcd13ifvqglg","pricing_plan_id":"cebpf4jnsgd1na2vs0mg"},{"bike_id":"a78ff32e-3f45-47a7-b55a-d166b0efcbbe","system_id":"levelo_inurba_marseille","lat":43.23147,"lon":5.43711,"is_reserved":false,"is_disabled":false,"rental_uris":{"android":"levelo://app?vid=a78ff32e-3f45-47a7-b55a-d166b0efcbbe","ios":"levelo://app?vid=a78ff32e-3f45-47a7-b55a-d166b0efcbbe"},"vehicle_type_id":"4","last_reported":1745485896,"current_range_meters":24000,"station_id":"ce4bhmp2rcd13ifvqgog","pricing_plan_id":"cebpf4jnsgd1na2vs0mg"},{"bike_id":"06cf2021-f654-405e-8e9b-d8e548605069","system_id":"levelo_inurba_marseille","lat":43.23141,"lon":5.43737,"is_reserved":false,"is_disabled":false,"rental_uris":{"android":"levelo://app?vid=06cf2021-f654-405e-8e9b-d8e548605069","ios":"levelo://app?vid=06cf2021-f654-405e-8e9b-d8e548605069"},"vehicle_type_id":"4","last_reported":1745485896,"current_range_meters":24000,"station_id":"ce4bhmp2rcd13ifvqgog","pricing_plan_id":"cebpf4jnsgd1na2vs0mg"},{"bike_id":"eb14debe-4b34-46ed-bc96-6234aef90606","system_id":"levelo_inurba_marseille","lat":43.30481,"lon":5.37912,"is_reserved":false,"is_disabled":false,"rental_uris":{"android":"levelo://app?vid=eb14debe-4b34-46ed-bc96-6234aef90606","ios":"levelo://app?vid=eb14debe-4b34-46ed-bc96-6234aef90606"},"vehicle_type_id":"4","last_reported":1745485896,"current_range_meters":24000,"station_id":"ce4bgup2rcd13ifvqcn0","pricing_plan_id":"cebpf4jnsgd1na2vs0mg"},{"bike_id":"1fa0f404-64bd-44db-97b1-31dc9c433fa2","system_id":"levelo_inurba_marseille","lat":43.2827,"lon":5.3508,"is_reserved":false,"is_disabled":false,"rental_uris":{"android":"levelo://app?vid=1fa0f404-64bd-44db-97b1-31dc9c433fa2","ios":"levelo://app?vid=1fa0f404-64bd-44db-97b1-31dc9c433fa2"},"vehicle_type_id":"4","last_reported":1745485896,"current_range_meters":24000,"station_id":"ce4bhbp2rcd13ifvqerg","pricing_plan_id":"cebpf4jnsgd1na2vs0mg"},{"bike_id":"7511a6e4-aa47-44dd-9868-1f5467c57be4","system_id":"levelo_inurba_marseille","lat":43.335993,"lon":5.409914,"is_reserved":false,"is_disabled":false,"rental_uris":{"android":"levelo://app?vid=7511a6e4-aa47-44dd-9868-1f5467c57be4","ios":"levelo://app?vid=7511a6e4-aa47-44dd-9868-1f5467c57be4"},"vehicle_type_id":"4","last_reported":1745485896,"current_range_meters":24000,"station_id":"ce4bhqh2rcd13ifvqhmg","pricing_plan_id":"cebpf4jnsgd1na2vs0mg"},{"bike_id":"82f5d043-56e4-44b9-a8dc-b2ef1e437195","system_id":"levelo_inurba_marseille","lat":43.24038,"lon":5.37688,"is_reserved":false,"is_disabled":false,"rental_uris":{"android":"levelo://app?vid=82f5d043-56e4-44b9-a8dc-b2ef1e437195","ios":"levelo://app?vid=82f5d043-56e4-44b9-a8dc-b2ef1e437195"},"vehicle_type_id":"4","last_reported":1745485896,"current_range_meters":24000,"station_id":"","pricing_plan_id":"cebpf4jnsgd1na2vs0mg"},{"bike_id":"16f78b9c-51d2-482e-be23-dd7a606db9fd","system_id":"levelo_inurba_marseille","lat":43.30951,"lon":5.39038,"is_reserved":false,"is_disabled":false,"rental_uris":{"android":"levelo://app?vid=16f78b9c-51d2-482e-be23-dd7a606db9fd","ios":"levelo://app?vid=16f78b9c-51d2-482e-be23-dd7a606db9fd"},"vehicle_type_id":"4","last_reported":1745485896,"current_range_meters":24000,"station_id":"ce4bgup2rcd13ifvqco0","pricing_plan_id":"cebpf4jnsgd1na2vs0mg"},{"bike_id":"ee08943a-ea78-49bb-a397-b42b8fb7e862","system_id":"levelo_inurba_marseille","lat":43.28591,"lon":5.37042,"is_reserved":false,"is_disabled":true,"rental_uris":{"android":"levelo://app?vid=ee08943a-ea78-49bb-a397-b42b8fb7e862","ios":"levelo://app?vid=ee08943a-ea78-49bb-a397-b42b8fb7e862"},"vehicle_type_id":"4","last_reported":1745485896,"current_range_meters":24000,"station_id":"ce4bht12rcd13ifvqi60","pricing_plan_id":"cebpf4jnsgd1na2vs0mg"},{"bike_id":"7ebfdfa2-771e-46db-bab5-a01fff07622b","system_id":"levelo_inurba_marseille","lat":43.24064,"lon":5.37755,"is_reserved":false,"is_disabled":false,"rental_uris":{"android":"levelo://app?vid=7ebfdfa2-771e-46db-bab5-a01fff07622b","ios":"levelo://app?vid=7ebfdfa2-771e-46db-bab5-a01fff07622b"},"vehicle_type_id":"4","last_reported":1745485896,"current_range_meters":24400,"station_id":"ce4bhnp2rcd13ifvqgvg","pricing_plan_id":"cebpf4jnsgd1na2vs0mg"},