{"last_updated":1716408478,"ttl":30,"version":"2.2","data":{"bikes":[{"bike_id":"4ba14975-3b02-457d-92d5-c573eeeb8d8a","system_id":"levelo_inurba_marseille","lat":43.312239,"lon":5.368562,"is_reserved":false,"is_disabled":false,"rental_uris":{"android":"levelo://app?vid=4ba14975-3b02-457d-92d5-c573eeeb8d8a","ios":"levelo://app?vid=4ba14975-3b02-457d-92d5-c573eeeb8d8a"},"vehicle_type_id":"4","last_reported":1716408478,"current_range_meters":14000,"station_id":"ce4bgl92rcd13ifvqbq0","pricing_plan_id":"cebpf4jnsgd1na2vs0mg"},{"bike_id":"2eac390b-640c-452f-bdfd-7ec4a1810305","system_id":"levelo_inurba_marseille","lat":43.312239,"lon":5.368562,"is_reserved":false,"is_disabled":false,"rental_uris":{"android":"levelo://app?vid=2eac390b-640c-452f-bdfd-7ec4a1810305","ios":"levelo://app?vid=2eac390b-640c-452f-bdfd-7ec4a1810305"},"vehicle_type_id":"4","last_reported":1716408478,"current_range_meters":5600,"station_id":"ce4bgl92rcd13ifvqbq0","pricing_plan_id":"cebpf4jnsgd1na2vs0mg"},{"bike_id":"d32ddba8-1fe0-45e0-9eb1-52caa6a646ce","system_id":"levelo_inurba_marseille","lat":43.312239,"lon":5.368562,"is_reserved":false,"is_disabled":false,"rental_uris":{"android":"levelo://app?vid=d32ddba8-1fe0-45e0-9eb1-52caa6a646ce","ios":"levelo://app?vid=d32ddba8-1fe0-45e0-9eb1-52caa6a646ce"},"vehicle_type_id":"4","last_reported":1716408478,"current_range_meters":19600,"station_id":"ce4bgl92rcd13ifvqbq0","pricing_plan_id":"cebpf4jnsgd1na2vs0mg"},{"bike_id":"728c3478-e4e2-4764-a3f5-583c43899a3d","system_id":"levelo_inurba_marseille","lat":43.312218,"lon":5.368555,"is_reserved":false,"is_disabled":false,"rental_uris":{"android":"levelo://app?vid=728c3478-e4e2-4764-a3f5-583c43899a3d","ios":"levelo://app?vid=728c3478-e4e2-4764-a3f5-583c43899a3d"},"vehicle_type_id":"4","last_reported":1716408478,"current_range_meters":0,"station_id":"ce4bgl92rcd13ifvqbq0","pricing_plan_id":"cebpf4jnsgd1na2vs0mg"},{"bike_id":"04cbc98a-193d-48ff-9cad-314951b53a41","system_id":"levelo_inurba_marseille","lat":43.312239,"lon":5.368562,"is_reserved":false,"is_disabled":false,"rental_uris":{"android":"levelo://app?vid=04cbc98a-193d-48ff-9cad-314951b53a41","ios":"levelo://app?vid=04cbc98a-193d-48ff-9cad-314951b53a41"},"vehicle_type_id":"4","last_reported":1716408478,"current_range_meters":17200,"station_id":"ce4bgl92rcd13ifvqbq0","pricing_plan_id":"cebpf4jnsgd1na2vs0mg"},{"bike_id":"8514c010-001a-4f22-aa48-f3e016049d64","system_id":"levelo_inurba_marseille","lat":43.309076,"lon":5.368465,"is_reserved":false,"is_disabled":false,"rental_uris":{"android":"levelo://app?vid=8514c010-001a-4f22-aa48-f3e016049d64","ios":"levelo://app?vid=8514c010-001a-4f22-aa48-f3e016049d64"},"vehicle_type_id":"4","last_reported":1716408478,"current_range_meters":6000,"station_id":"ce4bgn92rcd13ifvqbvg","pricing_plan_id":"cebpf4jnsgd1na2vs0mg"},{"bike_id":"ca3ac3ed-79c5-4fe1-8734-ba108e9ae928","system_id":"levelo_inurba_marseille","lat":43.314811,"lon":5.373103,"is_reserved":false,"is_disabled":false,"rental_uris":{"android":"levelo://app?vid=ca3ac3ed-79c5-4fe1-8734-ba108e9ae928","ios":"levelo://app?vid=ca3ac3ed-79c5-4fe1-8734-ba108e9ae928"},"vehicle_type_id":"4","last_reported":1716408478,"current_range_meters":0,"station_id":"ce4bgt12rcd13ifvqcd0","pricing_plan_id":"cebpf4jnsgd1na2vs0mg"},{"bike_id":"4f9033ff-faf7-4e68-b77f-e46adfb2f8a5","system_id":"levelo_inurba_marseille","lat":43.314811,"lon":5.373103,"is_reserved":false,"is_disabled":false,"rental_uris":{"android":"levelo://app?vid=4f9033ff-faf7-4e68-b77f-e46adfb2f8a5","ios":"levelo://app?vid=4f9033ff-faf7-4e68-b77f-e46adfb2f8a5"},"vehicle_type_id":"4","last_reported":1716408478,"current_range_meters":400,"station_id":"ce4bgt12rcd13ifvqcd0","pricing_plan_id":"cebpf4jnsgd1na2vs0mg"},{"bike_id":"858c862d-5f26-41d7-b9ca-a197f8c1d446","system_id":"levelo_inurba_marseille","lat":43.314811,"lon":5.373103,"is_reserved":false,"is_disabled":false,"rental_uris":{"android":"levelo://app?vid=858c862d-5f26-41d7-b9ca-a197f8c1d446","ios":"levelo://app?vid=858c862d-5f26-41d7-b9ca-a197f8c1d446"},"vehicle_type_id":"4","last_reported":1716408478,"current_range_meters":14800,"station_id":"ce4bgt12rcd13ifvqcd0","pricing_plan_id":"cebpf4jnsgd1na2vs0mg"},{"bike_id":"90153fd9-e52f-466b-890d-344ab8d32210","system_id":"levelo_inurba_marseille","lat":43.31498,"lon":5.37302,"is_reserved":false,"is_disabled":false,"rental_uris":{"android":"levelo://app?vid=90153fd9-e52f-466b-890d-344ab8d32210","ios":"levelo://app?vid=90153fd9-e52f-466b-890d-344ab8d32210"},"vehicle_type_id":"4","last_reported":1716408478,"current_range_meters":0,"station_id":"ce4bgt12rcd13ifvqcd0","pricing_plan_id":"cebpf4jnsgd1na2vs0mg"},{"bike_id":"e95175e6-4e8b-4eec-9899-7528756f9d85","system_id":"levelo_inurba_marseille","lat":43.314811,"lon":5.373103,"is_reserved":false,"is_disabled":false,"rental_uris":{"android":"levelo://app?vid=e95175e6-4e8b-4eec-9899-7528756f9d85","ios":"levelo://app?vid=e95175e6-4e8b-4eec-9899-7528756f9d85"},"vehicle_type_id":"4","last_reported":1716408478,"current_range_meters":25200,"station_id":"ce4bgt12rcd13ifvqcd0","pricing_plan_id":"cebpf4jnsgd1na2vs0mg"},{"bike_id":"3a152d7b-5ae9-4c8a-8914-80c8c997baa6","system_id":"levelo_inurba_marseille","lat":43.309039,"lon":5.371797,"is_reserved":false,"is_disabled":false,"rental_uris":{"android":"levelo://app?vid=3a152d7b-5ae9-4c8a-8914-80c8c997baa6","ios":"levelo://app?vid=3a152d7b-5ae9-4c8a-8914-80c8c997baa6"},"vehicle_type_id":"4","last_reported":1716408478,"current_range_meters":25200,"station_id":"ce4bguh2rcd13ifvqckg","pricing_plan_id":"cebpf4jnsgd1na2vs0mg"},{"bike_id":"a6e1e747-457f-48f0-b351-ec6585f3452c","system_id":"levelo_inurba_marseille","lat":43.309034,"lon":5.371783,"is_reserved":false,"is_disabled":false,"rental_uris":{"android":"levelo://app?vid=a6e1e747-457f-48f0-b351-ec6585f3452c","ios":"levelo://app?vid=a6e1e747-457f-48f0-b351-ec6585f3452c"},"vehicle_type_id":"4","last_reported":1716408478,"current_range_meters":28000,"station_id":"ce4bguh2rcd13ifvqckg","pricing_plan_id":"cebpf4jnsgd1na2vs0mg"},{"bike_id":"2d822ced-0c70-4bcf-b381-266945655302","system_id":"levelo_inurba_marseille","lat":43.309039,"lon":5.371797,"is_reserved":false,"is_disabled":false,"rental_uris":{"android":"levelo://app?vid=2d822ced-0c70-4bcf-b381-266945655302","ios":"levelo://app?vid=2d822ced-0c70-4bcf-b381-266945655302"},"vehicle_type_id":"4","last_reported":1716408478,"current_range_meters":14400,"station_id":"ce4bguh2rcd13ifvqckg","pricing_plan_id":"cebpf4jnsgd1na2vs0mg"},{"bike_id":"ff4c64ac-7edf-4fad-8c02-50a74b3f7170","system_id":"levelo_inurba_marseille","lat":43.309039,"lon":5.371797,"is_reserved":false,"is_disabled":false,"rental_uris":{"android":"levelo://app?vid=ff4c64ac-7edf-4fad-8c02-50a74b3f7170","ios":"levelo://app?vid=ff4c64ac-7edf-4fad-8c02-50a74b3f7170"},"vehicle_type_id":"4","last_reported":1716408478,"current_range_meters":3600,"station_id":"ce4bguh2rcd13ifvqckg","pricing_plan_id":"cebpf4jnsgd1na2vs0mg"},{"bike_id":"e4632e7a-2deb-48a7-808d-6c5307f12802","system_id":"levelo_inurba_marseille","lat":43.31672,"lon":5.3722,"is_reserved":false,"is_disabled":false,"rental_uris":{"android":"levelo://app?vid=e4632e7a-2deb-48a7-808d-6c5307f12802","ios":"levelo://app?vid=e4632e7a-2deb-48a7-808d-6c5307f12802"},"vehicle_type_id":"4","last_reported":1716408478,"current_range_meters":9600,"station_id":"","pricing_plan_id":"cebpf4jnsgd1na2vs0mg"},{"bike_id":"49c1cb98-f316-400e-8aa2-0fb99cde76d2","system_id":"levelo_inurba_marseille","lat":43.30543,"lon":5.365402,"is_reserved":false,"is_disabled":false,"rental_uris":{"android":"levelo://app?vid=49c1cb98-f316-400e-8aa2-0fb99cde76d2","ios":"levelo://app?vid=49c1cb98-f316-400e-8aa2-0fb99cde76d2"},"vehicle_type_id":"4","last_reported":1716408478,"current_range_meters":0,"station_id":"ce4bgs12rcd13ifvqcag","pricing_plan_id":"cebpf4jnsgd1na2vs0mg"},{"bike_id":"05d37946-288f-4fff-b665-bc5e817c9459","system_id":"levelo_inurba_marseille","lat":43.305989,"lon":5.37225,"is_reserved":false,"is_disabled":false,"rental_uris":{"android":"levelo://app?vid=05d37946-288f-4fff-b665-bc5e817c9459","ios":"levelo://app?vid=05d37946-288f-4fff-b665-bc5e817c9459"},"vehicle_type_id":"4","last_reported":1716408478,"current_range_meters":12000,"station_id":"ce4bgqh2rcd13ifvqc4g","pricing_plan_id":"cebpf4jnsgd1na2vs0mg"},{"bike_id":"085f8808-1d82-4a31-a42a-8e58df7e3717","system_id":"levelo_inurba_marseille","lat":43.305989,"lon":5.37225,"is_reserved":false,"is_disabled":false,"rental_uris":{"android":"levelo://app?vid=085f8808-1d82-4a31-a42a-8e58df7e3717","ios":"levelo://app?vid=085f8808-1d82-4a31-a42a-8e58df7e3717"},"vehicle_type_id":"4","last_reported":1716408478,"current_range_meters":28400,"station_id":"ce4bgqh2rcd13ifvqc4g","pricing_plan_id":"cebpf4jnsgd1na2vs0mg"},{"bike_id":"dab58d29-3e4f-4df6-bacb-c9952994739e","system_id":"levelo_inurba_marseille","lat":43.305989,"lon":5.37225,"is_reserved":false,"is_disabled":false,"rental_uris":{"android":"levelo://app?vid=dab58d29-3e4f-4df6-bacb-c9952994739e","ios":"levelo://app?vid=dab58d29-3e4f-4df6-bacb-c9952994739e"},"vehicle_type_id":"4","last_reported":1716408478,"current_range_meters":3200,"station_id":"ce4bgqh2rcd13ifvqc4g","pricing_plan_id":"cebpf4jnsgd1na2vs0mg"},{"bike_id":"06eac011-e07e-42f8-9513-625eaa5eaec1","system_id":"levelo_inurba_marseille","lat":43.311125,"lon":5.377624,"is_reserved":false,"is_disabled":false,"rental_uris":{"android":"levelo://app?vid=06eac011-e07e-42f8-9513-625eaa5eaec1","ios":"levelo://app?vid=06eac011-e07e-42f8-9513-625eaa5eaec1"},"vehicle_type_id":"4","last_reported":1716408478,"current_range_meters":18800,"station_id":"ce4bgt92rcd13ifvqcg0","pricing_plan_id":"cebpf4jnsgd1na2vs0mg"},{"bike_id":"862b4766-89e0-40f7-b585-45a4b120f11a","system_id":"levelo_inurba_marseille","lat":43.311125,"lon":5.377624,"is_reserved":false,"is_disabled":false,"rental_uris":{"android":"levelo://app?vid=862b4766-89e0-40f7-b585-45a4b120f11a","ios":"levelo://app?vid=862b4766-89e0-40f7-b585-45a4b120f11a"},"vehicle_type_id":"4","last_reported":1716408478,"current_range_meters":12400,"station_id":"ce4bgt92rcd13ifvqcg0","pricing_plan_id":"cebpf4jnsgd1na2vs0mg"},{"bike_id":"ac2cdb93-b8db-4fff-a9c1-fa9da5c1f6a0","system_id":"levelo_inurba_marseille","lat":43.307945,"lon":5.376487,"is_reserved":false,"is_disabled":false,"rental_uris":{"android":"levelo://app?vid=ac2cdb93-b8db-4fff-a9c1-fa9da5c1f6a0","ios":"levelo://app?vid=ac2cdb93-b8db-4fff-a9c1-fa9da5c1f6a0"},"vehicle_type_id":"4","last_reported":1716408478,"current_range_meters":28400,"station_id":"ce4bgv92rcd13ifvqcq0","pricing_plan_id":"cebpf4jnsgd1na2vs0mg"},{"bike_id":"fa791f0f-ec03-4040-be01-8901a3c8ae9e","system_id":"levelo_inurba_marseille","lat":43.30791,"lon":5.37648,"is_reserved":false,"is_disabled":false,"rental_uris":{"android":"levelo://app?vid=fa791f0f-ec03-4040-be01-8901a3c8ae9e","ios":"levelo://app?vid=fa791f0f-ec03-4040-be01-8901a3c8ae9e"},"vehicle_type_id":"4","last_reported":1716408478,"current_range_meters":20400,"station_id":"ce4bgv92rcd13ifvqcq0","pricing_plan_id":"cebpf4jnsgd1na2vs0mg"},{"bike_id":"b3f3bd88-f43c-49c4-85f6-221c6de8c71e","system_id":"levelo_inurba_marseille","lat":43.307945,"lon":5.376487,"is_reserved":false,"is_disabled":false,"rental_uris":{"android":"levelo://app?vid=b3f3bd88-f43c-49c4-85f6-221c6de8c71e","ios":"levelo://app?vid=b3f3bd88-f43c-49c4-85f6-221c6de8c71e"},"vehicle_type_id":"4","last_reported":1716408478,"current_range_meters":30800,"station_id":"ce4bgv92rcd13ifvqcq0","pricing_plan_id":"cebpf4jnsgd1na2vs0mg"},{"bike_id":"0b0cf110-04bf-4d36-8a8c-fbc56a47ab0d","system_id":"levelo_inurba_marseille","lat":43.307945,"lon":5.376487,"is_reserved":false,"is_disabled":false,"rental_uris":{"android":"levelo://app?vid=0b0cf110-04bf-4d36-8a8c-fbc56a47ab0d","ios":"levelo://app?vid=0b0cf110-04bf-4d36-8a8c-fbc56a47ab0d"},"vehicle_type_id":"4","last_reported":1716408478,"current_range_meters":4400,"station_id":"ce4bgv92rcd13ifvqcq0","pricing_plan_id":"cebpf4jnsgd1na2vs0mg"},{"bike_id":"b8c669a2-d7cf-4fcd-85f1-6897fe19725a","system_id":"levelo_inurba_marseille","lat":43.30784,"lon":5.37644,"is_reserved":false,"is_disabled":false,"rental_uris":{"android":"levelo://app?vid=b8c669a2-d7cf-4fcd-85f1-6897fe19725a","ios":"levelo://app?vid=b8c669a2-d7cf-4fcd-85f1-6897fe19725a"},"vehicle_type_id":"4","last_reported":1716408478,"current_range_meters":2400,"station_id":"ce4bgv92rcd13ifvqcq0","pricing_plan_id":"cebpf4jnsgd1na2vs0mg"},{"bike_id":"5804666e-c784-4d0f-b8a5-f907adaa47c1","system_id":"levelo_inurba_marseille","lat":43.307945,"lon":5.376487,"is_reserved":false,"is_disabled":false,"rental_uris":{"android":"levelo://app?vid=5804666e-c784-4d0f-b8a5-f907adaa47c1","ios":"levelo://app?vid=5804666e-c784-4d0f-b8a5-f907adaa47c1"},"vehicle_type_id":"4","last_reported":1716408478,"current_range_meters":7200,"station_id":"ce4bgv92rcd13ifvqcq0","pricing_plan_id":"cebpf4jnsgd1na2vs0mg"},{"bike_id":"c941dabd-ed26-47a5-91d7-3e6a94834601","system_id":"levelo_inurba_marseille","lat":43.307945,"lon":5.376487,"is_reserved":false,"is_disabled":false,"rental_uris":{"android":"levelo://app?vid=c941dabd-ed26-47a5-91d7-3e6a94834601","ios":"levelo://app?vid=c941dabd-ed26-47a5-91d7-3e6a94834601"},"vehicle_type_id":"4","last_reported":1716408478,"current_range_meters":12800,"station_id":"ce4bgv92rcd13ifvqcq0","pricing_plan_id":"cebpf4jnsgd1na2vs0mg"},{"bike_id":"18a03f07-2484-44d5-9cae-011dafa05e8b","system_id":"levelo_inurba_marseille","lat":43.307945,"lon":5.376487,"is_reserved":false,"is_disabled":false,"rental_uris":{"android":"levelo://app?vid=18a03f07-2484-44d5-9cae-011dafa05e8b","ios":"levelo://app?vid=18a03f07-2484-44d5-9cae-011dafa05e8b"},"vehicle_type_id":"4","last_reported":1716408478,"current_range_meters":30800,"station_id":"ce4bgv92rcd13ifvqcq0","pricing_plan_id":"cebpf4jnsgd1na2vs0mg"},{"bike_id":"3f08b46d-8c2e-4961-883e-4c4231b2a3ae","system_id":"levelo_inurba_marseille","lat":43.307893,"lon":5.376506,"is_reserved":false,"is_disabled":false,"rental_uris":{"android":"levelo://app?vid=3f08b46d-8c2e-4961-883e-4c4231b2a3ae","ios":"levelo://app?vid=3f08b46d-8c2e-4961-883e-4c4231b2a3ae"},"vehicle_type_id":"4","last_reported":1716408478,"current_range_meters":26800,"station_id":"ce4bgv92rcd13ifvqcq0","pricing_plan_id":"cebpf4jnsgd1na2vs0mg"},{"bike_id":"9226e716-42dd-4201-9135-660d0d69568d","system_id":"levelo_inurba_marseille","lat":43.317075,"lon":5.377367,"is_reserved":false,"is_disabled":false,"rental_uris":{"android":"levelo://app?vid=9226e716-42dd-4201-9135-660d0d69568d","ios":"levelo://app?vid=9226e716-42dd-4201-9135-660d0d69568d"},"vehicle_type_id":"4","last_reported":1716408478,"current_range_meters":22400,"station_id":"ce4bgth2rcd13ifvqch0","pricing_plan_id":"cebpf4jnsgd1na2vs0mg"},{"bike_id":"e6c1cde1-54a4-4bf9-99ac-24637ed7e6b4","system_id":"levelo_inurba_marseille","lat":43.317075,"lon":5.377367,"is_reserved":false,"is_disabled":false,"rental_uris":{"android":"levelo://app?vid=e6c1cde1-54a4-4bf9-99ac-24637ed7e6b4","ios":"levelo://app?vid=e6c1cde1-54a4-4bf9-99ac-24637ed7e6b4"},"vehicle_type_id":"4","last_reported":1716408478,"current_range_meters":7600,"station_id":"ce4bgth2rcd13ifvqch0","pricing_plan_id":"cebpf4jnsgd1na2vs0mg"},{"bike_id":"12389ab0-cc73-443d-ba62-1b0c85628fbb","system_id":"levelo_inurba_marseille","lat":43.30309,"lon":5.36915,"is_reserved":false,"is_disabled":false,"rental_uris":{"android":"levelo://app?vid=12389ab0-cc73-443d-ba62-1b0c85628fbb","ios":"levelo://app?vid=12389ab0-cc73-443d-ba62-1b0c85628fbb"},"vehicle_type_id":"4","last_reported":1716408478,"current_range_meters":0,"station_id":"ce4bgqh2rcd13ifvqc5g","pricing_plan_id":"cebpf4jnsgd1na2vs0mg"},{"bike_id":"6715b8a4-ef0c-44a0-8ada-52b877cddeb9","system_id":"levelo_inurba_marseille","lat":43.315289,"lon":5.380349,"is_reserved":false,"is_disabled":false,"rental_uris":{"android":"levelo://app?vid=6715b8a4-ef0c-44a0-8ada-52b877cddeb9","ios":"levelo://app?vid=6715b8a4-ef0c-44a0-8ada-52b877cddeb9"},"vehicle_type_id":"4","last_reported":1716408478,"current_range_meters":24800,"station_id":"ce4bhsp2rcd13ifvqi50","pricing_plan_id":"cebpf4jnsgd1na2vs0mg"},{"bike_id":"cb9e0a05-a3ae-4541-a394-a8747f3fd49d","system_id":"levelo_inurba_marseille","lat":43.315289,"lon":5.380349,"is_reserved":false,"is_disabled":false,"rental_uris":{"android":"levelo://app?vid=cb9e0a05-a3ae-4541-a394-a8747f3fd49d","ios":"levelo://app?vid=cb9e0a05-a3ae-4541-a394-a8747f3fd49d"},"vehicle_type_id":"4","last_reported":1716408478,"current_range_meters":14000,"station_id":"ce4bhsp2rcd13ifvqi50","pricing_plan_id":"cebpf4jnsgd1na2vs0mg"},{"bike_id":"ac2acf34-b86c-4e30-9722-3f0a81516127","system_id":"levelo_inurba_marseille","lat":43.315293,"lon":5.380349,"is_reserved":false,"is_disabled":false,"rental_uris":{"android":"levelo://app?vid=ac2acf34-b86c-4e30-9722-3f0a81516127","ios":"levelo://app?vid=ac2acf34-b86c-4e30-9722-3f0a81516127"},"vehicle_type_id":"4","last_reported":1716408478,"current_range_meters":5200,"station_id":"ce4bhsp2rcd13ifvqi50","pricing_plan_id":"cebpf4jnsgd1na2vs0mg"},{"bike_id":"7cafcc60-6b3e-4580-aa8c-e669aa5375ba","system_id":"levelo_inurba_marseille","lat":43.315293,"lon":5.380349,"is_reserved":false,"is_disabled":false,"rental_uris":{"android":"levelo://app?vid=7cafcc60-6b3e-4580-aa8c-e669aa5375ba","ios":"levelo://app?vid=7cafcc60-6b3e-4580-aa8c-e669aa5375ba"},"vehicle_type_id":"4","last_reported":1716408478,"current_range_meters":16800,"station_id":"ce4bhsp2rcd13ifvqi50","pricing_plan_id":"cebpf4jnsgd1na2vs0mg"},{"bike_id":"70abca2b-054a-4384-a82f-5b381ce18b6a","system_id":"levelo_inurba_marseille","lat":43.301939,"lon":5.366286,"is_reserved":false,"is_disabled":false,"rental_uris":{"android":"levelo://app?vid=70abca2b-054a-4384-a82f-5b381ce18b6a","ios":"levelo://app?vid=70abca2b-054a-4384-a82f-5b381ce18b6a"},"vehicle_type_id":"4","last_reported":1716408478,"current_range_meters":800,"station_id":"ce4bgrh2rcd13ifvqc8g","pricing_plan_id":"cebpf4jnsgd1na2vs0mg"},{"bike_id":"cf34fa5a-928e-417f-842f-1d130893560d","system_id":"levelo_inurba_marseille","lat":43.301939,"lon":5.366286,"is_reserved":false,"is_disabled":false,"rental_uris":{"android":"levelo://app?vid=cf34fa5a-928e-417f-842f-1d130893560d","ios":"levelo://app?vid=cf34fa5a-928e-417f-842f-1d130893560d"},"vehicle_type_id":"4","last_reported":1716408478,"current_range_meters":3600,"station_id":"ce4bgrh2rcd13ifvqc8g","pricing_plan_id":"cebpf4jnsgd1na2vs0mg"},{"bike_id":"5edf8791-a4dc-414f-bd26-b0168e627f8a","system_id":"levelo_inurba_marseille","lat":43.301939,"lon":5.366286,"is_reserved":false,"is_disabled":false,"rental_uris":{"android":"levelo://app?vid=5edf8791-a4dc-414f-bd26-b0168e627f8a","ios":"levelo://app?vid=5edf8791-a4dc-414f-bd26-b0168e627f8a"},"vehicle_type_id":"4","last_reported":1716408478,"current_range_meters":10400,"station_id":"ce4bgrh2rcd13ifvqc8g","pricing_plan_id":"cebpf4jnsgd1na2vs0mg"},{"bike_id":"b41069dc-0bc7-4fd5-9a11-28f022d85d0c","system_id":"levelo_inurba_marseille","lat":43.301939,"lon":5.366286,"is_reserved":false,"is_disabled":false,"rental_uris":{"android":"levelo://app?vid=b41069dc-0bc7-4fd5-9a11-28f022d85d0c","ios":"levelo://app?vid=b41069dc-0bc7-4fd5-9a11-28f022d85d0c"},"vehicle_type_id":"4","last_reported":1716408478,"current_range_meters":11200,"station_id":"ce4bgrh2rcd13ifvqc8g","pricing_plan_id":"cebpf4jnsgd1na2vs0mg"},{"bike_id":"7bd6058d-3a49-4665-ba7c-97431b20a04a","system_id":"levelo_inurba_marseille","lat":43.301939,"lon":5.366286,"is_reserved":false,"is_disabled":false,"rental_uris":{"android":"levelo://app?vid=7bd6058d-3a49-4665-ba7c-97431b20a04a","ios":"levelo://app?vid=7bd6058d-3a49-4665-ba7c-97431b20a04a"},"vehicle_type_id":"4","last_reported":1716408478,"current_range_meters":14800,"station_id":"ce4bgrh2rcd13ifvqc8g","pricing_plan_id":"cebpf4jnsgd1na2vs0mg"},{"bike_id":"b4032789-6204-47b3-a11b-b1a777946933","system_id":"levelo_inurba_marseille","lat":43.257079,"lon":5.411051,"is_reserved":false,"is_disabled":false,"rental_uris":{"android":"levelo://app?vid=b4032789-6204-47b3-a11b-b1a777946933","ios":"levelo://app?vid=b4032789-6204-47b3-a11b-b1a777946933"},"vehicle_type_id":"4","last_reported":1716408478,"current_range_meters":13600,"station_id":"ce4bhkp2rcd13ifvqgd0","pricing_plan_id":"cebpf4jnsgd1na2vs0mg"},{"bike_id":"fb8a66a4-8483-4303-99a6-961d9fc403b9","system_id":"levelo_inurba_marseille","lat":43.301939,"lon":5.366286,"is_reserved":false,"is_disabled":false,"rental_uris":{"android":"levelo://app?vid=fb8a66a4-8483-4303-99a6-961d9fc403b9","ios":"levelo://app?vid=fb8a66a4-8483-4303-99a6-961d9fc403b9"},"vehicle_type_id":"4","last_reported":1716408478,"current_range_meters":16400,"station_id":"ce4bgrh2rcd13ifvqc8g","pricing_plan_id":"cebpf4jnsgd1na2vs0mg"},{"bike_id":"181c13fd-3690-488e-831b-ae14b12a1492","system_id":"levelo_inurba_marseille","lat":43.308012,"lon":5.381511,"is_reserved":false,"is_disabled":false,"rental_uris":{"android":"levelo://app?vid=181c13fd-3690-488e-831b-ae14b12a1492","ios":"levelo://app?vid=181c13fd-3690-488e-831b-ae14b12a1492"},"vehicle_type_id":"4","last_reported":1716408478,"current_range_meters":16400,"station_id":"ce4bgt12rcd13ifvqce0","pricing_plan_id":"cebpf4jnsgd1na2vs0mg"},{"bike_id":"8233513f-85a0-45c2-98d6-2d3d58de645b","system_id":"levelo_inurba_marseille","lat":43.308012,"lon":5.381511,"is_reserved":false,"is_disabled":false,"rental_uris":{"android":"levelo://app?vid=8233513f-85a0-45c2-98d6-2d3d58de645b","ios":"levelo://app?vid=8233513f-85a0-45c2-98d6-2d3d58de645b"},"vehicle_type_id":"4","last_reported":1716408478,"current_range_meters":1600,"station_id":"ce4bgt12rcd13ifvqce0","pricing_plan_id":"cebpf4jnsgd1na2vs0mg"},{"bike_id":"0d823595-36b8-4cdd-aff9-943eb0e102d4","system_id":"levelo_inurba_marseille","lat":43.307946,"lon":5.381616,"is_reserved":false,"is_disabled":false,"rental_uris":{"android":"levelo://app?vid=0d823595-36b8-4cdd-aff9-943eb0e102d4","ios":"levelo://app?vid=0d823595-36b8-4cdd-aff9-943eb0e102d4"},"vehicle_type_id":"4","last_reported":1716408478,"current_range_meters":13600,"station_id":"ce4bgt12rcd13ifvqce0","pricing_plan_id":"cebpf4jnsgd1na2vs0mg"},{"bike_id":"899f0f06-7cab-4362-9911-83232f350568","system_id":"levelo_inurba_marseille","lat":43.308012,"lon":5.381511,"is_reserved":false,"is_disabled":false,"rental_uris":{"android":"levelo://app?vid=899f0f06-7cab-4362-9911-83232f350568","ios":"levelo://app?vid=899f0f06-7cab-4362-9911-83232f350568"},"vehicle_type_id":"4","last_reported":1716408478,"current_range_meters":2000,"station_id":"ce4bgt12rcd13ifvqce0","pricing_plan_id":"cebpf4jnsgd1na2vs0mg"},{"bike_id":"e8b5b6ae-d49b-4d23-a165-fcee6df852ba","system_id":"levelo_inurba_marseille","lat":43.308012,"lon":5.381511,"is_reserved":false,"is_disabled":false,"rental_uris":{"android":"levelo://app?vid=e8b5b6ae-d49b-4d23-a165-fcee6df852ba","ios":"levelo://app?vid=e8b5b6ae-d49b-4d23-a165-fcee6df852ba"},"vehicle_type_id":"4","last_reported":1716408478,"current_range_meters":1600,"station_id":"ce4bgt12rcd13ifvqce0","pricing_plan_id":"cebpf4jnsgd1na2vs0mg"},{"bike_id":"03b2d0ac-4855-463a-a2f0-be21041dc802","system_id":"levelo_inurba_marseille","lat":43.304606,"lon":5.379026,"is_reserved":false,"is_disabled":false,"rental_uris":{"android":"levelo://app?vid=03b2d0ac-4855-463a-a2f0-be21041dc802","ios":"levelo://app?vid=03b2d0ac-4855-463a-a2f0-be21041dc802"},"vehicle_type_id":"4","last_reported":1716408478,"current_range_meters":31200,"station_id":"ce4bgup2rcd13ifvqcn0","pricing_plan_id":"cebpf4jnsgd1na2vs0mg"},{"bike_id":"62da71e0-3aa2-4b09-ba3a-b88de15900be","system_id":"levelo_inurba_marseille","lat":43.30537,"lon":5.367345,"is_reserved":false,"is_disabled":false,"rental_uris":{"android":"levelo://app?vid=62da71e0-3aa2-4b09-ba3a-b88de15900be","ios":"levelo://app?vid=62da71e0-3aa2-4b09-ba3a-b88de15900be"},"vehicle_type_id":"4","last_reported":1716408478,"current_range_meters":3200,"station_id":"ce4bgrp2rcd13ifvqc9g","pricing_plan_id":"cebpf4jnsgd1na2vs0mg"},{"bike_id":"277b6c98-023c-4acf-82e5-bb6fb5956f95","system_id":"levelo_inurba_marseille","lat":43.310804,"lon":5.38359,"is_reserved":false,"is_disabled":false,"rental_uris":{"android":"levelo://app?vid=277b6c98-023c-4acf-82e5-bb6fb5956f95","ios":"levelo://app?vid=277b6c98-023c-4acf-82e5-bb6fb5956f95"},"vehicle_type_id":"4","last_reported":1716408478,"current_range_meters":9200,"station_id":"ce4bgv92rcd13ifvqcr0","pricing_plan_id":"cebpf4jnsgd1na2vs0mg"},{"bike_id":"d0dd3761-2653-445f-85e4-5440965186d9","system_id":"levelo_inurba_marseille","lat":43.31069,"lon":5.38348,"is_reserved":false,"is_disabled":false,"rental_uris":{"android":"levelo://app?vid=d0dd3761-2653-445f-85e4-5440965186d9","ios":"levelo://app?vid=d0dd3761-2653-445f-85e4-5440965186d9"},"vehicle_type_id":"4","last_reported":1716408478,"current_range_meters":16000,"station_id":"ce4bgv92rcd13ifvqcr0","pricing_plan_id":"cebpf4jnsgd1na2vs0mg"},{"bike_id":"e29c06f2-e1b0-46e4-831e-9742ba6f3f27","system_id":"levelo_inurba_marseille","lat":43.310804,"lon":5.38359,"is_reserved":false,"is_disabled":false,"rental_uris":{"android":"levelo://app?vid=e29c06f2-e1b0-46e4-831e-9742ba6f3f27","ios":"levelo://app?vid=e29c06f2-e1b0-46e4-831e-9742ba6f3f27"},"vehicle_type_id":"4","last_reported":1716408478,"current_range_meters":5600,"station_id":"ce4bgv92rcd13ifvqcr0","pricing_plan_id":"cebpf4jnsgd1na2vs0mg"},{"bike_id":"e3ae23c6-accf-4ac5-bd03-1125b998871d","system_id":"levelo_inurba_marseille","lat":43.31069,"lon":5.383513,"is_reserved":false,"is_disabled":false,"rental_uris":{"android":"levelo://app?vid=e3ae23c6-accf-4ac5-bd03-1125b998871d","ios":"levelo://app?vid=e3ae23c6-accf-4ac5-bd03-1125b998871d"},"vehicle_type_id":"4","last_reported":1716408478,"current_range_meters":0,"station_id":"ce4bgv92rcd13ifvqcr0","pricing_plan_id":"cebpf4jnsgd1na2vs0mg"},{"bike_id":"a143e2ac-e786-4a15-80ab-196c7595b732","system_id":"levelo_inurba_marseille","lat":43.310698,"lon":5.383527,"is_reserved":false,"is_disabled":false,"rental_uris":{"android":"levelo://app?vid=a143e2ac-e786-4a15-80ab-196c7595b732","ios":"levelo://app?vid=a143e2ac-e786-4a15-80ab-196c7595b732"},"vehicle_type_id":"4","last_reported":1716408478,"current_range_meters":13200,"station_id":"ce4bgv92rcd13ifvqcr0","pricing_plan_id":"cebpf4jnsgd1na2vs0mg"},{"bike_id":"448e537d-1d9b-43d1-a795-eac12f34339b","system_id":"levelo_inurba_marseille","lat":43.310714,"lon":5.383568,"is_reserved":false,"is_disabled":false,"rental_uris":{"android":"levelo://app?vid=448e537d-1d9b-43d1-a795-eac12f34339b","ios":"levelo://app?vid=448e537d-1d9b-43d1-a795-eac12f34339b"},"vehicle_type_id":"4","last_reported":1716408478,"current_range_meters":10000,"station_id":"ce4bgv92rcd13ifvqcr0","pricing_plan_id":"cebpf4jnsgd1na2vs0mg"},{"bike_id":"5a06cc5c-7e85-42bf-9787-3294a8a0c76a","system_id":"levelo_inurba_marseille","lat":43.302784,"lon":5.377158,"is_reserved":false,"is_disabled":false,"rental_uris":{"android":"levelo://app?vid=5a06cc5c-7e85-42bf-9787-3294a8a0c76a","ios":"levelo://app?vid=5a06cc5c-7e85-42bf-9787-3294a8a0c76a"},"vehicle_type_id":"4","last_reported":1716408478,"current_range_meters":2800,"station_id":"ce4bguh2rcd13ifvqcj0","pricing_plan_id":"cebpf4jnsgd1na2vs0mg"},{"bike_id":"8c0de7d7-9ae8-4e3d-aa46-11a7652ca29d","system_id":"levelo_inurba_marseille","lat":43.308012,"lon":5.381511,"is_reserved":false,"is_disabled":false,"rental_uris":{"android":"levelo://app?vid=8c0de7d7-9ae8-4e3d-aa46-11a7652ca29d","ios":"levelo://app?vid=8c0de7d7-9ae8-4e3d-aa46-11a7652ca29d"},"vehicle_type_id":"4","last_reported":1716408478,"current_range_meters":9200,"station_id":"ce4bgt12rcd13ifvqce0","pricing_plan_id":"cebpf4jnsgd1na2vs0mg"},{"bike_id":"9f6e4582-a9bd-4d12-a57a-5784f0d32734","system_id":"levelo_inurba_marseille","lat":43.30143,"lon":5.37413,"is_reserved":false,"is_disabled":false,"rental_uris":{"android":"levelo://app?vid=9f6e4582-a9bd-4d12-a57a-5784f0d32734","ios":"levelo://app?vid=9f6e4582-a9bd-4d12-a57a-5784f0d32734"},"vehicle_type_id":"4","last_reported":1716408478,"current_range_meters":10800,"station_id":"ce4bgs92rcd13ifvqcc0","pricing_plan_id":"cebpf4jnsgd1na2vs0mg"},{"bike_id":"4cf53eb2-2d21-4a1d-8524-eae38f801b7a","system_id":"levelo_inurba_marseille","lat":43.31991,"lon":5.38146,"is_reserved":false,"is_disabled":false,"rental_uris":{"android":"levelo://app?vid=4cf53eb2-2d21-4a1d-8524-eae38f801b7a","ios":"levelo://app?vid=4cf53eb2-2d21-4a1d-8524-eae38f801b7a"},"vehicle_type_id":"4","last_reported":1716408478,"current_range_meters":28400,"station_id":"ce4bhr12rcd13ifvqhpg","pricing_plan_id":"cebpf4jnsgd1na2vs0mg"},{"bike_id":"ade148de-1c2d-42eb-83af-fe2776419b36","system_id":"levelo_inurba_marseille","lat":43.31994,"lon":5.381453,"is_reserved":false,"is_disabled":false,"rental_uris":{"android":"levelo://app?vid=ade148de-1c2d-42eb-83af-fe2776419b36","ios":"levelo://app?vid=ade148de-1c2d-42eb-83af-fe2776419b36"},"vehicle_type_id":"4","last_reported":1716408478,"current_range_meters":4800,"station_id":"ce4bhr12rcd13ifvqhpg","pricing_plan_id":"cebpf4jnsgd1na2vs0mg"},{"bike_id":"880e81c8-01e5-4433-8183-13a0353e1e1c","system_id":"levelo_inurba_marseille","lat":43.319964,"lon":5.381454,"is_reserved":false,"is_disabled":false,"rental_uris":{"android":"levelo://app?vid=880e81c8-01e5-4433-8183-13a0353e1e1c","ios":"levelo://app?vid=880e81c8-01e5-4433-8183-13a0353e1e1c"},"vehicle_type_id":"4","last_reported":1716408478,"current_range_meters":0,"station_id":"ce4bhr12rcd13ifvqhpg","pricing_plan_id":"cebpf4jnsgd1na2vs0mg"},{"bike_id":"b2e19ed9-e63e-4f11-84ad-cc3d9617df47","system_id":"levelo_inurba_marseille","lat":43.31997,"lon":5.38145,"is_reserved":false,"is_disabled":false,"rental_uris":{"android":"levelo://app?vid=b2e19ed9-e63e-4f11-84ad-cc3d9617df47","ios":"levelo://app?vid=b2e19ed9-e63e-4f11-84ad-cc3d9617df47"},"vehicle_type_id":"4","last_reported":1716408478,"current_range_meters":4800,"station_id":"ce4bhr12rcd13ifvqhpg","pricing_plan_id":"cebpf4jnsgd1na2vs0mg"},{"bike_id":"e48fe419-3584-4256-8dd4-0563341db911","system_id":"levelo_inurba_marseille","lat":43.319969,"lon":5.381477,"is_reserved":false,"is_disabled":false,"rental_uris":{"android":"levelo://app?vid=e48fe419-3584-4256-8dd4-0563341db911","ios":"levelo://app?vid=e48fe419-3584-4256-8dd4-0563341db911"},"vehicle_type_id":"4","last_reported":1716408478,"current_range_meters":2000,"station_id":"ce4bhr12rcd13ifvqhpg","pricing_plan_id":"cebpf4jnsgd1na2vs0mg"},{"bike_id":"2b0131d9-c1ff-4ad7-8ef6-0200f3a2757b","system_id":"levelo_inurba_marseille","lat":43.31999,"lon":5.38152,"is_reserved":false,"is_disabled":false,"rental_uris":{"android":"levelo://app?vid=2b0131d9-c1ff-4ad7-8ef6-0200f3a2757b","ios":"levelo://app?vid=2b0131d9-c1ff-4ad7-8ef6-0200f3a2757b"},"vehicle_type_id":"4","last_reported":1716408478,"current_range_meters":3600,"station_id":"ce4bhr12rcd13ifvqhpg","pricing_plan_id":"cebpf4jnsgd1na2vs0mg"},{"bike_id":"82c94e2e-d6fd-442e-aed9-097b41c0f6ef","system_id":"levelo_inurba_marseille","lat":43.31999,"lon":5.38152,"is_reserved":false,"is_disabled":false,"rental_uris":{"android":"levelo://app?vid=82c94e2e-d6fd-442e-aed9-097b41c0f6ef","ios":"levelo://app?vid=82c94e2e-d6fd-442e-aed9-097b41c0f6ef"},"vehicle_type_id":"4","last_reported":1716408478,"current_range_meters":4800,"station_id":"ce4bhr12rcd13ifvqhpg","pricing_plan_id":"cebpf4jnsgd1na2vs0mg"},{"bike_id":"a529d11e-1eca-4530-a97e-63571bbf4097","system_id":"levelo_inurba_marseille","lat":43.32001,"lon":5.38152,"is_reserved":false,"is_disabled":false,"rental_uris":{"android":"levelo://app?vid=a529d11e-1eca-4530-a97e-63571bbf4097","ios":"levelo://app?vid=a529d11e-1eca-4530-a97e-63571bbf4097"},"vehicle_type_id":"4","last_reported":1716408478,"current_range_meters":6400,"station_id":"ce4bhr12rcd13ifvqhpg","pricing_plan_id":"cebpf4jnsgd1na2vs0mg"},{"bike_id":"ca550ec4-54a7-4951-83a1-9cb51362b939","system_id":"levelo_inurba_marseille","lat":43.319935,"lon":5.381699,"is_reserved":false,"is_disabled":false,"rental_uris":{"android":"levelo://app?vid=ca550ec4-54a7-4951-83a1-9cb51362b939","ios":"levelo://app?vid=ca550ec4-54a7-4951-83a1-9cb51362b939"},"vehicle_type_id":"4","last_reported":1716408478,"current_range_meters":5600,"station_id":"ce4bhr12rcd13ifvqhpg","pricing_plan_id":"cebpf4jnsgd1na2vs0mg"},{"bike_id":"4581891e-87d1-4f54-841f-e4cb209b48df","system_id":"levelo_inurba_marseille","lat":43.31998,"lon":5.3816,"is_reserved":false,"is_disabled":false,"rental_uris":{"android":"levelo://app?vid=4581891e-87d1-4f54-841f-e4cb209b48df","ios":"levelo://app?vid=4581891e-87d1-4f54-841f-e4cb209b48df"},"vehicle_type_id":"4","last_reported":1716408478,"current_range_meters":0,"station_id":"ce4bhr12rcd13ifvqhpg","pricing_plan_id":"cebpf4jnsgd1na2vs0mg"},{"bike_id":"94d02af3-4973-4944-a043-a2ff4acbd1b4","system_id":"levelo_inurba_marseille","lat":43.31993,"lon":5.38166,"is_reserved":false,"is_disabled":false,"rental_uris":{"android":"levelo://app?vid=94d02af3-4973-4944-a043-a2ff4acbd1b4","ios":"levelo://app?vid=94d02af3-4973-4944-a043-a2ff4acbd1b4"},"vehicle_type_id":"4","last_reported":1716408478,"current_range_meters":23200,"station_id":"ce4bhr12rcd13ifvqhpg","pricing_plan_id":"cebpf4jnsgd1na2vs0mg"},{"bike_id":"f193803e-a313-4398-845b-5819ab2e7a9d","system_id":"levelo_inurba_marseille","lat":43.319935,"lon":5.381699,"is_reserved":false,"is_disabled":false,"rental_uris":{"android":"levelo://app?vid=f193803e-a313-4398-845b-5819ab2e7a9d","ios":"levelo://app?vid=f193803e-a313-4398-845b-5819ab2e7a9d"},"vehicle_type_id":"4","last_reported":1716408478,"current_range_meters":1600,"station_id":"ce4bhr12rcd13ifvqhpg","pricing_plan_id":"cebpf4jnsgd1na2vs0mg"},{"bike_id":"94202880-0274-4691-8380-53ef2bfd0f12","system_id":"levelo_inurba_marseille","lat":43.32004,"lon":5.38158,"is_reserved":false,"is_disabled":false,"rental_uris":{"android":"levelo://app?vid=94202880-0274-4691-8380-53ef2bfd0f12","ios":"levelo://app?vid=94202880-0274-4691-8380-53ef2bfd0f12"},"vehicle_type_id":"4","last_reported":1716408478,"current_range_meters":0,"station_id":"ce4bhr12rcd13ifvqhpg","pricing_plan_id":"cebpf4jnsgd1na2vs0mg"},{"bike_id":"6b248b04-2ebe-4d7e-b4c8-b240ea8b9a9c","system_id":"levelo_inurba_marseille","lat":43.31997,"lon":5.38166,"is_reserved":false,"is_disabled":false,"rental_uris":{"android":"levelo://app?vid=6b248b04-2ebe-4d7e-b4c8-b240ea8b9a9c","ios":"levelo://app?vid=6b248b04-2ebe-4d7e-b4c8-b240ea8b9a9c"},"vehicle_type_id":"4","last_reported":1716408478,"current_range_meters":26000,"station_id":"ce4bhr12rcd13ifvqhpg","pricing_plan_id":"cebpf4jnsgd1na2vs0mg"},{"bike_id":"4b880df4-1ce2-4b9b-b0bc-c3e1da03b1ac","system_id":"levelo_inurba_marseille","lat":43.32,"lon":5.38164,"is_reserved":false,"is_disabled":false,"rental_uris":{"android":"levelo://app?vid=4b880df4-1ce2-4b9b-b0bc-c3e1da03b1ac","ios":"levelo://app?vid=4b880df4-1ce2-4b9b-b0bc-c3e1da03b1ac"},"vehicle_type_id":"4","last_reported":1716408478,"current_range_meters":0,"station_id":"ce4bhr12rcd13ifvqhpg","pricing_plan_id":"cebpf4jnsgd1na2vs0mg"},{"bike_id":"81a8b69b-2a15-43c8-b1be-066e74520d54","system_id":"levelo_inurba_marseille","lat":43.313571,"lon":5.384829,"is_reserved":false,"is_disabled":false,"rental_uris":{"android":"levelo://app?vid=81a8b69b-2a15-43c8-b1be-066e74520d54","ios":"levelo://app?vid=81a8b69b-2a15-43c8-b1be-066e74520d54"},"vehicle_type_id":"4","last_reported":1716408478,"current_range_meters":25600,"station_id":"ce4bgt92rcd13ifvqcf0","pricing_plan_id":"cebpf4jnsgd1na2vs0mg"},{"bike_id":"542c93f4-4648-4461-8313-b9fda27d67c4","system_id":"levelo_inurba_marseille","lat":43.313571,"lon":5.384829,"is_reserved":false,"is_disabled":false,"rental_uris":{"android":"levelo://app?vid=542c93f4-4648-4461-8313-b9fda27d67c4","ios":"levelo://app?vid=542c93f4-4648-4461-8313-b9fda27d67c4"},"vehicle_type_id":"4","last_reported":1716408478,"current_range_meters":3600,"station_id":"ce4bgt92rcd13ifvqcf0","pricing_plan_id":"cebpf4jnsgd1na2vs0mg"},{"bike_id":"e985a1f1-1f05-4d96-9f92-e02550bde73c","system_id":"levelo_inurba_marseille","lat":43.313546,"lon":5.384971,"is_reserved":false,"is_disabled":false,"rental_uris":{"android":"levelo://app?vid=e985a1f1-1f05-4d96-9f92-e02550bde73c","ios":"levelo://app?vid=e985a1f1-1f05-4d96-9f92-e02550bde73c"},"vehicle_type_id":"4","last_reported":1716408478,"current_range_meters":30400,"station_id":"","pricing_plan_id":"cebpf4jnsgd1na2vs0mg"},{"bike_id":"1bbbb0d8-2360-46d2-8d84-40d727173c40","system_id":"levelo_inurba_marseille","lat":43.3136,"lon":5.38503,"is_reserved":false,"is_disabled":false,"rental_uris":{"android":"levelo://app?vid=1bbbb0d8-2360-46d2-8d84-40d727173c40","ios":"levelo://app?vid=1bbbb0d8-2360-46d2-8d84-40d727173c40"},"vehicle_type_id":"4","last_reported":1716408478,"current_range_meters":14000,"station_id":"ce4bgt92rcd13ifvqcf0","pricing_plan_id":"cebpf4jnsgd1na2vs0mg"},{"bike_id":"6ca26fc6-6d32-4d20-8de0-3969e4b795b0","system_id":"levelo_inurba_marseille","lat":43.313571,"lon":5.384829,"is_reserved":false,"is_disabled":false,"rental_uris":{"android":"levelo://app?vid=6ca26fc6-6d32-4d20-8de0-3969e4b795b0","ios":"levelo://app?vid=6ca26fc6-6d32-4d20-8de0-3969e4b795b0"},"vehicle_type_id":"4","last_reported":1716408478,"current_range_meters":6400,"station_id":"ce4bgt92rcd13ifvqcf0","pricing_plan_id":"cebpf4jnsgd1na2vs0mg"},{"bike_id":"88e75dad-9283-43fd-9d6b-2c7dd77fcb4d","system_id":"levelo_inurba_marseille","lat":43.29986,"lon":5.37178,"is_reserved":false,"is_disabled":false,"rental_uris":{"android":"levelo://app?vid=88e75dad-9283-43fd-9d6b-2c7dd77fcb4d","ios":"levelo://app?vid=88e75dad-9283-43fd-9d6b-2c7dd77fcb4d"},"vehicle_type_id":"4","last_reported":1716408478,"current_range_meters":0,"station_id":"ce4bgr92rcd13ifvqc7g","pricing_plan_id":"cebpf4jnsgd1na2vs0mg"},{"bike_id":"fd1d9eb6-f479-4025-8c74-7aeb7437b050","system_id":"levelo_inurba_marseille","lat":43.299222,"lon":5.365554,"is_reserved":false,"is_disabled":false,"rental_uris":{"android":"levelo://app?vid=fd1d9eb6-f479-4025-8c74-7aeb7437b050","ios":"levelo://app?vid=fd1d9eb6-f479-4025-8c74-7aeb7437b050"},"vehicle_type_id":"4","last_reported":1716408478,"current_range_meters":0,"station_id":"ce4bgm92rcd13ifvqbr0","pricing_plan_id":"cebpf4jnsgd1na2vs0mg"},{"bike_id":"ba7a55a1-c3ac-42f8-bd79-5d70d5aa9126","system_id":"levelo_inurba_marseille","lat":43.299724,"lon":5.371829,"is_reserved":false,"is_disabled":false,"rental_uris":{"android":"levelo://app?vid=ba7a55a1-c3ac-42f8-bd79-5d70d5aa9126","ios":"levelo://app?vid=ba7a55a1-c3ac-42f8-bd79-5d70d5aa9126"},"vehicle_type_id":"4","last_reported":1716408478,"current_range_meters":27200,"station_id":"ce4bgr92rcd13ifvqc7g","pricing_plan_id":"cebpf4jnsgd1na2vs0mg"},{"bike_id":"a105aec5-b0b3-41b3-a00e-1223f225f8a4","system_id":"levelo_inurba_marseille","lat":43.299724,"lon":5.371829,"is_reserved":false,"is_disabled":false,"rental_uris":{"android":"levelo://app?vid=a105aec5-b0b3-41b3-a00e-1223f225f8a4","ios":"levelo://app?vid=a105aec5-b0b3-41b3-a00e-1223f225f8a4"},"vehicle_type_id":"4","last_reported":1716408478,"current_range_meters":21600,"station_id":"ce4bgr92rcd13ifvqc7g","pricing_plan_id":"cebpf4jnsgd1na2vs0mg"},{"bike_id":"6c920697-f627-4977-951e-5202e7bf0d55","system_id":"levelo_inurba_marseille","lat":43.299724,"lon":5.371829,"is_reserved":false,"is_disabled":false,"rental_uris":{"android":"levelo://app?vid=6c920697-f627-4977-951e-5202e7bf0d55","ios":"levelo://app?vid=6c920697-f627-4977-951e-5202e7bf0d55"},"vehicle_type_id":"4","last_reported":1716408478,"current_range_meters":16800,"station_id":"ce4bgr92rcd13ifvqc7g","pricing_plan_id":"cebpf4jnsgd1na2vs0mg"},{"bike_id":"d6b713e8-05b0-4306-819d-2951415bd369","system_id":"levelo_inurba_marseille","lat":43.299222,"lon":5.365554,"is_reserved":false,"is_disabled":false,"rental_uris":{"android":"levelo://app?vid=d6b713e8-05b0-4306-819d-2951415bd369","ios":"levelo://app?vid=d6b713e8-05b0-4306-819d-2951415bd369"},"vehicle_type_id":"4","last_reported":1716408478,"current_range_meters":0,"station_id":"ce4bgm92rcd13ifvqbr0","pricing_plan_id":"cebpf4jnsgd1na2vs0mg"},{"bike_id":"c7301d44-c9e4-4b0d-859e-708bc842b081","system_id":"levelo_inurba_marseille","lat":43.299222,"lon":5.365554,"is_reserved":false,"is_disabled":false,"rental_uris":{"android":"levelo://app?vid=c7301d44-c9e4-4b0d-859e-708bc842b081","ios":"levelo://app?vid=c7301d44-c9e4-4b0d-859e-708bc842b081"},"vehicle_type_id":"4","last_reported":1716408478,"current_range_meters":5200,"station_id":"ce4bgm92rcd13ifvqbr0","pricing_plan_id":"cebpf4jnsgd1na2vs0mg"},{"bike_id":"f9e20ea4-8c9a-4b8e-af85-9317a787f8e7","system_id":"levelo_inurba_marseille","lat":43.299754,"lon":5.371812,"is_reserved":false,"is_disabled":false,"rental_uris":{"android":"levelo://app?vid=f9e20ea4-8c9a-4b8e-af85-9317a787f8e7","ios":"levelo://app?vid=f9e20ea4-8c9a-4b8e-af85-9317a787f8e7"},"vehicle_type_id":"4","last_reported":1716408478,"current_range_meters":4000,"station_id":"ce4bgr92rcd13ifvqc7g","pricing_plan_id":"cebpf4jnsgd1na2vs0mg"},{"bike_id":"578796c7-be37-4cd0-b7ce-bf0e7ee39536","system_id":"levelo_inurba_marseille","lat":43.313571,"lon":5.384829,"is_reserved":false,"is_disabled":false,"rental_uris":{"android":"levelo://app?vid=578796c7-be37-4cd0-b7ce-bf0e7ee39536","ios":"levelo://app?vid=578796c7-be37-4cd0-b7ce-bf0e7ee39536"},"vehicle_type_id":"4","last_reported":1716408478,"current_range_meters":13600,"station_id":"ce4bgt92rcd13ifvqcf0","pricing_plan_id":"cebpf4jnsgd1na2vs0mg"},{"bike_id":"a332e94b-1554-48c1-afca-ce888501c9e9","system_id":"levelo_inurba_marseille","lat":43.300746,"lon":5.378018,"is_reserved":false,"is_disabled":false,"rental_uris":{"android":"levelo://app?vid=a332e94b-1554-48c1-afca-ce888501c9e9","ios":"levelo://app?vid=a332e94b-1554-48c1-afca-ce888501c9e9"},"vehicle_type_id":"4","last_reported":1716408478,"current_range_meters":2800,"station_id":"","pricing_plan_id":"cebpf4jnsgd1na2vs0mg"},{"bike_id":"f94527a0-4839-4bc9-8bd6-5c298bbb9a01","system_id":"levelo_inurba_marseille","lat":43.305364,"lon":5.384119,"is_reserved":false,"is_disabled":false,"rental_uris":{"android":"levelo://app?vid=f94527a0-4839-4bc9-8bd6-5c298bbb9a01","ios":"levelo://app?vid=f94527a0-4839-4bc9-8bd6-5c298bbb9a01"},"vehicle_type_id":"4","last_reported":1716408478,"current_range_meters":9200,"station_id":"ce4bgg92rcd13ifvqb30","pricing_plan_id":"cebpf4jnsgd1na2vs0mg"},{"bike_id":"4de91b75-c61b-4525-8571-3918edec6005","system_id":"levelo_inurba_marseille","lat":43.298433,"lon":5.362774,"is_reserved":false,"is_disabled":false,"rental_uris":{"android":"levelo://app?vid=4de91b75-c61b-4525-8571-3918edec6005","ios":"levelo://app?vid=4de91b75-c61b-4525-8571-3918edec6005"},"vehicle_type_id":"4","last_reported":1716408478,"current_range_meters":20000,"station_id":"ce4bgpp2rcd13ifvqc3g","pricing_plan_id":"cebpf4jnsgd1na2vs0mg"},{"bike_id":"a414693d-a68b-4a6f-8589-893bdccd9381","system_id":"levelo_inurba_marseille","lat":43.298433,"lon":5.362774,"is_reserved":false,"is_disabled":false,"rental_uris":{"android":"levelo://app?vid=a414693d-a68b-4a6f-8589-893bdccd9381","ios":"levelo://app?vid=a414693d-a68b-4a6f-8589-893bdccd9381"},"vehicle_type_id":"4","last_reported":1716408478,"current_range_meters":0,"station_id":"ce4bgpp2rcd13ifvqc3g","pricing_plan_id":"cebpf4jnsgd1na2vs0mg"},{"bike_id":"e281f80b-2d52-45e2-bb28-54bae881a4dc","system_id":"levelo_inurba_marseille","lat":43.29844,"lon":5.36265,"is_reserved":false,"is_disabled":false,"rental_uris":{"android":"levelo://app?vid=e281f80b-2d52-45e2-bb28-54bae881a4dc","ios":"levelo://app?vid=e281f80b-2d52-45e2-bb28-54bae881a4dc"},"vehicle_type_id":"4","last_reported":1716408478,"current_range_meters":3600,"station_id":"ce4bgpp2rcd13ifvqc3g","pricing_plan_id":"cebpf4jnsgd1na2vs0mg"},{"bike_id":"ffdc4427-0044-454f-9b5c-d718a2e68710","system_id":"levelo_inurba_marseille","lat":43.298425,"lon":5.362695,"is_reserved":false,"is_disabled":false,"rental_uris":{"android":"levelo://app?vid=ffdc4427-0044-454f-9b5c-d718a2e68710","ios":"levelo://app?vid=ffdc4427-0044-454f-9b5c-d718a2e68710"},"vehicle_type_id":"4","last_reported":1716408478,"current_range_meters":6800,"station_id":"ce4bgpp2rcd13ifvqc3g","pricing_plan_id":"cebpf4jnsgd1na2vs0mg"},{"bike_id":"06fc2799-fd65-4098-bfd4-b686423ef176","system_id":"levelo_inurba_marseille","lat":43.299243,"lon":5.374807,"is_reserved":false,"is_disabled":false,"rental_uris":{"android":"levelo://app?vid=06fc2799-fd65-4098-bfd4-b686423ef176","ios":"levelo://app?vid=06fc2799-fd65-4098-bfd4-b686423ef176"},"vehicle_type_id":"4","last_reported":1716408478,"current_range_meters":25600,"station_id":"ce4bgjh2rcd13ifvqbg0","pricing_plan_id":"cebpf4jnsgd1na2vs0mg"},{"bike_id":"09156d33-6cd1-4261-902d-83b8f741c6e8","system_id":"levelo_inurba_marseille","lat":43.298433,"lon":5.362774,"is_reserved":false,"is_disabled":false,"rental_uris":{"android":"levelo://app?vid=09156d33-6cd1-4261-902d-83b8f741c6e8","ios":"levelo://app?vid=09156d33-6cd1-4261-902d-83b8f741c6e8"},"vehicle_type_id":"4","last_reported":1716408478,"current_range_meters":26800,"station_id":"ce4bgpp2rcd13ifvqc3g","pricing_plan_id":"cebpf4jnsgd1na2vs0mg"},{"bike_id":"f7995214-6e32-4ab8-8d0c-a1020226f1ac","system_id":"levelo_inurba_marseille","lat":43.311722,"lon":5.387247,"is_reserved":false,"is_disabled":false,"rental_uris":{"android":"levelo://app?vid=f7995214-6e32-4ab8-8d0c-a1020226f1ac","ios":"levelo://app?vid=f7995214-6e32-4ab8-8d0c-a1020226f1ac"},"vehicle_type_id":"4","last_reported":1716408478,"current_range_meters":30000,"station_id":"ce4bgv12rcd13ifvqcp0","pricing_plan_id":"cebpf4jnsgd1na2vs0mg"},{"bike_id":"2adcd069-838b-4598-a5b3-c8fbd2df0dc0","system_id":"levelo_inurba_marseille","lat":43.299243,"lon":5.374807,"is_reserved":false,"is_disabled":false,"rental_uris":{"android":"levelo://app?vid=2adcd069-838b-4598-a5b3-c8fbd2df0dc0","ios":"levelo://app?vid=2adcd069-838b-4598-a5b3-c8fbd2df0dc0"},"vehicle_type_id":"4","last_reported":1716408478,"current_range_meters":22400,"station_id":"ce4bgjh2rcd13ifvqbg0","pricing_plan_id":"cebpf4jnsgd1na2vs0mg"},{"bike_id":"ae4b2fa5-ccad-4958-8c78-a6c530c0eabc","system_id":"levelo_inurba_marseille","lat":43.311722,"lon":5.387247,"is_reserved":false,"is_disabled":false,"rental_uris":{"android":"levelo://app?vid=ae4b2fa5-ccad-4958-8c78-a6c530c0eabc","ios":"levelo://app?vid=ae4b2fa5-ccad-4958-8c78-a6c530c0eabc"},"vehicle_type_id":"4","last_reported":1716408478,"current_range_meters":27600,"station_id":"ce4bgv12rcd13ifvqcp0","pricing_plan_id":"cebpf4jnsgd1na2vs0mg"},{"bike_id":"4b9ddfbd-c71a-4fff-ba35-6e4674ef8467","system_id":"levelo_inurba_marseille","lat":43.311722,"lon":5.387247,"is_reserved":false,"is_disabled":false,"rental_uris":{"android":"levelo://app?vid=4b9ddfbd-c71a-4fff-ba35-6e4674ef8467","ios":"levelo://app?vid=4b9ddfbd-c71a-4fff-ba35-6e4674ef8467"},"vehicle_type_id":"4","last_reported":1716408478,"current_range_meters":21600,"station_id":"ce4bgv12rcd13ifvqcp0","pricing_plan_id":"cebpf4jnsgd1na2vs0mg"},{"bike_id":"aa9a658f-a8a7-4073-b2f2-a318fe992265","system_id":"levelo_inurba_marseille","lat":43.311722,"lon":5.387247,"is_reserved":false,"is_disabled":false,"rental_uris":{"android":"levelo://app?vid=aa9a658f-a8a7-4073-b2f2-a318fe992265","ios":"levelo://app?vid=aa9a658f-a8a7-4073-b2f2-a318fe992265"},"vehicle_type_id":"4","last_reported":1716408478,"current_range_meters":20000,"station_id":"ce4bgv12rcd13ifvqcp0","pricing_plan_id":"cebpf4jnsgd1na2vs0mg"},{"bike_id":"7d194cb3-212f-4b85-9e10-52c8d972df1e","system_id":"levelo_inurba_marseille","lat":43.311722,"lon":5.387247,"is_reserved":false,"is_disabled":false,"rental_uris":{"android":"levelo://app?vid=7d194cb3-212f-4b85-9e10-52c8d972df1e","ios":"levelo://app?vid=7d194cb3-212f-4b85-9e10-52c8d972df1e"},"vehicle_type_id":"4","last_reported":1716408478,"current_range_meters":10000,"station_id":"ce4bgv12rcd13ifvqcp0","pricing_plan_id":"cebpf4jnsgd1na2vs0mg"},{"bike_id":"3f9e2d58-4661-4edf-b393-3ec74bdb2254","system_id":"levelo_inurba_marseille","lat":43.311722,"lon":5.387247,"is_reserved":false,"is_disabled":false,"rental_uris":{"android":"levelo://app?vid=3f9e2d58-4661-4edf-b393-3ec74bdb2254","ios":"levelo://app?vid=3f9e2d58-4661-4edf-b393-3ec74bdb2254"},"vehicle_type_id":"4","last_reported":1716408478,"current_range_meters":15600,"station_id":"ce4bgv12rcd13ifvqcp0","pricing_plan_id":"cebpf4jnsgd1na2vs0mg"},{"bike_id":"786ee11a-968d-4a50-a7b2-caf1a9459bde","system_id":"levelo_inurba_marseille","lat":43.311722,"lon":5.387247,"is_reserved":false,"is_disabled":false,"rental_uris":{"android":"levelo://app?vid=786ee11a-968d-4a50-a7b2-caf1a9459bde","ios":"levelo://app?vid=786ee11a-968d-4a50-a7b2-caf1a9459bde"},"vehicle_type_id":"4","last_reported":1716408478,"current_range_meters":4400,"station_id":"ce4bgv12rcd13ifvqcp0","pricing_plan_id":"cebpf4jnsgd1na2vs0mg"},{"bike_id":"e16a39a0-797b-459c-87a5-716792e1b7bb","system_id":"levelo_inurba_marseille","lat":43.311722,"lon":5.387247,"is_reserved":false,"is_disabled":false,"rental_uris":{"android":"levelo://app?vid=e16a39a0-797b-459c-87a5-716792e1b7bb","ios":"levelo://app?vid=e16a39a0-797b-459c-87a5-716792e1b7bb"},"vehicle_type_id":"4","last_reported":1716408478,"current_range_meters":12400,"station_id":"ce4bgv12rcd13ifvqcp0","pricing_plan_id":"cebpf4jnsgd1na2vs0mg"},{"bike_id":"d4072f1b-6232-4251-9fa5-6ac60b1fee09","system_id":"levelo_inurba_marseille","lat":43.311722,"lon":5.387247,"is_reserved":false,"is_disabled":false,"rental_uris":{"android":"levelo://app?vid=d4072f1b-6232-4251-9fa5-6ac60b1fee09","ios":"levelo://app?vid=d4072f1b-6232-4251-9fa5-6ac60b1fee09"},"vehicle_type_id":"4","last_reported":1716408478,"current_range_meters":19600,"station_id":"ce4bgv12rcd13ifvqcp0","pricing_plan_id":"cebpf4jnsgd1na2vs0mg"},{"bike_id":"f164151b-cbd8-434f-b75d-e159f8fa2ad5","system_id":"levelo_inurba_marseille","lat":43.3118,"lon":5.38719,"is_reserved":false,"is_disabled":false,"rental_uris":{"android":"levelo://app?vid=f164151b-cbd8-434f-b75d-e159f8fa2ad5","ios":"levelo://app?vid=f164151b-cbd8-434f-b75d-e159f8fa2ad5"},"vehicle_type_id":"4","last_reported":1716408478,"current_range_meters":9200,"station_id":"ce4bgv12rcd13ifvqcp0","pricing_plan_id":"cebpf4jnsgd1na2vs0mg"},{"bike_id":"29db571c-dd8f-4495-af3d-708cb55cae91","system_id":"levelo_inurba_marseille","lat":43.31165,"lon":5.38718,"is_reserved":false,"is_disabled":false,"rental_uris":{"android":"levelo://app?vid=29db571c-dd8f-4495-af3d-708cb55cae91","ios":"levelo://app?vid=29db571c-dd8f-4495-af3d-708cb55cae91"},"vehicle_type_id":"4","last_reported":1716408478,"current_range_meters":0,"station_id":"ce4bgv12rcd13ifvqcp0","pricing_plan_id":"cebpf4jnsgd1na2vs0mg"},{"bike_id":"246d6bac-1fda-4239-841b-6424f90a8791","system_id":"levelo_inurba_marseille","lat":43.311722,"lon":5.387247,"is_reserved":false,"is_disabled":false,"rental_uris":{"android":"levelo://app?vid=246d6bac-1fda-4239-841b-6424f90a8791","ios":"levelo://app?vid=246d6bac-1fda-4239-841b-6424f90a8791"},"vehicle_type_id":"4","last_reported":1716408478,"current_range_meters":4800,"station_id":"ce4bgv12rcd13ifvqcp0","pricing_plan_id":"cebpf4jnsgd1na2vs0mg"},{"bike_id":"9f027452-5e85-4506-a4ca-8cd1932fd475","system_id":"levelo_inurba_marseille","lat":43.311722,"lon":5.387247,"is_reserved":false,"is_disabled":false,"rental_uris":{"android":"levelo://app?vid=9f027452-5e85-4506-a4ca-8cd1932fd475","ios":"levelo://app?vid=9f027452-5e85-4506-a4ca-8cd1932fd475"},"vehicle_type_id":"4","last_reported":1716408478,"current_range_meters":21200,"station_id":"ce4bgv12rcd13ifvqcp0","pricing_plan_id":"cebpf4jnsgd1na2vs0mg"},{"bike_id":"9e14a363-7524-42ef-b177-7ae80545d5fe","system_id":"levelo_inurba_marseille","lat":43.322872,"lon":5.382756,"is_reserved":false,"is_disabled":false,"rental_uris":{"android":"levelo://app?vid=9e14a363-7524-42ef-b177-7ae80545d5fe","ios":"levelo://app?vid=9e14a363-7524-42ef-b177-7ae80545d5fe"},"vehicle_type_id":"4","last_reported":1716408478,"current_range_meters":400,"station_id":"ce4bhr12rcd13ifvqhqg","pricing_plan_id":"cebpf4jnsgd1na2vs0mg"},{"bike_id":"ed492a4e-944e-43b3-bd26-4581a8e6f7a8","system_id":"levelo_inurba_marseille","lat":43.297794,"lon":5.370888,"is_reserved":false,"is_disabled":false,"rental_uris":{"android":"levelo://app?vid=ed492a4e-944e-43b3-bd26-4581a8e6f7a8","ios":"levelo://app?vid=ed492a4e-944e-43b3-bd26-4581a8e6f7a8"},"vehicle_type_id":"4","last_reported":1716408478,"current_range_meters":28000,"station_id":"ce4bgop2rcd13ifvqc1g","pricing_plan_id":"cebpf4jnsgd1na2vs0mg"},{"bike_id":"4db12bb2-047c-428a-addf-22fa2d72f822","system_id":"levelo_inurba_marseille","lat":43.297774,"lon":5.370875,"is_reserved":false,"is_disabled":false,"rental_uris":{"android":"levelo://app?vid=4db12bb2-047c-428a-addf-22fa2d72f822","ios":"levelo://app?vid=4db12bb2-047c-428a-addf-22fa2d72f822"},"vehicle_type_id":"4","last_reported":1716408478,"current_range_meters":30400,"station_id":"ce4bgop2rcd13ifvqc1g","pricing_plan_id":"cebpf4jnsgd1na2vs0mg"},{"bike_id":"1e181829-ef13-4dd4-90dd-a16b6c42858b","system_id":"levelo_inurba_marseille","lat":43.322874,"lon":5.38266,"is_reserved":false,"is_disabled":false,"rental_uris":{"android":"levelo://app?vid=1e181829-ef13-4dd4-90dd-a16b6c42858b","ios":"levelo://app?vid=1e181829-ef13-4dd4-90dd-a16b6c42858b"},"vehicle_type_id":"4","last_reported":1716408478,"current_range_meters":27600,"station_id":"ce4bhr12rcd13ifvqhqg","pricing_plan_id":"cebpf4jnsgd1na2vs0mg"},{"bike_id":"3eb3d9d4-440c-4fc9-96ac-c8516721b2ab","system_id":"levelo_inurba_marseille","lat":43.322913,"lon":5.382617,"is_reserved":false,"is_disabled":false,"rental_uris":{"android":"levelo://app?vid=3eb3d9d4-440c-4fc9-96ac-c8516721b2ab","ios":"levelo://app?vid=3eb3d9d4-440c-4fc9-96ac-c8516721b2ab"},"vehicle_type_id":"4","last_reported":1716408478,"current_range_meters":0,"station_id":"ce4bhr12rcd13ifvqhqg","pricing_plan_id":"cebpf4jnsgd1na2vs0mg"},{"bike_id":"79f33001-a651-4b0f-b82e-f19ee71b8d0f","system_id":"levelo_inurba_marseille","lat":43.322911,"lon":5.382671,"is_reserved":false,"is_disabled":false,"rental_uris":{"android":"levelo://app?vid=79f33001-a651-4b0f-b82e-f19ee71b8d0f","ios":"levelo://app?vid=79f33001-a651-4b0f-b82e-f19ee71b8d0f"},"vehicle_type_id":"4","last_reported":1716408478,"current_range_meters":29200,"station_id":"ce4bhr12rcd13ifvqhqg","pricing_plan_id":"cebpf4jnsgd1na2vs0mg"},{"bike_id":"0f88177d-05b6-42ed-a8be-88bd73d9758d","system_id":"levelo_inurba_marseille","lat":43.32294,"lon":5.38264,"is_reserved":false,"is_disabled":false,"rental_uris":{"android":"levelo://app?vid=0f88177d-05b6-42ed-a8be-88bd73d9758d","ios":"levelo://app?vid=0f88177d-05b6-42ed-a8be-88bd73d9758d"},"vehicle_type_id":"4","last_reported":1716408478,"current_range_meters":26400,"station_id":"ce4bhr12rcd13ifvqhqg","pricing_plan_id":"cebpf4jnsgd1na2vs0mg"},{"bike_id":"145e684e-608f-4fa2-a8c7-90456673c16b","system_id":"levelo_inurba_marseille","lat":43.32289,"lon":5.38274,"is_reserved":false,"is_disabled":false,"rental_uris":{"android":"levelo://app?vid=145e684e-608f-4fa2-a8c7-90456673c16b","ios":"levelo://app?vid=145e684e-608f-4fa2-a8c7-90456673c16b"},"vehicle_type_id":"4","last_reported":1716408478,"current_range_meters":7200,"station_id":"ce4bhr12rcd13ifvqhqg","pricing_plan_id":"cebpf4jnsgd1na2vs0mg"},{"bike_id":"d8bd1bbc-a9d4-4bcd-9973-a789946fec5c","system_id":"levelo_inurba_marseille","lat":43.32288,"lon":5.38279,"is_reserved":false,"is_disabled":false,"rental_uris":{"android":"levelo://app?vid=d8bd1bbc-a9d4-4bcd-9973-a789946fec5c","ios":"levelo://app?vid=d8bd1bbc-a9d4-4bcd-9973-a789946fec5c"},"vehicle_type_id":"4","last_reported":1716408478,"current_range_meters":23200,"station_id":"ce4bhr12rcd13ifvqhqg","pricing_plan_id":"cebpf4jnsgd1na2vs0mg"},{"bike_id":"e9fc0c05-053b-4193-ba5b-db2fca81a5f2","system_id":"levelo_inurba_marseille","lat":43.297163,"lon":5.365866,"is_reserved":false,"is_disabled":false,"rental_uris":{"android":"levelo://app?vid=e9fc0c05-053b-4193-ba5b-db2fca81a5f2","ios":"levelo://app?vid=e9fc0c05-053b-4193-ba5b-db2fca81a5f2"},"vehicle_type_id":"4","last_reported":1716408478,"current_range_meters":20000,"station_id":"ce4bgn12rcd13ifvqbt0","pricing_plan_id":"cebpf4jnsgd1na2vs0mg"},{"bike_id":"30291318-7ff7-4a35-895e-2e10452635f4","system_id":"levelo_inurba_marseille","lat":43.297163,"lon":5.365866,"is_reserved":false,"is_disabled":false,"rental_uris":{"android":"levelo://app?vid=30291318-7ff7-4a35-895e-2e10452635f4","ios":"levelo://app?vid=30291318-7ff7-4a35-895e-2e10452635f4"},"vehicle_type_id":"4","last_reported":1716408478,"current_range_meters":14800,"station_id":"ce4bgn12rcd13ifvqbt0","pricing_plan_id":"cebpf4jnsgd1na2vs0mg"},{"bike_id":"fef19b85-e841-42d1-9cad-a8ea3c9523a5","system_id":"levelo_inurba_marseille","lat":43.29851,"lon":5.37698,"is_reserved":false,"is_disabled":false,"rental_uris":{"android":"levelo://app?vid=fef19b85-e841-42d1-9cad-a8ea3c9523a5","ios":"levelo://app?vid=fef19b85-e841-42d1-9cad-a8ea3c9523a5"},"vehicle_type_id":"4","last_reported":1716408478,"current_range_meters":18800,"station_id":"","pricing_plan_id":"cebpf4jnsgd1na2vs0mg"},{"bike_id":"2f6804c8-95c5-4bdd-9edb-4e672b9ee457","system_id":"levelo_inurba_marseille","lat":43.2968,"lon":5.37291,"is_reserved":false,"is_disabled":false,"rental_uris":{"android":"levelo://app?vid=2f6804c8-95c5-4bdd-9edb-4e672b9ee457","ios":"levelo://app?vid=2f6804c8-95c5-4bdd-9edb-4e672b9ee457"},"vehicle_type_id":"4","last_reported":1716408478,"current_range_meters":12800,"station_id":"ce4bgk12rcd13ifvqbj0","pricing_plan_id":"cebpf4jnsgd1na2vs0mg"},{"bike_id":"b0181dbd-d16d-4347-9382-b450da867146","system_id":"levelo_inurba_marseille","lat":43.29657,"lon":5.36162,"is_reserved":false,"is_disabled":false,"rental_uris":{"android":"levelo://app?vid=b0181dbd-d16d-4347-9382-b450da867146","ios":"levelo://app?vid=b0181dbd-d16d-4347-9382-b450da867146"},"vehicle_type_id":"4","last_reported":1716408478,"current_range_meters":19200,"station_id":"","pricing_plan_id":"cebpf4jnsgd1na2vs0mg"},{"bike_id":"fe55ab35-aa7d-47c9-a813-3186ba3f88bc","system_id":"levelo_inurba_marseille","lat":43.296131,"lon":5.370773,"is_reserved":false,"is_disabled":false,"rental_uris":{"android":"levelo://app?vid=fe55ab35-aa7d-47c9-a813-3186ba3f88bc","ios":"levelo://app?vid=fe55ab35-aa7d-47c9-a813-3186ba3f88bc"},"vehicle_type_id":"4","last_reported":1716408478,"current_range_meters":26800,"station_id":"ce4bgnh2rcd13ifvqc0g","pricing_plan_id":"cebpf4jnsgd1na2vs0mg"},{"bike_id":"70b22490-aa11-47d5-b354-18046eff547a","system_id":"levelo_inurba_marseille","lat":43.29573,"lon":5.367355,"is_reserved":false,"is_disabled":false,"rental_uris":{"android":"levelo://app?vid=70b22490-aa11-47d5-b354-18046eff547a","ios":"levelo://app?vid=70b22490-aa11-47d5-b354-18046eff547a"},"vehicle_type_id":"4","last_reported":1716408478,"current_range_meters":6800,"station_id":"ce4bgph2rcd13ifvqc2g","pricing_plan_id":"cebpf4jnsgd1na2vs0mg"},{"bike_id":"190d28f6-ce29-46b2-b95d-d9c5adc36818","system_id":"levelo_inurba_marseille","lat":43.297265,"lon":5.376835,"is_reserved":false,"is_disabled":false,"rental_uris":{"android":"levelo://app?vid=190d28f6-ce29-46b2-b95d-d9c5adc36818","ios":"levelo://app?vid=190d28f6-ce29-46b2-b95d-d9c5adc36818"},"vehicle_type_id":"4","last_reported":1716408478,"current_range_meters":0,"station_id":"ce4bgkh2rcd13ifvqbl0","pricing_plan_id":"cebpf4jnsgd1na2vs0mg"},{"bike_id":"25b744e7-6739-4fef-ae4e-5d3ecf28146a","system_id":"levelo_inurba_marseille","lat":43.299028,"lon":5.381509,"is_reserved":false,"is_disabled":false,"rental_uris":{"android":"levelo://app?vid=25b744e7-6739-4fef-ae4e-5d3ecf28146a","ios":"levelo://app?vid=25b744e7-6739-4fef-ae4e-5d3ecf28146a"},"vehicle_type_id":"4","last_reported":1716408478,"current_range_meters":5600,"station_id":"ce4bgj12rcd13ifvqbc0","pricing_plan_id":"cebpf4jnsgd1na2vs0mg"},{"bike_id":"c8a9d7ea-9d22-411a-9f8d-4c1e241978b0","system_id":"levelo_inurba_marseille","lat":43.296935,"lon":5.376544,"is_reserved":false,"is_disabled":false,"rental_uris":{"android":"levelo://app?vid=c8a9d7ea-9d22-411a-9f8d-4c1e241978b0","ios":"levelo://app?vid=c8a9d7ea-9d22-411a-9f8d-4c1e241978b0"},"vehicle_type_id":"4","last_reported":1716408478,"current_range_meters":4000,"station_id":"ce4bgkh2rcd13ifvqbl0","pricing_plan_id":"cebpf4jnsgd1na2vs0mg"},{"bike_id":"5afe99fb-f184-4e1e-8d02-cedc16a84b35","system_id":"levelo_inurba_marseille","lat":43.309589,"lon":5.390258,"is_reserved":false,"is_disabled":false,"rental_uris":{"android":"levelo://app?vid=5afe99fb-f184-4e1e-8d02-cedc16a84b35","ios":"levelo://app?vid=5afe99fb-f184-4e1e-8d02-cedc16a84b35"},"vehicle_type_id":"4","last_reported":1716408478,"current_range_meters":1600,"station_id":"ce4bgup2rcd13ifvqco0","pricing_plan_id":"cebpf4jnsgd1na2vs0mg"},{"bike_id":"21380265-b1df-454a-8190-22d0edbcb84b","system_id":"levelo_inurba_marseille","lat":43.299028,"lon":5.381509,"is_reserved":false,"is_disabled":false,"rental_uris":{"android":"levelo://app?vid=21380265-b1df-454a-8190-22d0edbcb84b","ios":"levelo://app?vid=21380265-b1df-454a-8190-22d0edbcb84b"},"vehicle_type_id":"4","last_reported":1716408478,"current_range_meters":1600,"station_id":"ce4bgj12rcd13ifvqbc0","pricing_plan_id":"cebpf4jnsgd1na2vs0mg"},{"bike_id":"2903107f-b742-4588-be8d-eeb212ae7f0d","system_id":"levelo_inurba_marseille","lat":43.309589,"lon":5.390258,"is_reserved":false,"is_disabled":false,"rental_uris":{"android":"levelo://app?vid=2903107f-b742-4588-be8d-eeb212ae7f0d","ios":"levelo://app?vid=2903107f-b742-4588-be8d-eeb212ae7f0d"},"vehicle_type_id":"4","last_reported":1716408478,"current_range_meters":2000,"station_id":"ce4bgup2rcd13ifvqco0","pricing_plan_id":"cebpf4jnsgd1na2vs0mg"},{"bike_id":"49fc2701-24cf-4fcf-9974-8e4a18804520","system_id":"levelo_inurba_marseille","lat":43.31763,"lon":5.39013,"is_reserved":false,"is_disabled":false,"rental_uris":{"android":"levelo://app?vid=49fc2701-24cf-4fcf-9974-8e4a18804520","ios":"levelo://app?vid=49fc2701-24cf-4fcf-9974-8e4a18804520"},"vehicle_type_id":"4","last_reported":1716408478,"current_range_meters":4000,"station_id":"ce4bhqp2rcd13ifvqhng","pricing_plan_id":"cebpf4jnsgd1na2vs0mg"},{"bike_id":"a40c36d6-7e8d-4acf-a32b-7e713b32264b","system_id":"levelo_inurba_marseille","lat":43.3176,"lon":5.39019,"is_reserved":false,"is_disabled":false,"rental_uris":{"android":"levelo://app?vid=a40c36d6-7e8d-4acf-a32b-7e713b32264b","ios":"levelo://app?vid=a40c36d6-7e8d-4acf-a32b-7e713b32264b"},"vehicle_type_id":"4","last_reported":1716408478,"current_range_meters":0,"station_id":"ce4bhqp2rcd13ifvqhng","pricing_plan_id":"cebpf4jnsgd1na2vs0mg"},{"bike_id":"0a0b43fe-a962-4939-ba8f-735e260f9923","system_id":"levelo_inurba_marseille","lat":43.31757,"lon":5.39022,"is_reserved":false,"is_disabled":false,"rental_uris":{"android":"levelo://app?vid=0a0b43fe-a962-4939-ba8f-735e260f9923","ios":"levelo://app?vid=0a0b43fe-a962-4939-ba8f-735e260f9923"},"vehicle_type_id":"4","last_reported":1716408478,"current_range_meters":9600,"station_id":"ce4bhqp2rcd13ifvqhng","pricing_plan_id":"cebpf4jnsgd1na2vs0mg"},{"bike_id":"af0b922e-ed32-417d-ada6-1d26710f9b1a","system_id":"levelo_inurba_marseille","lat":43.317636,"lon":5.390219,"is_reserved":false,"is_disabled":false,"rental_uris":{"android":"levelo://app?vid=af0b922e-ed32-417d-ada6-1d26710f9b1a","ios":"levelo://app?vid=af0b922e-ed32-417d-ada6-1d26710f9b1a"},"vehicle_type_id":"4","last_reported":1716408478,"current_range_meters":8400,"station_id":"ce4bhqp2rcd13ifvqhng","pricing_plan_id":"cebpf4jnsgd1na2vs0mg"},{"bike_id":"44bc996b-c216-44a5-83e4-517cc1a70aa4","system_id":"levelo_inurba_marseille","lat":43.32262,"lon":5.3874,"is_reserved":false,"is_disabled":false,"rental_uris":{"android":"levelo://app?vid=44bc996b-c216-44a5-83e4-517cc1a70aa4","ios":"levelo://app?vid=44bc996b-c216-44a5-83e4-517cc1a70aa4"},"vehicle_type_id":"4","last_reported":1716408478,"current_range_meters":30000,"station_id":"","pricing_plan_id":"cebpf4jnsgd1na2vs0mg"},{"bike_id":"9da91a8e-fa80-43ed-a642-a7833e014f11","system_id":"levelo_inurba_marseille","lat":43.298037,"lon":5.381066,"is_reserved":false,"is_disabled":false,"rental_uris":{"android":"levelo://app?vid=9da91a8e-fa80-43ed-a642-a7833e014f11","ios":"levelo://app?vid=9da91a8e-fa80-43ed-a642-a7833e014f11"},"vehicle_type_id":"4","last_reported":1716408478,"current_range_meters":7600,"station_id":"ce4bgip2rcd13ifvqbb0","pricing_plan_id":"cebpf4jnsgd1na2vs0mg"},{"bike_id":"c9edddd6-44d5-4305-86e2-4723df769855","system_id":"levelo_inurba_marseille","lat":43.298037,"lon":5.381066,"is_reserved":false,"is_disabled":false,"rental_uris":{"android":"levelo://app?vid=c9edddd6-44d5-4305-86e2-4723df769855","ios":"levelo://app?vid=c9edddd6-44d5-4305-86e2-4723df769855"},"vehicle_type_id":"4","last_reported":1716408478,"current_range_meters":9200,"station_id":"ce4bgip2rcd13ifvqbb0","pricing_plan_id":"cebpf4jnsgd1na2vs0mg"},{"bike_id":"7bdbd5ba-2ea9-4e8f-9bb0-b26974b5f095","system_id":"levelo_inurba_marseille","lat":43.295748,"lon":5.37522,"is_reserved":false,"is_disabled":false,"rental_uris":{"android":"levelo://app?vid=7bdbd5ba-2ea9-4e8f-9bb0-b26974b5f095","ios":"levelo://app?vid=7bdbd5ba-2ea9-4e8f-9bb0-b26974b5f095"},"vehicle_type_id":"4","last_reported":1716408478,"current_range_meters":16400,"station_id":"ce4bgh92rcd13ifvqb50","pricing_plan_id":"cebpf4jnsgd1na2vs0mg"},{"bike_id":"59de5501-3459-4506-adbd-69bbf6bd6dd4","system_id":"levelo_inurba_marseille","lat":43.30434,"lon":5.3888,"is_reserved":false,"is_disabled":false,"rental_uris":{"android":"levelo://app?vid=59de5501-3459-4506-adbd-69bbf6bd6dd4","ios":"levelo://app?vid=59de5501-3459-4506-adbd-69bbf6bd6dd4"},"vehicle_type_id":"4","last_reported":1716408478,"current_range_meters":22000,"station_id":"ce4bgk12rcd13ifvqbi0","pricing_plan_id":"cebpf4jnsgd1na2vs0mg"},{"bike_id":"06cbb78a-490e-422a-bbd5-fa02eb924605","system_id":"levelo_inurba_marseille","lat":43.30435,"lon":5.38884,"is_reserved":false,"is_disabled":false,"rental_uris":{"android":"levelo://app?vid=06cbb78a-490e-422a-bbd5-fa02eb924605","ios":"levelo://app?vid=06cbb78a-490e-422a-bbd5-fa02eb924605"},"vehicle_type_id":"4","last_reported":1716408478,"current_range_meters":25600,"station_id":"ce4bgk12rcd13ifvqbi0","pricing_plan_id":"cebpf4jnsgd1na2vs0mg"},{"bike_id":"923d59ed-5b19-49a7-b67f-3d779cac6ba5","system_id":"levelo_inurba_marseille","lat":43.295748,"lon":5.37522,"is_reserved":false,"is_disabled":false,"rental_uris":{"android":"levelo://app?vid=923d59ed-5b19-49a7-b67f-3d779cac6ba5","ios":"levelo://app?vid=923d59ed-5b19-49a7-b67f-3d779cac6ba5"},"vehicle_type_id":"4","last_reported":1716408478,"current_range_meters":27600,"station_id":"ce4bgh92rcd13ifvqb50","pricing_plan_id":"cebpf4jnsgd1na2vs0mg"},{"bike_id":"2410f360-6844-4cbb-8804-a4a88e56f43e","system_id":"levelo_inurba_marseille","lat":43.298037,"lon":5.381066,"is_reserved":false,"is_disabled":false,"rental_uris":{"android":"levelo://app?vid=2410f360-6844-4cbb-8804-a4a88e56f43e","ios":"levelo://app?vid=2410f360-6844-4cbb-8804-a4a88e56f43e"},"vehicle_type_id":"4","last_reported":1716408478,"current_range_meters":2400,"station_id":"ce4bgip2rcd13ifvqbb0","pricing_plan_id":"cebpf4jnsgd1na2vs0mg"},{"bike_id":"bfbf84e6-7cf9-45bb-82d9-3c2d55258fc7","system_id":"levelo_inurba_marseille","lat":43.298037,"lon":5.381066,"is_reserved":false,"is_disabled":false,"rental_uris":{"android":"levelo://app?vid=bfbf84e6-7cf9-45bb-82d9-3c2d55258fc7","ios":"levelo://app?vid=bfbf84e6-7cf9-45bb-82d9-3c2d55258fc7"},"vehicle_type_id":"4","last_reported":1716408478,"current_range_meters":8800,"station_id":"ce4bgip2rcd13ifvqbb0","pricing_plan_id":"cebpf4jnsgd1na2vs0mg"},{"bike_id":"900cbeda-50c0-43aa-a444-30b53dd9da0a","system_id":"levelo_inurba_marseille","lat":43.30439,"lon":5.3889,"is_reserved":false,"is_disabled":false,"rental_uris":{"android":"levelo://app?vid=900cbeda-50c0-43aa-a444-30b53dd9da0a","ios":"levelo://app?vid=900cbeda-50c0-43aa-a444-30b53dd9da0a"},"vehicle_type_id":"4","last_reported":1716408478,"current_range_meters":25200,"station_id":"","pricing_plan_id":"cebpf4jnsgd1na2vs0mg"},{"bike_id":"f0bb9cc9-2832-432c-a2f9-80fcc535209c","system_id":"levelo_inurba_marseille","lat":43.30438,"lon":5.3889,"is_reserved":false,"is_disabled":false,"rental_uris":{"android":"levelo://app?vid=f0bb9cc9-2832-432c-a2f9-80fcc535209c","ios":"levelo://app?vid=f0bb9cc9-2832-432c-a2f9-80fcc535209c"},"vehicle_type_id":"4","last_reported":1716408478,"current_range_meters":16000,"station_id":"ce4bgk12rcd13ifvqbi0","pricing_plan_id":"cebpf4jnsgd1na2vs0mg"},{"bike_id":"03d6a584-b405-452d-ab41-ea119b2c8ada","system_id":"levelo_inurba_marseille","lat":43.295748,"lon":5.37522,"is_reserved":false,"is_disabled":false,"rental_uris":{"android":"levelo://app?vid=03d6a584-b405-452d-ab41-ea119b2c8ada","ios":"levelo://app?vid=03d6a584-b405-452d-ab41-ea119b2c8ada"},"vehicle_type_id":"4","last_reported":1716408478,"current_range_meters":0,"station_id":"ce4bgh92rcd13ifvqb50","pricing_plan_id":"cebpf4jnsgd1na2vs0mg"},{"bike_id":"09bee0f1-18eb-4c3b-9398-1b370b7b458c","system_id":"levelo_inurba_marseille","lat":43.30428,"lon":5.38885,"is_reserved":false,"is_disabled":false,"rental_uris":{"android":"levelo://app?vid=09bee0f1-18eb-4c3b-9398-1b370b7b458c","ios":"levelo://app?vid=09bee0f1-18eb-4c3b-9398-1b370b7b458c"},"vehicle_type_id":"4","last_reported":1716408478,"current_range_meters":25600,"station_id":"ce4bgk12rcd13ifvqbi0","pricing_plan_id":"cebpf4jnsgd1na2vs0mg"},{"bike_id":"b5bbb6f7-09c0-4ac0-bc6c-cafc3248cebf","system_id":"levelo_inurba_marseille","lat":43.296277,"lon":5.377108,"is_reserved":false,"is_disabled":false,"rental_uris":{"android":"levelo://app?vid=b5bbb6f7-09c0-4ac0-bc6c-cafc3248cebf","ios":"levelo://app?vid=b5bbb6f7-09c0-4ac0-bc6c-cafc3248cebf"},"vehicle_type_id":"4","last_reported":1716408478,"current_range_meters":8800,"station_id":"ce4bgi92rcd13ifvqb90","pricing_plan_id":"cebpf4jnsgd1na2vs0mg"},{"bike_id":"8c6c6afd-a766-442c-aee2-c7e548ad4e83","system_id":"levelo_inurba_marseille","lat":43.304278,"lon":5.388868,"is_reserved":false,"is_disabled":false,"rental_uris":{"android":"levelo://app?vid=8c6c6afd-a766-442c-aee2-c7e548ad4e83","ios":"levelo://app?vid=8c6c6afd-a766-442c-aee2-c7e548ad4e83"},"vehicle_type_id":"4","last_reported":1716408478,"current_range_meters":26000,"station_id":"ce4bgk12rcd13ifvqbi0","pricing_plan_id":"cebpf4jnsgd1na2vs0mg"},{"bike_id":"d9cbece1-16f6-47fb-95a9-85c4219a1141","system_id":"levelo_inurba_marseille","lat":43.304278,"lon":5.388868,"is_reserved":false,"is_disabled":false,"rental_uris":{"android":"levelo://app?vid=d9cbece1-16f6-47fb-95a9-85c4219a1141","ios":"levelo://app?vid=d9cbece1-16f6-47fb-95a9-85c4219a1141"},"vehicle_type_id":"4","last_reported":1716408478,"current_range_meters":27600,"station_id":"ce4bgk12rcd13ifvqbi0","pricing_plan_id":"cebpf4jnsgd1na2vs0mg"},{"bike_id":"081f5912-49fc-4763-a57e-3f42c2e12a60","system_id":"levelo_inurba_marseille","lat":43.304278,"lon":5.388868,"is_reserved":false,"is_disabled":false,"rental_uris":{"android":"levelo://app?vid=081f5912-49fc-4763-a57e-3f42c2e12a60","ios":"levelo://app?vid=081f5912-49fc-4763-a57e-3f42c2e12a60"},"vehicle_type_id":"4","last_reported":1716408478,"current_range_meters":20000,"station_id":"ce4bgk12rcd13ifvqbi0","pricing_plan_id":"cebpf4jnsgd1na2vs0mg"},{"bike_id":"4b863911-606e-4fa8-9a14-6eed42f489e6","system_id":"levelo_inurba_marseille","lat":43.295748,"lon":5.37522,"is_reserved":false,"is_disabled":false,"rental_uris":{"android":"levelo://app?vid=4b863911-606e-4fa8-9a14-6eed42f489e6","ios":"levelo://app?vid=4b863911-606e-4fa8-9a14-6eed42f489e6"},"vehicle_type_id":"4","last_reported":1716408478,"current_range_meters":28800,"station_id":"ce4bgh92rcd13ifvqb50","pricing_plan_id":"cebpf4jnsgd1na2vs0mg"},{"bike_id":"ae35da67-94b1-4a72-a6de-5fdba117b7d8","system_id":"levelo_inurba_marseille","lat":43.304278,"lon":5.388868,"is_reserved":false,"is_disabled":false,"rental_uris":{"android":"levelo://app?vid=ae35da67-94b1-4a72-a6de-5fdba117b7d8","ios":"levelo://app?vid=ae35da67-94b1-4a72-a6de-5fdba117b7d8"},"vehicle_type_id":"4","last_reported":1716408478,"current_range_meters":10000,"station_id":"ce4bgk12rcd13ifvqbi0","pricing_plan_id":"cebpf4jnsgd1na2vs0mg"},{"bike_id":"270619a3-e8ff-4234-8073-e1d077350bb3","system_id":"levelo_inurba_marseille","lat":43.304278,"lon":5.388868,"is_reserved":false,"is_disabled":false,"rental_uris":{"android":"levelo://app?vid=270619a3-e8ff-4234-8073-e1d077350bb3","ios":"levelo://app?vid=270619a3-e8ff-4234-8073-e1d077350bb3"},"vehicle_type_id":"4","last_reported":1716408478,"current_range_meters":6000,"station_id":"ce4bgk12rcd13ifvqbi0","pricing_plan_id":"cebpf4jnsgd1na2vs0mg"},{"bike_id":"7b65b3f2-d84b-449c-a04e-76310bf47040","system_id":"levelo_inurba_marseille","lat":43.304274,"lon":5.388873,"is_reserved":false,"is_disabled":false,"rental_uris":{"android":"levelo://app?vid=7b65b3f2-d84b-449c-a04e-76310bf47040","ios":"levelo://app?vid=7b65b3f2-d84b-449c-a04e-76310bf47040"},"vehicle_type_id":"4","last_reported":1716408478,"current_range_meters":28000,"station_id":"ce4bgk12rcd13ifvqbi0","pricing_plan_id":"cebpf4jnsgd1na2vs0mg"},{"bike_id":"e1c8bd6c-5108-4add-a24a-0d84312fc961","system_id":"levelo_inurba_marseille","lat":43.304278,"lon":5.388868,"is_reserved":false,"is_disabled":false,"rental_uris":{"android":"levelo://app?vid=e1c8bd6c-5108-4add-a24a-0d84312fc961","ios":"levelo://app?vid=e1c8bd6c-5108-4add-a24a-0d84312fc961"},"vehicle_type_id":"4","last_reported":1716408478,"current_range_meters":10800,"station_id":"ce4bgk12rcd13ifvqbi0","pricing_plan_id":"cebpf4jnsgd1na2vs0mg"},{"bike_id":"48daa850-17fd-4e2f-bdb2-fb3e12ae42a6","system_id":"levelo_inurba_marseille","lat":43.304274,"lon":5.388873,"is_reserved":false,"is_disabled":false,"rental_uris":{"android":"levelo://app?vid=48daa850-17fd-4e2f-bdb2-fb3e12ae42a6","ios":"levelo://app?vid=48daa850-17fd-4e2f-bdb2-fb3e12ae42a6"},"vehicle_type_id":"4","last_reported":1716408478,"current_range_meters":24400,"station_id":"ce4bgk12rcd13ifvqbi0","pricing_plan_id":"cebpf4jnsgd1na2vs0mg"},{"bike_id":"866e414f-7220-4918-b3f3-76607eb2573a","system_id":"levelo_inurba_marseille","lat":43.3042,"lon":5.38887,"is_reserved":false,"is_disabled":false,"rental_uris":{"android":"levelo://app?vid=866e414f-7220-4918-b3f3-76607eb2573a","ios":"levelo://app?vid=866e414f-7220-4918-b3f3-76607eb2573a"},"vehicle_type_id":"4","last_reported":1716408478,"current_range_meters":400,"station_id":"ce4bgk12rcd13ifvqbi0","pricing_plan_id":"cebpf4jnsgd1na2vs0mg"},{"bike_id":"cc8ee8fb-daf4-4909-8f4d-b9e9d9632dee","system_id":"levelo_inurba_marseille","lat":43.296263,"lon":5.377094,"is_reserved":false,"is_disabled":false,"rental_uris":{"android":"levelo://app?vid=cc8ee8fb-daf4-4909-8f4d-b9e9d9632dee","ios":"levelo://app?vid=cc8ee8fb-daf4-4909-8f4d-b9e9d9632dee"},"vehicle_type_id":"4","last_reported":1716408478,"current_range_meters":1600,"station_id":"ce4bgi92rcd13ifvqb90","pricing_plan_id":"cebpf4jnsgd1na2vs0mg"},{"bike_id":"6e151758-5057-4aff-bb39-2c2120876c59","system_id":"levelo_inurba_marseille","lat":43.29621,"lon":5.37722,"is_reserved":false,"is_disabled":false,"rental_uris":{"android":"levelo://app?vid=6e151758-5057-4aff-bb39-2c2120876c59","ios":"levelo://app?vid=6e151758-5057-4aff-bb39-2c2120876c59"},"vehicle_type_id":"4","last_reported":1716408478,"current_range_meters":3600,"station_id":"ce4bgi92rcd13ifvqb90","pricing_plan_id":"cebpf4jnsgd1na2vs0mg"},{"bike_id":"4dd28d4a-b419-4130-80cf-1a46b0ef2b4d","system_id":"levelo_inurba_marseille","lat":43.304278,"lon":5.388868,"is_reserved":false,"is_disabled":false,"rental_uris":{"android":"levelo://app?vid=4dd28d4a-b419-4130-80cf-1a46b0ef2b4d","ios":"levelo://app?vid=4dd28d4a-b419-4130-80cf-1a46b0ef2b4d"},"vehicle_type_id":"4","last_reported":1716408478,"current_range_meters":6800,"station_id":"ce4bgk12rcd13ifvqbi0","pricing_plan_id":"cebpf4jnsgd1na2vs0mg"},{"bike_id":"f5fb7120-a253-4dfe-be39-c24bde193c0f","system_id":"levelo_inurba_marseille","lat":43.29768,"lon":5.381019,"is_reserved":false,"is_disabled":false,"rental_uris":{"android":"levelo://app?vid=f5fb7120-a253-4dfe-be39-c24bde193c0f","ios":"levelo://app?vid=f5fb7120-a253-4dfe-be39-c24bde193c0f"},"vehicle_type_id":"4","last_reported":1716408478,"current_range_meters":0,"station_id":"ce4bgip2rcd13ifvqbb0","pricing_plan_id":"cebpf4jnsgd1na2vs0mg"},{"bike_id":"a239195e-eabc-4c2a-9954-5f7d10acfd22","system_id":"levelo_inurba_marseille","lat":43.299707,"lon":5.384859,"is_reserved":false,"is_disabled":false,"rental_uris":{"android":"levelo://app?vid=a239195e-eabc-4c2a-9954-5f7d10acfd22","ios":"levelo://app?vid=a239195e-eabc-4c2a-9954-5f7d10acfd22"},"vehicle_type_id":"4","last_reported":1716408478,"current_range_meters":28000,"station_id":"ce4bgj92rcd13ifvqbd0","pricing_plan_id":"cebpf4jnsgd1na2vs0mg"},{"bike_id":"e5772652-c8d2-4987-87d2-f7fe5ccfc454","system_id":"levelo_inurba_marseille","lat":43.299717,"lon":5.384845,"is_reserved":false,"is_disabled":false,"rental_uris":{"android":"levelo://app?vid=e5772652-c8d2-4987-87d2-f7fe5ccfc454","ios":"levelo://app?vid=e5772652-c8d2-4987-87d2-f7fe5ccfc454"},"vehicle_type_id":"4","last_reported":1716408478,"current_range_meters":400,"station_id":"ce4bgj92rcd13ifvqbd0","pricing_plan_id":"cebpf4jnsgd1na2vs0mg"},{"bike_id":"56e634ae-3e48-4ca9-b4c0-5a498bf13f8f","system_id":"levelo_inurba_marseille","lat":43.295295,"lon":5.375023,"is_reserved":false,"is_disabled":false,"rental_uris":{"android":"levelo://app?vid=56e634ae-3e48-4ca9-b4c0-5a498bf13f8f","ios":"levelo://app?vid=56e634ae-3e48-4ca9-b4c0-5a498bf13f8f"},"vehicle_type_id":"4","last_reported":1716408478,"current_range_meters":0,"station_id":"ce4bgkp2rcd13ifvqbmg","pricing_plan_id":"cebpf4jnsgd1na2vs0mg"},{"bike_id":"d014cf3e-048b-41f0-8f75-4b7171a47831","system_id":"levelo_inurba_marseille","lat":43.299707,"lon":5.384859,"is_reserved":false,"is_disabled":false,"rental_uris":{"android":"levelo://app?vid=d014cf3e-048b-41f0-8f75-4b7171a47831","ios":"levelo://app?vid=d014cf3e-048b-41f0-8f75-4b7171a47831"},"vehicle_type_id":"4","last_reported":1716408478,"current_range_meters":32000,"station_id":"ce4bgj92rcd13ifvqbd0","pricing_plan_id":"cebpf4jnsgd1na2vs0mg"},{"bike_id":"63f84179-8f39-4c8b-a46f-ca1c3f79ac12","system_id":"levelo_inurba_marseille","lat":43.29969,"lon":5.38491,"is_reserved":false,"is_disabled":false,"rental_uris":{"android":"levelo://app?vid=63f84179-8f39-4c8b-a46f-ca1c3f79ac12","ios":"levelo://app?vid=63f84179-8f39-4c8b-a46f-ca1c3f79ac12"},"vehicle_type_id":"4","last_reported":1716408478,"current_range_meters":24800,"station_id":"ce4bgj92rcd13ifvqbd0","pricing_plan_id":"cebpf4jnsgd1na2vs0mg"},{"bike_id":"de6523d0-ea2a-4114-b204-4430b957242a","system_id":"levelo_inurba_marseille","lat":43.2997,"lon":5.38499,"is_reserved":false,"is_disabled":false,"rental_uris":{"android":"levelo://app?vid=de6523d0-ea2a-4114-b204-4430b957242a","ios":"levelo://app?vid=de6523d0-ea2a-4114-b204-4430b957242a"},"vehicle_type_id":"4","last_reported":1716408478,"current_range_meters":24800,"station_id":"ce4bgj92rcd13ifvqbd0","pricing_plan_id":"cebpf4jnsgd1na2vs0mg"},{"bike_id":"801d15df-bdd2-4504-be1f-27a16d60d5cf","system_id":"levelo_inurba_marseille","lat":43.295279,"lon":5.375048,"is_reserved":false,"is_disabled":false,"rental_uris":{"android":"levelo://app?vid=801d15df-bdd2-4504-be1f-27a16d60d5cf","ios":"levelo://app?vid=801d15df-bdd2-4504-be1f-27a16d60d5cf"},"vehicle_type_id":"4","last_reported":1716408478,"current_range_meters":30400,"station_id":"ce4bgkp2rcd13ifvqbmg","pricing_plan_id":"cebpf4jnsgd1na2vs0mg"},{"bike_id":"78252e3e-8eff-4ccb-a142-6526e4cc39f4","system_id":"levelo_inurba_marseille","lat":43.30089,"lon":5.38729,"is_reserved":false,"is_disabled":false,"rental_uris":{"android":"levelo://app?vid=78252e3e-8eff-4ccb-a142-6526e4cc39f4","ios":"levelo://app?vid=78252e3e-8eff-4ccb-a142-6526e4cc39f4"},"vehicle_type_id":"4","last_reported":1716408478,"current_range_meters":10800,"station_id":"","pricing_plan_id":"cebpf4jnsgd1na2vs0mg"},{"bike_id":"69ade453-1d42-4a71-8709-57ff8ced735b","system_id":"levelo_inurba_marseille","lat":43.29486,"lon":5.3761,"is_reserved":false,"is_disabled":false,"rental_uris":{"android":"levelo://app?vid=69ade453-1d42-4a71-8709-57ff8ced735b","ios":"levelo://app?vid=69ade453-1d42-4a71-8709-57ff8ced735b"},"vehicle_type_id":"4","last_reported":1716408478,"current_range_meters":19200,"station_id":"","pricing_plan_id":"cebpf4jnsgd1na2vs0mg"},{"bike_id":"26a2b57b-3711-4923-a3a9-0ab9df44db2c","system_id":"levelo_inurba_marseille","lat":43.32366,"lon":5.38878,"is_reserved":false,"is_disabled":false,"rental_uris":{"android":"levelo://app?vid=26a2b57b-3711-4923-a3a9-0ab9df44db2c","ios":"levelo://app?vid=26a2b57b-3711-4923-a3a9-0ab9df44db2c"},"vehicle_type_id":"4","last_reported":1716408478,"current_range_meters":8800,"station_id":"ce4bhqp2rcd13ifvqhog","pricing_plan_id":"cebpf4jnsgd1na2vs0mg"},{"bike_id":"7154147b-2101-4a26-aa81-2d1411af62c5","system_id":"levelo_inurba_marseille","lat":43.323644,"lon":5.388825,"is_reserved":false,"is_disabled":false,"rental_uris":{"android":"levelo://app?vid=7154147b-2101-4a26-aa81-2d1411af62c5","ios":"levelo://app?vid=7154147b-2101-4a26-aa81-2d1411af62c5"},"vehicle_type_id":"4","last_reported":1716408478,"current_range_meters":22800,"station_id":"ce4bhqp2rcd13ifvqhog","pricing_plan_id":"cebpf4jnsgd1na2vs0mg"},{"bike_id":"19c0329d-89e4-44c6-9ae4-5221645bc69e","system_id":"levelo_inurba_marseille","lat":43.32368,"lon":5.3888,"is_reserved":false,"is_disabled":false,"rental_uris":{"android":"levelo://app?vid=19c0329d-89e4-44c6-9ae4-5221645bc69e","ios":"levelo://app?vid=19c0329d-89e4-44c6-9ae4-5221645bc69e"},"vehicle_type_id":"4","last_reported":1716408478,"current_range_meters":18000,"station_id":"ce4bhqp2rcd13ifvqhog","pricing_plan_id":"cebpf4jnsgd1na2vs0mg"},{"bike_id":"f2b1928f-d00d-429f-b030-f29948fdd1bf","system_id":"levelo_inurba_marseille","lat":43.32367,"lon":5.388836,"is_reserved":false,"is_disabled":false,"rental_uris":{"android":"levelo://app?vid=f2b1928f-d00d-429f-b030-f29948fdd1bf","ios":"levelo://app?vid=f2b1928f-d00d-429f-b030-f29948fdd1bf"},"vehicle_type_id":"4","last_reported":1716408478,"current_range_meters":23200,"station_id":"ce4bhqp2rcd13ifvqhog","pricing_plan_id":"cebpf4jnsgd1na2vs0mg"},{"bike_id":"7b70dfad-9b19-4aee-833a-e62b09d5d46d","system_id":"levelo_inurba_marseille","lat":43.311207,"lon":5.393447,"is_reserved":false,"is_disabled":false,"rental_uris":{"android":"levelo://app?vid=7b70dfad-9b19-4aee-833a-e62b09d5d46d","ios":"levelo://app?vid=7b70dfad-9b19-4aee-833a-e62b09d5d46d"},"vehicle_type_id":"4","last_reported":1716408478,"current_range_meters":12400,"station_id":"","pricing_plan_id":"cebpf4jnsgd1na2vs0mg"},{"bike_id":"a37113cc-2f33-48b2-8d3c-aab2304d5194","system_id":"levelo_inurba_marseille","lat":43.29405,"lon":5.37411,"is_reserved":false,"is_disabled":false,"rental_uris":{"android":"levelo://app?vid=a37113cc-2f33-48b2-8d3c-aab2304d5194","ios":"levelo://app?vid=a37113cc-2f33-48b2-8d3c-aab2304d5194"},"vehicle_type_id":"4","last_reported":1716408478,"current_range_meters":0,"station_id":"ce4bgop2rcd13ifvqc1g","pricing_plan_id":"cebpf4jnsgd1na2vs0mg"},{"bike_id":"d987e0b4-58cf-40f9-b65b-0136a10defbb","system_id":"levelo_inurba_marseille","lat":43.295796,"lon":5.380578,"is_reserved":false,"is_disabled":false,"rental_uris":{"android":"levelo://app?vid=d987e0b4-58cf-40f9-b65b-0136a10defbb","ios":"levelo://app?vid=d987e0b4-58cf-40f9-b65b-0136a10defbb"},"vehicle_type_id":"4","last_reported":1716408478,"current_range_meters":8800,"station_id":"ce4bgl12rcd13ifvqbo0","pricing_plan_id":"cebpf4jnsgd1na2vs0mg"},{"bike_id":"85c12468-32f7-4874-8846-c06b5fc60eab","system_id":"levelo_inurba_marseille","lat":43.29602,"lon":5.381084,"is_reserved":false,"is_disabled":false,"rental_uris":{"android":"levelo://app?vid=85c12468-32f7-4874-8846-c06b5fc60eab","ios":"levelo://app?vid=85c12468-32f7-4874-8846-c06b5fc60eab"},"vehicle_type_id":"4","last_reported":1716408478,"current_range_meters":26000,"station_id":"ce4bgl12rcd13ifvqbo0","pricing_plan_id":"cebpf4jnsgd1na2vs0mg"},{"bike_id":"0fb0662c-27a4-4af5-bb25-bce4abf70113","system_id":"levelo_inurba_marseille","lat":43.315886,"lon":5.393769,"is_reserved":false,"is_disabled":false,"rental_uris":{"android":"levelo://app?vid=0fb0662c-27a4-4af5-bb25-bce4abf70113","ios":"levelo://app?vid=0fb0662c-27a4-4af5-bb25-bce4abf70113"},"vehicle_type_id":"4","last_reported":1716408478,"current_range_meters":17200,"station_id":"","pricing_plan_id":"cebpf4jnsgd1na2vs0mg"},{"bike_id":"68b15ea0-d460-4858-8466-c8140cd7d2d0","system_id":"levelo_inurba_marseille","lat":43.293115,"lon":5.371718,"is_reserved":false,"is_disabled":false,"rental_uris":{"android":"levelo://app?vid=68b15ea0-d460-4858-8466-c8140cd7d2d0","ios":"levelo://app?vid=68b15ea0-d460-4858-8466-c8140cd7d2d0"},"vehicle_type_id":"4","last_reported":1716408478,"current_range_meters":0,"station_id":"ce4bgh92rcd13ifvqb40","pricing_plan_id":"cebpf4jnsgd1na2vs0mg"},{"bike_id":"5dfdd214-4c6a-4041-8c17-60bff5eac86a","system_id":"levelo_inurba_marseille","lat":43.292749,"lon":5.368402,"is_reserved":false,"is_disabled":false,"rental_uris":{"android":"levelo://app?vid=5dfdd214-4c6a-4041-8c17-60bff5eac86a","ios":"levelo://app?vid=5dfdd214-4c6a-4041-8c17-60bff5eac86a"},"vehicle_type_id":"4","last_reported":1716408478,"current_range_meters":30400,"station_id":"ce4bhbp2rcd13ifvqesg","pricing_plan_id":"cebpf4jnsgd1na2vs0mg"},{"bike_id":"df0a0297-3c97-4a4d-b38c-f05bfdda998d","system_id":"levelo_inurba_marseille","lat":43.292749,"lon":5.368402,"is_reserved":false,"is_disabled":false,"rental_uris":{"android":"levelo://app?vid=df0a0297-3c97-4a4d-b38c-f05bfdda998d","ios":"levelo://app?vid=df0a0297-3c97-4a4d-b38c-f05bfdda998d"},"vehicle_type_id":"4","last_reported":1716408478,"current_range_meters":30800,"station_id":"ce4bhbp2rcd13ifvqesg","pricing_plan_id":"cebpf4jnsgd1na2vs0mg"},{"bike_id":"a4229c32-7eed-4f3c-8997-09c5fb051b8d","system_id":"levelo_inurba_marseille","lat":43.305994,"lon":5.393687,"is_reserved":false,"is_disabled":false,"rental_uris":{"android":"levelo://app?vid=a4229c32-7eed-4f3c-8997-09c5fb051b8d","ios":"levelo://app?vid=a4229c32-7eed-4f3c-8997-09c5fb051b8d"},"vehicle_type_id":"4","last_reported":1716408478,"current_range_meters":4800,"station_id":"ce4bh0p2rcd13ifvqd80","pricing_plan_id":"cebpf4jnsgd1na2vs0mg"},{"bike_id":"0e249feb-6fb5-47db-8bb7-9c11143199ba","system_id":"levelo_inurba_marseille","lat":43.305994,"lon":5.393687,"is_reserved":false,"is_disabled":false,"rental_uris":{"android":"levelo://app?vid=0e249feb-6fb5-47db-8bb7-9c11143199ba","ios":"levelo://app?vid=0e249feb-6fb5-47db-8bb7-9c11143199ba"},"vehicle_type_id":"4","last_reported":1716408478,"current_range_meters":0,"station_id":"ce4bh0p2rcd13ifvqd80","pricing_plan_id":"cebpf4jnsgd1na2vs0mg"},{"bike_id":"5b0c6dff-2412-47b3-b1c9-20ff6e65fdf8","system_id":"levelo_inurba_marseille","lat":43.305994,"lon":5.393687,"is_reserved":false,"is_disabled":false,"rental_uris":{"android":"levelo://app?vid=5b0c6dff-2412-47b3-b1c9-20ff6e65fdf8","ios":"levelo://app?vid=5b0c6dff-2412-47b3-b1c9-20ff6e65fdf8"},"vehicle_type_id":"4","last_reported":1716408478,"current_range_meters":4000,"station_id":"ce4bh0p2rcd13ifvqd80","pricing_plan_id":"cebpf4jnsgd1na2vs0mg"},{"bike_id":"f0001e52-274d-4aa7-b971-0a5af522dd11","system_id":"levelo_inurba_marseille","lat":43.30085,"lon":5.390856,"is_reserved":false,"is_disabled":false,"rental_uris":{"android":"levelo://app?vid=f0001e52-274d-4aa7-b971-0a5af522dd11","ios":"levelo://app?vid=f0001e52-274d-4aa7-b971-0a5af522dd11"},"vehicle_type_id":"4","last_reported":1716408478,"current_range_meters":23600,"station_id":"ce4bh192rcd13ifvqdb0","pricing_plan_id":"cebpf4jnsgd1na2vs0mg"},{"bike_id":"b7102823-ba94-4b6d-8656-e4a7fb02b67b","system_id":"levelo_inurba_marseille","lat":43.303002,"lon":5.392142,"is_reserved":false,"is_disabled":false,"rental_uris":{"android":"levelo://app?vid=b7102823-ba94-4b6d-8656-e4a7fb02b67b","ios":"levelo://app?vid=b7102823-ba94-4b6d-8656-e4a7fb02b67b"},"vehicle_type_id":"4","last_reported":1716408478,"current_range_meters":6000,"station_id":"ce4bgkh2rcd13ifvqbk0","pricing_plan_id":"cebpf4jnsgd1na2vs0mg"},{"bike_id":"f755e27d-41cf-47c8-81d6-fa5eca3ccce3","system_id":"levelo_inurba_marseille","lat":43.303014,"lon":5.392028,"is_reserved":false,"is_disabled":false,"rental_uris":{"android":"levelo://app?vid=f755e27d-41cf-47c8-81d6-fa5eca3ccce3","ios":"levelo://app?vid=f755e27d-41cf-47c8-81d6-fa5eca3ccce3"},"vehicle_type_id":"4","last_reported":1716408478,"current_range_meters":12800,"station_id":"ce4bgkh2rcd13ifvqbk0","pricing_plan_id":"cebpf4jnsgd1na2vs0mg"},{"bike_id":"4d3bfd3c-add2-4fb1-9aa5-cd3990ba3c4a","system_id":"levelo_inurba_marseille","lat":43.303002,"lon":5.392142,"is_reserved":false,"is_disabled":false,"rental_uris":{"android":"levelo://app?vid=4d3bfd3c-add2-4fb1-9aa5-cd3990ba3c4a","ios":"levelo://app?vid=4d3bfd3c-add2-4fb1-9aa5-cd3990ba3c4a"},"vehicle_type_id":"4","last_reported":1716408478,"current_range_meters":21600,"station_id":"ce4bgkh2rcd13ifvqbk0","pricing_plan_id":"cebpf4jnsgd1na2vs0mg"},{"bike_id":"78f7ad5c-fa2e-4f51-9f75-f77dbcf4036e","system_id":"levelo_inurba_marseille","lat":43.302961,"lon":5.392042,"is_reserved":false,"is_disabled":false,"rental_uris":{"android":"levelo://app?vid=78f7ad5c-fa2e-4f51-9f75-f77dbcf4036e","ios":"levelo://app?vid=78f7ad5c-fa2e-4f51-9f75-f77dbcf4036e"},"vehicle_type_id":"4","last_reported":1716408478,"current_range_meters":0,"station_id":"ce4bgkh2rcd13ifvqbk0","pricing_plan_id":"cebpf4jnsgd1na2vs0mg"},{"bike_id":"d8711617-3152-44c7-969f-0165dfd68c96","system_id":"levelo_inurba_marseille","lat":43.303002,"lon":5.392142,"is_reserved":false,"is_disabled":false,"rental_uris":{"android":"levelo://app?vid=d8711617-3152-44c7-969f-0165dfd68c96","ios":"levelo://app?vid=d8711617-3152-44c7-969f-0165dfd68c96"},"vehicle_type_id":"4","last_reported":1716408478,"current_range_meters":24000,"station_id":"ce4bgkh2rcd13ifvqbk0","pricing_plan_id":"cebpf4jnsgd1na2vs0mg"},{"bike_id":"1c74bc7d-8321-4809-a103-a483936c9a5d","system_id":"levelo_inurba_marseille","lat":43.2936,"lon":5.37835,"is_reserved":false,"is_disabled":false,"rental_uris":{"android":"levelo://app?vid=1c74bc7d-8321-4809-a103-a483936c9a5d","ios":"levelo://app?vid=1c74bc7d-8321-4809-a103-a483936c9a5d"},"vehicle_type_id":"4","last_reported":1716408478,"current_range_meters":1200,"station_id":"ce4bgjh2rcd13ifvqbf0","pricing_plan_id":"cebpf4jnsgd1na2vs0mg"},{"bike_id":"7d8fc608-a451-4076-a2ec-50202f7412be","system_id":"levelo_inurba_marseille","lat":43.30085,"lon":5.390856,"is_reserved":false,"is_disabled":false,"rental_uris":{"android":"levelo://app?vid=7d8fc608-a451-4076-a2ec-50202f7412be","ios":"levelo://app?vid=7d8fc608-a451-4076-a2ec-50202f7412be"},"vehicle_type_id":"4","last_reported":1716408478,"current_range_meters":25600,"station_id":"ce4bh192rcd13ifvqdb0","pricing_plan_id":"cebpf4jnsgd1na2vs0mg"},{"bike_id":"f860269b-a62e-4f84-a2bd-b63946316b94","system_id":"levelo_inurba_marseille","lat":43.30103,"lon":5.39078,"is_reserved":false,"is_disabled":false,"rental_uris":{"android":"levelo://app?vid=f860269b-a62e-4f84-a2bd-b63946316b94","ios":"levelo://app?vid=f860269b-a62e-4f84-a2bd-b63946316b94"},"vehicle_type_id":"4","last_reported":1716408478,"current_range_meters":0,"station_id":"ce4bh192rcd13ifvqdb0","pricing_plan_id":"cebpf4jnsgd1na2vs0mg"},{"bike_id":"d68c0296-2820-4af8-b354-49bd155c1e60","system_id":"levelo_inurba_marseille","lat":43.30085,"lon":5.390856,"is_reserved":false,"is_disabled":false,"rental_uris":{"android":"levelo://app?vid=d68c0296-2820-4af8-b354-49bd155c1e60","ios":"levelo://app?vid=d68c0296-2820-4af8-b354-49bd155c1e60"},"vehicle_type_id":"4","last_reported":1716408478,"current_range_meters":19600,"station_id":"ce4bh192rcd13ifvqdb0","pricing_plan_id":"cebpf4jnsgd1na2vs0mg"},{"bike_id":"a2146a19-f074-470e-ad54-9a1fe87b9969","system_id":"levelo_inurba_marseille","lat":43.30085,"lon":5.390856,"is_reserved":false,"is_disabled":false,"rental_uris":{"android":"levelo://app?vid=a2146a19-f074-470e-ad54-9a1fe87b9969","ios":"levelo://app?vid=a2146a19-f074-470e-ad54-9a1fe87b9969"},"vehicle_type_id":"4","last_reported":1716408478,"current_range_meters":1600,"station_id":"ce4bh192rcd13ifvqdb0","pricing_plan_id":"cebpf4jnsgd1na2vs0mg"},{"bike_id":"f264db6e-8d8f-4b10-9a4c-ba236fb6b5ee","system_id":"levelo_inurba_marseille","lat":43.2936,"lon":5.37835,"is_reserved":false,"is_disabled":false,"rental_uris":{"android":"levelo://app?vid=f264db6e-8d8f-4b10-9a4c-ba236fb6b5ee","ios":"levelo://app?vid=f264db6e-8d8f-4b10-9a4c-ba236fb6b5ee"},"vehicle_type_id":"4","last_reported":1716408478,"current_range_meters":2000,"station_id":"ce4bgjh2rcd13ifvqbf0","pricing_plan_id":"cebpf4jnsgd1na2vs0mg"},{"bike_id":"1947fd53-5b50-4de8-8473-8cf203d93801","system_id":"levelo_inurba_marseille","lat":43.298764,"lon":5.388973,"is_reserved":false,"is_disabled":false,"rental_uris":{"android":"levelo://app?vid=1947fd53-5b50-4de8-8473-8cf203d93801","ios":"levelo://app?vid=1947fd53-5b50-4de8-8473-8cf203d93801"},"vehicle_type_id":"4","last_reported":1716408478,"current_range_meters":2000,"station_id":"ce4bh392rcd13ifvqdl0","pricing_plan_id":"cebpf4jnsgd1na2vs0mg"},{"bike_id":"473140b6-35df-4714-b49f-428a823fe5a5","system_id":"levelo_inurba_marseille","lat":43.3008,"lon":5.39097,"is_reserved":false,"is_disabled":false,"rental_uris":{"android":"levelo://app?vid=473140b6-35df-4714-b49f-428a823fe5a5","ios":"levelo://app?vid=473140b6-35df-4714-b49f-428a823fe5a5"},"vehicle_type_id":"4","last_reported":1716408478,"current_range_meters":25200,"station_id":"ce4bh192rcd13ifvqdb0","pricing_plan_id":"cebpf4jnsgd1na2vs0mg"},{"bike_id":"6ca6c9ab-f7e1-4371-9663-fbad7ec8b022","system_id":"levelo_inurba_marseille","lat":43.298764,"lon":5.388973,"is_reserved":false,"is_disabled":false,"rental_uris":{"android":"levelo://app?vid=6ca6c9ab-f7e1-4371-9663-fbad7ec8b022","ios":"levelo://app?vid=6ca6c9ab-f7e1-4371-9663-fbad7ec8b022"},"vehicle_type_id":"4","last_reported":1716408478,"current_range_meters":26800,"station_id":"ce4bh392rcd13ifvqdl0","pricing_plan_id":"cebpf4jnsgd1na2vs0mg"},{"bike_id":"c053ba48-20e7-4442-8491-3d948bfbe047","system_id":"levelo_inurba_marseille","lat":43.298764,"lon":5.388973,"is_reserved":false,"is_disabled":false,"rental_uris":{"android":"levelo://app?vid=c053ba48-20e7-4442-8491-3d948bfbe047","ios":"levelo://app?vid=c053ba48-20e7-4442-8491-3d948bfbe047"},"vehicle_type_id":"4","last_reported":1716408478,"current_range_meters":22800,"station_id":"ce4bh392rcd13ifvqdl0","pricing_plan_id":"cebpf4jnsgd1na2vs0mg"},{"bike_id":"125a5923-86d4-4c2f-9fea-7a1f464c922f","system_id":"levelo_inurba_marseille","lat":43.29874,"lon":5.38913,"is_reserved":false,"is_disabled":false,"rental_uris":{"android":"levelo://app?vid=125a5923-86d4-4c2f-9fea-7a1f464c922f","ios":"levelo://app?vid=125a5923-86d4-4c2f-9fea-7a1f464c922f"},"vehicle_type_id":"4","last_reported":1716408478,"current_range_meters":0,"station_id":"ce4bh392rcd13ifvqdl0","pricing_plan_id":"cebpf4jnsgd1na2vs0mg"},{"bike_id":"4acdd886-2cc8-4e72-a0da-207da0934b84","system_id":"levelo_inurba_marseille","lat":43.298723,"lon":5.389173,"is_reserved":false,"is_disabled":false,"rental_uris":{"android":"levelo://app?vid=4acdd886-2cc8-4e72-a0da-207da0934b84","ios":"levelo://app?vid=4acdd886-2cc8-4e72-a0da-207da0934b84"},"vehicle_type_id":"4","last_reported":1716408478,"current_range_meters":0,"station_id":"ce4bh392rcd13ifvqdl0","pricing_plan_id":"cebpf4jnsgd1na2vs0mg"},{"bike_id":"54dde478-6cee-47c8-bfd0-2cac71474fbd","system_id":"levelo_inurba_marseille","lat":43.29198,"lon":5.35846,"is_reserved":false,"is_disabled":false,"rental_uris":{"android":"levelo://app?vid=54dde478-6cee-47c8-bfd0-2cac71474fbd","ios":"levelo://app?vid=54dde478-6cee-47c8-bfd0-2cac71474fbd"},"vehicle_type_id":"4","last_reported":1716408478,"current_range_meters":20000,"station_id":"ce4bgpp2rcd13ifvqc3g","pricing_plan_id":"cebpf4jnsgd1na2vs0mg"},{"bike_id":"70242e25-c61d-4247-b77d-a82dc4095939","system_id":"levelo_inurba_marseille","lat":43.30895,"lon":5.39635,"is_reserved":false,"is_disabled":false,"rental_uris":{"android":"levelo://app?vid=70242e25-c61d-4247-b77d-a82dc4095939","ios":"levelo://app?vid=70242e25-c61d-4247-b77d-a82dc4095939"},"vehicle_type_id":"4","last_reported":1716408478,"current_range_meters":7200,"station_id":"ce4bh012rcd13ifvqcv0","pricing_plan_id":"cebpf4jnsgd1na2vs0mg"},{"bike_id":"393ebeeb-1366-42ac-a979-948692078dd8","system_id":"levelo_inurba_marseille","lat":43.309047,"lon":5.396551,"is_reserved":false,"is_disabled":false,"rental_uris":{"android":"levelo://app?vid=393ebeeb-1366-42ac-a979-948692078dd8","ios":"levelo://app?vid=393ebeeb-1366-42ac-a979-948692078dd8"},"vehicle_type_id":"4","last_reported":1716408478,"current_range_meters":12400,"station_id":"ce4bh012rcd13ifvqcv0","pricing_plan_id":"cebpf4jnsgd1na2vs0mg"},{"bike_id":"43375df8-557a-4208-a77b-b531b41e4655","system_id":"levelo_inurba_marseille","lat":43.309038,"lon":5.396546,"is_reserved":false,"is_disabled":false,"rental_uris":{"android":"levelo://app?vid=43375df8-557a-4208-a77b-b531b41e4655","ios":"levelo://app?vid=43375df8-557a-4208-a77b-b531b41e4655"},"vehicle_type_id":"4","last_reported":1716408478,"current_range_meters":29600,"station_id":"ce4bh012rcd13ifvqcv0","pricing_plan_id":"cebpf4jnsgd1na2vs0mg"},{"bike_id":"807a616c-9ccc-4d49-9943-d32d81ff3e34","system_id":"levelo_inurba_marseille","lat":43.313291,"lon":5.396838,"is_reserved":false,"is_disabled":false,"rental_uris":{"android":"levelo://app?vid=807a616c-9ccc-4d49-9943-d32d81ff3e34","ios":"levelo://app?vid=807a616c-9ccc-4d49-9943-d32d81ff3e34"},"vehicle_type_id":"4","last_reported":1716408478,"current_range_meters":15200,"station_id":"ce4bgvp2rcd13ifvqcu0","pricing_plan_id":"cebpf4jnsgd1na2vs0mg"},{"bike_id":"c01fd748-4400-4729-85ca-26787565e714","system_id":"levelo_inurba_marseille","lat":43.291945,"lon":5.357964,"is_reserved":false,"is_disabled":false,"rental_uris":{"android":"levelo://app?vid=c01fd748-4400-4729-85ca-26787565e714","ios":"levelo://app?vid=c01fd748-4400-4729-85ca-26787565e714"},"vehicle_type_id":"4","last_reported":1716408478,"current_range_meters":30000,"station_id":"","pricing_plan_id":"cebpf4jnsgd1na2vs0mg"},{"bike_id":"ece763ec-a382-4645-8a61-3049ed14f64d","system_id":"levelo_inurba_marseille","lat":43.313291,"lon":5.396838,"is_reserved":false,"is_disabled":false,"rental_uris":{"android":"levelo://app?vid=ece763ec-a382-4645-8a61-3049ed14f64d","ios":"levelo://app?vid=ece763ec-a382-4645-8a61-3049ed14f64d"},"vehicle_type_id":"4","last_reported":1716408478,"current_range_meters":29200,"station_id":"ce4bgvp2rcd13ifvqcu0","pricing_plan_id":"cebpf4jnsgd1na2vs0mg"},{"bike_id":"aec82401-e9a7-4794-81a6-97dcd06f055c","system_id":"levelo_inurba_marseille","lat":43.313291,"lon":5.396838,"is_reserved":false,"is_disabled":false,"rental_uris":{"android":"levelo://app?vid=aec82401-e9a7-4794-81a6-97dcd06f055c","ios":"levelo://app?vid=aec82401-e9a7-4794-81a6-97dcd06f055c"},"vehicle_type_id":"4","last_reported":1716408478,"current_range_meters":31600,"station_id":"ce4bgvp2rcd13ifvqcu0","pricing_plan_id":"cebpf4jnsgd1na2vs0mg"},{"bike_id":"ac31424f-1add-4ef4-bd7a-ece78ee75efc","system_id":"levelo_inurba_marseille","lat":43.30889,"lon":5.3965,"is_reserved":false,"is_disabled":false,"rental_uris":{"android":"levelo://app?vid=ac31424f-1add-4ef4-bd7a-ece78ee75efc","ios":"levelo://app?vid=ac31424f-1add-4ef4-bd7a-ece78ee75efc"},"vehicle_type_id":"4","last_reported":1716408478,"current_range_meters":21600,"station_id":"ce4bh012rcd13ifvqcv0","pricing_plan_id":"cebpf4jnsgd1na2vs0mg"},{"bike_id":"0feda58e-a438-4654-8af4-b2158396ff28","system_id":"levelo_inurba_marseille","lat":43.309038,"lon":5.396546,"is_reserved":false,"is_disabled":false,"rental_uris":{"android":"levelo://app?vid=0feda58e-a438-4654-8af4-b2158396ff28","ios":"levelo://app?vid=0feda58e-a438-4654-8af4-b2158396ff28"},"vehicle_type_id":"4","last_reported":1716408478,"current_range_meters":0,"station_id":"ce4bh012rcd13ifvqcv0","pricing_plan_id":"cebpf4jnsgd1na2vs0mg"},{"bike_id":"4be39dfa-a96e-485a-bdbe-b7cbcef3f764","system_id":"levelo_inurba_marseille","lat":43.313291,"lon":5.396838,"is_reserved":false,"is_disabled":false,"rental_uris":{"android":"levelo://app?vid=4be39dfa-a96e-485a-bdbe-b7cbcef3f764","ios":"levelo://app?vid=4be39dfa-a96e-485a-bdbe-b7cbcef3f764"},