{"last_updated":1713564371,"ttl":30,"version":"2.2","data":{"bikes":[{"bike_id":"4aa2146c-7dc2-43f7-be68-453ebc3aa0e7","system_id":"levelo_inurba_marseille","lat":43.313391,"lon":5.36706,"is_reserved":false,"is_disabled":false,"rental_uris":{"android":"levelo://app?vid=4aa2146c-7dc2-43f7-be68-453ebc3aa0e7","ios":"levelo://app?vid=4aa2146c-7dc2-43f7-be68-453ebc3aa0e7"},"vehicle_type_id":"4","last_reported":1713564371,"current_range_meters":27600,"station_id":"ce4bgr92rcd13ifvqc6g","pricing_plan_id":"cebpf4jnsgd1na2vs0mg"},{"bike_id":"1ae64ffa-e84f-4f13-b049-776344c5a086","system_id":"levelo_inurba_marseille","lat":43.312239,"lon":5.368562,"is_reserved":false,"is_disabled":false,"rental_uris":{"android":"levelo://app?vid=1ae64ffa-e84f-4f13-b049-776344c5a086","ios":"levelo://app?vid=1ae64ffa-e84f-4f13-b049-776344c5a086"},"vehicle_type_id":"4","last_reported":1713564371,"current_range_meters":10400,"station_id":"ce4bgl92rcd13ifvqbq0","pricing_plan_id":"cebpf4jnsgd1na2vs0mg"},{"bike_id":"4732ae1c-1bdc-44e1-8646-23756889e817","system_id":"levelo_inurba_marseille","lat":43.312239,"lon":5.368562,"is_reserved":false,"is_disabled":false,"rental_uris":{"android":"levelo://app?vid=4732ae1c-1bdc-44e1-8646-23756889e817","ios":"levelo://app?vid=4732ae1c-1bdc-44e1-8646-23756889e817"},"vehicle_type_id":"4","last_reported":1713564371,"current_range_meters":15600,"station_id":"ce4bgl92rcd13ifvqbq0","pricing_plan_id":"cebpf4jnsgd1na2vs0mg"},{"bike_id":"975729e5-3bf6-4a87-a3cb-9ae32ea4866a","system_id":"levelo_inurba_marseille","lat":43.309076,"lon":5.368465,"is_reserved":false,"is_disabled":false,"rental_uris":{"android":"levelo://app?vid=975729e5-3bf6-4a87-a3cb-9ae32ea4866a","ios":"levelo://app?vid=975729e5-3bf6-4a87-a3cb-9ae32ea4866a"},"vehicle_type_id":"4","last_reported":1713564371,"current_range_meters":20000,"station_id":"ce4bgn92rcd13ifvqbvg","pricing_plan_id":"cebpf4jnsgd1na2vs0mg"},{"bike_id":"0d5ed748-3df9-4ed3-b93e-772c9d92d1bf","system_id":"levelo_inurba_marseille","lat":43.309039,"lon":5.371797,"is_reserved":false,"is_disabled":false,"rental_uris":{"android":"levelo://app?vid=0d5ed748-3df9-4ed3-b93e-772c9d92d1bf","ios":"levelo://app?vid=0d5ed748-3df9-4ed3-b93e-772c9d92d1bf"},"vehicle_type_id":"4","last_reported":1713564371,"current_range_meters":18800,"station_id":"ce4bguh2rcd13ifvqckg","pricing_plan_id":"cebpf4jnsgd1na2vs0mg"},{"bike_id":"fef030c2-0915-4056-ab3b-4f10b5fa17f1","system_id":"levelo_inurba_marseille","lat":43.309039,"lon":5.371797,"is_reserved":false,"is_disabled":false,"rental_uris":{"android":"levelo://app?vid=fef030c2-0915-4056-ab3b-4f10b5fa17f1","ios":"levelo://app?vid=fef030c2-0915-4056-ab3b-4f10b5fa17f1"},"vehicle_type_id":"4","last_reported":1713564371,"current_range_meters":26800,"station_id":"ce4bguh2rcd13ifvqckg","pricing_plan_id":"cebpf4jnsgd1na2vs0mg"},{"bike_id":"fcbff578-3aa6-4a77-b2dc-96588db9fd4e","system_id":"levelo_inurba_marseille","lat":43.309034,"lon":5.371783,"is_reserved":false,"is_disabled":false,"rental_uris":{"android":"levelo://app?vid=fcbff578-3aa6-4a77-b2dc-96588db9fd4e","ios":"levelo://app?vid=fcbff578-3aa6-4a77-b2dc-96588db9fd4e"},"vehicle_type_id":"4","last_reported":1713564371,"current_range_meters":4400,"station_id":"ce4bguh2rcd13ifvqckg","pricing_plan_id":"cebpf4jnsgd1na2vs0mg"},{"bike_id":"52f22b5a-486d-4c62-a4ac-137bfb2f235e","system_id":"levelo_inurba_marseille","lat":43.30554,"lon":5.36534,"is_reserved":false,"is_disabled":false,"rental_uris":{"android":"levelo://app?vid=52f22b5a-486d-4c62-a4ac-137bfb2f235e","ios":"levelo://app?vid=52f22b5a-486d-4c62-a4ac-137bfb2f235e"},"vehicle_type_id":"4","last_reported":1713564371,"current_range_meters":24400,"station_id":"","pricing_plan_id":"cebpf4jnsgd1na2vs0mg"},{"bike_id":"0ede980e-666e-4c44-939c-4c0d3e0cbc0e","system_id":"levelo_inurba_marseille","lat":43.305989,"lon":5.37225,"is_reserved":false,"is_disabled":false,"rental_uris":{"android":"levelo://app?vid=0ede980e-666e-4c44-939c-4c0d3e0cbc0e","ios":"levelo://app?vid=0ede980e-666e-4c44-939c-4c0d3e0cbc0e"},"vehicle_type_id":"4","last_reported":1713564371,"current_range_meters":5200,"station_id":"ce4bgqh2rcd13ifvqc4g","pricing_plan_id":"cebpf4jnsgd1na2vs0mg"},{"bike_id":"24a4b161-7be1-4a53-b938-1b62e9c042d3","system_id":"levelo_inurba_marseille","lat":43.30596,"lon":5.37203,"is_reserved":false,"is_disabled":false,"rental_uris":{"android":"levelo://app?vid=24a4b161-7be1-4a53-b938-1b62e9c042d3","ios":"levelo://app?vid=24a4b161-7be1-4a53-b938-1b62e9c042d3"},"vehicle_type_id":"4","last_reported":1713564371,"current_range_meters":0,"station_id":"ce4bgqh2rcd13ifvqc4g","pricing_plan_id":"cebpf4jnsgd1na2vs0mg"},{"bike_id":"710c35c9-7bae-424a-878e-a08b402c8924","system_id":"levelo_inurba_marseille","lat":43.30597,"lon":5.37218,"is_reserved":false,"is_disabled":false,"rental_uris":{"android":"levelo://app?vid=710c35c9-7bae-424a-878e-a08b402c8924","ios":"levelo://app?vid=710c35c9-7bae-424a-878e-a08b402c8924"},"vehicle_type_id":"4","last_reported":1713564371,"current_range_meters":9600,"station_id":"ce4bgqh2rcd13ifvqc4g","pricing_plan_id":"cebpf4jnsgd1na2vs0mg"},{"bike_id":"884d0406-a0b8-4dd2-a963-a955d4c6ece2","system_id":"levelo_inurba_marseille","lat":43.305989,"lon":5.37225,"is_reserved":false,"is_disabled":false,"rental_uris":{"android":"levelo://app?vid=884d0406-a0b8-4dd2-a963-a955d4c6ece2","ios":"levelo://app?vid=884d0406-a0b8-4dd2-a963-a955d4c6ece2"},"vehicle_type_id":"4","last_reported":1713564371,"current_range_meters":9600,"station_id":"ce4bgqh2rcd13ifvqc4g","pricing_plan_id":"cebpf4jnsgd1na2vs0mg"},{"bike_id":"5ca52ec7-384b-4a6b-a25f-ea5de177bd20","system_id":"levelo_inurba_marseille","lat":43.30598,"lon":5.37224,"is_reserved":false,"is_disabled":false,"rental_uris":{"android":"levelo://app?vid=5ca52ec7-384b-4a6b-a25f-ea5de177bd20","ios":"levelo://app?vid=5ca52ec7-384b-4a6b-a25f-ea5de177bd20"},"vehicle_type_id":"4","last_reported":1713564371,"current_range_meters":1600,"station_id":"ce4bgqh2rcd13ifvqc4g","pricing_plan_id":"cebpf4jnsgd1na2vs0mg"},{"bike_id":"32ff82e2-3fb6-4718-b352-f8298039e442","system_id":"levelo_inurba_marseille","lat":43.30591,"lon":5.37208,"is_reserved":false,"is_disabled":false,"rental_uris":{"android":"levelo://app?vid=32ff82e2-3fb6-4718-b352-f8298039e442","ios":"levelo://app?vid=32ff82e2-3fb6-4718-b352-f8298039e442"},"vehicle_type_id":"4","last_reported":1713564371,"current_range_meters":0,"station_id":"ce4bgqh2rcd13ifvqc4g","pricing_plan_id":"cebpf4jnsgd1na2vs0mg"},{"bike_id":"1d1b4c9b-d72a-4f74-878c-cbe3d871996a","system_id":"levelo_inurba_marseille","lat":43.305989,"lon":5.37225,"is_reserved":false,"is_disabled":false,"rental_uris":{"android":"levelo://app?vid=1d1b4c9b-d72a-4f74-878c-cbe3d871996a","ios":"levelo://app?vid=1d1b4c9b-d72a-4f74-878c-cbe3d871996a"},"vehicle_type_id":"4","last_reported":1713564371,"current_range_meters":24800,"station_id":"ce4bgqh2rcd13ifvqc4g","pricing_plan_id":"cebpf4jnsgd1na2vs0mg"},{"bike_id":"c34aec66-511d-43ca-a323-327380a46aec","system_id":"levelo_inurba_marseille","lat":43.305989,"lon":5.37225,"is_reserved":false,"is_disabled":false,"rental_uris":{"android":"levelo://app?vid=c34aec66-511d-43ca-a323-327380a46aec","ios":"levelo://app?vid=c34aec66-511d-43ca-a323-327380a46aec"},"vehicle_type_id":"4","last_reported":1713564371,"current_range_meters":9200,"station_id":"ce4bgqh2rcd13ifvqc4g","pricing_plan_id":"cebpf4jnsgd1na2vs0mg"},{"bike_id":"95ad2946-6b0a-4f4a-9d55-2053055bcc2c","system_id":"levelo_inurba_marseille","lat":43.305706,"lon":5.365654,"is_reserved":false,"is_disabled":false,"rental_uris":{"android":"levelo://app?vid=95ad2946-6b0a-4f4a-9d55-2053055bcc2c","ios":"levelo://app?vid=95ad2946-6b0a-4f4a-9d55-2053055bcc2c"},"vehicle_type_id":"4","last_reported":1713564371,"current_range_meters":17200,"station_id":"ce4bgs12rcd13ifvqcag","pricing_plan_id":"cebpf4jnsgd1na2vs0mg"},{"bike_id":"e23dd054-ccf7-4d0d-a4fd-c94149126c09","system_id":"levelo_inurba_marseille","lat":43.311131,"lon":5.377651,"is_reserved":false,"is_disabled":false,"rental_uris":{"android":"levelo://app?vid=e23dd054-ccf7-4d0d-a4fd-c94149126c09","ios":"levelo://app?vid=e23dd054-ccf7-4d0d-a4fd-c94149126c09"},"vehicle_type_id":"4","last_reported":1713564371,"current_range_meters":26400,"station_id":"ce4bgt92rcd13ifvqcg0","pricing_plan_id":"cebpf4jnsgd1na2vs0mg"},{"bike_id":"57edc6f9-f296-4245-90af-45f516aaec38","system_id":"levelo_inurba_marseille","lat":43.311131,"lon":5.377651,"is_reserved":false,"is_disabled":false,"rental_uris":{"android":"levelo://app?vid=57edc6f9-f296-4245-90af-45f516aaec38","ios":"levelo://app?vid=57edc6f9-f296-4245-90af-45f516aaec38"},"vehicle_type_id":"4","last_reported":1713564371,"current_range_meters":10000,"station_id":"ce4bgt92rcd13ifvqcg0","pricing_plan_id":"cebpf4jnsgd1na2vs0mg"},{"bike_id":"e7fb48f1-edce-4f4d-96ca-7921e371338c","system_id":"levelo_inurba_marseille","lat":43.311131,"lon":5.377651,"is_reserved":false,"is_disabled":false,"rental_uris":{"android":"levelo://app?vid=e7fb48f1-edce-4f4d-96ca-7921e371338c","ios":"levelo://app?vid=e7fb48f1-edce-4f4d-96ca-7921e371338c"},"vehicle_type_id":"4","last_reported":1713564371,"current_range_meters":4800,"station_id":"ce4bgt92rcd13ifvqcg0","pricing_plan_id":"cebpf4jnsgd1na2vs0mg"},{"bike_id":"d21e6340-d3b5-4a67-aabf-cd727f341805","system_id":"levelo_inurba_marseille","lat":43.311131,"lon":5.377651,"is_reserved":false,"is_disabled":false,"rental_uris":{"android":"levelo://app?vid=d21e6340-d3b5-4a67-aabf-cd727f341805","ios":"levelo://app?vid=d21e6340-d3b5-4a67-aabf-cd727f341805"},"vehicle_type_id":"4","last_reported":1713564371,"current_range_meters":2000,"station_id":"ce4bgt92rcd13ifvqcg0","pricing_plan_id":"cebpf4jnsgd1na2vs0mg"},{"bike_id":"fa04c93b-015e-4de9-8b03-9ac9519ec738","system_id":"levelo_inurba_marseille","lat":43.307945,"lon":5.376487,"is_reserved":false,"is_disabled":false,"rental_uris":{"android":"levelo://app?vid=fa04c93b-015e-4de9-8b03-9ac9519ec738","ios":"levelo://app?vid=fa04c93b-015e-4de9-8b03-9ac9519ec738"},"vehicle_type_id":"4","last_reported":1713564371,"current_range_meters":7600,"station_id":"ce4bgv92rcd13ifvqcq0","pricing_plan_id":"cebpf4jnsgd1na2vs0mg"},{"bike_id":"f6b35d56-e554-4c56-b540-7785cf1a499d","system_id":"levelo_inurba_marseille","lat":43.30785,"lon":5.37659,"is_reserved":false,"is_disabled":false,"rental_uris":{"android":"levelo://app?vid=f6b35d56-e554-4c56-b540-7785cf1a499d","ios":"levelo://app?vid=f6b35d56-e554-4c56-b540-7785cf1a499d"},"vehicle_type_id":"4","last_reported":1713564371,"current_range_meters":0,"station_id":"","pricing_plan_id":"cebpf4jnsgd1na2vs0mg"},{"bike_id":"efc67217-1ca4-482c-8d20-4c1b77d5d46e","system_id":"levelo_inurba_marseille","lat":43.315289,"lon":5.380349,"is_reserved":false,"is_disabled":false,"rental_uris":{"android":"levelo://app?vid=efc67217-1ca4-482c-8d20-4c1b77d5d46e","ios":"levelo://app?vid=efc67217-1ca4-482c-8d20-4c1b77d5d46e"},"vehicle_type_id":"4","last_reported":1713564371,"current_range_meters":16000,"station_id":"ce4bhsp2rcd13ifvqi50","pricing_plan_id":"cebpf4jnsgd1na2vs0mg"},{"bike_id":"580e645a-089d-41f1-aace-4caee9a9725e","system_id":"levelo_inurba_marseille","lat":43.315289,"lon":5.380349,"is_reserved":false,"is_disabled":false,"rental_uris":{"android":"levelo://app?vid=580e645a-089d-41f1-aace-4caee9a9725e","ios":"levelo://app?vid=580e645a-089d-41f1-aace-4caee9a9725e"},"vehicle_type_id":"4","last_reported":1713564371,"current_range_meters":23200,"station_id":"ce4bhsp2rcd13ifvqi50","pricing_plan_id":"cebpf4jnsgd1na2vs0mg"},{"bike_id":"e6f5a5a8-daeb-4d1f-b445-2cae86ffd1ef","system_id":"levelo_inurba_marseille","lat":43.315289,"lon":5.380349,"is_reserved":false,"is_disabled":false,"rental_uris":{"android":"levelo://app?vid=e6f5a5a8-daeb-4d1f-b445-2cae86ffd1ef","ios":"levelo://app?vid=e6f5a5a8-daeb-4d1f-b445-2cae86ffd1ef"},"vehicle_type_id":"4","last_reported":1713564371,"current_range_meters":7600,"station_id":"ce4bhsp2rcd13ifvqi50","pricing_plan_id":"cebpf4jnsgd1na2vs0mg"},{"bike_id":"5e2e1191-ef1d-4579-b24f-38dd0f45c330","system_id":"levelo_inurba_marseille","lat":43.315293,"lon":5.380349,"is_reserved":false,"is_disabled":false,"rental_uris":{"android":"levelo://app?vid=5e2e1191-ef1d-4579-b24f-38dd0f45c330","ios":"levelo://app?vid=5e2e1191-ef1d-4579-b24f-38dd0f45c330"},"vehicle_type_id":"4","last_reported":1713564371,"current_range_meters":12400,"station_id":"ce4bhsp2rcd13ifvqi50","pricing_plan_id":"cebpf4jnsgd1na2vs0mg"},{"bike_id":"a361c869-d73f-4ca7-84eb-f37bc480418d","system_id":"levelo_inurba_marseille","lat":43.315293,"lon":5.380349,"is_reserved":false,"is_disabled":false,"rental_uris":{"android":"levelo://app?vid=a361c869-d73f-4ca7-84eb-f37bc480418d","ios":"levelo://app?vid=a361c869-d73f-4ca7-84eb-f37bc480418d"},"vehicle_type_id":"4","last_reported":1713564371,"current_range_meters":19600,"station_id":"ce4bhsp2rcd13ifvqi50","pricing_plan_id":"cebpf4jnsgd1na2vs0mg"},{"bike_id":"5a855d53-95ec-411a-9725-d802a4109445","system_id":"levelo_inurba_marseille","lat":43.301939,"lon":5.366286,"is_reserved":false,"is_disabled":false,"rental_uris":{"android":"levelo://app?vid=5a855d53-95ec-411a-9725-d802a4109445","ios":"levelo://app?vid=5a855d53-95ec-411a-9725-d802a4109445"},"vehicle_type_id":"4","last_reported":1713564371,"current_range_meters":23600,"station_id":"ce4bgrh2rcd13ifvqc8g","pricing_plan_id":"cebpf4jnsgd1na2vs0mg"},{"bike_id":"37bcf88d-7d55-4499-bd25-8698da1562e5","system_id":"levelo_inurba_marseille","lat":43.301939,"lon":5.366286,"is_reserved":false,"is_disabled":false,"rental_uris":{"android":"levelo://app?vid=37bcf88d-7d55-4499-bd25-8698da1562e5","ios":"levelo://app?vid=37bcf88d-7d55-4499-bd25-8698da1562e5"},"vehicle_type_id":"4","last_reported":1713564371,"current_range_meters":6000,"station_id":"ce4bgrh2rcd13ifvqc8g","pricing_plan_id":"cebpf4jnsgd1na2vs0mg"},{"bike_id":"01838930-c69a-4d2a-b8b2-58ba97d9c16b","system_id":"levelo_inurba_marseille","lat":43.30185,"lon":5.36608,"is_reserved":false,"is_disabled":false,"rental_uris":{"android":"levelo://app?vid=01838930-c69a-4d2a-b8b2-58ba97d9c16b","ios":"levelo://app?vid=01838930-c69a-4d2a-b8b2-58ba97d9c16b"},"vehicle_type_id":"4","last_reported":1713564371,"current_range_meters":0,"station_id":"ce4bgrh2rcd13ifvqc8g","pricing_plan_id":"cebpf4jnsgd1na2vs0mg"},{"bike_id":"5348cb8b-820c-4d48-a832-4b42538e3488","system_id":"levelo_inurba_marseille","lat":43.30809,"lon":5.38141,"is_reserved":false,"is_disabled":false,"rental_uris":{"android":"levelo://app?vid=5348cb8b-820c-4d48-a832-4b42538e3488","ios":"levelo://app?vid=5348cb8b-820c-4d48-a832-4b42538e3488"},"vehicle_type_id":"4","last_reported":1713564371,"current_range_meters":10400,"station_id":"ce4bgt12rcd13ifvqce0","pricing_plan_id":"cebpf4jnsgd1na2vs0mg"},{"bike_id":"23a85cfe-111c-47d6-8a4f-3ad15b1a5a56","system_id":"levelo_inurba_marseille","lat":43.308012,"lon":5.381511,"is_reserved":false,"is_disabled":false,"rental_uris":{"android":"levelo://app?vid=23a85cfe-111c-47d6-8a4f-3ad15b1a5a56","ios":"levelo://app?vid=23a85cfe-111c-47d6-8a4f-3ad15b1a5a56"},"vehicle_type_id":"4","last_reported":1713564371,"current_range_meters":0,"station_id":"ce4bgt12rcd13ifvqce0","pricing_plan_id":"cebpf4jnsgd1na2vs0mg"},{"bike_id":"b40b91d4-203a-4dec-8882-67ce1e3a7413","system_id":"levelo_inurba_marseille","lat":43.308113,"lon":5.381507,"is_reserved":false,"is_disabled":false,"rental_uris":{"android":"levelo://app?vid=b40b91d4-203a-4dec-8882-67ce1e3a7413","ios":"levelo://app?vid=b40b91d4-203a-4dec-8882-67ce1e3a7413"},"vehicle_type_id":"4","last_reported":1713564371,"current_range_meters":4000,"station_id":"ce4bgt12rcd13ifvqce0","pricing_plan_id":"cebpf4jnsgd1na2vs0mg"},{"bike_id":"26416178-f827-4e11-95fa-1b1aeab6aee7","system_id":"levelo_inurba_marseille","lat":43.308012,"lon":5.381511,"is_reserved":false,"is_disabled":false,"rental_uris":{"android":"levelo://app?vid=26416178-f827-4e11-95fa-1b1aeab6aee7","ios":"levelo://app?vid=26416178-f827-4e11-95fa-1b1aeab6aee7"},"vehicle_type_id":"4","last_reported":1713564371,"current_range_meters":20000,"station_id":"ce4bgt12rcd13ifvqce0","pricing_plan_id":"cebpf4jnsgd1na2vs0mg"},{"bike_id":"e397976e-afef-498c-8e37-5efd3c231e9d","system_id":"levelo_inurba_marseille","lat":43.30801,"lon":5.381525,"is_reserved":false,"is_disabled":false,"rental_uris":{"android":"levelo://app?vid=e397976e-afef-498c-8e37-5efd3c231e9d","ios":"levelo://app?vid=e397976e-afef-498c-8e37-5efd3c231e9d"},"vehicle_type_id":"4","last_reported":1713564371,"current_range_meters":17600,"station_id":"ce4bgt12rcd13ifvqce0","pricing_plan_id":"cebpf4jnsgd1na2vs0mg"},{"bike_id":"ccb176d3-a95c-4cf2-8499-e41ec9f8851f","system_id":"levelo_inurba_marseille","lat":43.308012,"lon":5.381511,"is_reserved":false,"is_disabled":false,"rental_uris":{"android":"levelo://app?vid=ccb176d3-a95c-4cf2-8499-e41ec9f8851f","ios":"levelo://app?vid=ccb176d3-a95c-4cf2-8499-e41ec9f8851f"},"vehicle_type_id":"4","last_reported":1713564371,"current_range_meters":9600,"station_id":"ce4bgt12rcd13ifvqce0","pricing_plan_id":"cebpf4jnsgd1na2vs0mg"},{"bike_id":"c4e44c67-6fae-44e8-93af-942e151ffe5d","system_id":"levelo_inurba_marseille","lat":43.307957,"lon":5.381535,"is_reserved":false,"is_disabled":false,"rental_uris":{"android":"levelo://app?vid=c4e44c67-6fae-44e8-93af-942e151ffe5d","ios":"levelo://app?vid=c4e44c67-6fae-44e8-93af-942e151ffe5d"},"vehicle_type_id":"4","last_reported":1713564371,"current_range_meters":0,"station_id":"ce4bgt12rcd13ifvqce0","pricing_plan_id":"cebpf4jnsgd1na2vs0mg"},{"bike_id":"34809a5a-22bc-4ad1-9716-dd88f0b1fc46","system_id":"levelo_inurba_marseille","lat":43.30798,"lon":5.38158,"is_reserved":false,"is_disabled":false,"rental_uris":{"android":"levelo://app?vid=34809a5a-22bc-4ad1-9716-dd88f0b1fc46","ios":"levelo://app?vid=34809a5a-22bc-4ad1-9716-dd88f0b1fc46"},"vehicle_type_id":"4","last_reported":1713564371,"current_range_meters":2000,"station_id":"ce4bgt12rcd13ifvqce0","pricing_plan_id":"cebpf4jnsgd1na2vs0mg"},{"bike_id":"8d02ceb4-a63d-4056-83b8-d077db25de34","system_id":"levelo_inurba_marseille","lat":43.302784,"lon":5.377158,"is_reserved":false,"is_disabled":false,"rental_uris":{"android":"levelo://app?vid=8d02ceb4-a63d-4056-83b8-d077db25de34","ios":"levelo://app?vid=8d02ceb4-a63d-4056-83b8-d077db25de34"},"vehicle_type_id":"4","last_reported":1713564371,"current_range_meters":14800,"station_id":"ce4bguh2rcd13ifvqcj0","pricing_plan_id":"cebpf4jnsgd1na2vs0mg"},{"bike_id":"04634867-318b-477c-8acf-bcd449a63572","system_id":"levelo_inurba_marseille","lat":43.324656,"lon":5.365771,"is_reserved":false,"is_disabled":false,"rental_uris":{"android":"levelo://app?vid=04634867-318b-477c-8acf-bcd449a63572","ios":"levelo://app?vid=04634867-318b-477c-8acf-bcd449a63572"},"vehicle_type_id":"4","last_reported":1713564371,"current_range_meters":1200,"station_id":"ce4bhs12rcd13ifvqhvg","pricing_plan_id":"cebpf4jnsgd1na2vs0mg"},{"bike_id":"c17751bf-4b1e-4ed5-8ec6-1aa8f0f5ee16","system_id":"levelo_inurba_marseille","lat":43.324771,"lon":5.36557,"is_reserved":false,"is_disabled":false,"rental_uris":{"android":"levelo://app?vid=c17751bf-4b1e-4ed5-8ec6-1aa8f0f5ee16","ios":"levelo://app?vid=c17751bf-4b1e-4ed5-8ec6-1aa8f0f5ee16"},"vehicle_type_id":"4","last_reported":1713564371,"current_range_meters":9200,"station_id":"ce4bhs12rcd13ifvqhvg","pricing_plan_id":"cebpf4jnsgd1na2vs0mg"},{"bike_id":"30993a85-5578-4aa2-8518-bb101417392d","system_id":"levelo_inurba_marseille","lat":43.324771,"lon":5.36557,"is_reserved":false,"is_disabled":false,"rental_uris":{"android":"levelo://app?vid=30993a85-5578-4aa2-8518-bb101417392d","ios":"levelo://app?vid=30993a85-5578-4aa2-8518-bb101417392d"},"vehicle_type_id":"4","last_reported":1713564371,"current_range_meters":7200,"station_id":"ce4bhs12rcd13ifvqhvg","pricing_plan_id":"cebpf4jnsgd1na2vs0mg"},{"bike_id":"1b6aed86-338f-4a51-9ed8-88ea689c4811","system_id":"levelo_inurba_marseille","lat":43.324771,"lon":5.36557,"is_reserved":false,"is_disabled":false,"rental_uris":{"android":"levelo://app?vid=1b6aed86-338f-4a51-9ed8-88ea689c4811","ios":"levelo://app?vid=1b6aed86-338f-4a51-9ed8-88ea689c4811"},"vehicle_type_id":"4","last_reported":1713564371,"current_range_meters":8400,"station_id":"ce4bhs12rcd13ifvqhvg","pricing_plan_id":"cebpf4jnsgd1na2vs0mg"},{"bike_id":"87f9e4f2-9a1c-45e9-9d5f-df5c314d8ba1","system_id":"levelo_inurba_marseille","lat":43.324848,"lon":5.365715,"is_reserved":false,"is_disabled":false,"rental_uris":{"android":"levelo://app?vid=87f9e4f2-9a1c-45e9-9d5f-df5c314d8ba1","ios":"levelo://app?vid=87f9e4f2-9a1c-45e9-9d5f-df5c314d8ba1"},"vehicle_type_id":"4","last_reported":1713564371,"current_range_meters":11200,"station_id":"ce4bhs12rcd13ifvqhvg","pricing_plan_id":"cebpf4jnsgd1na2vs0mg"},{"bike_id":"bb5d202f-d6f9-438e-9bd1-bfcb7fe49994","system_id":"levelo_inurba_marseille","lat":43.324771,"lon":5.36557,"is_reserved":false,"is_disabled":false,"rental_uris":{"android":"levelo://app?vid=bb5d202f-d6f9-438e-9bd1-bfcb7fe49994","ios":"levelo://app?vid=bb5d202f-d6f9-438e-9bd1-bfcb7fe49994"},"vehicle_type_id":"4","last_reported":1713564371,"current_range_meters":12000,"station_id":"ce4bhs12rcd13ifvqhvg","pricing_plan_id":"cebpf4jnsgd1na2vs0mg"},{"bike_id":"e4e0753e-4b94-4857-9924-ddedf1c13729","system_id":"levelo_inurba_marseille","lat":43.324771,"lon":5.36557,"is_reserved":false,"is_disabled":false,"rental_uris":{"android":"levelo://app?vid=e4e0753e-4b94-4857-9924-ddedf1c13729","ios":"levelo://app?vid=e4e0753e-4b94-4857-9924-ddedf1c13729"},"vehicle_type_id":"4","last_reported":1713564371,"current_range_meters":0,"station_id":"ce4bhs12rcd13ifvqhvg","pricing_plan_id":"cebpf4jnsgd1na2vs0mg"},{"bike_id":"60472d8d-e78e-4549-83a0-17a53b3c0f7c","system_id":"levelo_inurba_marseille","lat":43.310804,"lon":5.38359,"is_reserved":false,"is_disabled":false,"rental_uris":{"android":"levelo://app?vid=60472d8d-e78e-4549-83a0-17a53b3c0f7c","ios":"levelo://app?vid=60472d8d-e78e-4549-83a0-17a53b3c0f7c"},"vehicle_type_id":"4","last_reported":1713564371,"current_range_meters":19200,"station_id":"ce4bgv92rcd13ifvqcr0","pricing_plan_id":"cebpf4jnsgd1na2vs0mg"},{"bike_id":"5b327ed5-9dd8-4dcd-84fd-73e7d9ca3532","system_id":"levelo_inurba_marseille","lat":43.310804,"lon":5.38359,"is_reserved":false,"is_disabled":false,"rental_uris":{"android":"levelo://app?vid=5b327ed5-9dd8-4dcd-84fd-73e7d9ca3532","ios":"levelo://app?vid=5b327ed5-9dd8-4dcd-84fd-73e7d9ca3532"},"vehicle_type_id":"4","last_reported":1713564371,"current_range_meters":0,"station_id":"ce4bgv92rcd13ifvqcr0","pricing_plan_id":"cebpf4jnsgd1na2vs0mg"},{"bike_id":"edf7cec4-cdf7-4979-8df8-da5fe8d8f1f9","system_id":"levelo_inurba_marseille","lat":43.310804,"lon":5.38359,"is_reserved":false,"is_disabled":false,"rental_uris":{"android":"levelo://app?vid=edf7cec4-cdf7-4979-8df8-da5fe8d8f1f9","ios":"levelo://app?vid=edf7cec4-cdf7-4979-8df8-da5fe8d8f1f9"},"vehicle_type_id":"4","last_reported":1713564371,"current_range_meters":7600,"station_id":"ce4bgv92rcd13ifvqcr0","pricing_plan_id":"cebpf4jnsgd1na2vs0mg"},{"bike_id":"9cd562f3-4135-4449-989f-db697d59185d","system_id":"levelo_inurba_marseille","lat":43.310804,"lon":5.38359,"is_reserved":false,"is_disabled":false,"rental_uris":{"android":"levelo://app?vid=9cd562f3-4135-4449-989f-db697d59185d","ios":"levelo://app?vid=9cd562f3-4135-4449-989f-db697d59185d"},"vehicle_type_id":"4","last_reported":1713564371,"current_range_meters":7600,"station_id":"ce4bgv92rcd13ifvqcr0","pricing_plan_id":"cebpf4jnsgd1na2vs0mg"},{"bike_id":"e24824f3-a3b4-4bea-beed-34939241ff5c","system_id":"levelo_inurba_marseille","lat":43.310804,"lon":5.38359,"is_reserved":false,"is_disabled":false,"rental_uris":{"android":"levelo://app?vid=e24824f3-a3b4-4bea-beed-34939241ff5c","ios":"levelo://app?vid=e24824f3-a3b4-4bea-beed-34939241ff5c"},"vehicle_type_id":"4","last_reported":1713564371,"current_range_meters":17200,"station_id":"ce4bgv92rcd13ifvqcr0","pricing_plan_id":"cebpf4jnsgd1na2vs0mg"},{"bike_id":"2cdcf3b8-78c2-46a0-8fe0-8f3317b9e92a","system_id":"levelo_inurba_marseille","lat":43.310804,"lon":5.38359,"is_reserved":false,"is_disabled":false,"rental_uris":{"android":"levelo://app?vid=2cdcf3b8-78c2-46a0-8fe0-8f3317b9e92a","ios":"levelo://app?vid=2cdcf3b8-78c2-46a0-8fe0-8f3317b9e92a"},"vehicle_type_id":"4","last_reported":1713564371,"current_range_meters":25200,"station_id":"ce4bgv92rcd13ifvqcr0","pricing_plan_id":"cebpf4jnsgd1na2vs0mg"},{"bike_id":"d5dea653-5c96-4068-bcee-0b1d41f37337","system_id":"levelo_inurba_marseille","lat":43.310804,"lon":5.38359,"is_reserved":false,"is_disabled":false,"rental_uris":{"android":"levelo://app?vid=d5dea653-5c96-4068-bcee-0b1d41f37337","ios":"levelo://app?vid=d5dea653-5c96-4068-bcee-0b1d41f37337"},"vehicle_type_id":"4","last_reported":1713564371,"current_range_meters":5600,"station_id":"ce4bgv92rcd13ifvqcr0","pricing_plan_id":"cebpf4jnsgd1na2vs0mg"},{"bike_id":"6543eb89-ca92-4573-8835-dd61eaae9b7a","system_id":"levelo_inurba_marseille","lat":43.302784,"lon":5.377158,"is_reserved":false,"is_disabled":false,"rental_uris":{"android":"levelo://app?vid=6543eb89-ca92-4573-8835-dd61eaae9b7a","ios":"levelo://app?vid=6543eb89-ca92-4573-8835-dd61eaae9b7a"},"vehicle_type_id":"4","last_reported":1713564371,"current_range_meters":26000,"station_id":"ce4bguh2rcd13ifvqcj0","pricing_plan_id":"cebpf4jnsgd1na2vs0mg"},{"bike_id":"c4f70b18-4391-42c2-95aa-c2daa535fb4c","system_id":"levelo_inurba_marseille","lat":43.301429,"lon":5.37413,"is_reserved":false,"is_disabled":false,"rental_uris":{"android":"levelo://app?vid=c4f70b18-4391-42c2-95aa-c2daa535fb4c","ios":"levelo://app?vid=c4f70b18-4391-42c2-95aa-c2daa535fb4c"},"vehicle_type_id":"4","last_reported":1713564371,"current_range_meters":29200,"station_id":"ce4bgs92rcd13ifvqcc0","pricing_plan_id":"cebpf4jnsgd1na2vs0mg"},{"bike_id":"71cf26d6-2800-48dd-ae6e-8eda1eae26de","system_id":"levelo_inurba_marseille","lat":43.305395,"lon":5.380968,"is_reserved":false,"is_disabled":false,"rental_uris":{"android":"levelo://app?vid=71cf26d6-2800-48dd-ae6e-8eda1eae26de","ios":"levelo://app?vid=71cf26d6-2800-48dd-ae6e-8eda1eae26de"},"vehicle_type_id":"4","last_reported":1713564371,"current_range_meters":19600,"station_id":"","pricing_plan_id":"cebpf4jnsgd1na2vs0mg"},{"bike_id":"334e3407-4f9b-4b57-a5ef-39033f25d948","system_id":"levelo_inurba_marseille","lat":43.319935,"lon":5.381699,"is_reserved":false,"is_disabled":false,"rental_uris":{"android":"levelo://app?vid=334e3407-4f9b-4b57-a5ef-39033f25d948","ios":"levelo://app?vid=334e3407-4f9b-4b57-a5ef-39033f25d948"},"vehicle_type_id":"4","last_reported":1713564371,"current_range_meters":10400,"station_id":"ce4bhr12rcd13ifvqhpg","pricing_plan_id":"cebpf4jnsgd1na2vs0mg"},{"bike_id":"d212c281-3522-420a-b06f-b80966290c73","system_id":"levelo_inurba_marseille","lat":43.319935,"lon":5.381699,"is_reserved":false,"is_disabled":false,"rental_uris":{"android":"levelo://app?vid=d212c281-3522-420a-b06f-b80966290c73","ios":"levelo://app?vid=d212c281-3522-420a-b06f-b80966290c73"},"vehicle_type_id":"4","last_reported":1713564371,"current_range_meters":14400,"station_id":"ce4bhr12rcd13ifvqhpg","pricing_plan_id":"cebpf4jnsgd1na2vs0mg"},{"bike_id":"ac8a896b-4c67-4f80-a4c4-51554c975d85","system_id":"levelo_inurba_marseille","lat":43.319935,"lon":5.381699,"is_reserved":false,"is_disabled":false,"rental_uris":{"android":"levelo://app?vid=ac8a896b-4c67-4f80-a4c4-51554c975d85","ios":"levelo://app?vid=ac8a896b-4c67-4f80-a4c4-51554c975d85"},"vehicle_type_id":"4","last_reported":1713564371,"current_range_meters":21600,"station_id":"ce4bhr12rcd13ifvqhpg","pricing_plan_id":"cebpf4jnsgd1na2vs0mg"},{"bike_id":"30d617ff-4f74-4992-b3e5-455e6c9e9129","system_id":"levelo_inurba_marseille","lat":43.319935,"lon":5.381699,"is_reserved":false,"is_disabled":false,"rental_uris":{"android":"levelo://app?vid=30d617ff-4f74-4992-b3e5-455e6c9e9129","ios":"levelo://app?vid=30d617ff-4f74-4992-b3e5-455e6c9e9129"},"vehicle_type_id":"4","last_reported":1713564371,"current_range_meters":24400,"station_id":"ce4bhr12rcd13ifvqhpg","pricing_plan_id":"cebpf4jnsgd1na2vs0mg"},{"bike_id":"b76bf36b-5a1e-4bef-9f76-791700d9abe6","system_id":"levelo_inurba_marseille","lat":43.319935,"lon":5.381699,"is_reserved":false,"is_disabled":false,"rental_uris":{"android":"levelo://app?vid=b76bf36b-5a1e-4bef-9f76-791700d9abe6","ios":"levelo://app?vid=b76bf36b-5a1e-4bef-9f76-791700d9abe6"},"vehicle_type_id":"4","last_reported":1713564371,"current_range_meters":7200,"station_id":"ce4bhr12rcd13ifvqhpg","pricing_plan_id":"cebpf4jnsgd1na2vs0mg"},{"bike_id":"2dde0f7f-e9c0-4ed3-82c5-742a6ee2402d","system_id":"levelo_inurba_marseille","lat":43.313571,"lon":5.384829,"is_reserved":false,"is_disabled":false,"rental_uris":{"android":"levelo://app?vid=2dde0f7f-e9c0-4ed3-82c5-742a6ee2402d","ios":"levelo://app?vid=2dde0f7f-e9c0-4ed3-82c5-742a6ee2402d"},"vehicle_type_id":"4","last_reported":1713564371,"current_range_meters":1600,"station_id":"ce4bgt92rcd13ifvqcf0","pricing_plan_id":"cebpf4jnsgd1na2vs0mg"},{"bike_id":"b3e69577-ce8c-43a3-894e-40cb3ef66f9e","system_id":"levelo_inurba_marseille","lat":43.313571,"lon":5.384829,"is_reserved":false,"is_disabled":false,"rental_uris":{"android":"levelo://app?vid=b3e69577-ce8c-43a3-894e-40cb3ef66f9e","ios":"levelo://app?vid=b3e69577-ce8c-43a3-894e-40cb3ef66f9e"},"vehicle_type_id":"4","last_reported":1713564371,"current_range_meters":19600,"station_id":"ce4bgt92rcd13ifvqcf0","pricing_plan_id":"cebpf4jnsgd1na2vs0mg"},{"bike_id":"67e01902-9907-41c8-a36b-5622a5dbad9b","system_id":"levelo_inurba_marseille","lat":43.313571,"lon":5.384829,"is_reserved":false,"is_disabled":false,"rental_uris":{"android":"levelo://app?vid=67e01902-9907-41c8-a36b-5622a5dbad9b","ios":"levelo://app?vid=67e01902-9907-41c8-a36b-5622a5dbad9b"},"vehicle_type_id":"4","last_reported":1713564371,"current_range_meters":21600,"station_id":"ce4bgt92rcd13ifvqcf0","pricing_plan_id":"cebpf4jnsgd1na2vs0mg"},{"bike_id":"74e8e104-c6ef-4991-baf5-aa9151e60940","system_id":"levelo_inurba_marseille","lat":43.313571,"lon":5.384829,"is_reserved":false,"is_disabled":false,"rental_uris":{"android":"levelo://app?vid=74e8e104-c6ef-4991-baf5-aa9151e60940","ios":"levelo://app?vid=74e8e104-c6ef-4991-baf5-aa9151e60940"},"vehicle_type_id":"4","last_reported":1713564371,"current_range_meters":4400,"station_id":"ce4bgt92rcd13ifvqcf0","pricing_plan_id":"cebpf4jnsgd1na2vs0mg"},{"bike_id":"db155f44-2acb-47d0-ba4e-95cbabe7a15b","system_id":"levelo_inurba_marseille","lat":43.313571,"lon":5.384829,"is_reserved":false,"is_disabled":false,"rental_uris":{"android":"levelo://app?vid=db155f44-2acb-47d0-ba4e-95cbabe7a15b","ios":"levelo://app?vid=db155f44-2acb-47d0-ba4e-95cbabe7a15b"},"vehicle_type_id":"4","last_reported":1713564371,"current_range_meters":5600,"station_id":"ce4bgt92rcd13ifvqcf0","pricing_plan_id":"cebpf4jnsgd1na2vs0mg"},{"bike_id":"856346db-4409-47d4-b9b0-7b0eeae58540","system_id":"levelo_inurba_marseille","lat":43.3136,"lon":5.38495,"is_reserved":false,"is_disabled":false,"rental_uris":{"android":"levelo://app?vid=856346db-4409-47d4-b9b0-7b0eeae58540","ios":"levelo://app?vid=856346db-4409-47d4-b9b0-7b0eeae58540"},"vehicle_type_id":"4","last_reported":1713564371,"current_range_meters":0,"station_id":"ce4bgt92rcd13ifvqcf0","pricing_plan_id":"cebpf4jnsgd1na2vs0mg"},{"bike_id":"0a9ed85a-6c0a-45c2-bfa2-d3e37dece2af","system_id":"levelo_inurba_marseille","lat":43.299463,"lon":5.365407,"is_reserved":false,"is_disabled":false,"rental_uris":{"android":"levelo://app?vid=0a9ed85a-6c0a-45c2-bfa2-d3e37dece2af","ios":"levelo://app?vid=0a9ed85a-6c0a-45c2-bfa2-d3e37dece2af"},"vehicle_type_id":"4","last_reported":1713564371,"current_range_meters":0,"station_id":"ce4bgm92rcd13ifvqbr0","pricing_plan_id":"cebpf4jnsgd1na2vs0mg"},{"bike_id":"71450def-bce7-478d-b90f-c1917587cbdb","system_id":"levelo_inurba_marseille","lat":43.299222,"lon":5.365554,"is_reserved":false,"is_disabled":false,"rental_uris":{"android":"levelo://app?vid=71450def-bce7-478d-b90f-c1917587cbdb","ios":"levelo://app?vid=71450def-bce7-478d-b90f-c1917587cbdb"},"vehicle_type_id":"4","last_reported":1713564371,"current_range_meters":9200,"station_id":"ce4bgm92rcd13ifvqbr0","pricing_plan_id":"cebpf4jnsgd1na2vs0mg"},{"bike_id":"5051c838-fa11-46ad-9151-41d28694ae79","system_id":"levelo_inurba_marseille","lat":43.29984,"lon":5.3717,"is_reserved":false,"is_disabled":false,"rental_uris":{"android":"levelo://app?vid=5051c838-fa11-46ad-9151-41d28694ae79","ios":"levelo://app?vid=5051c838-fa11-46ad-9151-41d28694ae79"},"vehicle_type_id":"4","last_reported":1713564371,"current_range_meters":17600,"station_id":"ce4bgr92rcd13ifvqc7g","pricing_plan_id":"cebpf4jnsgd1na2vs0mg"},{"bike_id":"51d4e23c-30c4-43c8-8d0f-5e40f25eaf9e","system_id":"levelo_inurba_marseille","lat":43.29984,"lon":5.37172,"is_reserved":false,"is_disabled":false,"rental_uris":{"android":"levelo://app?vid=51d4e23c-30c4-43c8-8d0f-5e40f25eaf9e","ios":"levelo://app?vid=51d4e23c-30c4-43c8-8d0f-5e40f25eaf9e"},"vehicle_type_id":"4","last_reported":1713564371,"current_range_meters":13200,"station_id":"ce4bgr92rcd13ifvqc7g","pricing_plan_id":"cebpf4jnsgd1na2vs0mg"},{"bike_id":"269428ea-99bb-4710-9350-b42ae6e5c865","system_id":"levelo_inurba_marseille","lat":43.299427,"lon":5.36532,"is_reserved":false,"is_disabled":false,"rental_uris":{"android":"levelo://app?vid=269428ea-99bb-4710-9350-b42ae6e5c865","ios":"levelo://app?vid=269428ea-99bb-4710-9350-b42ae6e5c865"},"vehicle_type_id":"4","last_reported":1713564371,"current_range_meters":5600,"station_id":"ce4bgm92rcd13ifvqbr0","pricing_plan_id":"cebpf4jnsgd1na2vs0mg"},{"bike_id":"103137ce-5900-4527-9d80-3c8e1012f1a4","system_id":"levelo_inurba_marseille","lat":43.299222,"lon":5.365554,"is_reserved":false,"is_disabled":false,"rental_uris":{"android":"levelo://app?vid=103137ce-5900-4527-9d80-3c8e1012f1a4","ios":"levelo://app?vid=103137ce-5900-4527-9d80-3c8e1012f1a4"},"vehicle_type_id":"4","last_reported":1713564371,"current_range_meters":6800,"station_id":"ce4bgm92rcd13ifvqbr0","pricing_plan_id":"cebpf4jnsgd1na2vs0mg"},{"bike_id":"e91a43f2-fd5b-4c11-aea8-faeea8359a23","system_id":"levelo_inurba_marseille","lat":43.299222,"lon":5.365554,"is_reserved":false,"is_disabled":false,"rental_uris":{"android":"levelo://app?vid=e91a43f2-fd5b-4c11-aea8-faeea8359a23","ios":"levelo://app?vid=e91a43f2-fd5b-4c11-aea8-faeea8359a23"},"vehicle_type_id":"4","last_reported":1713564371,"current_range_meters":0,"station_id":"ce4bgm92rcd13ifvqbr0","pricing_plan_id":"cebpf4jnsgd1na2vs0mg"},{"bike_id":"3009bc70-352d-45f6-8283-bafaf65f8814","system_id":"levelo_inurba_marseille","lat":43.2998,"lon":5.3717,"is_reserved":false,"is_disabled":false,"rental_uris":{"android":"levelo://app?vid=3009bc70-352d-45f6-8283-bafaf65f8814","ios":"levelo://app?vid=3009bc70-352d-45f6-8283-bafaf65f8814"},"vehicle_type_id":"4","last_reported":1713564371,"current_range_meters":10000,"station_id":"ce4bgr92rcd13ifvqc7g","pricing_plan_id":"cebpf4jnsgd1na2vs0mg"},{"bike_id":"f021c851-4e51-4b95-9cd3-8ce5df61ca2e","system_id":"levelo_inurba_marseille","lat":43.299222,"lon":5.365554,"is_reserved":false,"is_disabled":false,"rental_uris":{"android":"levelo://app?vid=f021c851-4e51-4b95-9cd3-8ce5df61ca2e","ios":"levelo://app?vid=f021c851-4e51-4b95-9cd3-8ce5df61ca2e"},"vehicle_type_id":"4","last_reported":1713564371,"current_range_meters":0,"station_id":"ce4bgm92rcd13ifvqbr0","pricing_plan_id":"cebpf4jnsgd1na2vs0mg"},{"bike_id":"66b1d201-0132-4bbd-926d-3e7b41da9a8e","system_id":"levelo_inurba_marseille","lat":43.299222,"lon":5.365554,"is_reserved":false,"is_disabled":false,"rental_uris":{"android":"levelo://app?vid=66b1d201-0132-4bbd-926d-3e7b41da9a8e","ios":"levelo://app?vid=66b1d201-0132-4bbd-926d-3e7b41da9a8e"},"vehicle_type_id":"4","last_reported":1713564371,"current_range_meters":0,"station_id":"ce4bgm92rcd13ifvqbr0","pricing_plan_id":"cebpf4jnsgd1na2vs0mg"},{"bike_id":"b77ad503-2df2-42bb-85ac-560b2fa5b240","system_id":"levelo_inurba_marseille","lat":43.29977,"lon":5.37176,"is_reserved":false,"is_disabled":false,"rental_uris":{"android":"levelo://app?vid=b77ad503-2df2-42bb-85ac-560b2fa5b240","ios":"levelo://app?vid=b77ad503-2df2-42bb-85ac-560b2fa5b240"},"vehicle_type_id":"4","last_reported":1713564371,"current_range_meters":0,"station_id":"ce4bgr92rcd13ifvqc7g","pricing_plan_id":"cebpf4jnsgd1na2vs0mg"},{"bike_id":"ce8ed7f2-ee7e-4ae5-876f-99154cc47fe7","system_id":"levelo_inurba_marseille","lat":43.29977,"lon":5.37184,"is_reserved":false,"is_disabled":false,"rental_uris":{"android":"levelo://app?vid=ce8ed7f2-ee7e-4ae5-876f-99154cc47fe7","ios":"levelo://app?vid=ce8ed7f2-ee7e-4ae5-876f-99154cc47fe7"},"vehicle_type_id":"4","last_reported":1713564371,"current_range_meters":0,"station_id":"ce4bgr92rcd13ifvqc7g","pricing_plan_id":"cebpf4jnsgd1na2vs0mg"},{"bike_id":"b73511fc-4ef6-487a-ac9f-6f4685ce8340","system_id":"levelo_inurba_marseille","lat":43.299533,"lon":5.37152,"is_reserved":false,"is_disabled":false,"rental_uris":{"android":"levelo://app?vid=b73511fc-4ef6-487a-ac9f-6f4685ce8340","ios":"levelo://app?vid=b73511fc-4ef6-487a-ac9f-6f4685ce8340"},"vehicle_type_id":"4","last_reported":1713564371,"current_range_meters":26400,"station_id":"ce4bgr92rcd13ifvqc7g","pricing_plan_id":"cebpf4jnsgd1na2vs0mg"},{"bike_id":"a833e942-e21b-49d3-a1d1-5c28ce18cb11","system_id":"levelo_inurba_marseille","lat":43.305364,"lon":5.384119,"is_reserved":false,"is_disabled":false,"rental_uris":{"android":"levelo://app?vid=a833e942-e21b-49d3-a1d1-5c28ce18cb11","ios":"levelo://app?vid=a833e942-e21b-49d3-a1d1-5c28ce18cb11"},"vehicle_type_id":"4","last_reported":1713564371,"current_range_meters":5600,"station_id":"ce4bgg92rcd13ifvqb30","pricing_plan_id":"cebpf4jnsgd1na2vs0mg"},{"bike_id":"24bab8c6-ae39-42c6-98b4-e3ba54af7c97","system_id":"levelo_inurba_marseille","lat":43.299243,"lon":5.374807,"is_reserved":false,"is_disabled":false,"rental_uris":{"android":"levelo://app?vid=24bab8c6-ae39-42c6-98b4-e3ba54af7c97","ios":"levelo://app?vid=24bab8c6-ae39-42c6-98b4-e3ba54af7c97"},"vehicle_type_id":"4","last_reported":1713564371,"current_range_meters":14800,"station_id":"ce4bgjh2rcd13ifvqbg0","pricing_plan_id":"cebpf4jnsgd1na2vs0mg"},{"bike_id":"fe9766b5-7d26-4a11-afc7-b88841dc854f","system_id":"levelo_inurba_marseille","lat":43.3117,"lon":5.38709,"is_reserved":false,"is_disabled":false,"rental_uris":{"android":"levelo://app?vid=fe9766b5-7d26-4a11-afc7-b88841dc854f","ios":"levelo://app?vid=fe9766b5-7d26-4a11-afc7-b88841dc854f"},"vehicle_type_id":"4","last_reported":1713564371,"current_range_meters":0,"station_id":"ce4bgv12rcd13ifvqcp0","pricing_plan_id":"cebpf4jnsgd1na2vs0mg"},{"bike_id":"2f88d1c5-d99e-4a02-b8e2-eb583565d6d0","system_id":"levelo_inurba_marseille","lat":43.311722,"lon":5.387247,"is_reserved":false,"is_disabled":false,"rental_uris":{"android":"levelo://app?vid=2f88d1c5-d99e-4a02-b8e2-eb583565d6d0","ios":"levelo://app?vid=2f88d1c5-d99e-4a02-b8e2-eb583565d6d0"},"vehicle_type_id":"4","last_reported":1713564371,"current_range_meters":22000,"station_id":"ce4bgv12rcd13ifvqcp0","pricing_plan_id":"cebpf4jnsgd1na2vs0mg"},{"bike_id":"a35da45c-256f-4527-8853-862dc7c71ec8","system_id":"levelo_inurba_marseille","lat":43.299243,"lon":5.374807,"is_reserved":false,"is_disabled":false,"rental_uris":{"android":"levelo://app?vid=a35da45c-256f-4527-8853-862dc7c71ec8","ios":"levelo://app?vid=a35da45c-256f-4527-8853-862dc7c71ec8"},"vehicle_type_id":"4","last_reported":1713564371,"current_range_meters":15200,"station_id":"ce4bgjh2rcd13ifvqbg0","pricing_plan_id":"cebpf4jnsgd1na2vs0mg"},{"bike_id":"da75499d-e06a-45df-ab1e-83e81137fe4c","system_id":"levelo_inurba_marseille","lat":43.311722,"lon":5.387247,"is_reserved":false,"is_disabled":false,"rental_uris":{"android":"levelo://app?vid=da75499d-e06a-45df-ab1e-83e81137fe4c","ios":"levelo://app?vid=da75499d-e06a-45df-ab1e-83e81137fe4c"},"vehicle_type_id":"4","last_reported":1713564371,"current_range_meters":15200,"station_id":"ce4bgv12rcd13ifvqcp0","pricing_plan_id":"cebpf4jnsgd1na2vs0mg"},{"bike_id":"000bd0c8-a659-4235-b705-ef90b958b49c","system_id":"levelo_inurba_marseille","lat":43.31173,"lon":5.3872,"is_reserved":false,"is_disabled":false,"rental_uris":{"android":"levelo://app?vid=000bd0c8-a659-4235-b705-ef90b958b49c","ios":"levelo://app?vid=000bd0c8-a659-4235-b705-ef90b958b49c"},"vehicle_type_id":"4","last_reported":1713564371,"current_range_meters":0,"station_id":"ce4bgv12rcd13ifvqcp0","pricing_plan_id":"cebpf4jnsgd1na2vs0mg"},{"bike_id":"fe757425-f7fc-47cd-a383-8759f854cc74","system_id":"levelo_inurba_marseille","lat":43.299243,"lon":5.37481,"is_reserved":false,"is_disabled":false,"rental_uris":{"android":"levelo://app?vid=fe757425-f7fc-47cd-a383-8759f854cc74","ios":"levelo://app?vid=fe757425-f7fc-47cd-a383-8759f854cc74"},"vehicle_type_id":"4","last_reported":1713564371,"current_range_meters":10000,"station_id":"ce4bgjh2rcd13ifvqbg0","pricing_plan_id":"cebpf4jnsgd1na2vs0mg"},{"bike_id":"3d98f136-6030-4614-90dc-f97aafc301b8","system_id":"levelo_inurba_marseille","lat":43.311722,"lon":5.387247,"is_reserved":false,"is_disabled":false,"rental_uris":{"android":"levelo://app?vid=3d98f136-6030-4614-90dc-f97aafc301b8","ios":"levelo://app?vid=3d98f136-6030-4614-90dc-f97aafc301b8"},"vehicle_type_id":"4","last_reported":1713564371,"current_range_meters":23200,"station_id":"ce4bgv12rcd13ifvqcp0","pricing_plan_id":"cebpf4jnsgd1na2vs0mg"},{"bike_id":"4a6a2b2f-ca00-46b4-a562-cd14a5ccd665","system_id":"levelo_inurba_marseille","lat":43.299243,"lon":5.374807,"is_reserved":false,"is_disabled":false,"rental_uris":{"android":"levelo://app?vid=4a6a2b2f-ca00-46b4-a562-cd14a5ccd665","ios":"levelo://app?vid=4a6a2b2f-ca00-46b4-a562-cd14a5ccd665"},"vehicle_type_id":"4","last_reported":1713564371,"current_range_meters":26400,"station_id":"ce4bgjh2rcd13ifvqbg0","pricing_plan_id":"cebpf4jnsgd1na2vs0mg"},{"bike_id":"c39f52a1-85eb-4108-9b17-a793b457bb2c","system_id":"levelo_inurba_marseille","lat":43.311722,"lon":5.387247,"is_reserved":false,"is_disabled":false,"rental_uris":{"android":"levelo://app?vid=c39f52a1-85eb-4108-9b17-a793b457bb2c","ios":"levelo://app?vid=c39f52a1-85eb-4108-9b17-a793b457bb2c"},"vehicle_type_id":"4","last_reported":1713564371,"current_range_meters":18400,"station_id":"ce4bgv12rcd13ifvqcp0","pricing_plan_id":"cebpf4jnsgd1na2vs0mg"},{"bike_id":"319d272b-6fe4-4ec7-ba5f-b9398e11544b","system_id":"levelo_inurba_marseille","lat":43.297794,"lon":5.370888,"is_reserved":false,"is_disabled":false,"rental_uris":{"android":"levelo://app?vid=319d272b-6fe4-4ec7-ba5f-b9398e11544b","ios":"levelo://app?vid=319d272b-6fe4-4ec7-ba5f-b9398e11544b"},"vehicle_type_id":"4","last_reported":1713564371,"current_range_meters":9600,"station_id":"ce4bgop2rcd13ifvqc1g","pricing_plan_id":"cebpf4jnsgd1na2vs0mg"},{"bike_id":"eb0c76af-6c3d-44ba-a760-68795d8a3900","system_id":"levelo_inurba_marseille","lat":43.297774,"lon":5.370875,"is_reserved":false,"is_disabled":false,"rental_uris":{"android":"levelo://app?vid=eb0c76af-6c3d-44ba-a760-68795d8a3900","ios":"levelo://app?vid=eb0c76af-6c3d-44ba-a760-68795d8a3900"},"vehicle_type_id":"4","last_reported":1713564371,"current_range_meters":14000,"station_id":"ce4bgop2rcd13ifvqc1g","pricing_plan_id":"cebpf4jnsgd1na2vs0mg"},{"bike_id":"59c296c1-c1af-4a71-9e20-fa9c7f8757f9","system_id":"levelo_inurba_marseille","lat":43.322872,"lon":5.382756,"is_reserved":false,"is_disabled":false,"rental_uris":{"android":"levelo://app?vid=59c296c1-c1af-4a71-9e20-fa9c7f8757f9","ios":"levelo://app?vid=59c296c1-c1af-4a71-9e20-fa9c7f8757f9"},"vehicle_type_id":"4","last_reported":1713564371,"current_range_meters":31200,"station_id":"ce4bhr12rcd13ifvqhqg","pricing_plan_id":"cebpf4jnsgd1na2vs0mg"},{"bike_id":"eed8b952-a5a7-4e9b-9345-f9745e9a3e0b","system_id":"levelo_inurba_marseille","lat":43.32289,"lon":5.3826,"is_reserved":false,"is_disabled":false,"rental_uris":{"android":"levelo://app?vid=eed8b952-a5a7-4e9b-9345-f9745e9a3e0b","ios":"levelo://app?vid=eed8b952-a5a7-4e9b-9345-f9745e9a3e0b"},"vehicle_type_id":"4","last_reported":1713564371,"current_range_meters":7600,"station_id":"ce4bhr12rcd13ifvqhqg","pricing_plan_id":"cebpf4jnsgd1na2vs0mg"},{"bike_id":"d37c1300-16b8-430c-97e7-be7153b1d766","system_id":"levelo_inurba_marseille","lat":43.322872,"lon":5.382756,"is_reserved":false,"is_disabled":false,"rental_uris":{"android":"levelo://app?vid=d37c1300-16b8-430c-97e7-be7153b1d766","ios":"levelo://app?vid=d37c1300-16b8-430c-97e7-be7153b1d766"},"vehicle_type_id":"4","last_reported":1713564371,"current_range_meters":0,"station_id":"ce4bhr12rcd13ifvqhqg","pricing_plan_id":"cebpf4jnsgd1na2vs0mg"},{"bike_id":"b1c9170a-6a31-47d1-8e62-5b624c342910","system_id":"levelo_inurba_marseille","lat":43.322872,"lon":5.382756,"is_reserved":false,"is_disabled":false,"rental_uris":{"android":"levelo://app?vid=b1c9170a-6a31-47d1-8e62-5b624c342910","ios":"levelo://app?vid=b1c9170a-6a31-47d1-8e62-5b624c342910"},"vehicle_type_id":"4","last_reported":1713564371,"current_range_meters":12400,"station_id":"ce4bhr12rcd13ifvqhqg","pricing_plan_id":"cebpf4jnsgd1na2vs0mg"},{"bike_id":"f02710d2-1fee-4866-a021-12fd915ee40b","system_id":"levelo_inurba_marseille","lat":43.322872,"lon":5.382756,"is_reserved":false,"is_disabled":false,"rental_uris":{"android":"levelo://app?vid=f02710d2-1fee-4866-a021-12fd915ee40b","ios":"levelo://app?vid=f02710d2-1fee-4866-a021-12fd915ee40b"},"vehicle_type_id":"4","last_reported":1713564371,"current_range_meters":11600,"station_id":"ce4bhr12rcd13ifvqhqg","pricing_plan_id":"cebpf4jnsgd1na2vs0mg"},{"bike_id":"6a9bcf40-c5f9-44a4-a58e-664576d7b299","system_id":"levelo_inurba_marseille","lat":43.322872,"lon":5.382756,"is_reserved":false,"is_disabled":false,"rental_uris":{"android":"levelo://app?vid=6a9bcf40-c5f9-44a4-a58e-664576d7b299","ios":"levelo://app?vid=6a9bcf40-c5f9-44a4-a58e-664576d7b299"},"vehicle_type_id":"4","last_reported":1713564371,"current_range_meters":19600,"station_id":"ce4bhr12rcd13ifvqhqg","pricing_plan_id":"cebpf4jnsgd1na2vs0mg"},{"bike_id":"aa38acc2-91cb-407c-ac8c-05b08cc96e3e","system_id":"levelo_inurba_marseille","lat":43.322872,"lon":5.382756,"is_reserved":false,"is_disabled":false,"rental_uris":{"android":"levelo://app?vid=aa38acc2-91cb-407c-ac8c-05b08cc96e3e","ios":"levelo://app?vid=aa38acc2-91cb-407c-ac8c-05b08cc96e3e"},"vehicle_type_id":"4","last_reported":1713564371,"current_range_meters":31200,"station_id":"ce4bhr12rcd13ifvqhqg","pricing_plan_id":"cebpf4jnsgd1na2vs0mg"},{"bike_id":"76931112-13b2-4ce1-aed6-6fa548f70599","system_id":"levelo_inurba_marseille","lat":43.322872,"lon":5.382756,"is_reserved":false,"is_disabled":false,"rental_uris":{"android":"levelo://app?vid=76931112-13b2-4ce1-aed6-6fa548f70599","ios":"levelo://app?vid=76931112-13b2-4ce1-aed6-6fa548f70599"},"vehicle_type_id":"4","last_reported":1713564371,"current_range_meters":29600,"station_id":"ce4bhr12rcd13ifvqhqg","pricing_plan_id":"cebpf4jnsgd1na2vs0mg"},{"bike_id":"a4e08546-6278-4fec-a3f5-ea17e1bddef5","system_id":"levelo_inurba_marseille","lat":43.322889,"lon":5.382757,"is_reserved":false,"is_disabled":false,"rental_uris":{"android":"levelo://app?vid=a4e08546-6278-4fec-a3f5-ea17e1bddef5","ios":"levelo://app?vid=a4e08546-6278-4fec-a3f5-ea17e1bddef5"},"vehicle_type_id":"4","last_reported":1713564371,"current_range_meters":11600,"station_id":"ce4bhr12rcd13ifvqhqg","pricing_plan_id":"cebpf4jnsgd1na2vs0mg"},{"bike_id":"e5df68f6-b1ff-4d0a-b7e9-c02ca9b8210e","system_id":"levelo_inurba_marseille","lat":43.322915,"lon":5.382735,"is_reserved":false,"is_disabled":false,"rental_uris":{"android":"levelo://app?vid=e5df68f6-b1ff-4d0a-b7e9-c02ca9b8210e","ios":"levelo://app?vid=e5df68f6-b1ff-4d0a-b7e9-c02ca9b8210e"},"vehicle_type_id":"4","last_reported":1713564371,"current_range_meters":31200,"station_id":"ce4bhr12rcd13ifvqhqg","pricing_plan_id":"cebpf4jnsgd1na2vs0mg"},{"bike_id":"f9d52962-cee5-4081-bd9c-7cd3243991fc","system_id":"levelo_inurba_marseille","lat":43.322869,"lon":5.38281,"is_reserved":false,"is_disabled":false,"rental_uris":{"android":"levelo://app?vid=f9d52962-cee5-4081-bd9c-7cd3243991fc","ios":"levelo://app?vid=f9d52962-cee5-4081-bd9c-7cd3243991fc"},"vehicle_type_id":"4","last_reported":1713564371,"current_range_meters":0,"station_id":"ce4bhr12rcd13ifvqhqg","pricing_plan_id":"cebpf4jnsgd1na2vs0mg"},{"bike_id":"c1c913df-b844-406e-83f7-dff5f43f7dc5","system_id":"levelo_inurba_marseille","lat":43.322889,"lon":5.382805,"is_reserved":false,"is_disabled":false,"rental_uris":{"android":"levelo://app?vid=c1c913df-b844-406e-83f7-dff5f43f7dc5","ios":"levelo://app?vid=c1c913df-b844-406e-83f7-dff5f43f7dc5"},"vehicle_type_id":"4","last_reported":1713564371,"current_range_meters":31200,"station_id":"ce4bhr12rcd13ifvqhqg","pricing_plan_id":"cebpf4jnsgd1na2vs0mg"},{"bike_id":"3a777aae-0d2a-4638-8c09-6f1de81534e0","system_id":"levelo_inurba_marseille","lat":43.32289,"lon":5.38288,"is_reserved":false,"is_disabled":false,"rental_uris":{"android":"levelo://app?vid=3a777aae-0d2a-4638-8c09-6f1de81534e0","ios":"levelo://app?vid=3a777aae-0d2a-4638-8c09-6f1de81534e0"},"vehicle_type_id":"4","last_reported":1713564371,"current_range_meters":28000,"station_id":"ce4bhr12rcd13ifvqhqg","pricing_plan_id":"cebpf4jnsgd1na2vs0mg"},{"bike_id":"b53cc90b-434e-4b5b-8bca-9d7d3aa072d1","system_id":"levelo_inurba_marseille","lat":43.297163,"lon":5.365866,"is_reserved":false,"is_disabled":false,"rental_uris":{"android":"levelo://app?vid=b53cc90b-434e-4b5b-8bca-9d7d3aa072d1","ios":"levelo://app?vid=b53cc90b-434e-4b5b-8bca-9d7d3aa072d1"},"vehicle_type_id":"4","last_reported":1713564371,"current_range_meters":30000,"station_id":"ce4bgn12rcd13ifvqbt0","pricing_plan_id":"cebpf4jnsgd1na2vs0mg"},{"bike_id":"d7d49040-72ee-4b72-8355-3e9e81222396","system_id":"levelo_inurba_marseille","lat":43.298655,"lon":5.376535,"is_reserved":false,"is_disabled":false,"rental_uris":{"android":"levelo://app?vid=d7d49040-72ee-4b72-8355-3e9e81222396","ios":"levelo://app?vid=d7d49040-72ee-4b72-8355-3e9e81222396"},"vehicle_type_id":"4","last_reported":1713564371,"current_range_meters":0,"station_id":"","pricing_plan_id":"cebpf4jnsgd1na2vs0mg"},{"bike_id":"267fdf43-6e67-4d4e-aa86-32eb6ac9cb1d","system_id":"levelo_inurba_marseille","lat":43.297163,"lon":5.365866,"is_reserved":false,"is_disabled":false,"rental_uris":{"android":"levelo://app?vid=267fdf43-6e67-4d4e-aa86-32eb6ac9cb1d","ios":"levelo://app?vid=267fdf43-6e67-4d4e-aa86-32eb6ac9cb1d"},"vehicle_type_id":"4","last_reported":1713564371,"current_range_meters":9200,"station_id":"ce4bgn12rcd13ifvqbt0","pricing_plan_id":"cebpf4jnsgd1na2vs0mg"},{"bike_id":"c612f794-3582-4e14-bf72-9d2ecf180c5c","system_id":"levelo_inurba_marseille","lat":43.297163,"lon":5.365866,"is_reserved":false,"is_disabled":false,"rental_uris":{"android":"levelo://app?vid=c612f794-3582-4e14-bf72-9d2ecf180c5c","ios":"levelo://app?vid=c612f794-3582-4e14-bf72-9d2ecf180c5c"},"vehicle_type_id":"4","last_reported":1713564371,"current_range_meters":7200,"station_id":"ce4bgn12rcd13ifvqbt0","pricing_plan_id":"cebpf4jnsgd1na2vs0mg"},{"bike_id":"8d1d20a6-00d7-4350-8306-c7a4b4a7f9e1","system_id":"levelo_inurba_marseille","lat":43.29573,"lon":5.367355,"is_reserved":false,"is_disabled":false,"rental_uris":{"android":"levelo://app?vid=8d1d20a6-00d7-4350-8306-c7a4b4a7f9e1","ios":"levelo://app?vid=8d1d20a6-00d7-4350-8306-c7a4b4a7f9e1"},"vehicle_type_id":"4","last_reported":1713564371,"current_range_meters":5200,"station_id":"ce4bgph2rcd13ifvqc2g","pricing_plan_id":"cebpf4jnsgd1na2vs0mg"},{"bike_id":"4aba58ea-852b-4180-ad26-f17670732429","system_id":"levelo_inurba_marseille","lat":43.29722,"lon":5.37705,"is_reserved":false,"is_disabled":false,"rental_uris":{"android":"levelo://app?vid=4aba58ea-852b-4180-ad26-f17670732429","ios":"levelo://app?vid=4aba58ea-852b-4180-ad26-f17670732429"},"vehicle_type_id":"4","last_reported":1713564371,"current_range_meters":0,"station_id":"ce4bgkh2rcd13ifvqbl0","pricing_plan_id":"cebpf4jnsgd1na2vs0mg"},{"bike_id":"4c7e1cac-9f40-4304-b5f7-a28308ddce6e","system_id":"levelo_inurba_marseille","lat":43.30959,"lon":5.390246,"is_reserved":false,"is_disabled":false,"rental_uris":{"android":"levelo://app?vid=4c7e1cac-9f40-4304-b5f7-a28308ddce6e","ios":"levelo://app?vid=4c7e1cac-9f40-4304-b5f7-a28308ddce6e"},"vehicle_type_id":"4","last_reported":1713564371,"current_range_meters":0,"station_id":"ce4bgup2rcd13ifvqco0","pricing_plan_id":"cebpf4jnsgd1na2vs0mg"},{"bike_id":"bf0fa345-6854-4c49-bad9-c611ddf6f8e4","system_id":"levelo_inurba_marseille","lat":43.309589,"lon":5.390258,"is_reserved":false,"is_disabled":false,"rental_uris":{"android":"levelo://app?vid=bf0fa345-6854-4c49-bad9-c611ddf6f8e4","ios":"levelo://app?vid=bf0fa345-6854-4c49-bad9-c611ddf6f8e4"},"vehicle_type_id":"4","last_reported":1713564371,"current_range_meters":16000,"station_id":"ce4bgup2rcd13ifvqco0","pricing_plan_id":"cebpf4jnsgd1na2vs0mg"},{"bike_id":"530c74cc-8fd7-4d19-ba18-099a6ad1f4db","system_id":"levelo_inurba_marseille","lat":43.30951,"lon":5.39041,"is_reserved":false,"is_disabled":false,"rental_uris":{"android":"levelo://app?vid=530c74cc-8fd7-4d19-ba18-099a6ad1f4db","ios":"levelo://app?vid=530c74cc-8fd7-4d19-ba18-099a6ad1f4db"},"vehicle_type_id":"4","last_reported":1713564371,"current_range_meters":0,"station_id":"ce4bgup2rcd13ifvqco0","pricing_plan_id":"cebpf4jnsgd1na2vs0mg"},{"bike_id":"c1737f14-581c-4dde-8fe3-87a16483ad77","system_id":"levelo_inurba_marseille","lat":43.317557,"lon":5.390173,"is_reserved":false,"is_disabled":false,"rental_uris":{"android":"levelo://app?vid=c1737f14-581c-4dde-8fe3-87a16483ad77","ios":"levelo://app?vid=c1737f14-581c-4dde-8fe3-87a16483ad77"},"vehicle_type_id":"4","last_reported":1713564371,"current_range_meters":18400,"station_id":"ce4bhqp2rcd13ifvqhng","pricing_plan_id":"cebpf4jnsgd1na2vs0mg"},{"bike_id":"a6a9e2cb-d764-45b5-9ae8-928a021dfccb","system_id":"levelo_inurba_marseille","lat":43.317557,"lon":5.390173,"is_reserved":false,"is_disabled":false,"rental_uris":{"android":"levelo://app?vid=a6a9e2cb-d764-45b5-9ae8-928a021dfccb","ios":"levelo://app?vid=a6a9e2cb-d764-45b5-9ae8-928a021dfccb"},"vehicle_type_id":"4","last_reported":1713564371,"current_range_meters":17200,"station_id":"ce4bhqp2rcd13ifvqhng","pricing_plan_id":"cebpf4jnsgd1na2vs0mg"},{"bike_id":"7e2c24b3-2300-4592-8529-a46db9a1bbdd","system_id":"levelo_inurba_marseille","lat":43.317557,"lon":5.390173,"is_reserved":false,"is_disabled":false,"rental_uris":{"android":"levelo://app?vid=7e2c24b3-2300-4592-8529-a46db9a1bbdd","ios":"levelo://app?vid=7e2c24b3-2300-4592-8529-a46db9a1bbdd"},"vehicle_type_id":"4","last_reported":1713564371,"current_range_meters":28800,"station_id":"ce4bhqp2rcd13ifvqhng","pricing_plan_id":"cebpf4jnsgd1na2vs0mg"},{"bike_id":"accff90c-c335-4f01-b8b2-a8d96efd8224","system_id":"levelo_inurba_marseille","lat":43.317557,"lon":5.390173,"is_reserved":false,"is_disabled":false,"rental_uris":{"android":"levelo://app?vid=accff90c-c335-4f01-b8b2-a8d96efd8224","ios":"levelo://app?vid=accff90c-c335-4f01-b8b2-a8d96efd8224"},"vehicle_type_id":"4","last_reported":1713564371,"current_range_meters":9200,"station_id":"ce4bhqp2rcd13ifvqhng","pricing_plan_id":"cebpf4jnsgd1na2vs0mg"},{"bike_id":"a31ceebe-807b-48f7-b0c6-1ea887dd6ce8","system_id":"levelo_inurba_marseille","lat":43.317557,"lon":5.390173,"is_reserved":false,"is_disabled":false,"rental_uris":{"android":"levelo://app?vid=a31ceebe-807b-48f7-b0c6-1ea887dd6ce8","ios":"levelo://app?vid=a31ceebe-807b-48f7-b0c6-1ea887dd6ce8"},"vehicle_type_id":"4","last_reported":1713564371,"current_range_meters":24000,"station_id":"ce4bhqp2rcd13ifvqhng","pricing_plan_id":"cebpf4jnsgd1na2vs0mg"},{"bike_id":"0c7aa32f-0217-40ec-8971-b91bb8bc79f9","system_id":"levelo_inurba_marseille","lat":43.317457,"lon":5.390273,"is_reserved":false,"is_disabled":false,"rental_uris":{"android":"levelo://app?vid=0c7aa32f-0217-40ec-8971-b91bb8bc79f9","ios":"levelo://app?vid=0c7aa32f-0217-40ec-8971-b91bb8bc79f9"},"vehicle_type_id":"4","last_reported":1713564371,"current_range_meters":800,"station_id":"ce4bhqp2rcd13ifvqhng","pricing_plan_id":"cebpf4jnsgd1na2vs0mg"},{"bike_id":"2ab48669-e241-4b6d-9fb3-2db434ab2118","system_id":"levelo_inurba_marseille","lat":43.317557,"lon":5.390173,"is_reserved":false,"is_disabled":false,"rental_uris":{"android":"levelo://app?vid=2ab48669-e241-4b6d-9fb3-2db434ab2118","ios":"levelo://app?vid=2ab48669-e241-4b6d-9fb3-2db434ab2118"},"vehicle_type_id":"4","last_reported":1713564371,"current_range_meters":800,"station_id":"ce4bhqp2rcd13ifvqhng","pricing_plan_id":"cebpf4jnsgd1na2vs0mg"},{"bike_id":"78c5f987-7485-4774-be75-5e9b8a2d0aca","system_id":"levelo_inurba_marseille","lat":43.295779,"lon":5.37525,"is_reserved":false,"is_disabled":false,"rental_uris":{"android":"levelo://app?vid=78c5f987-7485-4774-be75-5e9b8a2d0aca","ios":"levelo://app?vid=78c5f987-7485-4774-be75-5e9b8a2d0aca"},"vehicle_type_id":"4","last_reported":1713564371,"current_range_meters":0,"station_id":"ce4bgh92rcd13ifvqb50","pricing_plan_id":"cebpf4jnsgd1na2vs0mg"},{"bike_id":"692c7eef-f475-4475-b71c-e97c9a6f6c29","system_id":"levelo_inurba_marseille","lat":43.301939,"lon":5.366286,"is_reserved":false,"is_disabled":false,"rental_uris":{"android":"levelo://app?vid=692c7eef-f475-4475-b71c-e97c9a6f6c29","ios":"levelo://app?vid=692c7eef-f475-4475-b71c-e97c9a6f6c29"},"vehicle_type_id":"4","last_reported":1713564371,"current_range_meters":10000,"station_id":"ce4bgrh2rcd13ifvqc8g","pricing_plan_id":"cebpf4jnsgd1na2vs0mg"},{"bike_id":"00f5ea0f-0cf0-4095-b90b-c0818c3d1fe3","system_id":"levelo_inurba_marseille","lat":43.304274,"lon":5.388873,"is_reserved":false,"is_disabled":false,"rental_uris":{"android":"levelo://app?vid=00f5ea0f-0cf0-4095-b90b-c0818c3d1fe3","ios":"levelo://app?vid=00f5ea0f-0cf0-4095-b90b-c0818c3d1fe3"},"vehicle_type_id":"4","last_reported":1713564371,"current_range_meters":15200,"station_id":"ce4bgk12rcd13ifvqbi0","pricing_plan_id":"cebpf4jnsgd1na2vs0mg"},{"bike_id":"3faf0f83-2831-45d2-9a68-799823efe2ec","system_id":"levelo_inurba_marseille","lat":43.29627,"lon":5.37707,"is_reserved":false,"is_disabled":false,"rental_uris":{"android":"levelo://app?vid=3faf0f83-2831-45d2-9a68-799823efe2ec","ios":"levelo://app?vid=3faf0f83-2831-45d2-9a68-799823efe2ec"},"vehicle_type_id":"4","last_reported":1713564371,"current_range_meters":400,"station_id":"ce4bgi92rcd13ifvqb90","pricing_plan_id":"cebpf4jnsgd1na2vs0mg"},{"bike_id":"f866ff72-99b2-4ed4-aa09-9d9a3a0f81b0","system_id":"levelo_inurba_marseille","lat":43.304278,"lon":5.388868,"is_reserved":false,"is_disabled":false,"rental_uris":{"android":"levelo://app?vid=f866ff72-99b2-4ed4-aa09-9d9a3a0f81b0","ios":"levelo://app?vid=f866ff72-99b2-4ed4-aa09-9d9a3a0f81b0"},"vehicle_type_id":"4","last_reported":1713564371,"current_range_meters":12000,"station_id":"ce4bgk12rcd13ifvqbi0","pricing_plan_id":"cebpf4jnsgd1na2vs0mg"},{"bike_id":"68a77fa6-c343-48f3-b38c-8e98ce1adcfd","system_id":"levelo_inurba_marseille","lat":43.296263,"lon":5.377094,"is_reserved":false,"is_disabled":false,"rental_uris":{"android":"levelo://app?vid=68a77fa6-c343-48f3-b38c-8e98ce1adcfd","ios":"levelo://app?vid=68a77fa6-c343-48f3-b38c-8e98ce1adcfd"},"vehicle_type_id":"4","last_reported":1713564371,"current_range_meters":20400,"station_id":"ce4bgi92rcd13ifvqb90","pricing_plan_id":"cebpf4jnsgd1na2vs0mg"},{"bike_id":"17f0a890-1ec2-4673-9f4b-67cbd9cb3da2","system_id":"levelo_inurba_marseille","lat":43.304278,"lon":5.388868,"is_reserved":false,"is_disabled":false,"rental_uris":{"android":"levelo://app?vid=17f0a890-1ec2-4673-9f4b-67cbd9cb3da2","ios":"levelo://app?vid=17f0a890-1ec2-4673-9f4b-67cbd9cb3da2"},"vehicle_type_id":"4","last_reported":1713564371,"current_range_meters":17200,"station_id":"ce4bgk12rcd13ifvqbi0","pricing_plan_id":"cebpf4jnsgd1na2vs0mg"},{"bike_id":"46ccb083-2e8c-4658-adf3-86949a7fa964","system_id":"levelo_inurba_marseille","lat":43.304274,"lon":5.388873,"is_reserved":false,"is_disabled":false,"rental_uris":{"android":"levelo://app?vid=46ccb083-2e8c-4658-adf3-86949a7fa964","ios":"levelo://app?vid=46ccb083-2e8c-4658-adf3-86949a7fa964"},"vehicle_type_id":"4","last_reported":1713564371,"current_range_meters":27600,"station_id":"ce4bgk12rcd13ifvqbi0","pricing_plan_id":"cebpf4jnsgd1na2vs0mg"},{"bike_id":"8238104f-f3d0-48e4-8fbd-e2598e149dd8","system_id":"levelo_inurba_marseille","lat":43.304274,"lon":5.388873,"is_reserved":false,"is_disabled":false,"rental_uris":{"android":"levelo://app?vid=8238104f-f3d0-48e4-8fbd-e2598e149dd8","ios":"levelo://app?vid=8238104f-f3d0-48e4-8fbd-e2598e149dd8"},"vehicle_type_id":"4","last_reported":1713564371,"current_range_meters":0,"station_id":"ce4bgk12rcd13ifvqbi0","pricing_plan_id":"cebpf4jnsgd1na2vs0mg"},{"bike_id":"d35f9dd2-bba1-459c-ae37-b9dbc94ff70f","system_id":"levelo_inurba_marseille","lat":43.295279,"lon":5.375048,"is_reserved":false,"is_disabled":false,"rental_uris":{"android":"levelo://app?vid=d35f9dd2-bba1-459c-ae37-b9dbc94ff70f","ios":"levelo://app?vid=d35f9dd2-bba1-459c-ae37-b9dbc94ff70f"},"vehicle_type_id":"4","last_reported":1713564371,"current_range_meters":16800,"station_id":"ce4bgkp2rcd13ifvqbmg","pricing_plan_id":"cebpf4jnsgd1na2vs0mg"},{"bike_id":"7180b99c-356b-47b7-929a-37f20ff22490","system_id":"levelo_inurba_marseille","lat":43.29517,"lon":5.37507,"is_reserved":false,"is_disabled":false,"rental_uris":{"android":"levelo://app?vid=7180b99c-356b-47b7-929a-37f20ff22490","ios":"levelo://app?vid=7180b99c-356b-47b7-929a-37f20ff22490"},"vehicle_type_id":"4","last_reported":1713564371,"current_range_meters":19600,"station_id":"ce4bgkp2rcd13ifvqbmg","pricing_plan_id":"cebpf4jnsgd1na2vs0mg"},{"bike_id":"03d28376-1247-45eb-8d2f-2f3f5c942741","system_id":"levelo_inurba_marseille","lat":43.292749,"lon":5.368402,"is_reserved":false,"is_disabled":false,"rental_uris":{"android":"levelo://app?vid=03d28376-1247-45eb-8d2f-2f3f5c942741","ios":"levelo://app?vid=03d28376-1247-45eb-8d2f-2f3f5c942741"},"vehicle_type_id":"4","last_reported":1713564371,"current_range_meters":18000,"station_id":"ce4bhbp2rcd13ifvqesg","pricing_plan_id":"cebpf4jnsgd1na2vs0mg"},{"bike_id":"3896c664-50fa-42db-9a2c-2d55be44e9c6","system_id":"levelo_inurba_marseille","lat":43.32363,"lon":5.3888,"is_reserved":false,"is_disabled":false,"rental_uris":{"android":"levelo://app?vid=3896c664-50fa-42db-9a2c-2d55be44e9c6","ios":"levelo://app?vid=3896c664-50fa-42db-9a2c-2d55be44e9c6"},"vehicle_type_id":"4","last_reported":1713564371,"current_range_meters":13600,"station_id":"ce4bhqp2rcd13ifvqhog","pricing_plan_id":"cebpf4jnsgd1na2vs0mg"},{"bike_id":"d25c91a1-9263-428b-9fae-52e7d1c957f8","system_id":"levelo_inurba_marseille","lat":43.32367,"lon":5.388836,"is_reserved":false,"is_disabled":false,"rental_uris":{"android":"levelo://app?vid=d25c91a1-9263-428b-9fae-52e7d1c957f8","ios":"levelo://app?vid=d25c91a1-9263-428b-9fae-52e7d1c957f8"},"vehicle_type_id":"4","last_reported":1713564371,"current_range_meters":0,"station_id":"ce4bhqp2rcd13ifvqhog","pricing_plan_id":"cebpf4jnsgd1na2vs0mg"},{"bike_id":"35b47149-410f-4c23-b596-4e1758b7b422","system_id":"levelo_inurba_marseille","lat":43.32365,"lon":5.38882,"is_reserved":false,"is_disabled":false,"rental_uris":{"android":"levelo://app?vid=35b47149-410f-4c23-b596-4e1758b7b422","ios":"levelo://app?vid=35b47149-410f-4c23-b596-4e1758b7b422"},"vehicle_type_id":"4","last_reported":1713564371,"current_range_meters":0,"station_id":"ce4bhqp2rcd13ifvqhog","pricing_plan_id":"cebpf4jnsgd1na2vs0mg"},{"bike_id":"9250474f-8dc2-4068-98be-1996c9986e22","system_id":"levelo_inurba_marseille","lat":43.32364,"lon":5.38884,"is_reserved":false,"is_disabled":false,"rental_uris":{"android":"levelo://app?vid=9250474f-8dc2-4068-98be-1996c9986e22","ios":"levelo://app?vid=9250474f-8dc2-4068-98be-1996c9986e22"},"vehicle_type_id":"4","last_reported":1713564371,"current_range_meters":25600,"station_id":"","pricing_plan_id":"cebpf4jnsgd1na2vs0mg"},{"bike_id":"19af0ee7-bde5-49a6-a339-b58324787ab5","system_id":"levelo_inurba_marseille","lat":43.32367,"lon":5.388836,"is_reserved":false,"is_disabled":false,"rental_uris":{"android":"levelo://app?vid=19af0ee7-bde5-49a6-a339-b58324787ab5","ios":"levelo://app?vid=19af0ee7-bde5-49a6-a339-b58324787ab5"},"vehicle_type_id":"4","last_reported":1713564371,"current_range_meters":24800,"station_id":"ce4bhqp2rcd13ifvqhog","pricing_plan_id":"cebpf4jnsgd1na2vs0mg"},{"bike_id":"a4817674-3392-4416-bf32-d7104a27159f","system_id":"levelo_inurba_marseille","lat":43.32367,"lon":5.388836,"is_reserved":false,"is_disabled":false,"rental_uris":{"android":"levelo://app?vid=a4817674-3392-4416-bf32-d7104a27159f","ios":"levelo://app?vid=a4817674-3392-4416-bf32-d7104a27159f"},"vehicle_type_id":"4","last_reported":1713564371,"current_range_meters":6400,"station_id":"ce4bhqp2rcd13ifvqhog","pricing_plan_id":"cebpf4jnsgd1na2vs0mg"},{"bike_id":"ccd394da-1307-4dbf-acdf-bc0d9f4cdd82","system_id":"levelo_inurba_marseille","lat":43.32367,"lon":5.388836,"is_reserved":false,"is_disabled":false,"rental_uris":{"android":"levelo://app?vid=ccd394da-1307-4dbf-acdf-bc0d9f4cdd82","ios":"levelo://app?vid=ccd394da-1307-4dbf-acdf-bc0d9f4cdd82"},"vehicle_type_id":"4","last_reported":1713564371,"current_range_meters":15600,"station_id":"ce4bhqp2rcd13ifvqhog","pricing_plan_id":"cebpf4jnsgd1na2vs0mg"},{"bike_id":"10bd876b-372c-48b6-9eea-48946bb81dd8","system_id":"levelo_inurba_marseille","lat":43.32367,"lon":5.388836,"is_reserved":false,"is_disabled":false,"rental_uris":{"android":"levelo://app?vid=10bd876b-372c-48b6-9eea-48946bb81dd8","ios":"levelo://app?vid=10bd876b-372c-48b6-9eea-48946bb81dd8"},"vehicle_type_id":"4","last_reported":1713564371,"current_range_meters":11200,"station_id":"ce4bhqp2rcd13ifvqhog","pricing_plan_id":"cebpf4jnsgd1na2vs0mg"},{"bike_id":"9221273c-cb04-4701-8749-d23ab7a1662c","system_id":"levelo_inurba_marseille","lat":43.32367,"lon":5.388836,"is_reserved":false,"is_disabled":false,"rental_uris":{"android":"levelo://app?vid=9221273c-cb04-4701-8749-d23ab7a1662c","ios":"levelo://app?vid=9221273c-cb04-4701-8749-d23ab7a1662c"},"vehicle_type_id":"4","last_reported":1713564371,"current_range_meters":26000,"station_id":"ce4bhqp2rcd13ifvqhog","pricing_plan_id":"cebpf4jnsgd1na2vs0mg"},{"bike_id":"b80d2e23-7f42-4e42-a45f-1d255d7daacb","system_id":"levelo_inurba_marseille","lat":43.32367,"lon":5.388836,"is_reserved":false,"is_disabled":false,"rental_uris":{"android":"levelo://app?vid=b80d2e23-7f42-4e42-a45f-1d255d7daacb","ios":"levelo://app?vid=b80d2e23-7f42-4e42-a45f-1d255d7daacb"},"vehicle_type_id":"4","last_reported":1713564371,"current_range_meters":6000,"station_id":"ce4bhqp2rcd13ifvqhog","pricing_plan_id":"cebpf4jnsgd1na2vs0mg"},{"bike_id":"0d24d767-3199-450c-bf2c-8fb7ca9b8331","system_id":"levelo_inurba_marseille","lat":43.32367,"lon":5.388836,"is_reserved":false,"is_disabled":false,"rental_uris":{"android":"levelo://app?vid=0d24d767-3199-450c-bf2c-8fb7ca9b8331","ios":"levelo://app?vid=0d24d767-3199-450c-bf2c-8fb7ca9b8331"},"vehicle_type_id":"4","last_reported":1713564371,"current_range_meters":14400,"station_id":"ce4bhqp2rcd13ifvqhog","pricing_plan_id":"cebpf4jnsgd1na2vs0mg"},{"bike_id":"b709ef4c-e43b-4a37-b730-414a4c029166","system_id":"levelo_inurba_marseille","lat":43.32367,"lon":5.388836,"is_reserved":false,"is_disabled":false,"rental_uris":{"android":"levelo://app?vid=b709ef4c-e43b-4a37-b730-414a4c029166","ios":"levelo://app?vid=b709ef4c-e43b-4a37-b730-414a4c029166"},"vehicle_type_id":"4","last_reported":1713564371,"current_range_meters":15600,"station_id":"ce4bhqp2rcd13ifvqhog","pricing_plan_id":"cebpf4jnsgd1na2vs0mg"},{"bike_id":"5caceea8-af1f-42a5-9f54-fbd64a91ce84","system_id":"levelo_inurba_marseille","lat":43.32367,"lon":5.388836,"is_reserved":false,"is_disabled":false,"rental_uris":{"android":"levelo://app?vid=5caceea8-af1f-42a5-9f54-fbd64a91ce84","ios":"levelo://app?vid=5caceea8-af1f-42a5-9f54-fbd64a91ce84"},"vehicle_type_id":"4","last_reported":1713564371,"current_range_meters":4400,"station_id":"ce4bhqp2rcd13ifvqhog","pricing_plan_id":"cebpf4jnsgd1na2vs0mg"},{"bike_id":"da34b79f-defa-47f0-9672-afd4dc222eef","system_id":"levelo_inurba_marseille","lat":43.32367,"lon":5.388836,"is_reserved":false,"is_disabled":false,"rental_uris":{"android":"levelo://app?vid=da34b79f-defa-47f0-9672-afd4dc222eef","ios":"levelo://app?vid=da34b79f-defa-47f0-9672-afd4dc222eef"},"vehicle_type_id":"4","last_reported":1713564371,"current_range_meters":0,"station_id":"ce4bhqp2rcd13ifvqhog","pricing_plan_id":"cebpf4jnsgd1na2vs0mg"},{"bike_id":"12f10f39-a237-41e4-b134-d175f56612fc","system_id":"levelo_inurba_marseille","lat":43.29602,"lon":5.381084,"is_reserved":false,"is_disabled":false,"rental_uris":{"android":"levelo://app?vid=12f10f39-a237-41e4-b134-d175f56612fc","ios":"levelo://app?vid=12f10f39-a237-41e4-b134-d175f56612fc"},"vehicle_type_id":"4","last_reported":1713564371,"current_range_meters":0,"station_id":"ce4bgl12rcd13ifvqbo0","pricing_plan_id":"cebpf4jnsgd1na2vs0mg"},{"bike_id":"b9d212f6-6b2f-4f2c-99e5-5d103a2076d0","system_id":"levelo_inurba_marseille","lat":43.29602,"lon":5.381084,"is_reserved":false,"is_disabled":false,"rental_uris":{"android":"levelo://app?vid=b9d212f6-6b2f-4f2c-99e5-5d103a2076d0","ios":"levelo://app?vid=b9d212f6-6b2f-4f2c-99e5-5d103a2076d0"},"vehicle_type_id":"4","last_reported":1713564371,"current_range_meters":8000,"station_id":"ce4bgl12rcd13ifvqbo0","pricing_plan_id":"cebpf4jnsgd1na2vs0mg"},{"bike_id":"83a87988-bf3f-4150-9b43-3d15cfbf0f88","system_id":"levelo_inurba_marseille","lat":43.29602,"lon":5.381084,"is_reserved":false,"is_disabled":false,"rental_uris":{"android":"levelo://app?vid=83a87988-bf3f-4150-9b43-3d15cfbf0f88","ios":"levelo://app?vid=83a87988-bf3f-4150-9b43-3d15cfbf0f88"},"vehicle_type_id":"4","last_reported":1713564371,"current_range_meters":6800,"station_id":"ce4bgl12rcd13ifvqbo0","pricing_plan_id":"cebpf4jnsgd1na2vs0mg"},{"bike_id":"21bccb87-170c-452e-adae-f673c544786b","system_id":"levelo_inurba_marseille","lat":43.292749,"lon":5.368402,"is_reserved":false,"is_disabled":false,"rental_uris":{"android":"levelo://app?vid=21bccb87-170c-452e-adae-f673c544786b","ios":"levelo://app?vid=21bccb87-170c-452e-adae-f673c544786b"},"vehicle_type_id":"4","last_reported":1713564371,"current_range_meters":0,"station_id":"ce4bhbp2rcd13ifvqesg","pricing_plan_id":"cebpf4jnsgd1na2vs0mg"},{"bike_id":"0cd63970-a39c-4875-91f4-5413c81ad36f","system_id":"levelo_inurba_marseille","lat":43.29314,"lon":5.37172,"is_reserved":false,"is_disabled":false,"rental_uris":{"android":"levelo://app?vid=0cd63970-a39c-4875-91f4-5413c81ad36f","ios":"levelo://app?vid=0cd63970-a39c-4875-91f4-5413c81ad36f"},"vehicle_type_id":"4","last_reported":1713564371,"current_range_meters":28800,"station_id":"ce4bgh92rcd13ifvqb40","pricing_plan_id":"cebpf4jnsgd1na2vs0mg"},{"bike_id":"1c1893eb-ca58-46d0-a72e-6d5f1de36498","system_id":"levelo_inurba_marseille","lat":43.292743,"lon":5.368452,"is_reserved":false,"is_disabled":false,"rental_uris":{"android":"levelo://app?vid=1c1893eb-ca58-46d0-a72e-6d5f1de36498","ios":"levelo://app?vid=1c1893eb-ca58-46d0-a72e-6d5f1de36498"},"vehicle_type_id":"4","last_reported":1713564371,"current_range_meters":0,"station_id":"ce4bhbp2rcd13ifvqesg","pricing_plan_id":"cebpf4jnsgd1na2vs0mg"},{"bike_id":"372977ef-e288-40f8-aae4-4539a728b7ad","system_id":"levelo_inurba_marseille","lat":43.302992,"lon":5.392136,"is_reserved":false,"is_disabled":false,"rental_uris":{"android":"levelo://app?vid=372977ef-e288-40f8-aae4-4539a728b7ad","ios":"levelo://app?vid=372977ef-e288-40f8-aae4-4539a728b7ad"},"vehicle_type_id":"4","last_reported":1713564371,"current_range_meters":2000,"station_id":"ce4bgkh2rcd13ifvqbk0","pricing_plan_id":"cebpf4jnsgd1na2vs0mg"},{"bike_id":"16467a18-71b9-4be6-b78e-06baa9912074","system_id":"levelo_inurba_marseille","lat":43.292749,"lon":5.368402,"is_reserved":false,"is_disabled":false,"rental_uris":{"android":"levelo://app?vid=16467a18-71b9-4be6-b78e-06baa9912074","ios":"levelo://app?vid=16467a18-71b9-4be6-b78e-06baa9912074"},"vehicle_type_id":"4","last_reported":1713564371,"current_range_meters":4800,"station_id":"ce4bhbp2rcd13ifvqesg","pricing_plan_id":"cebpf4jnsgd1na2vs0mg"},{"bike_id":"dc11022c-ffa3-4da1-a2c6-9efd0587a83b","system_id":"levelo_inurba_marseille","lat":43.29298,"lon":5.374433,"is_reserved":false,"is_disabled":false,"rental_uris":{"android":"levelo://app?vid=dc11022c-ffa3-4da1-a2c6-9efd0587a83b","ios":"levelo://app?vid=dc11022c-ffa3-4da1-a2c6-9efd0587a83b"},"vehicle_type_id":"4","last_reported":1713564371,"current_range_meters":31200,"station_id":"ce4bgi12rcd13ifvqb70","pricing_plan_id":"cebpf4jnsgd1na2vs0mg"},{"bike_id":"0de31d88-ed11-41db-8ed3-1532731cba86","system_id":"levelo_inurba_marseille","lat":43.293009,"lon":5.374584,"is_reserved":false,"is_disabled":false,"rental_uris":{"android":"levelo://app?vid=0de31d88-ed11-41db-8ed3-1532731cba86","ios":"levelo://app?vid=0de31d88-ed11-41db-8ed3-1532731cba86"},"vehicle_type_id":"4","last_reported":1713564371,"current_range_meters":28000,"station_id":"ce4bgi12rcd13ifvqb70","pricing_plan_id":"cebpf4jnsgd1na2vs0mg"},{"bike_id":"22be8863-2abe-4c30-be53-ca1f5d149d65","system_id":"levelo_inurba_marseille","lat":43.293009,"lon":5.374584,"is_reserved":false,"is_disabled":false,"rental_uris":{"android":"levelo://app?vid=22be8863-2abe-4c30-be53-ca1f5d149d65","ios":"levelo://app?vid=22be8863-2abe-4c30-be53-ca1f5d149d65"},"vehicle_type_id":"4","last_reported":1713564371,"current_range_meters":8400,"station_id":"ce4bgi12rcd13ifvqb70","pricing_plan_id":"cebpf4jnsgd1na2vs0mg"},{"bike_id":"4f6bc95e-a46b-4e5f-b7f8-c1f734d0b262","system_id":"levelo_inurba_marseille","lat":43.303002,"lon":5.392142,"is_reserved":false,"is_disabled":false,"rental_uris":{"android":"levelo://app?vid=4f6bc95e-a46b-4e5f-b7f8-c1f734d0b262","ios":"levelo://app?vid=4f6bc95e-a46b-4e5f-b7f8-c1f734d0b262"},"vehicle_type_id":"4","last_reported":1713564371,"current_range_meters":400,"station_id":"ce4bgkh2rcd13ifvqbk0","pricing_plan_id":"cebpf4jnsgd1na2vs0mg"},{"bike_id":"611687d7-5f85-4d70-9db9-cc2c507c1175","system_id":"levelo_inurba_marseille","lat":43.303055,"lon":5.392075,"is_reserved":false,"is_disabled":false,"rental_uris":{"android":"levelo://app?vid=611687d7-5f85-4d70-9db9-cc2c507c1175","ios":"levelo://app?vid=611687d7-5f85-4d70-9db9-cc2c507c1175"},"vehicle_type_id":"4","last_reported":1713564371,"current_range_meters":0,"station_id":"ce4bgkh2rcd13ifvqbk0","pricing_plan_id":"cebpf4jnsgd1na2vs0mg"},{"bike_id":"ec00884c-697d-4634-8ff8-15cba44220f4","system_id":"levelo_inurba_marseille","lat":43.2936,"lon":5.37835,"is_reserved":false,"is_disabled":false,"rental_uris":{"android":"levelo://app?vid=ec00884c-697d-4634-8ff8-15cba44220f4","ios":"levelo://app?vid=ec00884c-697d-4634-8ff8-15cba44220f4"},"vehicle_type_id":"4","last_reported":1713564371,"current_range_meters":31200,"station_id":"ce4bgjh2rcd13ifvqbf0","pricing_plan_id":"cebpf4jnsgd1na2vs0mg"},{"bike_id":"2d2e6ef5-7986-43af-a136-bba04315c945","system_id":"levelo_inurba_marseille","lat":43.29377,"lon":5.37859,"is_reserved":false,"is_disabled":false,"rental_uris":{"android":"levelo://app?vid=2d2e6ef5-7986-43af-a136-bba04315c945","ios":"levelo://app?vid=2d2e6ef5-7986-43af-a136-bba04315c945"},"vehicle_type_id":"4","last_reported":1713564371,"current_range_meters":0,"station_id":"ce4bgjh2rcd13ifvqbf0","pricing_plan_id":"cebpf4jnsgd1na2vs0mg"},{"bike_id":"9b2cd1cb-f67c-4b49-b843-cdfde42ebdc6","system_id":"levelo_inurba_marseille","lat":43.292311,"lon":5.360731,"is_reserved":false,"is_disabled":false,"rental_uris":{"android":"levelo://app?vid=9b2cd1cb-f67c-4b49-b843-cdfde42ebdc6","ios":"levelo://app?vid=9b2cd1cb-f67c-4b49-b843-cdfde42ebdc6"},"vehicle_type_id":"4","last_reported":1713564371,"current_range_meters":6000,"station_id":"ce4bhbh2rcd13ifvqeqg","pricing_plan_id":"cebpf4jnsgd1na2vs0mg"},{"bike_id":"a4162f07-a467-4278-aadb-0669de06aeae","system_id":"levelo_inurba_marseille","lat":43.300852,"lon":5.390859,"is_reserved":false,"is_disabled":false,"rental_uris":{"android":"levelo://app?vid=a4162f07-a467-4278-aadb-0669de06aeae","ios":"levelo://app?vid=a4162f07-a467-4278-aadb-0669de06aeae"},"vehicle_type_id":"4","last_reported":1713564371,"current_range_meters":800,"station_id":"ce4bh192rcd13ifvqdb0","pricing_plan_id":"cebpf4jnsgd1na2vs0mg"},{"bike_id":"713b1561-b4a8-462f-8148-576818f3bbec","system_id":"levelo_inurba_marseille","lat":43.292311,"lon":5.360731,"is_reserved":false,"is_disabled":false,"rental_uris":{"android":"levelo://app?vid=713b1561-b4a8-462f-8148-576818f3bbec","ios":"levelo://app?vid=713b1561-b4a8-462f-8148-576818f3bbec"},"vehicle_type_id":"4","last_reported":1713564371,"current_range_meters":21200,"station_id":"ce4bhbh2rcd13ifvqeqg","pricing_plan_id":"cebpf4jnsgd1na2vs0mg"},{"bike_id":"65d4e4cb-dae9-413b-8a06-7fb6b7b4db58","system_id":"levelo_inurba_marseille","lat":43.292311,"lon":5.360731,"is_reserved":false,"is_disabled":false,"rental_uris":{"android":"levelo://app?vid=65d4e4cb-dae9-413b-8a06-7fb6b7b4db58","ios":"levelo://app?vid=65d4e4cb-dae9-413b-8a06-7fb6b7b4db58"},"vehicle_type_id":"4","last_reported":1713564371,"current_range_meters":13600,"station_id":"ce4bhbh2rcd13ifvqeqg","pricing_plan_id":"cebpf4jnsgd1na2vs0mg"},{"bike_id":"c6424d44-aa74-448c-82ce-65a88a5e9573","system_id":"levelo_inurba_marseille","lat":43.2922,"lon":5.36046,"is_reserved":false,"is_disabled":false,"rental_uris":{"android":"levelo://app?vid=c6424d44-aa74-448c-82ce-65a88a5e9573","ios":"levelo://app?vid=c6424d44-aa74-448c-82ce-65a88a5e9573"},"vehicle_type_id":"4","last_reported":1713564371,"current_range_meters":10000,"station_id":"ce4bhbh2rcd13ifvqeqg","pricing_plan_id":"cebpf4jnsgd1na2vs0mg"},{"bike_id":"857c8ea3-6c9d-402a-b3bd-b019c9427dd2","system_id":"levelo_inurba_marseille","lat":43.291671,"lon":5.371575,"is_reserved":false,"is_disabled":false,"rental_uris":{"android":"levelo://app?vid=857c8ea3-6c9d-402a-b3bd-b019c9427dd2","ios":"levelo://app?vid=857c8ea3-6c9d-402a-b3bd-b019c9427dd2"},"vehicle_type_id":"4","last_reported":1713564371,"current_range_meters":0,"station_id":"ce4bha92rcd13ifvqeh0","pricing_plan_id":"cebpf4jnsgd1na2vs0mg"},{"bike_id":"0fdf1872-66af-4a08-92fe-23830cb76d44","system_id":"levelo_inurba_marseille","lat":43.29867,"lon":5.3892,"is_reserved":false,"is_disabled":false,"rental_uris":{"android":"levelo://app?vid=0fdf1872-66af-4a08-92fe-23830cb76d44","ios":"levelo://app?vid=0fdf1872-66af-4a08-92fe-23830cb76d44"},"vehicle_type_id":"4","last_reported":1713564371,"current_range_meters":0,"station_id":"ce4bh392rcd13ifvqdl0","pricing_plan_id":"cebpf4jnsgd1na2vs0mg"},{"bike_id":"4aa9897b-5e7a-41a8-a327-a4341a5a4723","system_id":"levelo_inurba_marseille","lat":43.292,"lon":5.35807,"is_reserved":false,"is_disabled":false,"rental_uris":{"android":"levelo://app?vid=4aa9897b-5e7a-41a8-a327-a4341a5a4723","ios":"levelo://app?vid=4aa9897b-5e7a-41a8-a327-a4341a5a4723"},"vehicle_type_id":"4","last_reported":1713564371,"current_range_meters":28400,"station_id":"ce4bhb12rcd13ifvqel0","pricing_plan_id":"cebpf4jnsgd1na2vs0mg"},{"bike_id":"eb6197f6-36f1-450a-8b78-09bac0352f8a","system_id":"levelo_inurba_marseille","lat":43.309047,"lon":5.396551,"is_reserved":false,"is_disabled":false,"rental_uris":{"android":"levelo://app?vid=eb6197f6-36f1-450a-8b78-09bac0352f8a","ios":"levelo://app?vid=eb6197f6-36f1-450a-8b78-09bac0352f8a"},"vehicle_type_id":"4","last_reported":1713564371,"current_range_meters":26400,"station_id":"ce4bh012rcd13ifvqcv0","pricing_plan_id":"cebpf4jnsgd1na2vs0mg"},{"bike_id":"1642a3ff-d765-4a56-91e0-7253f584bafd","system_id":"levelo_inurba_marseille","lat":43.291994,"lon":5.357886,"is_reserved":false,"is_disabled":false,"rental_uris":{"android":"levelo://app?vid=1642a3ff-d765-4a56-91e0-7253f584bafd","ios":"levelo://app?vid=1642a3ff-d765-4a56-91e0-7253f584bafd"},"vehicle_type_id":"4","last_reported":1713564371,"current_range_meters":29600,"station_id":"ce4bhb12rcd13ifvqel0","pricing_plan_id":"cebpf4jnsgd1na2vs0mg"},{"bike_id":"499d9d5b-995d-45d2-a58c-9083a17258f8","system_id":"levelo_inurba_marseille","lat":43.313291,"lon":5.396838,"is_reserved":false,"is_disabled":false,"rental_uris":{"android":"levelo://app?vid=499d9d5b-995d-45d2-a58c-9083a17258f8","ios":"levelo://app?vid=499d9d5b-995d-45d2-a58c-9083a17258f8"},"vehicle_type_id":"4","last_reported":1713564371,"current_range_meters":20800,"station_id":"ce4bgvp2rcd13ifvqcu0","pricing_plan_id":"cebpf4jnsgd1na2vs0mg"},{"bike_id":"6c3e28e3-ed3a-4902-9d5f-d6748dedcf24","system_id":"levelo_inurba_marseille","lat":43.313291,"lon":5.396838,"is_reserved":false,"is_disabled":false,"rental_uris":{"android":"levelo://app?vid=6c3e28e3-ed3a-4902-9d5f-d6748dedcf24","ios":"levelo://app?vid=6c3e28e3-ed3a-4902-9d5f-d6748dedcf24"},"vehicle_type_id":"4","last_reported":1713564371,"current_range_meters":13600,"station_id":"ce4bgvp2rcd13ifvqcu0","pricing_plan_id":"cebpf4jnsgd1na2vs0mg"},{"bike_id":"4bce227d-6128-4a2f-a15e-5d9c508d4a9f","system_id":"levelo_inurba_marseille","lat":43.309038,"lon":5.396546,"is_reserved":false,"is_disabled":false,"rental_uris":{"android":"levelo://app?vid=4bce227d-6128-4a2f-a15e-5d9c508d4a9f","ios":"levelo://app?vid=4bce227d-6128-4a2f-a15e-5d9c508d4a9f"},"vehicle_type_id":"4","last_reported":1713564371,"current_range_meters":31600,"station_id":"ce4bh012rcd13ifvqcv0","pricing_plan_id":"cebpf4jnsgd1na2vs0mg"},{"bike_id":"75117915-8a5d-4adc-89f1-4474499919ef","system_id":"levelo_inurba_marseille","lat":43.309038,"lon":5.396546,"is_reserved":false,"is_disabled":false,"rental_uris":{"android":"levelo://app?vid=75117915-8a5d-4adc-89f1-4474499919ef","ios":"levelo://app?vid=75117915-8a5d-4adc-89f1-4474499919ef"},"vehicle_type_id":"4","last_reported":1713564371,"current_range_meters":4400,"station_id":"ce4bh012rcd13ifvqcv0","pricing_plan_id":"cebpf4jnsgd1na2vs0mg"},{"bike_id":"33e06bd6-ca9d-4e07-93ba-3cb49f7a8963","system_id":"levelo_inurba_marseille","lat":43.309047,"lon":5.396551,"is_reserved":false,"is_disabled":false,"rental_uris":{"android":"levelo://app?vid=33e06bd6-ca9d-4e07-93ba-3cb49f7a8963","ios":"levelo://app?vid=33e06bd6-ca9d-4e07-93ba-3cb49f7a8963"},"vehicle_type_id":"4","last_reported":1713564371,"current_range_meters":13200,"station_id":"ce4bh012rcd13ifvqcv0","pricing_plan_id":"cebpf4jnsgd1na2vs0mg"},{"bike_id":"c76bbdf3-6740-4c27-a5ed-e4d826d05d83","system_id":"levelo_inurba_marseille","lat":43.313291,"lon":5.396838,"is_reserved":false,"is_disabled":false,"rental_uris":{"android":"levelo://app?vid=c76bbdf3-6740-4c27-a5ed-e4d826d05d83","ios":"levelo://app?vid=c76bbdf3-6740-4c27-a5ed-e4d826d05d83"},"vehicle_type_id":"4","last_reported":1713564371,"current_range_meters":0,"station_id":"ce4bgvp2rcd13ifvqcu0","pricing_plan_id":"cebpf4jnsgd1na2vs0mg"},{"bike_id":"e1a6ab20-d573-4fd1-9b82-12769f377fce","system_id":"levelo_inurba_marseille","lat":43.29536,"lon":5.38538,"is_reserved":false,"is_disabled":false,"rental_uris":{"android":"levelo://app?vid=e1a6ab20-d573-4fd1-9b82-12769f377fce","ios":"levelo://app?vid=e1a6ab20-d573-4fd1-9b82-12769f377fce"},"vehicle_type_id":"4","last_reported":1713564371,"current_range_meters":31200,"station_id":"","pricing_plan_id":"cebpf4jnsgd1na2vs0mg"},{"bike_id":"ce55e034-c9f4-4406-bc55-effa9e31a007","system_id":"levelo_inurba_marseille","lat":43.29529,"lon":5.385581,"is_reserved":false,"is_disabled":false,"rental_uris":{"android":"levelo://app?vid=ce55e034-c9f4-4406-bc55-effa9e31a007","ios":"levelo://app?vid=ce55e034-c9f4-4406-bc55-effa9e31a007"},"vehicle_type_id":"4","last_reported":1713564371,"current_range_meters":14400,"station_id":"ce4bgih2rcd13ifvqba0","pricing_plan_id":"cebpf4jnsgd1na2vs0mg"},{"bike_id":"0cd760fc-a750-4ec6-8947-36730810792d","system_id":"levelo_inurba_marseille","lat":43.29538,"lon":5.38547,"is_reserved":false,"is_disabled":false,"rental_uris":{"android":"levelo://app?vid=0cd760fc-a750-4ec6-8947-36730810792d","ios":"levelo://app?vid=0cd760fc-a750-4ec6-8947-36730810792d"},"vehicle_type_id":"4","last_reported":1713564371,"current_range_meters":28400,"station_id":"ce4bgih2rcd13ifvqba0","pricing_plan_id":"cebpf4jnsgd1na2vs0mg"},{"bike_id":"7f976212-b8f2-4472-b682-736be72ac77d","system_id":"levelo_inurba_marseille","lat":43.2953,"lon":5.38534,"is_reserved":false,"is_disabled":false,"rental_uris":{"android":"levelo://app?vid=7f976212-b8f2-4472-b682-736be72ac77d","ios":"levelo://app?vid=7f976212-b8f2-4472-b682-736be72ac77d"},"vehicle_type_id":"4","last_reported":1713564371,"current_range_meters":8400,"station_id":"ce4bgih2rcd13ifvqba0","pricing_plan_id":"cebpf4jnsgd1na2vs0mg"},{"bike_id":"8b770d94-37a1-459a-91b4-43779daa155a","system_id":"levelo_inurba_marseille","lat":43.295374,"lon":5.38548,"is_reserved":false,"is_disabled":false,"rental_uris":{"android":"levelo://app?vid=8b770d94-37a1-459a-91b4-43779daa155a","ios":"levelo://app?vid=8b770d94-37a1-459a-91b4-43779daa155a"},"vehicle_type_id":"4","last_reported":1713564371,"current_range_meters":31200,"station_id":"","pricing_plan_id":"cebpf4jnsgd1na2vs0mg"},{"bike_id":"a33407d9-ccab-4ecb-a3f6-e0502c051491","system_id":"levelo_inurba_marseille","lat":43.29532,"lon":5.38539,"is_reserved":false,"is_disabled":false,"rental_uris":{"android":"levelo://app?vid=a33407d9-ccab-4ecb-a3f6-e0502c051491","ios":"levelo://app?vid=a33407d9-ccab-4ecb-a3f6-e0502c051491"},"vehicle_type_id":"4","last_reported":1713564371,"current_range_meters":17200,"station_id":"ce4bgih2rcd13ifvqba0","pricing_plan_id":"cebpf4jnsgd1na2vs0mg"},{"bike_id":"b82d9417-0354-47a8-8078-1521a532914b","system_id":"levelo_inurba_marseille","lat":43.29539,"lon":5.38552,"is_reserved":false,"is_disabled":false,"rental_uris":{"android":"levelo://app?vid=b82d9417-0354-47a8-8078-1521a532914b","ios":"levelo://app?vid=b82d9417-0354-47a8-8078-1521a532914b"},"vehicle_type_id":"4","last_reported":1713564371,"current_range_meters":8400,"station_id":"ce4bgih2rcd13ifvqba0","pricing_plan_id":"cebpf4jnsgd1na2vs0mg"},{"bike_id":"0d1849b9-0b13-400e-a4bd-f17f2cfb2ffe","system_id":"levelo_inurba_marseille","lat":43.295268,"lon":5.385308,"is_reserved":false,"is_disabled":false,"rental_uris":{"android":"levelo://app?vid=0d1849b9-0b13-400e-a4bd-f17f2cfb2ffe","ios":"levelo://app?vid=0d1849b9-0b13-400e-a4bd-f17f2cfb2ffe"},"vehicle_type_id":"4","last_reported":1713564371,"current_range_meters":19600,"station_id":"ce4bgih2rcd13ifvqba0","pricing_plan_id":"cebpf4jnsgd1na2vs0mg"},{"bike_id":"f8115327-1f4a-4c36-8c6d-c8f02bd0635e","system_id":"levelo_inurba_marseille","lat":43.29535,"lon":5.38546,"is_reserved":false,"is_disabled":false,"rental_uris":{"android":"levelo://app?vid=f8115327-1f4a-4c36-8c6d-c8f02bd0635e","ios":"levelo://app?vid=f8115327-1f4a-4c36-8c6d-c8f02bd0635e"},"vehicle_type_id":"4","last_reported":1713564371,"current_range_meters":31200,"station_id":"ce4bgih2rcd13ifvqba0","pricing_plan_id":"cebpf4jnsgd1na2vs0mg"},{"bike_id":"4af3ec86-d58c-486c-b030-f72ac49fa81c","system_id":"levelo_inurba_marseille","lat":43.295363,"lon":5.385486,"is_reserved":false,"is_disabled":false,"rental_uris":{"android":"levelo://app?vid=4af3ec86-d58c-486c-b030-f72ac49fa81c","ios":"levelo://app?vid=4af3ec86-d58c-486c-b030-f72ac49fa81c"},"vehicle_type_id":"4","last_reported":1713564371,"current_range_meters":27200,"station_id":"ce4bgih2rcd13ifvqba0","pricing_plan_id":"cebpf4jnsgd1na2vs0mg"},{"bike_id":"e3f5209a-400a-4542-a886-66c9e2b34cfb","system_id":"levelo_inurba_marseille","lat":43.29532,"lon":5.38541,"is_reserved":false,"is_disabled":false,"rental_uris":{"android":"levelo://app?vid=e3f5209a-400a-4542-a886-66c9e2b34cfb","ios":"levelo://app?vid=e3f5209a-400a-4542-a886-66c9e2b34cfb"},"vehicle_type_id":"4","last_reported":1713564371,"current_range_meters":31600,"station_id":"ce4bgih2rcd13ifvqba0","pricing_plan_id":"cebpf4jnsgd1na2vs0mg"},{"bike_id":"b4294b77-7560-4491-8462-29aeb3c16cc5","system_id":"levelo_inurba_marseille","lat":43.2953,"lon":5.38539,"is_reserved":false,"is_disabled":false,"rental_uris":{"android":"levelo://app?vid=b4294b77-7560-4491-8462-29aeb3c16cc5","ios":"levelo://app?vid=b4294b77-7560-4491-8462-29aeb3c16cc5"},"vehicle_type_id":"4","last_reported":1713564371,"current_range_meters":2400,"station_id":"ce4bgih2rcd13ifvqba0","pricing_plan_id":"cebpf4jnsgd1na2vs0mg"},{"bike_id":"59ab09fa-b28f-4a6f-94d2-2c5d95f2ec60","system_id":"levelo_inurba_marseille","lat":43.2953,"lon":5.38539,"is_reserved":false,"is_disabled":false,"rental_uris":{"android":"levelo://app?vid=59ab09fa-b28f-4a6f-94d2-2c5d95f2ec60","ios":"levelo://app?vid=59ab09fa-b28f-4a6f-94d2-2c5d95f2ec60"},"vehicle_type_id":"4","last_reported":1713564371,"current_range_meters":6800,"station_id":"ce4bgih2rcd13ifvqba0","pricing_plan_id":"cebpf4jnsgd1na2vs0mg"},{"bike_id":"d0737d8a-b692-4d22-93e4-3b60d9b79dd3","system_id":"levelo_inurba_marseille","lat":43.29529,"lon":5.385581,"is_reserved":false,"is_disabled":false,"rental_uris":{"android":"levelo://app?vid=d0737d8a-b692-4d22-93e4-3b60d9b79dd3","ios":"levelo://app?vid=d0737d8a-b692-4d22-93e4-3b60d9b79dd3"},"vehicle_type_id":"4","last_reported":1713564371,"current_range_meters":31200,"station_id":"ce4bgih2rcd13ifvqba0","pricing_plan_id":"cebpf4jnsgd1na2vs0mg"},{"bike_id":"f87a93fe-d966-4a0d-907c-8709ccb6bfcf","system_id":"levelo_inurba_marseille","lat":43.295309,"lon":5.385411,"is_reserved":false,"is_disabled":false,"rental_uris":{"android":"levelo://app?vid=f87a93fe-d966-4a0d-907c-8709ccb6bfcf","ios":"levelo://app?vid=f87a93fe-d966-4a0d-907c-8709ccb6bfcf"},"vehicle_type_id":"4","last_reported":1713564371,"current_range_meters":23200,"station_id":"ce4bgih2rcd13ifvqba0","pricing_plan_id":"cebpf4jnsgd1na2vs0mg"},{"bike_id":"6d02deac-938b-4156-9f26-38dbf302fa81","system_id":"levelo_inurba_marseille","lat":43.29534,"lon":5.38547,"is_reserved":false,"is_disabled":false,"rental_uris":{"android":"levelo://app?vid=6d02deac-938b-4156-9f26-38dbf302fa81","ios":"levelo://app?vid=6d02deac-938b-4156-9f26-38dbf302fa81"},"vehicle_type_id":"4","last_reported":1713564371,"current_range_meters":31200,"station_id":"ce4bgih2rcd13ifvqba0","pricing_plan_id":"cebpf4jnsgd1na2vs0mg"},{"bike_id":"c5d430d2-b18d-408f-b396-914ae8dc576f","system_id":"levelo_inurba_marseille","lat":43.29536,"lon":5.38551,"is_reserved":false,"is_disabled":false,"rental_uris":{"android":"levelo://app?vid=c5d430d2-b18d-408f-b396-914ae8dc576f","ios":"levelo://app?vid=c5d430d2-b18d-408f-b396-914ae8dc576f"},"vehicle_type_id":"4","last_reported":1713564371,"current_range_meters":27200,"station_id":"ce4bgih2rcd13ifvqba0","pricing_plan_id":"cebpf4jnsgd1na2vs0mg"},{"bike_id":"ebd0bdce-19fd-425d-8722-df967ae38a9b","system_id":"levelo_inurba_marseille","lat":43.29534,"lon":5.38548,"is_reserved":false,"is_disabled":false,"rental_uris":{"android":"levelo://app?vid=ebd0bdce-19fd-425d-8722-df967ae38a9b","ios":"levelo://app?vid=ebd0bdce-19fd-425d-8722-df967ae38a9b"},"vehicle_type_id":"4","last_reported":1713564371,"current_range_meters":3600,"station_id":"ce4bgih2rcd13ifvqba0","pricing_plan_id":"cebpf4jnsgd1na2vs0mg"},{"bike_id":"dcf523d7-308a-4c26-a87d-b2f9fdbf4922","system_id":"levelo_inurba_marseille","lat":43.29529,"lon":5.385581,"is_reserved":false,"is_disabled":false,"rental_uris":{"android":"levelo://app?vid=dcf523d7-308a-4c26-a87d-b2f9fdbf4922","ios":"levelo://app?vid=dcf523d7-308a-4c26-a87d-b2f9fdbf4922"},"vehicle_type_id":"4","last_reported":1713564371,"current_range_meters":22800,"station_id":"ce4bgih2rcd13ifvqba0","pricing_plan_id":"cebpf4jnsgd1na2vs0mg"},{"bike_id":"2139cac0-aed0-41c7-8952-bd7a6b4541d7","system_id":"levelo_inurba_marseille","lat":43.28573,"lon":5.394992,"is_reserved":false,"is_disabled":false,"rental_uris":{"android":"levelo://app?vid=2139cac0-aed0-41c7-8952-bd7a6b4541d7","ios":"levelo://app?vid=2139cac0-aed0-41c7-8952-bd7a6b4541d7"},"vehicle_type_id":"4","last_reported":1713564371,"current_range_meters":2800,"station_id":"ce4bh292rcd13ifvqdg0","pricing_plan_id":"cebpf4jnsgd1na2vs0mg"},{"bike_id":"287c8b40-b9be-45bd-bd51-4c0954fb9ac7","system_id":"levelo_inurba_marseille","lat":43.295275,"lon":5.385423,"is_reserved":false,"is_disabled":false,"rental_uris":{"android":"levelo://app?vid=287c8b40-b9be-45bd-bd51-4c0954fb9ac7","ios":"levelo://app?vid=287c8b40-b9be-45bd-bd51-4c0954fb9ac7"},"vehicle_type_id":"4","last_reported":1713564371,"current_range_meters":31200,"station_id":"ce4bgih2rcd13ifvqba0","pricing_plan_id":"cebpf4jnsgd1na2vs0mg"},{"bike_id":"33d38a42-b8e4-4975-a434-b9c97db1f843","system_id":"levelo_inurba_marseille","lat":43.29531,"lon":5.38549,"is_reserved":false,"is_disabled":false,"rental_uris":{"android":"levelo://app?vid=33d38a42-b8e4-4975-a434-b9c97db1f843","ios":"levelo://app?vid=33d38a42-b8e4-4975-a434-b9c97db1f843"},"vehicle_type_id":"4","last_reported":1713564371,"current_range_meters":26000,"station_id":"ce4bgih2rcd13ifvqba0","pricing_plan_id":"cebpf4jnsgd1na2vs0mg"},{"bike_id":"2e8839fc-541f-4182-bcda-958291433930","system_id":"levelo_inurba_marseille","lat":43.29529,"lon":5.385581,"is_reserved":false,"is_disabled":false,"rental_uris":{"android":"levelo://app?vid=2e8839fc-541f-4182-bcda-958291433930","ios":"levelo://app?vid=2e8839fc-541f-4182-bcda-958291433930"},"vehicle_type_id":"4","last_reported":1713564371,"current_range_meters":5600,"station_id":"ce4bgih2rcd13ifvqba0","pricing_plan_id":"cebpf4jnsgd1na2vs0mg"},{"bike_id":"5c452f15-a732-482a-a44c-65494872436a","system_id":"levelo_inurba_marseille","lat":43.295237,"lon":5.385367,"is_reserved":false,"is_disabled":false,"rental_uris":{"android":"levelo://app?vid=5c452f15-a732-482a-a44c-65494872436a","ios":"levelo://app?vid=5c452f15-a732-482a-a44c-65494872436a"},"vehicle_type_id":"4","last_reported":1713564371,"current_range_meters":31200,"station_id":"ce4bgih2rcd13ifvqba0","pricing_plan_id":"cebpf4jnsgd1na2vs0mg"},{"bike_id":"eeef0ab7-c99e-484f-b6be-fd98e1825154","system_id":"levelo_inurba_marseille","lat":43.29521,"lon":5.38533,"is_reserved":false,"is_disabled":false,"rental_uris":{"android":"levelo://app?vid=eeef0ab7-c99e-484f-b6be-fd98e1825154","ios":"levelo://app?vid=eeef0ab7-c99e-484f-b6be-fd98e1825154"},"vehicle_type_id":"4","last_reported":1713564371,"current_range_meters":20400,"station_id":"ce4bgih2rcd13ifvqba0","pricing_plan_id":"cebpf4jnsgd1na2vs0mg"},{"bike_id":"19a045b0-a58d-420e-980e-79aa373ce378","system_id":"levelo_inurba_marseille","lat":43.29529,"lon":5.385581,"is_reserved":false,"is_disabled":false,"rental_uris":{"android":"levelo://app?vid=19a045b0-a58d-420e-980e-79aa373ce378","ios":"levelo://app?vid=19a045b0-a58d-420e-980e-79aa373ce378"},"vehicle_type_id":"4","last_reported":1713564371,"current_range_meters":12800,"station_id":"ce4bgih2rcd13ifvqba0","pricing_plan_id":"cebpf4jnsgd1na2vs0mg"},{"bike_id":"b4ba315d-7553-4696-9e36-ba1aef1e6908","system_id":"levelo_inurba_marseille","lat":43.295308,"lon":5.385557,"is_reserved":false,"is_disabled":false,"rental_uris":{"android":"levelo://app?vid=b4ba315d-7553-4696-9e36-ba1aef1e6908","ios":"levelo://app?vid=b4ba315d-7553-4696-9e36-ba1aef1e6908"},"vehicle_type_id":"4","last_reported":1713564371,"current_range_meters":29600,"station_id":"ce4bgih2rcd13ifvqba0","pricing_plan_id":"cebpf4jnsgd1na2vs0mg"},{"bike_id":"469a3964-e414-4bf9-9e45-a3b2df5e64e9","system_id":"levelo_inurba_marseille","lat":43.29523,"lon":5.38547,"is_reserved":false,"is_disabled":false,"rental_uris":{"android":"levelo://app?vid=469a3964-e414-4bf9-9e45-a3b2df5e64e9","ios":"levelo://app?vid=469a3964-e414-4bf9-9e45-a3b2df5e64e9"},"vehicle_type_id":"4","last_reported":1713564371,"current_range_meters":6400,"station_id":"ce4bgih2rcd13ifvqba0","pricing_plan_id":"cebpf4jnsgd1na2vs0mg"},{"bike_id":"9756ddc7-a8a6-4ac6-836b-79c4012597a6","system_id":"levelo_inurba_marseille","lat":43.29522,"lon":5.38549,"is_reserved":false,"is_disabled":false,"rental_uris":{"android":"levelo://app?vid=9756ddc7-a8a6-4ac6-836b-79c4012597a6","ios":"levelo://app?vid=9756ddc7-a8a6-4ac6-836b-79c4012597a6"},"vehicle_type_id":"4","last_reported":1713564371,"current_range_meters":10400,"station_id":"ce4bgih2rcd13ifvqba0","pricing_plan_id":"cebpf4jnsgd1na2vs0mg"},{"bike_id":"88580fdc-59ee-4f34-816e-f8f6fc51ffd4","system_id":"levelo_inurba_marseille","lat":43.29513,"lon":5.38536,"is_reserved":false,"is_disabled":false,"rental_uris":{"android":"levelo://app?vid=88580fdc-59ee-4f34-816e-f8f6fc51ffd4","ios":"levelo://app?vid=88580fdc-59ee-4f34-816e-f8f6fc51ffd4"},"vehicle_type_id":"4","last_reported":1713564371,"current_range_meters":31200,"station_id":"","pricing_plan_id":"cebpf4jnsgd1na2vs0mg"},{"bike_id":"98f38278-5294-430f-9603-bce86b112160","system_id":"levelo_inurba_marseille","lat":43.290779,"lon":5.371482,"is_reserved":false,"is_disabled":false,"rental_uris":{"android":"levelo://app?vid=98f38278-5294-430f-9603-bce86b112160","ios":"levelo://app?vid=98f38278-5294-430f-9603-bce86b112160"},"vehicle_type_id":"4","last_reported":1713564371,"current_range_meters":0,"station_id":"ce4bh5p2rcd13ifvqe4g","pricing_plan_id":"cebpf4jnsgd1na2vs0mg"},{"bike_id":"0d912cb3-759f-4ba9-b8c2-dee2077cd620","system_id":"levelo_inurba_marseille","lat":43.29065,"lon":5.37157,"is_reserved":false,"is_disabled":false,"rental_uris":{"android":"levelo://app?vid=0d912cb3-759f-4ba9-b8c2-dee2077cd620","ios":"levelo://app?vid=0d912cb3-759f-4ba9-b8c2-dee2077cd620"},"vehicle_type_id":"4","last_reported":1713564371,"current_range_meters":0,"station_id":"ce4bh5p2rcd13ifvqe4g","pricing_plan_id":"cebpf4jnsgd1na2vs0mg"},{"bike_id":"e49ce355-f026-4859-950a-804e09717ebf","system_id":"levelo_inurba_marseille","lat":43.295169,"lon":5.390426,"is_reserved":false,"is_disabled":false,"rental_uris":{"android":"levelo://app?vid=e49ce355-f026-4859-950a-804e09717ebf","ios":"levelo://app?vid=e49ce355-f026-4859-950a-804e09717ebf"},"vehicle_type_id":"4","last_reported":1713564371,"current_range_meters":29600,"station_id":"ce4bh3p2rcd13ifvqdp0","pricing_plan_id":"cebpf4jnsgd1na2vs0mg"},{"bike_id":"c8f92fea-679d-462c-ab0b-091365dee5ad","system_id":"levelo_inurba_marseille","lat":43.302008,"lon":5.394694,"is_reserved":false,"is_disabled":false,"rental_uris":{"android":"levelo://app?vid=c8f92fea-679d-462c-ab0b-091365dee5ad","ios":"levelo://app?vid=c8f92fea-679d-462c-ab0b-091365dee5ad"},"vehicle_type_id":"4","last_reported":1713564371,"current_range_meters":18800,"station_id":"ce4bh0p2rcd13ifvqd70","pricing_plan_id":"cebpf4jnsgd1na2vs0mg"},{"bike_id":"f9b98c89-6506-4b3f-afec-10dced61c895","system_id":"levelo_inurba_marseille","lat":43.302138,"lon":5.394677,"is_reserved":false,"is_disabled":false,"rental_uris":{"android":"levelo://app?vid=f9b98c89-6506-4b3f-afec-10dced61c895","ios":"levelo://app?vid=f9b98c89-6506-4b3f-afec-10dced61c895"},"vehicle_type_id":"4","last_reported":1713564371,"current_range_meters":800,"station_id":"ce4bh0p2rcd13ifvqd70","pricing_plan_id":"cebpf4jnsgd1na2vs0mg"},{"bike_id":"3a6e873f-f64f-459a-b676-eb6ce3e15531","system_id":"levelo_inurba_marseille","lat":43.290624,"lon":5.359245,"is_reserved":false,"is_disabled":false,"rental_uris":{"android":"levelo://app?vid=3a6e873f-f64f-459a-b676-eb6ce3e15531","ios":"levelo://app?vid=3a6e873f-f64f-459a-b676-eb6ce3e15531"},"vehicle_type_id":"4","last_reported":1713564371,"current_range_meters":18400,"station_id":"ce4bha92rcd13ifvqeg0","pricing_plan_id":"cebpf4jnsgd1na2vs0mg"},{"bike_id":"11e64490-4d70-405d-979f-e367f9801246","system_id":"levelo_inurba_marseille","lat":43.290631,"lon":5.359244,"is_reserved":false,"is_disabled":false,"rental_uris":{"android":"levelo://app?vid=11e64490-4d70-405d-979f-e367f9801246","ios":"levelo://app?vid=11e64490-4d70-405d-979f-e367f9801246"},"vehicle_type_id":"4","last_reported":1713564371,"current_range_meters":24400,"station_id":"ce4bha92rcd13ifvqeg0","pricing_plan_id":"cebpf4jnsgd1na2vs0mg"},{"bike_id":"dc05aa29-45ae-4f88-9eb7-5cdf10d940f4","system_id":"levelo_inurba_marseille","lat":43.290631,"lon":5.359244,"is_reserved":false,"is_disabled":false,"rental_uris":{"android":"levelo://app?vid=dc05aa29-45ae-4f88-9eb7-5cdf10d940f4","ios":"levelo://app?vid=dc05aa29-45ae-4f88-9eb7-5cdf10d940f4"},"vehicle_type_id":"4","last_reported":1713564371,"current_range_meters":12000,"station_id":"ce4bha92rcd13ifvqeg0","pricing_plan_id":"cebpf4jnsgd1na2vs0mg"},{"bike_id":"1e09151d-5e79-4026-bd7f-19f12bf4c7f5","system_id":"levelo_inurba_marseille","lat":43.29445,"lon":5.38662,"is_reserved":false,"is_disabled":false,"rental_uris":{"android":"levelo://app?vid=1e09151d-5e79-4026-bd7f-19f12bf4c7f5","ios":"levelo://app?vid=1e09151d-5e79-4026-bd7f-19f12bf4c7f5"},