{"last_updated":1753344976,"ttl":60,"version":"2.2","data":{"bikes":[{"bike_id":"27c1a95c-ac8f-419f-a64d-cb75d8767227","system_id":"levelo_inurba_marseille","lat":43.25812,"lon":5.39434,"is_reserved":false,"is_disabled":false,"rental_uris":{"android":"levelo://app?vid=27c1a95c-ac8f-419f-a64d-cb75d8767227","ios":"levelo://app?vid=27c1a95c-ac8f-419f-a64d-cb75d8767227"},"vehicle_type_id":"4","last_reported":1753344976,"current_range_meters":2800,"station_id":"ce4bhip2rcd13ifvqft0","pricing_plan_id":"cebpf4jnsgd1na2vs0mg"},{"bike_id":"cfe5918e-2c06-485f-97d3-cb6768f2a43f","system_id":"levelo_inurba_marseille","lat":43.23142,"lon":5.437,"is_reserved":false,"is_disabled":false,"rental_uris":{"android":"levelo://app?vid=cfe5918e-2c06-485f-97d3-cb6768f2a43f","ios":"levelo://app?vid=cfe5918e-2c06-485f-97d3-cb6768f2a43f"},"vehicle_type_id":"4","last_reported":1753344976,"current_range_meters":2800,"station_id":"ce4bhmp2rcd13ifvqgog","pricing_plan_id":"cebpf4jnsgd1na2vs0mg"},{"bike_id":"a5bed655-4150-41d1-b5ba-c96b55b0b0e8","system_id":"levelo_inurba_marseille","lat":43.28101,"lon":5.37837,"is_reserved":false,"is_disabled":false,"rental_uris":{"android":"levelo://app?vid=a5bed655-4150-41d1-b5ba-c96b55b0b0e8","ios":"levelo://app?vid=a5bed655-4150-41d1-b5ba-c96b55b0b0e8"},"vehicle_type_id":"4","last_reported":1753344976,"current_range_meters":2000,"station_id":"ce4bha12rcd13ifvqee0","pricing_plan_id":"cebpf4jnsgd1na2vs0mg"},{"bike_id":"83766871-d64f-4fc8-9d3b-2ceaf03b1036","system_id":"levelo_inurba_marseille","lat":43.21191,"lon":5.35078,"is_reserved":false,"is_disabled":false,"rental_uris":{"android":"levelo://app?vid=83766871-d64f-4fc8-9d3b-2ceaf03b1036","ios":"levelo://app?vid=83766871-d64f-4fc8-9d3b-2ceaf03b1036"},"vehicle_type_id":"4","last_reported":1753344976,"current_range_meters":3200,"station_id":"st_cvj6sg6p6f1abm77japg","pricing_plan_id":"cebpf4jnsgd1na2vs0mg"},{"bike_id":"8d902b7d-4334-434f-9e91-5248f4b8dc05","system_id":"levelo_inurba_marseille","lat":43.27914,"lon":5.39576,"is_reserved":false,"is_disabled":false,"rental_uris":{"android":"levelo://app?vid=8d902b7d-4334-434f-9e91-5248f4b8dc05","ios":"levelo://app?vid=8d902b7d-4334-434f-9e91-5248f4b8dc05"},"vehicle_type_id":"4","last_reported":1753344976,"current_range_meters":3600,"station_id":"ce4bhf92rcd13ifvqf40","pricing_plan_id":"cebpf4jnsgd1na2vs0mg"},{"bike_id":"821cb3e6-1fa9-4f8b-bf57-a1dd109520dd","system_id":"levelo_inurba_marseille","lat":43.30375,"lon":5.42485,"is_reserved":false,"is_disabled":false,"rental_uris":{"android":"levelo://app?vid=821cb3e6-1fa9-4f8b-bf57-a1dd109520dd","ios":"levelo://app?vid=821cb3e6-1fa9-4f8b-bf57-a1dd109520dd"},"vehicle_type_id":"4","last_reported":1753344976,"current_range_meters":3600,"station_id":"ce4bhoh2rcd13ifvqh6g","pricing_plan_id":"cebpf4jnsgd1na2vs0mg"},{"bike_id":"520693ef-8667-42af-b6fe-d95adfb33c39","system_id":"levelo_inurba_marseille","lat":43.25115,"lon":5.40317,"is_reserved":false,"is_disabled":false,"rental_uris":{"android":"levelo://app?vid=520693ef-8667-42af-b6fe-d95adfb33c39","ios":"levelo://app?vid=520693ef-8667-42af-b6fe-d95adfb33c39"},"vehicle_type_id":"4","last_reported":1753344976,"current_range_meters":4000,"station_id":"ce4bhlh2rcd13ifvqgig","pricing_plan_id":"cebpf4jnsgd1na2vs0mg"},{"bike_id":"72b0b953-c4df-4f7a-8eb6-c638a3c5dda7","system_id":"levelo_inurba_marseille","lat":43.2795,"lon":5.38655,"is_reserved":false,"is_disabled":false,"rental_uris":{"android":"levelo://app?vid=72b0b953-c4df-4f7a-8eb6-c638a3c5dda7","ios":"levelo://app?vid=72b0b953-c4df-4f7a-8eb6-c638a3c5dda7"},"vehicle_type_id":"4","last_reported":1753344976,"current_range_meters":4000,"station_id":"ce4bhg12rcd13ifvqf80","pricing_plan_id":"cebpf4jnsgd1na2vs0mg"},{"bike_id":"15a2d20d-cb1f-4e78-9819-4b8ede78b571","system_id":"levelo_inurba_marseille","lat":43.30279,"lon":5.37712,"is_reserved":false,"is_disabled":false,"rental_uris":{"android":"levelo://app?vid=15a2d20d-cb1f-4e78-9819-4b8ede78b571","ios":"levelo://app?vid=15a2d20d-cb1f-4e78-9819-4b8ede78b571"},"vehicle_type_id":"4","last_reported":1753344976,"current_range_meters":4400,"station_id":"ce4bguh2rcd13ifvqcj0","pricing_plan_id":"cebpf4jnsgd1na2vs0mg"},{"bike_id":"9ae7d50c-a3ea-4136-8080-315c191e000a","system_id":"levelo_inurba_marseille","lat":43.28758,"lon":5.38411,"is_reserved":false,"is_disabled":false,"rental_uris":{"android":"levelo://app?vid=9ae7d50c-a3ea-4136-8080-315c191e000a","ios":"levelo://app?vid=9ae7d50c-a3ea-4136-8080-315c191e000a"},"vehicle_type_id":"4","last_reported":1753344976,"current_range_meters":4800,"station_id":"","pricing_plan_id":"cebpf4jnsgd1na2vs0mg"},{"bike_id":"f54fe7ee-ff5a-49fe-8aa7-93ea4e22a08f","system_id":"levelo_inurba_marseille","lat":43.29166,"lon":5.37163,"is_reserved":false,"is_disabled":false,"rental_uris":{"android":"levelo://app?vid=f54fe7ee-ff5a-49fe-8aa7-93ea4e22a08f","ios":"levelo://app?vid=f54fe7ee-ff5a-49fe-8aa7-93ea4e22a08f"},"vehicle_type_id":"4","last_reported":1753344976,"current_range_meters":4800,"station_id":"ce4bha92rcd13ifvqeh0","pricing_plan_id":"cebpf4jnsgd1na2vs0mg"},{"bike_id":"3f4d8445-a2c5-45e4-800c-019d64fbb997","system_id":"levelo_inurba_marseille","lat":43.32476,"lon":5.3657,"is_reserved":false,"is_disabled":false,"rental_uris":{"android":"levelo://app?vid=3f4d8445-a2c5-45e4-800c-019d64fbb997","ios":"levelo://app?vid=3f4d8445-a2c5-45e4-800c-019d64fbb997"},"vehicle_type_id":"4","last_reported":1753344976,"current_range_meters":4800,"station_id":"ce4bhs12rcd13ifvqhvg","pricing_plan_id":"cebpf4jnsgd1na2vs0mg"},{"bike_id":"d07f0755-aca6-4050-807e-9c5aaf0dd619","system_id":"levelo_inurba_marseille","lat":43.296823,"lon":5.372723,"is_reserved":false,"is_disabled":false,"rental_uris":{"android":"levelo://app?vid=d07f0755-aca6-4050-807e-9c5aaf0dd619","ios":"levelo://app?vid=d07f0755-aca6-4050-807e-9c5aaf0dd619"},"vehicle_type_id":"4","last_reported":1753344976,"current_range_meters":5600,"station_id":"ce4bgk12rcd13ifvqbj0","pricing_plan_id":"cebpf4jnsgd1na2vs0mg"},{"bike_id":"69f5123a-ad84-455f-8689-5334771a8b7a","system_id":"levelo_inurba_marseille","lat":43.286998,"lon":5.373921,"is_reserved":false,"is_disabled":true,"rental_uris":{"android":"levelo://app?vid=69f5123a-ad84-455f-8689-5334771a8b7a","ios":"levelo://app?vid=69f5123a-ad84-455f-8689-5334771a8b7a"},"vehicle_type_id":"4","last_reported":1753344976,"current_range_meters":5600,"station_id":"","pricing_plan_id":"cebpf4jnsgd1na2vs0mg"},{"bike_id":"c8cbe188-8c80-4aac-881d-65feb870e521","system_id":"levelo_inurba_marseille","lat":43.33019,"lon":5.38044,"is_reserved":false,"is_disabled":false,"rental_uris":{"android":"levelo://app?vid=c8cbe188-8c80-4aac-881d-65feb870e521","ios":"levelo://app?vid=c8cbe188-8c80-4aac-881d-65feb870e521"},"vehicle_type_id":"4","last_reported":1753344976,"current_range_meters":5600,"station_id":"","pricing_plan_id":"cebpf4jnsgd1na2vs0mg"},{"bike_id":"de17926f-a5c3-481c-a42c-2695b56946e8","system_id":"levelo_inurba_marseille","lat":43.30536,"lon":5.36696,"is_reserved":false,"is_disabled":false,"rental_uris":{"android":"levelo://app?vid=de17926f-a5c3-481c-a42c-2695b56946e8","ios":"levelo://app?vid=de17926f-a5c3-481c-a42c-2695b56946e8"},"vehicle_type_id":"4","last_reported":1753344976,"current_range_meters":6000,"station_id":"ce4bgrp2rcd13ifvqc9g","pricing_plan_id":"cebpf4jnsgd1na2vs0mg"},{"bike_id":"cec54183-4175-4e4a-8f8a-f4fafb6e7dc0","system_id":"levelo_inurba_marseille","lat":43.2798,"lon":5.38975,"is_reserved":false,"is_disabled":false,"rental_uris":{"android":"levelo://app?vid=cec54183-4175-4e4a-8f8a-f4fafb6e7dc0","ios":"levelo://app?vid=cec54183-4175-4e4a-8f8a-f4fafb6e7dc0"},"vehicle_type_id":"4","last_reported":1753344976,"current_range_meters":6000,"station_id":"","pricing_plan_id":"cebpf4jnsgd1na2vs0mg"},{"bike_id":"e0c1ad36-dcac-4d98-b3b6-23ecc062cff9","system_id":"levelo_inurba_marseille","lat":43.23958,"lon":5.36631,"is_reserved":false,"is_disabled":false,"rental_uris":{"android":"levelo://app?vid=e0c1ad36-dcac-4d98-b3b6-23ecc062cff9","ios":"levelo://app?vid=e0c1ad36-dcac-4d98-b3b6-23ecc062cff9"},"vehicle_type_id":"4","last_reported":1753344976,"current_range_meters":6800,"station_id":"ce4bhi12rcd13ifvqfp0","pricing_plan_id":"cebpf4jnsgd1na2vs0mg"},{"bike_id":"c9dbd36b-479c-4a5c-b200-3aa7673340d9","system_id":"levelo_inurba_marseille","lat":43.241448,"lon":5.363743,"is_reserved":false,"is_disabled":false,"rental_uris":{"android":"levelo://app?vid=c9dbd36b-479c-4a5c-b200-3aa7673340d9","ios":"levelo://app?vid=c9dbd36b-479c-4a5c-b200-3aa7673340d9"},"vehicle_type_id":"4","last_reported":1753344976,"current_range_meters":6800,"station_id":"","pricing_plan_id":"cebpf4jnsgd1na2vs0mg"},{"bike_id":"2f1a7d77-95f9-46d2-9f36-f6f42627262a","system_id":"levelo_inurba_marseille","lat":43.309515,"lon":5.390156,"is_reserved":false,"is_disabled":false,"rental_uris":{"android":"levelo://app?vid=2f1a7d77-95f9-46d2-9f36-f6f42627262a","ios":"levelo://app?vid=2f1a7d77-95f9-46d2-9f36-f6f42627262a"},"vehicle_type_id":"4","last_reported":1753344976,"current_range_meters":6800,"station_id":"ce4bgup2rcd13ifvqco0","pricing_plan_id":"cebpf4jnsgd1na2vs0mg"},{"bike_id":"b418dfd5-f8fe-4110-9771-628e79533809","system_id":"levelo_inurba_marseille","lat":43.26556,"lon":5.37282,"is_reserved":false,"is_disabled":false,"rental_uris":{"android":"levelo://app?vid=b418dfd5-f8fe-4110-9771-628e79533809","ios":"levelo://app?vid=b418dfd5-f8fe-4110-9771-628e79533809"},"vehicle_type_id":"4","last_reported":1753344976,"current_range_meters":7200,"station_id":"ce4bhg12rcd13ifvqf70","pricing_plan_id":"cebpf4jnsgd1na2vs0mg"},{"bike_id":"60e79c8f-bceb-4693-9e1b-f5875ae288f7","system_id":"levelo_inurba_marseille","lat":43.29257,"lon":5.37615,"is_reserved":false,"is_disabled":false,"rental_uris":{"android":"levelo://app?vid=60e79c8f-bceb-4693-9e1b-f5875ae288f7","ios":"levelo://app?vid=60e79c8f-bceb-4693-9e1b-f5875ae288f7"},"vehicle_type_id":"4","last_reported":1753344976,"current_range_meters":7200,"station_id":"ce4bgi12rcd13ifvqb80","pricing_plan_id":"cebpf4jnsgd1na2vs0mg"},{"bike_id":"4f5cf228-3e1b-4242-a2b2-999c684484de","system_id":"levelo_inurba_marseille","lat":43.28571,"lon":5.39497,"is_reserved":false,"is_disabled":false,"rental_uris":{"android":"levelo://app?vid=4f5cf228-3e1b-4242-a2b2-999c684484de","ios":"levelo://app?vid=4f5cf228-3e1b-4242-a2b2-999c684484de"},"vehicle_type_id":"4","last_reported":1753344976,"current_range_meters":7200,"station_id":"ce4bh292rcd13ifvqdg0","pricing_plan_id":"cebpf4jnsgd1na2vs0mg"},{"bike_id":"a0cf426c-dccf-49b9-b149-a6bf403619bb","system_id":"levelo_inurba_marseille","lat":43.29039,"lon":5.39964,"is_reserved":false,"is_disabled":false,"rental_uris":{"android":"levelo://app?vid=a0cf426c-dccf-49b9-b149-a6bf403619bb","ios":"levelo://app?vid=a0cf426c-dccf-49b9-b149-a6bf403619bb"},"vehicle_type_id":"4","last_reported":1753344976,"current_range_meters":7200,"station_id":"ce4bh392rcd13ifvqdm0","pricing_plan_id":"cebpf4jnsgd1na2vs0mg"},{"bike_id":"8e98eab0-66ab-41cb-865f-913b58891b39","system_id":"levelo_inurba_marseille","lat":43.22498,"lon":5.34774,"is_reserved":false,"is_disabled":false,"rental_uris":{"android":"levelo://app?vid=8e98eab0-66ab-41cb-865f-913b58891b39","ios":"levelo://app?vid=8e98eab0-66ab-41cb-865f-913b58891b39"},"vehicle_type_id":"4","last_reported":1753344976,"current_range_meters":7200,"station_id":"st_cvj5dfep6f1abm77gieg","pricing_plan_id":"cebpf4jnsgd1na2vs0mg"},{"bike_id":"aa5097b6-6968-4aec-b711-e7780938924b","system_id":"levelo_inurba_marseille","lat":43.3295,"lon":5.358883,"is_reserved":false,"is_disabled":false,"rental_uris":{"android":"levelo://app?vid=aa5097b6-6968-4aec-b711-e7780938924b","ios":"levelo://app?vid=aa5097b6-6968-4aec-b711-e7780938924b"},"vehicle_type_id":"4","last_reported":1753344976,"current_range_meters":7200,"station_id":"","pricing_plan_id":"cebpf4jnsgd1na2vs0mg"},{"bike_id":"7b8e4d5a-7c4f-4deb-bb8d-bf3c370980ee","system_id":"levelo_inurba_marseille","lat":43.30538,"lon":5.36702,"is_reserved":false,"is_disabled":false,"rental_uris":{"android":"levelo://app?vid=7b8e4d5a-7c4f-4deb-bb8d-bf3c370980ee","ios":"levelo://app?vid=7b8e4d5a-7c4f-4deb-bb8d-bf3c370980ee"},"vehicle_type_id":"4","last_reported":1753344976,"current_range_meters":8000,"station_id":"ce4bgrp2rcd13ifvqc9g","pricing_plan_id":"cebpf4jnsgd1na2vs0mg"},{"bike_id":"49817bfa-2976-4626-b9b0-d6e3f4481d9b","system_id":"levelo_inurba_marseille","lat":43.30378,"lon":5.42484,"is_reserved":false,"is_disabled":false,"rental_uris":{"android":"levelo://app?vid=49817bfa-2976-4626-b9b0-d6e3f4481d9b","ios":"levelo://app?vid=49817bfa-2976-4626-b9b0-d6e3f4481d9b"},"vehicle_type_id":"4","last_reported":1753344976,"current_range_meters":8000,"station_id":"ce4bhoh2rcd13ifvqh6g","pricing_plan_id":"cebpf4jnsgd1na2vs0mg"},{"bike_id":"2375cade-ab2f-4d70-815a-dda984992af7","system_id":"levelo_inurba_marseille","lat":43.31394,"lon":5.36695,"is_reserved":false,"is_disabled":false,"rental_uris":{"android":"levelo://app?vid=2375cade-ab2f-4d70-815a-dda984992af7","ios":"levelo://app?vid=2375cade-ab2f-4d70-815a-dda984992af7"},"vehicle_type_id":"4","last_reported":1753344976,"current_range_meters":8000,"station_id":"ce4bgr92rcd13ifvqc6g","pricing_plan_id":"cebpf4jnsgd1na2vs0mg"},{"bike_id":"023f4996-d01b-4602-bab6-cfc524f78a45","system_id":"levelo_inurba_marseille","lat":43.26225,"lon":5.4045,"is_reserved":false,"is_disabled":false,"rental_uris":{"android":"levelo://app?vid=023f4996-d01b-4602-bab6-cfc524f78a45","ios":"levelo://app?vid=023f4996-d01b-4602-bab6-cfc524f78a45"},"vehicle_type_id":"4","last_reported":1753344976,"current_range_meters":8000,"station_id":"ce4bhmh2rcd13ifvqgmg","pricing_plan_id":"cebpf4jnsgd1na2vs0mg"},{"bike_id":"ab87e1f7-abe2-4879-8847-579f441a056a","system_id":"levelo_inurba_marseille","lat":43.31076,"lon":5.42437,"is_reserved":false,"is_disabled":false,"rental_uris":{"android":"levelo://app?vid=ab87e1f7-abe2-4879-8847-579f441a056a","ios":"levelo://app?vid=ab87e1f7-abe2-4879-8847-579f441a056a"},"vehicle_type_id":"4","last_reported":1753344976,"current_range_meters":8400,"station_id":"ce4bhp92rcd13ifvqhag","pricing_plan_id":"cebpf4jnsgd1na2vs0mg"},{"bike_id":"bd8aba08-a20b-4280-82e9-2f9d456f55b9","system_id":"levelo_inurba_marseille","lat":43.30773,"lon":5.37644,"is_reserved":false,"is_disabled":true,"rental_uris":{"android":"levelo://app?vid=bd8aba08-a20b-4280-82e9-2f9d456f55b9","ios":"levelo://app?vid=bd8aba08-a20b-4280-82e9-2f9d456f55b9"},"vehicle_type_id":"4","last_reported":1753344976,"current_range_meters":8400,"station_id":"ce4bgv92rcd13ifvqcq0","pricing_plan_id":"cebpf4jnsgd1na2vs0mg"},{"bike_id":"f9062784-0417-4840-bb15-81c56a64826f","system_id":"levelo_inurba_marseille","lat":43.22504,"lon":5.3478,"is_reserved":false,"is_disabled":false,"rental_uris":{"android":"levelo://app?vid=f9062784-0417-4840-bb15-81c56a64826f","ios":"levelo://app?vid=f9062784-0417-4840-bb15-81c56a64826f"},"vehicle_type_id":"4","last_reported":1753344976,"current_range_meters":8800,"station_id":"","pricing_plan_id":"cebpf4jnsgd1na2vs0mg"},{"bike_id":"da053e6a-15f2-492e-8bc1-42b1d66cc329","system_id":"levelo_inurba_marseille","lat":43.28352,"lon":5.43255,"is_reserved":false,"is_disabled":false,"rental_uris":{"android":"levelo://app?vid=da053e6a-15f2-492e-8bc1-42b1d66cc329","ios":"levelo://app?vid=da053e6a-15f2-492e-8bc1-42b1d66cc329"},"vehicle_type_id":"4","last_reported":1753344976,"current_range_meters":8800,"station_id":"","pricing_plan_id":"cebpf4jnsgd1na2vs0mg"},{"bike_id":"c4ab8b6f-b9e7-4d47-91c0-82fcf9196b75","system_id":"levelo_inurba_marseille","lat":43.3024,"lon":5.40065,"is_reserved":false,"is_disabled":true,"rental_uris":{"android":"levelo://app?vid=c4ab8b6f-b9e7-4d47-91c0-82fcf9196b75","ios":"levelo://app?vid=c4ab8b6f-b9e7-4d47-91c0-82fcf9196b75"},"vehicle_type_id":"4","last_reported":1753344976,"current_range_meters":8800,"station_id":"","pricing_plan_id":"cebpf4jnsgd1na2vs0mg"},{"bike_id":"0ace1f3d-4e97-4852-b566-f19e447fb9c4","system_id":"levelo_inurba_marseille","lat":43.28722,"lon":5.36097,"is_reserved":false,"is_disabled":false,"rental_uris":{"android":"levelo://app?vid=0ace1f3d-4e97-4852-b566-f19e447fb9c4","ios":"levelo://app?vid=0ace1f3d-4e97-4852-b566-f19e447fb9c4"},"vehicle_type_id":"4","last_reported":1753344976,"current_range_meters":8400,"station_id":"cki0cbj6b192h4jlfktg","pricing_plan_id":"cebpf4jnsgd1na2vs0mg"},{"bike_id":"7f963e76-4c2a-4b2d-a6e7-6e4e7f5b20c6","system_id":"levelo_inurba_marseille","lat":43.31548,"lon":5.37294,"is_reserved":false,"is_disabled":false,"rental_uris":{"android":"levelo://app?vid=7f963e76-4c2a-4b2d-a6e7-6e4e7f5b20c6","ios":"levelo://app?vid=7f963e76-4c2a-4b2d-a6e7-6e4e7f5b20c6"},"vehicle_type_id":"4","last_reported":1753344976,"current_range_meters":9200,"station_id":"","pricing_plan_id":"cebpf4jnsgd1na2vs0mg"},{"bike_id":"3ac89c52-e97a-4fd1-af08-41c4c01ef472","system_id":"levelo_inurba_marseille","lat":43.29945,"lon":5.36551,"is_reserved":false,"is_disabled":false,"rental_uris":{"android":"levelo://app?vid=3ac89c52-e97a-4fd1-af08-41c4c01ef472","ios":"levelo://app?vid=3ac89c52-e97a-4fd1-af08-41c4c01ef472"},"vehicle_type_id":"4","last_reported":1753344976,"current_range_meters":9200,"station_id":"ce4bgm92rcd13ifvqbr0","pricing_plan_id":"cebpf4jnsgd1na2vs0mg"},{"bike_id":"9f32c24c-dc71-467a-88d1-2a46642b1695","system_id":"levelo_inurba_marseille","lat":43.305427,"lon":5.36548,"is_reserved":false,"is_disabled":false,"rental_uris":{"android":"levelo://app?vid=9f32c24c-dc71-467a-88d1-2a46642b1695","ios":"levelo://app?vid=9f32c24c-dc71-467a-88d1-2a46642b1695"},"vehicle_type_id":"4","last_reported":1753344976,"current_range_meters":9200,"station_id":"ce4bgs12rcd13ifvqcag","pricing_plan_id":"cebpf4jnsgd1na2vs0mg"},{"bike_id":"80f2a1d9-8988-43e1-8d0e-b41531e6b4e2","system_id":"levelo_inurba_marseille","lat":43.28969,"lon":5.37869,"is_reserved":false,"is_disabled":false,"rental_uris":{"android":"levelo://app?vid=80f2a1d9-8988-43e1-8d0e-b41531e6b4e2","ios":"levelo://app?vid=80f2a1d9-8988-43e1-8d0e-b41531e6b4e2"},"vehicle_type_id":"4","last_reported":1753344976,"current_range_meters":6800,"station_id":"ce4bh9p2rcd13ifvqed0","pricing_plan_id":"cebpf4jnsgd1na2vs0mg"},{"bike_id":"9f3ed220-9e9e-4bc8-a5f6-aeb6066011ca","system_id":"levelo_inurba_marseille","lat":43.26214,"lon":5.37423,"is_reserved":false,"is_disabled":false,"rental_uris":{"android":"levelo://app?vid=9f3ed220-9e9e-4bc8-a5f6-aeb6066011ca","ios":"levelo://app?vid=9f3ed220-9e9e-4bc8-a5f6-aeb6066011ca"},"vehicle_type_id":"4","last_reported":1753344976,"current_range_meters":9200,"station_id":"ce4bhgp2rcd13ifvqfc0","pricing_plan_id":"cebpf4jnsgd1na2vs0mg"},{"bike_id":"861c06e3-23ad-4682-8cb7-9fa17f691a2d","system_id":"levelo_inurba_marseille","lat":43.30881,"lon":5.3965,"is_reserved":false,"is_disabled":false,"rental_uris":{"android":"levelo://app?vid=861c06e3-23ad-4682-8cb7-9fa17f691a2d","ios":"levelo://app?vid=861c06e3-23ad-4682-8cb7-9fa17f691a2d"},"vehicle_type_id":"4","last_reported":1753344976,"current_range_meters":9600,"station_id":"ce4bh012rcd13ifvqcv0","pricing_plan_id":"cebpf4jnsgd1na2vs0mg"},{"bike_id":"7b7524ae-8ecd-499f-93b7-a6de3bab91d4","system_id":"levelo_inurba_marseille","lat":43.298942,"lon":5.436656,"is_reserved":false,"is_disabled":false,"rental_uris":{"android":"levelo://app?vid=7b7524ae-8ecd-499f-93b7-a6de3bab91d4","ios":"levelo://app?vid=7b7524ae-8ecd-499f-93b7-a6de3bab91d4"},"vehicle_type_id":"4","last_reported":1753344976,"current_range_meters":9600,"station_id":"ce4bhpp2rcd13ifvqhfg","pricing_plan_id":"cebpf4jnsgd1na2vs0mg"},{"bike_id":"c99b32ef-25d9-480e-99d0-ca980f77a836","system_id":"levelo_inurba_marseille","lat":43.32356,"lon":5.36749,"is_reserved":false,"is_disabled":false,"rental_uris":{"android":"levelo://app?vid=c99b32ef-25d9-480e-99d0-ca980f77a836","ios":"levelo://app?vid=c99b32ef-25d9-480e-99d0-ca980f77a836"},"vehicle_type_id":"4","last_reported":1753344976,"current_range_meters":9600,"station_id":"ce4bhsh2rcd13ifvqi2g","pricing_plan_id":"cebpf4jnsgd1na2vs0mg"},{"bike_id":"8006020a-6cfe-4131-82ca-a6c8f07671d2","system_id":"levelo_inurba_marseille","lat":43.31175,"lon":5.37719,"is_reserved":false,"is_disabled":false,"rental_uris":{"android":"levelo://app?vid=8006020a-6cfe-4131-82ca-a6c8f07671d2","ios":"levelo://app?vid=8006020a-6cfe-4131-82ca-a6c8f07671d2"},"vehicle_type_id":"4","last_reported":1753344976,"current_range_meters":9600,"station_id":"","pricing_plan_id":"cebpf4jnsgd1na2vs0mg"},{"bike_id":"9414fea0-7c6e-4c39-95f1-457a63a631b4","system_id":"levelo_inurba_marseille","lat":43.22502,"lon":5.3479,"is_reserved":false,"is_disabled":true,"rental_uris":{"android":"levelo://app?vid=9414fea0-7c6e-4c39-95f1-457a63a631b4","ios":"levelo://app?vid=9414fea0-7c6e-4c39-95f1-457a63a631b4"},"vehicle_type_id":"4","last_reported":1753344976,"current_range_meters":9600,"station_id":"st_cvj5dfep6f1abm77gieg","pricing_plan_id":"cebpf4jnsgd1na2vs0mg"},{"bike_id":"dec93502-9771-4f3a-879a-cbdfb860df89","system_id":"levelo_inurba_marseille","lat":43.27667,"lon":5.38388,"is_reserved":false,"is_disabled":false,"rental_uris":{"android":"levelo://app?vid=dec93502-9771-4f3a-879a-cbdfb860df89","ios":"levelo://app?vid=dec93502-9771-4f3a-879a-cbdfb860df89"},"vehicle_type_id":"4","last_reported":1753344976,"current_range_meters":10000,"station_id":"","pricing_plan_id":"cebpf4jnsgd1na2vs0mg"},{"bike_id":"b982e5a3-88f5-4403-a53a-38d90073ed80","system_id":"levelo_inurba_marseille","lat":43.29414,"lon":5.4322,"is_reserved":false,"is_disabled":false,"rental_uris":{"android":"levelo://app?vid=b982e5a3-88f5-4403-a53a-38d90073ed80","ios":"levelo://app?vid=b982e5a3-88f5-4403-a53a-38d90073ed80"},"vehicle_type_id":"4","last_reported":1753344976,"current_range_meters":10000,"station_id":"","pricing_plan_id":"cebpf4jnsgd1na2vs0mg"},{"bike_id":"098b0695-cda3-4c2f-a440-ef95faa16f32","system_id":"levelo_inurba_marseille","lat":43.225,"lon":5.34776,"is_reserved":false,"is_disabled":true,"rental_uris":{"android":"levelo://app?vid=098b0695-cda3-4c2f-a440-ef95faa16f32","ios":"levelo://app?vid=098b0695-cda3-4c2f-a440-ef95faa16f32"},"vehicle_type_id":"4","last_reported":1753344976,"current_range_meters":10000,"station_id":"st_cvj5dfep6f1abm77gieg","pricing_plan_id":"cebpf4jnsgd1na2vs0mg"},{"bike_id":"8abd4c2e-8425-4647-9941-52fbb287d5b5","system_id":"levelo_inurba_marseille","lat":43.27372,"lon":5.3626,"is_reserved":false,"is_disabled":false,"rental_uris":{"android":"levelo://app?vid=8abd4c2e-8425-4647-9941-52fbb287d5b5","ios":"levelo://app?vid=8abd4c2e-8425-4647-9941-52fbb287d5b5"},"vehicle_type_id":"4","last_reported":1753344976,"current_range_meters":10000,"station_id":"ce4bhbh2rcd13ifvqeo0","pricing_plan_id":"cebpf4jnsgd1na2vs0mg"},{"bike_id":"072249e0-6b31-4d65-814c-3886177b7a41","system_id":"levelo_inurba_marseille","lat":43.31764,"lon":5.39016,"is_reserved":false,"is_disabled":false,"rental_uris":{"android":"levelo://app?vid=072249e0-6b31-4d65-814c-3886177b7a41","ios":"levelo://app?vid=072249e0-6b31-4d65-814c-3886177b7a41"},"vehicle_type_id":"4","last_reported":1753344976,"current_range_meters":10000,"station_id":"ce4bhqp2rcd13ifvqhng","pricing_plan_id":"cebpf4jnsgd1na2vs0mg"},{"bike_id":"67703b65-0028-4928-8dd4-79f1c63bc105","system_id":"levelo_inurba_marseille","lat":43.24994,"lon":5.38934,"is_reserved":false,"is_disabled":false,"rental_uris":{"android":"levelo://app?vid=67703b65-0028-4928-8dd4-79f1c63bc105","ios":"levelo://app?vid=67703b65-0028-4928-8dd4-79f1c63bc105"},"vehicle_type_id":"4","last_reported":1753344976,"current_range_meters":10800,"station_id":"ce4bhgp2rcd13ifvqfd0","pricing_plan_id":"cebpf4jnsgd1na2vs0mg"},{"bike_id":"bbc2b271-396f-4875-9f1d-0fcc163d87b6","system_id":"levelo_inurba_marseille","lat":43.29077,"lon":5.39909,"is_reserved":false,"is_disabled":false,"rental_uris":{"android":"levelo://app?vid=bbc2b271-396f-4875-9f1d-0fcc163d87b6","ios":"levelo://app?vid=bbc2b271-396f-4875-9f1d-0fcc163d87b6"},"vehicle_type_id":"4","last_reported":1753344976,"current_range_meters":10800,"station_id":"","pricing_plan_id":"cebpf4jnsgd1na2vs0mg"},{"bike_id":"f9c9ff83-8548-4acb-a33b-495af4adeef4","system_id":"levelo_inurba_marseille","lat":43.32341,"lon":5.36622,"is_reserved":false,"is_disabled":false,"rental_uris":{"android":"levelo://app?vid=f9c9ff83-8548-4acb-a33b-495af4adeef4","ios":"levelo://app?vid=f9c9ff83-8548-4acb-a33b-495af4adeef4"},"vehicle_type_id":"4","last_reported":1753344976,"current_range_meters":10800,"station_id":"ce4bhsh2rcd13ifvqi2g","pricing_plan_id":"cebpf4jnsgd1na2vs0mg"},{"bike_id":"1cb1a79a-be7e-4c7f-8fb8-282eb66c78c3","system_id":"levelo_inurba_marseille","lat":43.29744,"lon":5.37656,"is_reserved":false,"is_disabled":false,"rental_uris":{"android":"levelo://app?vid=1cb1a79a-be7e-4c7f-8fb8-282eb66c78c3","ios":"levelo://app?vid=1cb1a79a-be7e-4c7f-8fb8-282eb66c78c3"},"vehicle_type_id":"4","last_reported":1753344976,"current_range_meters":10800,"station_id":"ce4bgkh2rcd13ifvqbl0","pricing_plan_id":"cebpf4jnsgd1na2vs0mg"},{"bike_id":"0f3a638e-203b-4cba-ba61-536903eeb74d","system_id":"levelo_inurba_marseille","lat":43.31489,"lon":5.37305,"is_reserved":false,"is_disabled":false,"rental_uris":{"android":"levelo://app?vid=0f3a638e-203b-4cba-ba61-536903eeb74d","ios":"levelo://app?vid=0f3a638e-203b-4cba-ba61-536903eeb74d"},"vehicle_type_id":"4","last_reported":1753344976,"current_range_meters":10800,"station_id":"ce4bgt12rcd13ifvqcd0","pricing_plan_id":"cebpf4jnsgd1na2vs0mg"},{"bike_id":"be73e0c3-1fcd-4852-b65a-d69995cb5cc9","system_id":"levelo_inurba_marseille","lat":43.32343,"lon":5.40608,"is_reserved":false,"is_disabled":false,"rental_uris":{"android":"levelo://app?vid=be73e0c3-1fcd-4852-b65a-d69995cb5cc9","ios":"levelo://app?vid=be73e0c3-1fcd-4852-b65a-d69995cb5cc9"},"vehicle_type_id":"4","last_reported":1753344976,"current_range_meters":10800,"station_id":"ce4bhq92rcd13ifvqhjg","pricing_plan_id":"cebpf4jnsgd1na2vs0mg"},{"bike_id":"3f8b5608-59d9-41fc-9920-6c6fb9cc9c61","system_id":"levelo_inurba_marseille","lat":43.27973,"lon":5.38743,"is_reserved":false,"is_disabled":false,"rental_uris":{"android":"levelo://app?vid=3f8b5608-59d9-41fc-9920-6c6fb9cc9c61","ios":"levelo://app?vid=3f8b5608-59d9-41fc-9920-6c6fb9cc9c61"},"vehicle_type_id":"4","last_reported":1753344976,"current_range_meters":10800,"station_id":"ce4bhg12rcd13ifvqf80","pricing_plan_id":"cebpf4jnsgd1na2vs0mg"},{"bike_id":"d3a87ec3-d3d0-4399-a927-0c7571f7da9c","system_id":"levelo_inurba_marseille","lat":43.3011,"lon":5.39869,"is_reserved":false,"is_disabled":false,"rental_uris":{"android":"levelo://app?vid=d3a87ec3-d3d0-4399-a927-0c7571f7da9c","ios":"levelo://app?vid=d3a87ec3-d3d0-4399-a927-0c7571f7da9c"},"vehicle_type_id":"4","last_reported":1753344976,"current_range_meters":10800,"station_id":"ce4bh0h2rcd13ifvqd40","pricing_plan_id":"cebpf4jnsgd1na2vs0mg"},{"bike_id":"44499859-96d0-4beb-a2fe-c7bc0623cb12","system_id":"levelo_inurba_marseille","lat":43.30783,"lon":5.37649,"is_reserved":false,"is_disabled":false,"rental_uris":{"android":"levelo://app?vid=44499859-96d0-4beb-a2fe-c7bc0623cb12","ios":"levelo://app?vid=44499859-96d0-4beb-a2fe-c7bc0623cb12"},"vehicle_type_id":"4","last_reported":1753344976,"current_range_meters":10800,"station_id":"ce4bgv92rcd13ifvqcq0","pricing_plan_id":"cebpf4jnsgd1na2vs0mg"},{"bike_id":"8f2f810b-e561-4cef-9f74-1525a420e472","system_id":"levelo_inurba_marseille","lat":43.2783,"lon":5.39209,"is_reserved":false,"is_disabled":false,"rental_uris":{"android":"levelo://app?vid=8f2f810b-e561-4cef-9f74-1525a420e472","ios":"levelo://app?vid=8f2f810b-e561-4cef-9f74-1525a420e472"},"vehicle_type_id":"4","last_reported":1753344976,"current_range_meters":11200,"station_id":"ce4bhjp2rcd13ifvqga0","pricing_plan_id":"cebpf4jnsgd1na2vs0mg"},{"bike_id":"f3217e35-0bb5-43ab-beb0-dd5e233a7114","system_id":"levelo_inurba_marseille","lat":43.25578,"lon":5.382244,"is_reserved":false,"is_disabled":true,"rental_uris":{"android":"levelo://app?vid=f3217e35-0bb5-43ab-beb0-dd5e233a7114","ios":"levelo://app?vid=f3217e35-0bb5-43ab-beb0-dd5e233a7114"},"vehicle_type_id":"4","last_reported":1753344976,"current_range_meters":11200,"station_id":"ce4bhih2rcd13ifvqfs0","pricing_plan_id":"cebpf4jnsgd1na2vs0mg"},{"bike_id":"0c25a919-dbf1-4075-b9d2-b263349a2ab1","system_id":"levelo_inurba_marseille","lat":43.29037,"lon":5.39993,"is_reserved":false,"is_disabled":false,"rental_uris":{"android":"levelo://app?vid=0c25a919-dbf1-4075-b9d2-b263349a2ab1","ios":"levelo://app?vid=0c25a919-dbf1-4075-b9d2-b263349a2ab1"},"vehicle_type_id":"4","last_reported":1753344976,"current_range_meters":11200,"station_id":"ce4bh392rcd13ifvqdm0","pricing_plan_id":"cebpf4jnsgd1na2vs0mg"},{"bike_id":"a23567dc-f3a0-4378-b496-90cd12ea77ac","system_id":"levelo_inurba_marseille","lat":43.27373,"lon":5.36259,"is_reserved":false,"is_disabled":false,"rental_uris":{"android":"levelo://app?vid=a23567dc-f3a0-4378-b496-90cd12ea77ac","ios":"levelo://app?vid=a23567dc-f3a0-4378-b496-90cd12ea77ac"},"vehicle_type_id":"4","last_reported":1753344976,"current_range_meters":11200,"station_id":"ce4bhbh2rcd13ifvqeo0","pricing_plan_id":"cebpf4jnsgd1na2vs0mg"},{"bike_id":"a0de01aa-cd68-4a4d-8bab-65fa167b8610","system_id":"levelo_inurba_marseille","lat":43.23171,"lon":5.35568,"is_reserved":false,"is_disabled":false,"rental_uris":{"android":"levelo://app?vid=a0de01aa-cd68-4a4d-8bab-65fa167b8610","ios":"levelo://app?vid=a0de01aa-cd68-4a4d-8bab-65fa167b8610"},"vehicle_type_id":"4","last_reported":1753344976,"current_range_meters":11200,"station_id":"ce4bhu92rcd13ifvqi70","pricing_plan_id":"cebpf4jnsgd1na2vs0mg"},{"bike_id":"9ce312f1-cb07-4159-91d6-c11a68a5ee71","system_id":"levelo_inurba_marseille","lat":43.2119,"lon":5.35073,"is_reserved":false,"is_disabled":false,"rental_uris":{"android":"levelo://app?vid=9ce312f1-cb07-4159-91d6-c11a68a5ee71","ios":"levelo://app?vid=9ce312f1-cb07-4159-91d6-c11a68a5ee71"},"vehicle_type_id":"4","last_reported":1753344976,"current_range_meters":11200,"station_id":"st_cvj6sg6p6f1abm77japg","pricing_plan_id":"cebpf4jnsgd1na2vs0mg"},{"bike_id":"b5ce8d93-17c0-45a5-b2b1-eefce45c2d79","system_id":"levelo_inurba_marseille","lat":43.31789,"lon":5.43511,"is_reserved":false,"is_disabled":false,"rental_uris":{"android":"levelo://app?vid=b5ce8d93-17c0-45a5-b2b1-eefce45c2d79","ios":"levelo://app?vid=b5ce8d93-17c0-45a5-b2b1-eefce45c2d79"},"vehicle_type_id":"4","last_reported":1753344976,"current_range_meters":11600,"station_id":"","pricing_plan_id":"cebpf4jnsgd1na2vs0mg"},{"bike_id":"fb9088c4-7ec5-4789-a825-7f3aef3806c9","system_id":"levelo_inurba_marseille","lat":43.26683,"lon":5.38269,"is_reserved":false,"is_disabled":false,"rental_uris":{"android":"levelo://app?vid=fb9088c4-7ec5-4789-a825-7f3aef3806c9","ios":"levelo://app?vid=fb9088c4-7ec5-4789-a825-7f3aef3806c9"},"vehicle_type_id":"4","last_reported":1753344976,"current_range_meters":11600,"station_id":"ce4bhg92rcd13ifvqf90","pricing_plan_id":"cebpf4jnsgd1na2vs0mg"},{"bike_id":"ccabc22a-cb79-4faf-8199-fb5e11714e71","system_id":"levelo_inurba_marseille","lat":43.28488,"lon":5.38568,"is_reserved":false,"is_disabled":false,"rental_uris":{"android":"levelo://app?vid=ccabc22a-cb79-4faf-8199-fb5e11714e71","ios":"levelo://app?vid=ccabc22a-cb79-4faf-8199-fb5e11714e71"},"vehicle_type_id":"4","last_reported":1753344976,"current_range_meters":11600,"station_id":"ce4bh8p2rcd13ifvqeb0","pricing_plan_id":"cebpf4jnsgd1na2vs0mg"},{"bike_id":"f8232130-db52-4ff5-b354-f78033a04c00","system_id":"levelo_inurba_marseille","lat":43.279458,"lon":5.410448,"is_reserved":false,"is_disabled":false,"rental_uris":{"android":"levelo://app?vid=f8232130-db52-4ff5-b354-f78033a04c00","ios":"levelo://app?vid=f8232130-db52-4ff5-b354-f78033a04c00"},"vehicle_type_id":"4","last_reported":1753344976,"current_range_meters":11600,"station_id":"ce4bhnp2rcd13ifvqh0g","pricing_plan_id":"cebpf4jnsgd1na2vs0mg"},{"bike_id":"9078f053-8be5-418e-8e94-6cb8eb829986","system_id":"levelo_inurba_marseille","lat":43.29261,"lon":5.40917,"is_reserved":false,"is_disabled":false,"rental_uris":{"android":"levelo://app?vid=9078f053-8be5-418e-8e94-6cb8eb829986","ios":"levelo://app?vid=9078f053-8be5-418e-8e94-6cb8eb829986"},"vehicle_type_id":"4","last_reported":1753344976,"current_range_meters":11600,"station_id":"ce4bh192rcd13ifvqdc0","pricing_plan_id":"cebpf4jnsgd1na2vs0mg"},{"bike_id":"06d268a6-1ab3-4d86-8951-6713b579be16","system_id":"levelo_inurba_marseille","lat":43.3097,"lon":5.37061,"is_reserved":false,"is_disabled":false,"rental_uris":{"android":"levelo://app?vid=06d268a6-1ab3-4d86-8951-6713b579be16","ios":"levelo://app?vid=06d268a6-1ab3-4d86-8951-6713b579be16"},"vehicle_type_id":"4","last_reported":1753344976,"current_range_meters":12000,"station_id":"","pricing_plan_id":"cebpf4jnsgd1na2vs0mg"},{"bike_id":"fdb610f8-756d-4f3c-85c8-3111ef7472fa","system_id":"levelo_inurba_marseille","lat":43.29961,"lon":5.38867,"is_reserved":false,"is_disabled":false,"rental_uris":{"android":"levelo://app?vid=fdb610f8-756d-4f3c-85c8-3111ef7472fa","ios":"levelo://app?vid=fdb610f8-756d-4f3c-85c8-3111ef7472fa"},"vehicle_type_id":"4","last_reported":1753344976,"current_range_meters":12000,"station_id":"","pricing_plan_id":"cebpf4jnsgd1na2vs0mg"},{"bike_id":"fec51878-8b50-4c25-9dbd-c3f087775fa5","system_id":"levelo_inurba_marseille","lat":43.29297,"lon":5.37158,"is_reserved":false,"is_disabled":false,"rental_uris":{"android":"levelo://app?vid=fec51878-8b50-4c25-9dbd-c3f087775fa5","ios":"levelo://app?vid=fec51878-8b50-4c25-9dbd-c3f087775fa5"},"vehicle_type_id":"4","last_reported":1753344976,"current_range_meters":12000,"station_id":"ce4bgh92rcd13ifvqb40","pricing_plan_id":"cebpf4jnsgd1na2vs0mg"},{"bike_id":"f4bc89ed-241d-4eca-b46f-4a676df87af3","system_id":"levelo_inurba_marseille","lat":43.305328,"lon":5.365715,"is_reserved":false,"is_disabled":false,"rental_uris":{"android":"levelo://app?vid=f4bc89ed-241d-4eca-b46f-4a676df87af3","ios":"levelo://app?vid=f4bc89ed-241d-4eca-b46f-4a676df87af3"},"vehicle_type_id":"4","last_reported":1753344976,"current_range_meters":12000,"station_id":"ce4bgs12rcd13ifvqcag","pricing_plan_id":"cebpf4jnsgd1na2vs0mg"},{"bike_id":"f9322b84-4311-4472-9e01-0a942613dbdc","system_id":"levelo_inurba_marseille","lat":43.279934,"lon":5.416666,"is_reserved":false,"is_disabled":false,"rental_uris":{"android":"levelo://app?vid=f9322b84-4311-4472-9e01-0a942613dbdc","ios":"levelo://app?vid=f9322b84-4311-4472-9e01-0a942613dbdc"},"vehicle_type_id":"4","last_reported":1753344976,"current_range_meters":12400,"station_id":"ce4bho12rcd13ifvqh1g","pricing_plan_id":"cebpf4jnsgd1na2vs0mg"},{"bike_id":"be1d3fb1-1acf-452d-b0a0-093ecfc71aec","system_id":"levelo_inurba_marseille","lat":43.24174,"lon":5.39718,"is_reserved":false,"is_disabled":false,"rental_uris":{"android":"levelo://app?vid=be1d3fb1-1acf-452d-b0a0-093ecfc71aec","ios":"levelo://app?vid=be1d3fb1-1acf-452d-b0a0-093ecfc71aec"},"vehicle_type_id":"4","last_reported":1753344976,"current_range_meters":12400,"station_id":"ce4bhn12rcd13ifvqgpg","pricing_plan_id":"cebpf4jnsgd1na2vs0mg"},{"bike_id":"406bb968-0fae-4e85-8d46-69f26be4db27","system_id":"levelo_inurba_marseille","lat":43.29278,"lon":5.36843,"is_reserved":false,"is_disabled":false,"rental_uris":{"android":"levelo://app?vid=406bb968-0fae-4e85-8d46-69f26be4db27","ios":"levelo://app?vid=406bb968-0fae-4e85-8d46-69f26be4db27"},"vehicle_type_id":"4","last_reported":1753344976,"current_range_meters":12400,"station_id":"ce4bhbp2rcd13ifvqesg","pricing_plan_id":"cebpf4jnsgd1na2vs0mg"},{"bike_id":"2ee732fb-16c6-4794-9a8e-0c60df4bd4d8","system_id":"levelo_inurba_marseille","lat":43.217657,"lon":5.345787,"is_reserved":false,"is_disabled":false,"rental_uris":{"android":"levelo://app?vid=2ee732fb-16c6-4794-9a8e-0c60df4bd4d8","ios":"levelo://app?vid=2ee732fb-16c6-4794-9a8e-0c60df4bd4d8"},"vehicle_type_id":"4","last_reported":1753344976,"current_range_meters":12400,"station_id":"","pricing_plan_id":"cebpf4jnsgd1na2vs0mg"},{"bike_id":"fdb25742-70c6-46fb-b5db-90ab9df31166","system_id":"levelo_inurba_marseille","lat":43.26676,"lon":5.38265,"is_reserved":false,"is_disabled":false,"rental_uris":{"android":"levelo://app?vid=fdb25742-70c6-46fb-b5db-90ab9df31166","ios":"levelo://app?vid=fdb25742-70c6-46fb-b5db-90ab9df31166"},"vehicle_type_id":"4","last_reported":1753344976,"current_range_meters":12800,"station_id":"ce4bhg92rcd13ifvqf90","pricing_plan_id":"cebpf4jnsgd1na2vs0mg"},{"bike_id":"74667481-5f03-4636-8b5a-495e4f40157d","system_id":"levelo_inurba_marseille","lat":43.30972,"lon":5.37372,"is_reserved":false,"is_disabled":false,"rental_uris":{"android":"levelo://app?vid=74667481-5f03-4636-8b5a-495e4f40157d","ios":"levelo://app?vid=74667481-5f03-4636-8b5a-495e4f40157d"},"vehicle_type_id":"4","last_reported":1753344976,"current_range_meters":12800,"station_id":"","pricing_plan_id":"cebpf4jnsgd1na2vs0mg"},{"bike_id":"77be17ea-a677-46d6-a392-fbc6761621fc","system_id":"levelo_inurba_marseille","lat":43.30525,"lon":5.36528,"is_reserved":false,"is_disabled":false,"rental_uris":{"android":"levelo://app?vid=77be17ea-a677-46d6-a392-fbc6761621fc","ios":"levelo://app?vid=77be17ea-a677-46d6-a392-fbc6761621fc"},"vehicle_type_id":"4","last_reported":1753344976,"current_range_meters":12800,"station_id":"ce4bgs12rcd13ifvqcag","pricing_plan_id":"cebpf4jnsgd1na2vs0mg"},{"bike_id":"496cac02-0e91-4f64-97b9-cb34cf0ab931","system_id":"levelo_inurba_marseille","lat":43.22514,"lon":5.34781,"is_reserved":false,"is_disabled":false,"rental_uris":{"android":"levelo://app?vid=496cac02-0e91-4f64-97b9-cb34cf0ab931","ios":"levelo://app?vid=496cac02-0e91-4f64-97b9-cb34cf0ab931"},"vehicle_type_id":"4","last_reported":1753344976,"current_range_meters":12800,"station_id":"st_cvj5dfep6f1abm77gieg","pricing_plan_id":"cebpf4jnsgd1na2vs0mg"},{"bike_id":"ae131367-d818-44a0-9e1d-4aa65dcdb16a","system_id":"levelo_inurba_marseille","lat":43.275,"lon":5.39663,"is_reserved":false,"is_disabled":false,"rental_uris":{"android":"levelo://app?vid=ae131367-d818-44a0-9e1d-4aa65dcdb16a","ios":"levelo://app?vid=ae131367-d818-44a0-9e1d-4aa65dcdb16a"},"vehicle_type_id":"4","last_reported":1753344976,"current_range_meters":12800,"station_id":"","pricing_plan_id":"cebpf4jnsgd1na2vs0mg"},{"bike_id":"3cd09fc8-9554-4236-8496-0931a7be09d1","system_id":"levelo_inurba_marseille","lat":43.211966,"lon":5.350717,"is_reserved":false,"is_disabled":false,"rental_uris":{"android":"levelo://app?vid=3cd09fc8-9554-4236-8496-0931a7be09d1","ios":"levelo://app?vid=3cd09fc8-9554-4236-8496-0931a7be09d1"},"vehicle_type_id":"4","last_reported":1753344976,"current_range_meters":12800,"station_id":"st_cvj6sg6p6f1abm77japg","pricing_plan_id":"cebpf4jnsgd1na2vs0mg"},{"bike_id":"b89d6267-55af-48a1-8887-3f0adc5ff195","system_id":"levelo_inurba_marseille","lat":43.301319,"lon":5.39874,"is_reserved":false,"is_disabled":false,"rental_uris":{"android":"levelo://app?vid=b89d6267-55af-48a1-8887-3f0adc5ff195","ios":"levelo://app?vid=b89d6267-55af-48a1-8887-3f0adc5ff195"},"vehicle_type_id":"4","last_reported":1753344976,"current_range_meters":12800,"station_id":"","pricing_plan_id":"cebpf4jnsgd1na2vs0mg"},{"bike_id":"2006d6ab-c619-4a15-b9f3-97c1160843f0","system_id":"levelo_inurba_marseille","lat":43.2816,"lon":5.36083,"is_reserved":false,"is_disabled":false,"rental_uris":{"android":"levelo://app?vid=2006d6ab-c619-4a15-b9f3-97c1160843f0","ios":"levelo://app?vid=2006d6ab-c619-4a15-b9f3-97c1160843f0"},"vehicle_type_id":"4","last_reported":1753344976,"current_range_meters":12800,"station_id":"","pricing_plan_id":"cebpf4jnsgd1na2vs0mg"},{"bike_id":"91a3148c-4730-46b6-bb60-4a44084644a5","system_id":"levelo_inurba_marseille","lat":43.30566,"lon":5.3653,"is_reserved":false,"is_disabled":false,"rental_uris":{"android":"levelo://app?vid=91a3148c-4730-46b6-bb60-4a44084644a5","ios":"levelo://app?vid=91a3148c-4730-46b6-bb60-4a44084644a5"},"vehicle_type_id":"4","last_reported":1753344976,"current_range_meters":12800,"station_id":"ce4bgs12rcd13ifvqcag","pricing_plan_id":"cebpf4jnsgd1na2vs0mg"},{"bike_id":"4ff66ad5-38ad-4096-b4ed-a335fbe2ca43","system_id":"levelo_inurba_marseille","lat":43.26496,"lon":5.39538,"is_reserved":false,"is_disabled":false,"rental_uris":{"android":"levelo://app?vid=4ff66ad5-38ad-4096-b4ed-a335fbe2ca43","ios":"levelo://app?vid=4ff66ad5-38ad-4096-b4ed-a335fbe2ca43"},"vehicle_type_id":"4","last_reported":1753344976,"current_range_meters":12800,"station_id":"ce4bhi12rcd13ifvqfq0","pricing_plan_id":"cebpf4jnsgd1na2vs0mg"},{"bike_id":"75921511-23bf-408f-9470-1062209789d6","system_id":"levelo_inurba_marseille","lat":43.25581,"lon":5.38212,"is_reserved":false,"is_disabled":false,"rental_uris":{"android":"levelo://app?vid=75921511-23bf-408f-9470-1062209789d6","ios":"levelo://app?vid=75921511-23bf-408f-9470-1062209789d6"},"vehicle_type_id":"4","last_reported":1753344976,"current_range_meters":13600,"station_id":"ce4bhih2rcd13ifvqfs0","pricing_plan_id":"cebpf4jnsgd1na2vs0mg"},{"bike_id":"17b6befd-1cc6-4c58-ba0e-8a9cc2a0bccb","system_id":"levelo_inurba_marseille","lat":43.22539,"lon":5.34769,"is_reserved":false,"is_disabled":false,"rental_uris":{"android":"levelo://app?vid=17b6befd-1cc6-4c58-ba0e-8a9cc2a0bccb","ios":"levelo://app?vid=17b6befd-1cc6-4c58-ba0e-8a9cc2a0bccb"},"vehicle_type_id":"4","last_reported":1753344976,"current_range_meters":13600,"station_id":"st_cvj5dfep6f1abm77gieg","pricing_plan_id":"cebpf4jnsgd1na2vs0mg"},{"bike_id":"0372d762-aad9-470d-bcac-ca21b9bee4a9","system_id":"levelo_inurba_marseille","lat":43.31071,"lon":5.38336,"is_reserved":false,"is_disabled":true,"rental_uris":{"android":"levelo://app?vid=0372d762-aad9-470d-bcac-ca21b9bee4a9","ios":"levelo://app?vid=0372d762-aad9-470d-bcac-ca21b9bee4a9"},"vehicle_type_id":"4","last_reported":1753344976,"current_range_meters":13600,"station_id":"ce4bgv92rcd13ifvqcr0","pricing_plan_id":"cebpf4jnsgd1na2vs0mg"},{"bike_id":"6a79a396-2f47-4b1c-9dce-b0d5464f72e4","system_id":"levelo_inurba_marseille","lat":43.22937,"lon":5.3538,"is_reserved":false,"is_disabled":false,"rental_uris":{"android":"levelo://app?vid=6a79a396-2f47-4b1c-9dce-b0d5464f72e4","ios":"levelo://app?vid=6a79a396-2f47-4b1c-9dce-b0d5464f72e4"},"vehicle_type_id":"4","last_reported":1753344976,"current_range_meters":13600,"station_id":"cpo3532slgdg3j2ikp40","pricing_plan_id":"cebpf4jnsgd1na2vs0mg"},{"bike_id":"b4e9a11c-8978-41ba-aa44-abde4a0bc81a","system_id":"levelo_inurba_marseille","lat":43.25494,"lon":5.37648,"is_reserved":false,"is_disabled":false,"rental_uris":{"android":"levelo://app?vid=b4e9a11c-8978-41ba-aa44-abde4a0bc81a","ios":"levelo://app?vid=b4e9a11c-8978-41ba-aa44-abde4a0bc81a"},"vehicle_type_id":"4","last_reported":1753344976,"current_range_meters":13600,"station_id":"ce4bhh12rcd13ifvqff0","pricing_plan_id":"cebpf4jnsgd1na2vs0mg"},{"bike_id":"54943e91-61ee-496b-9667-a7c6c3a25bb5","system_id":"levelo_inurba_marseille","lat":43.26206,"lon":5.37443,"is_reserved":false,"is_disabled":false,"rental_uris":{"android":"levelo://app?vid=54943e91-61ee-496b-9667-a7c6c3a25bb5","ios":"levelo://app?vid=54943e91-61ee-496b-9667-a7c6c3a25bb5"},"vehicle_type_id":"4","last_reported":1753344976,"current_range_meters":13600,"station_id":"ce4bhgp2rcd13ifvqfc0","pricing_plan_id":"cebpf4jnsgd1na2vs0mg"},{"bike_id":"c3b7093a-c6fc-4872-a465-95918521be48","system_id":"levelo_inurba_marseille","lat":43.314975,"lon":5.372921,"is_reserved":false,"is_disabled":false,"rental_uris":{"android":"levelo://app?vid=c3b7093a-c6fc-4872-a465-95918521be48","ios":"levelo://app?vid=c3b7093a-c6fc-4872-a465-95918521be48"},"vehicle_type_id":"4","last_reported":1753344976,"current_range_meters":14000,"station_id":"ce4bgt12rcd13ifvqcd0","pricing_plan_id":"cebpf4jnsgd1na2vs0mg"},{"bike_id":"6991eb77-412c-4a60-ada3-09da737770d7","system_id":"levelo_inurba_marseille","lat":43.29989,"lon":5.37166,"is_reserved":false,"is_disabled":false,"rental_uris":{"android":"levelo://app?vid=6991eb77-412c-4a60-ada3-09da737770d7","ios":"levelo://app?vid=6991eb77-412c-4a60-ada3-09da737770d7"},"vehicle_type_id":"4","last_reported":1753344976,"current_range_meters":14000,"station_id":"ce4bgr92rcd13ifvqc7g","pricing_plan_id":"cebpf4jnsgd1na2vs0mg"},{"bike_id":"5ac85406-65d0-4336-aa89-4b04b2e6689e","system_id":"levelo_inurba_marseille","lat":43.33259,"lon":5.41979,"is_reserved":false,"is_disabled":false,"rental_uris":{"android":"levelo://app?vid=5ac85406-65d0-4336-aa89-4b04b2e6689e","ios":"levelo://app?vid=5ac85406-65d0-4336-aa89-4b04b2e6689e"},"vehicle_type_id":"4","last_reported":1753344976,"current_range_meters":14000,"station_id":"","pricing_plan_id":"cebpf4jnsgd1na2vs0mg"},{"bike_id":"c056311f-78c9-4e18-8685-91c659ddb125","system_id":"levelo_inurba_marseille","lat":43.31614,"lon":5.38959,"is_reserved":false,"is_disabled":false,"rental_uris":{"android":"levelo://app?vid=c056311f-78c9-4e18-8685-91c659ddb125","ios":"levelo://app?vid=c056311f-78c9-4e18-8685-91c659ddb125"},"vehicle_type_id":"4","last_reported":1753344976,"current_range_meters":14000,"station_id":"","pricing_plan_id":"cebpf4jnsgd1na2vs0mg"},{"bike_id":"a71bb9bc-bc4a-485b-9bc8-38d68376d8d3","system_id":"levelo_inurba_marseille","lat":43.30795,"lon":5.37643,"is_reserved":false,"is_disabled":false,"rental_uris":{"android":"levelo://app?vid=a71bb9bc-bc4a-485b-9bc8-38d68376d8d3","ios":"levelo://app?vid=a71bb9bc-bc4a-485b-9bc8-38d68376d8d3"},"vehicle_type_id":"4","last_reported":1753344976,"current_range_meters":14000,"station_id":"ce4bgv92rcd13ifvqcq0","pricing_plan_id":"cebpf4jnsgd1na2vs0mg"},{"bike_id":"6bb1f31c-9335-4f39-9585-31374a4775f9","system_id":"levelo_inurba_marseille","lat":43.325583,"lon":5.379059,"is_reserved":false,"is_disabled":false,"rental_uris":{"android":"levelo://app?vid=6bb1f31c-9335-4f39-9585-31374a4775f9","ios":"levelo://app?vid=6bb1f31c-9335-4f39-9585-31374a4775f9"},"vehicle_type_id":"4","last_reported":1753344976,"current_range_meters":14000,"station_id":"","pricing_plan_id":"cebpf4jnsgd1na2vs0mg"},{"bike_id":"ce59a62d-17ec-416f-b54d-751bd3f6f3dd","system_id":"levelo_inurba_marseille","lat":43.27092,"lon":5.42274,"is_reserved":false,"is_disabled":false,"rental_uris":{"android":"levelo://app?vid=ce59a62d-17ec-416f-b54d-751bd3f6f3dd","ios":"levelo://app?vid=ce59a62d-17ec-416f-b54d-751bd3f6f3dd"},"vehicle_type_id":"4","last_reported":1753344976,"current_range_meters":14000,"station_id":"ce4bhk92rcd13ifvqgb0","pricing_plan_id":"cebpf4jnsgd1na2vs0mg"},{"bike_id":"01c56686-4fd4-4684-8f04-029a48cfd013","system_id":"levelo_inurba_marseille","lat":43.26783,"lon":5.39409,"is_reserved":false,"is_disabled":false,"rental_uris":{"android":"levelo://app?vid=01c56686-4fd4-4684-8f04-029a48cfd013","ios":"levelo://app?vid=01c56686-4fd4-4684-8f04-029a48cfd013"},"vehicle_type_id":"4","last_reported":1753344976,"current_range_meters":14000,"station_id":"ce4bhh12rcd13ifvqfg0","pricing_plan_id":"cebpf4jnsgd1na2vs0mg"},{"bike_id":"efce9bd7-0f84-4c4c-8629-017c0e0428bd","system_id":"levelo_inurba_marseille","lat":43.25583,"lon":5.38227,"is_reserved":false,"is_disabled":false,"rental_uris":{"android":"levelo://app?vid=efce9bd7-0f84-4c4c-8629-017c0e0428bd","ios":"levelo://app?vid=efce9bd7-0f84-4c4c-8629-017c0e0428bd"},"vehicle_type_id":"4","last_reported":1753344976,"current_range_meters":14400,"station_id":"ce4bhih2rcd13ifvqfs0","pricing_plan_id":"cebpf4jnsgd1na2vs0mg"},{"bike_id":"c0ece2a8-b928-406e-a7bb-8f30d22c0b07","system_id":"levelo_inurba_marseille","lat":43.2915,"lon":5.37134,"is_reserved":false,"is_disabled":false,"rental_uris":{"android":"levelo://app?vid=c0ece2a8-b928-406e-a7bb-8f30d22c0b07","ios":"levelo://app?vid=c0ece2a8-b928-406e-a7bb-8f30d22c0b07"},"vehicle_type_id":"4","last_reported":1753344976,"current_range_meters":14400,"station_id":"ce4bha92rcd13ifvqeh0","pricing_plan_id":"cebpf4jnsgd1na2vs0mg"},{"bike_id":"18b86593-4f21-41ed-81b3-f3a5b378dc91","system_id":"levelo_inurba_marseille","lat":43.31243,"lon":5.38143,"is_reserved":false,"is_disabled":false,"rental_uris":{"android":"levelo://app?vid=18b86593-4f21-41ed-81b3-f3a5b378dc91","ios":"levelo://app?vid=18b86593-4f21-41ed-81b3-f3a5b378dc91"},"vehicle_type_id":"4","last_reported":1753344976,"current_range_meters":14400,"station_id":"","pricing_plan_id":"cebpf4jnsgd1na2vs0mg"},{"bike_id":"3407292c-0e0d-4af1-956c-56e99999c954","system_id":"levelo_inurba_marseille","lat":43.26214,"lon":5.4045,"is_reserved":false,"is_disabled":false,"rental_uris":{"android":"levelo://app?vid=3407292c-0e0d-4af1-956c-56e99999c954","ios":"levelo://app?vid=3407292c-0e0d-4af1-956c-56e99999c954"},"vehicle_type_id":"4","last_reported":1753344976,"current_range_meters":14800,"station_id":"ce4bhmh2rcd13ifvqgmg","pricing_plan_id":"cebpf4jnsgd1na2vs0mg"},{"bike_id":"14020eea-16f1-46b7-a49c-87cf940f8c29","system_id":"levelo_inurba_marseille","lat":43.241775,"lon":5.397193,"is_reserved":false,"is_disabled":false,"rental_uris":{"android":"levelo://app?vid=14020eea-16f1-46b7-a49c-87cf940f8c29","ios":"levelo://app?vid=14020eea-16f1-46b7-a49c-87cf940f8c29"},"vehicle_type_id":"4","last_reported":1753344976,"current_range_meters":14800,"station_id":"ce4bhn12rcd13ifvqgpg","pricing_plan_id":"cebpf4jnsgd1na2vs0mg"},{"bike_id":"674df432-eba2-41a5-a16c-d34b13d50f5e","system_id":"levelo_inurba_marseille","lat":43.33913,"lon":5.40685,"is_reserved":false,"is_disabled":true,"rental_uris":{"android":"levelo://app?vid=674df432-eba2-41a5-a16c-d34b13d50f5e","ios":"levelo://app?vid=674df432-eba2-41a5-a16c-d34b13d50f5e"},"vehicle_type_id":"4","last_reported":1753344976,"current_range_meters":14800,"station_id":"","pricing_plan_id":"cebpf4jnsgd1na2vs0mg"},{"bike_id":"875540a5-76de-4844-93f6-e9d5f549dced","system_id":"levelo_inurba_marseille","lat":43.295987,"lon":5.381056,"is_reserved":false,"is_disabled":true,"rental_uris":{"android":"levelo://app?vid=875540a5-76de-4844-93f6-e9d5f549dced","ios":"levelo://app?vid=875540a5-76de-4844-93f6-e9d5f549dced"},"vehicle_type_id":"4","last_reported":1753344976,"current_range_meters":14800,"station_id":"","pricing_plan_id":"cebpf4jnsgd1na2vs0mg"},{"bike_id":"5254d746-bf2c-4042-b956-76a940639ba4","system_id":"levelo_inurba_marseille","lat":43.31387,"lon":5.36695,"is_reserved":false,"is_disabled":false,"rental_uris":{"android":"levelo://app?vid=5254d746-bf2c-4042-b956-76a940639ba4","ios":"levelo://app?vid=5254d746-bf2c-4042-b956-76a940639ba4"},"vehicle_type_id":"4","last_reported":1753344976,"current_range_meters":14800,"station_id":"ce4bgr92rcd13ifvqc6g","pricing_plan_id":"cebpf4jnsgd1na2vs0mg"},{"bike_id":"1ad257b5-7f83-42c1-867f-92635ff1abbf","system_id":"levelo_inurba_marseille","lat":43.229333,"lon":5.353778,"is_reserved":false,"is_disabled":false,"rental_uris":{"android":"levelo://app?vid=1ad257b5-7f83-42c1-867f-92635ff1abbf","ios":"levelo://app?vid=1ad257b5-7f83-42c1-867f-92635ff1abbf"},"vehicle_type_id":"4","last_reported":1753344976,"current_range_meters":14800,"station_id":"cpo3532slgdg3j2ikp40","pricing_plan_id":"cebpf4jnsgd1na2vs0mg"},{"bike_id":"8b9ed53d-b0c6-47ba-ade9-01f0a2c054e8","system_id":"levelo_inurba_marseille","lat":43.241797,"lon":5.397205,"is_reserved":false,"is_disabled":false,"rental_uris":{"android":"levelo://app?vid=8b9ed53d-b0c6-47ba-ade9-01f0a2c054e8","ios":"levelo://app?vid=8b9ed53d-b0c6-47ba-ade9-01f0a2c054e8"},"vehicle_type_id":"4","last_reported":1753344976,"current_range_meters":15200,"station_id":"ce4bhn12rcd13ifvqgpg","pricing_plan_id":"cebpf4jnsgd1na2vs0mg"},{"bike_id":"5bf271e9-b85e-4ede-9d32-02d7c28374e7","system_id":"levelo_inurba_marseille","lat":43.32487,"lon":5.36555,"is_reserved":false,"is_disabled":false,"rental_uris":{"android":"levelo://app?vid=5bf271e9-b85e-4ede-9d32-02d7c28374e7","ios":"levelo://app?vid=5bf271e9-b85e-4ede-9d32-02d7c28374e7"},"vehicle_type_id":"4","last_reported":1753344976,"current_range_meters":15200,"station_id":"ce4bhs12rcd13ifvqhvg","pricing_plan_id":"cebpf4jnsgd1na2vs0mg"},{"bike_id":"b284a130-b3d4-43ba-a043-4294c92bf3d1","system_id":"levelo_inurba_marseille","lat":43.30543,"lon":5.36698,"is_reserved":false,"is_disabled":false,"rental_uris":{"android":"levelo://app?vid=b284a130-b3d4-43ba-a043-4294c92bf3d1","ios":"levelo://app?vid=b284a130-b3d4-43ba-a043-4294c92bf3d1"},"vehicle_type_id":"4","last_reported":1753344976,"current_range_meters":15200,"station_id":"ce4bgrp2rcd13ifvqc9g","pricing_plan_id":"cebpf4jnsgd1na2vs0mg"},{"bike_id":"76c65f84-3b49-4269-890c-8259fe6ade74","system_id":"levelo_inurba_marseille","lat":43.32361,"lon":5.36751,"is_reserved":false,"is_disabled":false,"rental_uris":{"android":"levelo://app?vid=76c65f84-3b49-4269-890c-8259fe6ade74","ios":"levelo://app?vid=76c65f84-3b49-4269-890c-8259fe6ade74"},"vehicle_type_id":"4","last_reported":1753344976,"current_range_meters":15200,"station_id":"ce4bhsh2rcd13ifvqi2g","pricing_plan_id":"cebpf4jnsgd1na2vs0mg"},{"bike_id":"6696b4d1-fa8f-4976-a164-635ae6c783e9","system_id":"levelo_inurba_marseille","lat":43.301459,"lon":5.374137,"is_reserved":false,"is_disabled":false,"rental_uris":{"android":"levelo://app?vid=6696b4d1-fa8f-4976-a164-635ae6c783e9","ios":"levelo://app?vid=6696b4d1-fa8f-4976-a164-635ae6c783e9"},"vehicle_type_id":"4","last_reported":1753344976,"current_range_meters":15200,"station_id":"ce4bgs92rcd13ifvqcc0","pricing_plan_id":"cebpf4jnsgd1na2vs0mg"},{"bike_id":"63c5ca57-b2df-4b8b-ad7f-6f2df7343ee7","system_id":"levelo_inurba_marseille","lat":43.28485,"lon":5.38427,"is_reserved":false,"is_disabled":false,"rental_uris":{"android":"levelo://app?vid=63c5ca57-b2df-4b8b-ad7f-6f2df7343ee7","ios":"levelo://app?vid=63c5ca57-b2df-4b8b-ad7f-6f2df7343ee7"},"vehicle_type_id":"4","last_reported":1753344976,"current_range_meters":16000,"station_id":"ce4bh512rcd13ifvqe3g","pricing_plan_id":"cebpf4jnsgd1na2vs0mg"},{"bike_id":"73ba57e1-a104-4a32-acd3-c7fe77025782","system_id":"levelo_inurba_marseille","lat":43.30535,"lon":5.36702,"is_reserved":false,"is_disabled":false,"rental_uris":{"android":"levelo://app?vid=73ba57e1-a104-4a32-acd3-c7fe77025782","ios":"levelo://app?vid=73ba57e1-a104-4a32-acd3-c7fe77025782"},"vehicle_type_id":"4","last_reported":1753344976,"current_range_meters":16000,"station_id":"ce4bgrp2rcd13ifvqc9g","pricing_plan_id":"cebpf4jnsgd1na2vs0mg"},{"bike_id":"d5d7aa46-2545-4529-a70f-4fd3389d4289","system_id":"levelo_inurba_marseille","lat":43.28489,"lon":5.38563,"is_reserved":false,"is_disabled":false,"rental_uris":{"android":"levelo://app?vid=d5d7aa46-2545-4529-a70f-4fd3389d4289","ios":"levelo://app?vid=d5d7aa46-2545-4529-a70f-4fd3389d4289"},"vehicle_type_id":"4","last_reported":1753344976,"current_range_meters":16000,"station_id":"ce4bh8p2rcd13ifvqeb0","pricing_plan_id":"cebpf4jnsgd1na2vs0mg"},{"bike_id":"35809018-a617-4f65-9134-7b21e1e5bd76","system_id":"levelo_inurba_marseille","lat":43.28029,"lon":5.36942,"is_reserved":false,"is_disabled":true,"rental_uris":{"android":"levelo://app?vid=35809018-a617-4f65-9134-7b21e1e5bd76","ios":"levelo://app?vid=35809018-a617-4f65-9134-7b21e1e5bd76"},"vehicle_type_id":"4","last_reported":1753344976,"current_range_meters":16000,"station_id":"ce4bha12rcd13ifvqef0","pricing_plan_id":"cebpf4jnsgd1na2vs0mg"},{"bike_id":"5f824980-27aa-4ef2-856d-b766bebead8a","system_id":"levelo_inurba_marseille","lat":43.22498,"lon":5.34771,"is_reserved":false,"is_disabled":false,"rental_uris":{"android":"levelo://app?vid=5f824980-27aa-4ef2-856d-b766bebead8a","ios":"levelo://app?vid=5f824980-27aa-4ef2-856d-b766bebead8a"},"vehicle_type_id":"4","last_reported":1753344976,"current_range_meters":16000,"station_id":"st_cvj5dfep6f1abm77gieg","pricing_plan_id":"cebpf4jnsgd1na2vs0mg"},{"bike_id":"65557123-861f-4bee-b8b9-fd6f09fd32db","system_id":"levelo_inurba_marseille","lat":43.27373,"lon":5.36224,"is_reserved":false,"is_disabled":false,"rental_uris":{"android":"levelo://app?vid=65557123-861f-4bee-b8b9-fd6f09fd32db","ios":"levelo://app?vid=65557123-861f-4bee-b8b9-fd6f09fd32db"},"vehicle_type_id":"4","last_reported":1753344976,"current_range_meters":16000,"station_id":"ce4bhbh2rcd13ifvqeo0","pricing_plan_id":"cebpf4jnsgd1na2vs0mg"},{"bike_id":"bb9c487f-3b54-4115-a230-c3fa19a81462","system_id":"levelo_inurba_marseille","lat":43.263305,"lon":5.404589,"is_reserved":false,"is_disabled":false,"rental_uris":{"android":"levelo://app?vid=bb9c487f-3b54-4115-a230-c3fa19a81462","ios":"levelo://app?vid=bb9c487f-3b54-4115-a230-c3fa19a81462"},"vehicle_type_id":"4","last_reported":1753344976,"current_range_meters":16000,"station_id":"ce4bhkp2rcd13ifvqgd0","pricing_plan_id":"cebpf4jnsgd1na2vs0mg"},{"bike_id":"971f361f-7d35-467c-b730-ff0e872917fc","system_id":"levelo_inurba_marseille","lat":43.24991,"lon":5.3893,"is_reserved":false,"is_disabled":false,"rental_uris":{"android":"levelo://app?vid=971f361f-7d35-467c-b730-ff0e872917fc","ios":"levelo://app?vid=971f361f-7d35-467c-b730-ff0e872917fc"},"vehicle_type_id":"4","last_reported":1753344976,"current_range_meters":16000,"station_id":"ce4bhgp2rcd13ifvqfd0","pricing_plan_id":"cebpf4jnsgd1na2vs0mg"},{"bike_id":"9437277c-d886-4a0b-9535-11724bd91051","system_id":"levelo_inurba_marseille","lat":43.27075,"lon":5.42278,"is_reserved":false,"is_disabled":false,"rental_uris":{"android":"levelo://app?vid=9437277c-d886-4a0b-9535-11724bd91051","ios":"levelo://app?vid=9437277c-d886-4a0b-9535-11724bd91051"},"vehicle_type_id":"4","last_reported":1753344976,"current_range_meters":16000,"station_id":"ce4bhk92rcd13ifvqgb0","pricing_plan_id":"cebpf4jnsgd1na2vs0mg"},{"bike_id":"81df7d6f-832b-40f6-ad7c-3d213cee8b09","system_id":"levelo_inurba_marseille","lat":43.24076,"lon":5.37764,"is_reserved":false,"is_disabled":false,"rental_uris":{"android":"levelo://app?vid=81df7d6f-832b-40f6-ad7c-3d213cee8b09","ios":"levelo://app?vid=81df7d6f-832b-40f6-ad7c-3d213cee8b09"},"vehicle_type_id":"4","last_reported":1753344976,"current_range_meters":16400,"station_id":"ce4bhnp2rcd13ifvqgvg","pricing_plan_id":"cebpf4jnsgd1na2vs0mg"},{"bike_id":"92d050d0-2ea1-43ef-8c80-fe39c5833f2b","system_id":"levelo_inurba_marseille","lat":43.29539,"lon":5.37489,"is_reserved":false,"is_disabled":false,"rental_uris":{"android":"levelo://app?vid=92d050d0-2ea1-43ef-8c80-fe39c5833f2b","ios":"levelo://app?vid=92d050d0-2ea1-43ef-8c80-fe39c5833f2b"},"vehicle_type_id":"4","last_reported":1753344976,"current_range_meters":16400,"station_id":"ce4bgkp2rcd13ifvqbmg","pricing_plan_id":"cebpf4jnsgd1na2vs0mg"},{"bike_id":"4b8efed3-9e53-47c8-bfa4-f1fb0beb03b1","system_id":"levelo_inurba_marseille","lat":43.29596,"lon":5.36766,"is_reserved":false,"is_disabled":true,"rental_uris":{"android":"levelo://app?vid=4b8efed3-9e53-47c8-bfa4-f1fb0beb03b1","ios":"levelo://app?vid=4b8efed3-9e53-47c8-bfa4-f1fb0beb03b1"},"vehicle_type_id":"4","last_reported":1753344976,"current_range_meters":16400,"station_id":"ce4bgph2rcd13ifvqc2g","pricing_plan_id":"cebpf4jnsgd1na2vs0mg"},{"bike_id":"e7f71088-2ad1-43c6-ab1f-113be1926618","system_id":"levelo_inurba_marseille","lat":43.28417,"lon":5.34977,"is_reserved":false,"is_disabled":false,"rental_uris":{"android":"levelo://app?vid=e7f71088-2ad1-43c6-ab1f-113be1926618","ios":"levelo://app?vid=e7f71088-2ad1-43c6-ab1f-113be1926618"},"vehicle_type_id":"4","last_reported":1753344976,"current_range_meters":16400,"station_id":"ce4bhbh2rcd13ifvqepg","pricing_plan_id":"cebpf4jnsgd1na2vs0mg"},{"bike_id":"eaea15aa-98ae-4f78-b37a-80e2e4524837","system_id":"levelo_inurba_marseille","lat":43.297916,"lon":5.381026,"is_reserved":false,"is_disabled":false,"rental_uris":{"android":"levelo://app?vid=eaea15aa-98ae-4f78-b37a-80e2e4524837","ios":"levelo://app?vid=eaea15aa-98ae-4f78-b37a-80e2e4524837"},"vehicle_type_id":"4","last_reported":1753344976,"current_range_meters":16400,"station_id":"","pricing_plan_id":"cebpf4jnsgd1na2vs0mg"},{"bike_id":"f7f07796-c7c9-4a74-80e9-fb85744448b8","system_id":"levelo_inurba_marseille","lat":43.2292,"lon":5.35358,"is_reserved":false,"is_disabled":false,"rental_uris":{"android":"levelo://app?vid=f7f07796-c7c9-4a74-80e9-fb85744448b8","ios":"levelo://app?vid=f7f07796-c7c9-4a74-80e9-fb85744448b8"},"vehicle_type_id":"4","last_reported":1753344976,"current_range_meters":16400,"station_id":"cpo3532slgdg3j2ikp40","pricing_plan_id":"cebpf4jnsgd1na2vs0mg"},{"bike_id":"35a86048-76dd-4de0-afb2-7da8772fad44","system_id":"levelo_inurba_marseille","lat":43.2152,"lon":5.34731,"is_reserved":false,"is_disabled":false,"rental_uris":{"android":"levelo://app?vid=35a86048-76dd-4de0-afb2-7da8772fad44","ios":"levelo://app?vid=35a86048-76dd-4de0-afb2-7da8772fad44"},"vehicle_type_id":"4","last_reported":1753344976,"current_range_meters":16400,"station_id":"","pricing_plan_id":"cebpf4jnsgd1na2vs0mg"},{"bike_id":"3fe4f5fd-12c8-4a99-b777-c2adfe7a7932","system_id":"levelo_inurba_marseille","lat":43.28698,"lon":5.39971,"is_reserved":false,"is_disabled":false,"rental_uris":{"android":"levelo://app?vid=3fe4f5fd-12c8-4a99-b777-c2adfe7a7932","ios":"levelo://app?vid=3fe4f5fd-12c8-4a99-b777-c2adfe7a7932"},"vehicle_type_id":"4","last_reported":1753344976,"current_range_meters":16400,"station_id":"ce4bho92rcd13ifvqh3g","pricing_plan_id":"cebpf4jnsgd1na2vs0mg"},{"bike_id":"fbda76a5-068e-4d90-b9ba-25721acd9298","system_id":"levelo_inurba_marseille","lat":43.29029,"lon":5.43973,"is_reserved":false,"is_disabled":false,"rental_uris":{"android":"levelo://app?vid=fbda76a5-068e-4d90-b9ba-25721acd9298","ios":"levelo://app?vid=fbda76a5-068e-4d90-b9ba-25721acd9298"},"vehicle_type_id":"4","last_reported":1753344976,"current_range_meters":16800,"station_id":"","pricing_plan_id":"cebpf4jnsgd1na2vs0mg"},{"bike_id":"ba86cb1f-77a0-40cf-b434-3914a01b304a","system_id":"levelo_inurba_marseille","lat":43.30876,"lon":5.37195,"is_reserved":false,"is_disabled":false,"rental_uris":{"android":"levelo://app?vid=ba86cb1f-77a0-40cf-b434-3914a01b304a","ios":"levelo://app?vid=ba86cb1f-77a0-40cf-b434-3914a01b304a"},"vehicle_type_id":"4","last_reported":1753344976,"current_range_meters":16800,"station_id":"ce4bguh2rcd13ifvqckg","pricing_plan_id":"cebpf4jnsgd1na2vs0mg"},{"bike_id":"7760768c-b761-4ed6-8344-f047bb3e17c5","system_id":"levelo_inurba_marseille","lat":43.307926,"lon":5.376458,"is_reserved":false,"is_disabled":false,"rental_uris":{"android":"levelo://app?vid=7760768c-b761-4ed6-8344-f047bb3e17c5","ios":"levelo://app?vid=7760768c-b761-4ed6-8344-f047bb3e17c5"},"vehicle_type_id":"4","last_reported":1753344976,"current_range_meters":16800,"station_id":"","pricing_plan_id":"cebpf4jnsgd1na2vs0mg"},{"bike_id":"451c8b55-6be2-42fe-a6f2-5298fefb419a","system_id":"levelo_inurba_marseille","lat":43.28161,"lon":5.4265,"is_reserved":false,"is_disabled":false,"rental_uris":{"android":"levelo://app?vid=451c8b55-6be2-42fe-a6f2-5298fefb419a","ios":"levelo://app?vid=451c8b55-6be2-42fe-a6f2-5298fefb419a"},"vehicle_type_id":"4","last_reported":1753344976,"current_range_meters":16800,"station_id":"ce4bhnh2rcd13ifvqgug","pricing_plan_id":"cebpf4jnsgd1na2vs0mg"},{"bike_id":"819bb1b6-06bc-4eb2-b94e-4388d87b087b","system_id":"levelo_inurba_marseille","lat":43.29724,"lon":5.36597,"is_reserved":false,"is_disabled":false,"rental_uris":{"android":"levelo://app?vid=819bb1b6-06bc-4eb2-b94e-4388d87b087b","ios":"levelo://app?vid=819bb1b6-06bc-4eb2-b94e-4388d87b087b"},"vehicle_type_id":"4","last_reported":1753344976,"current_range_meters":16800,"station_id":"ce4bgn12rcd13ifvqbt0","pricing_plan_id":"cebpf4jnsgd1na2vs0mg"},{"bike_id":"9af7cc99-e3bb-4b15-83b1-9d5f9541de1b","system_id":"levelo_inurba_marseille","lat":43.29305,"lon":5.37167,"is_reserved":false,"is_disabled":false,"rental_uris":{"android":"levelo://app?vid=9af7cc99-e3bb-4b15-83b1-9d5f9541de1b","ios":"levelo://app?vid=9af7cc99-e3bb-4b15-83b1-9d5f9541de1b"},"vehicle_type_id":"4","last_reported":1753344976,"current_range_meters":16800,"station_id":"ce4bgh92rcd13ifvqb40","pricing_plan_id":"cebpf4jnsgd1na2vs0mg"},{"bike_id":"99773d7d-8357-4216-9157-ed20e7bf3989","system_id":"levelo_inurba_marseille","lat":43.29549,"lon":5.38063,"is_reserved":false,"is_disabled":false,"rental_uris":{"android":"levelo://app?vid=99773d7d-8357-4216-9157-ed20e7bf3989","ios":"levelo://app?vid=99773d7d-8357-4216-9157-ed20e7bf3989"},"vehicle_type_id":"4","last_reported":1753344976,"current_range_meters":16800,"station_id":"ce4bh9p2rcd13ifvqec0","pricing_plan_id":"cebpf4jnsgd1na2vs0mg"},{"bike_id":"e401289a-83cf-4377-aa07-419b9b37079e","system_id":"levelo_inurba_marseille","lat":43.23067,"lon":5.354868,"is_reserved":false,"is_disabled":false,"rental_uris":{"android":"levelo://app?vid=e401289a-83cf-4377-aa07-419b9b37079e","ios":"levelo://app?vid=e401289a-83cf-4377-aa07-419b9b37079e"},"vehicle_type_id":"4","last_reported":1753344976,"current_range_meters":16800,"station_id":"cpo3342slgdg3j2ifvpg","pricing_plan_id":"cebpf4jnsgd1na2vs0mg"},{"bike_id":"c6aa9af9-9a2d-4c74-a251-ede8df9515d7","system_id":"levelo_inurba_marseille","lat":43.3124,"lon":5.36888,"is_reserved":false,"is_disabled":false,"rental_uris":{"android":"levelo://app?vid=c6aa9af9-9a2d-4c74-a251-ede8df9515d7","ios":"levelo://app?vid=c6aa9af9-9a2d-4c74-a251-ede8df9515d7"},"vehicle_type_id":"4","last_reported":1753344976,"current_range_meters":16800,"station_id":"ce4bgl92rcd13ifvqbq0","pricing_plan_id":"cebpf4jnsgd1na2vs0mg"},{"bike_id":"0f73fd28-b84a-44a6-81b3-09e6a990ceea","system_id":"levelo_inurba_marseille","lat":43.30185,"lon":5.36611,"is_reserved":false,"is_disabled":false,"rental_uris":{"android":"levelo://app?vid=0f73fd28-b84a-44a6-81b3-09e6a990ceea","ios":"levelo://app?vid=0f73fd28-b84a-44a6-81b3-09e6a990ceea"},"vehicle_type_id":"4","last_reported":1753344976,"current_range_meters":16800,"station_id":"ce4bgrh2rcd13ifvqc8g","pricing_plan_id":"cebpf4jnsgd1na2vs0mg"},{"bike_id":"2d0d1fa6-b1a7-49de-822e-188e5cab6185","system_id":"levelo_inurba_marseille","lat":43.31239,"lon":5.36896,"is_reserved":false,"is_disabled":false,"rental_uris":{"android":"levelo://app?vid=2d0d1fa6-b1a7-49de-822e-188e5cab6185","ios":"levelo://app?vid=2d0d1fa6-b1a7-49de-822e-188e5cab6185"},"vehicle_type_id":"4","last_reported":1753344976,"current_range_meters":16800,"station_id":"ce4bgl92rcd13ifvqbq0","pricing_plan_id":"cebpf4jnsgd1na2vs0mg"},{"bike_id":"27b5acbc-b1fd-4385-9be5-bae49e9e4f6a","system_id":"levelo_inurba_marseille","lat":43.248083,"lon":5.374539,"is_reserved":false,"is_disabled":false,"rental_uris":{"android":"levelo://app?vid=27b5acbc-b1fd-4385-9be5-bae49e9e4f6a","ios":"levelo://app?vid=27b5acbc-b1fd-4385-9be5-bae49e9e4f6a"},"vehicle_type_id":"4","last_reported":1753344976,"current_range_meters":16800,"station_id":"ce4bhgh2rcd13ifvqfb0","pricing_plan_id":"cebpf4jnsgd1na2vs0mg"},{"bike_id":"85c8f939-49e5-43d7-b524-31747577fd94","system_id":"levelo_inurba_marseille","lat":43.30779,"lon":5.3765,"is_reserved":false,"is_disabled":false,"rental_uris":{"android":"levelo://app?vid=85c8f939-49e5-43d7-b524-31747577fd94","ios":"levelo://app?vid=85c8f939-49e5-43d7-b524-31747577fd94"},"vehicle_type_id":"4","last_reported":1753344976,"current_range_meters":16800,"station_id":"ce4bgv92rcd13ifvqcq0","pricing_plan_id":"cebpf4jnsgd1na2vs0mg"},{"bike_id":"1f39eb17-34c7-4235-9069-0f68f613789c","system_id":"levelo_inurba_marseille","lat":43.26886,"lon":5.36871,"is_reserved":false,"is_disabled":false,"rental_uris":{"android":"levelo://app?vid=1f39eb17-34c7-4235-9069-0f68f613789c","ios":"levelo://app?vid=1f39eb17-34c7-4235-9069-0f68f613789c"},"vehicle_type_id":"4","last_reported":1753344976,"current_range_meters":17200,"station_id":"","pricing_plan_id":"cebpf4jnsgd1na2vs0mg"},{"bike_id":"184dd696-a175-47ac-8af1-548fdbc31847","system_id":"levelo_inurba_marseille","lat":43.30549,"lon":5.36537,"is_reserved":false,"is_disabled":false,"rental_uris":{"android":"levelo://app?vid=184dd696-a175-47ac-8af1-548fdbc31847","ios":"levelo://app?vid=184dd696-a175-47ac-8af1-548fdbc31847"},"vehicle_type_id":"4","last_reported":1753344976,"current_range_meters":17200,"station_id":"ce4bgs12rcd13ifvqcag","pricing_plan_id":"cebpf4jnsgd1na2vs0mg"},{"bike_id":"999682f7-776b-487d-ba35-037497682e39","system_id":"levelo_inurba_marseille","lat":43.25496,"lon":5.37647,"is_reserved":false,"is_disabled":false,"rental_uris":{"android":"levelo://app?vid=999682f7-776b-487d-ba35-037497682e39","ios":"levelo://app?vid=999682f7-776b-487d-ba35-037497682e39"},"vehicle_type_id":"4","last_reported":1753344976,"current_range_meters":17200,"station_id":"ce4bhh12rcd13ifvqff0","pricing_plan_id":"cebpf4jnsgd1na2vs0mg"},{"bike_id":"943bb50a-9837-4041-95bf-2d0c85b26350","system_id":"levelo_inurba_marseille","lat":43.29915,"lon":5.37466,"is_reserved":false,"is_disabled":false,"rental_uris":{"android":"levelo://app?vid=943bb50a-9837-4041-95bf-2d0c85b26350","ios":"levelo://app?vid=943bb50a-9837-4041-95bf-2d0c85b26350"},"vehicle_type_id":"4","last_reported":1753344976,"current_range_meters":16800,"station_id":"ce4bgjh2rcd13ifvqbg0","pricing_plan_id":"cebpf4jnsgd1na2vs0mg"},{"bike_id":"77bad5ae-a5f5-4ecd-adf6-67572c60b2e1","system_id":"levelo_inurba_marseille","lat":43.289374,"lon":5.396282,"is_reserved":false,"is_disabled":false,"rental_uris":{"android":"levelo://app?vid=77bad5ae-a5f5-4ecd-adf6-67572c60b2e1","ios":"levelo://app?vid=77bad5ae-a5f5-4ecd-adf6-67572c60b2e1"},"vehicle_type_id":"4","last_reported":1753344976,"current_range_meters":17200,"station_id":"ce4bhf92rcd13ifvqf40","pricing_plan_id":"cebpf4jnsgd1na2vs0mg"},{"bike_id":"630f322e-ea39-413c-8ed4-096ccef376bc","system_id":"levelo_inurba_marseille","lat":43.29602,"lon":5.36941,"is_reserved":false,"is_disabled":false,"rental_uris":{"android":"levelo://app?vid=630f322e-ea39-413c-8ed4-096ccef376bc","ios":"levelo://app?vid=630f322e-ea39-413c-8ed4-096ccef376bc"},"vehicle_type_id":"4","last_reported":1753344976,"current_range_meters":17200,"station_id":"","pricing_plan_id":"cebpf4jnsgd1na2vs0mg"},{"bike_id":"55c34f11-7726-4f75-9264-c2784ef1e47e","system_id":"levelo_inurba_marseille","lat":43.25002,"lon":5.38933,"is_reserved":false,"is_disabled":false,"rental_uris":{"android":"levelo://app?vid=55c34f11-7726-4f75-9264-c2784ef1e47e","ios":"levelo://app?vid=55c34f11-7726-4f75-9264-c2784ef1e47e"},"vehicle_type_id":"4","last_reported":1753344976,"current_range_meters":17200,"station_id":"ce4bhgp2rcd13ifvqfd0","pricing_plan_id":"cebpf4jnsgd1na2vs0mg"},{"bike_id":"15e966dc-913d-4fde-992f-aa9827944bee","system_id":"levelo_inurba_marseille","lat":43.29534,"lon":5.37501,"is_reserved":false,"is_disabled":false,"rental_uris":{"android":"levelo://app?vid=15e966dc-913d-4fde-992f-aa9827944bee","ios":"levelo://app?vid=15e966dc-913d-4fde-992f-aa9827944bee"},"vehicle_type_id":"4","last_reported":1753344976,"current_range_meters":17600,"station_id":"ce4bgkp2rcd13ifvqbmg","pricing_plan_id":"cebpf4jnsgd1na2vs0mg"},{"bike_id":"e11c38f2-2608-4396-ae8d-6f1ece949429","system_id":"levelo_inurba_marseille","lat":43.29035,"lon":5.39964,"is_reserved":false,"is_disabled":false,"rental_uris":{"android":"levelo://app?vid=e11c38f2-2608-4396-ae8d-6f1ece949429","ios":"levelo://app?vid=e11c38f2-2608-4396-ae8d-6f1ece949429"},"vehicle_type_id":"4","last_reported":1753344976,"current_range_meters":17600,"station_id":"","pricing_plan_id":"cebpf4jnsgd1na2vs0mg"},{"bike_id":"33ce2ff8-7e21-4229-9288-7ac129269db8","system_id":"levelo_inurba_marseille","lat":43.32119,"lon":5.36767,"is_reserved":false,"is_disabled":false,"rental_uris":{"android":"levelo://app?vid=33ce2ff8-7e21-4229-9288-7ac129269db8","ios":"levelo://app?vid=33ce2ff8-7e21-4229-9288-7ac129269db8"},"vehicle_type_id":"4","last_reported":1753344976,"current_range_meters":17600,"station_id":"ce4bhrh2rcd13ifvqhug","pricing_plan_id":"cebpf4jnsgd1na2vs0mg"},{"bike_id":"5515ee61-835f-4458-a7b2-dc9ac5c0cc88","system_id":"levelo_inurba_marseille","lat":43.30124,"lon":5.37424,"is_reserved":false,"is_disabled":false,"rental_uris":{"android":"levelo://app?vid=5515ee61-835f-4458-a7b2-dc9ac5c0cc88","ios":"levelo://app?vid=5515ee61-835f-4458-a7b2-dc9ac5c0cc88"},"vehicle_type_id":"4","last_reported":1753344976,"current_range_meters":17600,"station_id":"ce4bgs92rcd13ifvqcc0","pricing_plan_id":"cebpf4jnsgd1na2vs0mg"},{"bike_id":"5eb896fa-5103-4527-a3b7-8cffb7c48f0c","system_id":"levelo_inurba_marseille","lat":43.3361,"lon":5.41034,"is_reserved":false,"is_disabled":false,"rental_uris":{"android":"levelo://app?vid=5eb896fa-5103-4527-a3b7-8cffb7c48f0c","ios":"levelo://app?vid=5eb896fa-5103-4527-a3b7-8cffb7c48f0c"},"vehicle_type_id":"4","last_reported":1753344976,"current_range_meters":17600,"station_id":"ce4bhqh2rcd13ifvqhmg","pricing_plan_id":"cebpf4jnsgd1na2vs0mg"},{"bike_id":"0aa2d153-96d1-4d69-83b8-d39119aa9dd5","system_id":"levelo_inurba_marseille","lat":43.33523,"lon":5.36229,"is_reserved":false,"is_disabled":false,"rental_uris":{"android":"levelo://app?vid=0aa2d153-96d1-4d69-83b8-d39119aa9dd5","ios":"levelo://app?vid=0aa2d153-96d1-4d69-83b8-d39119aa9dd5"},"vehicle_type_id":"4","last_reported":1753344976,"current_range_meters":17600,"station_id":"","pricing_plan_id":"cebpf4jnsgd1na2vs0mg"},{"bike_id":"29ae9718-c985-4a67-b87d-fe9f41064859","system_id":"levelo_inurba_marseille","lat":43.29837,"lon":5.36272,"is_reserved":false,"is_disabled":false,"rental_uris":{"android":"levelo://app?vid=29ae9718-c985-4a67-b87d-fe9f41064859","ios":"levelo://app?vid=29ae9718-c985-4a67-b87d-fe9f41064859"},"vehicle_type_id":"4","last_reported":1753344976,"current_range_meters":17600,"station_id":"ce4bgpp2rcd13ifvqc3g","pricing_plan_id":"cebpf4jnsgd1na2vs0mg"},{"bike_id":"be1112aa-92c6-4f71-9978-f794b04ae2fe","system_id":"levelo_inurba_marseille","lat":43.27814,"lon":5.4071,"is_reserved":false,"is_disabled":false,"rental_uris":{"android":"levelo://app?vid=be1112aa-92c6-4f71-9978-f794b04ae2fe","ios":"levelo://app?vid=be1112aa-92c6-4f71-9978-f794b04ae2fe"},"vehicle_type_id":"4","last_reported":1753344976,"current_range_meters":17600,"station_id":"ce4bhnh2rcd13ifvqgtg","pricing_plan_id":"cebpf4jnsgd1na2vs0mg"},{"bike_id":"784eeebd-2893-4f27-84ae-c797089b4166","system_id":"levelo_inurba_marseille","lat":43.2251,"lon":5.3478,"is_reserved":false,"is_disabled":false,"rental_uris":{"android":"levelo://app?vid=784eeebd-2893-4f27-84ae-c797089b4166","ios":"levelo://app?vid=784eeebd-2893-4f27-84ae-c797089b4166"},"vehicle_type_id":"4","last_reported":1753344976,"current_range_meters":17600,"station_id":"st_cvj5dfep6f1abm77gieg","pricing_plan_id":"cebpf4jnsgd1na2vs0mg"},{"bike_id":"d2c1d56d-6a3a-4ae3-b7ab-84022ad7ad84","system_id":"levelo_inurba_marseille","lat":43.29872,"lon":5.37632,"is_reserved":false,"is_disabled":false,"rental_uris":{"android":"levelo://app?vid=d2c1d56d-6a3a-4ae3-b7ab-84022ad7ad84","ios":"levelo://app?vid=d2c1d56d-6a3a-4ae3-b7ab-84022ad7ad84"},"vehicle_type_id":"4","last_reported":1753344976,"current_range_meters":17600,"station_id":"","pricing_plan_id":"cebpf4jnsgd1na2vs0mg"},{"bike_id":"4dc55bff-5bd7-4982-bcfd-5e7226510aff","system_id":"levelo_inurba_marseille","lat":43.30771,"lon":5.37641,"is_reserved":false,"is_disabled":false,"rental_uris":{"android":"levelo://app?vid=4dc55bff-5bd7-4982-bcfd-5e7226510aff","ios":"levelo://app?vid=4dc55bff-5bd7-4982-bcfd-5e7226510aff"},"vehicle_type_id":"4","last_reported":1753344976,"current_range_meters":17600,"station_id":"ce4bgv92rcd13ifvqcq0","pricing_plan_id":"cebpf4jnsgd1na2vs0mg"},{"bike_id":"e529fcb4-3614-47de-b079-f55cfe82ad0a","system_id":"levelo_inurba_marseille","lat":43.30947,"lon":5.3903,"is_reserved":false,"is_disabled":false,"rental_uris":{"android":"levelo://app?vid=e529fcb4-3614-47de-b079-f55cfe82ad0a","ios":"levelo://app?vid=e529fcb4-3614-47de-b079-f55cfe82ad0a"},"vehicle_type_id":"4","last_reported":1753344976,"current_range_meters":17600,"station_id":"ce4bgup2rcd13ifvqco0","pricing_plan_id":"cebpf4jnsgd1na2vs0mg"},{"bike_id":"3af52dd6-d3ee-4f26-8c77-9cbf3c28b249","system_id":"levelo_inurba_marseille","lat":43.26229,"lon":5.4045,"is_reserved":false,"is_disabled":false,"rental_uris":{"android":"levelo://app?vid=3af52dd6-d3ee-4f26-8c77-9cbf3c28b249","ios":"levelo://app?vid=3af52dd6-d3ee-4f26-8c77-9cbf3c28b249"},"vehicle_type_id":"4","last_reported":1753344976,"current_range_meters":17600,"station_id":"ce4bhmh2rcd13ifvqgmg","pricing_plan_id":"cebpf4jnsgd1na2vs0mg"},{"bike_id":"c9fa87fb-bb42-4d95-a8cc-6cff58b20d5c","system_id":"levelo_inurba_marseille","lat":43.26198,"lon":5.3744,"is_reserved":false,"is_disabled":false,"rental_uris":{"android":"levelo://app?vid=c9fa87fb-bb42-4d95-a8cc-6cff58b20d5c","ios":"levelo://app?vid=c9fa87fb-bb42-4d95-a8cc-6cff58b20d5c"},"vehicle_type_id":"4","last_reported":1753344976,"current_range_meters":18000,"station_id":"ce4bhgp2rcd13ifvqfc0","pricing_plan_id":"cebpf4jnsgd1na2vs0mg"},{"bike_id":"8f940f92-47fd-4971-8348-8375c19ff83c","system_id":"levelo_inurba_marseille","lat":43.25724,"lon":5.41103,"is_reserved":false,"is_disabled":false,"rental_uris":{"android":"levelo://app?vid=8f940f92-47fd-4971-8348-8375c19ff83c","ios":"levelo://app?vid=8f940f92-47fd-4971-8348-8375c19ff83c"},"vehicle_type_id":"4","last_reported":1753344976,"current_range_meters":18000,"station_id":"ce4bhkp2rcd13ifvqgd0","pricing_plan_id":"cebpf4jnsgd1na2vs0mg"},{"bike_id":"d0e9c723-f453-46d4-ad6d-3b85d61ef44c","system_id":"levelo_inurba_marseille","lat":43.260569,"lon":5.394008,"is_reserved":false,"is_disabled":true,"rental_uris":{"android":"levelo://app?vid=d0e9c723-f453-46d4-ad6d-3b85d61ef44c","ios":"levelo://app?vid=d0e9c723-f453-46d4-ad6d-3b85d61ef44c"},"vehicle_type_id":"4","last_reported":1753344976,"current_range_meters":18000,"station_id":"","pricing_plan_id":"cebpf4jnsgd1na2vs0mg"},{"bike_id":"d8ab8225-ebfc-48f1-9981-f15e3b9960ea","system_id":"levelo_inurba_marseille","lat":43.22921,"lon":5.35369,"is_reserved":false,"is_disabled":false,"rental_uris":{"android":"levelo://app?vid=d8ab8225-ebfc-48f1-9981-f15e3b9960ea","ios":"levelo://app?vid=d8ab8225-ebfc-48f1-9981-f15e3b9960ea"},"vehicle_type_id":"4","last_reported":1753344976,"current_range_meters":18000,"station_id":"cpo3532slgdg3j2ikp40","pricing_plan_id":"cebpf4jnsgd1na2vs0mg"},{"bike_id":"481351de-e3d5-4a6f-aa67-c1762e7ed223","system_id":"levelo_inurba_marseille","lat":43.270647,"lon":5.422755,"is_reserved":false,"is_disabled":false,"rental_uris":{"android":"levelo://app?vid=481351de-e3d5-4a6f-aa67-c1762e7ed223","ios":"levelo://app?vid=481351de-e3d5-4a6f-aa67-c1762e7ed223"},"vehicle_type_id":"4","last_reported":1753344976,"current_range_meters":18000,"station_id":"ce4bhk92rcd13ifvqgb0","pricing_plan_id":"cebpf4jnsgd1na2vs0mg"},{"bike_id":"0a7e2862-d8ec-4c77-89d9-cfcdd51f8d75","system_id":"levelo_inurba_marseille","lat":43.311849,"lon":5.37874,"is_reserved":false,"is_disabled":false,"rental_uris":{"android":"levelo://app?vid=0a7e2862-d8ec-4c77-89d9-cfcdd51f8d75","ios":"levelo://app?vid=0a7e2862-d8ec-4c77-89d9-cfcdd51f8d75"},"vehicle_type_id":"4","last_reported":1753344976,"current_range_meters":18000,"station_id":"","pricing_plan_id":"cebpf4jnsgd1na2vs0mg"},{"bike_id":"9e71a50e-df43-4a48-bc37-13460235be7b","system_id":"levelo_inurba_marseille","lat":43.241655,"lon":5.363906,"is_reserved":false,"is_disabled":false,"rental_uris":{"android":"levelo://app?vid=9e71a50e-df43-4a48-bc37-13460235be7b","ios":"levelo://app?vid=9e71a50e-df43-4a48-bc37-13460235be7b"},"vehicle_type_id":"4","last_reported":1753344976,"current_range_meters":18000,"station_id":"cpo36qri1sfpv3e86is0","pricing_plan_id":"cebpf4jnsgd1na2vs0mg"},{"bike_id":"922e3d66-ae7e-4439-a5cf-23b2217d76cd","system_id":"levelo_inurba_marseille","lat":43.25949,"lon":5.4089,"is_reserved":false,"is_disabled":false,"rental_uris":{"android":"levelo://app?vid=922e3d66-ae7e-4439-a5cf-23b2217d76cd","ios":"levelo://app?vid=922e3d66-ae7e-4439-a5cf-23b2217d76cd"},"vehicle_type_id":"4","last_reported":1753344976,"current_range_meters":18000,"station_id":"ce4bhm92rcd13ifvqglg","pricing_plan_id":"cebpf4jnsgd1na2vs0mg"},{"bike_id":"727a2b29-93f2-4697-a65c-6e4b12e4f54d","system_id":"levelo_inurba_marseille","lat":43.27938,"lon":5.41037,"is_reserved":false,"is_disabled":false,"rental_uris":{"android":"levelo://app?vid=727a2b29-93f2-4697-a65c-6e4b12e4f54d","ios":"levelo://app?vid=727a2b29-93f2-4697-a65c-6e4b12e4f54d"},"vehicle_type_id":"4","last_reported":1753344976,"current_range_meters":18000,"station_id":"ce4bhnp2rcd13ifvqh0g","pricing_plan_id":"cebpf4jnsgd1na2vs0mg"},{"bike_id":"c214acfa-8444-4d69-bdda-2fa29e34203a","system_id":"levelo_inurba_marseille","lat":43.32484,"lon":5.36567,"is_reserved":false,"is_disabled":false,"rental_uris":{"android":"levelo://app?vid=c214acfa-8444-4d69-bdda-2fa29e34203a","ios":"levelo://app?vid=c214acfa-8444-4d69-bdda-2fa29e34203a"},"vehicle_type_id":"4","last_reported":1753344976,"current_range_meters":18800,"station_id":"ce4bhs12rcd13ifvqhvg","pricing_plan_id":"cebpf4jnsgd1na2vs0mg"},{"bike_id":"79a1830d-4216-4db2-a82e-4728770c40dd","system_id":"levelo_inurba_marseille","lat":43.310761,"lon":5.383478,"is_reserved":false,"is_disabled":true,"rental_uris":{"android":"levelo://app?vid=79a1830d-4216-4db2-a82e-4728770c40dd","ios":"levelo://app?vid=79a1830d-4216-4db2-a82e-4728770c40dd"},"vehicle_type_id":"4","last_reported":1753344976,"current_range_meters":18800,"station_id":"ce4bgv92rcd13ifvqcr0","pricing_plan_id":"cebpf4jnsgd1na2vs0mg"},{"bike_id":"ce193c8e-90e0-4599-95e2-d02b7d163b03","system_id":"levelo_inurba_marseille","lat":43.240744,"lon":5.377251,"is_reserved":false,"is_disabled":false,"rental_uris":{"android":"levelo://app?vid=ce193c8e-90e0-4599-95e2-d02b7d163b03","ios":"levelo://app?vid=ce193c8e-90e0-4599-95e2-d02b7d163b03"},"vehicle_type_id":"4","last_reported":1753344976,"current_range_meters":18800,"station_id":"ce4bhnp2rcd13ifvqgvg","pricing_plan_id":"cebpf4jnsgd1na2vs0mg"},{"bike_id":"5382958a-6684-4098-a455-4956b9a7183e","system_id":"levelo_inurba_marseille","lat":43.309461,"lon":5.390305,"is_reserved":false,"is_disabled":false,"rental_uris":{"android":"levelo://app?vid=5382958a-6684-4098-a455-4956b9a7183e","ios":"levelo://app?vid=5382958a-6684-4098-a455-4956b9a7183e"},"vehicle_type_id":"4","last_reported":1753344976,"current_range_meters":18800,"station_id":"ce4bgup2rcd13ifvqco0","pricing_plan_id":"cebpf4jnsgd1na2vs0mg"},{"bike_id":"0aca8709-ed97-4e7c-96dc-d1aaa82865d8","system_id":"levelo_inurba_marseille","lat":43.30548,"lon":5.36528,"is_reserved":false,"is_disabled":false,"rental_uris":{"android":"levelo://app?vid=0aca8709-ed97-4e7c-96dc-d1aaa82865d8","ios":"levelo://app?vid=0aca8709-ed97-4e7c-96dc-d1aaa82865d8"},"vehicle_type_id":"4","last_reported":1753344976,"current_range_meters":18800,"station_id":"ce4bgs12rcd13ifvqcag","pricing_plan_id":"cebpf4jnsgd1na2vs0mg"},{"bike_id":"f78b69a5-7f99-469b-9809-db12b867eb2e","system_id":"levelo_inurba_marseille","lat":43.24167,"lon":5.36395,"is_reserved":false,"is_disabled":false,"rental_uris":{"android":"levelo://app?vid=f78b69a5-7f99-469b-9809-db12b867eb2e","ios":"levelo://app?vid=f78b69a5-7f99-469b-9809-db12b867eb2e"},"vehicle_type_id":"4","last_reported":1753344976,"current_range_meters":18800,"station_id":"cpo36qri1sfpv3e86is0","pricing_plan_id":"cebpf4jnsgd1na2vs0mg"},{"bike_id":"9421ac7b-d1bd-4c5f-9f28-e04a5719eb0f","system_id":"levelo_inurba_marseille","lat":43.24186,"lon":5.39724,"is_reserved":false,"is_disabled":false,"rental_uris":{"android":"levelo://app?vid=9421ac7b-d1bd-4c5f-9f28-e04a5719eb0f","ios":"levelo://app?vid=9421ac7b-d1bd-4c5f-9f28-e04a5719eb0f"},"vehicle_type_id":"4","last_reported":1753344976,"current_range_meters":18800,"station_id":"ce4bhn12rcd13ifvqgpg","pricing_plan_id":"cebpf4jnsgd1na2vs0mg"},{"bike_id":"261d4bb0-7bb9-4c80-93f3-cd6f68b7285e","system_id":"levelo_inurba_marseille","lat":43.31511,"lon":5.36914,"is_reserved":false,"is_disabled":false,"rental_uris":{"android":"levelo://app?vid=261d4bb0-7bb9-4c80-93f3-cd6f68b7285e","ios":"levelo://app?vid=261d4bb0-7bb9-4c80-93f3-cd6f68b7285e"},"vehicle_type_id":"4","last_reported":1753344976,"current_range_meters":18800,"station_id":"","pricing_plan_id":"cebpf4jnsgd1na2vs0mg"},{"bike_id":"22832dd9-6f40-41f0-84f7-20d5b045fc09","system_id":"levelo_inurba_marseille","lat":43.30375,"lon":5.42483,"is_reserved":false,"is_disabled":false,"rental_uris":{"android":"levelo://app?vid=22832dd9-6f40-41f0-84f7-20d5b045fc09","ios":"levelo://app?vid=22832dd9-6f40-41f0-84f7-20d5b045fc09"},"vehicle_type_id":"4","last_reported":1753344976,"current_range_meters":18800,"station_id":"ce4bhoh2rcd13ifvqh6g","pricing_plan_id":"cebpf4jnsgd1na2vs0mg"},{"bike_id":"f0f73c71-7331-4628-b623-754b73a8546a","system_id":"levelo_inurba_marseille","lat":43.301235,"lon":5.398671,"is_reserved":false,"is_disabled":false,"rental_uris":{"android":"levelo://app?vid=f0f73c71-7331-4628-b623-754b73a8546a","ios":"levelo://app?vid=f0f73c71-7331-4628-b623-754b73a8546a"},"vehicle_type_id":"4","last_reported":1753344976,"current_range_meters":18800,"station_id":"ce4bh0h2rcd13ifvqd40","pricing_plan_id":"cebpf4jnsgd1na2vs0mg"},{"bike_id":"4410121c-3fec-43b1-be91-f44c5fad7210","system_id":"levelo_inurba_marseille","lat":43.24384,"lon":5.37051,"is_reserved":false,"is_disabled":false,"rental_uris":{"android":"levelo://app?vid=4410121c-3fec-43b1-be91-f44c5fad7210","ios":"levelo://app?vid=4410121c-3fec-43b1-be91-f44c5fad7210"},"vehicle_type_id":"4","last_reported":1753344976,"current_range_meters":18800,"station_id":"ce4bhhh2rcd13ifvqfk0","pricing_plan_id":"cebpf4jnsgd1na2vs0mg"},{"bike_id":"00b81b97-f917-4401-876c-240aa5e480ff","system_id":"levelo_inurba_marseille","lat":43.23153,"lon":5.43709,"is_reserved":false,"is_disabled":false,"rental_uris":{"android":"levelo://app?vid=00b81b97-f917-4401-876c-240aa5e480ff","ios":"levelo://app?vid=00b81b97-f917-4401-876c-240aa5e480ff"},"vehicle_type_id":"4","last_reported":1753344976,"current_range_meters":19200,"station_id":"ce4bhmp2rcd13ifvqgog","pricing_plan_id":"cebpf4jnsgd1na2vs0mg"},{"bike_id":"bfddca7c-3825-4dd2-81c9-335257a69f7c","system_id":"levelo_inurba_marseille","lat":43.29575,"lon":5.367435,"is_reserved":false,"is_disabled":false,"rental_uris":{"android":"levelo://app?vid=bfddca7c-3825-4dd2-81c9-335257a69f7c","ios":"levelo://app?vid=bfddca7c-3825-4dd2-81c9-335257a69f7c"},"vehicle_type_id":"4","last_reported":1753344976,"current_range_meters":19200,"station_id":"ce4bgph2rcd13ifvqc2g","pricing_plan_id":"cebpf4jnsgd1na2vs0mg"},{"bike_id":"8c1d0819-f991-43c1-a0ae-15c2c54fdbcd","system_id":"levelo_inurba_marseille","lat":43.27368,"lon":5.36253,"is_reserved":false,"is_disabled":false,"rental_uris":{"android":"levelo://app?vid=8c1d0819-f991-43c1-a0ae-15c2c54fdbcd","ios":"levelo://app?vid=8c1d0819-f991-43c1-a0ae-15c2c54fdbcd"},"vehicle_type_id":"4","last_reported":1753344976,"current_range_meters":19200,"station_id":"ce4bhbh2rcd13ifvqeo0","pricing_plan_id":"cebpf4jnsgd1na2vs0mg"},{"bike_id":"6328b416-3f3c-4862-8a46-567ca59b8bb1","system_id":"levelo_inurba_marseille","lat":43.30212,"lon":5.3945,"is_reserved":false,"is_disabled":false,"rental_uris":{"android":"levelo://app?vid=6328b416-3f3c-4862-8a46-567ca59b8bb1","ios":"levelo://app?vid=6328b416-3f3c-4862-8a46-567ca59b8bb1"},"vehicle_type_id":"4","last_reported":1753344976,"current_range_meters":19200,"station_id":"ce4bh0p2rcd13ifvqd70","pricing_plan_id":"cebpf4jnsgd1na2vs0mg"},{"bike_id":"e989862c-69f9-4f39-b21f-c2aea878cf77","system_id":"levelo_inurba_marseille","lat":43.23961,"lon":5.366247,"is_reserved":false,"is_disabled":false,"rental_uris":{"android":"levelo://app?vid=e989862c-69f9-4f39-b21f-c2aea878cf77","ios":"levelo://app?vid=e989862c-69f9-4f39-b21f-c2aea878cf77"},"vehicle_type_id":"4","last_reported":1753344976,"current_range_meters":19200,"station_id":"ce4bhi12rcd13ifvqfp0","pricing_plan_id":"cebpf4jnsgd1na2vs0mg"},{"bike_id":"f98dd319-af51-434c-b151-287d8b571ddc","system_id":"levelo_inurba_marseille","lat":43.30529,"lon":5.36518,"is_reserved":false,"is_disabled":false,"rental_uris":{"android":"levelo://app?vid=f98dd319-af51-434c-b151-287d8b571ddc","ios":"levelo://app?vid=f98dd319-af51-434c-b151-287d8b571ddc"},"vehicle_type_id":"4","last_reported":1753344976,"current_range_meters":19200,"station_id":"ce4bgs12rcd13ifvqcag","pricing_plan_id":"cebpf4jnsgd1na2vs0mg"},{"bike_id":"1190a6a6-e0cc-4ff3-b3e2-3e7074b6085c","system_id":"levelo_inurba_marseille","lat":43.30912,"lon":5.36897,"is_reserved":false,"is_disabled":false,"rental_uris":{"android":"levelo://app?vid=1190a6a6-e0cc-4ff3-b3e2-3e7074b6085c","ios":"levelo://app?vid=1190a6a6-e0cc-4ff3-b3e2-3e7074b6085c"},"vehicle_type_id":"4","last_reported":1753344976,"current_range_meters":19200,"station_id":"ce4bgn92rcd13ifvqbvg","pricing_plan_id":"cebpf4jnsgd1na2vs0mg"},{"bike_id":"8bd36a73-8e2f-4f37-b1f8-05d7058e4d1c","system_id":"levelo_inurba_marseille","lat":43.25936,"lon":5.40916,"is_reserved":false,"is_disabled":false,"rental_uris":{"android":"levelo://app?vid=8bd36a73-8e2f-4f37-b1f8-05d7058e4d1c","ios":"levelo://app?vid=8bd36a73-8e2f-4f37-b1f8-05d7058e4d1c"},"vehicle_type_id":"4","last_reported":1753344976,"current_range_meters":19200,"station_id":"ce4bhm92rcd13ifvqglg","pricing_plan_id":"cebpf4jnsgd1na2vs0mg"},{"bike_id":"6d497126-1cc2-4b83-a8f9-ca4bf69960b1","system_id":"levelo_inurba_marseille","lat":43.29077,"lon":5.40016,"is_reserved":false,"is_disabled":false,"rental_uris":{"android":"levelo://app?vid=6d497126-1cc2-4b83-a8f9-ca4bf69960b1","ios":"levelo://app?vid=6d497126-1cc2-4b83-a8f9-ca4bf69960b1"},"vehicle_type_id":"4","last_reported":1753344976,"current_range_meters":19600,"station_id":"ce4bh392rcd13ifvqdm0","pricing_plan_id":"cebpf4jnsgd1na2vs0mg"},{"bike_id":"98bc4236-880d-40c0-a86d-0fac3f83ec0c","system_id":"levelo_inurba_marseille","lat":43.286503,"lon":5.363489,"is_reserved":false,"is_disabled":false,"rental_uris":{"android":"levelo://app?vid=98bc4236-880d-40c0-a86d-0fac3f83ec0c","ios":"levelo://app?vid=98bc4236-880d-40c0-a86d-0fac3f83ec0c"},"vehicle_type_id":"4","last_reported":1753344976,"current_range_meters":19600,"station_id":"ce4bhah2rcd13ifvqej0","pricing_plan_id":"cebpf4jnsgd1na2vs0mg"},{"bike_id":"e8de3e83-118a-42b1-bdcd-cde155afa115","system_id":"levelo_inurba_marseille","lat":43.25721,"lon":5.41107,"is_reserved":false,"is_disabled":false,"rental_uris":{"android":"levelo://app?vid=e8de3e83-118a-42b1-bdcd-cde155afa115","ios":"levelo://app?vid=e8de3e83-118a-42b1-bdcd-cde155afa115"},"vehicle_type_id":"4","last_reported":1753344976,"current_range_meters":19600,"station_id":"ce4bhkp2rcd13ifvqgd0","pricing_plan_id":"cebpf4jnsgd1na2vs0mg"},{"bike_id":"7201b8f1-2624-471a-93b9-563fddbc4ab1","system_id":"levelo_inurba_marseille","lat":43.30551,"lon":5.36561,"is_reserved":false,"is_disabled":false,"rental_uris":{"android":"levelo://app?vid=7201b8f1-2624-471a-93b9-563fddbc4ab1","ios":"levelo://app?vid=7201b8f1-2624-471a-93b9-563fddbc4ab1"},"vehicle_type_id":"4","last_reported":1753344976,"current_range_meters":19600,"station_id":"ce4bgs12rcd13ifvqcag","pricing_plan_id":"cebpf4jnsgd1na2vs0mg"},{"bike_id":"6d162757-3924-4476-9818-84d10836cd88","system_id":"levelo_inurba_marseille","lat":43.3121,"lon":5.36841,"is_reserved":false,"is_disabled":false,"rental_uris":{"android":"levelo://app?vid=6d162757-3924-4476-9818-84d10836cd88","ios":"levelo://app?vid=6d162757-3924-4476-9818-84d10836cd88"},"vehicle_type_id":"4","last_reported":1753344976,"current_range_meters":19600,"station_id":"ce4bgl92rcd13ifvqbq0","pricing_plan_id":"cebpf4jnsgd1na2vs0mg"},{"bike_id":"c011f8a1-d5f2-4ca8-a761-cf2928432835","system_id":"levelo_inurba_marseille","lat":43.284884,"lon":5.385665,"is_reserved":false,"is_disabled":false,"rental_uris":{"android":"levelo://app?vid=c011f8a1-d5f2-4ca8-a761-cf2928432835","ios":"levelo://app?vid=c011f8a1-d5f2-4ca8-a761-cf2928432835"},"vehicle_type_id":"4","last_reported":1753344976,"current_range_meters":19600,"station_id":"ce4bh8p2rcd13ifvqeb0","pricing_plan_id":"cebpf4jnsgd1na2vs0mg"},{"bike_id":"efbb5fa2-a968-471a-8acc-66604eea134a","system_id":"levelo_inurba_marseille","lat":43.29562,"lon":5.37511,"is_reserved":false,"is_disabled":false,"rental_uris":{"android":"levelo://app?vid=efbb5fa2-a968-471a-8acc-66604eea134a","ios":"levelo://app?vid=efbb5fa2-a968-471a-8acc-66604eea134a"},"vehicle_type_id":"4","last_reported":1753344976,"current_range_meters":19600,"station_id":"ce4bgh92rcd13ifvqb50","pricing_plan_id":"cebpf4jnsgd1na2vs0mg"},{"bike_id":"b7ae8c7f-ab74-4532-a54a-9af0bfc89f6b","system_id":"levelo_inurba_marseille","lat":43.29695,"lon":5.36576,"is_reserved":false,"is_disabled":false,"rental_uris":{"android":"levelo://app?vid=b7ae8c7f-ab74-4532-a54a-9af0bfc89f6b","ios":"levelo://app?vid=b7ae8c7f-ab74-4532-a54a-9af0bfc89f6b"},"vehicle_type_id":"4","last_reported":1753344976,"current_range_meters":19600,"station_id":"ce4bgn12rcd13ifvqbt0","pricing_plan_id":"cebpf4jnsgd1na2vs0mg"},{"bike_id":"1b055a3a-54ef-4924-b51e-e574f365c79d","system_id":"levelo_inurba_marseille","lat":43.29051,"lon":5.39992,"is_reserved":false,"is_disabled":false,"rental_uris":{"android":"levelo://app?vid=1b055a3a-54ef-4924-b51e-e574f365c79d","ios":"levelo://app?vid=1b055a3a-54ef-4924-b51e-e574f365c79d"},"vehicle_type_id":"4","last_reported":1753344976,"current_range_meters":19600,"station_id":"ce4bh392rcd13ifvqdm0","pricing_plan_id":"cebpf4jnsgd1na2vs0mg"},{"bike_id":"bb8e94b8-c650-4a5f-a1af-db71a64e8c5b","system_id":"levelo_inurba_marseille","lat":43.24072,"lon":5.37749,"is_reserved":false,"is_disabled":false,"rental_uris":{"android":"levelo://app?vid=bb8e94b8-c650-4a5f-a1af-db71a64e8c5b","ios":"levelo://app?vid=bb8e94b8-c650-4a5f-a1af-db71a64e8c5b"},"vehicle_type_id":"4","last_reported":1753344976,"current_range_meters":19600,"station_id":"ce4bhnp2rcd13ifvqgvg","pricing_plan_id":"cebpf4jnsgd1na2vs0mg"},{"bike_id":"ff05e8f8-3b79-4ff5-b3e3-65a28295edd0","system_id":"levelo_inurba_marseille","lat":43.30542,"lon":5.36513,"is_reserved":false,"is_disabled":false,"rental_uris":{"android":"levelo://app?vid=ff05e8f8-3b79-4ff5-b3e3-65a28295edd0","ios":"levelo://app?vid=ff05e8f8-3b79-4ff5-b3e3-65a28295edd0"},"vehicle_type_id":"4","last_reported":1753344976,"current_range_meters":19600,"station_id":"ce4bgs12rcd13ifvqcag","pricing_plan_id":"cebpf4jnsgd1na2vs0mg"},{"bike_id":"8406251d-bed5-49c7-9c12-36b49a20ecea","system_id":"levelo_inurba_marseille","lat":43.27336,"lon":5.39115,"is_reserved":false,"is_disabled":false,"rental_uris":{"android":"levelo://app?vid=8406251d-bed5-49c7-9c12-36b49a20ecea","ios":"levelo://app?vid=8406251d-bed5-49c7-9c12-36b49a20ecea"},"vehicle_type_id":"4","last_reported":1753344976,"current_range_meters":19600,"station_id":"ce4bhgp2rcd13ifvqfe0","pricing_plan_id":"cebpf4jnsgd1na2vs0mg"},{"bike_id":"3a285df5-d972-491a-abd3-160af1fb6382","system_id":"levelo_inurba_marseille","lat":43.27564,"lon":5.38417,"is_reserved":false,"is_disabled":false,"rental_uris":{"android":"levelo://app?vid=3a285df5-d972-491a-abd3-160af1fb6382","ios":"levelo://app?vid=3a285df5-d972-491a-abd3-160af1fb6382"},"vehicle_type_id":"4","last_reported":1753344976,"current_range_meters":19600,"station_id":"ce4bhh92rcd13ifvqfi0","pricing_plan_id":"cebpf4jnsgd1na2vs0mg"},{"bike_id":"e16dde5d-0cc1-45bc-adc4-fe9d96184d24","system_id":"levelo_inurba_marseille","lat":43.28152,"lon":5.42625,"is_reserved":false,"is_disabled":false,"rental_uris":{"android":"levelo://app?vid=e16dde5d-0cc1-45bc-adc4-fe9d96184d24","ios":"levelo://app?vid=e16dde5d-0cc1-45bc-adc4-fe9d96184d24"},"vehicle_type_id":"4","last_reported":1753344976,"current_range_meters":19600,"station_id":"ce4bhnh2rcd13ifvqgug","pricing_plan_id":"cebpf4jnsgd1na2vs0mg"},{"bike_id":"f2ca3887-7e82-498b-8c49-e80cd18a3051","system_id":"levelo_inurba_marseille","lat":43.2396,"lon":5.3664,"is_reserved":false,"is_disabled":false,"rental_uris":{"android":"levelo://app?vid=f2ca3887-7e82-498b-8c49-e80cd18a3051","ios":"levelo://app?vid=f2ca3887-7e82-498b-8c49-e80cd18a3051"},"vehicle_type_id":"4","last_reported":1753344976,"current_range_meters":20000,"station_id":"ce4bhi12rcd13ifvqfp0","pricing_plan_id":"cebpf4jnsgd1na2vs0mg"},{"bike_id":"562cda51-6e5d-41ef-8ee5-4bc2adad5275","system_id":"levelo_inurba_marseille","lat":43.31233,"lon":5.36851,"is_reserved":false,"is_disabled":false,"rental_uris":{"android":"levelo://app?vid=562cda51-6e5d-41ef-8ee5-4bc2adad5275","ios":"levelo://app?vid=562cda51-6e5d-41ef-8ee5-4bc2adad5275"},"vehicle_type_id":"4","last_reported":1753344976,"current_range_meters":20000,"station_id":"ce4bgl92rcd13ifvqbq0","pricing_plan_id":"cebpf4jnsgd1na2vs0mg"},{"bike_id":"fd13a871-6a7c-45ab-8193-0aedb29a36fc","system_id":"levelo_inurba_marseille","lat":43.26553,"lon":5.37286,"is_reserved":false,"is_disabled":false,"rental_uris":{"android":"levelo://app?vid=fd13a871-6a7c-45ab-8193-0aedb29a36fc","ios":"levelo://app?vid=fd13a871-6a7c-45ab-8193-0aedb29a36fc"},"vehicle_type_id":"4","last_reported":1753344976,"current_range_meters":20000,"station_id":"ce4bhg12rcd13ifvqf70","pricing_plan_id":"cebpf4jnsgd1na2vs0mg"},{"bike_id":"3bb998b9-3627-4c8f-9aad-d3bcbdc7b167","system_id":"levelo_inurba_marseille","lat":43.2973,"lon":5.37232,"is_reserved":false,"is_disabled":true,"rental_uris":{"android":"levelo://app?vid=3bb998b9-3627-4c8f-9aad-d3bcbdc7b167","ios":"levelo://app?vid=3bb998b9-3627-4c8f-9aad-d3bcbdc7b167"},"vehicle_type_id":"4","last_reported":1753344976,"current_range_meters":20000,"station_id":"","pricing_plan_id":"cebpf4jnsgd1na2vs0mg"},{"bike_id":"31e43d7b-24a7-456a-ba0a-7b80cce2a65c","system_id":"levelo_inurba_marseille","lat":43.30582,"lon":5.36537,"is_reserved":false,"is_disabled":false,"rental_uris":{"android":"levelo://app?vid=31e43d7b-24a7-456a-ba0a-7b80cce2a65c","ios":"levelo://app?vid=31e43d7b-24a7-456a-ba0a-7b80cce2a65c"},"vehicle_type_id":"4","last_reported":1753344976,"current_range_meters":20000,"station_id":"ce4bgs12rcd13ifvqcag","pricing_plan_id":"cebpf4jnsgd1na2vs0mg"},{"bike_id":"4f24b63c-8df6-4fb1-bd42-94095916ff6b","system_id":"levelo_inurba_marseille","lat":43.28268,"lon":5.3506,"is_reserved":false,"is_disabled":false,"rental_uris":{"android":"levelo://app?vid=4f24b63c-8df6-4fb1-bd42-94095916ff6b","ios":"levelo://app?vid=4f24b63c-8df6-4fb1-bd42-94095916ff6b"},"vehicle_type_id":"4","last_reported":1753344976,"current_range_meters":20000,"station_id":"ce4bhbp2rcd13ifvqerg","pricing_plan_id":"cebpf4jnsgd1na2vs0mg"},{"bike_id":"c97a5513-76d0-4d55-9470-342ee90881de","system_id":"levelo_inurba_marseille","lat":43.24805,"lon":5.37453,"is_reserved":false,"is_disabled":false,"rental_uris":{"android":"levelo://app?vid=c97a5513-76d0-4d55-9470-342ee90881de","ios":"levelo://app?vid=c97a5513-76d0-4d55-9470-342ee90881de"},"vehicle_type_id":"4","last_reported":1753344976,"current_range_meters":20000,"station_id":"ce4bhgh2rcd13ifvqfb0","pricing_plan_id":"cebpf4jnsgd1na2vs0mg"},{"bike_id":"975621b1-02b2-43ba-95e3-5e639ac7a8db","system_id":"levelo_inurba_marseille","lat":43.28152,"lon":5.42633,"is_reserved":false,"is_disabled":false,"rental_uris":{"android":"levelo://app?vid=975621b1-02b2-43ba-95e3-5e639ac7a8db","ios":"levelo://app?vid=975621b1-02b2-43ba-95e3-5e639ac7a8db"},"vehicle_type_id":"4","last_reported":1753344976,"current_range_meters":20000,"station_id":"ce4bhnh2rcd13ifvqgug","pricing_plan_id":"cebpf4jnsgd1na2vs0mg"},{"bike_id":"d0a3ae16-9ba0-42b4-a925-61b6cf9c3947","system_id":"levelo_inurba_marseille","lat":43.31345,"lon":5.36715,"is_reserved":false,"is_disabled":false,"rental_uris":{"android":"levelo://app?vid=d0a3ae16-9ba0-42b4-a925-61b6cf9c3947","ios":"levelo://app?vid=d0a3ae16-9ba0-42b4-a925-61b6cf9c3947"},"vehicle_type_id":"4","last_reported":1753344976,"current_range_meters":20000,"station_id":"ce4bgr92rcd13ifvqc6g","pricing_plan_id":"cebpf4jnsgd1na2vs0mg"},{"bike_id":"fd0d1a74-0d03-4d4b-894e-e133018222a5","system_id":"levelo_inurba_marseille","lat":43.27948,"lon":5.41039,"is_reserved":false,"is_disabled":false,"rental_uris":{"android":"levelo://app?vid=fd0d1a74-0d03-4d4b-894e-e133018222a5","ios":"levelo://app?vid=fd0d1a74-0d03-4d4b-894e-e133018222a5"},"vehicle_type_id":"4","last_reported":1753344976,"current_range_meters":20000,"station_id":"ce4bhnp2rcd13ifvqh0g","pricing_plan_id":"cebpf4jnsgd1na2vs0mg"},{"bike_id":"21bb3fef-81ef-46bb-a48d-d85402757c94","system_id":"levelo_inurba_marseille","lat":43.254447,"lon":5.379824,"is_reserved":false,"is_disabled":false,"rental_uris":{"android":"levelo://app?vid=21bb3fef-81ef-46bb-a48d-d85402757c94","ios":"levelo://app?vid=21bb3fef-81ef-46bb-a48d-d85402757c94"},"vehicle_type_id":"4","last_reported":1753344976,"current_range_meters":20000,"station_id":"","pricing_plan_id":"cebpf4jnsgd1na2vs0mg"},