{"last_updated":1728857273,"ttl":60,"version":"2.2","data":{"bikes":[{"bike_id":"2a632a08-3fd9-4642-a9d8-42d817856126","system_id":"levelo_inurba_marseille","lat":43.24388,"lon":5.37058,"is_reserved":false,"is_disabled":false,"rental_uris":{"android":"levelo://app?vid=2a632a08-3fd9-4642-a9d8-42d817856126","ios":"levelo://app?vid=2a632a08-3fd9-4642-a9d8-42d817856126"},"vehicle_type_id":"4","last_reported":1728857274,"current_range_meters":30400,"station_id":"ce4bhhh2rcd13ifvqfk0","pricing_plan_id":"cebpf4jnsgd1na2vs0mg"},{"bike_id":"945d5ebb-6800-44bf-8a24-4d44f5d12d6e","system_id":"levelo_inurba_marseille","lat":43.31067,"lon":5.38343,"is_reserved":false,"is_disabled":false,"rental_uris":{"android":"levelo://app?vid=945d5ebb-6800-44bf-8a24-4d44f5d12d6e","ios":"levelo://app?vid=945d5ebb-6800-44bf-8a24-4d44f5d12d6e"},"vehicle_type_id":"4","last_reported":1728857274,"current_range_meters":18800,"station_id":"ce4bgv92rcd13ifvqcr0","pricing_plan_id":"cebpf4jnsgd1na2vs0mg"},{"bike_id":"65f2e9e8-8927-465e-a2e8-cfabd2b0d4ae","system_id":"levelo_inurba_marseille","lat":43.31543,"lon":5.38027,"is_reserved":false,"is_disabled":false,"rental_uris":{"android":"levelo://app?vid=65f2e9e8-8927-465e-a2e8-cfabd2b0d4ae","ios":"levelo://app?vid=65f2e9e8-8927-465e-a2e8-cfabd2b0d4ae"},"vehicle_type_id":"4","last_reported":1728857274,"current_range_meters":12400,"station_id":"ce4bhsp2rcd13ifvqi50","pricing_plan_id":"cebpf4jnsgd1na2vs0mg"},{"bike_id":"c1f09556-86e4-40bb-943c-8e616c1cf21f","system_id":"levelo_inurba_marseille","lat":43.28419,"lon":5.37513,"is_reserved":false,"is_disabled":false,"rental_uris":{"android":"levelo://app?vid=c1f09556-86e4-40bb-943c-8e616c1cf21f","ios":"levelo://app?vid=c1f09556-86e4-40bb-943c-8e616c1cf21f"},"vehicle_type_id":"4","last_reported":1728857274,"current_range_meters":3200,"station_id":"ce4bh412rcd13ifvqds0","pricing_plan_id":"cebpf4jnsgd1na2vs0mg"},{"bike_id":"c9e415a7-b966-4ae4-91a4-b51e2f841692","system_id":"levelo_inurba_marseille","lat":43.287199,"lon":5.37937,"is_reserved":false,"is_disabled":false,"rental_uris":{"android":"levelo://app?vid=c9e415a7-b966-4ae4-91a4-b51e2f841692","ios":"levelo://app?vid=c9e415a7-b966-4ae4-91a4-b51e2f841692"},"vehicle_type_id":"4","last_reported":1728857274,"current_range_meters":26800,"station_id":"ce4bh9p2rcd13ifvqec0","pricing_plan_id":"cebpf4jnsgd1na2vs0mg"},{"bike_id":"480c36bc-dd66-41df-b09a-76735c76211b","system_id":"levelo_inurba_marseille","lat":43.27996,"lon":5.41634,"is_reserved":false,"is_disabled":false,"rental_uris":{"android":"levelo://app?vid=480c36bc-dd66-41df-b09a-76735c76211b","ios":"levelo://app?vid=480c36bc-dd66-41df-b09a-76735c76211b"},"vehicle_type_id":"4","last_reported":1728857274,"current_range_meters":34800,"station_id":"ce4bho12rcd13ifvqh1g","pricing_plan_id":"cebpf4jnsgd1na2vs0mg"},{"bike_id":"d9b629b0-e23d-4e1d-ab01-060732d693c4","system_id":"levelo_inurba_marseille","lat":43.29997,"lon":5.37407,"is_reserved":false,"is_disabled":false,"rental_uris":{"android":"levelo://app?vid=d9b629b0-e23d-4e1d-ab01-060732d693c4","ios":"levelo://app?vid=d9b629b0-e23d-4e1d-ab01-060732d693c4"},"vehicle_type_id":"4","last_reported":1728857274,"current_range_meters":8800,"station_id":"","pricing_plan_id":"cebpf4jnsgd1na2vs0mg"},{"bike_id":"599c09fe-085f-4c4d-bcb2-98da69515aba","system_id":"levelo_inurba_marseille","lat":43.23065,"lon":5.35488,"is_reserved":false,"is_disabled":false,"rental_uris":{"android":"levelo://app?vid=599c09fe-085f-4c4d-bcb2-98da69515aba","ios":"levelo://app?vid=599c09fe-085f-4c4d-bcb2-98da69515aba"},"vehicle_type_id":"4","last_reported":1728857274,"current_range_meters":38800,"station_id":"cpo3342slgdg3j2ifvpg","pricing_plan_id":"cebpf4jnsgd1na2vs0mg"},{"bike_id":"2cd9817e-e70d-4d6c-a792-7cadd096c515","system_id":"levelo_inurba_marseille","lat":43.30356,"lon":5.4187,"is_reserved":false,"is_disabled":false,"rental_uris":{"android":"levelo://app?vid=2cd9817e-e70d-4d6c-a792-7cadd096c515","ios":"levelo://app?vid=2cd9817e-e70d-4d6c-a792-7cadd096c515"},"vehicle_type_id":"4","last_reported":1728857274,"current_range_meters":7200,"station_id":"ce4bhop2rcd13ifvqh7g","pricing_plan_id":"cebpf4jnsgd1na2vs0mg"},{"bike_id":"4d05c333-000b-4a5d-8081-e06757d62003","system_id":"levelo_inurba_marseille","lat":43.2944,"lon":5.39742,"is_reserved":false,"is_disabled":false,"rental_uris":{"android":"levelo://app?vid=4d05c333-000b-4a5d-8081-e06757d62003","ios":"levelo://app?vid=4d05c333-000b-4a5d-8081-e06757d62003"},"vehicle_type_id":"4","last_reported":1728857274,"current_range_meters":12000,"station_id":"ce4bh3h2rcd13ifvqdo0","pricing_plan_id":"cebpf4jnsgd1na2vs0mg"},{"bike_id":"2534c0a9-7fbc-4927-9c0d-a0b8cdc0fb63","system_id":"levelo_inurba_marseille","lat":43.30958,"lon":5.39034,"is_reserved":false,"is_disabled":false,"rental_uris":{"android":"levelo://app?vid=2534c0a9-7fbc-4927-9c0d-a0b8cdc0fb63","ios":"levelo://app?vid=2534c0a9-7fbc-4927-9c0d-a0b8cdc0fb63"},"vehicle_type_id":"4","last_reported":1728857274,"current_range_meters":2800,"station_id":"ce4bgup2rcd13ifvqco0","pricing_plan_id":"cebpf4jnsgd1na2vs0mg"},{"bike_id":"d5904edc-115e-41fa-8710-b55e98f606fc","system_id":"levelo_inurba_marseille","lat":43.3117,"lon":5.38706,"is_reserved":false,"is_disabled":false,"rental_uris":{"android":"levelo://app?vid=d5904edc-115e-41fa-8710-b55e98f606fc","ios":"levelo://app?vid=d5904edc-115e-41fa-8710-b55e98f606fc"},"vehicle_type_id":"4","last_reported":1728857274,"current_range_meters":24000,"station_id":"ce4bgv12rcd13ifvqcp0","pricing_plan_id":"cebpf4jnsgd1na2vs0mg"},{"bike_id":"2c10af63-08f4-40bf-83a2-1890160187a6","system_id":"levelo_inurba_marseille","lat":43.29891,"lon":5.43651,"is_reserved":false,"is_disabled":false,"rental_uris":{"android":"levelo://app?vid=2c10af63-08f4-40bf-83a2-1890160187a6","ios":"levelo://app?vid=2c10af63-08f4-40bf-83a2-1890160187a6"},"vehicle_type_id":"4","last_reported":1728857274,"current_range_meters":38800,"station_id":"ce4bhpp2rcd13ifvqhfg","pricing_plan_id":"cebpf4jnsgd1na2vs0mg"},{"bike_id":"929ca747-859a-443a-8b86-3ef0f40cf27e","system_id":"levelo_inurba_marseille","lat":43.31168,"lon":5.38717,"is_reserved":false,"is_disabled":false,"rental_uris":{"android":"levelo://app?vid=929ca747-859a-443a-8b86-3ef0f40cf27e","ios":"levelo://app?vid=929ca747-859a-443a-8b86-3ef0f40cf27e"},"vehicle_type_id":"4","last_reported":1728857274,"current_range_meters":38800,"station_id":"ce4bgv12rcd13ifvqcp0","pricing_plan_id":"cebpf4jnsgd1na2vs0mg"},{"bike_id":"b14311b7-7ef8-475e-ba72-6ab8436a82e5","system_id":"levelo_inurba_marseille","lat":43.29516,"lon":5.39039,"is_reserved":false,"is_disabled":false,"rental_uris":{"android":"levelo://app?vid=b14311b7-7ef8-475e-ba72-6ab8436a82e5","ios":"levelo://app?vid=b14311b7-7ef8-475e-ba72-6ab8436a82e5"},"vehicle_type_id":"4","last_reported":1728857274,"current_range_meters":30800,"station_id":"ce4bh3p2rcd13ifvqdp0","pricing_plan_id":"cebpf4jnsgd1na2vs0mg"},{"bike_id":"c1526f14-0f53-47fd-bc6e-2dc8711b4bf6","system_id":"levelo_inurba_marseille","lat":43.29898,"lon":5.43663,"is_reserved":false,"is_disabled":false,"rental_uris":{"android":"levelo://app?vid=c1526f14-0f53-47fd-bc6e-2dc8711b4bf6","ios":"levelo://app?vid=c1526f14-0f53-47fd-bc6e-2dc8711b4bf6"},"vehicle_type_id":"4","last_reported":1728857274,"current_range_meters":28000,"station_id":"ce4bhpp2rcd13ifvqhfg","pricing_plan_id":"cebpf4jnsgd1na2vs0mg"},{"bike_id":"fff926e7-1806-450c-84b7-f9e767d4ea3e","system_id":"levelo_inurba_marseille","lat":43.28222,"lon":5.39517,"is_reserved":false,"is_disabled":false,"rental_uris":{"android":"levelo://app?vid=fff926e7-1806-450c-84b7-f9e767d4ea3e","ios":"levelo://app?vid=fff926e7-1806-450c-84b7-f9e767d4ea3e"},"vehicle_type_id":"4","last_reported":1728857274,"current_range_meters":9600,"station_id":"","pricing_plan_id":"cebpf4jnsgd1na2vs0mg"},{"bike_id":"1577fecb-cfb2-4506-83a8-2cd8ebbde5be","system_id":"levelo_inurba_marseille","lat":43.29952,"lon":5.37487,"is_reserved":false,"is_disabled":false,"rental_uris":{"android":"levelo://app?vid=1577fecb-cfb2-4506-83a8-2cd8ebbde5be","ios":"levelo://app?vid=1577fecb-cfb2-4506-83a8-2cd8ebbde5be"},"vehicle_type_id":"4","last_reported":1728857274,"current_range_meters":4400,"station_id":"","pricing_plan_id":"cebpf4jnsgd1na2vs0mg"},{"bike_id":"5c21b384-3236-4bcf-9dde-cab1ee0147ba","system_id":"levelo_inurba_marseille","lat":43.30096,"lon":5.3906,"is_reserved":false,"is_disabled":false,"rental_uris":{"android":"levelo://app?vid=5c21b384-3236-4bcf-9dde-cab1ee0147ba","ios":"levelo://app?vid=5c21b384-3236-4bcf-9dde-cab1ee0147ba"},"vehicle_type_id":"4","last_reported":1728857274,"current_range_meters":38800,"station_id":"ce4bh192rcd13ifvqdb0","pricing_plan_id":"cebpf4jnsgd1na2vs0mg"},{"bike_id":"ea469873-c8d6-4792-9df5-faf878c51e27","system_id":"levelo_inurba_marseille","lat":43.32333,"lon":5.40619,"is_reserved":false,"is_disabled":false,"rental_uris":{"android":"levelo://app?vid=ea469873-c8d6-4792-9df5-faf878c51e27","ios":"levelo://app?vid=ea469873-c8d6-4792-9df5-faf878c51e27"},"vehicle_type_id":"4","last_reported":1728857274,"current_range_meters":17200,"station_id":"ce4bhq92rcd13ifvqhjg","pricing_plan_id":"cebpf4jnsgd1na2vs0mg"},{"bike_id":"06966271-aa40-4ae0-8856-e4cdbbdcc3f1","system_id":"levelo_inurba_marseille","lat":43.28656,"lon":5.36354,"is_reserved":false,"is_disabled":false,"rental_uris":{"android":"levelo://app?vid=06966271-aa40-4ae0-8856-e4cdbbdcc3f1","ios":"levelo://app?vid=06966271-aa40-4ae0-8856-e4cdbbdcc3f1"},"vehicle_type_id":"4","last_reported":1728857274,"current_range_meters":39200,"station_id":"ce4bhah2rcd13ifvqej0","pricing_plan_id":"cebpf4jnsgd1na2vs0mg"},{"bike_id":"c4b55267-35ce-45c1-b755-eddb35dda50d","system_id":"levelo_inurba_marseille","lat":43.31536,"lon":5.38026,"is_reserved":false,"is_disabled":false,"rental_uris":{"android":"levelo://app?vid=c4b55267-35ce-45c1-b755-eddb35dda50d","ios":"levelo://app?vid=c4b55267-35ce-45c1-b755-eddb35dda50d"},"vehicle_type_id":"4","last_reported":1728857274,"current_range_meters":28400,"station_id":"ce4bhsp2rcd13ifvqi50","pricing_plan_id":"cebpf4jnsgd1na2vs0mg"},{"bike_id":"64f7ad20-be86-4d5d-88c6-762ada53b6b1","system_id":"levelo_inurba_marseille","lat":43.29259,"lon":5.40909,"is_reserved":false,"is_disabled":false,"rental_uris":{"android":"levelo://app?vid=64f7ad20-be86-4d5d-88c6-762ada53b6b1","ios":"levelo://app?vid=64f7ad20-be86-4d5d-88c6-762ada53b6b1"},"vehicle_type_id":"4","last_reported":1728857274,"current_range_meters":36400,"station_id":"ce4bh192rcd13ifvqdc0","pricing_plan_id":"cebpf4jnsgd1na2vs0mg"},{"bike_id":"bd699a96-7db9-4f39-8575-4ba254036b6c","system_id":"levelo_inurba_marseille","lat":43.26947,"lon":5.38627,"is_reserved":false,"is_disabled":false,"rental_uris":{"android":"levelo://app?vid=bd699a96-7db9-4f39-8575-4ba254036b6c","ios":"levelo://app?vid=bd699a96-7db9-4f39-8575-4ba254036b6c"},"vehicle_type_id":"4","last_reported":1728857274,"current_range_meters":38000,"station_id":"ce4bhh92rcd13ifvqfh0","pricing_plan_id":"cebpf4jnsgd1na2vs0mg"},{"bike_id":"6b2daff3-9851-4dff-9081-e0ec010599e4","system_id":"levelo_inurba_marseille","lat":43.314515,"lon":5.37384,"is_reserved":false,"is_disabled":false,"rental_uris":{"android":"levelo://app?vid=6b2daff3-9851-4dff-9081-e0ec010599e4","ios":"levelo://app?vid=6b2daff3-9851-4dff-9081-e0ec010599e4"},"vehicle_type_id":"4","last_reported":1728857274,"current_range_meters":30800,"station_id":"","pricing_plan_id":"cebpf4jnsgd1na2vs0mg"},{"bike_id":"0bc99fe3-8e58-4273-89db-10eb2b467ab0","system_id":"levelo_inurba_marseille","lat":43.31538,"lon":5.38032,"is_reserved":false,"is_disabled":false,"rental_uris":{"android":"levelo://app?vid=0bc99fe3-8e58-4273-89db-10eb2b467ab0","ios":"levelo://app?vid=0bc99fe3-8e58-4273-89db-10eb2b467ab0"},"vehicle_type_id":"4","last_reported":1728857274,"current_range_meters":20800,"station_id":"ce4bhsp2rcd13ifvqi50","pricing_plan_id":"cebpf4jnsgd1na2vs0mg"},{"bike_id":"3c822ecd-c349-4358-955d-935167de7c4d","system_id":"levelo_inurba_marseille","lat":43.27178,"lon":5.4099,"is_reserved":false,"is_disabled":false,"rental_uris":{"android":"levelo://app?vid=3c822ecd-c349-4358-955d-935167de7c4d","ios":"levelo://app?vid=3c822ecd-c349-4358-955d-935167de7c4d"},"vehicle_type_id":"4","last_reported":1728857274,"current_range_meters":9200,"station_id":"ce4bhl12rcd13ifvqgf0","pricing_plan_id":"cebpf4jnsgd1na2vs0mg"},{"bike_id":"73253a8f-e5dc-4264-99b1-3ab44f156d3b","system_id":"levelo_inurba_marseille","lat":43.28433,"lon":5.37528,"is_reserved":false,"is_disabled":false,"rental_uris":{"android":"levelo://app?vid=73253a8f-e5dc-4264-99b1-3ab44f156d3b","ios":"levelo://app?vid=73253a8f-e5dc-4264-99b1-3ab44f156d3b"},"vehicle_type_id":"4","last_reported":1728857274,"current_range_meters":38800,"station_id":"ce4bh412rcd13ifvqds0","pricing_plan_id":"cebpf4jnsgd1na2vs0mg"},{"bike_id":"283029a2-47f6-4c73-912c-fb6c2063d8b3","system_id":"levelo_inurba_marseille","lat":43.31999,"lon":5.38155,"is_reserved":false,"is_disabled":false,"rental_uris":{"android":"levelo://app?vid=283029a2-47f6-4c73-912c-fb6c2063d8b3","ios":"levelo://app?vid=283029a2-47f6-4c73-912c-fb6c2063d8b3"},"vehicle_type_id":"4","last_reported":1728857274,"current_range_meters":30400,"station_id":"ce4bhr12rcd13ifvqhpg","pricing_plan_id":"cebpf4jnsgd1na2vs0mg"},{"bike_id":"5ba8d952-f4f0-4705-94d2-bdc18ff02186","system_id":"levelo_inurba_marseille","lat":43.25486,"lon":5.37648,"is_reserved":false,"is_disabled":false,"rental_uris":{"android":"levelo://app?vid=5ba8d952-f4f0-4705-94d2-bdc18ff02186","ios":"levelo://app?vid=5ba8d952-f4f0-4705-94d2-bdc18ff02186"},"vehicle_type_id":"4","last_reported":1728857274,"current_range_meters":36800,"station_id":"ce4bhh12rcd13ifvqff0","pricing_plan_id":"cebpf4jnsgd1na2vs0mg"},{"bike_id":"e6ea3036-08ca-4b9f-b8bd-4d36434ec46d","system_id":"levelo_inurba_marseille","lat":43.288538,"lon":5.358533,"is_reserved":false,"is_disabled":false,"rental_uris":{"android":"levelo://app?vid=e6ea3036-08ca-4b9f-b8bd-4d36434ec46d","ios":"levelo://app?vid=e6ea3036-08ca-4b9f-b8bd-4d36434ec46d"},"vehicle_type_id":"4","last_reported":1728857274,"current_range_meters":10000,"station_id":"ce4bhb12rcd13ifvqem0","pricing_plan_id":"cebpf4jnsgd1na2vs0mg"},{"bike_id":"0b9ac74a-86ac-4709-9bf1-fecee604d340","system_id":"levelo_inurba_marseille","lat":43.30148,"lon":5.39871,"is_reserved":false,"is_disabled":false,"rental_uris":{"android":"levelo://app?vid=0b9ac74a-86ac-4709-9bf1-fecee604d340","ios":"levelo://app?vid=0b9ac74a-86ac-4709-9bf1-fecee604d340"},"vehicle_type_id":"4","last_reported":1728857274,"current_range_meters":38800,"station_id":"ce4bh0h2rcd13ifvqd40","pricing_plan_id":"cebpf4jnsgd1na2vs0mg"},{"bike_id":"500a76a1-1ed1-40ac-a566-15bac915b4f9","system_id":"levelo_inurba_marseille","lat":43.24649,"lon":5.38888,"is_reserved":false,"is_disabled":false,"rental_uris":{"android":"levelo://app?vid=500a76a1-1ed1-40ac-a566-15bac915b4f9","ios":"levelo://app?vid=500a76a1-1ed1-40ac-a566-15bac915b4f9"},"vehicle_type_id":"4","last_reported":1728857274,"current_range_meters":36400,"station_id":"ce4bhg12rcd13ifvqf60","pricing_plan_id":"cebpf4jnsgd1na2vs0mg"},{"bike_id":"891ab079-0c3e-46f5-8417-724a219b3a5e","system_id":"levelo_inurba_marseille","lat":43.29642,"lon":5.40597,"is_reserved":false,"is_disabled":false,"rental_uris":{"android":"levelo://app?vid=891ab079-0c3e-46f5-8417-724a219b3a5e","ios":"levelo://app?vid=891ab079-0c3e-46f5-8417-724a219b3a5e"},"vehicle_type_id":"4","last_reported":1728857274,"current_range_meters":38800,"station_id":"ce4bh0h2rcd13ifvqd60","pricing_plan_id":"cebpf4jnsgd1na2vs0mg"},{"bike_id":"42b41bdf-f13e-487e-92b2-a4e56612951a","system_id":"levelo_inurba_marseille","lat":43.29272,"lon":5.40124,"is_reserved":false,"is_disabled":false,"rental_uris":{"android":"levelo://app?vid=42b41bdf-f13e-487e-92b2-a4e56612951a","ios":"levelo://app?vid=42b41bdf-f13e-487e-92b2-a4e56612951a"},"vehicle_type_id":"4","last_reported":1728857274,"current_range_meters":28800,"station_id":"ce4bh312rcd13ifvqdk0","pricing_plan_id":"cebpf4jnsgd1na2vs0mg"},{"bike_id":"7bfca5b2-1ddd-4e5d-b9fc-19e6379d40a0","system_id":"levelo_inurba_marseille","lat":43.2806,"lon":5.40989,"is_reserved":false,"is_disabled":false,"rental_uris":{"android":"levelo://app?vid=7bfca5b2-1ddd-4e5d-b9fc-19e6379d40a0","ios":"levelo://app?vid=7bfca5b2-1ddd-4e5d-b9fc-19e6379d40a0"},"vehicle_type_id":"4","last_reported":1728857274,"current_range_meters":30400,"station_id":"","pricing_plan_id":"cebpf4jnsgd1na2vs0mg"},{"bike_id":"a9f025de-7fbb-467d-8b40-db2fd10475e7","system_id":"levelo_inurba_marseille","lat":43.28106,"lon":5.37839,"is_reserved":false,"is_disabled":false,"rental_uris":{"android":"levelo://app?vid=a9f025de-7fbb-467d-8b40-db2fd10475e7","ios":"levelo://app?vid=a9f025de-7fbb-467d-8b40-db2fd10475e7"},"vehicle_type_id":"4","last_reported":1728857274,"current_range_meters":30400,"station_id":"ce4bha12rcd13ifvqee0","pricing_plan_id":"cebpf4jnsgd1na2vs0mg"},{"bike_id":"ad512d64-68f7-4b61-ba98-aaa25c0dc543","system_id":"levelo_inurba_marseille","lat":43.292706,"lon":5.384402,"is_reserved":false,"is_disabled":false,"rental_uris":{"android":"levelo://app?vid=ad512d64-68f7-4b61-ba98-aaa25c0dc543","ios":"levelo://app?vid=ad512d64-68f7-4b61-ba98-aaa25c0dc543"},"vehicle_type_id":"4","last_reported":1728857274,"current_range_meters":30400,"station_id":"ce4bhph2rcd13ifvqhdg","pricing_plan_id":"cebpf4jnsgd1na2vs0mg"},{"bike_id":"0c122405-24af-471d-8db9-1a2193ba2be6","system_id":"levelo_inurba_marseille","lat":43.28077,"lon":5.39642,"is_reserved":false,"is_disabled":false,"rental_uris":{"android":"levelo://app?vid=0c122405-24af-471d-8db9-1a2193ba2be6","ios":"levelo://app?vid=0c122405-24af-471d-8db9-1a2193ba2be6"},"vehicle_type_id":"4","last_reported":1728857274,"current_range_meters":26800,"station_id":"ce4bho12rcd13ifvqh2g","pricing_plan_id":"cebpf4jnsgd1na2vs0mg"},{"bike_id":"41a0ce93-8d2a-4b77-8ac8-acd497f8c5c4","system_id":"levelo_inurba_marseille","lat":43.2963,"lon":5.40603,"is_reserved":false,"is_disabled":false,"rental_uris":{"android":"levelo://app?vid=41a0ce93-8d2a-4b77-8ac8-acd497f8c5c4","ios":"levelo://app?vid=41a0ce93-8d2a-4b77-8ac8-acd497f8c5c4"},"vehicle_type_id":"4","last_reported":1728857274,"current_range_meters":37600,"station_id":"ce4bh0h2rcd13ifvqd60","pricing_plan_id":"cebpf4jnsgd1na2vs0mg"},{"bike_id":"87e2071f-e4ff-48d2-acf9-a1b6820399c3","system_id":"levelo_inurba_marseille","lat":43.23066,"lon":5.35482,"is_reserved":false,"is_disabled":false,"rental_uris":{"android":"levelo://app?vid=87e2071f-e4ff-48d2-acf9-a1b6820399c3","ios":"levelo://app?vid=87e2071f-e4ff-48d2-acf9-a1b6820399c3"},"vehicle_type_id":"4","last_reported":1728857274,"current_range_meters":38800,"station_id":"cpo3342slgdg3j2ifvpg","pricing_plan_id":"cebpf4jnsgd1na2vs0mg"},{"bike_id":"6c56a75a-187e-4d09-9ee9-4b417e687707","system_id":"levelo_inurba_marseille","lat":43.27316,"lon":5.39083,"is_reserved":false,"is_disabled":false,"rental_uris":{"android":"levelo://app?vid=6c56a75a-187e-4d09-9ee9-4b417e687707","ios":"levelo://app?vid=6c56a75a-187e-4d09-9ee9-4b417e687707"},"vehicle_type_id":"4","last_reported":1728857274,"current_range_meters":37600,"station_id":"ce4bhgp2rcd13ifvqfe0","pricing_plan_id":"cebpf4jnsgd1na2vs0mg"},{"bike_id":"124bcadb-0047-4081-821e-eec9c7c733b7","system_id":"levelo_inurba_marseille","lat":43.33615,"lon":5.41025,"is_reserved":false,"is_disabled":false,"rental_uris":{"android":"levelo://app?vid=124bcadb-0047-4081-821e-eec9c7c733b7","ios":"levelo://app?vid=124bcadb-0047-4081-821e-eec9c7c733b7"},"vehicle_type_id":"4","last_reported":1728857274,"current_range_meters":13600,"station_id":"ce4bhqh2rcd13ifvqhmg","pricing_plan_id":"cebpf4jnsgd1na2vs0mg"},{"bike_id":"3f70a18c-a6a4-4945-8677-48d73c8b1295","system_id":"levelo_inurba_marseille","lat":43.29965,"lon":5.38494,"is_reserved":false,"is_disabled":false,"rental_uris":{"android":"levelo://app?vid=3f70a18c-a6a4-4945-8677-48d73c8b1295","ios":"levelo://app?vid=3f70a18c-a6a4-4945-8677-48d73c8b1295"},"vehicle_type_id":"4","last_reported":1728857274,"current_range_meters":38400,"station_id":"ce4bgj92rcd13ifvqbd0","pricing_plan_id":"cebpf4jnsgd1na2vs0mg"},{"bike_id":"4456a4b0-7a03-479c-ba22-41450d791558","system_id":"levelo_inurba_marseille","lat":43.28346,"lon":5.38106,"is_reserved":false,"is_disabled":false,"rental_uris":{"android":"levelo://app?vid=4456a4b0-7a03-479c-ba22-41450d791558","ios":"levelo://app?vid=4456a4b0-7a03-479c-ba22-41450d791558"},"vehicle_type_id":"4","last_reported":1728857274,"current_range_meters":37600,"station_id":"ce4bh412rcd13ifvqdr0","pricing_plan_id":"cebpf4jnsgd1na2vs0mg"},{"bike_id":"cb0fa5b9-00ee-48fc-9ffa-599816c760e3","system_id":"levelo_inurba_marseille","lat":43.28106,"lon":5.37833,"is_reserved":false,"is_disabled":false,"rental_uris":{"android":"levelo://app?vid=cb0fa5b9-00ee-48fc-9ffa-599816c760e3","ios":"levelo://app?vid=cb0fa5b9-00ee-48fc-9ffa-599816c760e3"},"vehicle_type_id":"4","last_reported":1728857274,"current_range_meters":38800,"station_id":"ce4bha12rcd13ifvqee0","pricing_plan_id":"cebpf4jnsgd1na2vs0mg"},{"bike_id":"0a9f94b7-fe6d-4de8-b6fd-3225ceae69fc","system_id":"levelo_inurba_marseille","lat":43.28978,"lon":5.37829,"is_reserved":false,"is_disabled":false,"rental_uris":{"android":"levelo://app?vid=0a9f94b7-fe6d-4de8-b6fd-3225ceae69fc","ios":"levelo://app?vid=0a9f94b7-fe6d-4de8-b6fd-3225ceae69fc"},"vehicle_type_id":"4","last_reported":1728857274,"current_range_meters":38800,"station_id":"ce4bh9p2rcd13ifvqed0","pricing_plan_id":"cebpf4jnsgd1na2vs0mg"},{"bike_id":"91126898-d9aa-4637-b3e3-caaa451f390c","system_id":"levelo_inurba_marseille","lat":43.2979,"lon":5.39337,"is_reserved":false,"is_disabled":false,"rental_uris":{"android":"levelo://app?vid=91126898-d9aa-4637-b3e3-caaa451f390c","ios":"levelo://app?vid=91126898-d9aa-4637-b3e3-caaa451f390c"},"vehicle_type_id":"4","last_reported":1728857274,"current_range_meters":39200,"station_id":"chh1huq6cuj3fo74tm60","pricing_plan_id":"cebpf4jnsgd1na2vs0mg"},{"bike_id":"a2ac4f24-86ed-48e3-86d0-598518a899a4","system_id":"levelo_inurba_marseille","lat":43.29869,"lon":5.39732,"is_reserved":false,"is_disabled":false,"rental_uris":{"android":"levelo://app?vid=a2ac4f24-86ed-48e3-86d0-598518a899a4","ios":"levelo://app?vid=a2ac4f24-86ed-48e3-86d0-598518a899a4"},"vehicle_type_id":"4","last_reported":1728857274,"current_range_meters":2800,"station_id":"ce4bh0h2rcd13ifvqd50","pricing_plan_id":"cebpf4jnsgd1na2vs0mg"},{"bike_id":"0df78cbb-1921-43c2-a640-252f457a08f2","system_id":"levelo_inurba_marseille","lat":43.29872,"lon":5.39719,"is_reserved":false,"is_disabled":false,"rental_uris":{"android":"levelo://app?vid=0df78cbb-1921-43c2-a640-252f457a08f2","ios":"levelo://app?vid=0df78cbb-1921-43c2-a640-252f457a08f2"},"vehicle_type_id":"4","last_reported":1728857274,"current_range_meters":34000,"station_id":"ce4bh0h2rcd13ifvqd50","pricing_plan_id":"cebpf4jnsgd1na2vs0mg"},{"bike_id":"fee72667-3bfa-47c4-a255-39a9d24cb560","system_id":"levelo_inurba_marseille","lat":43.28705,"lon":5.39983,"is_reserved":false,"is_disabled":false,"rental_uris":{"android":"levelo://app?vid=fee72667-3bfa-47c4-a255-39a9d24cb560","ios":"levelo://app?vid=fee72667-3bfa-47c4-a255-39a9d24cb560"},"vehicle_type_id":"4","last_reported":1728857274,"current_range_meters":24800,"station_id":"ce4bho92rcd13ifvqh3g","pricing_plan_id":"cebpf4jnsgd1na2vs0mg"},{"bike_id":"cf060c54-b385-4999-9625-2ef3b6a18227","system_id":"levelo_inurba_marseille","lat":43.31072,"lon":5.38349,"is_reserved":false,"is_disabled":false,"rental_uris":{"android":"levelo://app?vid=cf060c54-b385-4999-9625-2ef3b6a18227","ios":"levelo://app?vid=cf060c54-b385-4999-9625-2ef3b6a18227"},"vehicle_type_id":"4","last_reported":1728857274,"current_range_meters":38800,"station_id":"ce4bgv92rcd13ifvqcr0","pricing_plan_id":"cebpf4jnsgd1na2vs0mg"},{"bike_id":"d77eae0b-a6a0-42e3-91cd-b53b0e53cce8","system_id":"levelo_inurba_marseille","lat":43.25115,"lon":5.40317,"is_reserved":false,"is_disabled":false,"rental_uris":{"android":"levelo://app?vid=d77eae0b-a6a0-42e3-91cd-b53b0e53cce8","ios":"levelo://app?vid=d77eae0b-a6a0-42e3-91cd-b53b0e53cce8"},"vehicle_type_id":"4","last_reported":1728857274,"current_range_meters":20400,"station_id":"ce4bhlh2rcd13ifvqgig","pricing_plan_id":"cebpf4jnsgd1na2vs0mg"},{"bike_id":"bbd75ed8-8af5-42c1-b9e1-557eb1e2e52e","system_id":"levelo_inurba_marseille","lat":43.28845,"lon":5.35843,"is_reserved":false,"is_disabled":false,"rental_uris":{"android":"levelo://app?vid=bbd75ed8-8af5-42c1-b9e1-557eb1e2e52e","ios":"levelo://app?vid=bbd75ed8-8af5-42c1-b9e1-557eb1e2e52e"},"vehicle_type_id":"4","last_reported":1728857274,"current_range_meters":24400,"station_id":"ce4bhb12rcd13ifvqem0","pricing_plan_id":"cebpf4jnsgd1na2vs0mg"},{"bike_id":"60029347-7ab0-4a9c-9077-5096f4b226a5","system_id":"levelo_inurba_marseille","lat":43.24388,"lon":5.37061,"is_reserved":false,"is_disabled":false,"rental_uris":{"android":"levelo://app?vid=60029347-7ab0-4a9c-9077-5096f4b226a5","ios":"levelo://app?vid=60029347-7ab0-4a9c-9077-5096f4b226a5"},"vehicle_type_id":"4","last_reported":1728857274,"current_range_meters":36800,"station_id":"ce4bhhh2rcd13ifvqfk0","pricing_plan_id":"cebpf4jnsgd1na2vs0mg"},{"bike_id":"c5073ebe-d63b-43ee-89f0-ab1148896c40","system_id":"levelo_inurba_marseille","lat":43.29895,"lon":5.4367,"is_reserved":false,"is_disabled":false,"rental_uris":{"android":"levelo://app?vid=c5073ebe-d63b-43ee-89f0-ab1148896c40","ios":"levelo://app?vid=c5073ebe-d63b-43ee-89f0-ab1148896c40"},"vehicle_type_id":"4","last_reported":1728857274,"current_range_meters":27200,"station_id":"ce4bhpp2rcd13ifvqhfg","pricing_plan_id":"cebpf4jnsgd1na2vs0mg"},{"bike_id":"ecf15818-634e-4bdb-8bc0-0da4886ed2a3","system_id":"levelo_inurba_marseille","lat":43.31762,"lon":5.39017,"is_reserved":false,"is_disabled":false,"rental_uris":{"android":"levelo://app?vid=ecf15818-634e-4bdb-8bc0-0da4886ed2a3","ios":"levelo://app?vid=ecf15818-634e-4bdb-8bc0-0da4886ed2a3"},"vehicle_type_id":"4","last_reported":1728857274,"current_range_meters":33200,"station_id":"ce4bhqp2rcd13ifvqhng","pricing_plan_id":"cebpf4jnsgd1na2vs0mg"},{"bike_id":"598e4b6f-03c6-46a9-8d80-1071980d564a","system_id":"levelo_inurba_marseille","lat":43.28611,"lon":5.35103,"is_reserved":false,"is_disabled":false,"rental_uris":{"android":"levelo://app?vid=598e4b6f-03c6-46a9-8d80-1071980d564a","ios":"levelo://app?vid=598e4b6f-03c6-46a9-8d80-1071980d564a"},"vehicle_type_id":"4","last_reported":1728857274,"current_range_meters":36800,"station_id":"ce4bhch2rcd13ifvqeug","pricing_plan_id":"cebpf4jnsgd1na2vs0mg"},{"bike_id":"df7aad52-8d96-4731-9608-3eed53902e1e","system_id":"levelo_inurba_marseille","lat":43.30952,"lon":5.39039,"is_reserved":false,"is_disabled":false,"rental_uris":{"android":"levelo://app?vid=df7aad52-8d96-4731-9608-3eed53902e1e","ios":"levelo://app?vid=df7aad52-8d96-4731-9608-3eed53902e1e"},"vehicle_type_id":"4","last_reported":1728857274,"current_range_meters":38800,"station_id":"ce4bgup2rcd13ifvqco0","pricing_plan_id":"cebpf4jnsgd1na2vs0mg"},{"bike_id":"f8f3e67a-8052-4faf-bbf5-121ca3de433f","system_id":"levelo_inurba_marseille","lat":43.33604,"lon":5.4103,"is_reserved":false,"is_disabled":false,"rental_uris":{"android":"levelo://app?vid=f8f3e67a-8052-4faf-bbf5-121ca3de433f","ios":"levelo://app?vid=f8f3e67a-8052-4faf-bbf5-121ca3de433f"},"vehicle_type_id":"4","last_reported":1728857274,"current_range_meters":30000,"station_id":"ce4bhqh2rcd13ifvqhmg","pricing_plan_id":"cebpf4jnsgd1na2vs0mg"},{"bike_id":"26ef0f82-778d-44d7-ad89-5daefc08a1a4","system_id":"levelo_inurba_marseille","lat":43.31456,"lon":5.37381,"is_reserved":false,"is_disabled":false,"rental_uris":{"android":"levelo://app?vid=26ef0f82-778d-44d7-ad89-5daefc08a1a4","ios":"levelo://app?vid=26ef0f82-778d-44d7-ad89-5daefc08a1a4"},"vehicle_type_id":"4","last_reported":1728857274,"current_range_meters":19200,"station_id":"","pricing_plan_id":"cebpf4jnsgd1na2vs0mg"},{"bike_id":"bf994896-4e33-4fd2-850e-19f20bc7bb36","system_id":"levelo_inurba_marseille","lat":43.284116,"lon":5.375194,"is_reserved":false,"is_disabled":false,"rental_uris":{"android":"levelo://app?vid=bf994896-4e33-4fd2-850e-19f20bc7bb36","ios":"levelo://app?vid=bf994896-4e33-4fd2-850e-19f20bc7bb36"},"vehicle_type_id":"4","last_reported":1728857274,"current_range_meters":38800,"station_id":"ce4bh412rcd13ifvqds0","pricing_plan_id":"cebpf4jnsgd1na2vs0mg"},{"bike_id":"0ccf2962-031c-4287-9cd7-f5ca10901747","system_id":"levelo_inurba_marseille","lat":43.30883,"lon":5.39638,"is_reserved":false,"is_disabled":false,"rental_uris":{"android":"levelo://app?vid=0ccf2962-031c-4287-9cd7-f5ca10901747","ios":"levelo://app?vid=0ccf2962-031c-4287-9cd7-f5ca10901747"},"vehicle_type_id":"4","last_reported":1728857274,"current_range_meters":39200,"station_id":"ce4bh012rcd13ifvqcv0","pricing_plan_id":"cebpf4jnsgd1na2vs0mg"},{"bike_id":"39096ca6-099c-47eb-911b-3253550b0d73","system_id":"levelo_inurba_marseille","lat":43.239596,"lon":5.366261,"is_reserved":false,"is_disabled":false,"rental_uris":{"android":"levelo://app?vid=39096ca6-099c-47eb-911b-3253550b0d73","ios":"levelo://app?vid=39096ca6-099c-47eb-911b-3253550b0d73"},"vehicle_type_id":"4","last_reported":1728857274,"current_range_meters":38800,"station_id":"ce4bhi12rcd13ifvqfp0","pricing_plan_id":"cebpf4jnsgd1na2vs0mg"},{"bike_id":"5bd974c5-0032-4e59-8cbe-1cc3b135d8cb","system_id":"levelo_inurba_marseille","lat":43.28731,"lon":5.36086,"is_reserved":false,"is_disabled":false,"rental_uris":{"android":"levelo://app?vid=5bd974c5-0032-4e59-8cbe-1cc3b135d8cb","ios":"levelo://app?vid=5bd974c5-0032-4e59-8cbe-1cc3b135d8cb"},"vehicle_type_id":"4","last_reported":1728857274,"current_range_meters":38800,"station_id":"cki0cbj6b192h4jlfktg","pricing_plan_id":"cebpf4jnsgd1na2vs0mg"},{"bike_id":"25ed2710-8c35-44e6-81fd-8fc7cf6b54a8","system_id":"levelo_inurba_marseille","lat":43.274948,"lon":5.424466,"is_reserved":false,"is_disabled":false,"rental_uris":{"android":"levelo://app?vid=25ed2710-8c35-44e6-81fd-8fc7cf6b54a8","ios":"levelo://app?vid=25ed2710-8c35-44e6-81fd-8fc7cf6b54a8"},"vehicle_type_id":"4","last_reported":1728857274,"current_range_meters":19600,"station_id":"ce4bhn92rcd13ifvqgrg","pricing_plan_id":"cebpf4jnsgd1na2vs0mg"},{"bike_id":"b9b18d1e-08b0-4d2d-ae4b-c6ff6e5bb0fe","system_id":"levelo_inurba_marseille","lat":43.29648,"lon":5.37261,"is_reserved":false,"is_disabled":false,"rental_uris":{"android":"levelo://app?vid=b9b18d1e-08b0-4d2d-ae4b-c6ff6e5bb0fe","ios":"levelo://app?vid=b9b18d1e-08b0-4d2d-ae4b-c6ff6e5bb0fe"},"vehicle_type_id":"4","last_reported":1728857274,"current_range_meters":14800,"station_id":"ce4bgk12rcd13ifvqbj0","pricing_plan_id":"cebpf4jnsgd1na2vs0mg"},{"bike_id":"3bf45488-58d4-458e-8f71-b90cf5356b98","system_id":"levelo_inurba_marseille","lat":43.30089,"lon":5.39072,"is_reserved":false,"is_disabled":false,"rental_uris":{"android":"levelo://app?vid=3bf45488-58d4-458e-8f71-b90cf5356b98","ios":"levelo://app?vid=3bf45488-58d4-458e-8f71-b90cf5356b98"},"vehicle_type_id":"4","last_reported":1728857274,"current_range_meters":8000,"station_id":"ce4bh192rcd13ifvqdb0","pricing_plan_id":"cebpf4jnsgd1na2vs0mg"},{"bike_id":"dd6cb5e2-9372-4e66-8619-df50957a0a9e","system_id":"levelo_inurba_marseille","lat":43.33024,"lon":5.39042,"is_reserved":false,"is_disabled":false,"rental_uris":{"android":"levelo://app?vid=dd6cb5e2-9372-4e66-8619-df50957a0a9e","ios":"levelo://app?vid=dd6cb5e2-9372-4e66-8619-df50957a0a9e"},"vehicle_type_id":"4","last_reported":1728857274,"current_range_meters":28000,"station_id":"ce4bhr92rcd13ifvqhrg","pricing_plan_id":"cebpf4jnsgd1na2vs0mg"},{"bike_id":"e030d32d-cd88-4716-be3d-cd076ae7ab6d","system_id":"levelo_inurba_marseille","lat":43.30247,"lon":5.40066,"is_reserved":false,"is_disabled":false,"rental_uris":{"android":"levelo://app?vid=e030d32d-cd88-4716-be3d-cd076ae7ab6d","ios":"levelo://app?vid=e030d32d-cd88-4716-be3d-cd076ae7ab6d"},"vehicle_type_id":"4","last_reported":1728857274,"current_range_meters":38800,"station_id":"ce4bgvh2rcd13ifvqcs0","pricing_plan_id":"cebpf4jnsgd1na2vs0mg"},{"bike_id":"138cb62f-af38-4efb-984f-04cfdc66f684","system_id":"levelo_inurba_marseille","lat":43.28077,"lon":5.39663,"is_reserved":false,"is_disabled":false,"rental_uris":{"android":"levelo://app?vid=138cb62f-af38-4efb-984f-04cfdc66f684","ios":"levelo://app?vid=138cb62f-af38-4efb-984f-04cfdc66f684"},"vehicle_type_id":"4","last_reported":1728857274,"current_range_meters":20800,"station_id":"ce4bho12rcd13ifvqh2g","pricing_plan_id":"cebpf4jnsgd1na2vs0mg"},{"bike_id":"8fd4aec9-afab-4555-a0a5-9f98cd22ef62","system_id":"levelo_inurba_marseille","lat":43.25485,"lon":5.37648,"is_reserved":false,"is_disabled":false,"rental_uris":{"android":"levelo://app?vid=8fd4aec9-afab-4555-a0a5-9f98cd22ef62","ios":"levelo://app?vid=8fd4aec9-afab-4555-a0a5-9f98cd22ef62"},"vehicle_type_id":"4","last_reported":1728857274,"current_range_meters":37600,"station_id":"ce4bhh12rcd13ifvqff0","pricing_plan_id":"cebpf4jnsgd1na2vs0mg"},{"bike_id":"26e17979-e227-4224-a529-6170c31c8d09","system_id":"levelo_inurba_marseille","lat":43.295196,"lon":5.394068,"is_reserved":false,"is_disabled":false,"rental_uris":{"android":"levelo://app?vid=26e17979-e227-4224-a529-6170c31c8d09","ios":"levelo://app?vid=26e17979-e227-4224-a529-6170c31c8d09"},"vehicle_type_id":"4","last_reported":1728857274,"current_range_meters":25200,"station_id":"ce4bh292rcd13ifvqdf0","pricing_plan_id":"cebpf4jnsgd1na2vs0mg"},{"bike_id":"64d319f2-164b-4ef6-a30c-055db2ee446a","system_id":"levelo_inurba_marseille","lat":43.24071,"lon":5.37759,"is_reserved":false,"is_disabled":false,"rental_uris":{"android":"levelo://app?vid=64d319f2-164b-4ef6-a30c-055db2ee446a","ios":"levelo://app?vid=64d319f2-164b-4ef6-a30c-055db2ee446a"},"vehicle_type_id":"4","last_reported":1728857274,"current_range_meters":16400,"station_id":"ce4bhnp2rcd13ifvqgvg","pricing_plan_id":"cebpf4jnsgd1na2vs0mg"},{"bike_id":"0df1d42c-d961-459e-888c-0d53884bd4cc","system_id":"levelo_inurba_marseille","lat":43.30143,"lon":5.39874,"is_reserved":false,"is_disabled":false,"rental_uris":{"android":"levelo://app?vid=0df1d42c-d961-459e-888c-0d53884bd4cc","ios":"levelo://app?vid=0df1d42c-d961-459e-888c-0d53884bd4cc"},"vehicle_type_id":"4","last_reported":1728857274,"current_range_meters":38800,"station_id":"ce4bh0h2rcd13ifvqd40","pricing_plan_id":"cebpf4jnsgd1na2vs0mg"},{"bike_id":"fe3ace23-f4af-42de-972b-1642c1f71186","system_id":"levelo_inurba_marseille","lat":43.28274,"lon":5.35076,"is_reserved":false,"is_disabled":false,"rental_uris":{"android":"levelo://app?vid=fe3ace23-f4af-42de-972b-1642c1f71186","ios":"levelo://app?vid=fe3ace23-f4af-42de-972b-1642c1f71186"},"vehicle_type_id":"4","last_reported":1728857274,"current_range_meters":37600,"station_id":"ce4bhbp2rcd13ifvqerg","pricing_plan_id":"cebpf4jnsgd1na2vs0mg"},{"bike_id":"744d7d46-a030-452d-827a-600610e2a098","system_id":"levelo_inurba_marseille","lat":43.23189,"lon":5.39989,"is_reserved":false,"is_disabled":false,"rental_uris":{"android":"levelo://app?vid=744d7d46-a030-452d-827a-600610e2a098","ios":"levelo://app?vid=744d7d46-a030-452d-827a-600610e2a098"},"vehicle_type_id":"4","last_reported":1728857274,"current_range_meters":32000,"station_id":"ce4bhn12rcd13ifvqgqg","pricing_plan_id":"cebpf4jnsgd1na2vs0mg"},{"bike_id":"857e9db9-811c-4fa8-bb08-0779460464d7","system_id":"levelo_inurba_marseille","lat":43.265686,"lon":5.39012,"is_reserved":false,"is_disabled":false,"rental_uris":{"android":"levelo://app?vid=857e9db9-811c-4fa8-bb08-0779460464d7","ios":"levelo://app?vid=857e9db9-811c-4fa8-bb08-0779460464d7"},"vehicle_type_id":"4","last_reported":1728857274,"current_range_meters":34000,"station_id":"ce4bhn12rcd13ifvqgpg","pricing_plan_id":"cebpf4jnsgd1na2vs0mg"},{"bike_id":"d269f004-6f8f-438a-9017-6d6b6da4f8cd","system_id":"levelo_inurba_marseille","lat":43.28358,"lon":5.38101,"is_reserved":false,"is_disabled":false,"rental_uris":{"android":"levelo://app?vid=d269f004-6f8f-438a-9017-6d6b6da4f8cd","ios":"levelo://app?vid=d269f004-6f8f-438a-9017-6d6b6da4f8cd"},"vehicle_type_id":"4","last_reported":1728857274,"current_range_meters":34000,"station_id":"ce4bh412rcd13ifvqdr0","pricing_plan_id":"cebpf4jnsgd1na2vs0mg"},{"bike_id":"2b9d5ece-2a9d-4b1a-9617-6ea2b2ec85b6","system_id":"levelo_inurba_marseille","lat":43.28105,"lon":5.37842,"is_reserved":false,"is_disabled":false,"rental_uris":{"android":"levelo://app?vid=2b9d5ece-2a9d-4b1a-9617-6ea2b2ec85b6","ios":"levelo://app?vid=2b9d5ece-2a9d-4b1a-9617-6ea2b2ec85b6"},"vehicle_type_id":"4","last_reported":1728857274,"current_range_meters":32400,"station_id":"ce4bha12rcd13ifvqee0","pricing_plan_id":"cebpf4jnsgd1na2vs0mg"},{"bike_id":"d04415fa-8238-4ffd-aa80-a12eb9fac1bf","system_id":"levelo_inurba_marseille","lat":43.23154,"lon":5.43715,"is_reserved":false,"is_disabled":false,"rental_uris":{"android":"levelo://app?vid=d04415fa-8238-4ffd-aa80-a12eb9fac1bf","ios":"levelo://app?vid=d04415fa-8238-4ffd-aa80-a12eb9fac1bf"},"vehicle_type_id":"4","last_reported":1728857274,"current_range_meters":12000,"station_id":"ce4bhmp2rcd13ifvqgog","pricing_plan_id":"cebpf4jnsgd1na2vs0mg"},{"bike_id":"5e5f7a3b-041e-4657-b33d-6d761579747d","system_id":"levelo_inurba_marseille","lat":43.33021,"lon":5.39032,"is_reserved":false,"is_disabled":false,"rental_uris":{"android":"levelo://app?vid=5e5f7a3b-041e-4657-b33d-6d761579747d","ios":"levelo://app?vid=5e5f7a3b-041e-4657-b33d-6d761579747d"},"vehicle_type_id":"4","last_reported":1728857274,"current_range_meters":19200,"station_id":"ce4bhr92rcd13ifvqhrg","pricing_plan_id":"cebpf4jnsgd1na2vs0mg"},{"bike_id":"b5c582a8-95a1-4e1f-9296-8a8d7fdd00c0","system_id":"levelo_inurba_marseille","lat":43.2928,"lon":5.40109,"is_reserved":false,"is_disabled":false,"rental_uris":{"android":"levelo://app?vid=b5c582a8-95a1-4e1f-9296-8a8d7fdd00c0","ios":"levelo://app?vid=b5c582a8-95a1-4e1f-9296-8a8d7fdd00c0"},"vehicle_type_id":"4","last_reported":1728857274,"current_range_meters":32000,"station_id":"ce4bh312rcd13ifvqdk0","pricing_plan_id":"cebpf4jnsgd1na2vs0mg"},{"bike_id":"cea67a7e-54c1-495b-829b-4b52a8125620","system_id":"levelo_inurba_marseille","lat":43.301331,"lon":5.398609,"is_reserved":false,"is_disabled":false,"rental_uris":{"android":"levelo://app?vid=cea67a7e-54c1-495b-829b-4b52a8125620","ios":"levelo://app?vid=cea67a7e-54c1-495b-829b-4b52a8125620"},"vehicle_type_id":"4","last_reported":1728857274,"current_range_meters":2000,"station_id":"ce4bh0h2rcd13ifvqd40","pricing_plan_id":"cebpf4jnsgd1na2vs0mg"},{"bike_id":"66b7a16e-6796-4981-b35e-3f2cc868af25","system_id":"levelo_inurba_marseille","lat":43.30784,"lon":5.37647,"is_reserved":false,"is_disabled":false,"rental_uris":{"android":"levelo://app?vid=66b7a16e-6796-4981-b35e-3f2cc868af25","ios":"levelo://app?vid=66b7a16e-6796-4981-b35e-3f2cc868af25"},"vehicle_type_id":"4","last_reported":1728857274,"current_range_meters":32000,"station_id":"ce4bgv92rcd13ifvqcq0","pricing_plan_id":"cebpf4jnsgd1na2vs0mg"},{"bike_id":"a244d3fe-3831-4f48-8031-daff45febd27","system_id":"levelo_inurba_marseille","lat":43.29867,"lon":5.3974,"is_reserved":false,"is_disabled":false,"rental_uris":{"android":"levelo://app?vid=a244d3fe-3831-4f48-8031-daff45febd27","ios":"levelo://app?vid=a244d3fe-3831-4f48-8031-daff45febd27"},"vehicle_type_id":"4","last_reported":1728857274,"current_range_meters":38800,"station_id":"ce4bh0h2rcd13ifvqd50","pricing_plan_id":"cebpf4jnsgd1na2vs0mg"},{"bike_id":"d36a8747-7e1c-419d-b75f-08f0664b79e7","system_id":"levelo_inurba_marseille","lat":43.311819,"lon":5.387156,"is_reserved":false,"is_disabled":false,"rental_uris":{"android":"levelo://app?vid=d36a8747-7e1c-419d-b75f-08f0664b79e7","ios":"levelo://app?vid=d36a8747-7e1c-419d-b75f-08f0664b79e7"},"vehicle_type_id":"4","last_reported":1728857274,"current_range_meters":39200,"station_id":"ce4bgv12rcd13ifvqcp0","pricing_plan_id":"cebpf4jnsgd1na2vs0mg"},{"bike_id":"a8e39a7f-4f5a-4c0d-8f7f-565bc7eaef1d","system_id":"levelo_inurba_marseille","lat":43.25113,"lon":5.4032,"is_reserved":false,"is_disabled":false,"rental_uris":{"android":"levelo://app?vid=a8e39a7f-4f5a-4c0d-8f7f-565bc7eaef1d","ios":"levelo://app?vid=a8e39a7f-4f5a-4c0d-8f7f-565bc7eaef1d"},"vehicle_type_id":"4","last_reported":1728857274,"current_range_meters":33600,"station_id":"ce4bhlh2rcd13ifvqgig","pricing_plan_id":"cebpf4jnsgd1na2vs0mg"},{"bike_id":"fcd7499d-953e-490c-881b-5e9ac436b014","system_id":"levelo_inurba_marseille","lat":43.29023,"lon":5.3864,"is_reserved":false,"is_disabled":false,"rental_uris":{"android":"levelo://app?vid=fcd7499d-953e-490c-881b-5e9ac436b014","ios":"levelo://app?vid=fcd7499d-953e-490c-881b-5e9ac436b014"},"vehicle_type_id":"4","last_reported":1728857274,"current_range_meters":38800,"station_id":"ce4bh4p2rcd13ifvqe0g","pricing_plan_id":"cebpf4jnsgd1na2vs0mg"},{"bike_id":"85298c67-5ece-4f37-b75f-487ff60fd4eb","system_id":"levelo_inurba_marseille","lat":43.29633,"lon":5.40594,"is_reserved":false,"is_disabled":false,"rental_uris":{"android":"levelo://app?vid=85298c67-5ece-4f37-b75f-487ff60fd4eb","ios":"levelo://app?vid=85298c67-5ece-4f37-b75f-487ff60fd4eb"},"vehicle_type_id":"4","last_reported":1728857274,"current_range_meters":36000,"station_id":"ce4bh0h2rcd13ifvqd60","pricing_plan_id":"cebpf4jnsgd1na2vs0mg"},{"bike_id":"f183b812-4bed-43d2-b33b-389c90156843","system_id":"levelo_inurba_marseille","lat":43.26191,"lon":5.37447,"is_reserved":false,"is_disabled":false,"rental_uris":{"android":"levelo://app?vid=f183b812-4bed-43d2-b33b-389c90156843","ios":"levelo://app?vid=f183b812-4bed-43d2-b33b-389c90156843"},"vehicle_type_id":"4","last_reported":1728857274,"current_range_meters":30000,"station_id":"ce4bhgp2rcd13ifvqfc0","pricing_plan_id":"cebpf4jnsgd1na2vs0mg"},{"bike_id":"c074db94-e0ff-49df-afe2-4cd4fb4d2847","system_id":"levelo_inurba_marseille","lat":43.24168,"lon":5.3974,"is_reserved":false,"is_disabled":false,"rental_uris":{"android":"levelo://app?vid=c074db94-e0ff-49df-afe2-4cd4fb4d2847","ios":"levelo://app?vid=c074db94-e0ff-49df-afe2-4cd4fb4d2847"},"vehicle_type_id":"4","last_reported":1728857274,"current_range_meters":36400,"station_id":"ce4bhn12rcd13ifvqgpg","pricing_plan_id":"cebpf4jnsgd1na2vs0mg"},{"bike_id":"aae57117-c5e8-4ceb-aa6b-b32977d77e4e","system_id":"levelo_inurba_marseille","lat":43.29023,"lon":5.38135,"is_reserved":false,"is_disabled":false,"rental_uris":{"android":"levelo://app?vid=aae57117-c5e8-4ceb-aa6b-b32977d77e4e","ios":"levelo://app?vid=aae57117-c5e8-4ceb-aa6b-b32977d77e4e"},"vehicle_type_id":"4","last_reported":1728857274,"current_range_meters":37600,"station_id":"ce4bh4p2rcd13ifvqe1g","pricing_plan_id":"cebpf4jnsgd1na2vs0mg"},{"bike_id":"2ff4580e-308b-44c8-b9ac-279fa18cc06c","system_id":"levelo_inurba_marseille","lat":43.29717,"lon":5.36614,"is_reserved":false,"is_disabled":false,"rental_uris":{"android":"levelo://app?vid=2ff4580e-308b-44c8-b9ac-279fa18cc06c","ios":"levelo://app?vid=2ff4580e-308b-44c8-b9ac-279fa18cc06c"},"vehicle_type_id":"4","last_reported":1728857274,"current_range_meters":11600,"station_id":"ce4bgn12rcd13ifvqbt0","pricing_plan_id":"cebpf4jnsgd1na2vs0mg"},{"bike_id":"5807b78d-00a5-4af6-b7a4-ec73100a9f48","system_id":"levelo_inurba_marseille","lat":43.28406,"lon":5.3751,"is_reserved":false,"is_disabled":false,"rental_uris":{"android":"levelo://app?vid=5807b78d-00a5-4af6-b7a4-ec73100a9f48","ios":"levelo://app?vid=5807b78d-00a5-4af6-b7a4-ec73100a9f48"},"vehicle_type_id":"4","last_reported":1728857274,"current_range_meters":38800,"station_id":"ce4bh412rcd13ifvqds0","pricing_plan_id":"cebpf4jnsgd1na2vs0mg"},{"bike_id":"eccffdca-8ae3-4d1b-8411-c1751546085f","system_id":"levelo_inurba_marseille","lat":43.25862,"lon":5.399,"is_reserved":false,"is_disabled":false,"rental_uris":{"android":"levelo://app?vid=eccffdca-8ae3-4d1b-8411-c1751546085f","ios":"levelo://app?vid=eccffdca-8ae3-4d1b-8411-c1751546085f"},"vehicle_type_id":"4","last_reported":1728857274,"current_range_meters":30800,"station_id":"ce4bhl92rcd13ifvqghg","pricing_plan_id":"cebpf4jnsgd1na2vs0mg"},{"bike_id":"9d671549-67ad-4eb0-ace0-50f59d8a0c79","system_id":"levelo_inurba_marseille","lat":43.31109,"lon":5.38064,"is_reserved":false,"is_disabled":false,"rental_uris":{"android":"levelo://app?vid=9d671549-67ad-4eb0-ace0-50f59d8a0c79","ios":"levelo://app?vid=9d671549-67ad-4eb0-ace0-50f59d8a0c79"},"vehicle_type_id":"4","last_reported":1728857274,"current_range_meters":22400,"station_id":"ce4bgt92rcd13ifvqcf0","pricing_plan_id":"cebpf4jnsgd1na2vs0mg"},{"bike_id":"5c639a26-5c91-4b8b-9329-66026ae8437d","system_id":"levelo_inurba_marseille","lat":43.24667,"lon":5.38158,"is_reserved":false,"is_disabled":false,"rental_uris":{"android":"levelo://app?vid=5c639a26-5c91-4b8b-9329-66026ae8437d","ios":"levelo://app?vid=5c639a26-5c91-4b8b-9329-66026ae8437d"},"vehicle_type_id":"4","last_reported":1728857274,"current_range_meters":33200,"station_id":"ce4bhih2rcd13ifvqfr0","pricing_plan_id":"cebpf4jnsgd1na2vs0mg"},{"bike_id":"a86fbf74-19ff-4050-8f5c-683c9beda81b","system_id":"levelo_inurba_marseille","lat":43.2657,"lon":5.39004,"is_reserved":false,"is_disabled":false,"rental_uris":{"android":"levelo://app?vid=a86fbf74-19ff-4050-8f5c-683c9beda81b","ios":"levelo://app?vid=a86fbf74-19ff-4050-8f5c-683c9beda81b"},"vehicle_type_id":"4","last_reported":1728857274,"current_range_meters":7200,"station_id":"ce4bhe12rcd13ifvqf30","pricing_plan_id":"cebpf4jnsgd1na2vs0mg"},{"bike_id":"a0afc100-26e7-466d-adbf-28ee7d50f779","system_id":"levelo_inurba_marseille","lat":43.31713,"lon":5.43708,"is_reserved":false,"is_disabled":false,"rental_uris":{"android":"levelo://app?vid=a0afc100-26e7-466d-adbf-28ee7d50f779","ios":"levelo://app?vid=a0afc100-26e7-466d-adbf-28ee7d50f779"},"vehicle_type_id":"4","last_reported":1728857274,"current_range_meters":8400,"station_id":"ce4bhp92rcd13ifvqhcg","pricing_plan_id":"cebpf4jnsgd1na2vs0mg"},{"bike_id":"3bd952ba-4c66-4ecf-8603-5efa5ce08dad","system_id":"levelo_inurba_marseille","lat":43.28939,"lon":5.39618,"is_reserved":false,"is_disabled":false,"rental_uris":{"android":"levelo://app?vid=3bd952ba-4c66-4ecf-8603-5efa5ce08dad","ios":"levelo://app?vid=3bd952ba-4c66-4ecf-8603-5efa5ce08dad"},"vehicle_type_id":"4","last_reported":1728857274,"current_range_meters":9200,"station_id":"ce4bh3h2rcd13ifvqdn0","pricing_plan_id":"cebpf4jnsgd1na2vs0mg"},{"bike_id":"99e083d6-0a57-49b9-a4c4-5d347875ba02","system_id":"levelo_inurba_marseille","lat":43.29251,"lon":5.40897,"is_reserved":false,"is_disabled":false,"rental_uris":{"android":"levelo://app?vid=99e083d6-0a57-49b9-a4c4-5d347875ba02","ios":"levelo://app?vid=99e083d6-0a57-49b9-a4c4-5d347875ba02"},"vehicle_type_id":"4","last_reported":1728857274,"current_range_meters":24400,"station_id":"ce4bh192rcd13ifvqdc0","pricing_plan_id":"cebpf4jnsgd1na2vs0mg"},{"bike_id":"0e035532-54f9-4c10-a51d-b0c1f7a05c3f","system_id":"levelo_inurba_marseille","lat":43.255,"lon":5.37649,"is_reserved":false,"is_disabled":false,"rental_uris":{"android":"levelo://app?vid=0e035532-54f9-4c10-a51d-b0c1f7a05c3f","ios":"levelo://app?vid=0e035532-54f9-4c10-a51d-b0c1f7a05c3f"},"vehicle_type_id":"4","last_reported":1728857274,"current_range_meters":37600,"station_id":"ce4bhh12rcd13ifvqff0","pricing_plan_id":"cebpf4jnsgd1na2vs0mg"},{"bike_id":"ca5e2953-c144-425d-8fb3-8cee63fff18b","system_id":"levelo_inurba_marseille","lat":43.31711,"lon":5.37736,"is_reserved":false,"is_disabled":false,"rental_uris":{"android":"levelo://app?vid=ca5e2953-c144-425d-8fb3-8cee63fff18b","ios":"levelo://app?vid=ca5e2953-c144-425d-8fb3-8cee63fff18b"},"vehicle_type_id":"4","last_reported":1728857274,"current_range_meters":38000,"station_id":"ce4bgth2rcd13ifvqch0","pricing_plan_id":"cebpf4jnsgd1na2vs0mg"},{"bike_id":"b7c37ac6-8b08-4acb-8d86-8cdb738cf50f","system_id":"levelo_inurba_marseille","lat":43.29867,"lon":5.39731,"is_reserved":false,"is_disabled":false,"rental_uris":{"android":"levelo://app?vid=b7c37ac6-8b08-4acb-8d86-8cdb738cf50f","ios":"levelo://app?vid=b7c37ac6-8b08-4acb-8d86-8cdb738cf50f"},"vehicle_type_id":"4","last_reported":1728857274,"current_range_meters":38800,"station_id":"ce4bh0h2rcd13ifvqd50","pricing_plan_id":"cebpf4jnsgd1na2vs0mg"},{"bike_id":"a439e9c1-eb99-42fa-a16e-00182dec1edc","system_id":"levelo_inurba_marseille","lat":43.290008,"lon":5.399647,"is_reserved":false,"is_disabled":false,"rental_uris":{"android":"levelo://app?vid=a439e9c1-eb99-42fa-a16e-00182dec1edc","ios":"levelo://app?vid=a439e9c1-eb99-42fa-a16e-00182dec1edc"},"vehicle_type_id":"4","last_reported":1728857274,"current_range_meters":35200,"station_id":"ce4bh392rcd13ifvqdm0","pricing_plan_id":"cebpf4jnsgd1na2vs0mg"},{"bike_id":"21026577-64eb-4182-9516-fccaa1cfdd4a","system_id":"levelo_inurba_marseille","lat":43.2799,"lon":5.41655,"is_reserved":false,"is_disabled":false,"rental_uris":{"android":"levelo://app?vid=21026577-64eb-4182-9516-fccaa1cfdd4a","ios":"levelo://app?vid=21026577-64eb-4182-9516-fccaa1cfdd4a"},"vehicle_type_id":"4","last_reported":1728857274,"current_range_meters":36000,"station_id":"ce4bho12rcd13ifvqh1g","pricing_plan_id":"cebpf4jnsgd1na2vs0mg"},{"bike_id":"96124732-5d93-4162-958b-d7533f5930fa","system_id":"levelo_inurba_marseille","lat":43.28413,"lon":5.37509,"is_reserved":false,"is_disabled":false,"rental_uris":{"android":"levelo://app?vid=96124732-5d93-4162-958b-d7533f5930fa","ios":"levelo://app?vid=96124732-5d93-4162-958b-d7533f5930fa"},"vehicle_type_id":"4","last_reported":1728857274,"current_range_meters":38800,"station_id":"ce4bh412rcd13ifvqds0","pricing_plan_id":"cebpf4jnsgd1na2vs0mg"},{"bike_id":"42cede74-d141-4d6b-a790-a30a9d0f6f40","system_id":"levelo_inurba_marseille","lat":43.31893,"lon":5.40739,"is_reserved":false,"is_disabled":false,"rental_uris":{"android":"levelo://app?vid=42cede74-d141-4d6b-a790-a30a9d0f6f40","ios":"levelo://app?vid=42cede74-d141-4d6b-a790-a30a9d0f6f40"},"vehicle_type_id":"4","last_reported":1728857274,"current_range_meters":22800,"station_id":"ce4bhq12rcd13ifvqhig","pricing_plan_id":"cebpf4jnsgd1na2vs0mg"},{"bike_id":"549d6d74-2989-4262-84f7-d0467c6c02f7","system_id":"levelo_inurba_marseille","lat":43.29897,"lon":5.43671,"is_reserved":false,"is_disabled":false,"rental_uris":{"android":"levelo://app?vid=549d6d74-2989-4262-84f7-d0467c6c02f7","ios":"levelo://app?vid=549d6d74-2989-4262-84f7-d0467c6c02f7"},"vehicle_type_id":"4","last_reported":1728857274,"current_range_meters":16400,"station_id":"ce4bhpp2rcd13ifvqhfg","pricing_plan_id":"cebpf4jnsgd1na2vs0mg"},{"bike_id":"6d8a5245-ff62-4f13-95b5-5d2e56cb22e7","system_id":"levelo_inurba_marseille","lat":43.28937,"lon":5.39636,"is_reserved":false,"is_disabled":false,"rental_uris":{"android":"levelo://app?vid=6d8a5245-ff62-4f13-95b5-5d2e56cb22e7","ios":"levelo://app?vid=6d8a5245-ff62-4f13-95b5-5d2e56cb22e7"},"vehicle_type_id":"4","last_reported":1728857274,"current_range_meters":36000,"station_id":"ce4bh3h2rcd13ifvqdn0","pricing_plan_id":"cebpf4jnsgd1na2vs0mg"},{"bike_id":"5968c016-2f05-4a98-96c7-5302957d16f1","system_id":"levelo_inurba_marseille","lat":43.28363,"lon":5.38633,"is_reserved":false,"is_disabled":false,"rental_uris":{"android":"levelo://app?vid=5968c016-2f05-4a98-96c7-5302957d16f1","ios":"levelo://app?vid=5968c016-2f05-4a98-96c7-5302957d16f1"},"vehicle_type_id":"4","last_reported":1728857274,"current_range_meters":31200,"station_id":"ce4bh492rcd13ifvqdvg","pricing_plan_id":"cebpf4jnsgd1na2vs0mg"},{"bike_id":"3af35364-3299-4a79-84c7-18788a95ec55","system_id":"levelo_inurba_marseille","lat":43.30648,"lon":5.40099,"is_reserved":false,"is_disabled":false,"rental_uris":{"android":"levelo://app?vid=3af35364-3299-4a79-84c7-18788a95ec55","ios":"levelo://app?vid=3af35364-3299-4a79-84c7-18788a95ec55"},"vehicle_type_id":"4","last_reported":1728857274,"current_range_meters":16000,"station_id":"ce4bh112rcd13ifvqda0","pricing_plan_id":"cebpf4jnsgd1na2vs0mg"},{"bike_id":"553f1633-cc18-4788-b654-05245888551c","system_id":"levelo_inurba_marseille","lat":43.30881,"lon":5.39626,"is_reserved":false,"is_disabled":false,"rental_uris":{"android":"levelo://app?vid=553f1633-cc18-4788-b654-05245888551c","ios":"levelo://app?vid=553f1633-cc18-4788-b654-05245888551c"},"vehicle_type_id":"4","last_reported":1728857274,"current_range_meters":38000,"station_id":"ce4bh012rcd13ifvqcv0","pricing_plan_id":"cebpf4jnsgd1na2vs0mg"},{"bike_id":"d3b0bb8e-5632-4806-a896-1eb2f07e862a","system_id":"levelo_inurba_marseille","lat":43.29895,"lon":5.38137,"is_reserved":false,"is_disabled":false,"rental_uris":{"android":"levelo://app?vid=d3b0bb8e-5632-4806-a896-1eb2f07e862a","ios":"levelo://app?vid=d3b0bb8e-5632-4806-a896-1eb2f07e862a"},"vehicle_type_id":"4","last_reported":1728857274,"current_range_meters":27200,"station_id":"ce4bgj12rcd13ifvqbc0","pricing_plan_id":"cebpf4jnsgd1na2vs0mg"},{"bike_id":"402e2b18-2493-4b09-a5dd-0f549fefaf7a","system_id":"levelo_inurba_marseille","lat":43.24165,"lon":5.36399,"is_reserved":false,"is_disabled":false,"rental_uris":{"android":"levelo://app?vid=402e2b18-2493-4b09-a5dd-0f549fefaf7a","ios":"levelo://app?vid=402e2b18-2493-4b09-a5dd-0f549fefaf7a"},"vehicle_type_id":"4","last_reported":1728857274,"current_range_meters":38800,"station_id":"cpo36qri1sfpv3e86is0","pricing_plan_id":"cebpf4jnsgd1na2vs0mg"},{"bike_id":"86f622d8-25af-4828-be66-dd2949a95229","system_id":"levelo_inurba_marseille","lat":43.3133,"lon":5.39699,"is_reserved":false,"is_disabled":false,"rental_uris":{"android":"levelo://app?vid=86f622d8-25af-4828-be66-dd2949a95229","ios":"levelo://app?vid=86f622d8-25af-4828-be66-dd2949a95229"},"vehicle_type_id":"4","last_reported":1728857274,"current_range_meters":38000,"station_id":"ce4bgvp2rcd13ifvqcu0","pricing_plan_id":"cebpf4jnsgd1na2vs0mg"},{"bike_id":"711ecce0-57f7-48b0-999f-0cea9b1dfadf","system_id":"levelo_inurba_marseille","lat":43.30136,"lon":5.39863,"is_reserved":false,"is_disabled":false,"rental_uris":{"android":"levelo://app?vid=711ecce0-57f7-48b0-999f-0cea9b1dfadf","ios":"levelo://app?vid=711ecce0-57f7-48b0-999f-0cea9b1dfadf"},"vehicle_type_id":"4","last_reported":1728857274,"current_range_meters":32000,"station_id":"ce4bh0h2rcd13ifvqd40","pricing_plan_id":"cebpf4jnsgd1na2vs0mg"},{"bike_id":"af17fb0c-7e85-431a-9225-4350de6f5a93","system_id":"levelo_inurba_marseille","lat":43.29092,"lon":5.38129,"is_reserved":false,"is_disabled":false,"rental_uris":{"android":"levelo://app?vid=af17fb0c-7e85-431a-9225-4350de6f5a93","ios":"levelo://app?vid=af17fb0c-7e85-431a-9225-4350de6f5a93"},"vehicle_type_id":"4","last_reported":1728857274,"current_range_meters":14800,"station_id":"ce4bh512rcd13ifvqe2g","pricing_plan_id":"cebpf4jnsgd1na2vs0mg"},{"bike_id":"7563807c-d27a-4161-8a5f-4b0cb3141228","system_id":"levelo_inurba_marseille","lat":43.33721,"lon":5.39186,"is_reserved":false,"is_disabled":false,"rental_uris":{"android":"levelo://app?vid=7563807c-d27a-4161-8a5f-4b0cb3141228","ios":"levelo://app?vid=7563807c-d27a-4161-8a5f-4b0cb3141228"},"vehicle_type_id":"4","last_reported":1728857274,"current_range_meters":39200,"station_id":"ce4bhr92rcd13ifvqhsg","pricing_plan_id":"cebpf4jnsgd1na2vs0mg"},{"bike_id":"5bc9b78b-9615-45c0-a888-79c429dfa74a","system_id":"levelo_inurba_marseille","lat":43.33724,"lon":5.39187,"is_reserved":false,"is_disabled":false,"rental_uris":{"android":"levelo://app?vid=5bc9b78b-9615-45c0-a888-79c429dfa74a","ios":"levelo://app?vid=5bc9b78b-9615-45c0-a888-79c429dfa74a"},"vehicle_type_id":"4","last_reported":1728857274,"current_range_meters":14800,"station_id":"ce4bhr92rcd13ifvqhsg","pricing_plan_id":"cebpf4jnsgd1na2vs0mg"},{"bike_id":"d78c27bf-97c1-420b-82fb-48ca2bea5d28","system_id":"levelo_inurba_marseille","lat":43.26196,"lon":5.37922,"is_reserved":false,"is_disabled":false,"rental_uris":{"android":"levelo://app?vid=d78c27bf-97c1-420b-82fb-48ca2bea5d28","ios":"levelo://app?vid=d78c27bf-97c1-420b-82fb-48ca2bea5d28"},"vehicle_type_id":"4","last_reported":1728857274,"current_range_meters":17200,"station_id":"ce4bhjp2rcd13ifvqg90","pricing_plan_id":"cebpf4jnsgd1na2vs0mg"},{"bike_id":"eab156c8-6264-40e0-bbae-cac6708fe48f","system_id":"levelo_inurba_marseille","lat":43.3117,"lon":5.3871,"is_reserved":false,"is_disabled":false,"rental_uris":{"android":"levelo://app?vid=eab156c8-6264-40e0-bbae-cac6708fe48f","ios":"levelo://app?vid=eab156c8-6264-40e0-bbae-cac6708fe48f"},"vehicle_type_id":"4","last_reported":1728857274,"current_range_meters":24400,"station_id":"ce4bgv12rcd13ifvqcp0","pricing_plan_id":"cebpf4jnsgd1na2vs0mg"},{"bike_id":"7f2d711f-d10c-49f7-a63c-39d3df8ada71","system_id":"levelo_inurba_marseille","lat":43.28703,"lon":5.39985,"is_reserved":false,"is_disabled":false,"rental_uris":{"android":"levelo://app?vid=7f2d711f-d10c-49f7-a63c-39d3df8ada71","ios":"levelo://app?vid=7f2d711f-d10c-49f7-a63c-39d3df8ada71"},"vehicle_type_id":"4","last_reported":1728857274,"current_range_meters":31200,"station_id":"ce4bho92rcd13ifvqh3g","pricing_plan_id":"cebpf4jnsgd1na2vs0mg"},{"bike_id":"ea01ec7a-7c0c-4b8e-ac56-3690f2c189a3","system_id":"levelo_inurba_marseille","lat":43.26489,"lon":5.39542,"is_reserved":false,"is_disabled":false,"rental_uris":{"android":"levelo://app?vid=ea01ec7a-7c0c-4b8e-ac56-3690f2c189a3","ios":"levelo://app?vid=ea01ec7a-7c0c-4b8e-ac56-3690f2c189a3"},"vehicle_type_id":"4","last_reported":1728857274,"current_range_meters":37600,"station_id":"ce4bhi12rcd13ifvqfq0","pricing_plan_id":"cebpf4jnsgd1na2vs0mg"},{"bike_id":"9ee0338c-8e52-4972-bdcb-a43223a35eae","system_id":"levelo_inurba_marseille","lat":43.287154,"lon":5.39986,"is_reserved":false,"is_disabled":false,"rental_uris":{"android":"levelo://app?vid=9ee0338c-8e52-4972-bdcb-a43223a35eae","ios":"levelo://app?vid=9ee0338c-8e52-4972-bdcb-a43223a35eae"},"vehicle_type_id":"4","last_reported":1728857274,"current_range_meters":19200,"station_id":"ce4bho92rcd13ifvqh3g","pricing_plan_id":"cebpf4jnsgd1na2vs0mg"},{"bike_id":"24ddde74-3313-452c-a8e1-c554fbc08b52","system_id":"levelo_inurba_marseille","lat":43.2467,"lon":5.38167,"is_reserved":false,"is_disabled":false,"rental_uris":{"android":"levelo://app?vid=24ddde74-3313-452c-a8e1-c554fbc08b52","ios":"levelo://app?vid=24ddde74-3313-452c-a8e1-c554fbc08b52"},"vehicle_type_id":"4","last_reported":1728857274,"current_range_meters":27600,"station_id":"ce4bhih2rcd13ifvqfr0","pricing_plan_id":"cebpf4jnsgd1na2vs0mg"},{"bike_id":"33c8cb8f-4d93-4ca1-b394-19ac08e7af57","system_id":"levelo_inurba_marseille","lat":43.26206,"lon":5.37444,"is_reserved":false,"is_disabled":false,"rental_uris":{"android":"levelo://app?vid=33c8cb8f-4d93-4ca1-b394-19ac08e7af57","ios":"levelo://app?vid=33c8cb8f-4d93-4ca1-b394-19ac08e7af57"},"vehicle_type_id":"4","last_reported":1728857274,"current_range_meters":36800,"station_id":"ce4bhgp2rcd13ifvqfc0","pricing_plan_id":"cebpf4jnsgd1na2vs0mg"},{"bike_id":"45569ff7-7084-4ba3-868c-e6a316b5486d","system_id":"levelo_inurba_marseille","lat":43.29201,"lon":5.39315,"is_reserved":false,"is_disabled":false,"rental_uris":{"android":"levelo://app?vid=45569ff7-7084-4ba3-868c-e6a316b5486d","ios":"levelo://app?vid=45569ff7-7084-4ba3-868c-e6a316b5486d"},"vehicle_type_id":"4","last_reported":1728857274,"current_range_meters":24000,"station_id":"ce4bh192rcd13ifvqdd0","pricing_plan_id":"cebpf4jnsgd1na2vs0mg"},{"bike_id":"c5d29b8a-2a5c-4a22-a426-f50c1802da2a","system_id":"levelo_inurba_marseille","lat":43.29287,"lon":5.36832,"is_reserved":false,"is_disabled":false,"rental_uris":{"android":"levelo://app?vid=c5d29b8a-2a5c-4a22-a426-f50c1802da2a","ios":"levelo://app?vid=c5d29b8a-2a5c-4a22-a426-f50c1802da2a"},"vehicle_type_id":"4","last_reported":1728857274,"current_range_meters":25600,"station_id":"ce4bhbp2rcd13ifvqesg","pricing_plan_id":"cebpf4jnsgd1na2vs0mg"},{"bike_id":"3c3fc797-2a71-4405-b965-3f78b6a6e0d1","system_id":"levelo_inurba_marseille","lat":43.278917,"lon":5.395558,"is_reserved":false,"is_disabled":false,"rental_uris":{"android":"levelo://app?vid=3c3fc797-2a71-4405-b965-3f78b6a6e0d1","ios":"levelo://app?vid=3c3fc797-2a71-4405-b965-3f78b6a6e0d1"},"vehicle_type_id":"4","last_reported":1728857274,"current_range_meters":24800,"station_id":"ce4bhf92rcd13ifvqf40","pricing_plan_id":"cebpf4jnsgd1na2vs0mg"},{"bike_id":"c648c189-2a8f-4bfe-85d2-58960bdf3090","system_id":"levelo_inurba_marseille","lat":43.30456,"lon":5.40183,"is_reserved":false,"is_disabled":false,"rental_uris":{"android":"levelo://app?vid=c648c189-2a8f-4bfe-85d2-58960bdf3090","ios":"levelo://app?vid=c648c189-2a8f-4bfe-85d2-58960bdf3090"},"vehicle_type_id":"4","last_reported":1728857274,"current_range_meters":32400,"station_id":"","pricing_plan_id":"cebpf4jnsgd1na2vs0mg"},{"bike_id":"1ea430a4-6e2e-47e9-b9ca-40864fc5f487","system_id":"levelo_inurba_marseille","lat":43.2894,"lon":5.36639,"is_reserved":false,"is_disabled":false,"rental_uris":{"android":"levelo://app?vid=1ea430a4-6e2e-47e9-b9ca-40864fc5f487","ios":"levelo://app?vid=1ea430a4-6e2e-47e9-b9ca-40864fc5f487"},"vehicle_type_id":"4","last_reported":1728857274,"current_range_meters":17600,"station_id":"ce4bhap2rcd13ifvqek0","pricing_plan_id":"cebpf4jnsgd1na2vs0mg"},{"bike_id":"729b5747-2745-44f4-8e45-767e543cac8a","system_id":"levelo_inurba_marseille","lat":43.33034,"lon":5.38936,"is_reserved":false,"is_disabled":false,"rental_uris":{"android":"levelo://app?vid=729b5747-2745-44f4-8e45-767e543cac8a","ios":"levelo://app?vid=729b5747-2745-44f4-8e45-767e543cac8a"},"vehicle_type_id":"4","last_reported":1728857274,"current_range_meters":36400,"station_id":"","pricing_plan_id":"cebpf4jnsgd1na2vs0mg"},{"bike_id":"2aefec87-76db-4148-be79-3093f38525b3","system_id":"levelo_inurba_marseille","lat":43.29916,"lon":5.37469,"is_reserved":false,"is_disabled":false,"rental_uris":{"android":"levelo://app?vid=2aefec87-76db-4148-be79-3093f38525b3","ios":"levelo://app?vid=2aefec87-76db-4148-be79-3093f38525b3"},"vehicle_type_id":"4","last_reported":1728857274,"current_range_meters":28400,"station_id":"ce4bgjh2rcd13ifvqbg0","pricing_plan_id":"cebpf4jnsgd1na2vs0mg"},{"bike_id":"6a98afc1-6dae-40c7-a24c-079a1265e2b9","system_id":"levelo_inurba_marseille","lat":43.2681,"lon":5.40273,"is_reserved":false,"is_disabled":false,"rental_uris":{"android":"levelo://app?vid=6a98afc1-6dae-40c7-a24c-079a1265e2b9","ios":"levelo://app?vid=6a98afc1-6dae-40c7-a24c-079a1265e2b9"},"vehicle_type_id":"4","last_reported":1728857274,"current_range_meters":24800,"station_id":"ce501612rcd8frsf0b60","pricing_plan_id":"cebpf4jnsgd1na2vs0mg"},{"bike_id":"3f8b5162-1b26-4522-8372-1604e89ae5b7","system_id":"levelo_inurba_marseille","lat":43.32348,"lon":5.40622,"is_reserved":false,"is_disabled":false,"rental_uris":{"android":"levelo://app?vid=3f8b5162-1b26-4522-8372-1604e89ae5b7","ios":"levelo://app?vid=3f8b5162-1b26-4522-8372-1604e89ae5b7"},"vehicle_type_id":"4","last_reported":1728857274,"current_range_meters":4400,"station_id":"ce4bhq92rcd13ifvqhjg","pricing_plan_id":"cebpf4jnsgd1na2vs0mg"},{"bike_id":"0e5eea78-f6ef-4bab-b0ff-4377428d85df","system_id":"levelo_inurba_marseille","lat":43.25118,"lon":5.40321,"is_reserved":false,"is_disabled":false,"rental_uris":{"android":"levelo://app?vid=0e5eea78-f6ef-4bab-b0ff-4377428d85df","ios":"levelo://app?vid=0e5eea78-f6ef-4bab-b0ff-4377428d85df"},"vehicle_type_id":"4","last_reported":1728857274,"current_range_meters":16800,"station_id":"ce4bhlh2rcd13ifvqgig","pricing_plan_id":"cebpf4jnsgd1na2vs0mg"},{"bike_id":"73950dea-be8e-4ef4-87fe-74130282ab0c","system_id":"levelo_inurba_marseille","lat":43.2846,"lon":5.35882,"is_reserved":false,"is_disabled":false,"rental_uris":{"android":"levelo://app?vid=73950dea-be8e-4ef4-87fe-74130282ab0c","ios":"levelo://app?vid=73950dea-be8e-4ef4-87fe-74130282ab0c"},"vehicle_type_id":"4","last_reported":1728857274,"current_range_meters":38400,"station_id":"ce4bhah2rcd13ifvqei0","pricing_plan_id":"cebpf4jnsgd1na2vs0mg"},{"bike_id":"91f6673b-90a8-411d-99db-7565c73ddd0e","system_id":"levelo_inurba_marseille","lat":43.33023,"lon":5.39042,"is_reserved":false,"is_disabled":false,"rental_uris":{"android":"levelo://app?vid=91f6673b-90a8-411d-99db-7565c73ddd0e","ios":"levelo://app?vid=91f6673b-90a8-411d-99db-7565c73ddd0e"},"vehicle_type_id":"4","last_reported":1728857274,"current_range_meters":36000,"station_id":"ce4bhr92rcd13ifvqhrg","pricing_plan_id":"cebpf4jnsgd1na2vs0mg"},{"bike_id":"62b35810-2788-484a-8c4e-b06cc56a6d95","system_id":"levelo_inurba_marseille","lat":43.28456,"lon":5.35887,"is_reserved":false,"is_disabled":false,"rental_uris":{"android":"levelo://app?vid=62b35810-2788-484a-8c4e-b06cc56a6d95","ios":"levelo://app?vid=62b35810-2788-484a-8c4e-b06cc56a6d95"},"vehicle_type_id":"4","last_reported":1728857274,"current_range_meters":3600,"station_id":"ce4bhah2rcd13ifvqei0","pricing_plan_id":"cebpf4jnsgd1na2vs0mg"},{"bike_id":"fa4869fc-68cf-42b9-a659-324316e1f009","system_id":"levelo_inurba_marseille","lat":43.31111,"lon":5.37774,"is_reserved":false,"is_disabled":false,"rental_uris":{"android":"levelo://app?vid=fa4869fc-68cf-42b9-a659-324316e1f009","ios":"levelo://app?vid=fa4869fc-68cf-42b9-a659-324316e1f009"},"vehicle_type_id":"4","last_reported":1728857274,"current_range_meters":37600,"station_id":"ce4bgt92rcd13ifvqcg0","pricing_plan_id":"cebpf4jnsgd1na2vs0mg"},{"bike_id":"731e188b-6905-450f-bc90-b79536156775","system_id":"levelo_inurba_marseille","lat":43.30961,"lon":5.39035,"is_reserved":false,"is_disabled":false,"rental_uris":{"android":"levelo://app?vid=731e188b-6905-450f-bc90-b79536156775","ios":"levelo://app?vid=731e188b-6905-450f-bc90-b79536156775"},"vehicle_type_id":"4","last_reported":1728857274,"current_range_meters":16800,"station_id":"ce4bgup2rcd13ifvqco0","pricing_plan_id":"cebpf4jnsgd1na2vs0mg"},{"bike_id":"904fffa1-be2e-4a19-ad67-d911fd6a59c1","system_id":"levelo_inurba_marseille","lat":43.27939,"lon":5.41046,"is_reserved":false,"is_disabled":false,"rental_uris":{"android":"levelo://app?vid=904fffa1-be2e-4a19-ad67-d911fd6a59c1","ios":"levelo://app?vid=904fffa1-be2e-4a19-ad67-d911fd6a59c1"},"vehicle_type_id":"4","last_reported":1728857274,"current_range_meters":10800,"station_id":"ce4bhnp2rcd13ifvqh0g","pricing_plan_id":"cebpf4jnsgd1na2vs0mg"},{"bike_id":"716ac847-e15b-45b1-a79e-82530dd35f01","system_id":"levelo_inurba_marseille","lat":43.295227,"lon":5.390408,"is_reserved":false,"is_disabled":false,"rental_uris":{"android":"levelo://app?vid=716ac847-e15b-45b1-a79e-82530dd35f01","ios":"levelo://app?vid=716ac847-e15b-45b1-a79e-82530dd35f01"},"vehicle_type_id":"4","last_reported":1728857274,"current_range_meters":38400,"station_id":"ce4bh3h2rcd13ifvqdo0","pricing_plan_id":"cebpf4jnsgd1na2vs0mg"},{"bike_id":"6f7399da-6330-407f-b021-d53846382c0f","system_id":"levelo_inurba_marseille","lat":43.25001,"lon":5.38928,"is_reserved":false,"is_disabled":false,"rental_uris":{"android":"levelo://app?vid=6f7399da-6330-407f-b021-d53846382c0f","ios":"levelo://app?vid=6f7399da-6330-407f-b021-d53846382c0f"},"vehicle_type_id":"4","last_reported":1728857274,"current_range_meters":36000,"station_id":"ce4bhgp2rcd13ifvqfd0","pricing_plan_id":"cebpf4jnsgd1na2vs0mg"},{"bike_id":"2ab423a0-58a0-4125-b3de-29c6611f5114","system_id":"levelo_inurba_marseille","lat":43.25086,"lon":5.39519,"is_reserved":false,"is_disabled":false,"rental_uris":{"android":"levelo://app?vid=2ab423a0-58a0-4125-b3de-29c6611f5114","ios":"levelo://app?vid=2ab423a0-58a0-4125-b3de-29c6611f5114"},"vehicle_type_id":"4","last_reported":1728857274,"current_range_meters":38800,"station_id":"ce4bhm12rcd13ifvqgkg","pricing_plan_id":"cebpf4jnsgd1na2vs0mg"},{"bike_id":"1f535ebf-e182-4b2e-b9aa-c39959f8ac74","system_id":"levelo_inurba_marseille","lat":43.28937,"lon":5.39639,"is_reserved":false,"is_disabled":false,"rental_uris":{"android":"levelo://app?vid=1f535ebf-e182-4b2e-b9aa-c39959f8ac74","ios":"levelo://app?vid=1f535ebf-e182-4b2e-b9aa-c39959f8ac74"},"vehicle_type_id":"4","last_reported":1728857274,"current_range_meters":38800,"station_id":"ce4bh3h2rcd13ifvqdn0","pricing_plan_id":"cebpf4jnsgd1na2vs0mg"},{"bike_id":"2e8fd83d-f207-42e0-b3df-615bd4818f53","system_id":"levelo_inurba_marseille","lat":43.308044,"lon":5.396251,"is_reserved":false,"is_disabled":false,"rental_uris":{"android":"levelo://app?vid=2e8fd83d-f207-42e0-b3df-615bd4818f53","ios":"levelo://app?vid=2e8fd83d-f207-42e0-b3df-615bd4818f53"},"vehicle_type_id":"4","last_reported":1728857274,"current_range_meters":20400,"station_id":"","pricing_plan_id":"cebpf4jnsgd1na2vs0mg"},{"bike_id":"bbabfd98-52fb-43a4-a250-8b3a64c37ca9","system_id":"levelo_inurba_marseille","lat":43.27832,"lon":5.39221,"is_reserved":false,"is_disabled":false,"rental_uris":{"android":"levelo://app?vid=bbabfd98-52fb-43a4-a250-8b3a64c37ca9","ios":"levelo://app?vid=bbabfd98-52fb-43a4-a250-8b3a64c37ca9"},"vehicle_type_id":"4","last_reported":1728857274,"current_range_meters":37600,"station_id":"ce4bhjp2rcd13ifvqga0","pricing_plan_id":"cebpf4jnsgd1na2vs0mg"},{"bike_id":"b606bc30-8822-468e-8d09-c1e75795caf2","system_id":"levelo_inurba_marseille","lat":43.29277,"lon":5.40113,"is_reserved":false,"is_disabled":false,"rental_uris":{"android":"levelo://app?vid=b606bc30-8822-468e-8d09-c1e75795caf2","ios":"levelo://app?vid=b606bc30-8822-468e-8d09-c1e75795caf2"},"vehicle_type_id":"4","last_reported":1728857274,"current_range_meters":18000,"station_id":"ce4bh312rcd13ifvqdk0","pricing_plan_id":"cebpf4jnsgd1na2vs0mg"},{"bike_id":"699451ba-dba1-4cc7-b931-20482fc283a8","system_id":"levelo_inurba_marseille","lat":43.30645,"lon":5.40085,"is_reserved":false,"is_disabled":false,"rental_uris":{"android":"levelo://app?vid=699451ba-dba1-4cc7-b931-20482fc283a8","ios":"levelo://app?vid=699451ba-dba1-4cc7-b931-20482fc283a8"},"vehicle_type_id":"4","last_reported":1728857274,"current_range_meters":38800,"station_id":"ce4bh112rcd13ifvqda0","pricing_plan_id":"cebpf4jnsgd1na2vs0mg"},{"bike_id":"1b8c6c6d-1fe9-48ef-81fc-2e3864db520f","system_id":"levelo_inurba_marseille","lat":43.29553,"lon":5.42283,"is_reserved":false,"is_disabled":false,"rental_uris":{"android":"levelo://app?vid=1b8c6c6d-1fe9-48ef-81fc-2e3864db520f","ios":"levelo://app?vid=1b8c6c6d-1fe9-48ef-81fc-2e3864db520f"},"vehicle_type_id":"4","last_reported":1728857274,"current_range_meters":35200,"station_id":"ce4bhph2rcd13ifvqhdg","pricing_plan_id":"cebpf4jnsgd1na2vs0mg"},{"bike_id":"c91ad5a0-2159-4a66-9b8d-fe0bbcbe1933","system_id":"levelo_inurba_marseille","lat":43.31484,"lon":5.37308,"is_reserved":false,"is_disabled":false,"rental_uris":{"android":"levelo://app?vid=c91ad5a0-2159-4a66-9b8d-fe0bbcbe1933","ios":"levelo://app?vid=c91ad5a0-2159-4a66-9b8d-fe0bbcbe1933"},"vehicle_type_id":"4","last_reported":1728857274,"current_range_meters":25600,"station_id":"ce4bgt12rcd13ifvqcd0","pricing_plan_id":"cebpf4jnsgd1na2vs0mg"},{"bike_id":"7c44ed87-ec8a-40e0-a8d0-8ff43141f698","system_id":"levelo_inurba_marseille","lat":43.29843,"lon":5.36284,"is_reserved":false,"is_disabled":false,"rental_uris":{"android":"levelo://app?vid=7c44ed87-ec8a-40e0-a8d0-8ff43141f698","ios":"levelo://app?vid=7c44ed87-ec8a-40e0-a8d0-8ff43141f698"},"vehicle_type_id":"4","last_reported":1728857274,"current_range_meters":38800,"station_id":"ce4bgpp2rcd13ifvqc3g","pricing_plan_id":"cebpf4jnsgd1na2vs0mg"},{"bike_id":"58821253-536d-48f0-9016-f878c99d9361","system_id":"levelo_inurba_marseille","lat":43.2306,"lon":5.35497,"is_reserved":false,"is_disabled":false,"rental_uris":{"android":"levelo://app?vid=58821253-536d-48f0-9016-f878c99d9361","ios":"levelo://app?vid=58821253-536d-48f0-9016-f878c99d9361"},"vehicle_type_id":"4","last_reported":1728857274,"current_range_meters":38800,"station_id":"cpo3342slgdg3j2ifvpg","pricing_plan_id":"cebpf4jnsgd1na2vs0mg"},{"bike_id":"0641b30a-fdd1-4ac5-a858-3a3a6649e468","system_id":"levelo_inurba_marseille","lat":43.29269,"lon":5.368572,"is_reserved":false,"is_disabled":false,"rental_uris":{"android":"levelo://app?vid=0641b30a-fdd1-4ac5-a858-3a3a6649e468","ios":"levelo://app?vid=0641b30a-fdd1-4ac5-a858-3a3a6649e468"},"vehicle_type_id":"4","last_reported":1728857274,"current_range_meters":22000,"station_id":"ce4bhbp2rcd13ifvqesg","pricing_plan_id":"cebpf4jnsgd1na2vs0mg"},{"bike_id":"5c7c9257-6498-40da-aaa0-3d36b8687f71","system_id":"levelo_inurba_marseille","lat":43.28615,"lon":5.35101,"is_reserved":false,"is_disabled":false,"rental_uris":{"android":"levelo://app?vid=5c7c9257-6498-40da-aaa0-3d36b8687f71","ios":"levelo://app?vid=5c7c9257-6498-40da-aaa0-3d36b8687f71"},"vehicle_type_id":"4","last_reported":1728857274,"current_range_meters":38800,"station_id":"ce4bhch2rcd13ifvqeug","pricing_plan_id":"cebpf4jnsgd1na2vs0mg"},{"bike_id":"6079e7aa-0ee6-4d31-aa0e-861f57578c9f","system_id":"levelo_inurba_marseille","lat":43.28947,"lon":5.36395,"is_reserved":false,"is_disabled":false,"rental_uris":{"android":"levelo://app?vid=6079e7aa-0ee6-4d31-aa0e-861f57578c9f","ios":"levelo://app?vid=6079e7aa-0ee6-4d31-aa0e-861f57578c9f"},"vehicle_type_id":"4","last_reported":1728857274,"current_range_meters":38800,"station_id":"ce4bhc92rcd13ifvqetg","pricing_plan_id":"cebpf4jnsgd1na2vs0mg"},{"bike_id":"d7ed9a21-0e85-466b-84e2-bc5a3810ccb9","system_id":"levelo_inurba_marseille","lat":43.28422,"lon":5.37514,"is_reserved":false,"is_disabled":false,"rental_uris":{"android":"levelo://app?vid=d7ed9a21-0e85-466b-84e2-bc5a3810ccb9","ios":"levelo://app?vid=d7ed9a21-0e85-466b-84e2-bc5a3810ccb9"},"vehicle_type_id":"4","last_reported":1728857274,"current_range_meters":7200,"station_id":"ce4bh412rcd13ifvqds0","pricing_plan_id":"cebpf4jnsgd1na2vs0mg"},{"bike_id":"ec2f5956-0bd0-4154-8f53-b28cdc549918","system_id":"levelo_inurba_marseille","lat":43.32363,"lon":5.38877,"is_reserved":false,"is_disabled":false,"rental_uris":{"android":"levelo://app?vid=ec2f5956-0bd0-4154-8f53-b28cdc549918","ios":"levelo://app?vid=ec2f5956-0bd0-4154-8f53-b28cdc549918"},"vehicle_type_id":"4","last_reported":1728857274,"current_range_meters":6800,"station_id":"ce4bhqp2rcd13ifvqhog","pricing_plan_id":"cebpf4jnsgd1na2vs0mg"},{"bike_id":"77ee487e-3d9b-4968-bbfc-de639a95bf41","system_id":"levelo_inurba_marseille","lat":43.32365,"lon":5.38884,"is_reserved":false,"is_disabled":false,"rental_uris":{"android":"levelo://app?vid=77ee487e-3d9b-4968-bbfc-de639a95bf41","ios":"levelo://app?vid=77ee487e-3d9b-4968-bbfc-de639a95bf41"},"vehicle_type_id":"4","last_reported":1728857274,"current_range_meters":17200,"station_id":"ce4bhqp2rcd13ifvqhog","pricing_plan_id":"cebpf4jnsgd1na2vs0mg"},{"bike_id":"89db7c06-9621-4697-8bcc-31fbe066500c","system_id":"levelo_inurba_marseille","lat":43.28463,"lon":5.35891,"is_reserved":false,"is_disabled":false,"rental_uris":{"android":"levelo://app?vid=89db7c06-9621-4697-8bcc-31fbe066500c","ios":"levelo://app?vid=89db7c06-9621-4697-8bcc-31fbe066500c"},"vehicle_type_id":"4","last_reported":1728857274,"current_range_meters":29600,"station_id":"ce4bhah2rcd13ifvqei0","pricing_plan_id":"cebpf4jnsgd1na2vs0mg"},{"bike_id":"a8c2a60d-4f46-48c5-ac57-9a29719e7843","system_id":"levelo_inurba_marseille","lat":43.31169,"lon":5.38723,"is_reserved":false,"is_disabled":false,"rental_uris":{"android":"levelo://app?vid=a8c2a60d-4f46-48c5-ac57-9a29719e7843","ios":"levelo://app?vid=a8c2a60d-4f46-48c5-ac57-9a29719e7843"},"vehicle_type_id":"4","last_reported":1728857274,"current_range_meters":38800,"station_id":"ce4bgv12rcd13ifvqcp0","pricing_plan_id":"cebpf4jnsgd1na2vs0mg"},{"bike_id":"9ee8defc-7efe-408e-a922-86f90c58eea8","system_id":"levelo_inurba_marseille","lat":43.28725,"lon":5.36089,"is_reserved":false,"is_disabled":false,"rental_uris":{"android":"levelo://app?vid=9ee8defc-7efe-408e-a922-86f90c58eea8","ios":"levelo://app?vid=9ee8defc-7efe-408e-a922-86f90c58eea8"},"vehicle_type_id":"4","last_reported":1728857274,"current_range_meters":27200,"station_id":"cki0cbj6b192h4jlfktg","pricing_plan_id":"cebpf4jnsgd1na2vs0mg"},{"bike_id":"c5e1c5f0-4d0d-43b4-a5ce-bda7a5679e5e","system_id":"levelo_inurba_marseille","lat":43.30937,"lon":5.40142,"is_reserved":false,"is_disabled":false,"rental_uris":{"android":"levelo://app?vid=c5e1c5f0-4d0d-43b4-a5ce-bda7a5679e5e","ios":"levelo://app?vid=c5e1c5f0-4d0d-43b4-a5ce-bda7a5679e5e"},"vehicle_type_id":"4","last_reported":1728857274,"current_range_meters":17200,"station_id":"ce4bgvp2rcd13ifvqct0","pricing_plan_id":"cebpf4jnsgd1na2vs0mg"},{"bike_id":"27e30b31-ae65-40a7-9382-c3f316db6b2b","system_id":"levelo_inurba_marseille","lat":43.31068,"lon":5.38348,"is_reserved":false,"is_disabled":false,"rental_uris":{"android":"levelo://app?vid=27e30b31-ae65-40a7-9382-c3f316db6b2b","ios":"levelo://app?vid=27e30b31-ae65-40a7-9382-c3f316db6b2b"},"vehicle_type_id":"4","last_reported":1728857274,"current_range_meters":38800,"station_id":"ce4bgv92rcd13ifvqcr0","pricing_plan_id":"cebpf4jnsgd1na2vs0mg"},{"bike_id":"7c095d3c-604a-4602-b927-64e3a8b70e01","system_id":"levelo_inurba_marseille","lat":43.29032,"lon":5.37567,"is_reserved":false,"is_disabled":false,"rental_uris":{"android":"levelo://app?vid=7c095d3c-604a-4602-b927-64e3a8b70e01","ios":"levelo://app?vid=7c095d3c-604a-4602-b927-64e3a8b70e01"},"vehicle_type_id":"4","last_reported":1728857274,"current_range_meters":33600,"station_id":"ce4bh692rcd13ifvqe90","pricing_plan_id":"cebpf4jnsgd1na2vs0mg"},{"bike_id":"cdde71fa-933f-47ef-8a23-39142a076aea","system_id":"levelo_inurba_marseille","lat":43.29544,"lon":5.42287,"is_reserved":false,"is_disabled":false,"rental_uris":{"android":"levelo://app?vid=cdde71fa-933f-47ef-8a23-39142a076aea","ios":"levelo://app?vid=cdde71fa-933f-47ef-8a23-39142a076aea"},"vehicle_type_id":"4","last_reported":1728857274,"current_range_meters":38800,"station_id":"ce4bhph2rcd13ifvqhdg","pricing_plan_id":"cebpf4jnsgd1na2vs0mg"},{"bike_id":"aae33064-4853-4bd5-9ae9-1d2a4ee45368","system_id":"levelo_inurba_marseille","lat":43.24169,"lon":5.36402,"is_reserved":false,"is_disabled":false,"rental_uris":{"android":"levelo://app?vid=aae33064-4853-4bd5-9ae9-1d2a4ee45368","ios":"levelo://app?vid=aae33064-4853-4bd5-9ae9-1d2a4ee45368"},"vehicle_type_id":"4","last_reported":1728857274,"current_range_meters":33600,"station_id":"cpo36qri1sfpv3e86is0","pricing_plan_id":"cebpf4jnsgd1na2vs0mg"},{"bike_id":"988d83b5-7e1f-43e3-8759-952abfd48737","system_id":"levelo_inurba_marseille","lat":43.30937,"lon":5.40138,"is_reserved":false,"is_disabled":false,"rental_uris":{"android":"levelo://app?vid=988d83b5-7e1f-43e3-8759-952abfd48737","ios":"levelo://app?vid=988d83b5-7e1f-43e3-8759-952abfd48737"},"vehicle_type_id":"4","last_reported":1728857274,"current_range_meters":38800,"station_id":"ce4bgvp2rcd13ifvqct0","pricing_plan_id":"cebpf4jnsgd1na2vs0mg"},{"bike_id":"9d478290-d007-4292-bc2e-170e50b123b0","system_id":"levelo_inurba_marseille","lat":43.28715,"lon":5.37944,"is_reserved":false,"is_disabled":false,"rental_uris":{"android":"levelo://app?vid=9d478290-d007-4292-bc2e-170e50b123b0","ios":"levelo://app?vid=9d478290-d007-4292-bc2e-170e50b123b0"},"vehicle_type_id":"4","last_reported":1728857274,"current_range_meters":38800,"station_id":"ce4bh9p2rcd13ifvqec0","pricing_plan_id":"cebpf4jnsgd1na2vs0mg"},{"bike_id":"38118819-5b41-45b7-b8fe-8a84fcfa5a10","system_id":"levelo_inurba_marseille","lat":43.29043,"lon":5.39969,"is_reserved":false,"is_disabled":false,"rental_uris":{"android":"levelo://app?vid=38118819-5b41-45b7-b8fe-8a84fcfa5a10","ios":"levelo://app?vid=38118819-5b41-45b7-b8fe-8a84fcfa5a10"},"vehicle_type_id":"4","last_reported":1728857274,"current_range_meters":8400,"station_id":"ce4bh392rcd13ifvqdm0","pricing_plan_id":"cebpf4jnsgd1na2vs0mg"},{"bike_id":"80649d64-c5a5-427e-bc60-508b8d595ff1","system_id":"levelo_inurba_marseille","lat":43.29518,"lon":5.39396,"is_reserved":false,"is_disabled":false,"rental_uris":{"android":"levelo://app?vid=80649d64-c5a5-427e-bc60-508b8d595ff1","ios":"levelo://app?vid=80649d64-c5a5-427e-bc60-508b8d595ff1"},"vehicle_type_id":"4","last_reported":1728857274,"current_range_meters":38800,"station_id":"ce4bgt92rcd13ifvqcf0","pricing_plan_id":"cebpf4jnsgd1na2vs0mg"},{"bike_id":"8e03b7ab-5ef8-4ffa-adb2-042801441b1b","system_id":"levelo_inurba_marseille","lat":43.31505,"lon":5.37304,"is_reserved":false,"is_disabled":false,"rental_uris":{"android":"levelo://app?vid=8e03b7ab-5ef8-4ffa-adb2-042801441b1b","ios":"levelo://app?vid=8e03b7ab-5ef8-4ffa-adb2-042801441b1b"},"vehicle_type_id":"4","last_reported":1728857274,"current_range_meters":38800,"station_id":"ce4bgt12rcd13ifvqcd0","pricing_plan_id":"cebpf4jnsgd1na2vs0mg"},{"bike_id":"7e48b29b-ca40-4756-951e-b5d3cf62810f","system_id":"levelo_inurba_marseille","lat":43.30648,"lon":5.40087,"is_reserved":false,"is_disabled":false,"rental_uris":{"android":"levelo://app?vid=7e48b29b-ca40-4756-951e-b5d3cf62810f","ios":"levelo://app?vid=7e48b29b-ca40-4756-951e-b5d3cf62810f"},"vehicle_type_id":"4","last_reported":1728857274,"current_range_meters":16400,"station_id":"ce4bh112rcd13ifvqda0","pricing_plan_id":"cebpf4jnsgd1na2vs0mg"},{"bike_id":"aad69708-28ac-43e6-945e-619f5a7c6bfd","system_id":"levelo_inurba_marseille","lat":43.33781,"lon":5.37443,"is_reserved":false,"is_disabled":false,"rental_uris":{"android":"levelo://app?vid=aad69708-28ac-43e6-945e-619f5a7c6bfd","ios":"levelo://app?vid=aad69708-28ac-43e6-945e-619f5a7c6bfd"},"vehicle_type_id":"4","last_reported":1728857274,"current_range_meters":32000,"station_id":"","pricing_plan_id":"cebpf4jnsgd1na2vs0mg"},{"bike_id":"ce666276-9867-42a9-ac83-fe792af6c036","system_id":"levelo_inurba_marseille","lat":43.28706,"lon":5.37393,"is_reserved":false,"is_disabled":false,"rental_uris":{"android":"levelo://app?vid=ce666276-9867-42a9-ac83-fe792af6c036","ios":"levelo://app?vid=ce666276-9867-42a9-ac83-fe792af6c036"},"vehicle_type_id":"4","last_reported":1728857274,"current_range_meters":38800,"station_id":"ce4bh3p2rcd13ifvqdq0","pricing_plan_id":"cebpf4jnsgd1na2vs0mg"},{"bike_id":"6c5cf327-7215-4845-991f-adde98526108","system_id":"levelo_inurba_marseille","lat":43.30891,"lon":5.39642,"is_reserved":false,"is_disabled":false,"rental_uris":{"android":"levelo://app?vid=6c5cf327-7215-4845-991f-adde98526108","ios":"levelo://app?vid=6c5cf327-7215-4845-991f-adde98526108"},"vehicle_type_id":"4","last_reported":1728857274,"current_range_meters":32800,"station_id":"ce4bh012rcd13ifvqcv0","pricing_plan_id":"cebpf4jnsgd1na2vs0mg"},{"bike_id":"1434b983-f7f2-4952-9578-3b4de6cb87c7","system_id":"levelo_inurba_marseille","lat":43.28413,"lon":5.3752,"is_reserved":false,"is_disabled":false,"rental_uris":{"android":"levelo://app?vid=1434b983-f7f2-4952-9578-3b4de6cb87c7","ios":"levelo://app?vid=1434b983-f7f2-4952-9578-3b4de6cb87c7"},"vehicle_type_id":"4","last_reported":1728857274,"current_range_meters":26000,"station_id":"ce4bh412rcd13ifvqds0","pricing_plan_id":"cebpf4jnsgd1na2vs0mg"},{"bike_id":"92ffd6bd-fff3-48de-962d-2fccf89bc6a0","system_id":"levelo_inurba_marseille","lat":43.301462,"lon":5.380795,"is_reserved":false,"is_disabled":false,"rental_uris":{"android":"levelo://app?vid=92ffd6bd-fff3-48de-962d-2fccf89bc6a0","ios":"levelo://app?vid=92ffd6bd-fff3-48de-962d-2fccf89bc6a0"},"vehicle_type_id":"4","last_reported":1728857274,"current_range_meters":15200,"station_id":"ce4bh412rcd13ifvqdr0","pricing_plan_id":"cebpf4jnsgd1na2vs0mg"},{"bike_id":"1a5f8a4c-aa76-4c8a-b27f-58a87354375b","system_id":"levelo_inurba_marseille","lat":43.31334,"lon":5.39693,"is_reserved":false,"is_disabled":false,"rental_uris":{"android":"levelo://app?vid=1a5f8a4c-aa76-4c8a-b27f-58a87354375b","ios":"levelo://app?vid=1a5f8a4c-aa76-4c8a-b27f-58a87354375b"},"vehicle_type_id":"4","last_reported":1728857274,"current_range_meters":12400,"station_id":"ce4bgvp2rcd13ifvqcu0","pricing_plan_id":"cebpf4jnsgd1na2vs0mg"},{"bike_id":"d8fedf47-a563-433a-905f-afad50f6dc0c","system_id":"levelo_inurba_marseille","lat":43.30895,"lon":5.39627,"is_reserved":false,"is_disabled":false,"rental_uris":{"android":"levelo://app?vid=d8fedf47-a563-433a-905f-afad50f6dc0c","ios":"levelo://app?vid=d8fedf47-a563-433a-905f-afad50f6dc0c"},"vehicle_type_id":"4","last_reported":1728857274,"current_range_meters":12800,"station_id":"ce4bh012rcd13ifvqcv0","pricing_plan_id":"cebpf4jnsgd1na2vs0mg"},{"bike_id":"aa89d08a-5963-4b35-9285-53c0ad4f999f","system_id":"levelo_inurba_marseille","lat":43.24081,"lon":5.3775,"is_reserved":false,"is_disabled":false,"rental_uris":{"android":"levelo://app?vid=aa89d08a-5963-4b35-9285-53c0ad4f999f","ios":"levelo://app?vid=aa89d08a-5963-4b35-9285-53c0ad4f999f"},"vehicle_type_id":"4","last_reported":1728857274,"current_range_meters":22400,"station_id":"ce4bhnp2rcd13ifvqgvg","pricing_plan_id":"cebpf4jnsgd1na2vs0mg"},{"bike_id":"35983d65-e7a5-415a-b102-7f0aac4b39f7","system_id":"levelo_inurba_marseille","lat":43.23195,"lon":5.35559,"is_reserved":false,"is_disabled":false,"rental_uris":{"android":"levelo://app?vid=35983d65-e7a5-415a-b102-7f0aac4b39f7","ios":"levelo://app?vid=35983d65-e7a5-415a-b102-7f0aac4b39f7"},"vehicle_type_id":"4","last_reported":1728857274,"current_range_meters":38800,"station_id":"ce4bhu92rcd13ifvqi70","pricing_plan_id":"cebpf4jnsgd1na2vs0mg"},{"bike_id":"da75c6ab-4b33-42fc-a8ee-3e0f59ee301e","system_id":"levelo_inurba_marseille","lat":43.3112,"lon":5.37758,"is_reserved":false,"is_disabled":false,"rental_uris":{"android":"levelo://app?vid=da75c6ab-4b33-42fc-a8ee-3e0f59ee301e","ios":"levelo://app?vid=da75c6ab-4b33-42fc-a8ee-3e0f59ee301e"},"vehicle_type_id":"4","last_reported":1728857274,"current_range_meters":38800,"station_id":"ce4bgt92rcd13ifvqcg0","pricing_plan_id":"cebpf4jnsgd1na2vs0mg"},{"bike_id":"96dead0d-2dfd-4594-8b56-f4562f0a3f62","system_id":"levelo_inurba_marseille","lat":43.287232,"lon":5.379396,"is_reserved":false,"is_disabled":false,"rental_uris":{"android":"levelo://app?vid=96dead0d-2dfd-4594-8b56-f4562f0a3f62","ios":"levelo://app?vid=96dead0d-2dfd-4594-8b56-f4562f0a3f62"},"vehicle_type_id":"4","last_reported":1728857274,"current_range_meters":38800,"station_id":"ce4bh9p2rcd13ifvqec0","pricing_plan_id":"cebpf4jnsgd1na2vs0mg"},{"bike_id":"61675474-cc78-493e-bed3-2492cad243f9","system_id":"levelo_inurba_marseille","lat":43.32331,"lon":5.40618,"is_reserved":false,"is_disabled":false,"rental_uris":{"android":"levelo://app?vid=61675474-cc78-493e-bed3-2492cad243f9","ios":"levelo://app?vid=61675474-cc78-493e-bed3-2492cad243f9"},"vehicle_type_id":"4","last_reported":1728857274,"current_range_meters":12000,"station_id":"ce4bhq92rcd13ifvqhjg","pricing_plan_id":"cebpf4jnsgd1na2vs0mg"},{"bike_id":"cca7b7b4-32ea-44b5-9202-6772bbe95850","system_id":"levelo_inurba_marseille","lat":43.30217,"lon":5.39473,"is_reserved":false,"is_disabled":false,"rental_uris":{"android":"levelo://app?vid=cca7b7b4-32ea-44b5-9202-6772bbe95850","ios":"levelo://app?vid=cca7b7b4-32ea-44b5-9202-6772bbe95850"},"vehicle_type_id":"4","last_reported":1728857274,"current_range_meters":25200,"station_id":"ce4bh0p2rcd13ifvqd70","pricing_plan_id":"cebpf4jnsgd1na2vs0mg"},{"bike_id":"3f70e44b-f618-4ac7-94a7-2f19f9425572","system_id":"levelo_inurba_marseille","lat":43.2894,"lon":5.36397,"is_reserved":false,"is_disabled":false,"rental_uris":{"android":"levelo://app?vid=3f70e44b-f618-4ac7-94a7-2f19f9425572","ios":"levelo://app?vid=3f70e44b-f618-4ac7-94a7-2f19f9425572"},"vehicle_type_id":"4","last_reported":1728857274,"current_range_meters":25200,"station_id":"ce4bhc92rcd13ifvqetg","pricing_plan_id":"cebpf4jnsgd1na2vs0mg"},{"bike_id":"27311a75-ebb6-43d6-9fb5-f3ba72a10e0e","system_id":"levelo_inurba_marseille","lat":43.29893,"lon":5.4365,"is_reserved":false,"is_disabled":false,"rental_uris":{"android":"levelo://app?vid=27311a75-ebb6-43d6-9fb5-f3ba72a10e0e","ios":"levelo://app?vid=27311a75-ebb6-43d6-9fb5-f3ba72a10e0e"},"vehicle_type_id":"4","last_reported":1728857274,"current_range_meters":17200,"station_id":"ce4bhpp2rcd13ifvqhfg","pricing_plan_id":"cebpf4jnsgd1na2vs0mg"},{"bike_id":"4fd9824e-951a-48d1-851e-e072057a4c86","system_id":"levelo_inurba_marseille","lat":43.29981,"lon":5.38485,"is_reserved":false,"is_disabled":false,"rental_uris":{"android":"levelo://app?vid=4fd9824e-951a-48d1-851e-e072057a4c86","ios":"levelo://app?vid=4fd9824e-951a-48d1-851e-e072057a4c86"},"vehicle_type_id":"4","last_reported":1728857274,"current_range_meters":17600,"station_id":"ce4bgj92rcd13ifvqbd0","pricing_plan_id":"cebpf4jnsgd1na2vs0mg"},{"bike_id":"540c6d91-a8c3-46f5-9398-b7c00cffdc9c","system_id":"levelo_inurba_marseille","lat":43.302856,"lon":5.384795,"is_reserved":false,"is_disabled":false,"rental_uris":{"android":"levelo://app?vid=540c6d91-a8c3-46f5-9398-b7c00cffdc9c","ios":"levelo://app?vid=540c6d91-a8c3-46f5-9398-b7c00cffdc9c"},"vehicle_type_id":"4","last_reported":1728857274,"current_range_meters":36800,"station_id":"ce4bh4p2rcd13ifvqe0g","pricing_plan_id":"cebpf4jnsgd1na2vs0mg"},{"bike_id":"4dac7866-93ba-44ca-8c17-1f177710a3c4","system_id":"levelo_inurba_marseille","lat":43.28701,"lon":5.39969,"is_reserved":false,"is_disabled":false,"rental_uris":{"android":"levelo://app?vid=4dac7866-93ba-44ca-8c17-1f177710a3c4","ios":"levelo://app?vid=4dac7866-93ba-44ca-8c17-1f177710a3c4"},"vehicle_type_id":"4","last_reported":1728857274,"current_range_meters":9600,"station_id":"ce4bho92rcd13ifvqh3g","pricing_plan_id":"cebpf4jnsgd1na2vs0mg"},{"bike_id":"0a78e881-1606-4f0e-be98-dbb0080ccb69","system_id":"levelo_inurba_marseille","lat":43.29592,"lon":5.38104,"is_reserved":false,"is_disabled":false,"rental_uris":{"android":"levelo://app?vid=0a78e881-1606-4f0e-be98-dbb0080ccb69","ios":"levelo://app?vid=0a78e881-1606-4f0e-be98-dbb0080ccb69"},"vehicle_type_id":"4","last_reported":1728857274,"current_range_meters":28800,"station_id":"ce4bgl12rcd13ifvqbo0","pricing_plan_id":"cebpf4jnsgd1na2vs0mg"},{"bike_id":"5ca8f517-bc0b-4a82-ba4f-1c8ae3f47069","system_id":"levelo_inurba_marseille","lat":43.29796,"lon":5.39343,"is_reserved":false,"is_disabled":false,"rental_uris":{"android":"levelo://app?vid=5ca8f517-bc0b-4a82-ba4f-1c8ae3f47069","ios":"levelo://app?vid=5ca8f517-bc0b-4a82-ba4f-1c8ae3f47069"},"vehicle_type_id":"4","last_reported":1728857274,"current_range_meters":38800,"station_id":"chh1huq6cuj3fo74tm60","pricing_plan_id":"cebpf4jnsgd1na2vs0mg"},{"bike_id":"03412e9f-e5af-44a8-940e-a098b1ec2875","system_id":"levelo_inurba_marseille","lat":43.22941,"lon":5.35377,"is_reserved":false,"is_disabled":false,"rental_uris":{"android":"levelo://app?vid=03412e9f-e5af-44a8-940e-a098b1ec2875","ios":"levelo://app?vid=03412e9f-e5af-44a8-940e-a098b1ec2875"},"vehicle_type_id":"4","last_reported":1728857274,"current_range_meters":38400,"station_id":"cpo3532slgdg3j2ikp40","pricing_plan_id":"cebpf4jnsgd1na2vs0mg"},{"bike_id":"4fb6482d-2426-4dcb-b068-0476a8244829","system_id":"levelo_inurba_marseille","lat":43.3133,"lon":5.39698,"is_reserved":false,"is_disabled":false,"rental_uris":{"android":"levelo://app?vid=4fb6482d-2426-4dcb-b068-0476a8244829","ios":"levelo://app?vid=4fb6482d-2426-4dcb-b068-0476a8244829"},"vehicle_type_id":"4","last_reported":1728857274,"current_range_meters":36800,"station_id":"ce4bgvp2rcd13ifvqcu0","pricing_plan_id":"cebpf4jnsgd1na2vs0mg"},{"bike_id":"c946666b-a4a8-4403-b3ba-558df179e65c","system_id":"levelo_inurba_marseille","lat":43.279891,"lon":5.416553,"is_reserved":false,"is_disabled":false,"rental_uris":{"android":"levelo://app?vid=c946666b-a4a8-4403-b3ba-558df179e65c","ios":"levelo://app?vid=c946666b-a4a8-4403-b3ba-558df179e65c"},"vehicle_type_id":"4","last_reported":1728857274,"current_range_meters":36800,"station_id":"ce4bho12rcd13ifvqh1g","pricing_plan_id":"cebpf4jnsgd1na2vs0mg"},{"bike_id":"b6e3e88d-32a3-4d19-b57d-83dc71f6d167","system_id":"levelo_inurba_marseille","lat":43.28461,"lon":5.3589,"is_reserved":false,"is_disabled":false,"rental_uris":{"android":"levelo://app?vid=b6e3e88d-32a3-4d19-b57d-83dc71f6d167","ios":"levelo://app?vid=b6e3e88d-32a3-4d19-b57d-83dc71f6d167"},"vehicle_type_id":"4","last_reported":1728857274,"current_range_meters":38800,"station_id":"ce4bhah2rcd13ifvqei0","pricing_plan_id":"cebpf4jnsgd1na2vs0mg"},{"bike_id":"3a98c1b2-ae1c-487c-bdee-b42b4cfae7b2","system_id":"levelo_inurba_marseille","lat":43.33027,"lon":5.39041,"is_reserved":false,"is_disabled":false,"rental_uris":{"android":"levelo://app?vid=3a98c1b2-ae1c-487c-bdee-b42b4cfae7b2","ios":"levelo://app?vid=3a98c1b2-ae1c-487c-bdee-b42b4cfae7b2"},"vehicle_type_id":"4","last_reported":1728857274,"current_range_meters":38800,"station_id":"ce4bhr92rcd13ifvqhrg","pricing_plan_id":"cebpf4jnsgd1na2vs0mg"},{"bike_id":"d57d8f5d-3ba8-4252-893a-5a9f4134007c","system_id":"levelo_inurba_marseille","lat":43.28856,"lon":5.39317,"is_reserved":false,"is_disabled":false,"rental_uris":{"android":"levelo://app?vid=d57d8f5d-3ba8-4252-893a-5a9f4134007c","ios":"levelo://app?vid=d57d8f5d-3ba8-4252-893a-5a9f4134007c"},"vehicle_type_id":"4","last_reported":1728857274,"current_range_meters":38800,"station_id":"ce4bh2p2rcd13ifvqdi0","pricing_plan_id":"cebpf4jnsgd1na2vs0mg"},{"bike_id":"3da8380e-f0e2-4dc4-920f-90d2e3f6e9e7","system_id":"levelo_inurba_marseille","lat":43.28708,"lon":5.3738,"is_reserved":false,"is_disabled":false,"rental_uris":{"android":"levelo://app?vid=3da8380e-f0e2-4dc4-920f-90d2e3f6e9e7","ios":"levelo://app?vid=3da8380e-f0e2-4dc4-920f-90d2e3f6e9e7"},"vehicle_type_id":"4","last_reported":1728857274,"current_range_meters":38800,"station_id":"ce4bh3p2rcd13ifvqdq0","pricing_plan_id":"cebpf4jnsgd1na2vs0mg"},{"bike_id":"cba59919-95e6-42ff-83c9-6bcf45674d60","system_id":"levelo_inurba_marseille","lat":43.32336,"lon":5.38328,"is_reserved":false,"is_disabled":false,"rental_uris":{"android":"levelo://app?vid=cba59919-95e6-42ff-83c9-6bcf45674d60","ios":"levelo://app?vid=cba59919-95e6-42ff-83c9-6bcf45674d60"},"vehicle_type_id":"4","last_reported":1728857274,"current_range_meters":38000,"station_id":"","pricing_plan_id":"cebpf4jnsgd1na2vs0mg"},{"bike_id":"52c1f022-36a1-4e13-9f45-dd26cc127b2e","system_id":"levelo_inurba_marseille","lat":43.29527,"lon":5.39398,"is_reserved":false,"is_disabled":false,"rental_uris":{"android":"levelo://app?vid=52c1f022-36a1-4e13-9f45-dd26cc127b2e","ios":"levelo://app?vid=52c1f022-36a1-4e13-9f45-dd26cc127b2e"},"vehicle_type_id":"4","last_reported":1728857274,"current_range_meters":38000,"station_id":"ce4bh292rcd13ifvqdf0","pricing_plan_id":"cebpf4jnsgd1na2vs0mg"},{"bike_id":"7bb8dd42-ccfa-4f59-a616-58fbc5c89801","system_id":"levelo_inurba_marseille","lat":43.30528,"lon":5.38423,"is_reserved":false,"is_disabled":false,"rental_uris":{"android":"levelo://app?vid=7bb8dd42-ccfa-4f59-a616-58fbc5c89801","ios":"levelo://app?vid=7bb8dd42-ccfa-4f59-a616-58fbc5c89801"},"vehicle_type_id":"4","last_reported":1728857274,"current_range_meters":38000,"station_id":"ce4bgg92rcd13ifvqb30","pricing_plan_id":"cebpf4jnsgd1na2vs0mg"},{"bike_id":"54aec1fc-f8f8-49b7-aa52-6ef4f1bdaf2a","system_id":"levelo_inurba_marseille","lat":43.24391,"lon":5.37064,"is_reserved":false,"is_disabled":false,"rental_uris":{"android":"levelo://app?vid=54aec1fc-f8f8-49b7-aa52-6ef4f1bdaf2a","ios":"levelo://app?vid=54aec1fc-f8f8-49b7-aa52-6ef4f1bdaf2a"},"vehicle_type_id":"4","last_reported":1728857274,"current_range_meters":19600,"station_id":"ce4bhhh2rcd13ifvqfk0","pricing_plan_id":"cebpf4jnsgd1na2vs0mg"},{"bike_id":"ad41db7a-7733-4b9d-8d6f-b9a0f6781c05","system_id":"levelo_inurba_marseille","lat":43.24388,"lon":5.37059,"is_reserved":false,"is_disabled":false,"rental_uris":{"android":"levelo://app?vid=ad41db7a-7733-4b9d-8d6f-b9a0f6781c05","ios":"levelo://app?vid=ad41db7a-7733-4b9d-8d6f-b9a0f6781c05"},"vehicle_type_id":"4","last_reported":1728857274,"current_range_meters":39200,"station_id":"ce4bhhh2rcd13ifvqfk0","pricing_plan_id":"cebpf4jnsgd1na2vs0mg"},{"bike_id":"8b2312cf-0c04-492c-8611-453b5ad89ee3","system_id":"levelo_inurba_marseille","lat":43.30947,"lon":5.39038,"is_reserved":false,"is_disabled":false,"rental_uris":{"android":"levelo://app?vid=8b2312cf-0c04-492c-8611-453b5ad89ee3","ios":"levelo://app?vid=8b2312cf-0c04-492c-8611-453b5ad89ee3"},"vehicle_type_id":"4","last_reported":1728857274,"current_range_meters":6400,"station_id":"ce4bgup2rcd13ifvqco0","pricing_plan_id":"cebpf4jnsgd1na2vs0mg"},{"bike_id":"f1b6db91-da41-4ba0-b69e-cfce75d0e0cf","system_id":"levelo_inurba_marseille","lat":43.290405,"lon":5.35905,"is_reserved":false,"is_disabled":false,"rental_uris":{"android":"levelo://app?vid=f1b6db91-da41-4ba0-b69e-cfce75d0e0cf","ios":"levelo://app?vid=f1b6db91-da41-4ba0-b69e-cfce75d0e0cf"},"vehicle_type_id":"4","last_reported":1728857274,"current_range_meters":37600,"station_id":"ce4bha92rcd13ifvqeg0","pricing_plan_id":"cebpf4jnsgd1na2vs0mg"},{"bike_id":"d8c3bb1b-bf1b-4a6d-a3ff-06b4ac3f276d","system_id":"levelo_inurba_marseille","lat":43.24651,"lon":5.38882,"is_reserved":false,"is_disabled":false,"rental_uris":{"android":"levelo://app?vid=d8c3bb1b-bf1b-4a6d-a3ff-06b4ac3f276d","ios":"levelo://app?vid=d8c3bb1b-bf1b-4a6d-a3ff-06b4ac3f276d"},"vehicle_type_id":"4","last_reported":1728857274,"current_range_meters":39200,"station_id":"ce4bhg12rcd13ifvqf60","pricing_plan_id":"cebpf4jnsgd1na2vs0mg"},{"bike_id":"93b27a53-ca87-42cc-a558-985f0164192b","system_id":"levelo_inurba_marseille","lat":43.29658,"lon":5.40004,"is_reserved":false,"is_disabled":false,"rental_uris":{"android":"levelo://app?vid=93b27a53-ca87-42cc-a558-985f0164192b","ios":"levelo://app?vid=93b27a53-ca87-42cc-a558-985f0164192b"},"vehicle_type_id":"4","last_reported":1728857274,"current_range_meters":7200,"station_id":"","pricing_plan_id":"cebpf4jnsgd1na2vs0mg"},{"bike_id":"d73c1310-d47b-422b-b218-86dbab9f4590","system_id":"levelo_inurba_marseille","lat":43.30208,"lon":5.39465,"is_reserved":false,"is_disabled":false,"rental_uris":{"android":"levelo://app?vid=d73c1310-d47b-422b-b218-86dbab9f4590","ios":"levelo://app?vid=d73c1310-d47b-422b-b218-86dbab9f4590"},"vehicle_type_id":"4","last_reported":1728857274,"current_range_meters":29600,"station_id":"ce4bh0p2rcd13ifvqd70","pricing_plan_id":"cebpf4jnsgd1na2vs0mg"},{"bike_id":"7c6576e7-f018-4e6a-bd50-27df25daddf9","system_id":"levelo_inurba_marseille","lat":43.28413,"lon":5.37517,"is_reserved":false,"is_disabled":false,"rental_uris":{"android":"levelo://app?vid=7c6576e7-f018-4e6a-bd50-27df25daddf9","ios":"levelo://app?vid=7c6576e7-f018-4e6a-bd50-27df25daddf9"},"vehicle_type_id":"4","last_reported":1728857274,"current_range_meters":38800,"station_id":"ce4bh412rcd13ifvqds0","pricing_plan_id":"cebpf4jnsgd1na2vs0mg"},{"bike_id":"eb594d84-8eb9-4e53-893a-402ca3dcfe9c","system_id":"levelo_inurba_marseille","lat":43.3249,"lon":5.36561,"is_reserved":false,"is_disabled":false,"rental_uris":{"android":"levelo://app?vid=eb594d84-8eb9-4e53-893a-402ca3dcfe9c","ios":"levelo://app?vid=eb594d84-8eb9-4e53-893a-402ca3dcfe9c"},"vehicle_type_id":"4","last_reported":1728857274,"current_range_meters":39200,"station_id":"ce4bhs12rcd13ifvqhvg","pricing_plan_id":"cebpf4jnsgd1na2vs0mg"},{"bike_id":"eacb8f02-0363-43b8-8a18-f2c834b889a5","system_id":"levelo_inurba_marseille","lat":43.31705,"lon":5.37755,"is_reserved":false,"is_disabled":false,"rental_uris":{"android":"levelo://app?vid=eacb8f02-0363-43b8-8a18-f2c834b889a5","ios":"levelo://app?vid=eacb8f02-0363-43b8-8a18-f2c834b889a5"},"vehicle_type_id":"4","last_reported":1728857274,"current_range_meters":16400,"station_id":"ce4bgth2rcd13ifvqch0","pricing_plan_id":"cebpf4jnsgd1na2vs0mg"},{"bike_id":"2152ad7a-4d85-4f41-895d-ff8dea9cfef2","system_id":"levelo_inurba_marseille","lat":43.28414,"lon":5.37523,"is_reserved":false,"is_disabled":false,"rental_uris":{"android":"levelo://app?vid=2152ad7a-4d85-4f41-895d-ff8dea9cfef2","ios":"levelo://app?vid=2152ad7a-4d85-4f41-895d-ff8dea9cfef2"},"vehicle_type_id":"4","last_reported":1728857274,"current_range_meters":2800,"station_id":"ce4bh412rcd13ifvqds0","pricing_plan_id":"cebpf4jnsgd1na2vs0mg"},{"bike_id":"76751032-0e19-4dbe-b869-55e11dad3f8e","system_id":"levelo_inurba_marseille","lat":43.28079,"lon":5.3965,"is_reserved":false,"is_disabled":false,"rental_uris":{"android":"levelo://app?vid=76751032-0e19-4dbe-b869-55e11dad3f8e","ios":"levelo://app?vid=76751032-0e19-4dbe-b869-55e11dad3f8e"},"vehicle_type_id":"4","last_reported":1728857274,"current_range_meters":36000,"station_id":"ce4bho12rcd13ifvqh2g","pricing_plan_id":"cebpf4jnsgd1na2vs0mg"},{"bike_id":"42020aa3-ca4f-4b33-83d2-8afe485aca55","system_id":"levelo_inurba_marseille","lat":43.27996,"lon":5.40001,"is_reserved":false,"is_disabled":false,"rental_uris":{"android":"levelo://app?vid=42020aa3-ca4f-4b33-83d2-8afe485aca55","ios":"levelo://app?vid=42020aa3-ca4f-4b33-83d2-8afe485aca55"},"vehicle_type_id":"4","last_reported":1728857274,"current_range_meters":6800,"station_id":"ce4bho92rcd13ifvqh4g","pricing_plan_id":"cebpf4jnsgd1na2vs0mg"},