{"last_updated":1724688699,"ttl":30,"version":"2.2","data":{"bikes":[{"bike_id":"ced1c2e9-a96c-4031-b809-389e2d36afe0","system_id":"levelo_inurba_marseille","lat":43.31304,"lon":5.37136,"is_reserved":false,"is_disabled":false,"rental_uris":{"android":"levelo://app?vid=ced1c2e9-a96c-4031-b809-389e2d36afe0","ios":"levelo://app?vid=ced1c2e9-a96c-4031-b809-389e2d36afe0"},"vehicle_type_id":"4","last_reported":1724688699,"current_range_meters":20800,"station_id":"","pricing_plan_id":"cebpf4jnsgd1na2vs0mg"},{"bike_id":"3bb789e4-b7fd-4bd2-a8a0-04e5cb3a9f2c","system_id":"levelo_inurba_marseille","lat":43.314811,"lon":5.373103,"is_reserved":false,"is_disabled":false,"rental_uris":{"android":"levelo://app?vid=3bb789e4-b7fd-4bd2-a8a0-04e5cb3a9f2c","ios":"levelo://app?vid=3bb789e4-b7fd-4bd2-a8a0-04e5cb3a9f2c"},"vehicle_type_id":"4","last_reported":1724688699,"current_range_meters":1200,"station_id":"ce4bgt12rcd13ifvqcd0","pricing_plan_id":"cebpf4jnsgd1na2vs0mg"},{"bike_id":"bb493553-6ee4-40be-8562-5503eca70d20","system_id":"levelo_inurba_marseille","lat":43.30905,"lon":5.37497,"is_reserved":false,"is_disabled":false,"rental_uris":{"android":"levelo://app?vid=bb493553-6ee4-40be-8562-5503eca70d20","ios":"levelo://app?vid=bb493553-6ee4-40be-8562-5503eca70d20"},"vehicle_type_id":"4","last_reported":1724688699,"current_range_meters":3600,"station_id":"","pricing_plan_id":"cebpf4jnsgd1na2vs0mg"},{"bike_id":"8d19a77e-944a-4578-b43b-f22179a761e8","system_id":"levelo_inurba_marseille","lat":43.296277,"lon":5.377108,"is_reserved":false,"is_disabled":false,"rental_uris":{"android":"levelo://app?vid=8d19a77e-944a-4578-b43b-f22179a761e8","ios":"levelo://app?vid=8d19a77e-944a-4578-b43b-f22179a761e8"},"vehicle_type_id":"4","last_reported":1724688699,"current_range_meters":12000,"station_id":"ce4bgi92rcd13ifvqb90","pricing_plan_id":"cebpf4jnsgd1na2vs0mg"},{"bike_id":"5c64fb77-baf2-440d-9b1f-1ee301c5967b","system_id":"levelo_inurba_marseille","lat":43.305989,"lon":5.37225,"is_reserved":false,"is_disabled":false,"rental_uris":{"android":"levelo://app?vid=5c64fb77-baf2-440d-9b1f-1ee301c5967b","ios":"levelo://app?vid=5c64fb77-baf2-440d-9b1f-1ee301c5967b"},"vehicle_type_id":"4","last_reported":1724688699,"current_range_meters":10400,"station_id":"ce4bgqh2rcd13ifvqc4g","pricing_plan_id":"cebpf4jnsgd1na2vs0mg"},{"bike_id":"d120f599-1ace-44dd-a295-2b5070c78723","system_id":"levelo_inurba_marseille","lat":43.305989,"lon":5.37225,"is_reserved":false,"is_disabled":false,"rental_uris":{"android":"levelo://app?vid=d120f599-1ace-44dd-a295-2b5070c78723","ios":"levelo://app?vid=d120f599-1ace-44dd-a295-2b5070c78723"},"vehicle_type_id":"4","last_reported":1724688699,"current_range_meters":10000,"station_id":"ce4bgqh2rcd13ifvqc4g","pricing_plan_id":"cebpf4jnsgd1na2vs0mg"},{"bike_id":"b8daee40-6dfe-464c-b3ad-f5872cf46291","system_id":"levelo_inurba_marseille","lat":43.307945,"lon":5.376487,"is_reserved":false,"is_disabled":false,"rental_uris":{"android":"levelo://app?vid=b8daee40-6dfe-464c-b3ad-f5872cf46291","ios":"levelo://app?vid=b8daee40-6dfe-464c-b3ad-f5872cf46291"},"vehicle_type_id":"4","last_reported":1724688699,"current_range_meters":10000,"station_id":"ce4bgv92rcd13ifvqcq0","pricing_plan_id":"cebpf4jnsgd1na2vs0mg"},{"bike_id":"0350b5eb-593d-4dc4-b036-9f300bca2b13","system_id":"levelo_inurba_marseille","lat":43.307945,"lon":5.376487,"is_reserved":false,"is_disabled":false,"rental_uris":{"android":"levelo://app?vid=0350b5eb-593d-4dc4-b036-9f300bca2b13","ios":"levelo://app?vid=0350b5eb-593d-4dc4-b036-9f300bca2b13"},"vehicle_type_id":"4","last_reported":1724688699,"current_range_meters":26400,"station_id":"ce4bgv92rcd13ifvqcq0","pricing_plan_id":"cebpf4jnsgd1na2vs0mg"},{"bike_id":"76396786-201d-4f53-9bb5-aab4100bf121","system_id":"levelo_inurba_marseille","lat":43.279742,"lon":5.38744,"is_reserved":false,"is_disabled":false,"rental_uris":{"android":"levelo://app?vid=76396786-201d-4f53-9bb5-aab4100bf121","ios":"levelo://app?vid=76396786-201d-4f53-9bb5-aab4100bf121"},"vehicle_type_id":"4","last_reported":1724688699,"current_range_meters":19200,"station_id":"ce4bhg12rcd13ifvqf80","pricing_plan_id":"cebpf4jnsgd1na2vs0mg"},{"bike_id":"68e59321-b94b-47ee-9956-acee04f95575","system_id":"levelo_inurba_marseille","lat":43.315289,"lon":5.380349,"is_reserved":false,"is_disabled":false,"rental_uris":{"android":"levelo://app?vid=68e59321-b94b-47ee-9956-acee04f95575","ios":"levelo://app?vid=68e59321-b94b-47ee-9956-acee04f95575"},"vehicle_type_id":"4","last_reported":1724688699,"current_range_meters":16000,"station_id":"ce4bhsp2rcd13ifvqi50","pricing_plan_id":"cebpf4jnsgd1na2vs0mg"},{"bike_id":"b7391a86-0dd1-4c5d-98b2-715fd5815d1e","system_id":"levelo_inurba_marseille","lat":43.315289,"lon":5.380349,"is_reserved":false,"is_disabled":false,"rental_uris":{"android":"levelo://app?vid=b7391a86-0dd1-4c5d-98b2-715fd5815d1e","ios":"levelo://app?vid=b7391a86-0dd1-4c5d-98b2-715fd5815d1e"},"vehicle_type_id":"4","last_reported":1724688699,"current_range_meters":27600,"station_id":"ce4bhsp2rcd13ifvqi50","pricing_plan_id":"cebpf4jnsgd1na2vs0mg"},{"bike_id":"bb5a326d-b1a6-4a2f-ba9a-00a87040a68d","system_id":"levelo_inurba_marseille","lat":43.315289,"lon":5.380349,"is_reserved":false,"is_disabled":false,"rental_uris":{"android":"levelo://app?vid=bb5a326d-b1a6-4a2f-ba9a-00a87040a68d","ios":"levelo://app?vid=bb5a326d-b1a6-4a2f-ba9a-00a87040a68d"},"vehicle_type_id":"4","last_reported":1724688699,"current_range_meters":10800,"station_id":"ce4bhsp2rcd13ifvqi50","pricing_plan_id":"cebpf4jnsgd1na2vs0mg"},{"bike_id":"07a03352-9b1d-48bd-ad7a-f90d5ef04242","system_id":"levelo_inurba_marseille","lat":43.315289,"lon":5.380349,"is_reserved":false,"is_disabled":false,"rental_uris":{"android":"levelo://app?vid=07a03352-9b1d-48bd-ad7a-f90d5ef04242","ios":"levelo://app?vid=07a03352-9b1d-48bd-ad7a-f90d5ef04242"},"vehicle_type_id":"4","last_reported":1724688699,"current_range_meters":17600,"station_id":"ce4bhsp2rcd13ifvqi50","pricing_plan_id":"cebpf4jnsgd1na2vs0mg"},{"bike_id":"e8127b6d-faf7-4ec7-94ab-322e5ae94bb4","system_id":"levelo_inurba_marseille","lat":43.315289,"lon":5.380349,"is_reserved":false,"is_disabled":false,"rental_uris":{"android":"levelo://app?vid=e8127b6d-faf7-4ec7-94ab-322e5ae94bb4","ios":"levelo://app?vid=e8127b6d-faf7-4ec7-94ab-322e5ae94bb4"},"vehicle_type_id":"4","last_reported":1724688699,"current_range_meters":6800,"station_id":"ce4bhsp2rcd13ifvqi50","pricing_plan_id":"cebpf4jnsgd1na2vs0mg"},{"bike_id":"8281767a-5fe8-43dc-affa-cfe1f4bd7e4e","system_id":"levelo_inurba_marseille","lat":43.308012,"lon":5.381511,"is_reserved":false,"is_disabled":false,"rental_uris":{"android":"levelo://app?vid=8281767a-5fe8-43dc-affa-cfe1f4bd7e4e","ios":"levelo://app?vid=8281767a-5fe8-43dc-affa-cfe1f4bd7e4e"},"vehicle_type_id":"4","last_reported":1724688699,"current_range_meters":18800,"station_id":"ce4bgt12rcd13ifvqce0","pricing_plan_id":"cebpf4jnsgd1na2vs0mg"},{"bike_id":"fd5f6541-e407-4aaf-a013-a01c1482db90","system_id":"levelo_inurba_marseille","lat":43.32475,"lon":5.36554,"is_reserved":false,"is_disabled":false,"rental_uris":{"android":"levelo://app?vid=fd5f6541-e407-4aaf-a013-a01c1482db90","ios":"levelo://app?vid=fd5f6541-e407-4aaf-a013-a01c1482db90"},"vehicle_type_id":"4","last_reported":1724688699,"current_range_meters":8000,"station_id":"ce4bhs12rcd13ifvqhvg","pricing_plan_id":"cebpf4jnsgd1na2vs0mg"},{"bike_id":"00aaa01b-3e40-4e8a-b9a9-b5e9709c183b","system_id":"levelo_inurba_marseille","lat":43.324771,"lon":5.36557,"is_reserved":false,"is_disabled":false,"rental_uris":{"android":"levelo://app?vid=00aaa01b-3e40-4e8a-b9a9-b5e9709c183b","ios":"levelo://app?vid=00aaa01b-3e40-4e8a-b9a9-b5e9709c183b"},"vehicle_type_id":"4","last_reported":1724688699,"current_range_meters":0,"station_id":"ce4bhs12rcd13ifvqhvg","pricing_plan_id":"cebpf4jnsgd1na2vs0mg"},{"bike_id":"157e83a8-28bb-4025-9890-37c35eb487d5","system_id":"levelo_inurba_marseille","lat":43.324771,"lon":5.36557,"is_reserved":false,"is_disabled":false,"rental_uris":{"android":"levelo://app?vid=157e83a8-28bb-4025-9890-37c35eb487d5","ios":"levelo://app?vid=157e83a8-28bb-4025-9890-37c35eb487d5"},"vehicle_type_id":"4","last_reported":1724688699,"current_range_meters":27600,"station_id":"ce4bhs12rcd13ifvqhvg","pricing_plan_id":"cebpf4jnsgd1na2vs0mg"},{"bike_id":"a8e74fbe-9150-4bb5-b57c-4d9be9b750e3","system_id":"levelo_inurba_marseille","lat":43.32482,"lon":5.36556,"is_reserved":false,"is_disabled":false,"rental_uris":{"android":"levelo://app?vid=a8e74fbe-9150-4bb5-b57c-4d9be9b750e3","ios":"levelo://app?vid=a8e74fbe-9150-4bb5-b57c-4d9be9b750e3"},"vehicle_type_id":"4","last_reported":1724688699,"current_range_meters":28000,"station_id":"ce4bhs12rcd13ifvqhvg","pricing_plan_id":"cebpf4jnsgd1na2vs0mg"},{"bike_id":"8e3f4532-a6b7-4c73-9f5b-b63503b336e0","system_id":"levelo_inurba_marseille","lat":43.32483,"lon":5.36559,"is_reserved":false,"is_disabled":false,"rental_uris":{"android":"levelo://app?vid=8e3f4532-a6b7-4c73-9f5b-b63503b336e0","ios":"levelo://app?vid=8e3f4532-a6b7-4c73-9f5b-b63503b336e0"},"vehicle_type_id":"4","last_reported":1724688699,"current_range_meters":14800,"station_id":"ce4bhs12rcd13ifvqhvg","pricing_plan_id":"cebpf4jnsgd1na2vs0mg"},{"bike_id":"328fdb38-2f0b-48bf-a542-af3b7f8806c1","system_id":"levelo_inurba_marseille","lat":43.324771,"lon":5.36557,"is_reserved":false,"is_disabled":false,"rental_uris":{"android":"levelo://app?vid=328fdb38-2f0b-48bf-a542-af3b7f8806c1","ios":"levelo://app?vid=328fdb38-2f0b-48bf-a542-af3b7f8806c1"},"vehicle_type_id":"4","last_reported":1724688699,"current_range_meters":31200,"station_id":"ce4bhs12rcd13ifvqhvg","pricing_plan_id":"cebpf4jnsgd1na2vs0mg"},{"bike_id":"d64a2b67-dc9b-45a5-8d19-43716232b946","system_id":"levelo_inurba_marseille","lat":43.324771,"lon":5.36557,"is_reserved":false,"is_disabled":false,"rental_uris":{"android":"levelo://app?vid=d64a2b67-dc9b-45a5-8d19-43716232b946","ios":"levelo://app?vid=d64a2b67-dc9b-45a5-8d19-43716232b946"},"vehicle_type_id":"4","last_reported":1724688699,"current_range_meters":26400,"station_id":"ce4bhs12rcd13ifvqhvg","pricing_plan_id":"cebpf4jnsgd1na2vs0mg"},{"bike_id":"387ca43e-9c3f-433c-bc36-ad31ed344b43","system_id":"levelo_inurba_marseille","lat":43.324771,"lon":5.36557,"is_reserved":false,"is_disabled":false,"rental_uris":{"android":"levelo://app?vid=387ca43e-9c3f-433c-bc36-ad31ed344b43","ios":"levelo://app?vid=387ca43e-9c3f-433c-bc36-ad31ed344b43"},"vehicle_type_id":"4","last_reported":1724688699,"current_range_meters":31200,"station_id":"ce4bhs12rcd13ifvqhvg","pricing_plan_id":"cebpf4jnsgd1na2vs0mg"},{"bike_id":"8f1d85b9-2d0e-49db-b593-16fdc7d8a686","system_id":"levelo_inurba_marseille","lat":43.310804,"lon":5.38359,"is_reserved":false,"is_disabled":false,"rental_uris":{"android":"levelo://app?vid=8f1d85b9-2d0e-49db-b593-16fdc7d8a686","ios":"levelo://app?vid=8f1d85b9-2d0e-49db-b593-16fdc7d8a686"},"vehicle_type_id":"4","last_reported":1724688699,"current_range_meters":7600,"station_id":"ce4bgv92rcd13ifvqcr0","pricing_plan_id":"cebpf4jnsgd1na2vs0mg"},{"bike_id":"c308976c-b9db-4d67-af58-9da989ead28e","system_id":"levelo_inurba_marseille","lat":43.324771,"lon":5.36557,"is_reserved":false,"is_disabled":false,"rental_uris":{"android":"levelo://app?vid=c308976c-b9db-4d67-af58-9da989ead28e","ios":"levelo://app?vid=c308976c-b9db-4d67-af58-9da989ead28e"},"vehicle_type_id":"4","last_reported":1724688699,"current_range_meters":4000,"station_id":"ce4bhs12rcd13ifvqhvg","pricing_plan_id":"cebpf4jnsgd1na2vs0mg"},{"bike_id":"195133e3-b98c-41ea-91f6-c0c5b8b0ad6b","system_id":"levelo_inurba_marseille","lat":43.324771,"lon":5.36557,"is_reserved":false,"is_disabled":false,"rental_uris":{"android":"levelo://app?vid=195133e3-b98c-41ea-91f6-c0c5b8b0ad6b","ios":"levelo://app?vid=195133e3-b98c-41ea-91f6-c0c5b8b0ad6b"},"vehicle_type_id":"4","last_reported":1724688699,"current_range_meters":30400,"station_id":"ce4bhs12rcd13ifvqhvg","pricing_plan_id":"cebpf4jnsgd1na2vs0mg"},{"bike_id":"008a310c-a564-493d-a3b5-aaa3f8c676d0","system_id":"levelo_inurba_marseille","lat":43.3249,"lon":5.36561,"is_reserved":false,"is_disabled":false,"rental_uris":{"android":"levelo://app?vid=008a310c-a564-493d-a3b5-aaa3f8c676d0","ios":"levelo://app?vid=008a310c-a564-493d-a3b5-aaa3f8c676d0"},"vehicle_type_id":"4","last_reported":1724688699,"current_range_meters":23200,"station_id":"ce4bhs12rcd13ifvqhvg","pricing_plan_id":"cebpf4jnsgd1na2vs0mg"},{"bike_id":"7730422e-42f3-4ca0-8007-7eb4ed614ca9","system_id":"levelo_inurba_marseille","lat":43.32495,"lon":5.36579,"is_reserved":false,"is_disabled":false,"rental_uris":{"android":"levelo://app?vid=7730422e-42f3-4ca0-8007-7eb4ed614ca9","ios":"levelo://app?vid=7730422e-42f3-4ca0-8007-7eb4ed614ca9"},"vehicle_type_id":"4","last_reported":1724688699,"current_range_meters":10400,"station_id":"ce4bhs12rcd13ifvqhvg","pricing_plan_id":"cebpf4jnsgd1na2vs0mg"},{"bike_id":"049c2e9c-5bd3-476c-950d-7153556407e2","system_id":"levelo_inurba_marseille","lat":43.30143,"lon":5.37413,"is_reserved":false,"is_disabled":false,"rental_uris":{"android":"levelo://app?vid=049c2e9c-5bd3-476c-950d-7153556407e2","ios":"levelo://app?vid=049c2e9c-5bd3-476c-950d-7153556407e2"},"vehicle_type_id":"4","last_reported":1724688699,"current_range_meters":400,"station_id":"ce4bgs92rcd13ifvqcc0","pricing_plan_id":"cebpf4jnsgd1na2vs0mg"},{"bike_id":"e908ea41-a604-43ef-8966-c0fa0a110376","system_id":"levelo_inurba_marseille","lat":43.302784,"lon":5.377158,"is_reserved":false,"is_disabled":false,"rental_uris":{"android":"levelo://app?vid=e908ea41-a604-43ef-8966-c0fa0a110376","ios":"levelo://app?vid=e908ea41-a604-43ef-8966-c0fa0a110376"},"vehicle_type_id":"4","last_reported":1724688699,"current_range_meters":3200,"station_id":"ce4bguh2rcd13ifvqcj0","pricing_plan_id":"cebpf4jnsgd1na2vs0mg"},{"bike_id":"ff2e2f17-e53a-4360-9800-37c28492171b","system_id":"levelo_inurba_marseille","lat":43.31966,"lon":5.38148,"is_reserved":false,"is_disabled":false,"rental_uris":{"android":"levelo://app?vid=ff2e2f17-e53a-4360-9800-37c28492171b","ios":"levelo://app?vid=ff2e2f17-e53a-4360-9800-37c28492171b"},"vehicle_type_id":"4","last_reported":1724688699,"current_range_meters":6400,"station_id":"ce4bhr12rcd13ifvqhpg","pricing_plan_id":"cebpf4jnsgd1na2vs0mg"},{"bike_id":"98952ec7-408e-40ab-a207-5f9298b9fe39","system_id":"levelo_inurba_marseille","lat":43.313571,"lon":5.384829,"is_reserved":false,"is_disabled":false,"rental_uris":{"android":"levelo://app?vid=98952ec7-408e-40ab-a207-5f9298b9fe39","ios":"levelo://app?vid=98952ec7-408e-40ab-a207-5f9298b9fe39"},"vehicle_type_id":"4","last_reported":1724688699,"current_range_meters":22000,"station_id":"ce4bgt92rcd13ifvqcf0","pricing_plan_id":"cebpf4jnsgd1na2vs0mg"},{"bike_id":"cc132af8-d495-404b-b733-dfabaa04aaf7","system_id":"levelo_inurba_marseille","lat":43.313571,"lon":5.384829,"is_reserved":false,"is_disabled":false,"rental_uris":{"android":"levelo://app?vid=cc132af8-d495-404b-b733-dfabaa04aaf7","ios":"levelo://app?vid=cc132af8-d495-404b-b733-dfabaa04aaf7"},"vehicle_type_id":"4","last_reported":1724688699,"current_range_meters":9600,"station_id":"ce4bgt92rcd13ifvqcf0","pricing_plan_id":"cebpf4jnsgd1na2vs0mg"},{"bike_id":"f5ceeaa7-e32d-487d-b972-7dc7d5eb2805","system_id":"levelo_inurba_marseille","lat":43.313571,"lon":5.384829,"is_reserved":false,"is_disabled":false,"rental_uris":{"android":"levelo://app?vid=f5ceeaa7-e32d-487d-b972-7dc7d5eb2805","ios":"levelo://app?vid=f5ceeaa7-e32d-487d-b972-7dc7d5eb2805"},"vehicle_type_id":"4","last_reported":1724688699,"current_range_meters":7600,"station_id":"ce4bgt92rcd13ifvqcf0","pricing_plan_id":"cebpf4jnsgd1na2vs0mg"},{"bike_id":"ced344bb-5198-4cff-ba27-2a4a9cff2ff1","system_id":"levelo_inurba_marseille","lat":43.299222,"lon":5.365554,"is_reserved":false,"is_disabled":false,"rental_uris":{"android":"levelo://app?vid=ced344bb-5198-4cff-ba27-2a4a9cff2ff1","ios":"levelo://app?vid=ced344bb-5198-4cff-ba27-2a4a9cff2ff1"},"vehicle_type_id":"4","last_reported":1724688699,"current_range_meters":400,"station_id":"ce4bgm92rcd13ifvqbr0","pricing_plan_id":"cebpf4jnsgd1na2vs0mg"},{"bike_id":"5e9c3c2b-a9e3-4161-bf78-5c614f6b9e1f","system_id":"levelo_inurba_marseille","lat":43.324771,"lon":5.36557,"is_reserved":false,"is_disabled":false,"rental_uris":{"android":"levelo://app?vid=5e9c3c2b-a9e3-4161-bf78-5c614f6b9e1f","ios":"levelo://app?vid=5e9c3c2b-a9e3-4161-bf78-5c614f6b9e1f"},"vehicle_type_id":"4","last_reported":1724688699,"current_range_meters":18400,"station_id":"ce4bhs12rcd13ifvqhvg","pricing_plan_id":"cebpf4jnsgd1na2vs0mg"},{"bike_id":"b910db80-6328-4226-824b-22475a355e1b","system_id":"levelo_inurba_marseille","lat":43.298433,"lon":5.362774,"is_reserved":false,"is_disabled":false,"rental_uris":{"android":"levelo://app?vid=b910db80-6328-4226-824b-22475a355e1b","ios":"levelo://app?vid=b910db80-6328-4226-824b-22475a355e1b"},"vehicle_type_id":"4","last_reported":1724688699,"current_range_meters":18000,"station_id":"ce4bgpp2rcd13ifvqc3g","pricing_plan_id":"cebpf4jnsgd1na2vs0mg"},{"bike_id":"839b791e-f04b-49c0-82b0-b890b72c050d","system_id":"levelo_inurba_marseille","lat":43.311593,"lon":5.386877,"is_reserved":false,"is_disabled":false,"rental_uris":{"android":"levelo://app?vid=839b791e-f04b-49c0-82b0-b890b72c050d","ios":"levelo://app?vid=839b791e-f04b-49c0-82b0-b890b72c050d"},"vehicle_type_id":"4","last_reported":1724688699,"current_range_meters":23600,"station_id":"ce4bgv12rcd13ifvqcp0","pricing_plan_id":"cebpf4jnsgd1na2vs0mg"},{"bike_id":"e923891f-be29-457d-b222-2561bd5e62fd","system_id":"levelo_inurba_marseille","lat":43.311722,"lon":5.387247,"is_reserved":false,"is_disabled":false,"rental_uris":{"android":"levelo://app?vid=e923891f-be29-457d-b222-2561bd5e62fd","ios":"levelo://app?vid=e923891f-be29-457d-b222-2561bd5e62fd"},"vehicle_type_id":"4","last_reported":1724688699,"current_range_meters":9600,"station_id":"ce4bgv12rcd13ifvqcp0","pricing_plan_id":"cebpf4jnsgd1na2vs0mg"},{"bike_id":"19b98f5f-d419-4e5a-8fab-ab90e9a68f07","system_id":"levelo_inurba_marseille","lat":43.301417,"lon":5.3809,"is_reserved":false,"is_disabled":false,"rental_uris":{"android":"levelo://app?vid=19b98f5f-d419-4e5a-8fab-ab90e9a68f07","ios":"levelo://app?vid=19b98f5f-d419-4e5a-8fab-ab90e9a68f07"},"vehicle_type_id":"4","last_reported":1724688699,"current_range_meters":0,"station_id":"ce4bgjp2rcd13ifvqbh0","pricing_plan_id":"cebpf4jnsgd1na2vs0mg"},{"bike_id":"c3c6ec82-a9ab-4cc3-9dcc-54b4d8059300","system_id":"levelo_inurba_marseille","lat":43.301526,"lon":5.3808,"is_reserved":false,"is_disabled":false,"rental_uris":{"android":"levelo://app?vid=c3c6ec82-a9ab-4cc3-9dcc-54b4d8059300","ios":"levelo://app?vid=c3c6ec82-a9ab-4cc3-9dcc-54b4d8059300"},"vehicle_type_id":"4","last_reported":1724688699,"current_range_meters":0,"station_id":"ce4bgjp2rcd13ifvqbh0","pricing_plan_id":"cebpf4jnsgd1na2vs0mg"},{"bike_id":"b7a7b4e6-9cfa-4458-89e5-c59f7b7e3250","system_id":"levelo_inurba_marseille","lat":43.297794,"lon":5.370888,"is_reserved":false,"is_disabled":false,"rental_uris":{"android":"levelo://app?vid=b7a7b4e6-9cfa-4458-89e5-c59f7b7e3250","ios":"levelo://app?vid=b7a7b4e6-9cfa-4458-89e5-c59f7b7e3250"},"vehicle_type_id":"4","last_reported":1724688699,"current_range_meters":0,"station_id":"ce4bgop2rcd13ifvqc1g","pricing_plan_id":"cebpf4jnsgd1na2vs0mg"},{"bike_id":"90d37695-c612-4384-92d0-977df80ac5dd","system_id":"levelo_inurba_marseille","lat":43.32289,"lon":5.38254,"is_reserved":false,"is_disabled":false,"rental_uris":{"android":"levelo://app?vid=90d37695-c612-4384-92d0-977df80ac5dd","ios":"levelo://app?vid=90d37695-c612-4384-92d0-977df80ac5dd"},"vehicle_type_id":"4","last_reported":1724688699,"current_range_meters":13600,"station_id":"ce4bhr12rcd13ifvqhqg","pricing_plan_id":"cebpf4jnsgd1na2vs0mg"},{"bike_id":"294139e8-8f45-45a2-a4a5-eb7d627e44d6","system_id":"levelo_inurba_marseille","lat":43.322872,"lon":5.382756,"is_reserved":false,"is_disabled":false,"rental_uris":{"android":"levelo://app?vid=294139e8-8f45-45a2-a4a5-eb7d627e44d6","ios":"levelo://app?vid=294139e8-8f45-45a2-a4a5-eb7d627e44d6"},"vehicle_type_id":"4","last_reported":1724688699,"current_range_meters":12000,"station_id":"ce4bhr12rcd13ifvqhqg","pricing_plan_id":"cebpf4jnsgd1na2vs0mg"},{"bike_id":"6620c18c-e539-494a-b633-92cac3f2bd47","system_id":"levelo_inurba_marseille","lat":43.32295,"lon":5.38268,"is_reserved":false,"is_disabled":false,"rental_uris":{"android":"levelo://app?vid=6620c18c-e539-494a-b633-92cac3f2bd47","ios":"levelo://app?vid=6620c18c-e539-494a-b633-92cac3f2bd47"},"vehicle_type_id":"4","last_reported":1724688699,"current_range_meters":20400,"station_id":"ce4bhr12rcd13ifvqhqg","pricing_plan_id":"cebpf4jnsgd1na2vs0mg"},{"bike_id":"9cebd75e-a4b6-4c9d-bb4a-8728ee1cc05f","system_id":"levelo_inurba_marseille","lat":43.297163,"lon":5.365866,"is_reserved":false,"is_disabled":false,"rental_uris":{"android":"levelo://app?vid=9cebd75e-a4b6-4c9d-bb4a-8728ee1cc05f","ios":"levelo://app?vid=9cebd75e-a4b6-4c9d-bb4a-8728ee1cc05f"},"vehicle_type_id":"4","last_reported":1724688699,"current_range_meters":400,"station_id":"ce4bgn12rcd13ifvqbt0","pricing_plan_id":"cebpf4jnsgd1na2vs0mg"},{"bike_id":"7473c7ed-80d1-49c3-b35e-d7b9361ecb79","system_id":"levelo_inurba_marseille","lat":43.2968,"lon":5.37291,"is_reserved":false,"is_disabled":false,"rental_uris":{"android":"levelo://app?vid=7473c7ed-80d1-49c3-b35e-d7b9361ecb79","ios":"levelo://app?vid=7473c7ed-80d1-49c3-b35e-d7b9361ecb79"},"vehicle_type_id":"4","last_reported":1724688699,"current_range_meters":2000,"station_id":"ce4bgk12rcd13ifvqbj0","pricing_plan_id":"cebpf4jnsgd1na2vs0mg"},{"bike_id":"e12bc525-ba6c-48a2-b000-3f42c70c1c4e","system_id":"levelo_inurba_marseille","lat":43.296131,"lon":5.370773,"is_reserved":false,"is_disabled":false,"rental_uris":{"android":"levelo://app?vid=e12bc525-ba6c-48a2-b000-3f42c70c1c4e","ios":"levelo://app?vid=e12bc525-ba6c-48a2-b000-3f42c70c1c4e"},"vehicle_type_id":"4","last_reported":1724688699,"current_range_meters":16400,"station_id":"ce4bgnh2rcd13ifvqc0g","pricing_plan_id":"cebpf4jnsgd1na2vs0mg"},{"bike_id":"10d6a670-5587-40c8-a7ea-a3fc73313bac","system_id":"levelo_inurba_marseille","lat":43.29621,"lon":5.3715,"is_reserved":false,"is_disabled":false,"rental_uris":{"android":"levelo://app?vid=10d6a670-5587-40c8-a7ea-a3fc73313bac","ios":"levelo://app?vid=10d6a670-5587-40c8-a7ea-a3fc73313bac"},"vehicle_type_id":"4","last_reported":1724688699,"current_range_meters":29600,"station_id":"ce4bgnh2rcd13ifvqc0g","pricing_plan_id":"cebpf4jnsgd1na2vs0mg"},{"bike_id":"e6d1ca42-ea82-4a4c-a8ef-8be92238ac55","system_id":"levelo_inurba_marseille","lat":43.29573,"lon":5.367355,"is_reserved":false,"is_disabled":false,"rental_uris":{"android":"levelo://app?vid=e6d1ca42-ea82-4a4c-a8ef-8be92238ac55","ios":"levelo://app?vid=e6d1ca42-ea82-4a4c-a8ef-8be92238ac55"},"vehicle_type_id":"4","last_reported":1724688699,"current_range_meters":21600,"station_id":"ce4bgph2rcd13ifvqc2g","pricing_plan_id":"cebpf4jnsgd1na2vs0mg"},{"bike_id":"b04168f7-6ce9-48c7-b97c-99b2c131f26f","system_id":"levelo_inurba_marseille","lat":43.299028,"lon":5.381509,"is_reserved":false,"is_disabled":false,"rental_uris":{"android":"levelo://app?vid=b04168f7-6ce9-48c7-b97c-99b2c131f26f","ios":"levelo://app?vid=b04168f7-6ce9-48c7-b97c-99b2c131f26f"},"vehicle_type_id":"4","last_reported":1724688699,"current_range_meters":4400,"station_id":"ce4bgj12rcd13ifvqbc0","pricing_plan_id":"cebpf4jnsgd1na2vs0mg"},{"bike_id":"45307f9c-4141-464d-a979-ff65d5402639","system_id":"levelo_inurba_marseille","lat":43.30962,"lon":5.39019,"is_reserved":false,"is_disabled":false,"rental_uris":{"android":"levelo://app?vid=45307f9c-4141-464d-a979-ff65d5402639","ios":"levelo://app?vid=45307f9c-4141-464d-a979-ff65d5402639"},"vehicle_type_id":"4","last_reported":1724688699,"current_range_meters":0,"station_id":"ce4bgup2rcd13ifvqco0","pricing_plan_id":"cebpf4jnsgd1na2vs0mg"},{"bike_id":"604846a0-11f0-42b7-b5ca-d2e9f4c4668d","system_id":"levelo_inurba_marseille","lat":43.309589,"lon":5.390258,"is_reserved":false,"is_disabled":false,"rental_uris":{"android":"levelo://app?vid=604846a0-11f0-42b7-b5ca-d2e9f4c4668d","ios":"levelo://app?vid=604846a0-11f0-42b7-b5ca-d2e9f4c4668d"},"vehicle_type_id":"4","last_reported":1724688699,"current_range_meters":2400,"station_id":"ce4bgup2rcd13ifvqco0","pricing_plan_id":"cebpf4jnsgd1na2vs0mg"},{"bike_id":"6d0e4692-7878-4871-b851-a3df2353279f","system_id":"levelo_inurba_marseille","lat":43.31763,"lon":5.39014,"is_reserved":false,"is_disabled":false,"rental_uris":{"android":"levelo://app?vid=6d0e4692-7878-4871-b851-a3df2353279f","ios":"levelo://app?vid=6d0e4692-7878-4871-b851-a3df2353279f"},"vehicle_type_id":"4","last_reported":1724688699,"current_range_meters":0,"station_id":"ce4bhqp2rcd13ifvqhng","pricing_plan_id":"cebpf4jnsgd1na2vs0mg"},{"bike_id":"746986ce-8a0e-4aaa-8398-362e9e58c959","system_id":"levelo_inurba_marseille","lat":43.317557,"lon":5.390173,"is_reserved":false,"is_disabled":false,"rental_uris":{"android":"levelo://app?vid=746986ce-8a0e-4aaa-8398-362e9e58c959","ios":"levelo://app?vid=746986ce-8a0e-4aaa-8398-362e9e58c959"},"vehicle_type_id":"4","last_reported":1724688699,"current_range_meters":24800,"station_id":"ce4bhqp2rcd13ifvqhng","pricing_plan_id":"cebpf4jnsgd1na2vs0mg"},{"bike_id":"19256976-0383-4dd0-abd1-9abb39dd26b8","system_id":"levelo_inurba_marseille","lat":43.298037,"lon":5.381066,"is_reserved":false,"is_disabled":false,"rental_uris":{"android":"levelo://app?vid=19256976-0383-4dd0-abd1-9abb39dd26b8","ios":"levelo://app?vid=19256976-0383-4dd0-abd1-9abb39dd26b8"},"vehicle_type_id":"4","last_reported":1724688699,"current_range_meters":0,"station_id":"ce4bgip2rcd13ifvqbb0","pricing_plan_id":"cebpf4jnsgd1na2vs0mg"},{"bike_id":"433b5ea2-90fc-4191-a829-a85430f1c6c8","system_id":"levelo_inurba_marseille","lat":43.295767,"lon":5.37516,"is_reserved":false,"is_disabled":false,"rental_uris":{"android":"levelo://app?vid=433b5ea2-90fc-4191-a829-a85430f1c6c8","ios":"levelo://app?vid=433b5ea2-90fc-4191-a829-a85430f1c6c8"},"vehicle_type_id":"4","last_reported":1724688699,"current_range_meters":23600,"station_id":"ce4bgh92rcd13ifvqb50","pricing_plan_id":"cebpf4jnsgd1na2vs0mg"},{"bike_id":"50764b18-79ed-41a9-b202-a0bf15a07665","system_id":"levelo_inurba_marseille","lat":43.304274,"lon":5.388873,"is_reserved":false,"is_disabled":false,"rental_uris":{"android":"levelo://app?vid=50764b18-79ed-41a9-b202-a0bf15a07665","ios":"levelo://app?vid=50764b18-79ed-41a9-b202-a0bf15a07665"},"vehicle_type_id":"4","last_reported":1724688699,"current_range_meters":0,"station_id":"ce4bgk12rcd13ifvqbi0","pricing_plan_id":"cebpf4jnsgd1na2vs0mg"},{"bike_id":"33714d8c-975d-4a58-805c-a31a4d68bfb5","system_id":"levelo_inurba_marseille","lat":43.295748,"lon":5.37522,"is_reserved":false,"is_disabled":false,"rental_uris":{"android":"levelo://app?vid=33714d8c-975d-4a58-805c-a31a4d68bfb5","ios":"levelo://app?vid=33714d8c-975d-4a58-805c-a31a4d68bfb5"},"vehicle_type_id":"4","last_reported":1724688699,"current_range_meters":0,"station_id":"ce4bgh92rcd13ifvqb50","pricing_plan_id":"cebpf4jnsgd1na2vs0mg"},{"bike_id":"d25758a5-d01e-46b3-bc21-7b8d245f7cfc","system_id":"levelo_inurba_marseille","lat":43.295748,"lon":5.37522,"is_reserved":false,"is_disabled":false,"rental_uris":{"android":"levelo://app?vid=d25758a5-d01e-46b3-bc21-7b8d245f7cfc","ios":"levelo://app?vid=d25758a5-d01e-46b3-bc21-7b8d245f7cfc"},"vehicle_type_id":"4","last_reported":1724688699,"current_range_meters":0,"station_id":"ce4bgh92rcd13ifvqb50","pricing_plan_id":"cebpf4jnsgd1na2vs0mg"},{"bike_id":"084371ee-a3d5-4e42-9da4-b20981a15e32","system_id":"levelo_inurba_marseille","lat":43.304274,"lon":5.388873,"is_reserved":false,"is_disabled":false,"rental_uris":{"android":"levelo://app?vid=084371ee-a3d5-4e42-9da4-b20981a15e32","ios":"levelo://app?vid=084371ee-a3d5-4e42-9da4-b20981a15e32"},"vehicle_type_id":"4","last_reported":1724688699,"current_range_meters":0,"station_id":"ce4bgk12rcd13ifvqbi0","pricing_plan_id":"cebpf4jnsgd1na2vs0mg"},{"bike_id":"c36db421-b33c-4e4f-a41d-98c46687e5a1","system_id":"levelo_inurba_marseille","lat":43.298037,"lon":5.381066,"is_reserved":false,"is_disabled":false,"rental_uris":{"android":"levelo://app?vid=c36db421-b33c-4e4f-a41d-98c46687e5a1","ios":"levelo://app?vid=c36db421-b33c-4e4f-a41d-98c46687e5a1"},"vehicle_type_id":"4","last_reported":1724688699,"current_range_meters":11600,"station_id":"ce4bgip2rcd13ifvqbb0","pricing_plan_id":"cebpf4jnsgd1na2vs0mg"},{"bike_id":"797e2936-8bbf-4ec6-81b7-1401dd56c7f6","system_id":"levelo_inurba_marseille","lat":43.30143,"lon":5.37413,"is_reserved":false,"is_disabled":false,"rental_uris":{"android":"levelo://app?vid=797e2936-8bbf-4ec6-81b7-1401dd56c7f6","ios":"levelo://app?vid=797e2936-8bbf-4ec6-81b7-1401dd56c7f6"},"vehicle_type_id":"4","last_reported":1724688699,"current_range_meters":20800,"station_id":"ce4bgs92rcd13ifvqcc0","pricing_plan_id":"cebpf4jnsgd1na2vs0mg"},{"bike_id":"80c3192b-074e-4074-9bc0-baff0e5a5d1b","system_id":"levelo_inurba_marseille","lat":43.29973,"lon":5.38481,"is_reserved":false,"is_disabled":false,"rental_uris":{"android":"levelo://app?vid=80c3192b-074e-4074-9bc0-baff0e5a5d1b","ios":"levelo://app?vid=80c3192b-074e-4074-9bc0-baff0e5a5d1b"},"vehicle_type_id":"4","last_reported":1724688699,"current_range_meters":0,"station_id":"ce4bgj92rcd13ifvqbd0","pricing_plan_id":"cebpf4jnsgd1na2vs0mg"},{"bike_id":"cac39630-d78b-47af-bef3-489625002c8b","system_id":"levelo_inurba_marseille","lat":43.301396,"lon":5.387812,"is_reserved":false,"is_disabled":false,"rental_uris":{"android":"levelo://app?vid=cac39630-d78b-47af-bef3-489625002c8b","ios":"levelo://app?vid=cac39630-d78b-47af-bef3-489625002c8b"},"vehicle_type_id":"4","last_reported":1724688699,"current_range_meters":0,"station_id":"ce4bghh2rcd13ifvqb60","pricing_plan_id":"cebpf4jnsgd1na2vs0mg"},{"bike_id":"19836227-e4c5-4e81-a79e-c79ae77773fc","system_id":"levelo_inurba_marseille","lat":43.323623,"lon":5.38883,"is_reserved":false,"is_disabled":false,"rental_uris":{"android":"levelo://app?vid=19836227-e4c5-4e81-a79e-c79ae77773fc","ios":"levelo://app?vid=19836227-e4c5-4e81-a79e-c79ae77773fc"},"vehicle_type_id":"4","last_reported":1724688699,"current_range_meters":12000,"station_id":"ce4bhqp2rcd13ifvqhog","pricing_plan_id":"cebpf4jnsgd1na2vs0mg"},{"bike_id":"8c84339f-ee16-4894-a65e-c3640d66444f","system_id":"levelo_inurba_marseille","lat":43.32364,"lon":5.38883,"is_reserved":false,"is_disabled":false,"rental_uris":{"android":"levelo://app?vid=8c84339f-ee16-4894-a65e-c3640d66444f","ios":"levelo://app?vid=8c84339f-ee16-4894-a65e-c3640d66444f"},"vehicle_type_id":"4","last_reported":1724688699,"current_range_meters":0,"station_id":"ce4bhqp2rcd13ifvqhog","pricing_plan_id":"cebpf4jnsgd1na2vs0mg"},{"bike_id":"98ac13d6-5cb8-419a-a889-defcfad5e78c","system_id":"levelo_inurba_marseille","lat":43.32368,"lon":5.38883,"is_reserved":false,"is_disabled":false,"rental_uris":{"android":"levelo://app?vid=98ac13d6-5cb8-419a-a889-defcfad5e78c","ios":"levelo://app?vid=98ac13d6-5cb8-419a-a889-defcfad5e78c"},"vehicle_type_id":"4","last_reported":1724688699,"current_range_meters":7200,"station_id":"ce4bhqp2rcd13ifvqhog","pricing_plan_id":"cebpf4jnsgd1na2vs0mg"},{"bike_id":"8b8a5ced-d6f1-4b2a-b59f-39fdfdb15d99","system_id":"levelo_inurba_marseille","lat":43.32367,"lon":5.388836,"is_reserved":false,"is_disabled":false,"rental_uris":{"android":"levelo://app?vid=8b8a5ced-d6f1-4b2a-b59f-39fdfdb15d99","ios":"levelo://app?vid=8b8a5ced-d6f1-4b2a-b59f-39fdfdb15d99"},"vehicle_type_id":"4","last_reported":1724688699,"current_range_meters":18800,"station_id":"ce4bhqp2rcd13ifvqhog","pricing_plan_id":"cebpf4jnsgd1na2vs0mg"},{"bike_id":"f34e9ff8-5944-40ad-ade0-f55b513d3797","system_id":"levelo_inurba_marseille","lat":43.32366,"lon":5.38886,"is_reserved":false,"is_disabled":false,"rental_uris":{"android":"levelo://app?vid=f34e9ff8-5944-40ad-ade0-f55b513d3797","ios":"levelo://app?vid=f34e9ff8-5944-40ad-ade0-f55b513d3797"},"vehicle_type_id":"4","last_reported":1724688699,"current_range_meters":1200,"station_id":"ce4bhqp2rcd13ifvqhog","pricing_plan_id":"cebpf4jnsgd1na2vs0mg"},{"bike_id":"b60f3181-43da-48ce-b737-0460b525c1d1","system_id":"levelo_inurba_marseille","lat":43.32367,"lon":5.388836,"is_reserved":false,"is_disabled":false,"rental_uris":{"android":"levelo://app?vid=b60f3181-43da-48ce-b737-0460b525c1d1","ios":"levelo://app?vid=b60f3181-43da-48ce-b737-0460b525c1d1"},"vehicle_type_id":"4","last_reported":1724688699,"current_range_meters":29200,"station_id":"ce4bhqp2rcd13ifvqhog","pricing_plan_id":"cebpf4jnsgd1na2vs0mg"},{"bike_id":"2f1f3d8f-8c38-4018-8c18-a27828dc44ab","system_id":"levelo_inurba_marseille","lat":43.29602,"lon":5.381084,"is_reserved":false,"is_disabled":false,"rental_uris":{"android":"levelo://app?vid=2f1f3d8f-8c38-4018-8c18-a27828dc44ab","ios":"levelo://app?vid=2f1f3d8f-8c38-4018-8c18-a27828dc44ab"},"vehicle_type_id":"4","last_reported":1724688699,"current_range_meters":4000,"station_id":"ce4bgl12rcd13ifvqbo0","pricing_plan_id":"cebpf4jnsgd1na2vs0mg"},{"bike_id":"6216e9ac-aee4-42bb-9b05-f161ee156404","system_id":"levelo_inurba_marseille","lat":43.29602,"lon":5.381084,"is_reserved":false,"is_disabled":false,"rental_uris":{"android":"levelo://app?vid=6216e9ac-aee4-42bb-9b05-f161ee156404","ios":"levelo://app?vid=6216e9ac-aee4-42bb-9b05-f161ee156404"},"vehicle_type_id":"4","last_reported":1724688699,"current_range_meters":0,"station_id":"ce4bgl12rcd13ifvqbo0","pricing_plan_id":"cebpf4jnsgd1na2vs0mg"},{"bike_id":"77f992e6-a5ba-4de5-82c6-e6681a042c53","system_id":"levelo_inurba_marseille","lat":43.29606,"lon":5.38104,"is_reserved":false,"is_disabled":false,"rental_uris":{"android":"levelo://app?vid=77f992e6-a5ba-4de5-82c6-e6681a042c53","ios":"levelo://app?vid=77f992e6-a5ba-4de5-82c6-e6681a042c53"},"vehicle_type_id":"4","last_reported":1724688699,"current_range_meters":18000,"station_id":"ce4bgl12rcd13ifvqbo0","pricing_plan_id":"cebpf4jnsgd1na2vs0mg"},{"bike_id":"13bc9714-5a98-4404-bde8-7fe1bea9caf6","system_id":"levelo_inurba_marseille","lat":43.29602,"lon":5.381084,"is_reserved":false,"is_disabled":false,"rental_uris":{"android":"levelo://app?vid=13bc9714-5a98-4404-bde8-7fe1bea9caf6","ios":"levelo://app?vid=13bc9714-5a98-4404-bde8-7fe1bea9caf6"},"vehicle_type_id":"4","last_reported":1724688699,"current_range_meters":15600,"station_id":"ce4bgl12rcd13ifvqbo0","pricing_plan_id":"cebpf4jnsgd1na2vs0mg"},{"bike_id":"cdcf58b0-1272-498f-9456-3af70613198c","system_id":"levelo_inurba_marseille","lat":43.29602,"lon":5.381084,"is_reserved":false,"is_disabled":false,"rental_uris":{"android":"levelo://app?vid=cdcf58b0-1272-498f-9456-3af70613198c","ios":"levelo://app?vid=cdcf58b0-1272-498f-9456-3af70613198c"},"vehicle_type_id":"4","last_reported":1724688699,"current_range_meters":5600,"station_id":"ce4bgl12rcd13ifvqbo0","pricing_plan_id":"cebpf4jnsgd1na2vs0mg"},{"bike_id":"6a5b5df9-01b6-452c-86df-457a1da4203a","system_id":"levelo_inurba_marseille","lat":43.293259,"lon":5.371586,"is_reserved":false,"is_disabled":false,"rental_uris":{"android":"levelo://app?vid=6a5b5df9-01b6-452c-86df-457a1da4203a","ios":"levelo://app?vid=6a5b5df9-01b6-452c-86df-457a1da4203a"},"vehicle_type_id":"4","last_reported":1724688699,"current_range_meters":0,"station_id":"ce4bgh92rcd13ifvqb40","pricing_plan_id":"cebpf4jnsgd1na2vs0mg"},{"bike_id":"d3b09543-1867-4123-bdf8-2b3ecaa81a82","system_id":"levelo_inurba_marseille","lat":43.305994,"lon":5.393687,"is_reserved":false,"is_disabled":false,"rental_uris":{"android":"levelo://app?vid=d3b09543-1867-4123-bdf8-2b3ecaa81a82","ios":"levelo://app?vid=d3b09543-1867-4123-bdf8-2b3ecaa81a82"},"vehicle_type_id":"4","last_reported":1724688699,"current_range_meters":0,"station_id":"ce4bh0p2rcd13ifvqd80","pricing_plan_id":"cebpf4jnsgd1na2vs0mg"},{"bike_id":"529fd5c0-1dfc-4b4a-8c39-d07e9c7085cb","system_id":"levelo_inurba_marseille","lat":43.30305,"lon":5.39206,"is_reserved":false,"is_disabled":false,"rental_uris":{"android":"levelo://app?vid=529fd5c0-1dfc-4b4a-8c39-d07e9c7085cb","ios":"levelo://app?vid=529fd5c0-1dfc-4b4a-8c39-d07e9c7085cb"},"vehicle_type_id":"4","last_reported":1724688699,"current_range_meters":3600,"station_id":"ce4bgkh2rcd13ifvqbk0","pricing_plan_id":"cebpf4jnsgd1na2vs0mg"},{"bike_id":"0044cd72-dfe6-4ecf-aae9-9fc1c6864e70","system_id":"levelo_inurba_marseille","lat":43.303002,"lon":5.392142,"is_reserved":false,"is_disabled":false,"rental_uris":{"android":"levelo://app?vid=0044cd72-dfe6-4ecf-aae9-9fc1c6864e70","ios":"levelo://app?vid=0044cd72-dfe6-4ecf-aae9-9fc1c6864e70"},"vehicle_type_id":"4","last_reported":1724688699,"current_range_meters":0,"station_id":"ce4bgkh2rcd13ifvqbk0","pricing_plan_id":"cebpf4jnsgd1na2vs0mg"},{"bike_id":"cc757845-d877-4640-becf-b9cfab7f1b93","system_id":"levelo_inurba_marseille","lat":43.303002,"lon":5.392142,"is_reserved":false,"is_disabled":false,"rental_uris":{"android":"levelo://app?vid=cc757845-d877-4640-becf-b9cfab7f1b93","ios":"levelo://app?vid=cc757845-d877-4640-becf-b9cfab7f1b93"},"vehicle_type_id":"4","last_reported":1724688699,"current_range_meters":0,"station_id":"ce4bgkh2rcd13ifvqbk0","pricing_plan_id":"cebpf4jnsgd1na2vs0mg"},{"bike_id":"bf52ee01-a9b3-48cb-905a-de09f9f63daf","system_id":"levelo_inurba_marseille","lat":43.2936,"lon":5.37835,"is_reserved":false,"is_disabled":false,"rental_uris":{"android":"levelo://app?vid=bf52ee01-a9b3-48cb-905a-de09f9f63daf","ios":"levelo://app?vid=bf52ee01-a9b3-48cb-905a-de09f9f63daf"},"vehicle_type_id":"4","last_reported":1724688699,"current_range_meters":0,"station_id":"ce4bgjh2rcd13ifvqbf0","pricing_plan_id":"cebpf4jnsgd1na2vs0mg"},{"bike_id":"6ed7a96e-d325-4686-b16e-4fa4e6193415","system_id":"levelo_inurba_marseille","lat":43.2936,"lon":5.37835,"is_reserved":false,"is_disabled":false,"rental_uris":{"android":"levelo://app?vid=6ed7a96e-d325-4686-b16e-4fa4e6193415","ios":"levelo://app?vid=6ed7a96e-d325-4686-b16e-4fa4e6193415"},"vehicle_type_id":"4","last_reported":1724688699,"current_range_meters":14400,"station_id":"ce4bgjh2rcd13ifvqbf0","pricing_plan_id":"cebpf4jnsgd1na2vs0mg"},{"bike_id":"baab7e44-96d5-41d6-9718-b3c1c1fc35d5","system_id":"levelo_inurba_marseille","lat":43.302992,"lon":5.392136,"is_reserved":false,"is_disabled":false,"rental_uris":{"android":"levelo://app?vid=baab7e44-96d5-41d6-9718-b3c1c1fc35d5","ios":"levelo://app?vid=baab7e44-96d5-41d6-9718-b3c1c1fc35d5"},"vehicle_type_id":"4","last_reported":1724688699,"current_range_meters":0,"station_id":"ce4bgkh2rcd13ifvqbk0","pricing_plan_id":"cebpf4jnsgd1na2vs0mg"},{"bike_id":"e46db5f7-e58d-49ca-bda3-ae83aab1893f","system_id":"levelo_inurba_marseille","lat":43.2936,"lon":5.37835,"is_reserved":false,"is_disabled":false,"rental_uris":{"android":"levelo://app?vid=e46db5f7-e58d-49ca-bda3-ae83aab1893f","ios":"levelo://app?vid=e46db5f7-e58d-49ca-bda3-ae83aab1893f"},"vehicle_type_id":"4","last_reported":1724688699,"current_range_meters":27200,"station_id":"ce4bgjh2rcd13ifvqbf0","pricing_plan_id":"cebpf4jnsgd1na2vs0mg"},{"bike_id":"d34aa708-3bb6-4d8c-a756-fd2c49918ba1","system_id":"levelo_inurba_marseille","lat":43.292311,"lon":5.360731,"is_reserved":false,"is_disabled":false,"rental_uris":{"android":"levelo://app?vid=d34aa708-3bb6-4d8c-a756-fd2c49918ba1","ios":"levelo://app?vid=d34aa708-3bb6-4d8c-a756-fd2c49918ba1"},"vehicle_type_id":"4","last_reported":1724688699,"current_range_meters":8800,"station_id":"ce4bhbh2rcd13ifvqeqg","pricing_plan_id":"cebpf4jnsgd1na2vs0mg"},{"bike_id":"ab8582bc-a651-4348-a940-0a8d5ec27f3c","system_id":"levelo_inurba_marseille","lat":43.292289,"lon":5.360432,"is_reserved":false,"is_disabled":false,"rental_uris":{"android":"levelo://app?vid=ab8582bc-a651-4348-a940-0a8d5ec27f3c","ios":"levelo://app?vid=ab8582bc-a651-4348-a940-0a8d5ec27f3c"},"vehicle_type_id":"4","last_reported":1724688699,"current_range_meters":30800,"station_id":"ce4bhbh2rcd13ifvqeqg","pricing_plan_id":"cebpf4jnsgd1na2vs0mg"},{"bike_id":"05d0a604-b843-49f8-934c-6040e9bb670b","system_id":"levelo_inurba_marseille","lat":43.29227,"lon":5.36052,"is_reserved":false,"is_disabled":false,"rental_uris":{"android":"levelo://app?vid=05d0a604-b843-49f8-934c-6040e9bb670b","ios":"levelo://app?vid=05d0a604-b843-49f8-934c-6040e9bb670b"},"vehicle_type_id":"4","last_reported":1724688699,"current_range_meters":13600,"station_id":"ce4bhbh2rcd13ifvqeqg","pricing_plan_id":"cebpf4jnsgd1na2vs0mg"},{"bike_id":"a3b30a6c-2691-4761-a69a-37b9f6b6ee08","system_id":"levelo_inurba_marseille","lat":43.29224,"lon":5.36061,"is_reserved":false,"is_disabled":false,"rental_uris":{"android":"levelo://app?vid=a3b30a6c-2691-4761-a69a-37b9f6b6ee08","ios":"levelo://app?vid=a3b30a6c-2691-4761-a69a-37b9f6b6ee08"},"vehicle_type_id":"4","last_reported":1724688699,"current_range_meters":8400,"station_id":"ce4bhbh2rcd13ifvqeqg","pricing_plan_id":"cebpf4jnsgd1na2vs0mg"},{"bike_id":"ddf38744-9a46-47fd-9d09-24b2c1de021c","system_id":"levelo_inurba_marseille","lat":43.29224,"lon":5.36061,"is_reserved":false,"is_disabled":false,"rental_uris":{"android":"levelo://app?vid=ddf38744-9a46-47fd-9d09-24b2c1de021c","ios":"levelo://app?vid=ddf38744-9a46-47fd-9d09-24b2c1de021c"},"vehicle_type_id":"4","last_reported":1724688699,"current_range_meters":400,"station_id":"ce4bhbh2rcd13ifvqeqg","pricing_plan_id":"cebpf4jnsgd1na2vs0mg"},{"bike_id":"cdb411b6-81d1-43ac-bf3f-8368ba2c1347","system_id":"levelo_inurba_marseille","lat":43.29223,"lon":5.36053,"is_reserved":false,"is_disabled":false,"rental_uris":{"android":"levelo://app?vid=cdb411b6-81d1-43ac-bf3f-8368ba2c1347","ios":"levelo://app?vid=cdb411b6-81d1-43ac-bf3f-8368ba2c1347"},"vehicle_type_id":"4","last_reported":1724688699,"current_range_meters":31200,"station_id":"ce4bhbh2rcd13ifvqeqg","pricing_plan_id":"cebpf4jnsgd1na2vs0mg"},{"bike_id":"21960836-bb80-4048-a9f9-5bd4ca57d7dd","system_id":"levelo_inurba_marseille","lat":43.292311,"lon":5.360731,"is_reserved":false,"is_disabled":false,"rental_uris":{"android":"levelo://app?vid=21960836-bb80-4048-a9f9-5bd4ca57d7dd","ios":"levelo://app?vid=21960836-bb80-4048-a9f9-5bd4ca57d7dd"},"vehicle_type_id":"4","last_reported":1724688699,"current_range_meters":14000,"station_id":"ce4bhbh2rcd13ifvqeqg","pricing_plan_id":"cebpf4jnsgd1na2vs0mg"},{"bike_id":"83e9e724-4faf-4e41-b5c5-fdc82724e8d2","system_id":"levelo_inurba_marseille","lat":43.2922,"lon":5.36069,"is_reserved":false,"is_disabled":false,"rental_uris":{"android":"levelo://app?vid=83e9e724-4faf-4e41-b5c5-fdc82724e8d2","ios":"levelo://app?vid=83e9e724-4faf-4e41-b5c5-fdc82724e8d2"},"vehicle_type_id":"4","last_reported":1724688699,"current_range_meters":2400,"station_id":"ce4bhbh2rcd13ifvqeqg","pricing_plan_id":"cebpf4jnsgd1na2vs0mg"},{"bike_id":"72a27b0a-7571-47e5-95cc-38189a2c1061","system_id":"levelo_inurba_marseille","lat":43.29222,"lon":5.36056,"is_reserved":false,"is_disabled":false,"rental_uris":{"android":"levelo://app?vid=72a27b0a-7571-47e5-95cc-38189a2c1061","ios":"levelo://app?vid=72a27b0a-7571-47e5-95cc-38189a2c1061"},"vehicle_type_id":"4","last_reported":1724688699,"current_range_meters":0,"station_id":"ce4bhbh2rcd13ifvqeqg","pricing_plan_id":"cebpf4jnsgd1na2vs0mg"},{"bike_id":"7434b598-2c2f-465e-9d25-929b5d808df8","system_id":"levelo_inurba_marseille","lat":43.2922,"lon":5.3606,"is_reserved":false,"is_disabled":false,"rental_uris":{"android":"levelo://app?vid=7434b598-2c2f-465e-9d25-929b5d808df8","ios":"levelo://app?vid=7434b598-2c2f-465e-9d25-929b5d808df8"},"vehicle_type_id":"4","last_reported":1724688699,"current_range_meters":23600,"station_id":"ce4bhbh2rcd13ifvqeqg","pricing_plan_id":"cebpf4jnsgd1na2vs0mg"},{"bike_id":"67ed3989-db41-4fcd-971b-bca0561572d6","system_id":"levelo_inurba_marseille","lat":43.30085,"lon":5.390856,"is_reserved":false,"is_disabled":false,"rental_uris":{"android":"levelo://app?vid=67ed3989-db41-4fcd-971b-bca0561572d6","ios":"levelo://app?vid=67ed3989-db41-4fcd-971b-bca0561572d6"},"vehicle_type_id":"4","last_reported":1724688699,"current_range_meters":15600,"station_id":"ce4bh192rcd13ifvqdb0","pricing_plan_id":"cebpf4jnsgd1na2vs0mg"},{"bike_id":"efd0df11-f72c-420c-b2eb-9e7b03ed5852","system_id":"levelo_inurba_marseille","lat":43.298764,"lon":5.388973,"is_reserved":false,"is_disabled":false,"rental_uris":{"android":"levelo://app?vid=efd0df11-f72c-420c-b2eb-9e7b03ed5852","ios":"levelo://app?vid=efd0df11-f72c-420c-b2eb-9e7b03ed5852"},"vehicle_type_id":"4","last_reported":1724688699,"current_range_meters":0,"station_id":"ce4bh392rcd13ifvqdl0","pricing_plan_id":"cebpf4jnsgd1na2vs0mg"},{"bike_id":"7c3840b6-e598-406f-8559-c7d09d245d17","system_id":"levelo_inurba_marseille","lat":43.291688,"lon":5.371528,"is_reserved":false,"is_disabled":false,"rental_uris":{"android":"levelo://app?vid=7c3840b6-e598-406f-8559-c7d09d245d17","ios":"levelo://app?vid=7c3840b6-e598-406f-8559-c7d09d245d17"},"vehicle_type_id":"4","last_reported":1724688699,"current_range_meters":0,"station_id":"ce4bha92rcd13ifvqeh0","pricing_plan_id":"cebpf4jnsgd1na2vs0mg"},{"bike_id":"8c2af6f9-4739-40e7-8496-fe791764c9e6","system_id":"levelo_inurba_marseille","lat":43.29202,"lon":5.35802,"is_reserved":false,"is_disabled":false,"rental_uris":{"android":"levelo://app?vid=8c2af6f9-4739-40e7-8496-fe791764c9e6","ios":"levelo://app?vid=8c2af6f9-4739-40e7-8496-fe791764c9e6"},"vehicle_type_id":"4","last_reported":1724688699,"current_range_meters":20400,"station_id":"ce4bhb12rcd13ifvqel0","pricing_plan_id":"cebpf4jnsgd1na2vs0mg"},{"bike_id":"619aa877-051f-46fa-a239-ad5fe340d183","system_id":"levelo_inurba_marseille","lat":43.292001,"lon":5.358024,"is_reserved":false,"is_disabled":false,"rental_uris":{"android":"levelo://app?vid=619aa877-051f-46fa-a239-ad5fe340d183","ios":"levelo://app?vid=619aa877-051f-46fa-a239-ad5fe340d183"},"vehicle_type_id":"4","last_reported":1724688699,"current_range_meters":5200,"station_id":"ce4bhb12rcd13ifvqel0","pricing_plan_id":"cebpf4jnsgd1na2vs0mg"},{"bike_id":"61e37e67-610f-473d-8f81-4a23f8cd09d4","system_id":"levelo_inurba_marseille","lat":43.29201,"lon":5.35798,"is_reserved":false,"is_disabled":false,"rental_uris":{"android":"levelo://app?vid=61e37e67-610f-473d-8f81-4a23f8cd09d4","ios":"levelo://app?vid=61e37e67-610f-473d-8f81-4a23f8cd09d4"},"vehicle_type_id":"4","last_reported":1724688699,"current_range_meters":800,"station_id":"ce4bhb12rcd13ifvqel0","pricing_plan_id":"cebpf4jnsgd1na2vs0mg"},{"bike_id":"d30a5bbc-616a-41e3-840e-d15debe4bcd9","system_id":"levelo_inurba_marseille","lat":43.291961,"lon":5.358033,"is_reserved":false,"is_disabled":false,"rental_uris":{"android":"levelo://app?vid=d30a5bbc-616a-41e3-840e-d15debe4bcd9","ios":"levelo://app?vid=d30a5bbc-616a-41e3-840e-d15debe4bcd9"},"vehicle_type_id":"4","last_reported":1724688699,"current_range_meters":31200,"station_id":"ce4bhb12rcd13ifvqel0","pricing_plan_id":"cebpf4jnsgd1na2vs0mg"},{"bike_id":"a8783694-237a-43ca-927d-986ff84b76a5","system_id":"levelo_inurba_marseille","lat":43.29196,"lon":5.35799,"is_reserved":false,"is_disabled":false,"rental_uris":{"android":"levelo://app?vid=a8783694-237a-43ca-927d-986ff84b76a5","ios":"levelo://app?vid=a8783694-237a-43ca-927d-986ff84b76a5"},"vehicle_type_id":"4","last_reported":1724688699,"current_range_meters":4800,"station_id":"ce4bhb12rcd13ifvqel0","pricing_plan_id":"cebpf4jnsgd1na2vs0mg"},{"bike_id":"6bed53e9-2bc5-402c-ad28-e64cc57c2d8c","system_id":"levelo_inurba_marseille","lat":43.29195,"lon":5.35795,"is_reserved":false,"is_disabled":false,"rental_uris":{"android":"levelo://app?vid=6bed53e9-2bc5-402c-ad28-e64cc57c2d8c","ios":"levelo://app?vid=6bed53e9-2bc5-402c-ad28-e64cc57c2d8c"},"vehicle_type_id":"4","last_reported":1724688699,"current_range_meters":0,"station_id":"ce4bhb12rcd13ifvqel0","pricing_plan_id":"cebpf4jnsgd1na2vs0mg"},{"bike_id":"993ca758-7b39-49f0-a48a-f6f42dd08d24","system_id":"levelo_inurba_marseille","lat":43.29195,"lon":5.35794,"is_reserved":false,"is_disabled":false,"rental_uris":{"android":"levelo://app?vid=993ca758-7b39-49f0-a48a-f6f42dd08d24","ios":"levelo://app?vid=993ca758-7b39-49f0-a48a-f6f42dd08d24"},"vehicle_type_id":"4","last_reported":1724688699,"current_range_meters":26400,"station_id":"ce4bhb12rcd13ifvqel0","pricing_plan_id":"cebpf4jnsgd1na2vs0mg"},{"bike_id":"d1acb5e4-a51c-43cc-b8f3-ff70b88b2caf","system_id":"levelo_inurba_marseille","lat":43.313291,"lon":5.396838,"is_reserved":false,"is_disabled":false,"rental_uris":{"android":"levelo://app?vid=d1acb5e4-a51c-43cc-b8f3-ff70b88b2caf","ios":"levelo://app?vid=d1acb5e4-a51c-43cc-b8f3-ff70b88b2caf"},"vehicle_type_id":"4","last_reported":1724688699,"current_range_meters":800,"station_id":"ce4bgvp2rcd13ifvqcu0","pricing_plan_id":"cebpf4jnsgd1na2vs0mg"},{"bike_id":"af86fc0b-ba16-4649-a218-61b79bfde7b3","system_id":"levelo_inurba_marseille","lat":43.29195,"lon":5.35791,"is_reserved":false,"is_disabled":false,"rental_uris":{"android":"levelo://app?vid=af86fc0b-ba16-4649-a218-61b79bfde7b3","ios":"levelo://app?vid=af86fc0b-ba16-4649-a218-61b79bfde7b3"},"vehicle_type_id":"4","last_reported":1724688699,"current_range_meters":0,"station_id":"ce4bhb12rcd13ifvqel0","pricing_plan_id":"cebpf4jnsgd1na2vs0mg"},{"bike_id":"a20dc35c-9278-45ea-8411-7940b0f02d5b","system_id":"levelo_inurba_marseille","lat":43.313291,"lon":5.396838,"is_reserved":false,"is_disabled":false,"rental_uris":{"android":"levelo://app?vid=a20dc35c-9278-45ea-8411-7940b0f02d5b","ios":"levelo://app?vid=a20dc35c-9278-45ea-8411-7940b0f02d5b"},"vehicle_type_id":"4","last_reported":1724688699,"current_range_meters":2400,"station_id":"ce4bgvp2rcd13ifvqcu0","pricing_plan_id":"cebpf4jnsgd1na2vs0mg"},{"bike_id":"a93609e4-c02f-40e6-b513-2add6ba17fa5","system_id":"levelo_inurba_marseille","lat":43.309047,"lon":5.396551,"is_reserved":false,"is_disabled":false,"rental_uris":{"android":"levelo://app?vid=a93609e4-c02f-40e6-b513-2add6ba17fa5","ios":"levelo://app?vid=a93609e4-c02f-40e6-b513-2add6ba17fa5"},"vehicle_type_id":"4","last_reported":1724688699,"current_range_meters":19200,"station_id":"ce4bh012rcd13ifvqcv0","pricing_plan_id":"cebpf4jnsgd1na2vs0mg"},{"bike_id":"f50f0348-1997-4f98-af34-8536a1f167e3","system_id":"levelo_inurba_marseille","lat":43.33426,"lon":5.36133,"is_reserved":false,"is_disabled":false,"rental_uris":{"android":"levelo://app?vid=f50f0348-1997-4f98-af34-8536a1f167e3","ios":"levelo://app?vid=f50f0348-1997-4f98-af34-8536a1f167e3"},"vehicle_type_id":"4","last_reported":1724688699,"current_range_meters":10400,"station_id":"","pricing_plan_id":"cebpf4jnsgd1na2vs0mg"},{"bike_id":"1590826a-6b31-4345-8c77-263bc672e69d","system_id":"levelo_inurba_marseille","lat":43.313291,"lon":5.396838,"is_reserved":false,"is_disabled":false,"rental_uris":{"android":"levelo://app?vid=1590826a-6b31-4345-8c77-263bc672e69d","ios":"levelo://app?vid=1590826a-6b31-4345-8c77-263bc672e69d"},"vehicle_type_id":"4","last_reported":1724688699,"current_range_meters":28400,"station_id":"ce4bgvp2rcd13ifvqcu0","pricing_plan_id":"cebpf4jnsgd1na2vs0mg"},{"bike_id":"d7f1fe58-c685-496d-a4f6-c6f858d2c183","system_id":"levelo_inurba_marseille","lat":43.29529,"lon":5.385581,"is_reserved":false,"is_disabled":false,"rental_uris":{"android":"levelo://app?vid=d7f1fe58-c685-496d-a4f6-c6f858d2c183","ios":"levelo://app?vid=d7f1fe58-c685-496d-a4f6-c6f858d2c183"},"vehicle_type_id":"4","last_reported":1724688699,"current_range_meters":8000,"station_id":"ce4bgih2rcd13ifvqba0","pricing_plan_id":"cebpf4jnsgd1na2vs0mg"},{"bike_id":"f299e9d8-5cc2-41d7-bbc6-1be9382bb7d8","system_id":"levelo_inurba_marseille","lat":43.29529,"lon":5.385581,"is_reserved":false,"is_disabled":false,"rental_uris":{"android":"levelo://app?vid=f299e9d8-5cc2-41d7-bbc6-1be9382bb7d8","ios":"levelo://app?vid=f299e9d8-5cc2-41d7-bbc6-1be9382bb7d8"},"vehicle_type_id":"4","last_reported":1724688699,"current_range_meters":8000,"station_id":"ce4bgih2rcd13ifvqba0","pricing_plan_id":"cebpf4jnsgd1na2vs0mg"},{"bike_id":"ce791953-4592-4c63-bacd-f317dcf2bc82","system_id":"levelo_inurba_marseille","lat":43.29529,"lon":5.385581,"is_reserved":false,"is_disabled":false,"rental_uris":{"android":"levelo://app?vid=ce791953-4592-4c63-bacd-f317dcf2bc82","ios":"levelo://app?vid=ce791953-4592-4c63-bacd-f317dcf2bc82"},"vehicle_type_id":"4","last_reported":1724688699,"current_range_meters":13600,"station_id":"ce4bgih2rcd13ifvqba0","pricing_plan_id":"cebpf4jnsgd1na2vs0mg"},{"bike_id":"e50fef5f-06bb-4681-96f4-4fec9821795e","system_id":"levelo_inurba_marseille","lat":43.290779,"lon":5.371482,"is_reserved":false,"is_disabled":false,"rental_uris":{"android":"levelo://app?vid=e50fef5f-06bb-4681-96f4-4fec9821795e","ios":"levelo://app?vid=e50fef5f-06bb-4681-96f4-4fec9821795e"},"vehicle_type_id":"4","last_reported":1724688699,"current_range_meters":10000,"station_id":"ce4bh5p2rcd13ifvqe4g","pricing_plan_id":"cebpf4jnsgd1na2vs0mg"},{"bike_id":"b088afe0-93f4-4912-b81d-a66a2f5eeaa8","system_id":"levelo_inurba_marseille","lat":43.309038,"lon":5.396546,"is_reserved":false,"is_disabled":false,"rental_uris":{"android":"levelo://app?vid=b088afe0-93f4-4912-b81d-a66a2f5eeaa8","ios":"levelo://app?vid=b088afe0-93f4-4912-b81d-a66a2f5eeaa8"},"vehicle_type_id":"4","last_reported":1724688699,"current_range_meters":4000,"station_id":"ce4bh012rcd13ifvqcv0","pricing_plan_id":"cebpf4jnsgd1na2vs0mg"},{"bike_id":"bc41d531-70b6-4eaa-acb3-c1ecf951b050","system_id":"levelo_inurba_marseille","lat":43.302008,"lon":5.394694,"is_reserved":false,"is_disabled":false,"rental_uris":{"android":"levelo://app?vid=bc41d531-70b6-4eaa-acb3-c1ecf951b050","ios":"levelo://app?vid=bc41d531-70b6-4eaa-acb3-c1ecf951b050"},"vehicle_type_id":"4","last_reported":1724688699,"current_range_meters":20400,"station_id":"ce4bh0p2rcd13ifvqd70","pricing_plan_id":"cebpf4jnsgd1na2vs0mg"},{"bike_id":"4c58d459-caa6-4c77-8276-91d87ef669fe","system_id":"levelo_inurba_marseille","lat":43.302008,"lon":5.394694,"is_reserved":false,"is_disabled":false,"rental_uris":{"android":"levelo://app?vid=4c58d459-caa6-4c77-8276-91d87ef669fe","ios":"levelo://app?vid=4c58d459-caa6-4c77-8276-91d87ef669fe"},"vehicle_type_id":"4","last_reported":1724688699,"current_range_meters":20400,"station_id":"ce4bh0p2rcd13ifvqd70","pricing_plan_id":"cebpf4jnsgd1na2vs0mg"},{"bike_id":"3e0b5e10-53bc-425d-b0be-37c4d1a94565","system_id":"levelo_inurba_marseille","lat":43.324611,"lon":5.393784,"is_reserved":false,"is_disabled":false,"rental_uris":{"android":"levelo://app?vid=3e0b5e10-53bc-425d-b0be-37c4d1a94565","ios":"levelo://app?vid=3e0b5e10-53bc-425d-b0be-37c4d1a94565"},"vehicle_type_id":"4","last_reported":1724688699,"current_range_meters":6400,"station_id":"","pricing_plan_id":"cebpf4jnsgd1na2vs0mg"},{"bike_id":"102c6ad6-bb96-417f-afe5-95f4775af2a0","system_id":"levelo_inurba_marseille","lat":43.290624,"lon":5.359245,"is_reserved":false,"is_disabled":false,"rental_uris":{"android":"levelo://app?vid=102c6ad6-bb96-417f-afe5-95f4775af2a0","ios":"levelo://app?vid=102c6ad6-bb96-417f-afe5-95f4775af2a0"},"vehicle_type_id":"4","last_reported":1724688699,"current_range_meters":20000,"station_id":"ce4bha92rcd13ifvqeg0","pricing_plan_id":"cebpf4jnsgd1na2vs0mg"},{"bike_id":"6be4234f-cced-4f1d-b6de-aa6d5cad540b","system_id":"levelo_inurba_marseille","lat":43.290624,"lon":5.359245,"is_reserved":false,"is_disabled":false,"rental_uris":{"android":"levelo://app?vid=6be4234f-cced-4f1d-b6de-aa6d5cad540b","ios":"levelo://app?vid=6be4234f-cced-4f1d-b6de-aa6d5cad540b"},"vehicle_type_id":"4","last_reported":1724688699,"current_range_meters":4400,"station_id":"ce4bha92rcd13ifvqeg0","pricing_plan_id":"cebpf4jnsgd1na2vs0mg"},{"bike_id":"cd68899b-db2f-4fb9-b063-6c4a9900b882","system_id":"levelo_inurba_marseille","lat":43.290631,"lon":5.359244,"is_reserved":false,"is_disabled":false,"rental_uris":{"android":"levelo://app?vid=cd68899b-db2f-4fb9-b063-6c4a9900b882","ios":"levelo://app?vid=cd68899b-db2f-4fb9-b063-6c4a9900b882"},"vehicle_type_id":"4","last_reported":1724688699,"current_range_meters":7600,"station_id":"ce4bha92rcd13ifvqeg0","pricing_plan_id":"cebpf4jnsgd1na2vs0mg"},{"bike_id":"33ad88af-2946-4111-815a-33b5a7bfe644","system_id":"levelo_inurba_marseille","lat":43.290631,"lon":5.359244,"is_reserved":false,"is_disabled":false,"rental_uris":{"android":"levelo://app?vid=33ad88af-2946-4111-815a-33b5a7bfe644","ios":"levelo://app?vid=33ad88af-2946-4111-815a-33b5a7bfe644"},"vehicle_type_id":"4","last_reported":1724688699,"current_range_meters":800,"station_id":"ce4bha92rcd13ifvqeg0","pricing_plan_id":"cebpf4jnsgd1na2vs0mg"},{"bike_id":"50458e76-9f55-4865-9d36-05d5f14a1ec4","system_id":"levelo_inurba_marseille","lat":43.294162,"lon":5.386292,"is_reserved":false,"is_disabled":false,"rental_uris":{"android":"levelo://app?vid=50458e76-9f55-4865-9d36-05d5f14a1ec4","ios":"levelo://app?vid=50458e76-9f55-4865-9d36-05d5f14a1ec4"},"vehicle_type_id":"4","last_reported":1724688699,"current_range_meters":12000,"station_id":"ce4bh2h2rcd13ifvqdh0","pricing_plan_id":"cebpf4jnsgd1na2vs0mg"},{"bike_id":"feecc1e3-9af4-4ea4-9653-ca4c75ffa32b","system_id":"levelo_inurba_marseille","lat":43.294162,"lon":5.386292,"is_reserved":false,"is_disabled":false,"rental_uris":{"android":"levelo://app?vid=feecc1e3-9af4-4ea4-9653-ca4c75ffa32b","ios":"levelo://app?vid=feecc1e3-9af4-4ea4-9653-ca4c75ffa32b"},"vehicle_type_id":"4","last_reported":1724688699,"current_range_meters":20000,"station_id":"ce4bh2h2rcd13ifvqdh0","pricing_plan_id":"cebpf4jnsgd1na2vs0mg"},{"bike_id":"32c6aa5b-d0e8-4e43-99e1-9d01128a2ca5","system_id":"levelo_inurba_marseille","lat":43.29423,"lon":5.38624,"is_reserved":false,"is_disabled":false,"rental_uris":{"android":"levelo://app?vid=32c6aa5b-d0e8-4e43-99e1-9d01128a2ca5","ios":"levelo://app?vid=32c6aa5b-d0e8-4e43-99e1-9d01128a2ca5"},"vehicle_type_id":"4","last_reported":1724688699,"current_range_meters":0,"station_id":"ce4bh2h2rcd13ifvqdh0","pricing_plan_id":"cebpf4jnsgd1na2vs0mg"},{"bike_id":"dea53b36-147e-4cef-88d8-afe7af3ad214","system_id":"levelo_inurba_marseille","lat":43.294162,"lon":5.386292,"is_reserved":false,"is_disabled":false,"rental_uris":{"android":"levelo://app?vid=dea53b36-147e-4cef-88d8-afe7af3ad214","ios":"levelo://app?vid=dea53b36-147e-4cef-88d8-afe7af3ad214"},"vehicle_type_id":"4","last_reported":1724688699,"current_range_meters":21200,"station_id":"ce4bh2h2rcd13ifvqdh0","pricing_plan_id":"cebpf4jnsgd1na2vs0mg"},{"bike_id":"393617ef-5a05-431f-ab4e-30caa6011c95","system_id":"levelo_inurba_marseille","lat":43.289184,"lon":5.366408,"is_reserved":false,"is_disabled":false,"rental_uris":{"android":"levelo://app?vid=393617ef-5a05-431f-ab4e-30caa6011c95","ios":"levelo://app?vid=393617ef-5a05-431f-ab4e-30caa6011c95"},"vehicle_type_id":"4","last_reported":1724688699,"current_range_meters":1600,"station_id":"ce4bhap2rcd13ifvqek0","pricing_plan_id":"cebpf4jnsgd1na2vs0mg"},{"bike_id":"27bd6446-d3b2-4536-9945-219cc9cb8229","system_id":"levelo_inurba_marseille","lat":43.2895,"lon":5.36392,"is_reserved":false,"is_disabled":false,"rental_uris":{"android":"levelo://app?vid=27bd6446-d3b2-4536-9945-219cc9cb8229","ios":"levelo://app?vid=27bd6446-d3b2-4536-9945-219cc9cb8229"},"vehicle_type_id":"4","last_reported":1724688699,"current_range_meters":28000,"station_id":"ce4bhc92rcd13ifvqetg","pricing_plan_id":"cebpf4jnsgd1na2vs0mg"},{"bike_id":"5ace8b58-2138-4006-b39b-14c3e8674ae6","system_id":"levelo_inurba_marseille","lat":43.28937,"lon":5.36634,"is_reserved":false,"is_disabled":false,"rental_uris":{"android":"levelo://app?vid=5ace8b58-2138-4006-b39b-14c3e8674ae6","ios":"levelo://app?vid=5ace8b58-2138-4006-b39b-14c3e8674ae6"},"vehicle_type_id":"4","last_reported":1724688699,"current_range_meters":7600,"station_id":"ce4bhap2rcd13ifvqek0","pricing_plan_id":"cebpf4jnsgd1na2vs0mg"},{"bike_id":"56eea6fd-174a-4da4-a9d4-94735ee11a01","system_id":"levelo_inurba_marseille","lat":43.289184,"lon":5.366408,"is_reserved":false,"is_disabled":false,"rental_uris":{"android":"levelo://app?vid=56eea6fd-174a-4da4-a9d4-94735ee11a01","ios":"levelo://app?vid=56eea6fd-174a-4da4-a9d4-94735ee11a01"},"vehicle_type_id":"4","last_reported":1724688699,"current_range_meters":4000,"station_id":"ce4bhap2rcd13ifvqek0","pricing_plan_id":"cebpf4jnsgd1na2vs0mg"},{"bike_id":"5eb777aa-edbb-498b-bc64-6174d6c914a0","system_id":"levelo_inurba_marseille","lat":43.28946,"lon":5.3639,"is_reserved":false,"is_disabled":false,"rental_uris":{"android":"levelo://app?vid=5eb777aa-edbb-498b-bc64-6174d6c914a0","ios":"levelo://app?vid=5eb777aa-edbb-498b-bc64-6174d6c914a0"},"vehicle_type_id":"4","last_reported":1724688699,"current_range_meters":19600,"station_id":"ce4bhc92rcd13ifvqetg","pricing_plan_id":"cebpf4jnsgd1na2vs0mg"},{"bike_id":"b862558d-c461-4c1b-9a1f-996e424311cd","system_id":"levelo_inurba_marseille","lat":43.289184,"lon":5.366408,"is_reserved":false,"is_disabled":false,"rental_uris":{"android":"levelo://app?vid=b862558d-c461-4c1b-9a1f-996e424311cd","ios":"levelo://app?vid=b862558d-c461-4c1b-9a1f-996e424311cd"},"vehicle_type_id":"4","last_reported":1724688699,"current_range_meters":31200,"station_id":"ce4bhap2rcd13ifvqek0","pricing_plan_id":"cebpf4jnsgd1na2vs0mg"},{"bike_id":"82ce1352-c1f9-4097-b867-33126250a9d9","system_id":"levelo_inurba_marseille","lat":43.28942,"lon":5.36391,"is_reserved":false,"is_disabled":false,"rental_uris":{"android":"levelo://app?vid=82ce1352-c1f9-4097-b867-33126250a9d9","ios":"levelo://app?vid=82ce1352-c1f9-4097-b867-33126250a9d9"},"vehicle_type_id":"4","last_reported":1724688699,"current_range_meters":18000,"station_id":"ce4bhc92rcd13ifvqetg","pricing_plan_id":"cebpf4jnsgd1na2vs0mg"},{"bike_id":"50e06500-e912-43e5-b7e6-68fca5d70bc5","system_id":"levelo_inurba_marseille","lat":43.289184,"lon":5.366408,"is_reserved":false,"is_disabled":false,"rental_uris":{"android":"levelo://app?vid=50e06500-e912-43e5-b7e6-68fca5d70bc5","ios":"levelo://app?vid=50e06500-e912-43e5-b7e6-68fca5d70bc5"},"vehicle_type_id":"4","last_reported":1724688699,"current_range_meters":5600,"station_id":"ce4bhap2rcd13ifvqek0","pricing_plan_id":"cebpf4jnsgd1na2vs0mg"},{"bike_id":"120a4c8d-f2cc-4ced-92e1-dde86dfe06f5","system_id":"levelo_inurba_marseille","lat":43.289184,"lon":5.366408,"is_reserved":false,"is_disabled":false,"rental_uris":{"android":"levelo://app?vid=120a4c8d-f2cc-4ced-92e1-dde86dfe06f5","ios":"levelo://app?vid=120a4c8d-f2cc-4ced-92e1-dde86dfe06f5"},"vehicle_type_id":"4","last_reported":1724688699,"current_range_meters":18000,"station_id":"ce4bhap2rcd13ifvqek0","pricing_plan_id":"cebpf4jnsgd1na2vs0mg"},{"bike_id":"4c6fb71f-b5d4-489d-94e2-dd898524e201","system_id":"levelo_inurba_marseille","lat":43.289353,"lon":5.364064,"is_reserved":false,"is_disabled":false,"rental_uris":{"android":"levelo://app?vid=4c6fb71f-b5d4-489d-94e2-dd898524e201","ios":"levelo://app?vid=4c6fb71f-b5d4-489d-94e2-dd898524e201"},"vehicle_type_id":"4","last_reported":1724688699,"current_range_meters":0,"station_id":"ce4bhc92rcd13ifvqetg","pricing_plan_id":"cebpf4jnsgd1na2vs0mg"},{"bike_id":"f3ba9c5e-03e6-4187-92ee-6871f4ab2da4","system_id":"levelo_inurba_marseille","lat":43.28931,"lon":5.36387,"is_reserved":false,"is_disabled":false,"rental_uris":{"android":"levelo://app?vid=f3ba9c5e-03e6-4187-92ee-6871f4ab2da4","ios":"levelo://app?vid=f3ba9c5e-03e6-4187-92ee-6871f4ab2da4"},"vehicle_type_id":"4","last_reported":1724688699,"current_range_meters":30800,"station_id":"ce4bhc92rcd13ifvqetg","pricing_plan_id":"cebpf4jnsgd1na2vs0mg"},{"bike_id":"707b7b8a-7866-4c87-b10c-44a812362c7e","system_id":"levelo_inurba_marseille","lat":43.292642,"lon":5.384254,"is_reserved":false,"is_disabled":false,"rental_uris":{"android":"levelo://app?vid=707b7b8a-7866-4c87-b10c-44a812362c7e","ios":"levelo://app?vid=707b7b8a-7866-4c87-b10c-44a812362c7e"},"vehicle_type_id":"4","last_reported":1724688699,"current_range_meters":6000,"station_id":"ce4bh692rcd13ifvqea0","pricing_plan_id":"cebpf4jnsgd1na2vs0mg"},{"bike_id":"27cc2157-7b6e-41d1-b87c-d1ca389f49cf","system_id":"levelo_inurba_marseille","lat":43.292642,"lon":5.384254,"is_reserved":false,"is_disabled":false,"rental_uris":{"android":"levelo://app?vid=27cc2157-7b6e-41d1-b87c-d1ca389f49cf","ios":"levelo://app?vid=27cc2157-7b6e-41d1-b87c-d1ca389f49cf"},"vehicle_type_id":"4","last_reported":1724688699,"current_range_meters":0,"station_id":"ce4bh692rcd13ifvqea0","pricing_plan_id":"cebpf4jnsgd1na2vs0mg"},{"bike_id":"ffe65fa4-ca29-4c4e-ae19-faee7b100620","system_id":"levelo_inurba_marseille","lat":43.290104,"lon":5.356111,"is_reserved":false,"is_disabled":false,"rental_uris":{"android":"levelo://app?vid=ffe65fa4-ca29-4c4e-ae19-faee7b100620","ios":"levelo://app?vid=ffe65fa4-ca29-4c4e-ae19-faee7b100620"},"vehicle_type_id":"4","last_reported":1724688699,"current_range_meters":800,"station_id":"ce4bhb92rcd13ifvqen0","pricing_plan_id":"cebpf4jnsgd1na2vs0mg"},{"bike_id":"69037c28-f56c-4b0c-b48b-c4e0a9426c4d","system_id":"levelo_inurba_marseille","lat":43.290104,"lon":5.356111,"is_reserved":false,"is_disabled":false,"rental_uris":{"android":"levelo://app?vid=69037c28-f56c-4b0c-b48b-c4e0a9426c4d","ios":"levelo://app?vid=69037c28-f56c-4b0c-b48b-c4e0a9426c4d"},"vehicle_type_id":"4","last_reported":1724688699,"current_range_meters":6800,"station_id":"ce4bhb92rcd13ifvqen0","pricing_plan_id":"cebpf4jnsgd1na2vs0mg"},{"bike_id":"7e1dec66-58b9-419a-a922-c9c496ebd73b","system_id":"levelo_inurba_marseille","lat":43.290104,"lon":5.356111,"is_reserved":false,"is_disabled":false,"rental_uris":{"android":"levelo://app?vid=7e1dec66-58b9-419a-a922-c9c496ebd73b","ios":"levelo://app?vid=7e1dec66-58b9-419a-a922-c9c496ebd73b"},"vehicle_type_id":"4","last_reported":1724688699,"current_range_meters":9200,"station_id":"ce4bhb92rcd13ifvqen0","pricing_plan_id":"cebpf4jnsgd1na2vs0mg"},{"bike_id":"37c5ac94-5167-44d3-a9ec-90832cec960b","system_id":"levelo_inurba_marseille","lat":43.29011,"lon":5.35607,"is_reserved":false,"is_disabled":false,"rental_uris":{"android":"levelo://app?vid=37c5ac94-5167-44d3-a9ec-90832cec960b","ios":"levelo://app?vid=37c5ac94-5167-44d3-a9ec-90832cec960b"},"vehicle_type_id":"4","last_reported":1724688699,"current_range_meters":0,"station_id":"ce4bhb92rcd13ifvqen0","pricing_plan_id":"cebpf4jnsgd1na2vs0mg"},{"bike_id":"adf8aa61-9c80-4d4f-8a3c-4b3c7d6677af","system_id":"levelo_inurba_marseille","lat":43.290104,"lon":5.356111,"is_reserved":false,"is_disabled":false,"rental_uris":{"android":"levelo://app?vid=adf8aa61-9c80-4d4f-8a3c-4b3c7d6677af","ios":"levelo://app?vid=adf8aa61-9c80-4d4f-8a3c-4b3c7d6677af"},"vehicle_type_id":"4","last_reported":1724688699,"current_range_meters":31200,"station_id":"ce4bhb92rcd13ifvqen0","pricing_plan_id":"cebpf4jnsgd1na2vs0mg"},{"bike_id":"21ea94c3-0ed6-4b1b-a54d-aa6ee35ae84f","system_id":"levelo_inurba_marseille","lat":43.290104,"lon":5.356111,"is_reserved":false,"is_disabled":false,"rental_uris":{"android":"levelo://app?vid=21ea94c3-0ed6-4b1b-a54d-aa6ee35ae84f","ios":"levelo://app?vid=21ea94c3-0ed6-4b1b-a54d-aa6ee35ae84f"},"vehicle_type_id":"4","last_reported":1724688699,"current_range_meters":800,"station_id":"ce4bhb92rcd13ifvqen0","pricing_plan_id":"cebpf4jnsgd1na2vs0mg"},{"bike_id":"35251f0b-0b70-42ba-8c05-e034e9a1e470","system_id":"levelo_inurba_marseille","lat":43.290104,"lon":5.356111,"is_reserved":false,"is_disabled":false,"rental_uris":{"android":"levelo://app?vid=35251f0b-0b70-42ba-8c05-e034e9a1e470","ios":"levelo://app?vid=35251f0b-0b70-42ba-8c05-e034e9a1e470"},"vehicle_type_id":"4","last_reported":1724688699,"current_range_meters":25600,"station_id":"ce4bhb92rcd13ifvqen0","pricing_plan_id":"cebpf4jnsgd1na2vs0mg"},{"bike_id":"ab5ad46c-7fcd-4c9c-82d1-6ac82a056dab","system_id":"levelo_inurba_marseille","lat":43.290104,"lon":5.356111,"is_reserved":false,"is_disabled":false,"rental_uris":{"android":"levelo://app?vid=ab5ad46c-7fcd-4c9c-82d1-6ac82a056dab","ios":"levelo://app?vid=ab5ad46c-7fcd-4c9c-82d1-6ac82a056dab"},"vehicle_type_id":"4","last_reported":1724688699,"current_range_meters":5200,"station_id":"ce4bhb92rcd13ifvqen0","pricing_plan_id":"cebpf4jnsgd1na2vs0mg"},{"bike_id":"e373de24-47ff-4bcd-b397-d1d057777524","system_id":"levelo_inurba_marseille","lat":43.290104,"lon":5.356111,"is_reserved":false,"is_disabled":false,"rental_uris":{"android":"levelo://app?vid=e373de24-47ff-4bcd-b397-d1d057777524","ios":"levelo://app?vid=e373de24-47ff-4bcd-b397-d1d057777524"},"vehicle_type_id":"4","last_reported":1724688699,"current_range_meters":5600,"station_id":"ce4bhb92rcd13ifvqen0","pricing_plan_id":"cebpf4jnsgd1na2vs0mg"},{"bike_id":"f37f7289-080f-41d3-bfd3-faac05783a9f","system_id":"levelo_inurba_marseille","lat":43.290104,"lon":5.356111,"is_reserved":false,"is_disabled":false,"rental_uris":{"android":"levelo://app?vid=f37f7289-080f-41d3-bfd3-faac05783a9f","ios":"levelo://app?vid=f37f7289-080f-41d3-bfd3-faac05783a9f"},"vehicle_type_id":"4","last_reported":1724688699,"current_range_meters":0,"station_id":"ce4bhb92rcd13ifvqen0","pricing_plan_id":"cebpf4jnsgd1na2vs0mg"},{"bike_id":"55ea62c0-0044-4538-8ac6-f248041b4cf5","system_id":"levelo_inurba_marseille","lat":43.297815,"lon":5.393548,"is_reserved":false,"is_disabled":false,"rental_uris":{"android":"levelo://app?vid=55ea62c0-0044-4538-8ac6-f248041b4cf5","ios":"levelo://app?vid=55ea62c0-0044-4538-8ac6-f248041b4cf5"},"vehicle_type_id":"4","last_reported":1724688699,"current_range_meters":1200,"station_id":"chh1huq6cuj3fo74tm60","pricing_plan_id":"cebpf4jnsgd1na2vs0mg"},{"bike_id":"1b2a6a36-4c8b-442e-baa9-fa2e462bfa82","system_id":"levelo_inurba_marseille","lat":43.29531,"lon":5.3904,"is_reserved":false,"is_disabled":false,"rental_uris":{"android":"levelo://app?vid=1b2a6a36-4c8b-442e-baa9-fa2e462bfa82","ios":"levelo://app?vid=1b2a6a36-4c8b-442e-baa9-fa2e462bfa82"},"vehicle_type_id":"4","last_reported":1724688699,"current_range_meters":1600,"station_id":"ce4bh3p2rcd13ifvqdp0","pricing_plan_id":"cebpf4jnsgd1na2vs0mg"},{"bike_id":"225c9c89-2c0b-477d-9294-f992c86b5ec6","system_id":"levelo_inurba_marseille","lat":43.28975,"lon":5.37825,"is_reserved":false,"is_disabled":false,"rental_uris":{"android":"levelo://app?vid=225c9c89-2c0b-477d-9294-f992c86b5ec6","ios":"levelo://app?vid=225c9c89-2c0b-477d-9294-f992c86b5ec6"},"vehicle_type_id":"4","last_reported":1724688699,"current_range_meters":27600,"station_id":"ce4bh9p2rcd13ifvqed0","pricing_plan_id":"cebpf4jnsgd1na2vs0mg"},{"bike_id":"d74f8e03-6953-4ea3-bafd-ccae5b05d505","system_id":"levelo_inurba_marseille","lat":43.33027,"lon":5.3903,"is_reserved":false,"is_disabled":false,"rental_uris":{"android":"levelo://app?vid=d74f8e03-6953-4ea3-bafd-ccae5b05d505","ios":"levelo://app?vid=d74f8e03-6953-4ea3-bafd-ccae5b05d505"},"vehicle_type_id":"4","last_reported":1724688699,"current_range_meters":0,"station_id":"ce4bhr92rcd13ifvqhrg","pricing_plan_id":"cebpf4jnsgd1na2vs0mg"},{"bike_id":"ff5a67e8-7448-47ea-969a-7ee519525fa1","system_id":"levelo_inurba_marseille","lat":43.33024,"lon":5.39035,"is_reserved":false,"is_disabled":false,"rental_uris":{"android":"levelo://app?vid=ff5a67e8-7448-47ea-969a-7ee519525fa1","ios":"levelo://app?vid=ff5a67e8-7448-47ea-969a-7ee519525fa1"},"vehicle_type_id":"4","last_reported":1724688699,"current_range_meters":6000,"station_id":"ce4bhr92rcd13ifvqhrg","pricing_plan_id":"cebpf4jnsgd1na2vs0mg"},{"bike_id":"e6069a1d-0952-463f-8d5d-0fae23937954","system_id":"levelo_inurba_marseille","lat":43.29777,"lon":5.39346,"is_reserved":false,"is_disabled":false,"rental_uris":{"android":"levelo://app?vid=e6069a1d-0952-463f-8d5d-0fae23937954","ios":"levelo://app?vid=e6069a1d-0952-463f-8d5d-0fae23937954"},"vehicle_type_id":"4","last_reported":1724688699,"current_range_meters":0,"station_id":"chh1huq6cuj3fo74tm60","pricing_plan_id":"cebpf4jnsgd1na2vs0mg"},{"bike_id":"3dde8f54-5a2c-472e-8078-393d0db06477","system_id":"levelo_inurba_marseille","lat":43.330442,"lon":5.389148,"is_reserved":false,"is_disabled":false,"rental_uris":{"android":"levelo://app?vid=3dde8f54-5a2c-472e-8078-393d0db06477","ios":"levelo://app?vid=3dde8f54-5a2c-472e-8078-393d0db06477"},"vehicle_type_id":"4","last_reported":1724688699,"current_range_meters":25600,"station_id":"ce4bhr92rcd13ifvqhrg","pricing_plan_id":"cebpf4jnsgd1na2vs0mg"},{"bike_id":"bd414313-f9e3-44fe-afa3-4e335d292e64","system_id":"levelo_inurba_marseille","lat":43.330442,"lon":5.389148,"is_reserved":false,"is_disabled":false,"rental_uris":{"android":"levelo://app?vid=bd414313-f9e3-44fe-afa3-4e335d292e64","ios":"levelo://app?vid=bd414313-f9e3-44fe-afa3-4e335d292e64"},"vehicle_type_id":"4","last_reported":1724688699,"current_range_meters":31200,"station_id":"ce4bhr92rcd13ifvqhrg","pricing_plan_id":"cebpf4jnsgd1na2vs0mg"},{"bike_id":"d0983350-b54b-45b4-9b64-77d38941eeab","system_id":"levelo_inurba_marseille","lat":43.330442,"lon":5.389148,"is_reserved":false,"is_disabled":false,"rental_uris":{"android":"levelo://app?vid=d0983350-b54b-45b4-9b64-77d38941eeab","ios":"levelo://app?vid=d0983350-b54b-45b4-9b64-77d38941eeab"},"vehicle_type_id":"4","last_reported":1724688699,"current_range_meters":6000,"station_id":"ce4bhr92rcd13ifvqhrg","pricing_plan_id":"cebpf4jnsgd1na2vs0mg"},{"bike_id":"7c20ab1d-c791-44f7-a9d7-d588acc065df","system_id":"levelo_inurba_marseille","lat":43.297815,"lon":5.393548,"is_reserved":false,"is_disabled":false,"rental_uris":{"android":"levelo://app?vid=7c20ab1d-c791-44f7-a9d7-d588acc065df","ios":"levelo://app?vid=7c20ab1d-c791-44f7-a9d7-d588acc065df"},"vehicle_type_id":"4","last_reported":1724688699,"current_range_meters":2000,"station_id":"chh1huq6cuj3fo74tm60","pricing_plan_id":"cebpf4jnsgd1na2vs0mg"},{"bike_id":"aa5cbbc0-e4fd-4812-affc-d81be06608e9","system_id":"levelo_inurba_marseille","lat":43.295169,"lon":5.390426,"is_reserved":false,"is_disabled":false,"rental_uris":{"android":"levelo://app?vid=aa5cbbc0-e4fd-4812-affc-d81be06608e9","ios":"levelo://app?vid=aa5cbbc0-e4fd-4812-affc-d81be06608e9"},"vehicle_type_id":"4","last_reported":1724688699,"current_range_meters":17200,"station_id":"ce4bh3p2rcd13ifvqdp0","pricing_plan_id":"cebpf4jnsgd1na2vs0mg"},{"bike_id":"8fc7239b-64eb-432b-83fa-7a78fc952c66","system_id":"levelo_inurba_marseille","lat":43.295169,"lon":5.390426,"is_reserved":false,"is_disabled":false,"rental_uris":{"android":"levelo://app?vid=8fc7239b-64eb-432b-83fa-7a78fc952c66","ios":"levelo://app?vid=8fc7239b-64eb-432b-83fa-7a78fc952c66"},"vehicle_type_id":"4","last_reported":1724688699,"current_range_meters":0,"station_id":"ce4bh3p2rcd13ifvqdp0","pricing_plan_id":"cebpf4jnsgd1na2vs0mg"},{"bike_id":"d5781c5b-4e9a-4e2d-a839-5cc42c7bcb98","system_id":"levelo_inurba_marseille","lat":43.33026,"lon":5.39042,"is_reserved":false,"is_disabled":false,"rental_uris":{"android":"levelo://app?vid=d5781c5b-4e9a-4e2d-a839-5cc42c7bcb98","ios":"levelo://app?vid=d5781c5b-4e9a-4e2d-a839-5cc42c7bcb98"},"vehicle_type_id":"4","last_reported":1724688699,"current_range_meters":2400,"station_id":"ce4bhr92rcd13ifvqhrg","pricing_plan_id":"cebpf4jnsgd1na2vs0mg"},{"bike_id":"2e550883-0764-4aed-b62e-fc72f88d6c05","system_id":"levelo_inurba_marseille","lat":43.33028,"lon":5.3904,"is_reserved":false,"is_disabled":false,"rental_uris":{"android":"levelo://app?vid=2e550883-0764-4aed-b62e-fc72f88d6c05","ios":"levelo://app?vid=2e550883-0764-4aed-b62e-fc72f88d6c05"},"vehicle_type_id":"4","last_reported":1724688699,"current_range_meters":14800,"station_id":"ce4bhr92rcd13ifvqhrg","pricing_plan_id":"cebpf4jnsgd1na2vs0mg"},{"bike_id":"72a25ebe-8e03-4f61-a844-412886f70f18","system_id":"levelo_inurba_marseille","lat":43.33027,"lon":5.39043,"is_reserved":false,"is_disabled":false,"rental_uris":{"android":"levelo://app?vid=72a25ebe-8e03-4f61-a844-412886f70f18","ios":"levelo://app?vid=72a25ebe-8e03-4f61-a844-412886f70f18"},"vehicle_type_id":"4","last_reported":1724688699,"current_range_meters":25200,"station_id":"ce4bhr92rcd13ifvqhrg","pricing_plan_id":"cebpf4jnsgd1na2vs0mg"},{"bike_id":"75f276f5-72ee-4ba8-8dd4-75a649097d1a","system_id":"levelo_inurba_marseille","lat":43.2901,"lon":5.381269,"is_reserved":false,"is_disabled":false,"rental_uris":{"android":"levelo://app?vid=75f276f5-72ee-4ba8-8dd4-75a649097d1a","ios":"levelo://app?vid=75f276f5-72ee-4ba8-8dd4-75a649097d1a"},"vehicle_type_id":"4","last_reported":1724688699,"current_range_meters":6000,"station_id":"ce4bh4p2rcd13ifvqe1g","pricing_plan_id":"cebpf4jnsgd1na2vs0mg"},{"bike_id":"34b9a0f0-c676-423a-94c1-94468568260f","system_id":"levelo_inurba_marseille","lat":43.28856,"lon":5.358371,"is_reserved":false,"is_disabled":false,"rental_uris":{"android":"levelo://app?vid=34b9a0f0-c676-423a-94c1-94468568260f","ios":"levelo://app?vid=34b9a0f0-c676-423a-94c1-94468568260f"},"vehicle_type_id":"4","last_reported":1724688699,"current_range_meters":30000,"station_id":"ce4bhb12rcd13ifvqem0","pricing_plan_id":"cebpf4jnsgd1na2vs0mg"},{"bike_id":"57403d4f-fc44-48d6-bc97-0dfc38a65fa2","system_id":"levelo_inurba_marseille","lat":43.337398,"lon":5.374539,"is_reserved":false,"is_disabled":false,"rental_uris":{"android":"levelo://app?vid=57403d4f-fc44-48d6-bc97-0dfc38a65fa2","ios":"levelo://app?vid=57403d4f-fc44-48d6-bc97-0dfc38a65fa2"},"vehicle_type_id":"4","last_reported":1724688699,"current_range_meters":27600,"station_id":"","pricing_plan_id":"cebpf4jnsgd1na2vs0mg"},{"bike_id":"0de00f83-8b71-4c47-99e7-0ab79defac76","system_id":"levelo_inurba_marseille","lat":43.30642,"lon":5.401031,"is_reserved":false,"is_disabled":false,"rental_uris":{"android":"levelo://app?vid=0de00f83-8b71-4c47-99e7-0ab79defac76","ios":"levelo://app?vid=0de00f83-8b71-4c47-99e7-0ab79defac76"},"vehicle_type_id":"4","last_reported":1724688699,"current_range_meters":0,"station_id":"ce4bh112rcd13ifvqda0","pricing_plan_id":"cebpf4jnsgd1na2vs0mg"},{"bike_id":"d6417237-38ee-42e1-a78c-c0581fa70570","system_id":"levelo_inurba_marseille","lat":43.33751,"lon":5.37452,"is_reserved":false,"is_disabled":false,"rental_uris":{"android":"levelo://app?vid=d6417237-38ee-42e1-a78c-c0581fa70570","ios":"levelo://app?vid=d6417237-38ee-42e1-a78c-c0581fa70570"},"vehicle_type_id":"4","last_reported":1724688699,"current_range_meters":11600,"station_id":"","pricing_plan_id":"cebpf4jnsgd1na2vs0mg"},{"bike_id":"d2fcc6fe-3082-49d8-ba39-1a7d0baf6067","system_id":"levelo_inurba_marseille","lat":43.309371,"lon":5.401449,"is_reserved":false,"is_disabled":false,"rental_uris":{"android":"levelo://app?vid=d2fcc6fe-3082-49d8-ba39-1a7d0baf6067","ios":"levelo://app?vid=d2fcc6fe-3082-49d8-ba39-1a7d0baf6067"},"vehicle_type_id":"4","last_reported":1724688699,"current_range_meters":6800,"station_id":"ce4bgvp2rcd13ifvqct0","pricing_plan_id":"cebpf4jnsgd1na2vs0mg"},{"bike_id":"2690d6b7-6074-481c-863d-5c3e158efdcc","system_id":"levelo_inurba_marseille","lat":43.306412,"lon":5.401035,"is_reserved":false,"is_disabled":false,"rental_uris":{"android":"levelo://app?vid=2690d6b7-6074-481c-863d-5c3e158efdcc","ios":"levelo://app?vid=2690d6b7-6074-481c-863d-5c3e158efdcc"},"vehicle_type_id":"4","last_reported":1724688699,"current_range_meters":6800,"station_id":"ce4bh112rcd13ifvqda0","pricing_plan_id":"cebpf4jnsgd1na2vs0mg"},{"bike_id":"08244d3d-a54a-4233-98e0-a178376cf0d9","system_id":"levelo_inurba_marseille","lat":43.33756,"lon":5.37451,"is_reserved":false,"is_disabled":false,"rental_uris":{"android":"levelo://app?vid=08244d3d-a54a-4233-98e0-a178376cf0d9","ios":"levelo://app?vid=08244d3d-a54a-4233-98e0-a178376cf0d9"},"vehicle_type_id":"4","last_reported":1724688699,"current_range_meters":25200,"station_id":"","pricing_plan_id":"cebpf4jnsgd1na2vs0mg"},{"bike_id":"f8345c82-b9ac-4f5d-b249-1d2ee246e06a","system_id":"levelo_inurba_marseille","lat":43.337565,"lon":5.374577,"is_reserved":false,"is_disabled":false,"rental_uris":{"android":"levelo://app?vid=f8345c82-b9ac-4f5d-b249-1d2ee246e06a","ios":"levelo://app?vid=f8345c82-b9ac-4f5d-b249-1d2ee246e06a"},"vehicle_type_id":"4","last_reported":1724688699,"current_range_meters":30400,"station_id":"","pricing_plan_id":"cebpf4jnsgd1na2vs0mg"},{"bike_id":"dbfb9240-0d6c-46e4-9f3d-dd25b5cacce4","system_id":"levelo_inurba_marseille","lat":43.33768,"lon":5.37436,"is_reserved":false,"is_disabled":false,"rental_uris":{"android":"levelo://app?vid=dbfb9240-0d6c-46e4-9f3d-dd25b5cacce4","ios":"levelo://app?vid=dbfb9240-0d6c-46e4-9f3d-dd25b5cacce4"},"vehicle_type_id":"4","last_reported":1724688699,"current_range_meters":6400,"station_id":"","pricing_plan_id":"cebpf4jnsgd1na2vs0mg"},{"bike_id":"14d8a1b0-5fd3-44a7-bd98-4a1605b23713","system_id":"levelo_inurba_marseille","lat":43.306412,"lon":5.401035,"is_reserved":false,"is_disabled":false,"rental_uris":{"android":"levelo://app?vid=14d8a1b0-5fd3-44a7-bd98-4a1605b23713","ios":"levelo://app?vid=14d8a1b0-5fd3-44a7-bd98-4a1605b23713"},"vehicle_type_id":"4","last_reported":1724688699,"current_range_meters":1200,"station_id":"ce4bh112rcd13ifvqda0","pricing_plan_id":"cebpf4jnsgd1na2vs0mg"},{"bike_id":"8bcd181c-44ae-4d9b-b2f3-499adafa5811","system_id":"levelo_inurba_marseille","lat":43.30642,"lon":5.401031,"is_reserved":false,"is_disabled":false,"rental_uris":{"android":"levelo://app?vid=8bcd181c-44ae-4d9b-b2f3-499adafa5811","ios":"levelo://app?vid=8bcd181c-44ae-4d9b-b2f3-499adafa5811"},"vehicle_type_id":"4","last_reported":1724688699,"current_range_meters":17200,"station_id":"ce4bh112rcd13ifvqda0","pricing_plan_id":"cebpf4jnsgd1na2vs0mg"},{"bike_id":"9a7d4914-7ffc-42c9-be64-782c74990d85","system_id":"levelo_inurba_marseille","lat":43.306412,"lon":5.401035,"is_reserved":false,"is_disabled":false,"rental_uris":{"android":"levelo://app?vid=9a7d4914-7ffc-42c9-be64-782c74990d85","ios":"levelo://app?vid=9a7d4914-7ffc-42c9-be64-782c74990d85"},"vehicle_type_id":"4","last_reported":1724688699,"current_range_meters":25200,"station_id":"ce4bh112rcd13ifvqda0","pricing_plan_id":"cebpf4jnsgd1na2vs0mg"},{"bike_id":"73fbe73f-0186-4227-959b-533984585cef","system_id":"levelo_inurba_marseille","lat":43.33764,"lon":5.37487,"is_reserved":false,"is_disabled":false,"rental_uris":{"android":"levelo://app?vid=73fbe73f-0186-4227-959b-533984585cef","ios":"levelo://app?vid=73fbe73f-0186-4227-959b-533984585cef"},"vehicle_type_id":"4","last_reported":1724688699,"current_range_meters":26800,"station_id":"","pricing_plan_id":"cebpf4jnsgd1na2vs0mg"},{"bike_id":"027ab21b-8050-425e-b0c8-98c8c26b07fa","system_id":"levelo_inurba_marseille","lat":43.30642,"lon":5.401031,"is_reserved":false,"is_disabled":false,"rental_uris":{"android":"levelo://app?vid=027ab21b-8050-425e-b0c8-98c8c26b07fa","ios":"levelo://app?vid=027ab21b-8050-425e-b0c8-98c8c26b07fa"},"vehicle_type_id":"4","last_reported":1724688699,"current_range_meters":6800,"station_id":"ce4bh112rcd13ifvqda0","pricing_plan_id":"cebpf4jnsgd1na2vs0mg"},{"bike_id":"e26815e9-32de-4d6d-adb0-6c06add483f7","system_id":"levelo_inurba_marseille","lat":43.299549,"lon":5.397126,"is_reserved":false,"is_disabled":false,"rental_uris":{"android":"levelo://app?vid=e26815e9-32de-4d6d-adb0-6c06add483f7","ios":"levelo://app?vid=e26815e9-32de-4d6d-adb0-6c06add483f7"},"vehicle_type_id":"4","last_reported":1724688699,"current_range_meters":14400,"station_id":"","pricing_plan_id":"cebpf4jnsgd1na2vs0mg"},{"bike_id":"353d6816-8c29-4ca7-af60-d7692ee930f3","system_id":"levelo_inurba_marseille","lat":43.28727,"lon":5.36078,"is_reserved":false,"is_disabled":false,"rental_uris":{"android":"levelo://app?vid=353d6816-8c29-4ca7-af60-d7692ee930f3","ios":"levelo://app?vid=353d6816-8c29-4ca7-af60-d7692ee930f3"},"vehicle_type_id":"4","last_reported":1724688699,"current_range_meters":11200,"station_id":"cki0cbj6b192h4jlfktg","pricing_plan_id":"cebpf4jnsgd1na2vs0mg"},{"bike_id":"66589531-f571-4bf7-b5a7-7a1f19a604f9","system_id":"levelo_inurba_marseille","lat":43.28674,"lon":5.36344,"is_reserved":false,"is_disabled":false,"rental_uris":{"android":"levelo://app?vid=66589531-f571-4bf7-b5a7-7a1f19a604f9","ios":"levelo://app?vid=66589531-f571-4bf7-b5a7-7a1f19a604f9"},"vehicle_type_id":"4","last_reported":1724688699,"current_range_meters":0,"station_id":"ce4bhah2rcd13ifvqej0","pricing_plan_id":"cebpf4jnsgd1na2vs0mg"},{"bike_id":"53626685-f6e9-4d6a-b3d8-4b7169af040c","system_id":"levelo_inurba_marseille","lat":43.298681,"lon":5.397225,"is_reserved":false,"is_disabled":false,"rental_uris":{"android":"levelo://app?vid=53626685-f6e9-4d6a-b3d8-4b7169af040c","ios":"levelo://app?vid=53626685-f6e9-4d6a-b3d8-4b7169af040c"},"vehicle_type_id":"4","last_reported":1724688699,"current_range_meters":13200,"station_id":"ce4bh0h2rcd13ifvqd50","pricing_plan_id":"cebpf4jnsgd1na2vs0mg"},{"bike_id":"5f993e16-dec7-4f1c-8155-967f2f6de356","system_id":"levelo_inurba_marseille","lat":43.286961,"lon":5.373785,"is_reserved":false,"is_disabled":false,"rental_uris":{"android":"levelo://app?vid=5f993e16-dec7-4f1c-8155-967f2f6de356","ios":"levelo://app?vid=5f993e16-dec7-4f1c-8155-967f2f6de356"},"vehicle_type_id":"4","last_reported":1724688699,"current_range_meters":11200,"station_id":"ce4bh3p2rcd13ifvqdq0","pricing_plan_id":"cebpf4jnsgd1na2vs0mg"},{"bike_id":"cf1a40c9-2a0a-4e8c-8a89-884b0d6efdfc","system_id":"levelo_inurba_marseille","lat":43.298681,"lon":5.397225,"is_reserved":false,"is_disabled":false,"rental_uris":{"android":"levelo://app?vid=cf1a40c9-2a0a-4e8c-8a89-884b0d6efdfc","ios":"levelo://app?vid=cf1a40c9-2a0a-4e8c-8a89-884b0d6efdfc"},"vehicle_type_id":"4","last_reported":1724688699,"current_range_meters":16800,"station_id":"ce4bh0h2rcd13ifvqd50","pricing_plan_id":"cebpf4jnsgd1na2vs0mg"},{"bike_id":"4d01d637-4fac-417d-9d7b-c0d161dbde80","system_id":"levelo_inurba_marseille","lat":43.286961,"lon":5.373785,"is_reserved":false,"is_disabled":false,"rental_uris":{"android":"levelo://app?vid=4d01d637-4fac-417d-9d7b-c0d161dbde80","ios":"levelo://app?vid=4d01d637-4fac-417d-9d7b-c0d161dbde80"},"vehicle_type_id":"4","last_reported":1724688699,"current_range_meters":7600,"station_id":"ce4bh3p2rcd13ifvqdq0","pricing_plan_id":"cebpf4jnsgd1na2vs0mg"},{"bike_id":"8e2370e2-1c04-4dc1-847c-f20425f69914","system_id":"levelo_inurba_marseille","lat":43.298681,"lon":5.397225,"is_reserved":false,"is_disabled":false,"rental_uris":{"android":"levelo://app?vid=8e2370e2-1c04-4dc1-847c-f20425f69914","ios":"levelo://app?vid=8e2370e2-1c04-4dc1-847c-f20425f69914"},"vehicle_type_id":"4","last_reported":1724688699,"current_range_meters":2800,"station_id":"ce4bh0h2rcd13ifvqd50","pricing_plan_id":"cebpf4jnsgd1na2vs0mg"},{"bike_id":"cc7d531e-3534-4221-9b99-df45896912e1","system_id":"levelo_inurba_marseille","lat":43.286961,"lon":5.373785,"is_reserved":false,"is_disabled":false,"rental_uris":{"android":"levelo://app?vid=cc7d531e-3534-4221-9b99-df45896912e1","ios":"levelo://app?vid=cc7d531e-3534-4221-9b99-df45896912e1"},"vehicle_type_id":"4","last_reported":1724688699,"current_range_meters":28400,"station_id":"ce4bh3p2rcd13ifvqdq0","pricing_plan_id":"cebpf4jnsgd1na2vs0mg"},{"bike_id":"91241846-118d-4831-a2ed-106d528c5f5c","system_id":"levelo_inurba_marseille","lat":43.286961,"lon":5.373785,"is_reserved":false,"is_disabled":false,"rental_uris":{"android":"levelo://app?vid=91241846-118d-4831-a2ed-106d528c5f5c","ios":"levelo://app?vid=91241846-118d-4831-a2ed-106d528c5f5c"},"vehicle_type_id":"4","last_reported":1724688699,"current_range_meters":0,"station_id":"ce4bh3p2rcd13ifvqdq0","pricing_plan_id":"cebpf4jnsgd1na2vs0mg"},{"bike_id":"62509b09-6659-4178-8762-5915f1774cfb","system_id":"levelo_inurba_marseille","lat":43.302759,"lon":5.400793,"is_reserved":false,"is_disabled":false,"rental_uris":{"android":"levelo://app?vid=62509b09-6659-4178-8762-5915f1774cfb","ios":"levelo://app?vid=62509b09-6659-4178-8762-5915f1774cfb"},"vehicle_type_id":"4","last_reported":1724688699,"current_range_meters":0,"station_id":"ce4bgvh2rcd13ifvqcs0","pricing_plan_id":"cebpf4jnsgd1na2vs0mg"},{"bike_id":"f86809b4-f37e-4635-99ff-aca201ce6b2a","system_id":"levelo_inurba_marseille","lat":43.290336,"lon":5.386425,"is_reserved":false,"is_disabled":false,"rental_uris":{"android":"levelo://app?vid=f86809b4-f37e-4635-99ff-aca201ce6b2a","ios":"levelo://app?vid=f86809b4-f37e-4635-99ff-aca201ce6b2a"},"vehicle_type_id":"4","last_reported":1724688699,"current_range_meters":22400,"station_id":"ce4bh4p2rcd13ifvqe0g","pricing_plan_id":"cebpf4jnsgd1na2vs0mg"},{"bike_id":"1470a160-5eed-4331-9be1-e2df3a001159","system_id":"levelo_inurba_marseille","lat":43.290345,"lon":5.38646,"is_reserved":false,"is_disabled":false,"rental_uris":{"android":"levelo://app?vid=1470a160-5eed-4331-9be1-e2df3a001159","ios":"levelo://app?vid=1470a160-5eed-4331-9be1-e2df3a001159"},"vehicle_type_id":"4","last_reported":1724688699,"current_range_meters":0,"station_id":"ce4bh4p2rcd13ifvqe0g","pricing_plan_id":"cebpf4jnsgd1na2vs0mg"},{"bike_id":"2b447f53-3c66-48e7-a900-f2eab15afa90","system_id":"levelo_inurba_marseille","lat":43.290345,"lon":5.38646,"is_reserved":false,"is_disabled":false,"rental_uris":{"android":"levelo://app?vid=2b447f53-3c66-48e7-a900-f2eab15afa90","ios":"levelo://app?vid=2b447f53-3c66-48e7-a900-f2eab15afa90"},"vehicle_type_id":"4","last_reported":1724688699,"current_range_meters":13200,"station_id":"ce4bh4p2rcd13ifvqe0g","pricing_plan_id":"cebpf4jnsgd1na2vs0mg"},{"bike_id":"7e0f1826-bb15-49a5-800d-80e23dcef1a6","system_id":"levelo_inurba_marseille","lat":43.290336,"lon":5.386425,"is_reserved":false,"is_disabled":false,"rental_uris":{"android":"levelo://app?vid=7e0f1826-bb15-49a5-800d-80e23dcef1a6","ios":"levelo://app?vid=7e0f1826-bb15-49a5-800d-80e23dcef1a6"},"vehicle_type_id":"4","last_reported":1724688699,"current_range_meters":23600,"station_id":"ce4bh4p2rcd13ifvqe0g","pricing_plan_id":"cebpf4jnsgd1na2vs0mg"},{"bike_id":"ed5da9dc-cbfb-4be1-b2ca-00ed8e55ed17","system_id":"levelo_inurba_marseille","lat":43.290336,"lon":5.386425,"is_reserved":false,"is_disabled":false,"rental_uris":{"android":"levelo://app?vid=ed5da9dc-cbfb-4be1-b2ca-00ed8e55ed17","ios":"levelo://app?vid=ed5da9dc-cbfb-4be1-b2ca-00ed8e55ed17"},"vehicle_type_id":"4","last_reported":1724688699,"current_range_meters":23200,"station_id":"ce4bh4p2rcd13ifvqe0g","pricing_plan_id":"cebpf4jnsgd1na2vs0mg"},{"bike_id":"5f9ece91-ceb6-400f-99cd-ca6673e4c99c","system_id":"levelo_inurba_marseille","lat":43.302759,"lon":5.400793,"is_reserved":false,"is_disabled":false,"rental_uris":{"android":"levelo://app?vid=5f9ece91-ceb6-400f-99cd-ca6673e4c99c","ios":"levelo://app?vid=5f9ece91-ceb6-400f-99cd-ca6673e4c99c"},"vehicle_type_id":"4","last_reported":1724688699,"current_range_meters":21200,"station_id":"ce4bgvh2rcd13ifvqcs0","pricing_plan_id":"cebpf4jnsgd1na2vs0mg"},{"bike_id":"bcf36681-2b52-4cdf-8d29-50fb0a2cea60","system_id":"levelo_inurba_marseille","lat":43.290345,"lon":5.38646,"is_reserved":false,"is_disabled":false,"rental_uris":{"android":"levelo://app?vid=bcf36681-2b52-4cdf-8d29-50fb0a2cea60","ios":"levelo://app?vid=bcf36681-2b52-4cdf-8d29-50fb0a2cea60"},"vehicle_type_id":"4","last_reported":1724688699,"current_range_meters":0,"station_id":"ce4bh4p2rcd13ifvqe0g","pricing_plan_id":"cebpf4jnsgd1na2vs0mg"},{"bike_id":"4fd74ed7-42ad-4915-93c3-b0261095bff8","system_id":"levelo_inurba_marseille","lat":43.30242,"lon":5.40068,"is_reserved":false,"is_disabled":false,"rental_uris":{"android":"levelo://app?vid=4fd74ed7-42ad-4915-93c3-b0261095bff8","ios":"levelo://app?vid=4fd74ed7-42ad-4915-93c3-b0261095bff8"},"vehicle_type_id":"4","last_reported":1724688699,"current_range_meters":0,"station_id":"ce4bgvh2rcd13ifvqcs0","pricing_plan_id":"cebpf4jnsgd1na2vs0mg"},{"bike_id":"80d8947a-ba1c-451c-947d-bd52ef964833","system_id":"levelo_inurba_marseille","lat":43.290336,"lon":5.386425,"is_reserved":false,"is_disabled":false,"rental_uris":{"android":"levelo://app?vid=80d8947a-ba1c-451c-947d-bd52ef964833","ios":"levelo://app?vid=80d8947a-ba1c-451c-947d-bd52ef964833"},"vehicle_type_id":"4","last_reported":1724688699,"current_range_meters":3600,"station_id":"ce4bh4p2rcd13ifvqe0g","pricing_plan_id":"cebpf4jnsgd1na2vs0mg"},{"bike_id":"af26e39c-b15e-44d8-af7e-5d5fcf2963a2","system_id":"levelo_inurba_marseille","lat":43.287184,"lon":5.37937,"is_reserved":false,"is_disabled":false,"rental_uris":{"android":"levelo://app?vid=af26e39c-b15e-44d8-af7e-5d5fcf2963a2","ios":"levelo://app?vid=af26e39c-b15e-44d8-af7e-5d5fcf2963a2"},"vehicle_type_id":"4","last_reported":1724688699,"current_range_meters":3600,"station_id":"ce4bh9p2rcd13ifvqec0","pricing_plan_id":"cebpf4jnsgd1na2vs0mg"},{"bike_id":"f83c637e-2c70-40ec-b3a3-8145ea377422","system_id":"levelo_inurba_marseille","lat":43.316821,"lon":5.404737,"is_reserved":false,"is_disabled":false,"rental_uris":{"android":"levelo://app?vid=f83c637e-2c70-40ec-b3a3-8145ea377422","ios":"levelo://app?vid=f83c637e-2c70-40ec-b3a3-8145ea377422"},"vehicle_type_id":"4","last_reported":1724688699,"current_range_meters":1200,"station_id":"ce4bh012rcd13ifvqd00","pricing_plan_id":"cebpf4jnsgd1na2vs0mg"},{"bike_id":"61416952-7cc2-47f6-8d9d-6db232b285ae","system_id":"levelo_inurba_marseille","lat":43.291994,"lon":5.392907,"is_reserved":false,"is_disabled":false,"rental_uris":{"android":"levelo://app?vid=61416952-7cc2-47f6-8d9d-6db232b285ae","ios":"levelo://app?vid=61416952-7cc2-47f6-8d9d-6db232b285ae"},"vehicle_type_id":"4","last_reported":1724688699,"current_range_meters":21200,"station_id":"ce4bh192rcd13ifvqdd0","pricing_plan_id":"cebpf4jnsgd1na2vs0mg"},{"bike_id":"5da0a741-34ee-4073-bbed-9fc0d05cfcca","system_id":"levelo_inurba_marseille","lat":43.291994,"lon":5.392907,"is_reserved":false,"is_disabled":false,"rental_uris":{"android":"levelo://app?vid=5da0a741-34ee-4073-bbed-9fc0d05cfcca","ios":"levelo://app?vid=5da0a741-34ee-4073-bbed-9fc0d05cfcca"},"vehicle_type_id":"4","last_reported":1724688699,"current_range_meters":21600,"station_id":"ce4bh192rcd13ifvqdd0","pricing_plan_id":"cebpf4jnsgd1na2vs0mg"},{"bike_id":"fdd700df-6c41-47aa-8539-b4209f8f7982","system_id":"levelo_inurba_marseille","lat":43.284538,"lon":5.358657,"is_reserved":false,"is_disabled":false,"rental_uris":{"android":"levelo://app?vid=fdd700df-6c41-47aa-8539-b4209f8f7982","ios":"levelo://app?vid=fdd700df-6c41-47aa-8539-b4209f8f7982"},"vehicle_type_id":"4","last_reported":1724688699,"current_range_meters":20400,"station_id":"ce4bhah2rcd13ifvqei0","pricing_plan_id":"cebpf4jnsgd1na2vs0mg"},{"bike_id":"ec7bdfbe-5f16-432d-9ef5-5380fe7a93e1","system_id":"levelo_inurba_marseille","lat":43.28465,"lon":5.35887,"is_reserved":false,"is_disabled":false,"rental_uris":{"android":"levelo://app?vid=ec7bdfbe-5f16-432d-9ef5-5380fe7a93e1","ios":"levelo://app?vid=ec7bdfbe-5f16-432d-9ef5-5380fe7a93e1"},"vehicle_type_id":"4","last_reported":1724688699,"current_range_meters":25200,"station_id":"ce4bhah2rcd13ifvqei0","pricing_plan_id":"cebpf4jnsgd1na2vs0mg"},{"bike_id":"60c6c857-39c2-48d5-a640-55bbfbbbf033","system_id":"levelo_inurba_marseille","lat":43.284538,"lon":5.358657,"is_reserved":false,"is_disabled":false,"rental_uris":{"android":"levelo://app?vid=60c6c857-39c2-48d5-a640-55bbfbbbf033","ios":"levelo://app?vid=60c6c857-39c2-48d5-a640-55bbfbbbf033"},"vehicle_type_id":"4","last_reported":1724688699,"current_range_meters":13600,"station_id":"ce4bhah2rcd13ifvqei0","pricing_plan_id":"cebpf4jnsgd1na2vs0mg"},{"bike_id":"5d9ee922-4aa8-4982-89d6-b577be983bdd","system_id":"levelo_inurba_marseille","lat":43.284534,"lon":5.358662,"is_reserved":false,"is_disabled":false,"rental_uris":{"android":"levelo://app?vid=5d9ee922-4aa8-4982-89d6-b577be983bdd","ios":"levelo://app?vid=5d9ee922-4aa8-4982-89d6-b577be983bdd"},"vehicle_type_id":"4","last_reported":1724688699,"current_range_meters":31200,"station_id":"ce4bhah2rcd13ifvqei0","pricing_plan_id":"cebpf4jnsgd1na2vs0mg"},{"bike_id":"d7a97141-67de-4b5d-a3d3-3a3511387bc5","system_id":"levelo_inurba_marseille","lat":43.303256,"lon":5.404389,"is_reserved":false,"is_disabled":false,"rental_uris":{"android":"levelo://app?vid=d7a97141-67de-4b5d-a3d3-3a3511387bc5","ios":"levelo://app?vid=d7a97141-67de-4b5d-a3d3-3a3511387bc5"},"vehicle_type_id":"4","last_reported":1724688699,"current_range_meters":0,"station_id":"ce4bh012rcd13ifvqd10","pricing_plan_id":"cebpf4jnsgd1na2vs0mg"},{"bike_id":"356f595c-5bba-417f-ae8f-bf185faa4ce9","system_id":"levelo_inurba_marseille","lat":43.28458,"lon":5.35881,"is_reserved":false,"is_disabled":false,"rental_uris":{"android":"levelo://app?vid=356f595c-5bba-417f-ae8f-bf185faa4ce9","ios":"levelo://app?vid=356f595c-5bba-417f-ae8f-bf185faa4ce9"},"vehicle_type_id":"4","last_reported":1724688699,"current_range_meters":12000,"station_id":"ce4bhah2rcd13ifvqei0","pricing_plan_id":"cebpf4jnsgd1na2vs0mg"},{"bike_id":"c06f237e-ca10-4ca1-8772-e5492778a0a6","system_id":"levelo_inurba_marseille","lat":43.28621,"lon":5.35114,"is_reserved":false,"is_disabled":false,"rental_uris":{"android":"levelo://app?vid=c06f237e-ca10-4ca1-8772-e5492778a0a6","ios":"levelo://app?vid=c06f237e-ca10-4ca1-8772-e5492778a0a6"},"vehicle_type_id":"4","last_reported":1724688699,"current_range_meters":17600,"station_id":"ce4bhch2rcd13ifvqeug","pricing_plan_id":"cebpf4jnsgd1na2vs0mg"},{"bike_id":"faf91471-e02b-40ab-99a8-4e10a2d23920","system_id":"levelo_inurba_marseille","lat":43.28622,"lon":5.35109,"is_reserved":false,"is_disabled":false,"rental_uris":{"android":"levelo://app?vid=faf91471-e02b-40ab-99a8-4e10a2d23920","ios":"levelo://app?vid=faf91471-e02b-40ab-99a8-4e10a2d23920"},"vehicle_type_id":"4","last_reported":1724688699,"current_range_meters":26000,"station_id":"ce4bhch2rcd13ifvqeug","pricing_plan_id":"cebpf4jnsgd1na2vs0mg"},{"bike_id":"81a432ee-eaa8-4f6a-8a43-de0ecaa491f3","system_id":"levelo_inurba_marseille","lat":43.28622,"lon":5.35104,"is_reserved":false,"is_disabled":false,"rental_uris":{"android":"levelo://app?vid=81a432ee-eaa8-4f6a-8a43-de0ecaa491f3","ios":"levelo://app?vid=81a432ee-eaa8-4f6a-8a43-de0ecaa491f3"},"vehicle_type_id":"4","last_reported":1724688699,"current_range_meters":15200,"station_id":"ce4bhch2rcd13ifvqeug","pricing_plan_id":"cebpf4jnsgd1na2vs0mg"},{"bike_id":"32a449bd-75f6-4043-8444-1aaaae796403","system_id":"levelo_inurba_marseille","lat":43.286215,"lon":5.351055,"is_reserved":false,"is_disabled":false,"rental_uris":{"android":"levelo://app?vid=32a449bd-75f6-4043-8444-1aaaae796403","ios":"levelo://app?vid=32a449bd-75f6-4043-8444-1aaaae796403"},"vehicle_type_id":"4","last_reported":1724688699,"current_range_meters":30800,"station_id":"ce4bhch2rcd13ifvqeug","pricing_plan_id":"cebpf4jnsgd1na2vs0mg"},{"bike_id":"cf3b2f04-b11c-46c8-8aa2-33db8cbd6ee2","system_id":"levelo_inurba_marseille","lat":43.28622,"lon":5.35102,"is_reserved":false,"is_disabled":false,"rental_uris":{"android":"levelo://app?vid=cf3b2f04-b11c-46c8-8aa2-33db8cbd6ee2","ios":"levelo://app?vid=cf3b2f04-b11c-46c8-8aa2-33db8cbd6ee2"},"vehicle_type_id":"4","last_reported":1724688699,"current_range_meters":26800,"station_id":"ce4bhch2rcd13ifvqeug","pricing_plan_id":"cebpf4jnsgd1na2vs0mg"},{"bike_id":"149168b3-64a4-4c8b-a469-39347122b65b","system_id":"levelo_inurba_marseille","lat":43.28622,"lon":5.35102,"is_reserved":false,"is_disabled":false,"rental_uris":{"android":"levelo://app?vid=149168b3-64a4-4c8b-a469-39347122b65b","ios":"levelo://app?vid=149168b3-64a4-4c8b-a469-39347122b65b"},"vehicle_type_id":"4","last_reported":1724688699,"current_range_meters":12000,"station_id":"ce4bhch2rcd13ifvqeug","pricing_plan_id":"cebpf4jnsgd1na2vs0mg"},{"bike_id":"f4de17b6-fa17-42f0-80f9-ea94c0c8318d","system_id":"levelo_inurba_marseille","lat":43.28619,"lon":5.35111,"is_reserved":false,"is_disabled":false,"rental_uris":{"android":"levelo://app?vid=f4de17b6-fa17-42f0-80f9-ea94c0c8318d","ios":"levelo://app?vid=f4de17b6-fa17-42f0-80f9-ea94c0c8318d"},"vehicle_type_id":"4","last_reported":1724688699,"current_range_meters":21200,"station_id":"ce4bhch2rcd13ifvqeug","pricing_plan_id":"cebpf4jnsgd1na2vs0mg"},{"bike_id":"f401058d-0ed4-4447-b243-d1d3e60c345d","system_id":"levelo_inurba_marseille","lat":43.28623,"lon":5.35098,"is_reserved":false,"is_disabled":false,"rental_uris":{"android":"levelo://app?vid=f401058d-0ed4-4447-b243-d1d3e60c345d","ios":"levelo://app?vid=f401058d-0ed4-4447-b243-d1d3e60c345d"},"vehicle_type_id":"4","last_reported":1724688699,"current_range_meters":4000,"station_id":"ce4bhch2rcd13ifvqeug","pricing_plan_id":"cebpf4jnsgd1na2vs0mg"},{"bike_id":"12f65ae0-3ba2-4dba-a0f7-607d5bcbd519","system_id":"levelo_inurba_marseille","lat":43.28619,"lon":5.3511,"is_reserved":false,"is_disabled":false,"rental_uris":{"android":"levelo://app?vid=12f65ae0-3ba2-4dba-a0f7-607d5bcbd519","ios":"levelo://app?vid=12f65ae0-3ba2-4dba-a0f7-607d5bcbd519"},"vehicle_type_id":"4","last_reported":1724688699,"current_range_meters":31200,"station_id":"ce4bhch2rcd13ifvqeug","pricing_plan_id":"cebpf4jnsgd1na2vs0mg"},