{"last_updated":1707775575,"ttl":30,"version":"2.2","data":{"bikes":[{"bike_id":"e545a2e7-5a94-45c9-921f-db82b9a78e89","system_id":"levelo_inurba_marseille","lat":43.312213,"lon":5.36853,"is_reserved":false,"is_disabled":false,"rental_uris":{"android":"levelo://app?vid=e545a2e7-5a94-45c9-921f-db82b9a78e89","ios":"levelo://app?vid=e545a2e7-5a94-45c9-921f-db82b9a78e89"},"vehicle_type_id":"4","last_reported":1707775575,"current_range_meters":0,"station_id":"ce4bgl92rcd13ifvqbq0","pricing_plan_id":"free"},{"bike_id":"da7f6628-f7b1-4e91-8e75-a3e011654344","system_id":"levelo_inurba_marseille","lat":43.312239,"lon":5.368562,"is_reserved":false,"is_disabled":false,"rental_uris":{"android":"levelo://app?vid=da7f6628-f7b1-4e91-8e75-a3e011654344","ios":"levelo://app?vid=da7f6628-f7b1-4e91-8e75-a3e011654344"},"vehicle_type_id":"4","last_reported":1707775575,"current_range_meters":24800,"station_id":"ce4bgl92rcd13ifvqbq0","pricing_plan_id":"free"},{"bike_id":"7a8f3c7d-309d-44a0-8de9-bafbf0c02d0d","system_id":"levelo_inurba_marseille","lat":43.309039,"lon":5.371797,"is_reserved":false,"is_disabled":false,"rental_uris":{"android":"levelo://app?vid=7a8f3c7d-309d-44a0-8de9-bafbf0c02d0d","ios":"levelo://app?vid=7a8f3c7d-309d-44a0-8de9-bafbf0c02d0d"},"vehicle_type_id":"4","last_reported":1707775575,"current_range_meters":4800,"station_id":"ce4bguh2rcd13ifvqckg","pricing_plan_id":"free"},{"bike_id":"68bead5c-1eba-43cd-9d35-2af973227f88","system_id":"levelo_inurba_marseille","lat":43.309039,"lon":5.371797,"is_reserved":false,"is_disabled":false,"rental_uris":{"android":"levelo://app?vid=68bead5c-1eba-43cd-9d35-2af973227f88","ios":"levelo://app?vid=68bead5c-1eba-43cd-9d35-2af973227f88"},"vehicle_type_id":"4","last_reported":1707775575,"current_range_meters":24000,"station_id":"ce4bguh2rcd13ifvqckg","pricing_plan_id":"free"},{"bike_id":"654da5cf-ffca-447e-a31e-13ecf6f7c7f6","system_id":"levelo_inurba_marseille","lat":43.309039,"lon":5.371797,"is_reserved":false,"is_disabled":false,"rental_uris":{"android":"levelo://app?vid=654da5cf-ffca-447e-a31e-13ecf6f7c7f6","ios":"levelo://app?vid=654da5cf-ffca-447e-a31e-13ecf6f7c7f6"},"vehicle_type_id":"4","last_reported":1707775575,"current_range_meters":14000,"station_id":"ce4bguh2rcd13ifvqckg","pricing_plan_id":"free"},{"bike_id":"f63bd6a4-bea5-4995-8a48-ac88515591c2","system_id":"levelo_inurba_marseille","lat":43.305368,"lon":5.367343,"is_reserved":false,"is_disabled":false,"rental_uris":{"android":"levelo://app?vid=f63bd6a4-bea5-4995-8a48-ac88515591c2","ios":"levelo://app?vid=f63bd6a4-bea5-4995-8a48-ac88515591c2"},"vehicle_type_id":"4","last_reported":1707775575,"current_range_meters":30000,"station_id":"ce4bgrp2rcd13ifvqc9g","pricing_plan_id":"free"},{"bike_id":"d47ec0e0-f73d-4d5c-8645-bafff2bcca75","system_id":"levelo_inurba_marseille","lat":43.305989,"lon":5.37225,"is_reserved":false,"is_disabled":false,"rental_uris":{"android":"levelo://app?vid=d47ec0e0-f73d-4d5c-8645-bafff2bcca75","ios":"levelo://app?vid=d47ec0e0-f73d-4d5c-8645-bafff2bcca75"},"vehicle_type_id":"4","last_reported":1707775575,"current_range_meters":28400,"station_id":"ce4bgqh2rcd13ifvqc4g","pricing_plan_id":"free"},{"bike_id":"a26b521c-92b5-48ae-b89a-460510a1ab87","system_id":"levelo_inurba_marseille","lat":43.31655,"lon":5.37612,"is_reserved":false,"is_disabled":false,"rental_uris":{"android":"levelo://app?vid=a26b521c-92b5-48ae-b89a-460510a1ab87","ios":"levelo://app?vid=a26b521c-92b5-48ae-b89a-460510a1ab87"},"vehicle_type_id":"4","last_reported":1707775575,"current_range_meters":18400,"station_id":"","pricing_plan_id":"free"},{"bike_id":"1bcb372e-31cd-4353-9d37-ac5dc9407d0b","system_id":"levelo_inurba_marseille","lat":43.30594,"lon":5.37215,"is_reserved":false,"is_disabled":false,"rental_uris":{"android":"levelo://app?vid=1bcb372e-31cd-4353-9d37-ac5dc9407d0b","ios":"levelo://app?vid=1bcb372e-31cd-4353-9d37-ac5dc9407d0b"},"vehicle_type_id":"4","last_reported":1707775575,"current_range_meters":12400,"station_id":"ce4bgqh2rcd13ifvqc4g","pricing_plan_id":"free"},{"bike_id":"b4496734-cc47-4478-b336-3938eb7290ef","system_id":"levelo_inurba_marseille","lat":43.305964,"lon":5.37235,"is_reserved":false,"is_disabled":false,"rental_uris":{"android":"levelo://app?vid=b4496734-cc47-4478-b336-3938eb7290ef","ios":"levelo://app?vid=b4496734-cc47-4478-b336-3938eb7290ef"},"vehicle_type_id":"4","last_reported":1707775575,"current_range_meters":8000,"station_id":"ce4bgqh2rcd13ifvqc4g","pricing_plan_id":"free"},{"bike_id":"e3f171fe-3279-4cbe-9e2b-0a1c312833c7","system_id":"levelo_inurba_marseille","lat":43.311131,"lon":5.377651,"is_reserved":false,"is_disabled":false,"rental_uris":{"android":"levelo://app?vid=e3f171fe-3279-4cbe-9e2b-0a1c312833c7","ios":"levelo://app?vid=e3f171fe-3279-4cbe-9e2b-0a1c312833c7"},"vehicle_type_id":"4","last_reported":1707775575,"current_range_meters":18000,"station_id":"ce4bgt92rcd13ifvqcg0","pricing_plan_id":"free"},{"bike_id":"e2ebd360-1be7-45c5-b46e-167131b69d8e","system_id":"levelo_inurba_marseille","lat":43.311131,"lon":5.377651,"is_reserved":false,"is_disabled":false,"rental_uris":{"android":"levelo://app?vid=e2ebd360-1be7-45c5-b46e-167131b69d8e","ios":"levelo://app?vid=e2ebd360-1be7-45c5-b46e-167131b69d8e"},"vehicle_type_id":"4","last_reported":1707775575,"current_range_meters":5200,"station_id":"ce4bgt92rcd13ifvqcg0","pricing_plan_id":"free"},{"bike_id":"5bfdc033-e7ed-4af5-a933-2b12dd5d0ad1","system_id":"levelo_inurba_marseille","lat":43.311125,"lon":5.377624,"is_reserved":false,"is_disabled":false,"rental_uris":{"android":"levelo://app?vid=5bfdc033-e7ed-4af5-a933-2b12dd5d0ad1","ios":"levelo://app?vid=5bfdc033-e7ed-4af5-a933-2b12dd5d0ad1"},"vehicle_type_id":"4","last_reported":1707775575,"current_range_meters":18800,"station_id":"ce4bgt92rcd13ifvqcg0","pricing_plan_id":"free"},{"bike_id":"57a95eca-edc9-4c1b-bef8-94477e90df69","system_id":"levelo_inurba_marseille","lat":43.311166,"lon":5.377752,"is_reserved":false,"is_disabled":false,"rental_uris":{"android":"levelo://app?vid=57a95eca-edc9-4c1b-bef8-94477e90df69","ios":"levelo://app?vid=57a95eca-edc9-4c1b-bef8-94477e90df69"},"vehicle_type_id":"4","last_reported":1707775575,"current_range_meters":0,"station_id":"ce4bgt92rcd13ifvqcg0","pricing_plan_id":"free"},{"bike_id":"ebecbb38-5cd7-4c78-af82-622c8fd54c8b","system_id":"levelo_inurba_marseille","lat":43.311125,"lon":5.377624,"is_reserved":false,"is_disabled":false,"rental_uris":{"android":"levelo://app?vid=ebecbb38-5cd7-4c78-af82-622c8fd54c8b","ios":"levelo://app?vid=ebecbb38-5cd7-4c78-af82-622c8fd54c8b"},"vehicle_type_id":"4","last_reported":1707775575,"current_range_meters":18400,"station_id":"ce4bgt92rcd13ifvqcg0","pricing_plan_id":"free"},{"bike_id":"8eed5a6a-ba31-4966-a307-fb985ad2e382","system_id":"levelo_inurba_marseille","lat":43.311131,"lon":5.377651,"is_reserved":false,"is_disabled":false,"rental_uris":{"android":"levelo://app?vid=8eed5a6a-ba31-4966-a307-fb985ad2e382","ios":"levelo://app?vid=8eed5a6a-ba31-4966-a307-fb985ad2e382"},"vehicle_type_id":"4","last_reported":1707775575,"current_range_meters":9200,"station_id":"ce4bgt92rcd13ifvqcg0","pricing_plan_id":"free"},{"bike_id":"7117dcda-9bc4-4718-8b8b-53fed57f3b2a","system_id":"levelo_inurba_marseille","lat":43.307945,"lon":5.376487,"is_reserved":false,"is_disabled":false,"rental_uris":{"android":"levelo://app?vid=7117dcda-9bc4-4718-8b8b-53fed57f3b2a","ios":"levelo://app?vid=7117dcda-9bc4-4718-8b8b-53fed57f3b2a"},"vehicle_type_id":"4","last_reported":1707775575,"current_range_meters":31200,"station_id":"ce4bgv92rcd13ifvqcq0","pricing_plan_id":"free"},{"bike_id":"92fca7a2-d135-4c6a-bedf-529f4f48b1c6","system_id":"levelo_inurba_marseille","lat":43.307945,"lon":5.376487,"is_reserved":false,"is_disabled":false,"rental_uris":{"android":"levelo://app?vid=92fca7a2-d135-4c6a-bedf-529f4f48b1c6","ios":"levelo://app?vid=92fca7a2-d135-4c6a-bedf-529f4f48b1c6"},"vehicle_type_id":"4","last_reported":1707775575,"current_range_meters":28800,"station_id":"ce4bgv92rcd13ifvqcq0","pricing_plan_id":"free"},{"bike_id":"3c4b8af6-fe54-4eff-806c-15185f53e163","system_id":"levelo_inurba_marseille","lat":43.307945,"lon":5.376487,"is_reserved":false,"is_disabled":false,"rental_uris":{"android":"levelo://app?vid=3c4b8af6-fe54-4eff-806c-15185f53e163","ios":"levelo://app?vid=3c4b8af6-fe54-4eff-806c-15185f53e163"},"vehicle_type_id":"4","last_reported":1707775575,"current_range_meters":25200,"station_id":"ce4bgv92rcd13ifvqcq0","pricing_plan_id":"free"},{"bike_id":"e70fe6e4-0ec3-4ff0-9f55-7a195630d6dc","system_id":"levelo_inurba_marseille","lat":43.30782,"lon":5.37652,"is_reserved":false,"is_disabled":false,"rental_uris":{"android":"levelo://app?vid=e70fe6e4-0ec3-4ff0-9f55-7a195630d6dc","ios":"levelo://app?vid=e70fe6e4-0ec3-4ff0-9f55-7a195630d6dc"},"vehicle_type_id":"4","last_reported":1707775575,"current_range_meters":31200,"station_id":"ce4bgv92rcd13ifvqcq0","pricing_plan_id":"free"},{"bike_id":"2c3287c2-02df-4648-a890-140cedd1613a","system_id":"levelo_inurba_marseille","lat":43.307945,"lon":5.376487,"is_reserved":false,"is_disabled":false,"rental_uris":{"android":"levelo://app?vid=2c3287c2-02df-4648-a890-140cedd1613a","ios":"levelo://app?vid=2c3287c2-02df-4648-a890-140cedd1613a"},"vehicle_type_id":"4","last_reported":1707775575,"current_range_meters":24400,"station_id":"ce4bgv92rcd13ifvqcq0","pricing_plan_id":"free"},{"bike_id":"4c09a846-dce9-4b7c-90af-51a834874acc","system_id":"levelo_inurba_marseille","lat":43.31696,"lon":5.37778,"is_reserved":false,"is_disabled":false,"rental_uris":{"android":"levelo://app?vid=4c09a846-dce9-4b7c-90af-51a834874acc","ios":"levelo://app?vid=4c09a846-dce9-4b7c-90af-51a834874acc"},"vehicle_type_id":"4","last_reported":1707775575,"current_range_meters":18400,"station_id":"ce4bgth2rcd13ifvqch0","pricing_plan_id":"free"},{"bike_id":"6c7eb289-c43e-402b-a39b-aeff7faf73e6","system_id":"levelo_inurba_marseille","lat":43.321798,"lon":5.368569,"is_reserved":false,"is_disabled":false,"rental_uris":{"android":"levelo://app?vid=6c7eb289-c43e-402b-a39b-aeff7faf73e6","ios":"levelo://app?vid=6c7eb289-c43e-402b-a39b-aeff7faf73e6"},"vehicle_type_id":"4","last_reported":1707775575,"current_range_meters":800,"station_id":"","pricing_plan_id":"free"},{"bike_id":"3ec88f94-985e-43be-a2d6-f293bc18d3d4","system_id":"levelo_inurba_marseille","lat":43.303046,"lon":5.368981,"is_reserved":false,"is_disabled":false,"rental_uris":{"android":"levelo://app?vid=3ec88f94-985e-43be-a2d6-f293bc18d3d4","ios":"levelo://app?vid=3ec88f94-985e-43be-a2d6-f293bc18d3d4"},"vehicle_type_id":"4","last_reported":1707775575,"current_range_meters":12400,"station_id":"ce4bgqh2rcd13ifvqc5g","pricing_plan_id":"free"},{"bike_id":"0b188201-9bc7-494b-9023-d18e71707f64","system_id":"levelo_inurba_marseille","lat":43.303046,"lon":5.368981,"is_reserved":false,"is_disabled":false,"rental_uris":{"android":"levelo://app?vid=0b188201-9bc7-494b-9023-d18e71707f64","ios":"levelo://app?vid=0b188201-9bc7-494b-9023-d18e71707f64"},"vehicle_type_id":"4","last_reported":1707775575,"current_range_meters":24000,"station_id":"ce4bgqh2rcd13ifvqc5g","pricing_plan_id":"free"},{"bike_id":"ca4bc145-0288-4159-93b8-1e0aa551f83d","system_id":"levelo_inurba_marseille","lat":43.31534,"lon":5.38027,"is_reserved":false,"is_disabled":false,"rental_uris":{"android":"levelo://app?vid=ca4bc145-0288-4159-93b8-1e0aa551f83d","ios":"levelo://app?vid=ca4bc145-0288-4159-93b8-1e0aa551f83d"},"vehicle_type_id":"4","last_reported":1707775575,"current_range_meters":0,"station_id":"ce4bhsp2rcd13ifvqi50","pricing_plan_id":"free"},{"bike_id":"dca02982-a8ca-4f8f-99aa-c4c50c3dc6cf","system_id":"levelo_inurba_marseille","lat":43.32273,"lon":5.36961,"is_reserved":false,"is_disabled":false,"rental_uris":{"android":"levelo://app?vid=dca02982-a8ca-4f8f-99aa-c4c50c3dc6cf","ios":"levelo://app?vid=dca02982-a8ca-4f8f-99aa-c4c50c3dc6cf"},"vehicle_type_id":"4","last_reported":1707775575,"current_range_meters":13200,"station_id":"","pricing_plan_id":"free"},{"bike_id":"ece37507-bd34-49bd-8fb9-a2bd051c87f6","system_id":"levelo_inurba_marseille","lat":43.301939,"lon":5.366286,"is_reserved":false,"is_disabled":false,"rental_uris":{"android":"levelo://app?vid=ece37507-bd34-49bd-8fb9-a2bd051c87f6","ios":"levelo://app?vid=ece37507-bd34-49bd-8fb9-a2bd051c87f6"},"vehicle_type_id":"4","last_reported":1707775575,"current_range_meters":29200,"station_id":"ce4bgrh2rcd13ifvqc8g","pricing_plan_id":"free"},{"bike_id":"9b13410c-e769-442c-a883-23545a3cef7a","system_id":"levelo_inurba_marseille","lat":43.301939,"lon":5.366286,"is_reserved":false,"is_disabled":false,"rental_uris":{"android":"levelo://app?vid=9b13410c-e769-442c-a883-23545a3cef7a","ios":"levelo://app?vid=9b13410c-e769-442c-a883-23545a3cef7a"},"vehicle_type_id":"4","last_reported":1707775575,"current_range_meters":11200,"station_id":"ce4bgrh2rcd13ifvqc8g","pricing_plan_id":"free"},{"bike_id":"ab58fdef-d78a-4231-89b6-cd8b3cd659b1","system_id":"levelo_inurba_marseille","lat":43.308012,"lon":5.381511,"is_reserved":false,"is_disabled":false,"rental_uris":{"android":"levelo://app?vid=ab58fdef-d78a-4231-89b6-cd8b3cd659b1","ios":"levelo://app?vid=ab58fdef-d78a-4231-89b6-cd8b3cd659b1"},"vehicle_type_id":"4","last_reported":1707775575,"current_range_meters":13200,"station_id":"ce4bgt12rcd13ifvqce0","pricing_plan_id":"free"},{"bike_id":"dfebd165-72d0-42f9-8a82-15b23e8c621a","system_id":"levelo_inurba_marseille","lat":43.308012,"lon":5.381511,"is_reserved":false,"is_disabled":false,"rental_uris":{"android":"levelo://app?vid=dfebd165-72d0-42f9-8a82-15b23e8c621a","ios":"levelo://app?vid=dfebd165-72d0-42f9-8a82-15b23e8c621a"},"vehicle_type_id":"4","last_reported":1707775575,"current_range_meters":19600,"station_id":"ce4bgt12rcd13ifvqce0","pricing_plan_id":"free"},{"bike_id":"5e792ff1-2810-47c9-91d4-83c5658b42fd","system_id":"levelo_inurba_marseille","lat":43.308012,"lon":5.381511,"is_reserved":false,"is_disabled":false,"rental_uris":{"android":"levelo://app?vid=5e792ff1-2810-47c9-91d4-83c5658b42fd","ios":"levelo://app?vid=5e792ff1-2810-47c9-91d4-83c5658b42fd"},"vehicle_type_id":"4","last_reported":1707775575,"current_range_meters":13600,"station_id":"ce4bgt12rcd13ifvqce0","pricing_plan_id":"free"},{"bike_id":"55335942-251a-4cbf-9481-3ffc16fda6bc","system_id":"levelo_inurba_marseille","lat":43.304606,"lon":5.379026,"is_reserved":false,"is_disabled":false,"rental_uris":{"android":"levelo://app?vid=55335942-251a-4cbf-9481-3ffc16fda6bc","ios":"levelo://app?vid=55335942-251a-4cbf-9481-3ffc16fda6bc"},"vehicle_type_id":"4","last_reported":1707775575,"current_range_meters":28400,"station_id":"ce4bgup2rcd13ifvqcn0","pricing_plan_id":"free"},{"bike_id":"cd19cbd2-fdc9-4ad6-b545-da608836247c","system_id":"levelo_inurba_marseille","lat":43.324771,"lon":5.36557,"is_reserved":false,"is_disabled":false,"rental_uris":{"android":"levelo://app?vid=cd19cbd2-fdc9-4ad6-b545-da608836247c","ios":"levelo://app?vid=cd19cbd2-fdc9-4ad6-b545-da608836247c"},"vehicle_type_id":"4","last_reported":1707775575,"current_range_meters":2400,"station_id":"ce4bhs12rcd13ifvqhvg","pricing_plan_id":"free"},{"bike_id":"e9a3d27b-1dab-468d-a47b-9215a3adadcd","system_id":"levelo_inurba_marseille","lat":43.324771,"lon":5.36557,"is_reserved":false,"is_disabled":false,"rental_uris":{"android":"levelo://app?vid=e9a3d27b-1dab-468d-a47b-9215a3adadcd","ios":"levelo://app?vid=e9a3d27b-1dab-468d-a47b-9215a3adadcd"},"vehicle_type_id":"4","last_reported":1707775575,"current_range_meters":19600,"station_id":"ce4bhs12rcd13ifvqhvg","pricing_plan_id":"free"},{"bike_id":"a34a2f83-cbcd-4c60-acc0-2f59774cd82e","system_id":"levelo_inurba_marseille","lat":43.324771,"lon":5.36557,"is_reserved":false,"is_disabled":false,"rental_uris":{"android":"levelo://app?vid=a34a2f83-cbcd-4c60-acc0-2f59774cd82e","ios":"levelo://app?vid=a34a2f83-cbcd-4c60-acc0-2f59774cd82e"},"vehicle_type_id":"4","last_reported":1707775575,"current_range_meters":4400,"station_id":"ce4bhs12rcd13ifvqhvg","pricing_plan_id":"free"},{"bike_id":"ae102b04-dfae-41a7-a671-5670341330eb","system_id":"levelo_inurba_marseille","lat":43.310728,"lon":5.383491,"is_reserved":false,"is_disabled":false,"rental_uris":{"android":"levelo://app?vid=ae102b04-dfae-41a7-a671-5670341330eb","ios":"levelo://app?vid=ae102b04-dfae-41a7-a671-5670341330eb"},"vehicle_type_id":"4","last_reported":1707775575,"current_range_meters":2000,"station_id":"ce4bgv92rcd13ifvqcr0","pricing_plan_id":"free"},{"bike_id":"fdcfbddf-6fed-44a5-9d83-a8ddb0fab0f0","system_id":"levelo_inurba_marseille","lat":43.31081,"lon":5.38351,"is_reserved":false,"is_disabled":false,"rental_uris":{"android":"levelo://app?vid=fdcfbddf-6fed-44a5-9d83-a8ddb0fab0f0","ios":"levelo://app?vid=fdcfbddf-6fed-44a5-9d83-a8ddb0fab0f0"},"vehicle_type_id":"4","last_reported":1707775575,"current_range_meters":13600,"station_id":"ce4bgv92rcd13ifvqcr0","pricing_plan_id":"free"},{"bike_id":"338d7bde-ef96-4026-8473-afb22e40254c","system_id":"levelo_inurba_marseille","lat":43.310675,"lon":5.383517,"is_reserved":false,"is_disabled":false,"rental_uris":{"android":"levelo://app?vid=338d7bde-ef96-4026-8473-afb22e40254c","ios":"levelo://app?vid=338d7bde-ef96-4026-8473-afb22e40254c"},"vehicle_type_id":"4","last_reported":1707775575,"current_range_meters":8000,"station_id":"ce4bgv92rcd13ifvqcr0","pricing_plan_id":"free"},{"bike_id":"486c92bf-34b2-4ccf-a112-1eb098e1f331","system_id":"levelo_inurba_marseille","lat":43.31075,"lon":5.3836,"is_reserved":false,"is_disabled":false,"rental_uris":{"android":"levelo://app?vid=486c92bf-34b2-4ccf-a112-1eb098e1f331","ios":"levelo://app?vid=486c92bf-34b2-4ccf-a112-1eb098e1f331"},"vehicle_type_id":"4","last_reported":1707775575,"current_range_meters":10000,"station_id":"ce4bgv92rcd13ifvqcr0","pricing_plan_id":"free"},{"bike_id":"742623c4-35b0-4a54-bcfb-8b45d980d2ae","system_id":"levelo_inurba_marseille","lat":43.302784,"lon":5.377158,"is_reserved":false,"is_disabled":false,"rental_uris":{"android":"levelo://app?vid=742623c4-35b0-4a54-bcfb-8b45d980d2ae","ios":"levelo://app?vid=742623c4-35b0-4a54-bcfb-8b45d980d2ae"},"vehicle_type_id":"4","last_reported":1707775575,"current_range_meters":10400,"station_id":"ce4bguh2rcd13ifvqcj0","pricing_plan_id":"free"},{"bike_id":"2c22e086-344d-466d-9a29-400a3159186e","system_id":"levelo_inurba_marseille","lat":43.319957,"lon":5.381502,"is_reserved":false,"is_disabled":false,"rental_uris":{"android":"levelo://app?vid=2c22e086-344d-466d-9a29-400a3159186e","ios":"levelo://app?vid=2c22e086-344d-466d-9a29-400a3159186e"},"vehicle_type_id":"4","last_reported":1707775575,"current_range_meters":11600,"station_id":"ce4bhr12rcd13ifvqhpg","pricing_plan_id":"free"},{"bike_id":"eef421ab-b8b4-44b0-8692-6f744b0dfa34","system_id":"levelo_inurba_marseille","lat":43.32,"lon":5.38147,"is_reserved":false,"is_disabled":false,"rental_uris":{"android":"levelo://app?vid=eef421ab-b8b4-44b0-8692-6f744b0dfa34","ios":"levelo://app?vid=eef421ab-b8b4-44b0-8692-6f744b0dfa34"},"vehicle_type_id":"4","last_reported":1707775575,"current_range_meters":16800,"station_id":"ce4bhr12rcd13ifvqhpg","pricing_plan_id":"free"},{"bike_id":"1ffb83fd-bd00-41f3-8fd9-9cf3f64c4e43","system_id":"levelo_inurba_marseille","lat":43.32,"lon":5.38154,"is_reserved":false,"is_disabled":false,"rental_uris":{"android":"levelo://app?vid=1ffb83fd-bd00-41f3-8fd9-9cf3f64c4e43","ios":"levelo://app?vid=1ffb83fd-bd00-41f3-8fd9-9cf3f64c4e43"},"vehicle_type_id":"4","last_reported":1707775575,"current_range_meters":23600,"station_id":"ce4bhr12rcd13ifvqhpg","pricing_plan_id":"free"},{"bike_id":"ec59000e-1431-4b94-9efa-61772203a39e","system_id":"levelo_inurba_marseille","lat":43.31998,"lon":5.38158,"is_reserved":false,"is_disabled":false,"rental_uris":{"android":"levelo://app?vid=ec59000e-1431-4b94-9efa-61772203a39e","ios":"levelo://app?vid=ec59000e-1431-4b94-9efa-61772203a39e"},"vehicle_type_id":"4","last_reported":1707775575,"current_range_meters":800,"station_id":"ce4bhr12rcd13ifvqhpg","pricing_plan_id":"free"},{"bike_id":"68ea133a-6c8c-4500-8dbf-a6144f869869","system_id":"levelo_inurba_marseille","lat":43.319956,"lon":5.381606,"is_reserved":false,"is_disabled":false,"rental_uris":{"android":"levelo://app?vid=68ea133a-6c8c-4500-8dbf-a6144f869869","ios":"levelo://app?vid=68ea133a-6c8c-4500-8dbf-a6144f869869"},"vehicle_type_id":"4","last_reported":1707775575,"current_range_meters":0,"station_id":"ce4bhr12rcd13ifvqhpg","pricing_plan_id":"free"},{"bike_id":"4bb76dd1-f376-4657-8a3f-2579e4f876d7","system_id":"levelo_inurba_marseille","lat":43.32,"lon":5.38161,"is_reserved":false,"is_disabled":false,"rental_uris":{"android":"levelo://app?vid=4bb76dd1-f376-4657-8a3f-2579e4f876d7","ios":"levelo://app?vid=4bb76dd1-f376-4657-8a3f-2579e4f876d7"},"vehicle_type_id":"4","last_reported":1707775575,"current_range_meters":0,"station_id":"ce4bhr12rcd13ifvqhpg","pricing_plan_id":"free"},{"bike_id":"536774e1-bfe7-4f35-a3fa-d188c4136af2","system_id":"levelo_inurba_marseille","lat":43.313571,"lon":5.384829,"is_reserved":false,"is_disabled":false,"rental_uris":{"android":"levelo://app?vid=536774e1-bfe7-4f35-a3fa-d188c4136af2","ios":"levelo://app?vid=536774e1-bfe7-4f35-a3fa-d188c4136af2"},"vehicle_type_id":"4","last_reported":1707775575,"current_range_meters":24400,"station_id":"ce4bgt92rcd13ifvqcf0","pricing_plan_id":"free"},{"bike_id":"cacde8b3-26ff-4666-9cfa-8e05f8400e47","system_id":"levelo_inurba_marseille","lat":43.313571,"lon":5.384829,"is_reserved":false,"is_disabled":false,"rental_uris":{"android":"levelo://app?vid=cacde8b3-26ff-4666-9cfa-8e05f8400e47","ios":"levelo://app?vid=cacde8b3-26ff-4666-9cfa-8e05f8400e47"},"vehicle_type_id":"4","last_reported":1707775575,"current_range_meters":22800,"station_id":"ce4bgt92rcd13ifvqcf0","pricing_plan_id":"free"},{"bike_id":"16554f9c-b156-410e-892e-5825b1e62f8e","system_id":"levelo_inurba_marseille","lat":43.313571,"lon":5.384829,"is_reserved":false,"is_disabled":false,"rental_uris":{"android":"levelo://app?vid=16554f9c-b156-410e-892e-5825b1e62f8e","ios":"levelo://app?vid=16554f9c-b156-410e-892e-5825b1e62f8e"},"vehicle_type_id":"4","last_reported":1707775575,"current_range_meters":12000,"station_id":"ce4bgt92rcd13ifvqcf0","pricing_plan_id":"free"},{"bike_id":"073b2ba5-8534-4095-b789-7be14e4c3cc3","system_id":"levelo_inurba_marseille","lat":43.299222,"lon":5.365554,"is_reserved":false,"is_disabled":false,"rental_uris":{"android":"levelo://app?vid=073b2ba5-8534-4095-b789-7be14e4c3cc3","ios":"levelo://app?vid=073b2ba5-8534-4095-b789-7be14e4c3cc3"},"vehicle_type_id":"4","last_reported":1707775575,"current_range_meters":8400,"station_id":"ce4bgm92rcd13ifvqbr0","pricing_plan_id":"free"},{"bike_id":"6166aa19-6d96-49fd-8327-15b32a85b717","system_id":"levelo_inurba_marseille","lat":43.299222,"lon":5.365554,"is_reserved":false,"is_disabled":false,"rental_uris":{"android":"levelo://app?vid=6166aa19-6d96-49fd-8327-15b32a85b717","ios":"levelo://app?vid=6166aa19-6d96-49fd-8327-15b32a85b717"},"vehicle_type_id":"4","last_reported":1707775575,"current_range_meters":20000,"station_id":"ce4bgm92rcd13ifvqbr0","pricing_plan_id":"free"},{"bike_id":"d6269cda-eaf9-4142-8dee-7ae73c766366","system_id":"levelo_inurba_marseille","lat":43.299724,"lon":5.371829,"is_reserved":false,"is_disabled":false,"rental_uris":{"android":"levelo://app?vid=d6269cda-eaf9-4142-8dee-7ae73c766366","ios":"levelo://app?vid=d6269cda-eaf9-4142-8dee-7ae73c766366"},"vehicle_type_id":"4","last_reported":1707775575,"current_range_meters":29600,"station_id":"ce4bgr92rcd13ifvqc7g","pricing_plan_id":"free"},{"bike_id":"f6228a21-af9a-46f0-a618-b8b8d8c60fc3","system_id":"levelo_inurba_marseille","lat":43.305364,"lon":5.384119,"is_reserved":false,"is_disabled":false,"rental_uris":{"android":"levelo://app?vid=f6228a21-af9a-46f0-a618-b8b8d8c60fc3","ios":"levelo://app?vid=f6228a21-af9a-46f0-a618-b8b8d8c60fc3"},"vehicle_type_id":"4","last_reported":1707775575,"current_range_meters":19600,"station_id":"ce4bgg92rcd13ifvqb30","pricing_plan_id":"free"},{"bike_id":"bd736565-3f15-4f29-86dc-8a82d25eb7e5","system_id":"levelo_inurba_marseille","lat":43.305364,"lon":5.384119,"is_reserved":false,"is_disabled":false,"rental_uris":{"android":"levelo://app?vid=bd736565-3f15-4f29-86dc-8a82d25eb7e5","ios":"levelo://app?vid=bd736565-3f15-4f29-86dc-8a82d25eb7e5"},"vehicle_type_id":"4","last_reported":1707775575,"current_range_meters":28400,"station_id":"ce4bgg92rcd13ifvqb30","pricing_plan_id":"free"},{"bike_id":"9152aca9-28e6-4d41-86f0-81a90a9276ce","system_id":"levelo_inurba_marseille","lat":43.305364,"lon":5.384119,"is_reserved":false,"is_disabled":false,"rental_uris":{"android":"levelo://app?vid=9152aca9-28e6-4d41-86f0-81a90a9276ce","ios":"levelo://app?vid=9152aca9-28e6-4d41-86f0-81a90a9276ce"},"vehicle_type_id":"4","last_reported":1707775575,"current_range_meters":9600,"station_id":"ce4bgg92rcd13ifvqb30","pricing_plan_id":"free"},{"bike_id":"1e65f469-019c-4714-a330-ed9f0d796f84","system_id":"levelo_inurba_marseille","lat":43.31157,"lon":5.38689,"is_reserved":false,"is_disabled":false,"rental_uris":{"android":"levelo://app?vid=1e65f469-019c-4714-a330-ed9f0d796f84","ios":"levelo://app?vid=1e65f469-019c-4714-a330-ed9f0d796f84"},"vehicle_type_id":"4","last_reported":1707775575,"current_range_meters":18400,"station_id":"ce4bgv12rcd13ifvqcp0","pricing_plan_id":"free"},{"bike_id":"f901f3db-bbe9-475a-90d0-b7d277ebaf87","system_id":"levelo_inurba_marseille","lat":43.305364,"lon":5.384119,"is_reserved":false,"is_disabled":false,"rental_uris":{"android":"levelo://app?vid=f901f3db-bbe9-475a-90d0-b7d277ebaf87","ios":"levelo://app?vid=f901f3db-bbe9-475a-90d0-b7d277ebaf87"},"vehicle_type_id":"4","last_reported":1707775575,"current_range_meters":9200,"station_id":"ce4bgg92rcd13ifvqb30","pricing_plan_id":"free"},{"bike_id":"60e34df3-47f1-4938-949d-5c5f840700db","system_id":"levelo_inurba_marseille","lat":43.299243,"lon":5.37481,"is_reserved":false,"is_disabled":false,"rental_uris":{"android":"levelo://app?vid=60e34df3-47f1-4938-949d-5c5f840700db","ios":"levelo://app?vid=60e34df3-47f1-4938-949d-5c5f840700db"},"vehicle_type_id":"4","last_reported":1707775575,"current_range_meters":8800,"station_id":"ce4bgjh2rcd13ifvqbg0","pricing_plan_id":"free"},{"bike_id":"eb07326a-3dd0-4481-9f6c-74f523ebacc8","system_id":"levelo_inurba_marseille","lat":43.299243,"lon":5.37481,"is_reserved":false,"is_disabled":false,"rental_uris":{"android":"levelo://app?vid=eb07326a-3dd0-4481-9f6c-74f523ebacc8","ios":"levelo://app?vid=eb07326a-3dd0-4481-9f6c-74f523ebacc8"},"vehicle_type_id":"4","last_reported":1707775575,"current_range_meters":14000,"station_id":"ce4bgjh2rcd13ifvqbg0","pricing_plan_id":"free"},{"bike_id":"527b6507-a86f-47b7-9c36-9aeccc7f6780","system_id":"levelo_inurba_marseille","lat":43.32289,"lon":5.38254,"is_reserved":false,"is_disabled":false,"rental_uris":{"android":"levelo://app?vid=527b6507-a86f-47b7-9c36-9aeccc7f6780","ios":"levelo://app?vid=527b6507-a86f-47b7-9c36-9aeccc7f6780"},"vehicle_type_id":"4","last_reported":1707775575,"current_range_meters":27600,"station_id":"ce4bhr12rcd13ifvqhqg","pricing_plan_id":"free"},{"bike_id":"2503d63f-9409-4626-bcfa-fa2e70777687","system_id":"levelo_inurba_marseille","lat":43.322872,"lon":5.382756,"is_reserved":false,"is_disabled":false,"rental_uris":{"android":"levelo://app?vid=2503d63f-9409-4626-bcfa-fa2e70777687","ios":"levelo://app?vid=2503d63f-9409-4626-bcfa-fa2e70777687"},"vehicle_type_id":"4","last_reported":1707775575,"current_range_meters":25600,"station_id":"ce4bhr12rcd13ifvqhqg","pricing_plan_id":"free"},{"bike_id":"7c59bca1-a347-4cb9-b145-64f6481277fc","system_id":"levelo_inurba_marseille","lat":43.322912,"lon":5.382594,"is_reserved":false,"is_disabled":false,"rental_uris":{"android":"levelo://app?vid=7c59bca1-a347-4cb9-b145-64f6481277fc","ios":"levelo://app?vid=7c59bca1-a347-4cb9-b145-64f6481277fc"},"vehicle_type_id":"4","last_reported":1707775575,"current_range_meters":30000,"station_id":"ce4bhr12rcd13ifvqhqg","pricing_plan_id":"free"},{"bike_id":"d16915ab-365b-49c0-8e2e-1059f74f084d","system_id":"levelo_inurba_marseille","lat":43.32287,"lon":5.38265,"is_reserved":false,"is_disabled":false,"rental_uris":{"android":"levelo://app?vid=d16915ab-365b-49c0-8e2e-1059f74f084d","ios":"levelo://app?vid=d16915ab-365b-49c0-8e2e-1059f74f084d"},"vehicle_type_id":"4","last_reported":1707775575,"current_range_meters":22400,"station_id":"ce4bhr12rcd13ifvqhqg","pricing_plan_id":"free"},{"bike_id":"beb3e36f-3f99-4dfc-841c-74803ce2e6c8","system_id":"levelo_inurba_marseille","lat":43.32291,"lon":5.38264,"is_reserved":false,"is_disabled":false,"rental_uris":{"android":"levelo://app?vid=beb3e36f-3f99-4dfc-841c-74803ce2e6c8","ios":"levelo://app?vid=beb3e36f-3f99-4dfc-841c-74803ce2e6c8"},"vehicle_type_id":"4","last_reported":1707775575,"current_range_meters":0,"station_id":"ce4bhr12rcd13ifvqhqg","pricing_plan_id":"free"},{"bike_id":"33170a3c-d249-42cf-a23e-db8cbeecfd39","system_id":"levelo_inurba_marseille","lat":43.322872,"lon":5.382756,"is_reserved":false,"is_disabled":false,"rental_uris":{"android":"levelo://app?vid=33170a3c-d249-42cf-a23e-db8cbeecfd39","ios":"levelo://app?vid=33170a3c-d249-42cf-a23e-db8cbeecfd39"},"vehicle_type_id":"4","last_reported":1707775575,"current_range_meters":9200,"station_id":"ce4bhr12rcd13ifvqhqg","pricing_plan_id":"free"},{"bike_id":"e5750477-e3f2-40a2-b1f6-91d5216398f6","system_id":"levelo_inurba_marseille","lat":43.3229,"lon":5.38273,"is_reserved":false,"is_disabled":false,"rental_uris":{"android":"levelo://app?vid=e5750477-e3f2-40a2-b1f6-91d5216398f6","ios":"levelo://app?vid=e5750477-e3f2-40a2-b1f6-91d5216398f6"},"vehicle_type_id":"4","last_reported":1707775575,"current_range_meters":22800,"station_id":"ce4bhr12rcd13ifvqhqg","pricing_plan_id":"free"},{"bike_id":"c3332315-777e-4af8-b68a-18a46d9c4f28","system_id":"levelo_inurba_marseille","lat":43.322914,"lon":5.382731,"is_reserved":false,"is_disabled":false,"rental_uris":{"android":"levelo://app?vid=c3332315-777e-4af8-b68a-18a46d9c4f28","ios":"levelo://app?vid=c3332315-777e-4af8-b68a-18a46d9c4f28"},"vehicle_type_id":"4","last_reported":1707775575,"current_range_meters":27600,"station_id":"ce4bhr12rcd13ifvqhqg","pricing_plan_id":"free"},{"bike_id":"c780842c-e95f-47ff-a149-ed36c8a413db","system_id":"levelo_inurba_marseille","lat":43.322872,"lon":5.382756,"is_reserved":false,"is_disabled":false,"rental_uris":{"android":"levelo://app?vid=c780842c-e95f-47ff-a149-ed36c8a413db","ios":"levelo://app?vid=c780842c-e95f-47ff-a149-ed36c8a413db"},"vehicle_type_id":"4","last_reported":1707775575,"current_range_meters":30800,"station_id":"ce4bhr12rcd13ifvqhqg","pricing_plan_id":"free"},{"bike_id":"a44933ef-03a0-4282-9ff6-bcc91878fda0","system_id":"levelo_inurba_marseille","lat":43.32823,"lon":5.366824,"is_reserved":false,"is_disabled":false,"rental_uris":{"android":"levelo://app?vid=a44933ef-03a0-4282-9ff6-bcc91878fda0","ios":"levelo://app?vid=a44933ef-03a0-4282-9ff6-bcc91878fda0"},"vehicle_type_id":"4","last_reported":1707775575,"current_range_meters":6400,"station_id":"ce4bhs92rcd13ifvqi0g","pricing_plan_id":"free"},{"bike_id":"d22a27f5-091b-42fa-941c-6e99819fca0e","system_id":"levelo_inurba_marseille","lat":43.328253,"lon":5.366718,"is_reserved":false,"is_disabled":false,"rental_uris":{"android":"levelo://app?vid=d22a27f5-091b-42fa-941c-6e99819fca0e","ios":"levelo://app?vid=d22a27f5-091b-42fa-941c-6e99819fca0e"},"vehicle_type_id":"4","last_reported":1707775575,"current_range_meters":17200,"station_id":"ce4bhs92rcd13ifvqi0g","pricing_plan_id":"free"},{"bike_id":"de562f14-ffaa-41a8-9815-6c8ff06728a2","system_id":"levelo_inurba_marseille","lat":43.32826,"lon":5.36682,"is_reserved":false,"is_disabled":false,"rental_uris":{"android":"levelo://app?vid=de562f14-ffaa-41a8-9815-6c8ff06728a2","ios":"levelo://app?vid=de562f14-ffaa-41a8-9815-6c8ff06728a2"},"vehicle_type_id":"4","last_reported":1707775575,"current_range_meters":17600,"station_id":"ce4bhs92rcd13ifvqi0g","pricing_plan_id":"free"},{"bike_id":"0cf06903-45ed-4c06-866c-98b66b380890","system_id":"levelo_inurba_marseille","lat":43.328265,"lon":5.366797,"is_reserved":false,"is_disabled":false,"rental_uris":{"android":"levelo://app?vid=0cf06903-45ed-4c06-866c-98b66b380890","ios":"levelo://app?vid=0cf06903-45ed-4c06-866c-98b66b380890"},"vehicle_type_id":"4","last_reported":1707775575,"current_range_meters":20000,"station_id":"ce4bhs92rcd13ifvqi0g","pricing_plan_id":"free"},{"bike_id":"03730dd5-0a88-4239-8528-528347df93a2","system_id":"levelo_inurba_marseille","lat":43.328273,"lon":5.366753,"is_reserved":false,"is_disabled":false,"rental_uris":{"android":"levelo://app?vid=03730dd5-0a88-4239-8528-528347df93a2","ios":"levelo://app?vid=03730dd5-0a88-4239-8528-528347df93a2"},"vehicle_type_id":"4","last_reported":1707775575,"current_range_meters":6000,"station_id":"ce4bhs92rcd13ifvqi0g","pricing_plan_id":"free"},{"bike_id":"b17262ff-d7fc-4ef8-92b0-4128905d7cdd","system_id":"levelo_inurba_marseille","lat":43.32828,"lon":5.36688,"is_reserved":false,"is_disabled":false,"rental_uris":{"android":"levelo://app?vid=b17262ff-d7fc-4ef8-92b0-4128905d7cdd","ios":"levelo://app?vid=b17262ff-d7fc-4ef8-92b0-4128905d7cdd"},"vehicle_type_id":"4","last_reported":1707775575,"current_range_meters":24800,"station_id":"ce4bhs92rcd13ifvqi0g","pricing_plan_id":"free"},{"bike_id":"a22b4351-89df-44ce-a9c5-b5aa3919be44","system_id":"levelo_inurba_marseille","lat":43.32828,"lon":5.366837,"is_reserved":false,"is_disabled":false,"rental_uris":{"android":"levelo://app?vid=a22b4351-89df-44ce-a9c5-b5aa3919be44","ios":"levelo://app?vid=a22b4351-89df-44ce-a9c5-b5aa3919be44"},"vehicle_type_id":"4","last_reported":1707775575,"current_range_meters":23200,"station_id":"ce4bhs92rcd13ifvqi0g","pricing_plan_id":"free"},{"bike_id":"d7fb2c06-e97d-437a-9eb9-d8da8314c700","system_id":"levelo_inurba_marseille","lat":43.32828,"lon":5.36678,"is_reserved":false,"is_disabled":false,"rental_uris":{"android":"levelo://app?vid=d7fb2c06-e97d-437a-9eb9-d8da8314c700","ios":"levelo://app?vid=d7fb2c06-e97d-437a-9eb9-d8da8314c700"},"vehicle_type_id":"4","last_reported":1707775575,"current_range_meters":1600,"station_id":"ce4bhs92rcd13ifvqi0g","pricing_plan_id":"free"},{"bike_id":"9f2ae0bd-3169-4a49-a743-1f928b2ea94c","system_id":"levelo_inurba_marseille","lat":43.328281,"lon":5.366762,"is_reserved":false,"is_disabled":false,"rental_uris":{"android":"levelo://app?vid=9f2ae0bd-3169-4a49-a743-1f928b2ea94c","ios":"levelo://app?vid=9f2ae0bd-3169-4a49-a743-1f928b2ea94c"},"vehicle_type_id":"4","last_reported":1707775575,"current_range_meters":6800,"station_id":"ce4bhs92rcd13ifvqi0g","pricing_plan_id":"free"},{"bike_id":"f9328847-93f3-477c-b3c4-058f938086b7","system_id":"levelo_inurba_marseille","lat":43.328298,"lon":5.366862,"is_reserved":false,"is_disabled":false,"rental_uris":{"android":"levelo://app?vid=f9328847-93f3-477c-b3c4-058f938086b7","ios":"levelo://app?vid=f9328847-93f3-477c-b3c4-058f938086b7"},"vehicle_type_id":"4","last_reported":1707775575,"current_range_meters":14000,"station_id":"ce4bhs92rcd13ifvqi0g","pricing_plan_id":"free"},{"bike_id":"6efdf75a-59db-4683-9096-a599d89573b4","system_id":"levelo_inurba_marseille","lat":43.328306,"lon":5.36676,"is_reserved":false,"is_disabled":false,"rental_uris":{"android":"levelo://app?vid=6efdf75a-59db-4683-9096-a599d89573b4","ios":"levelo://app?vid=6efdf75a-59db-4683-9096-a599d89573b4"},"vehicle_type_id":"4","last_reported":1707775575,"current_range_meters":24400,"station_id":"ce4bhs92rcd13ifvqi0g","pricing_plan_id":"free"},{"bike_id":"9d4f4af9-654a-4fd3-bf5e-6e84dbb3dbae","system_id":"levelo_inurba_marseille","lat":43.328306,"lon":5.366854,"is_reserved":false,"is_disabled":false,"rental_uris":{"android":"levelo://app?vid=9d4f4af9-654a-4fd3-bf5e-6e84dbb3dbae","ios":"levelo://app?vid=9d4f4af9-654a-4fd3-bf5e-6e84dbb3dbae"},"vehicle_type_id":"4","last_reported":1707775575,"current_range_meters":8400,"station_id":"ce4bhs92rcd13ifvqi0g","pricing_plan_id":"free"},{"bike_id":"1f8bcc96-199c-401e-a00d-ac34b60c808b","system_id":"levelo_inurba_marseille","lat":43.328329,"lon":5.366789,"is_reserved":false,"is_disabled":false,"rental_uris":{"android":"levelo://app?vid=1f8bcc96-199c-401e-a00d-ac34b60c808b","ios":"levelo://app?vid=1f8bcc96-199c-401e-a00d-ac34b60c808b"},"vehicle_type_id":"4","last_reported":1707775575,"current_range_meters":3600,"station_id":"ce4bhs92rcd13ifvqi0g","pricing_plan_id":"free"},{"bike_id":"36ebb503-0f57-4df8-b59e-b39c635fd6b1","system_id":"levelo_inurba_marseille","lat":43.32833,"lon":5.36679,"is_reserved":false,"is_disabled":false,"rental_uris":{"android":"levelo://app?vid=36ebb503-0f57-4df8-b59e-b39c635fd6b1","ios":"levelo://app?vid=36ebb503-0f57-4df8-b59e-b39c635fd6b1"},"vehicle_type_id":"4","last_reported":1707775575,"current_range_meters":25600,"station_id":"ce4bhs92rcd13ifvqi0g","pricing_plan_id":"free"},{"bike_id":"6999e336-b5dd-44ca-9b7f-232462b76e41","system_id":"levelo_inurba_marseille","lat":43.32833,"lon":5.36677,"is_reserved":false,"is_disabled":false,"rental_uris":{"android":"levelo://app?vid=6999e336-b5dd-44ca-9b7f-232462b76e41","ios":"levelo://app?vid=6999e336-b5dd-44ca-9b7f-232462b76e41"},"vehicle_type_id":"4","last_reported":1707775575,"current_range_meters":4800,"station_id":"ce4bhs92rcd13ifvqi0g","pricing_plan_id":"free"},{"bike_id":"6a3c4286-d135-47b6-b7e6-099bebcaa564","system_id":"levelo_inurba_marseille","lat":43.32835,"lon":5.36689,"is_reserved":false,"is_disabled":false,"rental_uris":{"android":"levelo://app?vid=6a3c4286-d135-47b6-b7e6-099bebcaa564","ios":"levelo://app?vid=6a3c4286-d135-47b6-b7e6-099bebcaa564"},"vehicle_type_id":"4","last_reported":1707775575,"current_range_meters":28400,"station_id":"ce4bhs92rcd13ifvqi0g","pricing_plan_id":"free"},{"bike_id":"bd2d384f-5fd8-4ad8-81c0-84e7effe3e99","system_id":"levelo_inurba_marseille","lat":43.2968,"lon":5.37291,"is_reserved":false,"is_disabled":false,"rental_uris":{"android":"levelo://app?vid=bd2d384f-5fd8-4ad8-81c0-84e7effe3e99","ios":"levelo://app?vid=bd2d384f-5fd8-4ad8-81c0-84e7effe3e99"},"vehicle_type_id":"4","last_reported":1707775575,"current_range_meters":21600,"station_id":"ce4bgk12rcd13ifvqbj0","pricing_plan_id":"free"},{"bike_id":"e84ff4d2-8c0e-476b-b55a-37d3bdd50b55","system_id":"levelo_inurba_marseille","lat":43.296009,"lon":5.367909,"is_reserved":false,"is_disabled":false,"rental_uris":{"android":"levelo://app?vid=e84ff4d2-8c0e-476b-b55a-37d3bdd50b55","ios":"levelo://app?vid=e84ff4d2-8c0e-476b-b55a-37d3bdd50b55"},"vehicle_type_id":"4","last_reported":1707775575,"current_range_meters":9200,"station_id":"","pricing_plan_id":"free"},{"bike_id":"54490ae5-2af3-4fbe-ae2d-e8b7b8a2db7f","system_id":"levelo_inurba_marseille","lat":43.296131,"lon":5.370791,"is_reserved":false,"is_disabled":false,"rental_uris":{"android":"levelo://app?vid=54490ae5-2af3-4fbe-ae2d-e8b7b8a2db7f","ios":"levelo://app?vid=54490ae5-2af3-4fbe-ae2d-e8b7b8a2db7f"},"vehicle_type_id":"4","last_reported":1707775575,"current_range_meters":6400,"station_id":"ce4bgnh2rcd13ifvqc0g","pricing_plan_id":"free"},{"bike_id":"f63d77ee-f145-49ae-acea-0f9bd34a1be2","system_id":"levelo_inurba_marseille","lat":43.29573,"lon":5.367355,"is_reserved":false,"is_disabled":false,"rental_uris":{"android":"levelo://app?vid=f63d77ee-f145-49ae-acea-0f9bd34a1be2","ios":"levelo://app?vid=f63d77ee-f145-49ae-acea-0f9bd34a1be2"},"vehicle_type_id":"4","last_reported":1707775575,"current_range_meters":25200,"station_id":"ce4bgph2rcd13ifvqc2g","pricing_plan_id":"free"},{"bike_id":"ce8297f9-d06b-4183-b353-b03675514a3c","system_id":"levelo_inurba_marseille","lat":43.299028,"lon":5.381509,"is_reserved":false,"is_disabled":false,"rental_uris":{"android":"levelo://app?vid=ce8297f9-d06b-4183-b353-b03675514a3c","ios":"levelo://app?vid=ce8297f9-d06b-4183-b353-b03675514a3c"},"vehicle_type_id":"4","last_reported":1707775575,"current_range_meters":13200,"station_id":"ce4bgj12rcd13ifvqbc0","pricing_plan_id":"free"},{"bike_id":"f42d86a3-26a3-4740-a076-acda4a783789","system_id":"levelo_inurba_marseille","lat":43.317557,"lon":5.390173,"is_reserved":false,"is_disabled":false,"rental_uris":{"android":"levelo://app?vid=f42d86a3-26a3-4740-a076-acda4a783789","ios":"levelo://app?vid=f42d86a3-26a3-4740-a076-acda4a783789"},"vehicle_type_id":"4","last_reported":1707775575,"current_range_meters":31200,"station_id":"ce4bhqp2rcd13ifvqhng","pricing_plan_id":"free"},{"bike_id":"c550c03e-f44b-4396-859f-8524ab36aa2c","system_id":"levelo_inurba_marseille","lat":43.309589,"lon":5.390258,"is_reserved":false,"is_disabled":false,"rental_uris":{"android":"levelo://app?vid=c550c03e-f44b-4396-859f-8524ab36aa2c","ios":"levelo://app?vid=c550c03e-f44b-4396-859f-8524ab36aa2c"},"vehicle_type_id":"4","last_reported":1707775575,"current_range_meters":13200,"station_id":"ce4bgup2rcd13ifvqco0","pricing_plan_id":"free"},{"bike_id":"a940942a-3083-4cc7-adb3-247186cf7879","system_id":"levelo_inurba_marseille","lat":43.317557,"lon":5.390173,"is_reserved":false,"is_disabled":false,"rental_uris":{"android":"levelo://app?vid=a940942a-3083-4cc7-adb3-247186cf7879","ios":"levelo://app?vid=a940942a-3083-4cc7-adb3-247186cf7879"},"vehicle_type_id":"4","last_reported":1707775575,"current_range_meters":0,"station_id":"ce4bhqp2rcd13ifvqhng","pricing_plan_id":"free"},{"bike_id":"09008396-4df0-421d-b3bd-c071bc61ca03","system_id":"levelo_inurba_marseille","lat":43.317587,"lon":5.390141,"is_reserved":false,"is_disabled":false,"rental_uris":{"android":"levelo://app?vid=09008396-4df0-421d-b3bd-c071bc61ca03","ios":"levelo://app?vid=09008396-4df0-421d-b3bd-c071bc61ca03"},"vehicle_type_id":"4","last_reported":1707775575,"current_range_meters":20800,"station_id":"ce4bhqp2rcd13ifvqhng","pricing_plan_id":"free"},{"bike_id":"c29f8f52-e332-436d-a51c-f1629c25b243","system_id":"levelo_inurba_marseille","lat":43.317557,"lon":5.390173,"is_reserved":false,"is_disabled":false,"rental_uris":{"android":"levelo://app?vid=c29f8f52-e332-436d-a51c-f1629c25b243","ios":"levelo://app?vid=c29f8f52-e332-436d-a51c-f1629c25b243"},"vehicle_type_id":"4","last_reported":1707775575,"current_range_meters":26000,"station_id":"ce4bhqp2rcd13ifvqhng","pricing_plan_id":"free"},{"bike_id":"6117291f-19d4-409c-be16-ea2c0d5a38af","system_id":"levelo_inurba_marseille","lat":43.317571,"lon":5.390154,"is_reserved":false,"is_disabled":false,"rental_uris":{"android":"levelo://app?vid=6117291f-19d4-409c-be16-ea2c0d5a38af","ios":"levelo://app?vid=6117291f-19d4-409c-be16-ea2c0d5a38af"},"vehicle_type_id":"4","last_reported":1707775575,"current_range_meters":8400,"station_id":"ce4bhqp2rcd13ifvqhng","pricing_plan_id":"free"},{"bike_id":"ff96a7d3-adf4-41f2-b7f4-c9989e2211ad","system_id":"levelo_inurba_marseille","lat":43.317557,"lon":5.390173,"is_reserved":false,"is_disabled":false,"rental_uris":{"android":"levelo://app?vid=ff96a7d3-adf4-41f2-b7f4-c9989e2211ad","ios":"levelo://app?vid=ff96a7d3-adf4-41f2-b7f4-c9989e2211ad"},"vehicle_type_id":"4","last_reported":1707775575,"current_range_meters":19200,"station_id":"ce4bhqp2rcd13ifvqhng","pricing_plan_id":"free"},{"bike_id":"c64f5bfa-78fa-4ca6-972c-8b8de57dcc38","system_id":"levelo_inurba_marseille","lat":43.317557,"lon":5.390173,"is_reserved":false,"is_disabled":false,"rental_uris":{"android":"levelo://app?vid=c64f5bfa-78fa-4ca6-972c-8b8de57dcc38","ios":"levelo://app?vid=c64f5bfa-78fa-4ca6-972c-8b8de57dcc38"},"vehicle_type_id":"4","last_reported":1707775575,"current_range_meters":9600,"station_id":"ce4bhqp2rcd13ifvqhng","pricing_plan_id":"free"},{"bike_id":"e4fb8bdb-2f12-40c5-8bb7-c44304f6c093","system_id":"levelo_inurba_marseille","lat":43.317588,"lon":5.390172,"is_reserved":false,"is_disabled":false,"rental_uris":{"android":"levelo://app?vid=e4fb8bdb-2f12-40c5-8bb7-c44304f6c093","ios":"levelo://app?vid=e4fb8bdb-2f12-40c5-8bb7-c44304f6c093"},"vehicle_type_id":"4","last_reported":1707775575,"current_range_meters":22000,"station_id":"ce4bhqp2rcd13ifvqhng","pricing_plan_id":"free"},{"bike_id":"db336c6e-a9e4-4755-9985-80bc119245c3","system_id":"levelo_inurba_marseille","lat":43.317557,"lon":5.390173,"is_reserved":false,"is_disabled":false,"rental_uris":{"android":"levelo://app?vid=db336c6e-a9e4-4755-9985-80bc119245c3","ios":"levelo://app?vid=db336c6e-a9e4-4755-9985-80bc119245c3"},"vehicle_type_id":"4","last_reported":1707775575,"current_range_meters":31200,"station_id":"ce4bhqp2rcd13ifvqhng","pricing_plan_id":"free"},{"bike_id":"7f7fc01e-1952-4bab-afa7-dcf3990c799a","system_id":"levelo_inurba_marseille","lat":43.317557,"lon":5.390173,"is_reserved":false,"is_disabled":false,"rental_uris":{"android":"levelo://app?vid=7f7fc01e-1952-4bab-afa7-dcf3990c799a","ios":"levelo://app?vid=7f7fc01e-1952-4bab-afa7-dcf3990c799a"},"vehicle_type_id":"4","last_reported":1707775575,"current_range_meters":31600,"station_id":"ce4bhqp2rcd13ifvqhng","pricing_plan_id":"free"},{"bike_id":"f718d9c2-6fb8-4585-9684-c2b2826090ae","system_id":"levelo_inurba_marseille","lat":43.317565,"lon":5.390205,"is_reserved":false,"is_disabled":false,"rental_uris":{"android":"levelo://app?vid=f718d9c2-6fb8-4585-9684-c2b2826090ae","ios":"levelo://app?vid=f718d9c2-6fb8-4585-9684-c2b2826090ae"},"vehicle_type_id":"4","last_reported":1707775575,"current_range_meters":31200,"station_id":"ce4bhqp2rcd13ifvqhng","pricing_plan_id":"free"},{"bike_id":"d316055b-b4e1-4300-a152-12db6201596f","system_id":"levelo_inurba_marseille","lat":43.31758,"lon":5.3902,"is_reserved":false,"is_disabled":false,"rental_uris":{"android":"levelo://app?vid=d316055b-b4e1-4300-a152-12db6201596f","ios":"levelo://app?vid=d316055b-b4e1-4300-a152-12db6201596f"},"vehicle_type_id":"4","last_reported":1707775575,"current_range_meters":31200,"station_id":"ce4bhqp2rcd13ifvqhng","pricing_plan_id":"free"},{"bike_id":"6fea3049-e166-4c62-ae45-118f599bb1bd","system_id":"levelo_inurba_marseille","lat":43.317557,"lon":5.390173,"is_reserved":false,"is_disabled":false,"rental_uris":{"android":"levelo://app?vid=6fea3049-e166-4c62-ae45-118f599bb1bd","ios":"levelo://app?vid=6fea3049-e166-4c62-ae45-118f599bb1bd"},"vehicle_type_id":"4","last_reported":1707775575,"current_range_meters":31200,"station_id":"ce4bhqp2rcd13ifvqhng","pricing_plan_id":"free"},{"bike_id":"6c13b8a6-6de2-4cb8-90a3-ca30e8c1dab5","system_id":"levelo_inurba_marseille","lat":43.31752,"lon":5.39032,"is_reserved":false,"is_disabled":false,"rental_uris":{"android":"levelo://app?vid=6c13b8a6-6de2-4cb8-90a3-ca30e8c1dab5","ios":"levelo://app?vid=6c13b8a6-6de2-4cb8-90a3-ca30e8c1dab5"},"vehicle_type_id":"4","last_reported":1707775575,"current_range_meters":16000,"station_id":"ce4bhqp2rcd13ifvqhng","pricing_plan_id":"free"},{"bike_id":"f1c091d7-e8ad-479c-ba85-f42efb21cccc","system_id":"levelo_inurba_marseille","lat":43.298037,"lon":5.381066,"is_reserved":false,"is_disabled":false,"rental_uris":{"android":"levelo://app?vid=f1c091d7-e8ad-479c-ba85-f42efb21cccc","ios":"levelo://app?vid=f1c091d7-e8ad-479c-ba85-f42efb21cccc"},"vehicle_type_id":"4","last_reported":1707775575,"current_range_meters":0,"station_id":"ce4bgip2rcd13ifvqbb0","pricing_plan_id":"free"},{"bike_id":"978dca78-49f4-4c6c-9873-689b695a5f02","system_id":"levelo_inurba_marseille","lat":43.295748,"lon":5.37522,"is_reserved":false,"is_disabled":false,"rental_uris":{"android":"levelo://app?vid=978dca78-49f4-4c6c-9873-689b695a5f02","ios":"levelo://app?vid=978dca78-49f4-4c6c-9873-689b695a5f02"},"vehicle_type_id":"4","last_reported":1707775575,"current_range_meters":30000,"station_id":"ce4bgh92rcd13ifvqb50","pricing_plan_id":"free"},{"bike_id":"c82d59aa-9891-4f53-9191-ce1a33fe3fa3","system_id":"levelo_inurba_marseille","lat":43.304468,"lon":5.388901,"is_reserved":false,"is_disabled":false,"rental_uris":{"android":"levelo://app?vid=c82d59aa-9891-4f53-9191-ce1a33fe3fa3","ios":"levelo://app?vid=c82d59aa-9891-4f53-9191-ce1a33fe3fa3"},"vehicle_type_id":"4","last_reported":1707775575,"current_range_meters":4800,"station_id":"ce4bgk12rcd13ifvqbi0","pricing_plan_id":"free"},{"bike_id":"b9631352-2a79-41f7-b6e4-3fe4e6209359","system_id":"levelo_inurba_marseille","lat":43.304274,"lon":5.388873,"is_reserved":false,"is_disabled":false,"rental_uris":{"android":"levelo://app?vid=b9631352-2a79-41f7-b6e4-3fe4e6209359","ios":"levelo://app?vid=b9631352-2a79-41f7-b6e4-3fe4e6209359"},"vehicle_type_id":"4","last_reported":1707775575,"current_range_meters":12000,"station_id":"ce4bgk12rcd13ifvqbi0","pricing_plan_id":"free"},{"bike_id":"c672108e-75ee-4147-b600-c82869dc29cf","system_id":"levelo_inurba_marseille","lat":43.30443,"lon":5.38892,"is_reserved":false,"is_disabled":false,"rental_uris":{"android":"levelo://app?vid=c672108e-75ee-4147-b600-c82869dc29cf","ios":"levelo://app?vid=c672108e-75ee-4147-b600-c82869dc29cf"},"vehicle_type_id":"4","last_reported":1707775575,"current_range_meters":24400,"station_id":"ce4bgk12rcd13ifvqbi0","pricing_plan_id":"free"},{"bike_id":"0fec86d2-45f7-4a2d-9035-941c11852e3b","system_id":"levelo_inurba_marseille","lat":43.30436,"lon":5.38888,"is_reserved":false,"is_disabled":false,"rental_uris":{"android":"levelo://app?vid=0fec86d2-45f7-4a2d-9035-941c11852e3b","ios":"levelo://app?vid=0fec86d2-45f7-4a2d-9035-941c11852e3b"},"vehicle_type_id":"4","last_reported":1707775575,"current_range_meters":20800,"station_id":"ce4bgk12rcd13ifvqbi0","pricing_plan_id":"free"},{"bike_id":"4a93e636-15df-49cf-9530-4a60c978d2d7","system_id":"levelo_inurba_marseille","lat":43.304274,"lon":5.388873,"is_reserved":false,"is_disabled":false,"rental_uris":{"android":"levelo://app?vid=4a93e636-15df-49cf-9530-4a60c978d2d7","ios":"levelo://app?vid=4a93e636-15df-49cf-9530-4a60c978d2d7"},"vehicle_type_id":"4","last_reported":1707775575,"current_range_meters":24000,"station_id":"ce4bgk12rcd13ifvqbi0","pricing_plan_id":"free"},{"bike_id":"ae1facd2-b658-415c-927b-fa8104763da4","system_id":"levelo_inurba_marseille","lat":43.30438,"lon":5.38894,"is_reserved":false,"is_disabled":false,"rental_uris":{"android":"levelo://app?vid=ae1facd2-b658-415c-927b-fa8104763da4","ios":"levelo://app?vid=ae1facd2-b658-415c-927b-fa8104763da4"},"vehicle_type_id":"4","last_reported":1707775575,"current_range_meters":29600,"station_id":"ce4bgk12rcd13ifvqbi0","pricing_plan_id":"free"},{"bike_id":"d5a790c1-a576-4a8a-9e21-8bd063af41f7","system_id":"levelo_inurba_marseille","lat":43.304274,"lon":5.388873,"is_reserved":false,"is_disabled":false,"rental_uris":{"android":"levelo://app?vid=d5a790c1-a576-4a8a-9e21-8bd063af41f7","ios":"levelo://app?vid=d5a790c1-a576-4a8a-9e21-8bd063af41f7"},"vehicle_type_id":"4","last_reported":1707775575,"current_range_meters":15600,"station_id":"ce4bgk12rcd13ifvqbi0","pricing_plan_id":"free"},{"bike_id":"10ec62c6-d90c-4eff-8be5-ae7acee7729f","system_id":"levelo_inurba_marseille","lat":43.304458,"lon":5.389039,"is_reserved":false,"is_disabled":false,"rental_uris":{"android":"levelo://app?vid=10ec62c6-d90c-4eff-8be5-ae7acee7729f","ios":"levelo://app?vid=10ec62c6-d90c-4eff-8be5-ae7acee7729f"},"vehicle_type_id":"4","last_reported":1707775575,"current_range_meters":13200,"station_id":"ce4bgk12rcd13ifvqbi0","pricing_plan_id":"free"},{"bike_id":"7dff79b6-d307-4095-bcda-06a4be0eb2d4","system_id":"levelo_inurba_marseille","lat":43.32367,"lon":5.388836,"is_reserved":false,"is_disabled":false,"rental_uris":{"android":"levelo://app?vid=7dff79b6-d307-4095-bcda-06a4be0eb2d4","ios":"levelo://app?vid=7dff79b6-d307-4095-bcda-06a4be0eb2d4"},"vehicle_type_id":"4","last_reported":1707775575,"current_range_meters":17200,"station_id":"ce4bhqp2rcd13ifvqhog","pricing_plan_id":"free"},{"bike_id":"3a32260d-96a3-4b93-9fb4-5455d590c1b8","system_id":"levelo_inurba_marseille","lat":43.32367,"lon":5.388836,"is_reserved":false,"is_disabled":false,"rental_uris":{"android":"levelo://app?vid=3a32260d-96a3-4b93-9fb4-5455d590c1b8","ios":"levelo://app?vid=3a32260d-96a3-4b93-9fb4-5455d590c1b8"},"vehicle_type_id":"4","last_reported":1707775575,"current_range_meters":30000,"station_id":"ce4bhqp2rcd13ifvqhog","pricing_plan_id":"free"},{"bike_id":"8ac88179-2d3c-4ff7-9c3b-e6288e4c6fcd","system_id":"levelo_inurba_marseille","lat":43.29602,"lon":5.381084,"is_reserved":false,"is_disabled":false,"rental_uris":{"android":"levelo://app?vid=8ac88179-2d3c-4ff7-9c3b-e6288e4c6fcd","ios":"levelo://app?vid=8ac88179-2d3c-4ff7-9c3b-e6288e4c6fcd"},"vehicle_type_id":"4","last_reported":1707775575,"current_range_meters":14800,"station_id":"ce4bgl12rcd13ifvqbo0","pricing_plan_id":"free"},{"bike_id":"04859d45-38c9-4433-baee-532cc4c0afab","system_id":"levelo_inurba_marseille","lat":43.293259,"lon":5.371586,"is_reserved":false,"is_disabled":false,"rental_uris":{"android":"levelo://app?vid=04859d45-38c9-4433-baee-532cc4c0afab","ios":"levelo://app?vid=04859d45-38c9-4433-baee-532cc4c0afab"},"vehicle_type_id":"4","last_reported":1707775575,"current_range_meters":17600,"station_id":"ce4bgh92rcd13ifvqb40","pricing_plan_id":"free"},{"bike_id":"e8eaa1a6-998a-435b-9907-8fb3910c05bd","system_id":"levelo_inurba_marseille","lat":43.305994,"lon":5.393687,"is_reserved":false,"is_disabled":false,"rental_uris":{"android":"levelo://app?vid=e8eaa1a6-998a-435b-9907-8fb3910c05bd","ios":"levelo://app?vid=e8eaa1a6-998a-435b-9907-8fb3910c05bd"},"vehicle_type_id":"4","last_reported":1707775575,"current_range_meters":29600,"station_id":"ce4bh0p2rcd13ifvqd80","pricing_plan_id":"free"},{"bike_id":"7199bc24-e9e3-41c9-aea9-d697a9bd6328","system_id":"levelo_inurba_marseille","lat":43.305994,"lon":5.393687,"is_reserved":false,"is_disabled":false,"rental_uris":{"android":"levelo://app?vid=7199bc24-e9e3-41c9-aea9-d697a9bd6328","ios":"levelo://app?vid=7199bc24-e9e3-41c9-aea9-d697a9bd6328"},"vehicle_type_id":"4","last_reported":1707775575,"current_range_meters":7600,"station_id":"ce4bh0p2rcd13ifvqd80","pricing_plan_id":"free"},{"bike_id":"cfa7ec63-4397-45a0-85ce-b2accf675fac","system_id":"levelo_inurba_marseille","lat":43.303002,"lon":5.392142,"is_reserved":false,"is_disabled":false,"rental_uris":{"android":"levelo://app?vid=cfa7ec63-4397-45a0-85ce-b2accf675fac","ios":"levelo://app?vid=cfa7ec63-4397-45a0-85ce-b2accf675fac"},"vehicle_type_id":"4","last_reported":1707775575,"current_range_meters":12800,"station_id":"ce4bgkh2rcd13ifvqbk0","pricing_plan_id":"free"},{"bike_id":"ac35c178-7982-4618-84e3-d8c945d1be8a","system_id":"levelo_inurba_marseille","lat":43.2936,"lon":5.37835,"is_reserved":false,"is_disabled":false,"rental_uris":{"android":"levelo://app?vid=ac35c178-7982-4618-84e3-d8c945d1be8a","ios":"levelo://app?vid=ac35c178-7982-4618-84e3-d8c945d1be8a"},"vehicle_type_id":"4","last_reported":1707775575,"current_range_meters":22000,"station_id":"ce4bgjh2rcd13ifvqbf0","pricing_plan_id":"free"},{"bike_id":"92ed04f7-2645-471d-a762-d2415b59f2f2","system_id":"levelo_inurba_marseille","lat":43.302992,"lon":5.392136,"is_reserved":false,"is_disabled":false,"rental_uris":{"android":"levelo://app?vid=92ed04f7-2645-471d-a762-d2415b59f2f2","ios":"levelo://app?vid=92ed04f7-2645-471d-a762-d2415b59f2f2"},"vehicle_type_id":"4","last_reported":1707775575,"current_range_meters":21200,"station_id":"ce4bgkh2rcd13ifvqbk0","pricing_plan_id":"free"},{"bike_id":"a75fc509-ed80-4f26-aaed-c7fb63fd7599","system_id":"levelo_inurba_marseille","lat":43.30293,"lon":5.39218,"is_reserved":false,"is_disabled":false,"rental_uris":{"android":"levelo://app?vid=a75fc509-ed80-4f26-aaed-c7fb63fd7599","ios":"levelo://app?vid=a75fc509-ed80-4f26-aaed-c7fb63fd7599"},"vehicle_type_id":"4","last_reported":1707775575,"current_range_meters":15200,"station_id":"ce4bgkh2rcd13ifvqbk0","pricing_plan_id":"free"},{"bike_id":"4b52073d-4d54-4a61-ad1a-e1ee0718df04","system_id":"levelo_inurba_marseille","lat":43.301012,"lon":5.390746,"is_reserved":false,"is_disabled":false,"rental_uris":{"android":"levelo://app?vid=4b52073d-4d54-4a61-ad1a-e1ee0718df04","ios":"levelo://app?vid=4b52073d-4d54-4a61-ad1a-e1ee0718df04"},"vehicle_type_id":"4","last_reported":1707775575,"current_range_meters":29200,"station_id":"ce4bh192rcd13ifvqdb0","pricing_plan_id":"free"},{"bike_id":"b8a55830-63db-4114-abb1-023dcee94625","system_id":"levelo_inurba_marseille","lat":43.301002,"lon":5.390741,"is_reserved":false,"is_disabled":false,"rental_uris":{"android":"levelo://app?vid=b8a55830-63db-4114-abb1-023dcee94625","ios":"levelo://app?vid=b8a55830-63db-4114-abb1-023dcee94625"},"vehicle_type_id":"4","last_reported":1707775575,"current_range_meters":13200,"station_id":"ce4bh192rcd13ifvqdb0","pricing_plan_id":"free"},{"bike_id":"31191924-1491-40cb-9e6f-7e5aaec70bed","system_id":"levelo_inurba_marseille","lat":43.30085,"lon":5.390856,"is_reserved":false,"is_disabled":false,"rental_uris":{"android":"levelo://app?vid=31191924-1491-40cb-9e6f-7e5aaec70bed","ios":"levelo://app?vid=31191924-1491-40cb-9e6f-7e5aaec70bed"},"vehicle_type_id":"4","last_reported":1707775575,"current_range_meters":28000,"station_id":"ce4bh192rcd13ifvqdb0","pricing_plan_id":"free"},{"bike_id":"a8c39985-3f94-4886-a997-4e075a521ec5","system_id":"levelo_inurba_marseille","lat":43.292311,"lon":5.360731,"is_reserved":false,"is_disabled":false,"rental_uris":{"android":"levelo://app?vid=a8c39985-3f94-4886-a997-4e075a521ec5","ios":"levelo://app?vid=a8c39985-3f94-4886-a997-4e075a521ec5"},"vehicle_type_id":"4","last_reported":1707775575,"current_range_meters":12400,"station_id":"ce4bhbh2rcd13ifvqeqg","pricing_plan_id":"free"},{"bike_id":"fe65f715-63f9-4466-a36c-57cea8d997da","system_id":"levelo_inurba_marseille","lat":43.30093,"lon":5.39073,"is_reserved":false,"is_disabled":false,"rental_uris":{"android":"levelo://app?vid=fe65f715-63f9-4466-a36c-57cea8d997da","ios":"levelo://app?vid=fe65f715-63f9-4466-a36c-57cea8d997da"},"vehicle_type_id":"4","last_reported":1707775575,"current_range_meters":25200,"station_id":"ce4bh192rcd13ifvqdb0","pricing_plan_id":"free"},{"bike_id":"789231cb-b63f-4d32-bff9-ac61bba1a2a5","system_id":"levelo_inurba_marseille","lat":43.30096,"lon":5.3908,"is_reserved":false,"is_disabled":false,"rental_uris":{"android":"levelo://app?vid=789231cb-b63f-4d32-bff9-ac61bba1a2a5","ios":"levelo://app?vid=789231cb-b63f-4d32-bff9-ac61bba1a2a5"},"vehicle_type_id":"4","last_reported":1707775575,"current_range_meters":3200,"station_id":"ce4bh192rcd13ifvqdb0","pricing_plan_id":"free"},{"bike_id":"596aef02-cf81-4db8-825b-19eaf7d9fe48","system_id":"levelo_inurba_marseille","lat":43.30097,"lon":5.39084,"is_reserved":false,"is_disabled":false,"rental_uris":{"android":"levelo://app?vid=596aef02-cf81-4db8-825b-19eaf7d9fe48","ios":"levelo://app?vid=596aef02-cf81-4db8-825b-19eaf7d9fe48"},"vehicle_type_id":"4","last_reported":1707775575,"current_range_meters":21600,"station_id":"ce4bh192rcd13ifvqdb0","pricing_plan_id":"free"},{"bike_id":"69f4de3c-afa0-484d-8dd3-529112965dba","system_id":"levelo_inurba_marseille","lat":43.3009,"lon":5.39079,"is_reserved":false,"is_disabled":false,"rental_uris":{"android":"levelo://app?vid=69f4de3c-afa0-484d-8dd3-529112965dba","ios":"levelo://app?vid=69f4de3c-afa0-484d-8dd3-529112965dba"},"vehicle_type_id":"4","last_reported":1707775575,"current_range_meters":2800,"station_id":"ce4bh192rcd13ifvqdb0","pricing_plan_id":"free"},{"bike_id":"c9cec103-17db-416e-99d8-730ecf188f4f","system_id":"levelo_inurba_marseille","lat":43.300918,"lon":5.390883,"is_reserved":false,"is_disabled":false,"rental_uris":{"android":"levelo://app?vid=c9cec103-17db-416e-99d8-730ecf188f4f","ios":"levelo://app?vid=c9cec103-17db-416e-99d8-730ecf188f4f"},"vehicle_type_id":"4","last_reported":1707775575,"current_range_meters":23200,"station_id":"ce4bh192rcd13ifvqdb0","pricing_plan_id":"free"},{"bike_id":"c45bafea-7d3a-47f7-a440-a20e1017df81","system_id":"levelo_inurba_marseille","lat":43.291675,"lon":5.371583,"is_reserved":false,"is_disabled":false,"rental_uris":{"android":"levelo://app?vid=c45bafea-7d3a-47f7-a440-a20e1017df81","ios":"levelo://app?vid=c45bafea-7d3a-47f7-a440-a20e1017df81"},"vehicle_type_id":"4","last_reported":1707775575,"current_range_meters":10800,"station_id":"ce4bha92rcd13ifvqeh0","pricing_plan_id":"free"},{"bike_id":"abc7c5fe-73e3-444a-bb56-95c368d98705","system_id":"levelo_inurba_marseille","lat":43.298764,"lon":5.388973,"is_reserved":false,"is_disabled":false,"rental_uris":{"android":"levelo://app?vid=abc7c5fe-73e3-444a-bb56-95c368d98705","ios":"levelo://app?vid=abc7c5fe-73e3-444a-bb56-95c368d98705"},"vehicle_type_id":"4","last_reported":1707775575,"current_range_meters":1200,"station_id":"ce4bh392rcd13ifvqdl0","pricing_plan_id":"free"},{"bike_id":"a39b3be1-28cb-4891-93e3-d97ab9ac7b8e","system_id":"levelo_inurba_marseille","lat":43.298764,"lon":5.388973,"is_reserved":false,"is_disabled":false,"rental_uris":{"android":"levelo://app?vid=a39b3be1-28cb-4891-93e3-d97ab9ac7b8e","ios":"levelo://app?vid=a39b3be1-28cb-4891-93e3-d97ab9ac7b8e"},"vehicle_type_id":"4","last_reported":1707775575,"current_range_meters":13200,"station_id":"ce4bh392rcd13ifvqdl0","pricing_plan_id":"free"},{"bike_id":"dd858004-343b-41aa-936d-350d5145e625","system_id":"levelo_inurba_marseille","lat":43.298764,"lon":5.388973,"is_reserved":false,"is_disabled":false,"rental_uris":{"android":"levelo://app?vid=dd858004-343b-41aa-936d-350d5145e625","ios":"levelo://app?vid=dd858004-343b-41aa-936d-350d5145e625"},"vehicle_type_id":"4","last_reported":1707775575,"current_range_meters":30000,"station_id":"ce4bh392rcd13ifvqdl0","pricing_plan_id":"free"},{"bike_id":"4c5ae574-93c9-4213-8270-d10101c35a33","system_id":"levelo_inurba_marseille","lat":43.298764,"lon":5.388973,"is_reserved":false,"is_disabled":false,"rental_uris":{"android":"levelo://app?vid=4c5ae574-93c9-4213-8270-d10101c35a33","ios":"levelo://app?vid=4c5ae574-93c9-4213-8270-d10101c35a33"},"vehicle_type_id":"4","last_reported":1707775575,"current_range_meters":22800,"station_id":"ce4bh392rcd13ifvqdl0","pricing_plan_id":"free"},{"bike_id":"90628443-ef33-49db-9c3a-7a87bdd47d4a","system_id":"levelo_inurba_marseille","lat":43.29872,"lon":5.3891,"is_reserved":false,"is_disabled":false,"rental_uris":{"android":"levelo://app?vid=90628443-ef33-49db-9c3a-7a87bdd47d4a","ios":"levelo://app?vid=90628443-ef33-49db-9c3a-7a87bdd47d4a"},"vehicle_type_id":"4","last_reported":1707775575,"current_range_meters":30800,"station_id":"ce4bh392rcd13ifvqdl0","pricing_plan_id":"free"},{"bike_id":"44024bbd-e8f9-49c4-a5c6-38b1f2c344b5","system_id":"levelo_inurba_marseille","lat":43.309047,"lon":5.396551,"is_reserved":false,"is_disabled":false,"rental_uris":{"android":"levelo://app?vid=44024bbd-e8f9-49c4-a5c6-38b1f2c344b5","ios":"levelo://app?vid=44024bbd-e8f9-49c4-a5c6-38b1f2c344b5"},"vehicle_type_id":"4","last_reported":1707775575,"current_range_meters":2000,"station_id":"ce4bh012rcd13ifvqcv0","pricing_plan_id":"free"},{"bike_id":"921e4fe6-9446-4ce8-bf1c-ee9cc4c8ce14","system_id":"levelo_inurba_marseille","lat":43.309047,"lon":5.396551,"is_reserved":false,"is_disabled":false,"rental_uris":{"android":"levelo://app?vid=921e4fe6-9446-4ce8-bf1c-ee9cc4c8ce14","ios":"levelo://app?vid=921e4fe6-9446-4ce8-bf1c-ee9cc4c8ce14"},"vehicle_type_id":"4","last_reported":1707775575,"current_range_meters":31200,"station_id":"ce4bh012rcd13ifvqcv0","pricing_plan_id":"free"},{"bike_id":"f0fcc759-cfc1-4f71-a02e-52c6b91c0223","system_id":"levelo_inurba_marseille","lat":43.291994,"lon":5.357886,"is_reserved":false,"is_disabled":false,"rental_uris":{"android":"levelo://app?vid=f0fcc759-cfc1-4f71-a02e-52c6b91c0223","ios":"levelo://app?vid=f0fcc759-cfc1-4f71-a02e-52c6b91c0223"},"vehicle_type_id":"4","last_reported":1707775575,"current_range_meters":12000,"station_id":"ce4bhb12rcd13ifvqel0","pricing_plan_id":"free"},{"bike_id":"11405fad-6bba-4ee8-9906-edc950453430","system_id":"levelo_inurba_marseille","lat":43.291994,"lon":5.357886,"is_reserved":false,"is_disabled":false,"rental_uris":{"android":"levelo://app?vid=11405fad-6bba-4ee8-9906-edc950453430","ios":"levelo://app?vid=11405fad-6bba-4ee8-9906-edc950453430"},"vehicle_type_id":"4","last_reported":1707775575,"current_range_meters":31200,"station_id":"ce4bhb12rcd13ifvqel0","pricing_plan_id":"free"},{"bike_id":"54d9cacd-c844-4a58-89b3-286b019fcae0","system_id":"levelo_inurba_marseille","lat":43.309038,"lon":5.396546,"is_reserved":false,"is_disabled":false,"rental_uris":{"android":"levelo://app?vid=54d9cacd-c844-4a58-89b3-286b019fcae0","ios":"levelo://app?vid=54d9cacd-c844-4a58-89b3-286b019fcae0"},"vehicle_type_id":"4","last_reported":1707775575,"current_range_meters":9600,"station_id":"ce4bh012rcd13ifvqcv0","pricing_plan_id":"free"},{"bike_id":"0a160c62-aed8-4e56-b3b7-b1bc96292a25","system_id":"levelo_inurba_marseille","lat":43.309038,"lon":5.396546,"is_reserved":false,"is_disabled":false,"rental_uris":{"android":"levelo://app?vid=0a160c62-aed8-4e56-b3b7-b1bc96292a25","ios":"levelo://app?vid=0a160c62-aed8-4e56-b3b7-b1bc96292a25"},"vehicle_type_id":"4","last_reported":1707775575,"current_range_meters":1600,"station_id":"ce4bh012rcd13ifvqcv0","pricing_plan_id":"free"},{"bike_id":"c7026a1b-4437-4b0d-bfd4-23ac38012614","system_id":"levelo_inurba_marseille","lat":43.309038,"lon":5.396546,"is_reserved":false,"is_disabled":false,"rental_uris":{"android":"levelo://app?vid=c7026a1b-4437-4b0d-bfd4-23ac38012614","ios":"levelo://app?vid=c7026a1b-4437-4b0d-bfd4-23ac38012614"},"vehicle_type_id":"4","last_reported":1707775575,"current_range_meters":12800,"station_id":"ce4bh012rcd13ifvqcv0","pricing_plan_id":"free"},{"bike_id":"2c7ef52d-cf73-41d8-8ad4-f5b0c63576eb","system_id":"levelo_inurba_marseille","lat":43.309038,"lon":5.396546,"is_reserved":false,"is_disabled":false,"rental_uris":{"android":"levelo://app?vid=2c7ef52d-cf73-41d8-8ad4-f5b0c63576eb","ios":"levelo://app?vid=2c7ef52d-cf73-41d8-8ad4-f5b0c63576eb"},"vehicle_type_id":"4","last_reported":1707775575,"current_range_meters":19600,"station_id":"ce4bh012rcd13ifvqcv0","pricing_plan_id":"free"},{"bike_id":"b0d5c753-a88f-4adf-af60-cca82ce754b4","system_id":"levelo_inurba_marseille","lat":43.313291,"lon":5.396838,"is_reserved":false,"is_disabled":false,"rental_uris":{"android":"levelo://app?vid=b0d5c753-a88f-4adf-af60-cca82ce754b4","ios":"levelo://app?vid=b0d5c753-a88f-4adf-af60-cca82ce754b4"},"vehicle_type_id":"4","last_reported":1707775575,"current_range_meters":31600,"station_id":"ce4bgvp2rcd13ifvqcu0","pricing_plan_id":"free"},{"bike_id":"44973e91-0dab-4c23-84eb-8eb6f0a1e9c0","system_id":"levelo_inurba_marseille","lat":43.313291,"lon":5.396838,"is_reserved":false,"is_disabled":false,"rental_uris":{"android":"levelo://app?vid=44973e91-0dab-4c23-84eb-8eb6f0a1e9c0","ios":"levelo://app?vid=44973e91-0dab-4c23-84eb-8eb6f0a1e9c0"},"vehicle_type_id":"4","last_reported":1707775575,"current_range_meters":17600,"station_id":"ce4bgvp2rcd13ifvqcu0","pricing_plan_id":"free"},{"bike_id":"5115eb8e-3900-452c-b6fd-8720c5a03bbd","system_id":"levelo_inurba_marseille","lat":43.313291,"lon":5.396838,"is_reserved":false,"is_disabled":false,"rental_uris":{"android":"levelo://app?vid=5115eb8e-3900-452c-b6fd-8720c5a03bbd","ios":"levelo://app?vid=5115eb8e-3900-452c-b6fd-8720c5a03bbd"},"vehicle_type_id":"4","last_reported":1707775575,"current_range_meters":6800,"station_id":"ce4bgvp2rcd13ifvqcu0","pricing_plan_id":"free"},{"bike_id":"be8c523a-0de0-4416-ada6-a4ea913cc6a9","system_id":"levelo_inurba_marseille","lat":43.313291,"lon":5.396838,"is_reserved":false,"is_disabled":false,"rental_uris":{"android":"levelo://app?vid=be8c523a-0de0-4416-ada6-a4ea913cc6a9","ios":"levelo://app?vid=be8c523a-0de0-4416-ada6-a4ea913cc6a9"},"vehicle_type_id":"4","last_reported":1707775575,"current_range_meters":25200,"station_id":"ce4bgvp2rcd13ifvqcu0","pricing_plan_id":"free"},{"bike_id":"8e16d2e2-8614-4557-bcfd-12da15082f73","system_id":"levelo_inurba_marseille","lat":43.309047,"lon":5.396551,"is_reserved":false,"is_disabled":false,"rental_uris":{"android":"levelo://app?vid=8e16d2e2-8614-4557-bcfd-12da15082f73","ios":"levelo://app?vid=8e16d2e2-8614-4557-bcfd-12da15082f73"},"vehicle_type_id":"4","last_reported":1707775575,"current_range_meters":24000,"station_id":"ce4bh012rcd13ifvqcv0","pricing_plan_id":"free"},{"bike_id":"bf1b8bf7-f176-4984-bc37-85fa876e08c4","system_id":"levelo_inurba_marseille","lat":43.309038,"lon":5.396546,"is_reserved":false,"is_disabled":false,"rental_uris":{"android":"levelo://app?vid=bf1b8bf7-f176-4984-bc37-85fa876e08c4","ios":"levelo://app?vid=bf1b8bf7-f176-4984-bc37-85fa876e08c4"},"vehicle_type_id":"4","last_reported":1707775575,"current_range_meters":30000,"station_id":"ce4bh012rcd13ifvqcv0","pricing_plan_id":"free"},{"bike_id":"1b9654bb-6ba5-4323-9f20-38a294af002b","system_id":"levelo_inurba_marseille","lat":43.29529,"lon":5.385581,"is_reserved":false,"is_disabled":false,"rental_uris":{"android":"levelo://app?vid=1b9654bb-6ba5-4323-9f20-38a294af002b","ios":"levelo://app?vid=1b9654bb-6ba5-4323-9f20-38a294af002b"},"vehicle_type_id":"4","last_reported":1707775575,"current_range_meters":30800,"station_id":"ce4bgih2rcd13ifvqba0","pricing_plan_id":"free"},{"bike_id":"dfbbd3aa-230d-4bc9-8774-feb9cc3b1fc9","system_id":"levelo_inurba_marseille","lat":43.29529,"lon":5.385581,"is_reserved":false,"is_disabled":false,"rental_uris":{"android":"levelo://app?vid=dfbbd3aa-230d-4bc9-8774-feb9cc3b1fc9","ios":"levelo://app?vid=dfbbd3aa-230d-4bc9-8774-feb9cc3b1fc9"},"vehicle_type_id":"4","last_reported":1707775575,"current_range_meters":7200,"station_id":"ce4bgih2rcd13ifvqba0","pricing_plan_id":"free"},{"bike_id":"4c4b4348-35be-41ad-980c-9c5945e755c4","system_id":"levelo_inurba_marseille","lat":43.309038,"lon":5.396546,"is_reserved":false,"is_disabled":false,"rental_uris":{"android":"levelo://app?vid=4c4b4348-35be-41ad-980c-9c5945e755c4","ios":"levelo://app?vid=4c4b4348-35be-41ad-980c-9c5945e755c4"},"vehicle_type_id":"4","last_reported":1707775575,"current_range_meters":16400,"station_id":"ce4bh012rcd13ifvqcv0","pricing_plan_id":"free"},{"bike_id":"46b28c06-c48f-422d-ac0c-f0a898f140d4","system_id":"levelo_inurba_marseille","lat":43.293259,"lon":5.371586,"is_reserved":false,"is_disabled":false,"rental_uris":{"android":"levelo://app?vid=46b28c06-c48f-422d-ac0c-f0a898f140d4","ios":"levelo://app?vid=46b28c06-c48f-422d-ac0c-f0a898f140d4"},"vehicle_type_id":"4","last_reported":1707775575,"current_range_meters":30400,"station_id":"ce4bgh92rcd13ifvqb40","pricing_plan_id":"free"},{"bike_id":"b743cfdf-4366-4964-adad-eba1b460ff65","system_id":"levelo_inurba_marseille","lat":43.302008,"lon":5.394694,"is_reserved":false,"is_disabled":false,"rental_uris":{"android":"levelo://app?vid=b743cfdf-4366-4964-adad-eba1b460ff65","ios":"levelo://app?vid=b743cfdf-4366-4964-adad-eba1b460ff65"},"vehicle_type_id":"4","last_reported":1707775575,"current_range_meters":21200,"station_id":"ce4bh0p2rcd13ifvqd70","pricing_plan_id":"free"},{"bike_id":"e55312b4-4b98-477b-91c6-18d249a2db68","system_id":"levelo_inurba_marseille","lat":43.302008,"lon":5.394694,"is_reserved":false,"is_disabled":false,"rental_uris":{"android":"levelo://app?vid=e55312b4-4b98-477b-91c6-18d249a2db68","ios":"levelo://app?vid=e55312b4-4b98-477b-91c6-18d249a2db68"},"vehicle_type_id":"4","last_reported":1707775575,"current_range_meters":28400,"station_id":"ce4bh0p2rcd13ifvqd70","pricing_plan_id":"free"},{"bike_id":"303fa6f6-0fb5-4516-a095-1dd5c0815dfc","system_id":"levelo_inurba_marseille","lat":43.302008,"lon":5.394694,"is_reserved":false,"is_disabled":false,"rental_uris":{"android":"levelo://app?vid=303fa6f6-0fb5-4516-a095-1dd5c0815dfc","ios":"levelo://app?vid=303fa6f6-0fb5-4516-a095-1dd5c0815dfc"},"vehicle_type_id":"4","last_reported":1707775575,"current_range_meters":12000,"station_id":"ce4bh0p2rcd13ifvqd70","pricing_plan_id":"free"},{"bike_id":"df8c2afa-5d0f-4092-a823-9908c207762e","system_id":"levelo_inurba_marseille","lat":43.30216,"lon":5.39472,"is_reserved":false,"is_disabled":false,"rental_uris":{"android":"levelo://app?vid=df8c2afa-5d0f-4092-a823-9908c207762e","ios":"levelo://app?vid=df8c2afa-5d0f-4092-a823-9908c207762e"},"vehicle_type_id":"4","last_reported":1707775575,"current_range_meters":10800,"station_id":"ce4bh0p2rcd13ifvqd70","pricing_plan_id":"free"},{"bike_id":"428152da-e405-4356-8b70-21b1378846da","system_id":"levelo_inurba_marseille","lat":43.30209,"lon":5.39467,"is_reserved":false,"is_disabled":false,"rental_uris":{"android":"levelo://app?vid=428152da-e405-4356-8b70-21b1378846da","ios":"levelo://app?vid=428152da-e405-4356-8b70-21b1378846da"},"vehicle_type_id":"4","last_reported":1707775575,"current_range_meters":10800,"station_id":"ce4bh0p2rcd13ifvqd70","pricing_plan_id":"free"},{"bike_id":"2298d897-b6e4-4893-92f4-df39740b3fff","system_id":"levelo_inurba_marseille","lat":43.302008,"lon":5.394694,"is_reserved":false,"is_disabled":false,"rental_uris":{"android":"levelo://app?vid=2298d897-b6e4-4893-92f4-df39740b3fff","ios":"levelo://app?vid=2298d897-b6e4-4893-92f4-df39740b3fff"},"vehicle_type_id":"4","last_reported":1707775575,"current_range_meters":26400,"station_id":"ce4bh0p2rcd13ifvqd70","pricing_plan_id":"free"},{"bike_id":"bcb9ad1d-0dcc-45fe-85c5-e337290310f2","system_id":"levelo_inurba_marseille","lat":43.289184,"lon":5.366408,"is_reserved":false,"is_disabled":false,"rental_uris":{"android":"levelo://app?vid=bcb9ad1d-0dcc-45fe-85c5-e337290310f2","ios":"levelo://app?vid=bcb9ad1d-0dcc-45fe-85c5-e337290310f2"},"vehicle_type_id":"4","last_reported":1707775575,"current_range_meters":31600,"station_id":"ce4bhap2rcd13ifvqek0","pricing_plan_id":"free"},{"bike_id":"e7036d4d-95b5-4c73-bfc5-f524f97df7da","system_id":"levelo_inurba_marseille","lat":43.294162,"lon":5.386292,"is_reserved":false,"is_disabled":false,"rental_uris":{"android":"levelo://app?vid=e7036d4d-95b5-4c73-bfc5-f524f97df7da","ios":"levelo://app?vid=e7036d4d-95b5-4c73-bfc5-f524f97df7da"},"vehicle_type_id":"4","last_reported":1707775575,"current_range_meters":0,"station_id":"ce4bh2h2rcd13ifvqdh0","pricing_plan_id":"free"},{"bike_id":"ece26183-c256-4ca4-b5f3-547ef0d07d82","system_id":"levelo_inurba_marseille","lat":43.294162,"lon":5.386292,"is_reserved":false,"is_disabled":false,"rental_uris":{"android":"levelo://app?vid=ece26183-c256-4ca4-b5f3-547ef0d07d82","ios":"levelo://app?vid=ece26183-c256-4ca4-b5f3-547ef0d07d82"},"vehicle_type_id":"4","last_reported":1707775575,"current_range_meters":0,"station_id":"ce4bh2h2rcd13ifvqdh0","pricing_plan_id":"free"},{"bike_id":"35406035-fe98-455e-b7d6-e507dbe2c3d7","system_id":"levelo_inurba_marseille","lat":43.289184,"lon":5.366408,"is_reserved":false,"is_disabled":false,"rental_uris":{"android":"levelo://app?vid=35406035-fe98-455e-b7d6-e507dbe2c3d7","ios":"levelo://app?vid=35406035-fe98-455e-b7d6-e507dbe2c3d7"},"vehicle_type_id":"4","last_reported":1707775575,"current_range_meters":25600,"station_id":"ce4bhap2rcd13ifvqek0","pricing_plan_id":"free"},{"bike_id":"031ca769-02f9-4e7b-ad52-75ae43eed11e","system_id":"levelo_inurba_marseille","lat":43.289184,"lon":5.366408,"is_reserved":false,"is_disabled":false,"rental_uris":{"android":"levelo://app?vid=031ca769-02f9-4e7b-ad52-75ae43eed11e","ios":"levelo://app?vid=031ca769-02f9-4e7b-ad52-75ae43eed11e"},"vehicle_type_id":"4","last_reported":1707775575,"current_range_meters":3600,"station_id":"ce4bhap2rcd13ifvqek0","pricing_plan_id":"free"},{"bike_id":"f514df06-2953-4136-a7df-e3f93ad0a3f5","system_id":"levelo_inurba_marseille","lat":43.289184,"lon":5.366408,"is_reserved":false,"is_disabled":false,"rental_uris":{"android":"levelo://app?vid=f514df06-2953-4136-a7df-e3f93ad0a3f5","ios":"levelo://app?vid=f514df06-2953-4136-a7df-e3f93ad0a3f5"},"vehicle_type_id":"4","last_reported":1707775575,"current_range_meters":26800,"station_id":"ce4bhap2rcd13ifvqek0","pricing_plan_id":"free"},{"bike_id":"89bb6738-9e8c-473d-b11e-69f6a4a4da08","system_id":"levelo_inurba_marseille","lat":43.2894,"lon":5.3663,"is_reserved":false,"is_disabled":false,"rental_uris":{"android":"levelo://app?vid=89bb6738-9e8c-473d-b11e-69f6a4a4da08","ios":"levelo://app?vid=89bb6738-9e8c-473d-b11e-69f6a4a4da08"},"vehicle_type_id":"4","last_reported":1707775575,"current_range_meters":7200,"station_id":"ce4bhap2rcd13ifvqek0","pricing_plan_id":"free"},{"bike_id":"0e01a4bb-d54e-4d83-bb79-83d22e679612","system_id":"levelo_inurba_marseille","lat":43.289184,"lon":5.366408,"is_reserved":false,"is_disabled":false,"rental_uris":{"android":"levelo://app?vid=0e01a4bb-d54e-4d83-bb79-83d22e679612","ios":"levelo://app?vid=0e01a4bb-d54e-4d83-bb79-83d22e679612"},"vehicle_type_id":"4","last_reported":1707775575,"current_range_meters":8800,"station_id":"ce4bhap2rcd13ifvqek0","pricing_plan_id":"free"},{"bike_id":"15450742-2b6f-4735-82ce-d3b3b720eb7c","system_id":"levelo_inurba_marseille","lat":43.289184,"lon":5.366408,"is_reserved":false,"is_disabled":false,"rental_uris":{"android":"levelo://app?vid=15450742-2b6f-4735-82ce-d3b3b720eb7c","ios":"levelo://app?vid=15450742-2b6f-4735-82ce-d3b3b720eb7c"},"vehicle_type_id":"4","last_reported":1707775575,"current_range_meters":2400,"station_id":"ce4bhap2rcd13ifvqek0","pricing_plan_id":"free"},{"bike_id":"51355ab9-8d78-49f5-98de-be4432d05d54","system_id":"levelo_inurba_marseille","lat":43.289184,"lon":5.366408,"is_reserved":false,"is_disabled":false,"rental_uris":{"android":"levelo://app?vid=51355ab9-8d78-49f5-98de-be4432d05d54","ios":"levelo://app?vid=51355ab9-8d78-49f5-98de-be4432d05d54"},"vehicle_type_id":"4","last_reported":1707775575,"current_range_meters":16400,"station_id":"ce4bhap2rcd13ifvqek0","pricing_plan_id":"free"},{"bike_id":"7fa59985-a757-40e1-b6ff-a309cbb326f0","system_id":"levelo_inurba_marseille","lat":43.289184,"lon":5.366408,"is_reserved":false,"is_disabled":false,"rental_uris":{"android":"levelo://app?vid=7fa59985-a757-40e1-b6ff-a309cbb326f0","ios":"levelo://app?vid=7fa59985-a757-40e1-b6ff-a309cbb326f0"},"vehicle_type_id":"4","last_reported":1707775575,"current_range_meters":29600,"station_id":"ce4bhap2rcd13ifvqek0","pricing_plan_id":"free"},{"bike_id":"f5b26537-d860-4ead-a539-8382701a8c38","system_id":"levelo_inurba_marseille","lat":43.289184,"lon":5.366408,"is_reserved":false,"is_disabled":false,"rental_uris":{"android":"levelo://app?vid=f5b26537-d860-4ead-a539-8382701a8c38","ios":"levelo://app?vid=f5b26537-d860-4ead-a539-8382701a8c38"},"vehicle_type_id":"4","last_reported":1707775575,"current_range_meters":24800,"station_id":"ce4bhap2rcd13ifvqek0","pricing_plan_id":"free"},{"bike_id":"18b6d4d8-0753-491f-a2c1-828e814a0ab1","system_id":"levelo_inurba_marseille","lat":43.289468,"lon":5.363719,"is_reserved":false,"is_disabled":false,"rental_uris":{"android":"levelo://app?vid=18b6d4d8-0753-491f-a2c1-828e814a0ab1","ios":"levelo://app?vid=18b6d4d8-0753-491f-a2c1-828e814a0ab1"},"vehicle_type_id":"4","last_reported":1707775575,"current_range_meters":5200,"station_id":"ce4bhc92rcd13ifvqetg","pricing_plan_id":"free"},{"bike_id":"3024b10a-5516-4905-9ffb-9153d442989d","system_id":"levelo_inurba_marseille","lat":43.289184,"lon":5.366408,"is_reserved":false,"is_disabled":false,"rental_uris":{"android":"levelo://app?vid=3024b10a-5516-4905-9ffb-9153d442989d","ios":"levelo://app?vid=3024b10a-5516-4905-9ffb-9153d442989d"},"vehicle_type_id":"4","last_reported":1707775575,"current_range_meters":26800,"station_id":"ce4bhap2rcd13ifvqek0","pricing_plan_id":"free"},{"bike_id":"e5ebdad6-e840-4a76-b5ff-06b1a7d1328d","system_id":"levelo_inurba_marseille","lat":43.289184,"lon":5.366408,"is_reserved":false,"is_disabled":false,"rental_uris":{"android":"levelo://app?vid=e5ebdad6-e840-4a76-b5ff-06b1a7d1328d","ios":"levelo://app?vid=e5ebdad6-e840-4a76-b5ff-06b1a7d1328d"},"vehicle_type_id":"4","last_reported":1707775575,"current_range_meters":20800,"station_id":"ce4bhap2rcd13ifvqek0","pricing_plan_id":"free"},{"bike_id":"29f8e4cb-24ce-4a5b-a6ca-9983793f9c8d","system_id":"levelo_inurba_marseille","lat":43.289468,"lon":5.363719,"is_reserved":false,"is_disabled":false,"rental_uris":{"android":"levelo://app?vid=29f8e4cb-24ce-4a5b-a6ca-9983793f9c8d","ios":"levelo://app?vid=29f8e4cb-24ce-4a5b-a6ca-9983793f9c8d"},"vehicle_type_id":"4","last_reported":1707775575,"current_range_meters":31600,"station_id":"ce4bhc92rcd13ifvqetg","pricing_plan_id":"free"},{"bike_id":"cc37912f-a71a-42dd-9cb2-637a33c2061b","system_id":"levelo_inurba_marseille","lat":43.289184,"lon":5.366408,"is_reserved":false,"is_disabled":false,"rental_uris":{"android":"levelo://app?vid=cc37912f-a71a-42dd-9cb2-637a33c2061b","ios":"levelo://app?vid=cc37912f-a71a-42dd-9cb2-637a33c2061b"},"vehicle_type_id":"4","last_reported":1707775575,"current_range_meters":5200,"station_id":"ce4bhap2rcd13ifvqek0","pricing_plan_id":"free"},{"bike_id":"fb15ef86-0bf2-4a54-9180-5ccb5a22e557","system_id":"levelo_inurba_marseille","lat":43.289184,"lon":5.366408,"is_reserved":false,"is_disabled":false,"rental_uris":{"android":"levelo://app?vid=fb15ef86-0bf2-4a54-9180-5ccb5a22e557","ios":"levelo://app?vid=fb15ef86-0bf2-4a54-9180-5ccb5a22e557"},"vehicle_type_id":"4","last_reported":1707775575,"current_range_meters":18400,"station_id":"ce4bhap2rcd13ifvqek0","pricing_plan_id":"free"},{"bike_id":"d1049bdf-0ea5-41aa-9cc7-37bc0a6be411","system_id":"levelo_inurba_marseille","lat":43.289184,"lon":5.366408,"is_reserved":false,"is_disabled":false,"rental_uris":{"android":"levelo://app?vid=d1049bdf-0ea5-41aa-9cc7-37bc0a6be411","ios":"levelo://app?vid=d1049bdf-0ea5-41aa-9cc7-37bc0a6be411"},"vehicle_type_id":"4","last_reported":1707775575,"current_range_meters":23600,"station_id":"ce4bhap2rcd13ifvqek0","pricing_plan_id":"free"},{"bike_id":"4281c261-f185-4ac1-9c4f-f76d74966a03","system_id":"levelo_inurba_marseille","lat":43.289468,"lon":5.363719,"is_reserved":false,"is_disabled":false,"rental_uris":{"android":"levelo://app?vid=4281c261-f185-4ac1-9c4f-f76d74966a03","ios":"levelo://app?vid=4281c261-f185-4ac1-9c4f-f76d74966a03"},"vehicle_type_id":"4","last_reported":1707775575,"current_range_meters":17200,"station_id":"ce4bhc92rcd13ifvqetg","pricing_plan_id":"free"},{"bike_id":"02a5acd7-5948-443d-8939-4531069fd7c9","system_id":"levelo_inurba_marseille","lat":43.289468,"lon":5.363719,"is_reserved":false,"is_disabled":false,"rental_uris":{"android":"levelo://app?vid=02a5acd7-5948-443d-8939-4531069fd7c9","ios":"levelo://app?vid=02a5acd7-5948-443d-8939-4531069fd7c9"},"vehicle_type_id":"4","last_reported":1707775575,"current_range_meters":31600,"station_id":"ce4bhc92rcd13ifvqetg","pricing_plan_id":"free"},{"bike_id":"d6817cab-ffc3-4741-819c-221b8bf35a31","system_id":"levelo_inurba_marseille","lat":43.289184,"lon":5.366408,"is_reserved":false,"is_disabled":false,"rental_uris":{"android":"levelo://app?vid=d6817cab-ffc3-4741-819c-221b8bf35a31","ios":"levelo://app?vid=d6817cab-ffc3-4741-819c-221b8bf35a31"},"vehicle_type_id":"4","last_reported":1707775575,"current_range_meters":31600,"station_id":"ce4bhap2rcd13ifvqek0","pricing_plan_id":"free"},{"bike_id":"29450a0e-4e8c-4ae8-93e8-0f29d5edcab6","system_id":"levelo_inurba_marseille","lat":43.289184,"lon":5.366408,"is_reserved":false,"is_disabled":false,"rental_uris":{"android":"levelo://app?vid=29450a0e-4e8c-4ae8-93e8-0f29d5edcab6","ios":"levelo://app?vid=29450a0e-4e8c-4ae8-93e8-0f29d5edcab6"},"vehicle_type_id":"4","last_reported":1707775575,"current_range_meters":31200,"station_id":"ce4bhap2rcd13ifvqek0","pricing_plan_id":"free"},{"bike_id":"01410688-ed0f-4e55-bc98-d08cad0c2aff","system_id":"levelo_inurba_marseille","lat":43.28939,"lon":5.36392,"is_reserved":false,"is_disabled":false,"rental_uris":{"android":"levelo://app?vid=01410688-ed0f-4e55-bc98-d08cad0c2aff","ios":"levelo://app?vid=01410688-ed0f-4e55-bc98-d08cad0c2aff"},"vehicle_type_id":"4","last_reported":1707775575,"current_range_meters":0,"station_id":"ce4bhc92rcd13ifvqetg","pricing_plan_id":"free"},{"bike_id":"d9141e37-80d0-43a9-ae48-5508d8b23ecb","system_id":"levelo_inurba_marseille","lat":43.292644,"lon":5.384257,"is_reserved":false,"is_disabled":false,"rental_uris":{"android":"levelo://app?vid=d9141e37-80d0-43a9-ae48-5508d8b23ecb","ios":"levelo://app?vid=d9141e37-80d0-43a9-ae48-5508d8b23ecb"},"vehicle_type_id":"4","last_reported":1707775575,"current_range_meters":13200,"station_id":"ce4bh692rcd13ifvqea0","pricing_plan_id":"free"},{"bike_id":"e1943b36-f0cf-47b4-be44-0883a2491163","system_id":"levelo_inurba_marseille","lat":43.292644,"lon":5.384257,"is_reserved":false,"is_disabled":false,"rental_uris":{"android":"levelo://app?vid=e1943b36-f0cf-47b4-be44-0883a2491163","ios":"levelo://app?vid=e1943b36-f0cf-47b4-be44-0883a2491163"},"vehicle_type_id":"4","last_reported":1707775575,"current_range_meters":18800,"station_id":"ce4bh692rcd13ifvqea0","pricing_plan_id":"free"},{"bike_id":"63f95ef1-b738-493d-b34e-ca5e446284bf","system_id":"levelo_inurba_marseille","lat":43.292642,"lon":5.384254,"is_reserved":false,"is_disabled":false,"rental_uris":{"android":"levelo://app?vid=63f95ef1-b738-493d-b34e-ca5e446284bf","ios":"levelo://app?vid=63f95ef1-b738-493d-b34e-ca5e446284bf"},"vehicle_type_id":"4","last_reported":1707775575,"current_range_meters":6800,"station_id":"ce4bh692rcd13ifvqea0","pricing_plan_id":"free"},{"bike_id":"890b5a07-da03-49d9-abdc-7de284c8997d","system_id":"levelo_inurba_marseille","lat":43.30429,"lon":5.39756,"is_reserved":false,"is_disabled":false,"rental_uris":{"android":"levelo://app?vid=890b5a07-da03-49d9-abdc-7de284c8997d","ios":"levelo://app?vid=890b5a07-da03-49d9-abdc-7de284c8997d"},"vehicle_type_id":"4","last_reported":1707775575,"current_range_meters":31200,"station_id":"ce4bh092rcd13ifvqd20","pricing_plan_id":"free"},{"bike_id":"bd23dff2-941d-4da0-8930-3edf00bc672d","system_id":"levelo_inurba_marseille","lat":43.3042,"lon":5.39752,"is_reserved":false,"is_disabled":false,"rental_uris":{"android":"levelo://app?vid=bd23dff2-941d-4da0-8930-3edf00bc672d","ios":"levelo://app?vid=bd23dff2-941d-4da0-8930-3edf00bc672d"},"vehicle_type_id":"4","last_reported":1707775575,"current_range_meters":23600,"station_id":"ce4bh092rcd13ifvqd20","pricing_plan_id":"free"},{"bike_id":"3439cc38-084c-4bff-815b-377c5d4fdfe2","system_id":"levelo_inurba_marseille","lat":43.29007,"lon":5.35613,"is_reserved":false,"is_disabled":false,"rental_uris":{"android":"levelo://app?vid=3439cc38-084c-4bff-815b-377c5d4fdfe2","ios":"levelo://app?vid=3439cc38-084c-4bff-815b-377c5d4fdfe2"},"vehicle_type_id":"4","last_reported":1707775575,"current_range_meters":14800,"station_id":"ce4bhb92rcd13ifvqen0","pricing_plan_id":"free"},{"bike_id":"d207d1d9-e26e-430e-8278-f7f6fc1744d4","system_id":"levelo_inurba_marseille","lat":43.290103,"lon":5.356114,"is_reserved":false,"is_disabled":false,"rental_uris":{"android":"levelo://app?vid=d207d1d9-e26e-430e-8278-f7f6fc1744d4","ios":"levelo://app?vid=d207d1d9-e26e-430e-8278-f7f6fc1744d4"},"vehicle_type_id":"4","last_reported":1707775575,"current_range_meters":21600,"station_id":"ce4bhb92rcd13ifvqen0","pricing_plan_id":"free"},{"bike_id":"d08fe59a-be9d-445c-adc1-57661a365024","system_id":"levelo_inurba_marseille","lat":43.29007,"lon":5.35611,"is_reserved":false,"is_disabled":false,"rental_uris":{"android":"levelo://app?vid=d08fe59a-be9d-445c-adc1-57661a365024","ios":"levelo://app?vid=d08fe59a-be9d-445c-adc1-57661a365024"},"vehicle_type_id":"4","last_reported":1707775575,"current_range_meters":0,"station_id":"ce4bhb92rcd13ifvqen0","pricing_plan_id":"free"},{"bike_id":"e9884606-594a-4f0f-b922-812982ff6ea2","system_id":"levelo_inurba_marseille","lat":43.29004,"lon":5.35608,"is_reserved":false,"is_disabled":false,"rental_uris":{"android":"levelo://app?vid=e9884606-594a-4f0f-b922-812982ff6ea2","ios":"levelo://app?vid=e9884606-594a-4f0f-b922-812982ff6ea2"},"vehicle_type_id":"4","last_reported":1707775575,"current_range_meters":19200,"station_id":"ce4bhb92rcd13ifvqen0","pricing_plan_id":"free"},{"bike_id":"562b027d-ac07-4cd3-bda8-658dd76d04b1","system_id":"levelo_inurba_marseille","lat":43.29001,"lon":5.3561,"is_reserved":false,"is_disabled":false,"rental_uris":{"android":"levelo://app?vid=562b027d-ac07-4cd3-bda8-658dd76d04b1","ios":"levelo://app?vid=562b027d-ac07-4cd3-bda8-658dd76d04b1"},"vehicle_type_id":"4","last_reported":1707775575,"current_range_meters":24400,"station_id":"ce4bhb92rcd13ifvqen0","pricing_plan_id":"free"},{"bike_id":"8d0d8109-8587-4d64-b301-27a4ac1a36fd","system_id":"levelo_inurba_marseille","lat":43.290995,"lon":5.381361,"is_reserved":false,"is_disabled":false,"rental_uris":{"android":"levelo://app?vid=8d0d8109-8587-4d64-b301-27a4ac1a36fd","ios":"levelo://app?vid=8d0d8109-8587-4d64-b301-27a4ac1a36fd"},"vehicle_type_id":"4","last_reported":1707775575,"current_range_meters":10400,"station_id":"ce4bh512rcd13ifvqe2g","pricing_plan_id":"free"},{"bike_id":"525da82c-7939-49d1-a571-cb80f3929375","system_id":"levelo_inurba_marseille","lat":43.29098,"lon":5.38144,"is_reserved":false,"is_disabled":false,"rental_uris":{"android":"levelo://app?vid=525da82c-7939-49d1-a571-cb80f3929375","ios":"levelo://app?vid=525da82c-7939-49d1-a571-cb80f3929375"},"vehicle_type_id":"4","last_reported":1707775575,"current_range_meters":10400,"station_id":"ce4bh512rcd13ifvqe2g","pricing_plan_id":"free"},{"bike_id":"3359438c-6b63-421a-bdad-cfa1ae27e255","system_id":"levelo_inurba_marseille","lat":43.290995,"lon":5.381361,"is_reserved":false,"is_disabled":false,"rental_uris":{"android":"levelo://app?vid=3359438c-6b63-421a-bdad-cfa1ae27e255","ios":"levelo://app?vid=3359438c-6b63-421a-bdad-cfa1ae27e255"},"vehicle_type_id":"4","last_reported":1707775575,"current_range_meters":31200,"station_id":"ce4bh512rcd13ifvqe2g","pricing_plan_id":"free"},{"bike_id":"837fcf8d-4652-400e-8717-080ad673a8f4","system_id":"levelo_inurba_marseille","lat":43.29792,"lon":5.39337,"is_reserved":false,"is_disabled":false,"rental_uris":{"android":"levelo://app?vid=837fcf8d-4652-400e-8717-080ad673a8f4","ios":"levelo://app?vid=837fcf8d-4652-400e-8717-080ad673a8f4"},"vehicle_type_id":"4","last_reported":1707775575,"current_range_meters":11600,"station_id":"chh1huq6cuj3fo74tm60","pricing_plan_id":"free"},{"bike_id":"dddc4951-19b4-475e-a76e-d4e6f15fbacd","system_id":"levelo_inurba_marseille","lat":43.297815,"lon":5.393548,"is_reserved":false,"is_disabled":false,"rental_uris":{"android":"levelo://app?vid=dddc4951-19b4-475e-a76e-d4e6f15fbacd","ios":"levelo://app?vid=dddc4951-19b4-475e-a76e-d4e6f15fbacd"},"vehicle_type_id":"4","last_reported":1707775575,"current_range_meters":26400,"station_id":"chh1huq6cuj3fo74tm60","pricing_plan_id":"free"},{"bike_id":"c6e01e7b-c487-4808-9462-15bec39a74d2","system_id":"levelo_inurba_marseille","lat":43.297815,"lon":5.393548,"is_reserved":false,"is_disabled":false,"rental_uris":{"android":"levelo://app?vid=c6e01e7b-c487-4808-9462-15bec39a74d2","ios":"levelo://app?vid=c6e01e7b-c487-4808-9462-15bec39a74d2"},"vehicle_type_id":"4","last_reported":1707775575,"current_range_meters":29200,"station_id":"chh1huq6cuj3fo74tm60","pricing_plan_id":"free"},{"bike_id":"bae50f70-1df2-421b-a550-fc4c983f91af","system_id":"levelo_inurba_marseille","lat":43.295169,"lon":5.390426,"is_reserved":false,"is_disabled":false,"rental_uris":{"android":"levelo://app?vid=bae50f70-1df2-421b-a550-fc4c983f91af","ios":"levelo://app?vid=bae50f70-1df2-421b-a550-fc4c983f91af"},"vehicle_type_id":"4","last_reported":1707775575,"current_range_meters":25600,"station_id":"ce4bh3p2rcd13ifvqdp0","pricing_plan_id":"free"},{"bike_id":"eae0c2a9-9f19-43a2-853a-b235b4cef559","system_id":"levelo_inurba_marseille","lat":43.297815,"lon":5.393548,"is_reserved":false,"is_disabled":false,"rental_uris":{"android":"levelo://app?vid=eae0c2a9-9f19-43a2-853a-b235b4cef559","ios":"levelo://app?vid=eae0c2a9-9f19-43a2-853a-b235b4cef559"},"vehicle_type_id":"4","last_reported":1707775575,"current_range_meters":0,"station_id":"chh1huq6cuj3fo74tm60","pricing_plan_id":"free"},{"bike_id":"92051d26-43c7-43ed-b58b-9c7005714533","system_id":"levelo_inurba_marseille","lat":43.330213,"lon":5.390333,"is_reserved":false,"is_disabled":false,"rental_uris":{"android":"levelo://app?vid=92051d26-43c7-43ed-b58b-9c7005714533","ios":"levelo://app?vid=92051d26-43c7-43ed-b58b-9c7005714533"},"vehicle_type_id":"4","last_reported":1707775575,"current_range_meters":11200,"station_id":"ce4bhr92rcd13ifvqhrg","pricing_plan_id":"free"},{"bike_id":"a84edf36-97f8-4239-bcaf-592dbe9a0898","system_id":"levelo_inurba_marseille","lat":43.295427,"lon":5.39057,"is_reserved":false,"is_disabled":false,"rental_uris":{"android":"levelo://app?vid=a84edf36-97f8-4239-bcaf-592dbe9a0898","ios":"levelo://app?vid=a84edf36-97f8-4239-bcaf-592dbe9a0898"},"vehicle_type_id":"4","last_reported":1707775575,"current_range_meters":9600,"station_id":"ce4bh3p2rcd13ifvqdp0","pricing_plan_id":"free"},{"bike_id":"5808e810-d387-4fbf-9289-14ca727d9b15","system_id":"levelo_inurba_marseille","lat":43.33024,"lon":5.39032,"is_reserved":false,"is_disabled":false,"rental_uris":{"android":"levelo://app?vid=5808e810-d387-4fbf-9289-14ca727d9b15","ios":"levelo://app?vid=5808e810-d387-4fbf-9289-14ca727d9b15"},"vehicle_type_id":"4","last_reported":1707775575,"current_range_meters":5200,"station_id":"ce4bhr92rcd13ifvqhrg","pricing_plan_id":"free"},{"bike_id":"6143b246-3fa0-4c50-967f-81b19f2106fa","system_id":"levelo_inurba_marseille","lat":43.330442,"lon":5.389148,"is_reserved":false,"is_disabled":false,"rental_uris":{"android":"levelo://app?vid=6143b246-3fa0-4c50-967f-81b19f2106fa","ios":"levelo://app?vid=6143b246-3fa0-4c50-967f-81b19f2106fa"},"vehicle_type_id":"4","last_reported":1707775575,"current_range_meters":30000,"station_id":"ce4bhr92rcd13ifvqhrg","pricing_plan_id":"free"},{"bike_id":"885d22c6-50bb-4b62-9e03-bc76c977b16d","system_id":"levelo_inurba_marseille","lat":43.330442,"lon":5.389148,"is_reserved":false,"is_disabled":false,"rental_uris":{"android":"levelo://app?vid=885d22c6-50bb-4b62-9e03-bc76c977b16d","ios":"levelo://app?vid=885d22c6-50bb-4b62-9e03-bc76c977b16d"},"vehicle_type_id":"4","last_reported":1707775575,"current_range_meters":400,"station_id":"ce4bhr92rcd13ifvqhrg","pricing_plan_id":"free"},{"bike_id":"03dfe2c2-0096-449c-bdb8-91c0e76ad904","system_id":"levelo_inurba_marseille","lat":43.330442,"lon":5.389148,"is_reserved":false,"is_disabled":false,"rental_uris":{"android":"levelo://app?vid=03dfe2c2-0096-449c-bdb8-91c0e76ad904","ios":"levelo://app?vid=03dfe2c2-0096-449c-bdb8-91c0e76ad904"},"vehicle_type_id":"4","last_reported":1707775575,"current_range_meters":25200,"station_id":"ce4bhr92rcd13ifvqhrg","pricing_plan_id":"free"},{"bike_id":"84c612fa-d1d7-4abf-9a85-0f2fae371c35","system_id":"levelo_inurba_marseille","lat":43.330442,"lon":5.389148,"is_reserved":false,"is_disabled":false,"rental_uris":{"android":"levelo://app?vid=84c612fa-d1d7-4abf-9a85-0f2fae371c35","ios":"levelo://app?vid=84c612fa-d1d7-4abf-9a85-0f2fae371c35"},"vehicle_type_id":"4","last_reported":1707775575,"current_range_meters":29200,"station_id":"ce4bhr92rcd13ifvqhrg","pricing_plan_id":"free"},{"bike_id":"ba7895df-fdf0-43d4-b40a-e7e64d29137d","system_id":"levelo_inurba_marseille","lat":43.33019,"lon":5.39046,"is_reserved":false,"is_disabled":false,"rental_uris":{"android":"levelo://app?vid=ba7895df-fdf0-43d4-b40a-e7e64d29137d","ios":"levelo://app?vid=ba7895df-fdf0-43d4-b40a-e7e64d29137d"},"vehicle_type_id":"4","last_reported":1707775575,"current_range_meters":18800,"station_id":"ce4bhr92rcd13ifvqhrg","pricing_plan_id":"free"},{"bike_id":"ee1d06f2-edcb-44d3-8e2e-df8be3cfa85f","system_id":"levelo_inurba_marseille","lat":43.330442,"lon":5.389148,"is_reserved":false,"is_disabled":false,"rental_uris":{"android":"levelo://app?vid=ee1d06f2-edcb-44d3-8e2e-df8be3cfa85f","ios":"levelo://app?vid=ee1d06f2-edcb-44d3-8e2e-df8be3cfa85f"},"vehicle_type_id":"4","last_reported":1707775575,"current_range_meters":30000,"station_id":"ce4bhr92rcd13ifvqhrg","pricing_plan_id":"free"},{"bike_id":"fb59313b-33b2-4dd7-864d-5eb20fc48a98","system_id":"levelo_inurba_marseille","lat":43.3302,"lon":5.39045,"is_reserved":false,"is_disabled":false,"rental_uris":{"android":"levelo://app?vid=fb59313b-33b2-4dd7-864d-5eb20fc48a98","ios":"levelo://app?vid=fb59313b-33b2-4dd7-864d-5eb20fc48a98"},"vehicle_type_id":"4","last_reported":1707775575,"current_range_meters":10000,"station_id":"ce4bhr92rcd13ifvqhrg","pricing_plan_id":"free"},{"bike_id":"d5171fad-1df4-4112-aaa0-caee5c2e3783","system_id":"levelo_inurba_marseille","lat":43.330442,"lon":5.389148,"is_reserved":false,"is_disabled":false,"rental_uris":{"android":"levelo://app?vid=d5171fad-1df4-4112-aaa0-caee5c2e3783","ios":"levelo://app?vid=d5171fad-1df4-4112-aaa0-caee5c2e3783"},"vehicle_type_id":"4","last_reported":1707775575,"current_range_meters":10000,"station_id":"ce4bhr92rcd13ifvqhrg","pricing_plan_id":"free"},{"bike_id":"22252934-0b69-4c38-8c74-cff61eb3be93","system_id":"levelo_inurba_marseille","lat":43.330442,"lon":5.389148,"is_reserved":false,"is_disabled":false,"rental_uris":{"android":"levelo://app?vid=22252934-0b69-4c38-8c74-cff61eb3be93","ios":"levelo://app?vid=22252934-0b69-4c38-8c74-cff61eb3be93"},"vehicle_type_id":"4","last_reported":1707775575,"current_range_meters":17600,"station_id":"ce4bhr92rcd13ifvqhrg","pricing_plan_id":"free"},{"bike_id":"89f2ac45-7ea3-442c-a8f4-2c9024b6da95","system_id":"levelo_inurba_marseille","lat":43.33022,"lon":5.39043,"is_reserved":false,"is_disabled":false,"rental_uris":{"android":"levelo://app?vid=89f2ac45-7ea3-442c-a8f4-2c9024b6da95","ios":"levelo://app?vid=89f2ac45-7ea3-442c-a8f4-2c9024b6da95"},"vehicle_type_id":"4","last_reported":1707775575,"current_range_meters":22800,"station_id":"ce4bhr92rcd13ifvqhrg","pricing_plan_id":"free"},{"bike_id":"48576542-91f0-4bfa-9a8b-79195c60b528","system_id":"levelo_inurba_marseille","lat":43.33023,"lon":5.39042,"is_reserved":false,"is_disabled":false,"rental_uris":{"android":"levelo://app?vid=48576542-91f0-4bfa-9a8b-79195c60b528","ios":"levelo://app?vid=48576542-91f0-4bfa-9a8b-79195c60b528"},"vehicle_type_id":"4","last_reported":1707775575,"current_range_meters":19200,"station_id":"ce4bhr92rcd13ifvqhrg","pricing_plan_id":"free"},{"bike_id":"ca21e58c-40c8-4549-92f0-c57d86be085e","system_id":"levelo_inurba_marseille","lat":43.33021,"lon":5.39045,"is_reserved":false,"is_disabled":false,"rental_uris":{"android":"levelo://app?vid=ca21e58c-40c8-4549-92f0-c57d86be085e","ios":"levelo://app?vid=ca21e58c-40c8-4549-92f0-c57d86be085e"},"vehicle_type_id":"4","last_reported":1707775575,"current_range_meters":8000,"station_id":"ce4bhr92rcd13ifvqhrg","pricing_plan_id":"free"},{"bike_id":"05b03205-6aed-4a90-874c-d7aff60d7566","system_id":"levelo_inurba_marseille","lat":43.330442,"lon":5.389148,"is_reserved":false,"is_disabled":false,"rental_uris":{"android":"levelo://app?vid=05b03205-6aed-4a90-874c-d7aff60d7566","ios":"levelo://app?vid=05b03205-6aed-4a90-874c-d7aff60d7566"},"vehicle_type_id":"4","last_reported":1707775575,"current_range_meters":4400,"station_id":"ce4bhr92rcd13ifvqhrg","pricing_plan_id":"free"},{"bike_id":"af602cc9-8fce-4b81-9eea-85339194e55b","system_id":"levelo_inurba_marseille","lat":43.330442,"lon":5.389148,"is_reserved":false,"is_disabled":false,"rental_uris":{"android":"levelo://app?vid=af602cc9-8fce-4b81-9eea-85339194e55b","ios":"levelo://app?vid=af602cc9-8fce-4b81-9eea-85339194e55b"},"vehicle_type_id":"4","last_reported":1707775575,"current_range_meters":16400,"station_id":"ce4bhr92rcd13ifvqhrg","pricing_plan_id":"free"},{"bike_id":"0bb73f05-5a6b-4f46-8db9-cff4df97225c","system_id":"levelo_inurba_marseille","lat":43.330442,"lon":5.389148,"is_reserved":false,"is_disabled":false,"rental_uris":{"android":"levelo://app?vid=0bb73f05-5a6b-4f46-8db9-cff4df97225c","ios":"levelo://app?vid=0bb73f05-5a6b-4f46-8db9-cff4df97225c"},"vehicle_type_id":"4","last_reported":1707775575,"current_range_meters":6400,"station_id":"ce4bhr92rcd13ifvqhrg","pricing_plan_id":"free"},{"bike_id":"b4c77a84-9e62-4a6d-b8d6-bb89dc72d115","system_id":"levelo_inurba_marseille","lat":43.330442,"lon":5.389148,"is_reserved":false,"is_disabled":false,"rental_uris":{"android":"levelo://app?vid=b4c77a84-9e62-4a6d-b8d6-bb89dc72d115","ios":"levelo://app?vid=b4c77a84-9e62-4a6d-b8d6-bb89dc72d115"},"vehicle_type_id":"4","last_reported":1707775575,"current_range_meters":4400,"station_id":"ce4bhr92rcd13ifvqhrg","pricing_plan_id":"free"},{"bike_id":"e92320c6-2076-4aee-8416-475298b6461d","system_id":"levelo_inurba_marseille","lat":43.33024,"lon":5.39046,"is_reserved":false,"is_disabled":false,"rental_uris":{"android":"levelo://app?vid=e92320c6-2076-4aee-8416-475298b6461d","ios":"levelo://app?vid=e92320c6-2076-4aee-8416-475298b6461d"},"vehicle_type_id":"4","last_reported":1707775575,"current_range_meters":11200,"station_id":"ce4bhr92rcd13ifvqhrg","pricing_plan_id":"free"},