{"last_updated":1685034367,"ttl":30,"version":"2.2","data":{"bikes":[{"bike_id":"c7b5046e-42d3-402c-80ca-754012b7a0c1","system_id":"levelo_inurba_marseille","lat":43.31486,"lon":5.37299,"is_reserved":false,"is_disabled":false,"rental_uris":{"android":"levelo://app?vid=c7b5046e-42d3-402c-80ca-754012b7a0c1","ios":"levelo://app?vid=c7b5046e-42d3-402c-80ca-754012b7a0c1"},"vehicle_type_id":"4","last_reported":1685034367,"current_range_meters":26800,"station_id":"ce4bgt12rcd13ifvqcd0","pricing_plan_id":"free"},{"bike_id":"0b81d4eb-2691-44c0-beed-2716b4b0564e","system_id":"levelo_inurba_marseille","lat":43.314811,"lon":5.373104,"is_reserved":false,"is_disabled":false,"rental_uris":{"android":"levelo://app?vid=0b81d4eb-2691-44c0-beed-2716b4b0564e","ios":"levelo://app?vid=0b81d4eb-2691-44c0-beed-2716b4b0564e"},"vehicle_type_id":"4","last_reported":1685034367,"current_range_meters":31200,"station_id":"ce4bgt12rcd13ifvqcd0","pricing_plan_id":"free"},{"bike_id":"619ea46b-ab1b-42e9-9139-01195e468123","system_id":"levelo_inurba_marseille","lat":43.314811,"lon":5.373104,"is_reserved":false,"is_disabled":false,"rental_uris":{"android":"levelo://app?vid=619ea46b-ab1b-42e9-9139-01195e468123","ios":"levelo://app?vid=619ea46b-ab1b-42e9-9139-01195e468123"},"vehicle_type_id":"4","last_reported":1685034367,"current_range_meters":22400,"station_id":"ce4bgt12rcd13ifvqcd0","pricing_plan_id":"free"},{"bike_id":"78aef4c2-45bd-4448-9ccc-db3511432a43","system_id":"levelo_inurba_marseille","lat":43.314811,"lon":5.373103,"is_reserved":false,"is_disabled":false,"rental_uris":{"android":"levelo://app?vid=78aef4c2-45bd-4448-9ccc-db3511432a43","ios":"levelo://app?vid=78aef4c2-45bd-4448-9ccc-db3511432a43"},"vehicle_type_id":"4","last_reported":1685034367,"current_range_meters":9200,"station_id":"ce4bgt12rcd13ifvqcd0","pricing_plan_id":"free"},{"bike_id":"da323ea7-8451-4061-bdbe-9e163b89685c","system_id":"levelo_inurba_marseille","lat":43.314811,"lon":5.373103,"is_reserved":false,"is_disabled":false,"rental_uris":{"android":"levelo://app?vid=da323ea7-8451-4061-bdbe-9e163b89685c","ios":"levelo://app?vid=da323ea7-8451-4061-bdbe-9e163b89685c"},"vehicle_type_id":"4","last_reported":1685034367,"current_range_meters":30800,"station_id":"ce4bgt12rcd13ifvqcd0","pricing_plan_id":"free"},{"bike_id":"58c0ce5e-e179-4a16-9c6d-9ab9b03fc503","system_id":"levelo_inurba_marseille","lat":43.314811,"lon":5.373104,"is_reserved":false,"is_disabled":false,"rental_uris":{"android":"levelo://app?vid=58c0ce5e-e179-4a16-9c6d-9ab9b03fc503","ios":"levelo://app?vid=58c0ce5e-e179-4a16-9c6d-9ab9b03fc503"},"vehicle_type_id":"4","last_reported":1685034367,"current_range_meters":26400,"station_id":"ce4bgt12rcd13ifvqcd0","pricing_plan_id":"free"},{"bike_id":"074b13ef-469b-4c61-be17-6b51b1ebb4f8","system_id":"levelo_inurba_marseille","lat":43.314811,"lon":5.373104,"is_reserved":false,"is_disabled":false,"rental_uris":{"android":"levelo://app?vid=074b13ef-469b-4c61-be17-6b51b1ebb4f8","ios":"levelo://app?vid=074b13ef-469b-4c61-be17-6b51b1ebb4f8"},"vehicle_type_id":"4","last_reported":1685034367,"current_range_meters":11200,"station_id":"ce4bgt12rcd13ifvqcd0","pricing_plan_id":"free"},{"bike_id":"5da3d7dd-44c6-45f6-9958-a741cd24feea","system_id":"levelo_inurba_marseille","lat":43.308614,"lon":5.372098,"is_reserved":false,"is_disabled":false,"rental_uris":{"android":"levelo://app?vid=5da3d7dd-44c6-45f6-9958-a741cd24feea","ios":"levelo://app?vid=5da3d7dd-44c6-45f6-9958-a741cd24feea"},"vehicle_type_id":"4","last_reported":1685034367,"current_range_meters":22800,"station_id":"ce4bguh2rcd13ifvqckg","pricing_plan_id":"free"},{"bike_id":"b4c9ac5c-44d9-46cd-8865-ab182e69e1b2","system_id":"levelo_inurba_marseille","lat":43.308614,"lon":5.372098,"is_reserved":false,"is_disabled":false,"rental_uris":{"android":"levelo://app?vid=b4c9ac5c-44d9-46cd-8865-ab182e69e1b2","ios":"levelo://app?vid=b4c9ac5c-44d9-46cd-8865-ab182e69e1b2"},"vehicle_type_id":"4","last_reported":1685034367,"current_range_meters":23200,"station_id":"ce4bguh2rcd13ifvqckg","pricing_plan_id":"free"},{"bike_id":"5bc751a8-3ceb-4b8a-aff2-7da692ef914b","system_id":"levelo_inurba_marseille","lat":43.30893,"lon":5.37196,"is_reserved":false,"is_disabled":false,"rental_uris":{"android":"levelo://app?vid=5bc751a8-3ceb-4b8a-aff2-7da692ef914b","ios":"levelo://app?vid=5bc751a8-3ceb-4b8a-aff2-7da692ef914b"},"vehicle_type_id":"4","last_reported":1685034367,"current_range_meters":0,"station_id":"","pricing_plan_id":"free"},{"bike_id":"e028fe29-ed03-470a-a012-2e1d1b466965","system_id":"levelo_inurba_marseille","lat":43.308614,"lon":5.372098,"is_reserved":false,"is_disabled":false,"rental_uris":{"android":"levelo://app?vid=e028fe29-ed03-470a-a012-2e1d1b466965","ios":"levelo://app?vid=e028fe29-ed03-470a-a012-2e1d1b466965"},"vehicle_type_id":"4","last_reported":1685034367,"current_range_meters":22800,"station_id":"ce4bguh2rcd13ifvqckg","pricing_plan_id":"free"},{"bike_id":"f10aefae-0daa-4960-b75e-7aefe1b1f132","system_id":"levelo_inurba_marseille","lat":43.311161,"lon":5.37768,"is_reserved":false,"is_disabled":false,"rental_uris":{"android":"levelo://app?vid=f10aefae-0daa-4960-b75e-7aefe1b1f132","ios":"levelo://app?vid=f10aefae-0daa-4960-b75e-7aefe1b1f132"},"vehicle_type_id":"4","last_reported":1685034367,"current_range_meters":8400,"station_id":"ce4bgt92rcd13ifvqcg0","pricing_plan_id":"free"},{"bike_id":"27639f4d-2451-49b9-9715-59791d998392","system_id":"levelo_inurba_marseille","lat":43.31125,"lon":5.37775,"is_reserved":false,"is_disabled":false,"rental_uris":{"android":"levelo://app?vid=27639f4d-2451-49b9-9715-59791d998392","ios":"levelo://app?vid=27639f4d-2451-49b9-9715-59791d998392"},"vehicle_type_id":"4","last_reported":1685034367,"current_range_meters":18400,"station_id":"ce4bgt92rcd13ifvqcg0","pricing_plan_id":"free"},{"bike_id":"16e7282a-4eed-47c3-83b3-d7e0dee6c006","system_id":"levelo_inurba_marseille","lat":43.317075,"lon":5.377367,"is_reserved":false,"is_disabled":false,"rental_uris":{"android":"levelo://app?vid=16e7282a-4eed-47c3-83b3-d7e0dee6c006","ios":"levelo://app?vid=16e7282a-4eed-47c3-83b3-d7e0dee6c006"},"vehicle_type_id":"4","last_reported":1685034367,"current_range_meters":21600,"station_id":"ce4bgth2rcd13ifvqch0","pricing_plan_id":"free"},{"bike_id":"2ab4639f-70ee-4cae-8aea-667b4c6c63d0","system_id":"levelo_inurba_marseille","lat":43.317075,"lon":5.377367,"is_reserved":false,"is_disabled":false,"rental_uris":{"android":"levelo://app?vid=2ab4639f-70ee-4cae-8aea-667b4c6c63d0","ios":"levelo://app?vid=2ab4639f-70ee-4cae-8aea-667b4c6c63d0"},"vehicle_type_id":"4","last_reported":1685034367,"current_range_meters":16800,"station_id":"ce4bgth2rcd13ifvqch0","pricing_plan_id":"free"},{"bike_id":"8d3b898a-41aa-4f28-b1a2-33ce656ae17f","system_id":"levelo_inurba_marseille","lat":43.317075,"lon":5.377367,"is_reserved":false,"is_disabled":false,"rental_uris":{"android":"levelo://app?vid=8d3b898a-41aa-4f28-b1a2-33ce656ae17f","ios":"levelo://app?vid=8d3b898a-41aa-4f28-b1a2-33ce656ae17f"},"vehicle_type_id":"4","last_reported":1685034367,"current_range_meters":23600,"station_id":"ce4bgth2rcd13ifvqch0","pricing_plan_id":"free"},{"bike_id":"b6855b1f-51d1-440e-8236-2a00d5254915","system_id":"levelo_inurba_marseille","lat":43.317075,"lon":5.377367,"is_reserved":false,"is_disabled":false,"rental_uris":{"android":"levelo://app?vid=b6855b1f-51d1-440e-8236-2a00d5254915","ios":"levelo://app?vid=b6855b1f-51d1-440e-8236-2a00d5254915"},"vehicle_type_id":"4","last_reported":1685034367,"current_range_meters":19200,"station_id":"ce4bgth2rcd13ifvqch0","pricing_plan_id":"free"},{"bike_id":"3022569d-6af5-45bd-8997-a0f8c384be8e","system_id":"levelo_inurba_marseille","lat":43.317075,"lon":5.377367,"is_reserved":false,"is_disabled":false,"rental_uris":{"android":"levelo://app?vid=3022569d-6af5-45bd-8997-a0f8c384be8e","ios":"levelo://app?vid=3022569d-6af5-45bd-8997-a0f8c384be8e"},"vehicle_type_id":"4","last_reported":1685034367,"current_range_meters":26800,"station_id":"ce4bgth2rcd13ifvqch0","pricing_plan_id":"free"},{"bike_id":"68553df9-2b4c-4244-a834-2447f191355a","system_id":"levelo_inurba_marseille","lat":43.317075,"lon":5.377367,"is_reserved":false,"is_disabled":false,"rental_uris":{"android":"levelo://app?vid=68553df9-2b4c-4244-a834-2447f191355a","ios":"levelo://app?vid=68553df9-2b4c-4244-a834-2447f191355a"},"vehicle_type_id":"4","last_reported":1685034367,"current_range_meters":6400,"station_id":"ce4bgth2rcd13ifvqch0","pricing_plan_id":"free"},{"bike_id":"1e3654da-4ca8-4941-8c9e-d7ae66415c19","system_id":"levelo_inurba_marseille","lat":43.317075,"lon":5.377367,"is_reserved":false,"is_disabled":false,"rental_uris":{"android":"levelo://app?vid=1e3654da-4ca8-4941-8c9e-d7ae66415c19","ios":"levelo://app?vid=1e3654da-4ca8-4941-8c9e-d7ae66415c19"},"vehicle_type_id":"4","last_reported":1685034367,"current_range_meters":20400,"station_id":"ce4bgth2rcd13ifvqch0","pricing_plan_id":"free"},{"bike_id":"fd38c318-e10c-4ea0-8386-140691495f8d","system_id":"levelo_inurba_marseille","lat":43.31713,"lon":5.37832,"is_reserved":false,"is_disabled":false,"rental_uris":{"android":"levelo://app?vid=fd38c318-e10c-4ea0-8386-140691495f8d","ios":"levelo://app?vid=fd38c318-e10c-4ea0-8386-140691495f8d"},"vehicle_type_id":"4","last_reported":1685034367,"current_range_meters":28000,"station_id":"","pricing_plan_id":"free"},{"bike_id":"86e2231e-6d5b-4080-baff-4995c5ed07dc","system_id":"levelo_inurba_marseille","lat":43.301939,"lon":5.366286,"is_reserved":false,"is_disabled":false,"rental_uris":{"android":"levelo://app?vid=86e2231e-6d5b-4080-baff-4995c5ed07dc","ios":"levelo://app?vid=86e2231e-6d5b-4080-baff-4995c5ed07dc"},"vehicle_type_id":"4","last_reported":1685034367,"current_range_meters":25600,"station_id":"ce4bgrh2rcd13ifvqc8g","pricing_plan_id":"free"},{"bike_id":"11ccfa47-298a-4aad-a6da-0bd4954f2f76","system_id":"levelo_inurba_marseille","lat":43.30797,"lon":5.38157,"is_reserved":false,"is_disabled":false,"rental_uris":{"android":"levelo://app?vid=11ccfa47-298a-4aad-a6da-0bd4954f2f76","ios":"levelo://app?vid=11ccfa47-298a-4aad-a6da-0bd4954f2f76"},"vehicle_type_id":"4","last_reported":1685034367,"current_range_meters":23200,"station_id":"ce4bgt12rcd13ifvqce0","pricing_plan_id":"free"},{"bike_id":"e5571f58-adb6-49b7-8c86-2d757ae8e1a0","system_id":"levelo_inurba_marseille","lat":43.319935,"lon":5.381699,"is_reserved":false,"is_disabled":false,"rental_uris":{"android":"levelo://app?vid=e5571f58-adb6-49b7-8c86-2d757ae8e1a0","ios":"levelo://app?vid=e5571f58-adb6-49b7-8c86-2d757ae8e1a0"},"vehicle_type_id":"4","last_reported":1685034367,"current_range_meters":22000,"station_id":"ce4bhr12rcd13ifvqhpg","pricing_plan_id":"free"},{"bike_id":"bfdcad51-97fc-4fc5-8b82-c545596782cd","system_id":"levelo_inurba_marseille","lat":43.319935,"lon":5.381699,"is_reserved":false,"is_disabled":false,"rental_uris":{"android":"levelo://app?vid=bfdcad51-97fc-4fc5-8b82-c545596782cd","ios":"levelo://app?vid=bfdcad51-97fc-4fc5-8b82-c545596782cd"},"vehicle_type_id":"4","last_reported":1685034367,"current_range_meters":31200,"station_id":"ce4bhr12rcd13ifvqhpg","pricing_plan_id":"free"},{"bike_id":"530a238a-2fe4-4ada-b174-d32325afbdf2","system_id":"levelo_inurba_marseille","lat":43.319935,"lon":5.381699,"is_reserved":false,"is_disabled":false,"rental_uris":{"android":"levelo://app?vid=530a238a-2fe4-4ada-b174-d32325afbdf2","ios":"levelo://app?vid=530a238a-2fe4-4ada-b174-d32325afbdf2"},"vehicle_type_id":"4","last_reported":1685034367,"current_range_meters":29200,"station_id":"ce4bhr12rcd13ifvqhpg","pricing_plan_id":"free"},{"bike_id":"ec2bf9d8-bdcd-4d00-823b-5e25cb80cc6b","system_id":"levelo_inurba_marseille","lat":43.319935,"lon":5.381699,"is_reserved":false,"is_disabled":false,"rental_uris":{"android":"levelo://app?vid=ec2bf9d8-bdcd-4d00-823b-5e25cb80cc6b","ios":"levelo://app?vid=ec2bf9d8-bdcd-4d00-823b-5e25cb80cc6b"},"vehicle_type_id":"4","last_reported":1685034367,"current_range_meters":31200,"station_id":"ce4bhr12rcd13ifvqhpg","pricing_plan_id":"free"},{"bike_id":"c906fdd5-8c40-4206-a3b9-d22b9704e528","system_id":"levelo_inurba_marseille","lat":43.319935,"lon":5.381699,"is_reserved":false,"is_disabled":false,"rental_uris":{"android":"levelo://app?vid=c906fdd5-8c40-4206-a3b9-d22b9704e528","ios":"levelo://app?vid=c906fdd5-8c40-4206-a3b9-d22b9704e528"},"vehicle_type_id":"4","last_reported":1685034367,"current_range_meters":14000,"station_id":"ce4bhr12rcd13ifvqhpg","pricing_plan_id":"free"},{"bike_id":"ed0af2c9-d311-4056-bf56-2135ca45404c","system_id":"levelo_inurba_marseille","lat":43.319935,"lon":5.381699,"is_reserved":false,"is_disabled":false,"rental_uris":{"android":"levelo://app?vid=ed0af2c9-d311-4056-bf56-2135ca45404c","ios":"levelo://app?vid=ed0af2c9-d311-4056-bf56-2135ca45404c"},"vehicle_type_id":"4","last_reported":1685034367,"current_range_meters":22400,"station_id":"ce4bhr12rcd13ifvqhpg","pricing_plan_id":"free"},{"bike_id":"5ac2fe43-85c7-472b-b3f7-4192c6da01ce","system_id":"levelo_inurba_marseille","lat":43.320076,"lon":5.381696,"is_reserved":false,"is_disabled":false,"rental_uris":{"android":"levelo://app?vid=5ac2fe43-85c7-472b-b3f7-4192c6da01ce","ios":"levelo://app?vid=5ac2fe43-85c7-472b-b3f7-4192c6da01ce"},"vehicle_type_id":"4","last_reported":1685034367,"current_range_meters":20800,"station_id":"","pricing_plan_id":"free"},{"bike_id":"d45a1b7d-f89c-4bcd-b29c-5468e1c6a375","system_id":"levelo_inurba_marseille","lat":43.313571,"lon":5.384829,"is_reserved":false,"is_disabled":false,"rental_uris":{"android":"levelo://app?vid=d45a1b7d-f89c-4bcd-b29c-5468e1c6a375","ios":"levelo://app?vid=d45a1b7d-f89c-4bcd-b29c-5468e1c6a375"},"vehicle_type_id":"4","last_reported":1685034367,"current_range_meters":16800,"station_id":"ce4bgt92rcd13ifvqcf0","pricing_plan_id":"free"},{"bike_id":"5fa403dd-6641-4344-b57d-14f2b48d8a0e","system_id":"levelo_inurba_marseille","lat":43.313571,"lon":5.384829,"is_reserved":false,"is_disabled":false,"rental_uris":{"android":"levelo://app?vid=5fa403dd-6641-4344-b57d-14f2b48d8a0e","ios":"levelo://app?vid=5fa403dd-6641-4344-b57d-14f2b48d8a0e"},"vehicle_type_id":"4","last_reported":1685034367,"current_range_meters":31200,"station_id":"ce4bgt92rcd13ifvqcf0","pricing_plan_id":"free"},{"bike_id":"2bcae5bf-4a8c-4409-8465-fe7b2a623f94","system_id":"levelo_inurba_marseille","lat":43.313571,"lon":5.384829,"is_reserved":false,"is_disabled":false,"rental_uris":{"android":"levelo://app?vid=2bcae5bf-4a8c-4409-8465-fe7b2a623f94","ios":"levelo://app?vid=2bcae5bf-4a8c-4409-8465-fe7b2a623f94"},"vehicle_type_id":"4","last_reported":1685034367,"current_range_meters":31200,"station_id":"ce4bgt92rcd13ifvqcf0","pricing_plan_id":"free"},{"bike_id":"f55e4134-39f4-4986-bf03-aed9ef054d2a","system_id":"levelo_inurba_marseille","lat":43.31367,"lon":5.38494,"is_reserved":false,"is_disabled":false,"rental_uris":{"android":"levelo://app?vid=f55e4134-39f4-4986-bf03-aed9ef054d2a","ios":"levelo://app?vid=f55e4134-39f4-4986-bf03-aed9ef054d2a"},"vehicle_type_id":"4","last_reported":1685034367,"current_range_meters":30400,"station_id":"ce4bgt92rcd13ifvqcf0","pricing_plan_id":"free"},{"bike_id":"13f776fd-0e0c-436e-a670-4eb784225e2e","system_id":"levelo_inurba_marseille","lat":43.313571,"lon":5.384829,"is_reserved":false,"is_disabled":false,"rental_uris":{"android":"levelo://app?vid=13f776fd-0e0c-436e-a670-4eb784225e2e","ios":"levelo://app?vid=13f776fd-0e0c-436e-a670-4eb784225e2e"},"vehicle_type_id":"4","last_reported":1685034367,"current_range_meters":14400,"station_id":"ce4bgt92rcd13ifvqcf0","pricing_plan_id":"free"},{"bike_id":"7ff0cf0c-f9cb-4047-bca4-1219b301fb5d","system_id":"levelo_inurba_marseille","lat":43.313571,"lon":5.384829,"is_reserved":false,"is_disabled":false,"rental_uris":{"android":"levelo://app?vid=7ff0cf0c-f9cb-4047-bca4-1219b301fb5d","ios":"levelo://app?vid=7ff0cf0c-f9cb-4047-bca4-1219b301fb5d"},"vehicle_type_id":"4","last_reported":1685034367,"current_range_meters":31600,"station_id":"ce4bgt92rcd13ifvqcf0","pricing_plan_id":"free"},{"bike_id":"f5a4def4-33af-42aa-b3e9-fdd1c8544708","system_id":"levelo_inurba_marseille","lat":43.313571,"lon":5.384829,"is_reserved":false,"is_disabled":false,"rental_uris":{"android":"levelo://app?vid=f5a4def4-33af-42aa-b3e9-fdd1c8544708","ios":"levelo://app?vid=f5a4def4-33af-42aa-b3e9-fdd1c8544708"},"vehicle_type_id":"4","last_reported":1685034367,"current_range_meters":28400,"station_id":"ce4bgt92rcd13ifvqcf0","pricing_plan_id":"free"},{"bike_id":"d4b0c2b6-4e7a-43aa-b1a1-ee583cc5e17a","system_id":"levelo_inurba_marseille","lat":43.313571,"lon":5.384829,"is_reserved":false,"is_disabled":false,"rental_uris":{"android":"levelo://app?vid=d4b0c2b6-4e7a-43aa-b1a1-ee583cc5e17a","ios":"levelo://app?vid=d4b0c2b6-4e7a-43aa-b1a1-ee583cc5e17a"},"vehicle_type_id":"4","last_reported":1685034367,"current_range_meters":29200,"station_id":"ce4bgt92rcd13ifvqcf0","pricing_plan_id":"free"},{"bike_id":"3822388a-a307-4bb3-bd87-f7cf392cd2bf","system_id":"levelo_inurba_marseille","lat":43.31361,"lon":5.38504,"is_reserved":false,"is_disabled":false,"rental_uris":{"android":"levelo://app?vid=3822388a-a307-4bb3-bd87-f7cf392cd2bf","ios":"levelo://app?vid=3822388a-a307-4bb3-bd87-f7cf392cd2bf"},"vehicle_type_id":"4","last_reported":1685034367,"current_range_meters":22400,"station_id":"ce4bgt92rcd13ifvqcf0","pricing_plan_id":"free"},{"bike_id":"0d6739ca-c2fe-4c7a-a843-4491068a992b","system_id":"levelo_inurba_marseille","lat":43.31362,"lon":5.38508,"is_reserved":false,"is_disabled":false,"rental_uris":{"android":"levelo://app?vid=0d6739ca-c2fe-4c7a-a843-4491068a992b","ios":"levelo://app?vid=0d6739ca-c2fe-4c7a-a843-4491068a992b"},"vehicle_type_id":"4","last_reported":1685034367,"current_range_meters":27600,"station_id":"ce4bgt92rcd13ifvqcf0","pricing_plan_id":"free"},{"bike_id":"919f71b6-9607-4816-88da-299a6f4abe82","system_id":"levelo_inurba_marseille","lat":43.299243,"lon":5.37481,"is_reserved":false,"is_disabled":false,"rental_uris":{"android":"levelo://app?vid=919f71b6-9607-4816-88da-299a6f4abe82","ios":"levelo://app?vid=919f71b6-9607-4816-88da-299a6f4abe82"},"vehicle_type_id":"4","last_reported":1685034367,"current_range_meters":400,"station_id":"ce4bgjh2rcd13ifvqbg0","pricing_plan_id":"free"},{"bike_id":"07d0f5f8-594a-4c99-bd5f-efd86e16327f","system_id":"levelo_inurba_marseille","lat":43.328371,"lon":5.366912,"is_reserved":false,"is_disabled":false,"rental_uris":{"android":"levelo://app?vid=07d0f5f8-594a-4c99-bd5f-efd86e16327f","ios":"levelo://app?vid=07d0f5f8-594a-4c99-bd5f-efd86e16327f"},"vehicle_type_id":"4","last_reported":1685034367,"current_range_meters":11600,"station_id":"ce4bhs92rcd13ifvqi0g","pricing_plan_id":"free"},{"bike_id":"33d64a15-7d9d-4fb0-ae0e-1b1b07ff9aea","system_id":"levelo_inurba_marseille","lat":43.328371,"lon":5.366909,"is_reserved":false,"is_disabled":false,"rental_uris":{"android":"levelo://app?vid=33d64a15-7d9d-4fb0-ae0e-1b1b07ff9aea","ios":"levelo://app?vid=33d64a15-7d9d-4fb0-ae0e-1b1b07ff9aea"},"vehicle_type_id":"4","last_reported":1685034367,"current_range_meters":30400,"station_id":"ce4bhs92rcd13ifvqi0g","pricing_plan_id":"free"},{"bike_id":"c1539b4c-3665-4993-aa7b-de7ff2265a69","system_id":"levelo_inurba_marseille","lat":43.328371,"lon":5.366909,"is_reserved":false,"is_disabled":false,"rental_uris":{"android":"levelo://app?vid=c1539b4c-3665-4993-aa7b-de7ff2265a69","ios":"levelo://app?vid=c1539b4c-3665-4993-aa7b-de7ff2265a69"},"vehicle_type_id":"4","last_reported":1685034367,"current_range_meters":15200,"station_id":"ce4bhs92rcd13ifvqi0g","pricing_plan_id":"free"},{"bike_id":"fad50468-bff6-4eb0-bc39-08e7203bec60","system_id":"levelo_inurba_marseille","lat":43.328371,"lon":5.366912,"is_reserved":false,"is_disabled":false,"rental_uris":{"android":"levelo://app?vid=fad50468-bff6-4eb0-bc39-08e7203bec60","ios":"levelo://app?vid=fad50468-bff6-4eb0-bc39-08e7203bec60"},"vehicle_type_id":"4","last_reported":1685034367,"current_range_meters":17600,"station_id":"ce4bhs92rcd13ifvqi0g","pricing_plan_id":"free"},{"bike_id":"cd2ff10f-681c-4c0d-b23b-ed356d56ba93","system_id":"levelo_inurba_marseille","lat":43.328371,"lon":5.366912,"is_reserved":false,"is_disabled":false,"rental_uris":{"android":"levelo://app?vid=cd2ff10f-681c-4c0d-b23b-ed356d56ba93","ios":"levelo://app?vid=cd2ff10f-681c-4c0d-b23b-ed356d56ba93"},"vehicle_type_id":"4","last_reported":1685034367,"current_range_meters":28000,"station_id":"ce4bhs92rcd13ifvqi0g","pricing_plan_id":"free"},{"bike_id":"1acc9c82-a049-49b2-8802-6e37cdd32a71","system_id":"levelo_inurba_marseille","lat":43.328371,"lon":5.366912,"is_reserved":false,"is_disabled":false,"rental_uris":{"android":"levelo://app?vid=1acc9c82-a049-49b2-8802-6e37cdd32a71","ios":"levelo://app?vid=1acc9c82-a049-49b2-8802-6e37cdd32a71"},"vehicle_type_id":"4","last_reported":1685034367,"current_range_meters":26400,"station_id":"ce4bhs92rcd13ifvqi0g","pricing_plan_id":"free"},{"bike_id":"beb58a24-32df-4292-805e-75c74c187706","system_id":"levelo_inurba_marseille","lat":43.328371,"lon":5.366912,"is_reserved":false,"is_disabled":false,"rental_uris":{"android":"levelo://app?vid=beb58a24-32df-4292-805e-75c74c187706","ios":"levelo://app?vid=beb58a24-32df-4292-805e-75c74c187706"},"vehicle_type_id":"4","last_reported":1685034367,"current_range_meters":30800,"station_id":"ce4bhs92rcd13ifvqi0g","pricing_plan_id":"free"},{"bike_id":"3c11ad08-778f-4008-b97c-48b0f09c9654","system_id":"levelo_inurba_marseille","lat":43.328371,"lon":5.366909,"is_reserved":false,"is_disabled":false,"rental_uris":{"android":"levelo://app?vid=3c11ad08-778f-4008-b97c-48b0f09c9654","ios":"levelo://app?vid=3c11ad08-778f-4008-b97c-48b0f09c9654"},"vehicle_type_id":"4","last_reported":1685034367,"current_range_meters":4800,"station_id":"ce4bhs92rcd13ifvqi0g","pricing_plan_id":"free"},{"bike_id":"4fe812b5-a152-4f6f-a5e4-5b2d482ba70f","system_id":"levelo_inurba_marseille","lat":43.32832,"lon":5.36686,"is_reserved":false,"is_disabled":false,"rental_uris":{"android":"levelo://app?vid=4fe812b5-a152-4f6f-a5e4-5b2d482ba70f","ios":"levelo://app?vid=4fe812b5-a152-4f6f-a5e4-5b2d482ba70f"},"vehicle_type_id":"4","last_reported":1685034367,"current_range_meters":18400,"station_id":"ce4bhs92rcd13ifvqi0g","pricing_plan_id":"free"},{"bike_id":"7187ccfd-8c7a-4cc5-91e7-248a68a678e4","system_id":"levelo_inurba_marseille","lat":43.31686,"lon":5.38957,"is_reserved":false,"is_disabled":false,"rental_uris":{"android":"levelo://app?vid=7187ccfd-8c7a-4cc5-91e7-248a68a678e4","ios":"levelo://app?vid=7187ccfd-8c7a-4cc5-91e7-248a68a678e4"},"vehicle_type_id":"4","last_reported":1685034367,"current_range_meters":800,"station_id":"","pricing_plan_id":"free"},{"bike_id":"fcabca5a-2884-4478-9a81-19994fe86ceb","system_id":"levelo_inurba_marseille","lat":43.31758,"lon":5.39005,"is_reserved":false,"is_disabled":false,"rental_uris":{"android":"levelo://app?vid=fcabca5a-2884-4478-9a81-19994fe86ceb","ios":"levelo://app?vid=fcabca5a-2884-4478-9a81-19994fe86ceb"},"vehicle_type_id":"4","last_reported":1685034367,"current_range_meters":14000,"station_id":"ce4bhqp2rcd13ifvqhng","pricing_plan_id":"free"},{"bike_id":"d76ee61b-5059-4b6a-bdab-72fb0b53aea0","system_id":"levelo_inurba_marseille","lat":43.317557,"lon":5.390173,"is_reserved":false,"is_disabled":false,"rental_uris":{"android":"levelo://app?vid=d76ee61b-5059-4b6a-bdab-72fb0b53aea0","ios":"levelo://app?vid=d76ee61b-5059-4b6a-bdab-72fb0b53aea0"},"vehicle_type_id":"4","last_reported":1685034367,"current_range_meters":28400,"station_id":"ce4bhqp2rcd13ifvqhng","pricing_plan_id":"free"},{"bike_id":"2813de7a-5053-4219-8ae4-5362f9f39205","system_id":"levelo_inurba_marseille","lat":43.317557,"lon":5.390173,"is_reserved":false,"is_disabled":false,"rental_uris":{"android":"levelo://app?vid=2813de7a-5053-4219-8ae4-5362f9f39205","ios":"levelo://app?vid=2813de7a-5053-4219-8ae4-5362f9f39205"},"vehicle_type_id":"4","last_reported":1685034367,"current_range_meters":28400,"station_id":"ce4bhqp2rcd13ifvqhng","pricing_plan_id":"free"},{"bike_id":"6c149cd8-d6d6-4cd4-a31d-df890f77e9e8","system_id":"levelo_inurba_marseille","lat":43.309815,"lon":5.390749,"is_reserved":false,"is_disabled":false,"rental_uris":{"android":"levelo://app?vid=6c149cd8-d6d6-4cd4-a31d-df890f77e9e8","ios":"levelo://app?vid=6c149cd8-d6d6-4cd4-a31d-df890f77e9e8"},"vehicle_type_id":"4","last_reported":1685034367,"current_range_meters":20000,"station_id":"ce4bgup2rcd13ifvqco0","pricing_plan_id":"free"},{"bike_id":"5b32b1e8-c723-476c-af48-33ab3bfd2e02","system_id":"levelo_inurba_marseille","lat":43.31753,"lon":5.39029,"is_reserved":false,"is_disabled":false,"rental_uris":{"android":"levelo://app?vid=5b32b1e8-c723-476c-af48-33ab3bfd2e02","ios":"levelo://app?vid=5b32b1e8-c723-476c-af48-33ab3bfd2e02"},"vehicle_type_id":"4","last_reported":1685034367,"current_range_meters":21600,"station_id":"ce4bhqp2rcd13ifvqhng","pricing_plan_id":"free"},{"bike_id":"3ef3d556-d654-4abf-9cf0-9cfb3d5cd94d","system_id":"levelo_inurba_marseille","lat":43.29798,"lon":5.381,"is_reserved":false,"is_disabled":false,"rental_uris":{"android":"levelo://app?vid=3ef3d556-d654-4abf-9cf0-9cfb3d5cd94d","ios":"levelo://app?vid=3ef3d556-d654-4abf-9cf0-9cfb3d5cd94d"},"vehicle_type_id":"4","last_reported":1685034367,"current_range_meters":2400,"station_id":"ce4bgip2rcd13ifvqbb0","pricing_plan_id":"free"},{"bike_id":"8d44bf0d-7cf6-4212-856c-f4d5fe7b007f","system_id":"levelo_inurba_marseille","lat":43.298037,"lon":5.381066,"is_reserved":false,"is_disabled":false,"rental_uris":{"android":"levelo://app?vid=8d44bf0d-7cf6-4212-856c-f4d5fe7b007f","ios":"levelo://app?vid=8d44bf0d-7cf6-4212-856c-f4d5fe7b007f"},"vehicle_type_id":"4","last_reported":1685034367,"current_range_meters":5600,"station_id":"ce4bgip2rcd13ifvqbb0","pricing_plan_id":"free"},{"bike_id":"ddfaac28-a110-45e3-b16b-6125e6d1a96b","system_id":"levelo_inurba_marseille","lat":43.298037,"lon":5.381066,"is_reserved":false,"is_disabled":false,"rental_uris":{"android":"levelo://app?vid=ddfaac28-a110-45e3-b16b-6125e6d1a96b","ios":"levelo://app?vid=ddfaac28-a110-45e3-b16b-6125e6d1a96b"},"vehicle_type_id":"4","last_reported":1685034367,"current_range_meters":8400,"station_id":"ce4bgip2rcd13ifvqbb0","pricing_plan_id":"free"},{"bike_id":"30fd8350-da37-4e8e-85cf-6e556c4a7d43","system_id":"levelo_inurba_marseille","lat":43.298037,"lon":5.381066,"is_reserved":false,"is_disabled":false,"rental_uris":{"android":"levelo://app?vid=30fd8350-da37-4e8e-85cf-6e556c4a7d43","ios":"levelo://app?vid=30fd8350-da37-4e8e-85cf-6e556c4a7d43"},"vehicle_type_id":"4","last_reported":1685034367,"current_range_meters":22400,"station_id":"ce4bgip2rcd13ifvqbb0","pricing_plan_id":"free"},{"bike_id":"8b02e6ab-3798-41f8-ba26-c51b987516b8","system_id":"levelo_inurba_marseille","lat":43.299724,"lon":5.384848,"is_reserved":false,"is_disabled":false,"rental_uris":{"android":"levelo://app?vid=8b02e6ab-3798-41f8-ba26-c51b987516b8","ios":"levelo://app?vid=8b02e6ab-3798-41f8-ba26-c51b987516b8"},"vehicle_type_id":"4","last_reported":1685034367,"current_range_meters":0,"station_id":"ce4bgj92rcd13ifvqbd0","pricing_plan_id":"free"},{"bike_id":"eb919dee-7924-4349-b9ec-b54f7f96aefd","system_id":"levelo_inurba_marseille","lat":43.32367,"lon":5.388836,"is_reserved":false,"is_disabled":false,"rental_uris":{"android":"levelo://app?vid=eb919dee-7924-4349-b9ec-b54f7f96aefd","ios":"levelo://app?vid=eb919dee-7924-4349-b9ec-b54f7f96aefd"},"vehicle_type_id":"4","last_reported":1685034367,"current_range_meters":23200,"station_id":"ce4bhqp2rcd13ifvqhog","pricing_plan_id":"free"},{"bike_id":"3f245026-7545-4924-a951-14be0bedc89e","system_id":"levelo_inurba_marseille","lat":43.31292,"lon":5.39379,"is_reserved":false,"is_disabled":false,"rental_uris":{"android":"levelo://app?vid=3f245026-7545-4924-a951-14be0bedc89e","ios":"levelo://app?vid=3f245026-7545-4924-a951-14be0bedc89e"},"vehicle_type_id":"4","last_reported":1685034367,"current_range_meters":1200,"station_id":"","pricing_plan_id":"free"},{"bike_id":"cba47361-058f-4f45-a047-516dcc82f5aa","system_id":"levelo_inurba_marseille","lat":43.29601,"lon":5.381084,"is_reserved":false,"is_disabled":false,"rental_uris":{"android":"levelo://app?vid=cba47361-058f-4f45-a047-516dcc82f5aa","ios":"levelo://app?vid=cba47361-058f-4f45-a047-516dcc82f5aa"},"vehicle_type_id":"4","last_reported":1685034367,"current_range_meters":16400,"station_id":"ce4bgl12rcd13ifvqbo0","pricing_plan_id":"free"},{"bike_id":"56d4f84d-e52e-49ad-8b78-607bd27f1a53","system_id":"levelo_inurba_marseille","lat":43.29276,"lon":5.36839,"is_reserved":false,"is_disabled":false,"rental_uris":{"android":"levelo://app?vid=56d4f84d-e52e-49ad-8b78-607bd27f1a53","ios":"levelo://app?vid=56d4f84d-e52e-49ad-8b78-607bd27f1a53"},"vehicle_type_id":"4","last_reported":1685034367,"current_range_meters":400,"station_id":"ce4bhbp2rcd13ifvqesg","pricing_plan_id":"free"},{"bike_id":"a1006568-cfb2-4638-a1f5-cf23d2a60216","system_id":"levelo_inurba_marseille","lat":43.29258,"lon":5.36717,"is_reserved":false,"is_disabled":false,"rental_uris":{"android":"levelo://app?vid=a1006568-cfb2-4638-a1f5-cf23d2a60216","ios":"levelo://app?vid=a1006568-cfb2-4638-a1f5-cf23d2a60216"},"vehicle_type_id":"4","last_reported":1685034367,"current_range_meters":0,"station_id":"ce4bh2h2rcd13ifvqdh0","pricing_plan_id":"free"},{"bike_id":"d0907987-69ed-4238-8670-72d43b1f254c","system_id":"levelo_inurba_marseille","lat":43.30588,"lon":5.39356,"is_reserved":false,"is_disabled":false,"rental_uris":{"android":"levelo://app?vid=d0907987-69ed-4238-8670-72d43b1f254c","ios":"levelo://app?vid=d0907987-69ed-4238-8670-72d43b1f254c"},"vehicle_type_id":"4","last_reported":1685034367,"current_range_meters":28400,"station_id":"ce4bh0p2rcd13ifvqd80","pricing_plan_id":"free"},{"bike_id":"08ef4a60-6423-4600-a32a-6635d579872a","system_id":"levelo_inurba_marseille","lat":43.303002,"lon":5.392142,"is_reserved":false,"is_disabled":false,"rental_uris":{"android":"levelo://app?vid=08ef4a60-6423-4600-a32a-6635d579872a","ios":"levelo://app?vid=08ef4a60-6423-4600-a32a-6635d579872a"},"vehicle_type_id":"4","last_reported":1685034367,"current_range_meters":0,"station_id":"ce4bgkh2rcd13ifvqbk0","pricing_plan_id":"free"},{"bike_id":"2872ff5f-440e-40d6-b5c9-e632ab766bee","system_id":"levelo_inurba_marseille","lat":43.29369,"lon":5.37853,"is_reserved":false,"is_disabled":false,"rental_uris":{"android":"levelo://app?vid=2872ff5f-440e-40d6-b5c9-e632ab766bee","ios":"levelo://app?vid=2872ff5f-440e-40d6-b5c9-e632ab766bee"},"vehicle_type_id":"4","last_reported":1685034367,"current_range_meters":16000,"station_id":"ce4bgjh2rcd13ifvqbf0","pricing_plan_id":"free"},{"bike_id":"c37aab7c-86b6-4aee-b79a-f4d896214d78","system_id":"levelo_inurba_marseille","lat":43.298764,"lon":5.388973,"is_reserved":false,"is_disabled":false,"rental_uris":{"android":"levelo://app?vid=c37aab7c-86b6-4aee-b79a-f4d896214d78","ios":"levelo://app?vid=c37aab7c-86b6-4aee-b79a-f4d896214d78"},"vehicle_type_id":"4","last_reported":1685034367,"current_range_meters":0,"station_id":"ce4bh392rcd13ifvqdl0","pricing_plan_id":"free"},{"bike_id":"78373674-4ccb-42f0-bd38-81ca1d889584","system_id":"levelo_inurba_marseille","lat":43.313129,"lon":5.396757,"is_reserved":false,"is_disabled":false,"rental_uris":{"android":"levelo://app?vid=78373674-4ccb-42f0-bd38-81ca1d889584","ios":"levelo://app?vid=78373674-4ccb-42f0-bd38-81ca1d889584"},"vehicle_type_id":"4","last_reported":1685034367,"current_range_meters":0,"station_id":"ce4bgvp2rcd13ifvqcu0","pricing_plan_id":"free"},{"bike_id":"c9006334-6215-4ddd-ba74-6c0f9230cb37","system_id":"levelo_inurba_marseille","lat":43.291994,"lon":5.357886,"is_reserved":false,"is_disabled":false,"rental_uris":{"android":"levelo://app?vid=c9006334-6215-4ddd-ba74-6c0f9230cb37","ios":"levelo://app?vid=c9006334-6215-4ddd-ba74-6c0f9230cb37"},"vehicle_type_id":"4","last_reported":1685034367,"current_range_meters":10000,"station_id":"ce4bhb12rcd13ifvqel0","pricing_plan_id":"free"},{"bike_id":"d403d187-ba93-4366-aacd-3fa0a5c8c91d","system_id":"levelo_inurba_marseille","lat":43.29199,"lon":5.35808,"is_reserved":false,"is_disabled":false,"rental_uris":{"android":"levelo://app?vid=d403d187-ba93-4366-aacd-3fa0a5c8c91d","ios":"levelo://app?vid=d403d187-ba93-4366-aacd-3fa0a5c8c91d"},"vehicle_type_id":"4","last_reported":1685034367,"current_range_meters":6800,"station_id":"ce4bhb12rcd13ifvqel0","pricing_plan_id":"free"},{"bike_id":"6feebd77-cb49-4b15-b996-841c1d34ad3f","system_id":"levelo_inurba_marseille","lat":43.29198,"lon":5.35798,"is_reserved":false,"is_disabled":false,"rental_uris":{"android":"levelo://app?vid=6feebd77-cb49-4b15-b996-841c1d34ad3f","ios":"levelo://app?vid=6feebd77-cb49-4b15-b996-841c1d34ad3f"},"vehicle_type_id":"4","last_reported":1685034367,"current_range_meters":24000,"station_id":"ce4bhb12rcd13ifvqel0","pricing_plan_id":"free"},{"bike_id":"57664484-835a-468a-be02-139f838f1d1c","system_id":"levelo_inurba_marseille","lat":43.31324,"lon":5.39691,"is_reserved":false,"is_disabled":false,"rental_uris":{"android":"levelo://app?vid=57664484-835a-468a-be02-139f838f1d1c","ios":"levelo://app?vid=57664484-835a-468a-be02-139f838f1d1c"},"vehicle_type_id":"4","last_reported":1685034367,"current_range_meters":16000,"station_id":"ce4bgvp2rcd13ifvqcu0","pricing_plan_id":"free"},{"bike_id":"8344e5c1-f4db-45f1-bcb4-31122ce74860","system_id":"levelo_inurba_marseille","lat":43.31331,"lon":5.39692,"is_reserved":false,"is_disabled":false,"rental_uris":{"android":"levelo://app?vid=8344e5c1-f4db-45f1-bcb4-31122ce74860","ios":"levelo://app?vid=8344e5c1-f4db-45f1-bcb4-31122ce74860"},"vehicle_type_id":"4","last_reported":1685034367,"current_range_meters":26000,"station_id":"ce4bgvp2rcd13ifvqcu0","pricing_plan_id":"free"},{"bike_id":"dde9dbd3-7076-4e5e-aeeb-ab5f4b156427","system_id":"levelo_inurba_marseille","lat":43.29191,"lon":5.35792,"is_reserved":false,"is_disabled":false,"rental_uris":{"android":"levelo://app?vid=dde9dbd3-7076-4e5e-aeeb-ab5f4b156427","ios":"levelo://app?vid=dde9dbd3-7076-4e5e-aeeb-ab5f4b156427"},"vehicle_type_id":"4","last_reported":1685034367,"current_range_meters":28800,"station_id":"ce4bhb12rcd13ifvqel0","pricing_plan_id":"free"},{"bike_id":"e02f95be-d3b8-4492-af7e-5c18369a125e","system_id":"levelo_inurba_marseille","lat":43.31326,"lon":5.39693,"is_reserved":false,"is_disabled":false,"rental_uris":{"android":"levelo://app?vid=e02f95be-d3b8-4492-af7e-5c18369a125e","ios":"levelo://app?vid=e02f95be-d3b8-4492-af7e-5c18369a125e"},"vehicle_type_id":"4","last_reported":1685034367,"current_range_meters":12000,"station_id":"ce4bgvp2rcd13ifvqcu0","pricing_plan_id":"free"},{"bike_id":"2672ac12-4489-4faa-9202-cf9080d4db0b","system_id":"levelo_inurba_marseille","lat":43.31329,"lon":5.39693,"is_reserved":false,"is_disabled":false,"rental_uris":{"android":"levelo://app?vid=2672ac12-4489-4faa-9202-cf9080d4db0b","ios":"levelo://app?vid=2672ac12-4489-4faa-9202-cf9080d4db0b"},"vehicle_type_id":"4","last_reported":1685034367,"current_range_meters":21200,"station_id":"ce4bgvp2rcd13ifvqcu0","pricing_plan_id":"free"},{"bike_id":"6c67f493-e7c3-4081-b9db-bf7a1e826abd","system_id":"levelo_inurba_marseille","lat":43.3133,"lon":5.39693,"is_reserved":false,"is_disabled":false,"rental_uris":{"android":"levelo://app?vid=6c67f493-e7c3-4081-b9db-bf7a1e826abd","ios":"levelo://app?vid=6c67f493-e7c3-4081-b9db-bf7a1e826abd"},"vehicle_type_id":"4","last_reported":1685034367,"current_range_meters":31200,"station_id":"ce4bgvp2rcd13ifvqcu0","pricing_plan_id":"free"},{"bike_id":"c6e6e02c-dc44-4728-9e2c-a48dc35086fd","system_id":"levelo_inurba_marseille","lat":43.31331,"lon":5.39693,"is_reserved":false,"is_disabled":false,"rental_uris":{"android":"levelo://app?vid=c6e6e02c-dc44-4728-9e2c-a48dc35086fd","ios":"levelo://app?vid=c6e6e02c-dc44-4728-9e2c-a48dc35086fd"},"vehicle_type_id":"4","last_reported":1685034367,"current_range_meters":31200,"station_id":"ce4bgvp2rcd13ifvqcu0","pricing_plan_id":"free"},{"bike_id":"c937aa2c-6bb3-4485-9f4a-93f044777dc5","system_id":"levelo_inurba_marseille","lat":43.31329,"lon":5.39694,"is_reserved":false,"is_disabled":false,"rental_uris":{"android":"levelo://app?vid=c937aa2c-6bb3-4485-9f4a-93f044777dc5","ios":"levelo://app?vid=c937aa2c-6bb3-4485-9f4a-93f044777dc5"},"vehicle_type_id":"4","last_reported":1685034367,"current_range_meters":30800,"station_id":"ce4bgvp2rcd13ifvqcu0","pricing_plan_id":"free"},{"bike_id":"ce6dba37-9887-49c1-9106-bf1b39eb4f3e","system_id":"levelo_inurba_marseille","lat":43.3133,"lon":5.39695,"is_reserved":false,"is_disabled":false,"rental_uris":{"android":"levelo://app?vid=ce6dba37-9887-49c1-9106-bf1b39eb4f3e","ios":"levelo://app?vid=ce6dba37-9887-49c1-9106-bf1b39eb4f3e"},"vehicle_type_id":"4","last_reported":1685034367,"current_range_meters":31200,"station_id":"ce4bgvp2rcd13ifvqcu0","pricing_plan_id":"free"},{"bike_id":"c7c7f819-f196-43ce-9356-6bf838b2caff","system_id":"levelo_inurba_marseille","lat":43.31331,"lon":5.39696,"is_reserved":false,"is_disabled":false,"rental_uris":{"android":"levelo://app?vid=c7c7f819-f196-43ce-9356-6bf838b2caff","ios":"levelo://app?vid=c7c7f819-f196-43ce-9356-6bf838b2caff"},"vehicle_type_id":"4","last_reported":1685034367,"current_range_meters":20800,"station_id":"ce4bgvp2rcd13ifvqcu0","pricing_plan_id":"free"},{"bike_id":"42532ece-1c94-4b86-85cb-a0830d342fe9","system_id":"levelo_inurba_marseille","lat":43.309038,"lon":5.396546,"is_reserved":false,"is_disabled":false,"rental_uris":{"android":"levelo://app?vid=42532ece-1c94-4b86-85cb-a0830d342fe9","ios":"levelo://app?vid=42532ece-1c94-4b86-85cb-a0830d342fe9"},"vehicle_type_id":"4","last_reported":1685034367,"current_range_meters":21600,"station_id":"ce4bh012rcd13ifvqcv0","pricing_plan_id":"free"},{"bike_id":"1811c22a-0d37-4206-a3b7-e67cfdcd0912","system_id":"levelo_inurba_marseille","lat":43.31333,"lon":5.39701,"is_reserved":false,"is_disabled":false,"rental_uris":{"android":"levelo://app?vid=1811c22a-0d37-4206-a3b7-e67cfdcd0912","ios":"levelo://app?vid=1811c22a-0d37-4206-a3b7-e67cfdcd0912"},"vehicle_type_id":"4","last_reported":1685034367,"current_range_meters":31200,"station_id":"ce4bgvp2rcd13ifvqcu0","pricing_plan_id":"free"},{"bike_id":"15298466-8900-4fff-a01b-0290d28b6826","system_id":"levelo_inurba_marseille","lat":43.29529,"lon":5.385581,"is_reserved":false,"is_disabled":false,"rental_uris":{"android":"levelo://app?vid=15298466-8900-4fff-a01b-0290d28b6826","ios":"levelo://app?vid=15298466-8900-4fff-a01b-0290d28b6826"},"vehicle_type_id":"4","last_reported":1685034367,"current_range_meters":15600,"station_id":"ce4bgih2rcd13ifvqba0","pricing_plan_id":"free"},{"bike_id":"1f478020-accf-4030-8d9b-7576fe3eb4db","system_id":"levelo_inurba_marseille","lat":43.29529,"lon":5.385581,"is_reserved":false,"is_disabled":false,"rental_uris":{"android":"levelo://app?vid=1f478020-accf-4030-8d9b-7576fe3eb4db","ios":"levelo://app?vid=1f478020-accf-4030-8d9b-7576fe3eb4db"},"vehicle_type_id":"4","last_reported":1685034367,"current_range_meters":18800,"station_id":"ce4bgih2rcd13ifvqba0","pricing_plan_id":"free"},{"bike_id":"b2c8e966-8c3e-4d5a-b775-e0ef12eea5c7","system_id":"levelo_inurba_marseille","lat":43.29529,"lon":5.385581,"is_reserved":false,"is_disabled":false,"rental_uris":{"android":"levelo://app?vid=b2c8e966-8c3e-4d5a-b775-e0ef12eea5c7","ios":"levelo://app?vid=b2c8e966-8c3e-4d5a-b775-e0ef12eea5c7"},"vehicle_type_id":"4","last_reported":1685034367,"current_range_meters":3200,"station_id":"ce4bgih2rcd13ifvqba0","pricing_plan_id":"free"},{"bike_id":"88eb193f-14ee-4c7a-b037-b1a7275067d7","system_id":"levelo_inurba_marseille","lat":43.29529,"lon":5.385581,"is_reserved":false,"is_disabled":false,"rental_uris":{"android":"levelo://app?vid=88eb193f-14ee-4c7a-b037-b1a7275067d7","ios":"levelo://app?vid=88eb193f-14ee-4c7a-b037-b1a7275067d7"},"vehicle_type_id":"4","last_reported":1685034367,"current_range_meters":23200,"station_id":"ce4bgih2rcd13ifvqba0","pricing_plan_id":"free"},{"bike_id":"e935ce87-3d93-4e86-ac35-b56709485b7f","system_id":"levelo_inurba_marseille","lat":43.29529,"lon":5.385581,"is_reserved":false,"is_disabled":false,"rental_uris":{"android":"levelo://app?vid=e935ce87-3d93-4e86-ac35-b56709485b7f","ios":"levelo://app?vid=e935ce87-3d93-4e86-ac35-b56709485b7f"},"vehicle_type_id":"4","last_reported":1685034367,"current_range_meters":19200,"station_id":"ce4bgih2rcd13ifvqba0","pricing_plan_id":"free"},{"bike_id":"f72a6317-45e0-488d-aab8-cc785bc3047c","system_id":"levelo_inurba_marseille","lat":43.29529,"lon":5.385581,"is_reserved":false,"is_disabled":false,"rental_uris":{"android":"levelo://app?vid=f72a6317-45e0-488d-aab8-cc785bc3047c","ios":"levelo://app?vid=f72a6317-45e0-488d-aab8-cc785bc3047c"},"vehicle_type_id":"4","last_reported":1685034367,"current_range_meters":25200,"station_id":"ce4bgih2rcd13ifvqba0","pricing_plan_id":"free"},{"bike_id":"4f4ca75d-07df-44a1-80b0-006c914b2345","system_id":"levelo_inurba_marseille","lat":43.290624,"lon":5.359245,"is_reserved":false,"is_disabled":false,"rental_uris":{"android":"levelo://app?vid=4f4ca75d-07df-44a1-80b0-006c914b2345","ios":"levelo://app?vid=4f4ca75d-07df-44a1-80b0-006c914b2345"},"vehicle_type_id":"4","last_reported":1685034367,"current_range_meters":1200,"station_id":"ce4bha92rcd13ifvqeg0","pricing_plan_id":"free"},{"bike_id":"a721f63c-1993-4fa3-9163-ba3fad2b4d2d","system_id":"levelo_inurba_marseille","lat":43.254947,"lon":5.376454,"is_reserved":false,"is_disabled":false,"rental_uris":{"android":"levelo://app?vid=a721f63c-1993-4fa3-9163-ba3fad2b4d2d","ios":"levelo://app?vid=a721f63c-1993-4fa3-9163-ba3fad2b4d2d"},"vehicle_type_id":"4","last_reported":1685034367,"current_range_meters":13600,"station_id":"ce4bhh12rcd13ifvqff0","pricing_plan_id":"free"},{"bike_id":"9f6364d8-19f9-4aaf-aef4-8da7486be773","system_id":"levelo_inurba_marseille","lat":43.290631,"lon":5.359244,"is_reserved":false,"is_disabled":false,"rental_uris":{"android":"levelo://app?vid=9f6364d8-19f9-4aaf-aef4-8da7486be773","ios":"levelo://app?vid=9f6364d8-19f9-4aaf-aef4-8da7486be773"},"vehicle_type_id":"4","last_reported":1685034367,"current_range_meters":10800,"station_id":"ce4bha92rcd13ifvqeg0","pricing_plan_id":"free"},{"bike_id":"1454f4f1-72b9-4796-82ef-4b2a1e05f27f","system_id":"levelo_inurba_marseille","lat":43.290631,"lon":5.359244,"is_reserved":false,"is_disabled":false,"rental_uris":{"android":"levelo://app?vid=1454f4f1-72b9-4796-82ef-4b2a1e05f27f","ios":"levelo://app?vid=1454f4f1-72b9-4796-82ef-4b2a1e05f27f"},"vehicle_type_id":"4","last_reported":1685034367,"current_range_meters":0,"station_id":"ce4bha92rcd13ifvqeg0","pricing_plan_id":"free"},{"bike_id":"46094afd-0c11-450e-9b85-5f7881e02939","system_id":"levelo_inurba_marseille","lat":43.290624,"lon":5.359245,"is_reserved":false,"is_disabled":false,"rental_uris":{"android":"levelo://app?vid=46094afd-0c11-450e-9b85-5f7881e02939","ios":"levelo://app?vid=46094afd-0c11-450e-9b85-5f7881e02939"},"vehicle_type_id":"4","last_reported":1685034367,"current_range_meters":4000,"station_id":"ce4bha92rcd13ifvqeg0","pricing_plan_id":"free"},{"bike_id":"41b55e76-239b-4672-9b77-cd75043533e9","system_id":"levelo_inurba_marseille","lat":43.294153,"lon":5.386305,"is_reserved":false,"is_disabled":false,"rental_uris":{"android":"levelo://app?vid=41b55e76-239b-4672-9b77-cd75043533e9","ios":"levelo://app?vid=41b55e76-239b-4672-9b77-cd75043533e9"},"vehicle_type_id":"4","last_reported":1685034367,"current_range_meters":19200,"station_id":"ce4bh2h2rcd13ifvqdh0","pricing_plan_id":"free"},{"bike_id":"bd756035-c4b2-41d2-949c-1b4d861412fe","system_id":"levelo_inurba_marseille","lat":43.294162,"lon":5.386292,"is_reserved":false,"is_disabled":false,"rental_uris":{"android":"levelo://app?vid=bd756035-c4b2-41d2-949c-1b4d861412fe","ios":"levelo://app?vid=bd756035-c4b2-41d2-949c-1b4d861412fe"},"vehicle_type_id":"4","last_reported":1685034367,"current_range_meters":12000,"station_id":"ce4bh2h2rcd13ifvqdh0","pricing_plan_id":"free"},{"bike_id":"3bc46c11-3781-4da9-8c87-07e7afb12cd6","system_id":"levelo_inurba_marseille","lat":43.294162,"lon":5.386292,"is_reserved":false,"is_disabled":false,"rental_uris":{"android":"levelo://app?vid=3bc46c11-3781-4da9-8c87-07e7afb12cd6","ios":"levelo://app?vid=3bc46c11-3781-4da9-8c87-07e7afb12cd6"},"vehicle_type_id":"4","last_reported":1685034367,"current_range_meters":6400,"station_id":"ce4bh2h2rcd13ifvqdh0","pricing_plan_id":"free"},{"bike_id":"55ca5ce2-90d7-428a-ac18-7d3dc4434404","system_id":"levelo_inurba_marseille","lat":43.294162,"lon":5.386292,"is_reserved":false,"is_disabled":false,"rental_uris":{"android":"levelo://app?vid=55ca5ce2-90d7-428a-ac18-7d3dc4434404","ios":"levelo://app?vid=55ca5ce2-90d7-428a-ac18-7d3dc4434404"},"vehicle_type_id":"4","last_reported":1685034367,"current_range_meters":14800,"station_id":"ce4bh2h2rcd13ifvqdh0","pricing_plan_id":"free"},{"bike_id":"0a49fca9-07c5-492d-852a-5515ea00fae1","system_id":"levelo_inurba_marseille","lat":43.29416,"lon":5.38627,"is_reserved":false,"is_disabled":false,"rental_uris":{"android":"levelo://app?vid=0a49fca9-07c5-492d-852a-5515ea00fae1","ios":"levelo://app?vid=0a49fca9-07c5-492d-852a-5515ea00fae1"},"vehicle_type_id":"4","last_reported":1685034367,"current_range_meters":14000,"station_id":"ce4bh2h2rcd13ifvqdh0","pricing_plan_id":"free"},{"bike_id":"6d6b5c49-5c5b-4e8f-967a-aec84d73abbe","system_id":"levelo_inurba_marseille","lat":43.294153,"lon":5.386305,"is_reserved":false,"is_disabled":false,"rental_uris":{"android":"levelo://app?vid=6d6b5c49-5c5b-4e8f-967a-aec84d73abbe","ios":"levelo://app?vid=6d6b5c49-5c5b-4e8f-967a-aec84d73abbe"},"vehicle_type_id":"4","last_reported":1685034367,"current_range_meters":800,"station_id":"ce4bh2h2rcd13ifvqdh0","pricing_plan_id":"free"},{"bike_id":"11438112-8788-433a-abb9-de60495f7ba4","system_id":"levelo_inurba_marseille","lat":43.289184,"lon":5.366408,"is_reserved":false,"is_disabled":false,"rental_uris":{"android":"levelo://app?vid=11438112-8788-433a-abb9-de60495f7ba4","ios":"levelo://app?vid=11438112-8788-433a-abb9-de60495f7ba4"},"vehicle_type_id":"4","last_reported":1685034367,"current_range_meters":400,"station_id":"ce4bhap2rcd13ifvqek0","pricing_plan_id":"free"},{"bike_id":"c8464aa0-3229-411f-acb9-909d3dc19721","system_id":"levelo_inurba_marseille","lat":43.292644,"lon":5.384257,"is_reserved":false,"is_disabled":false,"rental_uris":{"android":"levelo://app?vid=c8464aa0-3229-411f-acb9-909d3dc19721","ios":"levelo://app?vid=c8464aa0-3229-411f-acb9-909d3dc19721"},"vehicle_type_id":"4","last_reported":1685034367,"current_range_meters":4000,"station_id":"ce4bh692rcd13ifvqea0","pricing_plan_id":"free"},{"bike_id":"765c30c1-f909-43b7-84dd-3beb5e39c2da","system_id":"levelo_inurba_marseille","lat":43.292644,"lon":5.384257,"is_reserved":false,"is_disabled":false,"rental_uris":{"android":"levelo://app?vid=765c30c1-f909-43b7-84dd-3beb5e39c2da","ios":"levelo://app?vid=765c30c1-f909-43b7-84dd-3beb5e39c2da"},"vehicle_type_id":"4","last_reported":1685034367,"current_range_meters":13600,"station_id":"ce4bh692rcd13ifvqea0","pricing_plan_id":"free"},{"bike_id":"6006f7e1-02c9-4228-8b83-b8a576fc9313","system_id":"levelo_inurba_marseille","lat":43.292644,"lon":5.384257,"is_reserved":false,"is_disabled":false,"rental_uris":{"android":"levelo://app?vid=6006f7e1-02c9-4228-8b83-b8a576fc9313","ios":"levelo://app?vid=6006f7e1-02c9-4228-8b83-b8a576fc9313"},"vehicle_type_id":"4","last_reported":1685034367,"current_range_meters":18400,"station_id":"ce4bh692rcd13ifvqea0","pricing_plan_id":"free"},{"bike_id":"a3e7d48f-417e-42b5-aac7-8e3854ee99cf","system_id":"levelo_inurba_marseille","lat":43.29011,"lon":5.35617,"is_reserved":false,"is_disabled":false,"rental_uris":{"android":"levelo://app?vid=a3e7d48f-417e-42b5-aac7-8e3854ee99cf","ios":"levelo://app?vid=a3e7d48f-417e-42b5-aac7-8e3854ee99cf"},"vehicle_type_id":"4","last_reported":1685034367,"current_range_meters":6400,"station_id":"ce4bhb92rcd13ifvqen0","pricing_plan_id":"free"},{"bike_id":"9bebf53f-f78d-4bc3-a85d-030cc4cb303f","system_id":"levelo_inurba_marseille","lat":43.290082,"lon":5.356282,"is_reserved":false,"is_disabled":false,"rental_uris":{"android":"levelo://app?vid=9bebf53f-f78d-4bc3-a85d-030cc4cb303f","ios":"levelo://app?vid=9bebf53f-f78d-4bc3-a85d-030cc4cb303f"},"vehicle_type_id":"4","last_reported":1685034367,"current_range_meters":2000,"station_id":"ce4bhb92rcd13ifvqen0","pricing_plan_id":"free"},{"bike_id":"33b10a62-72a8-4c05-b10c-97554a05b38d","system_id":"levelo_inurba_marseille","lat":43.2901,"lon":5.35619,"is_reserved":false,"is_disabled":false,"rental_uris":{"android":"levelo://app?vid=33b10a62-72a8-4c05-b10c-97554a05b38d","ios":"levelo://app?vid=33b10a62-72a8-4c05-b10c-97554a05b38d"},"vehicle_type_id":"4","last_reported":1685034367,"current_range_meters":21200,"station_id":"ce4bhb92rcd13ifvqen0","pricing_plan_id":"free"},{"bike_id":"9eebde97-ce25-4c7f-a052-9a91292f993a","system_id":"levelo_inurba_marseille","lat":43.29011,"lon":5.3561,"is_reserved":false,"is_disabled":false,"rental_uris":{"android":"levelo://app?vid=9eebde97-ce25-4c7f-a052-9a91292f993a","ios":"levelo://app?vid=9eebde97-ce25-4c7f-a052-9a91292f993a"},"vehicle_type_id":"4","last_reported":1685034367,"current_range_meters":2800,"station_id":"ce4bhb92rcd13ifvqen0","pricing_plan_id":"free"},{"bike_id":"c02fd7ad-1bee-495b-a8e0-8b0124bdd195","system_id":"levelo_inurba_marseille","lat":43.29009,"lon":5.35613,"is_reserved":false,"is_disabled":false,"rental_uris":{"android":"levelo://app?vid=c02fd7ad-1bee-495b-a8e0-8b0124bdd195","ios":"levelo://app?vid=c02fd7ad-1bee-495b-a8e0-8b0124bdd195"},"vehicle_type_id":"4","last_reported":1685034367,"current_range_meters":25200,"station_id":"ce4bhb92rcd13ifvqen0","pricing_plan_id":"free"},{"bike_id":"c6a5616a-9f0f-484e-8508-8e6a342418d3","system_id":"levelo_inurba_marseille","lat":43.290104,"lon":5.356111,"is_reserved":false,"is_disabled":false,"rental_uris":{"android":"levelo://app?vid=c6a5616a-9f0f-484e-8508-8e6a342418d3","ios":"levelo://app?vid=c6a5616a-9f0f-484e-8508-8e6a342418d3"},"vehicle_type_id":"4","last_reported":1685034367,"current_range_meters":10400,"station_id":"ce4bhb92rcd13ifvqen0","pricing_plan_id":"free"},{"bike_id":"23971d59-f7de-448e-ac74-0d7f07c8b1cd","system_id":"levelo_inurba_marseille","lat":43.29009,"lon":5.3561,"is_reserved":false,"is_disabled":false,"rental_uris":{"android":"levelo://app?vid=23971d59-f7de-448e-ac74-0d7f07c8b1cd","ios":"levelo://app?vid=23971d59-f7de-448e-ac74-0d7f07c8b1cd"},"vehicle_type_id":"4","last_reported":1685034367,"current_range_meters":31200,"station_id":"ce4bhb92rcd13ifvqen0","pricing_plan_id":"free"},{"bike_id":"ef4714e3-c532-4b61-8fa6-f5dd6d8ed9c8","system_id":"levelo_inurba_marseille","lat":43.29007,"lon":5.35615,"is_reserved":false,"is_disabled":false,"rental_uris":{"android":"levelo://app?vid=ef4714e3-c532-4b61-8fa6-f5dd6d8ed9c8","ios":"levelo://app?vid=ef4714e3-c532-4b61-8fa6-f5dd6d8ed9c8"},"vehicle_type_id":"4","last_reported":1685034367,"current_range_meters":17600,"station_id":"ce4bhb92rcd13ifvqen0","pricing_plan_id":"free"},{"bike_id":"7ea6702d-c711-4698-805e-4fd02a3ac3c8","system_id":"levelo_inurba_marseille","lat":43.29008,"lon":5.35611,"is_reserved":false,"is_disabled":false,"rental_uris":{"android":"levelo://app?vid=7ea6702d-c711-4698-805e-4fd02a3ac3c8","ios":"levelo://app?vid=7ea6702d-c711-4698-805e-4fd02a3ac3c8"},"vehicle_type_id":"4","last_reported":1685034367,"current_range_meters":15200,"station_id":"ce4bhb92rcd13ifvqen0","pricing_plan_id":"free"},{"bike_id":"db2f186d-93e4-4a71-a986-1151a2bf2310","system_id":"levelo_inurba_marseille","lat":43.29007,"lon":5.3561,"is_reserved":false,"is_disabled":false,"rental_uris":{"android":"levelo://app?vid=db2f186d-93e4-4a71-a986-1151a2bf2310","ios":"levelo://app?vid=db2f186d-93e4-4a71-a986-1151a2bf2310"},"vehicle_type_id":"4","last_reported":1685034367,"current_range_meters":25200,"station_id":"ce4bhb92rcd13ifvqen0","pricing_plan_id":"free"},{"bike_id":"e38d4b70-3698-4015-a54d-ee038d9d7e36","system_id":"levelo_inurba_marseille","lat":43.290104,"lon":5.356111,"is_reserved":false,"is_disabled":false,"rental_uris":{"android":"levelo://app?vid=e38d4b70-3698-4015-a54d-ee038d9d7e36","ios":"levelo://app?vid=e38d4b70-3698-4015-a54d-ee038d9d7e36"},"vehicle_type_id":"4","last_reported":1685034367,"current_range_meters":19600,"station_id":"ce4bhb92rcd13ifvqen0","pricing_plan_id":"free"},{"bike_id":"9eeccb6f-b5b7-4e7a-980e-55b49deb6390","system_id":"levelo_inurba_marseille","lat":43.29004,"lon":5.35611,"is_reserved":false,"is_disabled":false,"rental_uris":{"android":"levelo://app?vid=9eeccb6f-b5b7-4e7a-980e-55b49deb6390","ios":"levelo://app?vid=9eeccb6f-b5b7-4e7a-980e-55b49deb6390"},"vehicle_type_id":"4","last_reported":1685034367,"current_range_meters":26400,"station_id":"ce4bhb92rcd13ifvqen0","pricing_plan_id":"free"},{"bike_id":"8a140b90-e261-4e7e-ad45-25552e00c742","system_id":"levelo_inurba_marseille","lat":43.29003,"lon":5.35613,"is_reserved":false,"is_disabled":false,"rental_uris":{"android":"levelo://app?vid=8a140b90-e261-4e7e-ad45-25552e00c742","ios":"levelo://app?vid=8a140b90-e261-4e7e-ad45-25552e00c742"},"vehicle_type_id":"4","last_reported":1685034367,"current_range_meters":6800,"station_id":"ce4bhb92rcd13ifvqen0","pricing_plan_id":"free"},{"bike_id":"99c97110-dff2-41b1-97a8-e617d18d7a5e","system_id":"levelo_inurba_marseille","lat":43.297814,"lon":5.393513,"is_reserved":false,"is_disabled":false,"rental_uris":{"android":"levelo://app?vid=99c97110-dff2-41b1-97a8-e617d18d7a5e","ios":"levelo://app?vid=99c97110-dff2-41b1-97a8-e617d18d7a5e"},"vehicle_type_id":"4","last_reported":1685034367,"current_range_meters":0,"station_id":"chh1huq6cuj3fo74tm60","pricing_plan_id":"free"},{"bike_id":"04b10f33-479b-43c6-b11e-80c0195ce89e","system_id":"levelo_inurba_marseille","lat":43.297814,"lon":5.393513,"is_reserved":false,"is_disabled":false,"rental_uris":{"android":"levelo://app?vid=04b10f33-479b-43c6-b11e-80c0195ce89e","ios":"levelo://app?vid=04b10f33-479b-43c6-b11e-80c0195ce89e"},"vehicle_type_id":"4","last_reported":1685034367,"current_range_meters":31200,"station_id":"chh1huq6cuj3fo74tm60","pricing_plan_id":"free"},{"bike_id":"e108bf44-4846-411b-88a6-9000eca4aa5b","system_id":"levelo_inurba_marseille","lat":43.295169,"lon":5.390426,"is_reserved":false,"is_disabled":false,"rental_uris":{"android":"levelo://app?vid=e108bf44-4846-411b-88a6-9000eca4aa5b","ios":"levelo://app?vid=e108bf44-4846-411b-88a6-9000eca4aa5b"},"vehicle_type_id":"4","last_reported":1685034367,"current_range_meters":15200,"station_id":"ce4bh3p2rcd13ifvqdp0","pricing_plan_id":"free"},{"bike_id":"f6a6e86a-cd0d-439b-984f-f8341f17193a","system_id":"levelo_inurba_marseille","lat":43.297814,"lon":5.393513,"is_reserved":false,"is_disabled":false,"rental_uris":{"android":"levelo://app?vid=f6a6e86a-cd0d-439b-984f-f8341f17193a","ios":"levelo://app?vid=f6a6e86a-cd0d-439b-984f-f8341f17193a"},"vehicle_type_id":"4","last_reported":1685034367,"current_range_meters":22800,"station_id":"chh1huq6cuj3fo74tm60","pricing_plan_id":"free"},{"bike_id":"cc5f86cf-3f4d-447d-bb4a-7bead1e1614b","system_id":"levelo_inurba_marseille","lat":43.30634,"lon":5.40072,"is_reserved":false,"is_disabled":false,"rental_uris":{"android":"levelo://app?vid=cc5f86cf-3f4d-447d-bb4a-7bead1e1614b","ios":"levelo://app?vid=cc5f86cf-3f4d-447d-bb4a-7bead1e1614b"},"vehicle_type_id":"4","last_reported":1685034367,"current_range_meters":24800,"station_id":"ce4bh112rcd13ifvqda0","pricing_plan_id":"free"},{"bike_id":"29433ae7-5344-45f1-b4dc-726b5f122523","system_id":"levelo_inurba_marseille","lat":43.30644,"lon":5.40079,"is_reserved":false,"is_disabled":false,"rental_uris":{"android":"levelo://app?vid=29433ae7-5344-45f1-b4dc-726b5f122523","ios":"levelo://app?vid=29433ae7-5344-45f1-b4dc-726b5f122523"},"vehicle_type_id":"4","last_reported":1685034367,"current_range_meters":24800,"station_id":"ce4bh112rcd13ifvqda0","pricing_plan_id":"free"},{"bike_id":"5a1158c6-f8d2-42dd-a7ff-d2b5c8510acc","system_id":"levelo_inurba_marseille","lat":43.30639,"lon":5.40078,"is_reserved":false,"is_disabled":false,"rental_uris":{"android":"levelo://app?vid=5a1158c6-f8d2-42dd-a7ff-d2b5c8510acc","ios":"levelo://app?vid=5a1158c6-f8d2-42dd-a7ff-d2b5c8510acc"},"vehicle_type_id":"4","last_reported":1685034367,"current_range_meters":11200,"station_id":"ce4bh112rcd13ifvqda0","pricing_plan_id":"free"},{"bike_id":"deccdead-3a19-4eb1-a04e-30061fe6dc26","system_id":"levelo_inurba_marseille","lat":43.33755,"lon":5.37467,"is_reserved":false,"is_disabled":false,"rental_uris":{"android":"levelo://app?vid=deccdead-3a19-4eb1-a04e-30061fe6dc26","ios":"levelo://app?vid=deccdead-3a19-4eb1-a04e-30061fe6dc26"},"vehicle_type_id":"4","last_reported":1685034367,"current_range_meters":20400,"station_id":"","pricing_plan_id":"free"},{"bike_id":"d707e0fe-3e84-4392-a108-1e8a179359e1","system_id":"levelo_inurba_marseille","lat":43.30647,"lon":5.40082,"is_reserved":false,"is_disabled":false,"rental_uris":{"android":"levelo://app?vid=d707e0fe-3e84-4392-a108-1e8a179359e1","ios":"levelo://app?vid=d707e0fe-3e84-4392-a108-1e8a179359e1"},"vehicle_type_id":"4","last_reported":1685034367,"current_range_meters":28400,"station_id":"ce4bh112rcd13ifvqda0","pricing_plan_id":"free"},{"bike_id":"0f380948-a22c-4637-a107-79eea034a408","system_id":"levelo_inurba_marseille","lat":43.30644,"lon":5.40082,"is_reserved":false,"is_disabled":false,"rental_uris":{"android":"levelo://app?vid=0f380948-a22c-4637-a107-79eea034a408","ios":"levelo://app?vid=0f380948-a22c-4637-a107-79eea034a408"},"vehicle_type_id":"4","last_reported":1685034367,"current_range_meters":19200,"station_id":"ce4bh112rcd13ifvqda0","pricing_plan_id":"free"},{"bike_id":"4dce37f9-3730-47c3-a2d0-0d1945667a52","system_id":"levelo_inurba_marseille","lat":43.30648,"lon":5.40085,"is_reserved":false,"is_disabled":false,"rental_uris":{"android":"levelo://app?vid=4dce37f9-3730-47c3-a2d0-0d1945667a52","ios":"levelo://app?vid=4dce37f9-3730-47c3-a2d0-0d1945667a52"},"vehicle_type_id":"4","last_reported":1685034367,"current_range_meters":9200,"station_id":"ce4bh112rcd13ifvqda0","pricing_plan_id":"free"},{"bike_id":"083096cd-c3bb-4705-a074-9b9d2c67bf25","system_id":"levelo_inurba_marseille","lat":43.30642,"lon":5.401031,"is_reserved":false,"is_disabled":false,"rental_uris":{"android":"levelo://app?vid=083096cd-c3bb-4705-a074-9b9d2c67bf25","ios":"levelo://app?vid=083096cd-c3bb-4705-a074-9b9d2c67bf25"},"vehicle_type_id":"4","last_reported":1685034367,"current_range_meters":30400,"station_id":"ce4bh112rcd13ifvqda0","pricing_plan_id":"free"},{"bike_id":"e0fa65d4-2fd2-4560-a620-5961cf1db044","system_id":"levelo_inurba_marseille","lat":43.30645,"lon":5.40086,"is_reserved":false,"is_disabled":false,"rental_uris":{"android":"levelo://app?vid=e0fa65d4-2fd2-4560-a620-5961cf1db044","ios":"levelo://app?vid=e0fa65d4-2fd2-4560-a620-5961cf1db044"},"vehicle_type_id":"4","last_reported":1685034367,"current_range_meters":14000,"station_id":"","pricing_plan_id":"free"},{"bike_id":"a52c8fea-7576-45cd-ac24-33906a69238b","system_id":"levelo_inurba_marseille","lat":43.30636,"lon":5.40091,"is_reserved":false,"is_disabled":false,"rental_uris":{"android":"levelo://app?vid=a52c8fea-7576-45cd-ac24-33906a69238b","ios":"levelo://app?vid=a52c8fea-7576-45cd-ac24-33906a69238b"},"vehicle_type_id":"4","last_reported":1685034367,"current_range_meters":5600,"station_id":"ce4bh112rcd13ifvqda0","pricing_plan_id":"free"},{"bike_id":"95d058cb-87d4-419b-b1eb-8e2b82398b0a","system_id":"levelo_inurba_marseille","lat":43.33772,"lon":5.37434,"is_reserved":false,"is_disabled":false,"rental_uris":{"android":"levelo://app?vid=95d058cb-87d4-419b-b1eb-8e2b82398b0a","ios":"levelo://app?vid=95d058cb-87d4-419b-b1eb-8e2b82398b0a"},"vehicle_type_id":"4","last_reported":1685034367,"current_range_meters":31200,"station_id":"","pricing_plan_id":"free"},{"bike_id":"404c5057-4303-4274-84b3-daa7e08dc265","system_id":"levelo_inurba_marseille","lat":43.30643,"lon":5.40102,"is_reserved":false,"is_disabled":false,"rental_uris":{"android":"levelo://app?vid=404c5057-4303-4274-84b3-daa7e08dc265","ios":"levelo://app?vid=404c5057-4303-4274-84b3-daa7e08dc265"},"vehicle_type_id":"4","last_reported":1685034367,"current_range_meters":0,"station_id":"ce4bh112rcd13ifvqda0","pricing_plan_id":"free"},{"bike_id":"1713220b-d444-46b9-9b54-9512b7b168cf","system_id":"levelo_inurba_marseille","lat":43.30431,"lon":5.40087,"is_reserved":false,"is_disabled":false,"rental_uris":{"android":"levelo://app?vid=1713220b-d444-46b9-9b54-9512b7b168cf","ios":"levelo://app?vid=1713220b-d444-46b9-9b54-9512b7b168cf"},"vehicle_type_id":"4","last_reported":1685034367,"current_range_meters":8800,"station_id":"","pricing_plan_id":"free"},{"bike_id":"36c1bea0-1448-4850-b4f1-3e5f50adc30f","system_id":"levelo_inurba_marseille","lat":43.30425,"lon":5.40091,"is_reserved":false,"is_disabled":false,"rental_uris":{"android":"levelo://app?vid=36c1bea0-1448-4850-b4f1-3e5f50adc30f","ios":"levelo://app?vid=36c1bea0-1448-4850-b4f1-3e5f50adc30f"},"vehicle_type_id":"4","last_reported":1685034367,"current_range_meters":23200,"station_id":"","pricing_plan_id":"free"},{"bike_id":"97723fcf-64df-4039-95c7-c6d1c4289357","system_id":"levelo_inurba_marseille","lat":43.298681,"lon":5.397225,"is_reserved":false,"is_disabled":false,"rental_uris":{"android":"levelo://app?vid=97723fcf-64df-4039-95c7-c6d1c4289357","ios":"levelo://app?vid=97723fcf-64df-4039-95c7-c6d1c4289357"},"vehicle_type_id":"4","last_reported":1685034367,"current_range_meters":26800,"station_id":"ce4bh0h2rcd13ifvqd50","pricing_plan_id":"free"},{"bike_id":"8b51ccd8-d8c0-42b6-aecd-35be1d4a19df","system_id":"levelo_inurba_marseille","lat":43.29535,"lon":5.39408,"is_reserved":false,"is_disabled":false,"rental_uris":{"android":"levelo://app?vid=8b51ccd8-d8c0-42b6-aecd-35be1d4a19df","ios":"levelo://app?vid=8b51ccd8-d8c0-42b6-aecd-35be1d4a19df"},"vehicle_type_id":"4","last_reported":1685034367,"current_range_meters":18000,"station_id":"ce4bh292rcd13ifvqdf0","pricing_plan_id":"free"},{"bike_id":"2104205f-a58b-47ac-81af-4a5b31047263","system_id":"levelo_inurba_marseille","lat":43.29525,"lon":5.39403,"is_reserved":false,"is_disabled":false,"rental_uris":{"android":"levelo://app?vid=2104205f-a58b-47ac-81af-4a5b31047263","ios":"levelo://app?vid=2104205f-a58b-47ac-81af-4a5b31047263"},"vehicle_type_id":"4","last_reported":1685034367,"current_range_meters":0,"station_id":"ce4bh292rcd13ifvqdf0","pricing_plan_id":"free"},{"bike_id":"f4e42b3f-9470-4b42-8a8b-effe926e0e1c","system_id":"levelo_inurba_marseille","lat":43.295194,"lon":5.39397,"is_reserved":false,"is_disabled":false,"rental_uris":{"android":"levelo://app?vid=f4e42b3f-9470-4b42-8a8b-effe926e0e1c","ios":"levelo://app?vid=f4e42b3f-9470-4b42-8a8b-effe926e0e1c"},"vehicle_type_id":"4","last_reported":1685034367,"current_range_meters":13600,"station_id":"ce4bh292rcd13ifvqdf0","pricing_plan_id":"free"},{"bike_id":"f69d0c3e-a74e-4ff2-84f6-ece4c4aa096e","system_id":"levelo_inurba_marseille","lat":43.295194,"lon":5.39397,"is_reserved":false,"is_disabled":false,"rental_uris":{"android":"levelo://app?vid=f69d0c3e-a74e-4ff2-84f6-ece4c4aa096e","ios":"levelo://app?vid=f69d0c3e-a74e-4ff2-84f6-ece4c4aa096e"},"vehicle_type_id":"4","last_reported":1685034367,"current_range_meters":17200,"station_id":"ce4bh292rcd13ifvqdf0","pricing_plan_id":"free"},{"bike_id":"7244d675-aaf1-4a65-94cf-12ab6bc04de4","system_id":"levelo_inurba_marseille","lat":43.302759,"lon":5.400793,"is_reserved":false,"is_disabled":false,"rental_uris":{"android":"levelo://app?vid=7244d675-aaf1-4a65-94cf-12ab6bc04de4","ios":"levelo://app?vid=7244d675-aaf1-4a65-94cf-12ab6bc04de4"},"vehicle_type_id":"4","last_reported":1685034367,"current_range_meters":27200,"station_id":"ce4bgvh2rcd13ifvqcs0","pricing_plan_id":"free"},{"bike_id":"7b394de8-de5d-46b2-9de4-26956f2f6ffd","system_id":"levelo_inurba_marseille","lat":43.302759,"lon":5.400793,"is_reserved":false,"is_disabled":false,"rental_uris":{"android":"levelo://app?vid=7b394de8-de5d-46b2-9de4-26956f2f6ffd","ios":"levelo://app?vid=7b394de8-de5d-46b2-9de4-26956f2f6ffd"},"vehicle_type_id":"4","last_reported":1685034367,"current_range_meters":18000,"station_id":"ce4bgvh2rcd13ifvqcs0","pricing_plan_id":"free"},{"bike_id":"45074a9b-3388-4150-86dd-8a6ecb98c200","system_id":"levelo_inurba_marseille","lat":43.287185,"lon":5.379373,"is_reserved":false,"is_disabled":false,"rental_uris":{"android":"levelo://app?vid=45074a9b-3388-4150-86dd-8a6ecb98c200","ios":"levelo://app?vid=45074a9b-3388-4150-86dd-8a6ecb98c200"},"vehicle_type_id":"4","last_reported":1685034367,"current_range_meters":400,"station_id":"ce4bh9p2rcd13ifvqec0","pricing_plan_id":"free"},{"bike_id":"6d484f6a-30de-40e6-b028-7fea9e7af73e","system_id":"levelo_inurba_marseille","lat":43.316517,"lon":5.404375,"is_reserved":false,"is_disabled":false,"rental_uris":{"android":"levelo://app?vid=6d484f6a-30de-40e6-b028-7fea9e7af73e","ios":"levelo://app?vid=6d484f6a-30de-40e6-b028-7fea9e7af73e"},"vehicle_type_id":"4","last_reported":1685034367,"current_range_meters":0,"station_id":"ce4bh012rcd13ifvqd00","pricing_plan_id":"free"},{"bike_id":"aefbd698-4a10-4c33-b2c1-154b01695b2f","system_id":"levelo_inurba_marseille","lat":43.316517,"lon":5.404375,"is_reserved":false,"is_disabled":false,"rental_uris":{"android":"levelo://app?vid=aefbd698-4a10-4c33-b2c1-154b01695b2f","ios":"levelo://app?vid=aefbd698-4a10-4c33-b2c1-154b01695b2f"},"vehicle_type_id":"4","last_reported":1685034367,"current_range_meters":0,"station_id":"ce4bh012rcd13ifvqd00","pricing_plan_id":"free"},{"bike_id":"12ecffbd-adec-4d58-9d53-b6a8276b3442","system_id":"levelo_inurba_marseille","lat":43.31643,"lon":5.40438,"is_reserved":false,"is_disabled":false,"rental_uris":{"android":"levelo://app?vid=12ecffbd-adec-4d58-9d53-b6a8276b3442","ios":"levelo://app?vid=12ecffbd-adec-4d58-9d53-b6a8276b3442"},"vehicle_type_id":"4","last_reported":1685034367,"current_range_meters":18800,"station_id":"ce4bh012rcd13ifvqd00","pricing_plan_id":"free"},{"bike_id":"1b72633d-01ad-4261-ac32-6a17ee74e8ad","system_id":"levelo_inurba_marseille","lat":43.316517,"lon":5.404375,"is_reserved":false,"is_disabled":false,"rental_uris":{"android":"levelo://app?vid=1b72633d-01ad-4261-ac32-6a17ee74e8ad","ios":"levelo://app?vid=1b72633d-01ad-4261-ac32-6a17ee74e8ad"},"vehicle_type_id":"4","last_reported":1685034367,"current_range_meters":13600,"station_id":"ce4bh012rcd13ifvqd00","pricing_plan_id":"free"},{"bike_id":"6aea68ba-4ae9-4802-8626-0d0059f5ffb8","system_id":"levelo_inurba_marseille","lat":43.292,"lon":5.3933,"is_reserved":false,"is_disabled":false,"rental_uris":{"android":"levelo://app?vid=6aea68ba-4ae9-4802-8626-0d0059f5ffb8","ios":"levelo://app?vid=6aea68ba-4ae9-4802-8626-0d0059f5ffb8"},"vehicle_type_id":"4","last_reported":1685034367,"current_range_meters":15200,"station_id":"","pricing_plan_id":"free"},{"bike_id":"939ff8e7-e38c-4733-bfe3-1777187afdb6","system_id":"levelo_inurba_marseille","lat":43.284534,"lon":5.358662,"is_reserved":false,"is_disabled":false,"rental_uris":{"android":"levelo://app?vid=939ff8e7-e38c-4733-bfe3-1777187afdb6","ios":"levelo://app?vid=939ff8e7-e38c-4733-bfe3-1777187afdb6"},"vehicle_type_id":"4","last_reported":1685034367,"current_range_meters":8400,"station_id":"ce4bhah2rcd13ifvqei0","pricing_plan_id":"free"},{"bike_id":"b01c1a66-fcc3-47da-b008-3af627f4a41d","system_id":"levelo_inurba_marseille","lat":43.284534,"lon":5.358662,"is_reserved":false,"is_disabled":false,"rental_uris":{"android":"levelo://app?vid=b01c1a66-fcc3-47da-b008-3af627f4a41d","ios":"levelo://app?vid=b01c1a66-fcc3-47da-b008-3af627f4a41d"},"vehicle_type_id":"4","last_reported":1685034367,"current_range_meters":14000,"station_id":"ce4bhah2rcd13ifvqei0","pricing_plan_id":"free"},{"bike_id":"7962ad5d-ad33-4204-9d55-4a8d329337a5","system_id":"levelo_inurba_marseille","lat":43.284534,"lon":5.358662,"is_reserved":false,"is_disabled":false,"rental_uris":{"android":"levelo://app?vid=7962ad5d-ad33-4204-9d55-4a8d329337a5","ios":"levelo://app?vid=7962ad5d-ad33-4204-9d55-4a8d329337a5"},"vehicle_type_id":"4","last_reported":1685034367,"current_range_meters":23600,"station_id":"ce4bhah2rcd13ifvqei0","pricing_plan_id":"free"},{"bike_id":"4b9b4f27-e661-413d-9ad5-5dfac71933db","system_id":"levelo_inurba_marseille","lat":43.28463,"lon":5.35889,"is_reserved":false,"is_disabled":false,"rental_uris":{"android":"levelo://app?vid=4b9b4f27-e661-413d-9ad5-5dfac71933db","ios":"levelo://app?vid=4b9b4f27-e661-413d-9ad5-5dfac71933db"},"vehicle_type_id":"4","last_reported":1685034367,"current_range_meters":27200,"station_id":"ce4bhah2rcd13ifvqei0","pricing_plan_id":"free"},{"bike_id":"e9d12227-3906-47e6-bec4-9dd5fa5036e5","system_id":"levelo_inurba_marseille","lat":43.284534,"lon":5.358662,"is_reserved":false,"is_disabled":false,"rental_uris":{"android":"levelo://app?vid=e9d12227-3906-47e6-bec4-9dd5fa5036e5","ios":"levelo://app?vid=e9d12227-3906-47e6-bec4-9dd5fa5036e5"},"vehicle_type_id":"4","last_reported":1685034367,"current_range_meters":4000,"station_id":"ce4bhah2rcd13ifvqei0","pricing_plan_id":"free"},{"bike_id":"27f80011-001e-48bb-ba92-6962f1eac4c3","system_id":"levelo_inurba_marseille","lat":43.284534,"lon":5.358662,"is_reserved":false,"is_disabled":false,"rental_uris":{"android":"levelo://app?vid=27f80011-001e-48bb-ba92-6962f1eac4c3","ios":"levelo://app?vid=27f80011-001e-48bb-ba92-6962f1eac4c3"},"vehicle_type_id":"4","last_reported":1685034367,"current_range_meters":2800,"station_id":"ce4bhah2rcd13ifvqei0","pricing_plan_id":"free"},{"bike_id":"9593a73d-befe-4460-93db-546cb3f70e81","system_id":"levelo_inurba_marseille","lat":43.284534,"lon":5.358662,"is_reserved":false,"is_disabled":false,"rental_uris":{"android":"levelo://app?vid=9593a73d-befe-4460-93db-546cb3f70e81","ios":"levelo://app?vid=9593a73d-befe-4460-93db-546cb3f70e81"},"vehicle_type_id":"4","last_reported":1685034367,"current_range_meters":29200,"station_id":"ce4bhah2rcd13ifvqei0","pricing_plan_id":"free"},{"bike_id":"b95af943-8622-4489-9599-935e8e290a39","system_id":"levelo_inurba_marseille","lat":43.284534,"lon":5.358662,"is_reserved":false,"is_disabled":false,"rental_uris":{"android":"levelo://app?vid=b95af943-8622-4489-9599-935e8e290a39","ios":"levelo://app?vid=b95af943-8622-4489-9599-935e8e290a39"},"vehicle_type_id":"4","last_reported":1685034367,"current_range_meters":6400,"station_id":"ce4bhah2rcd13ifvqei0","pricing_plan_id":"free"},{"bike_id":"92764a98-e0f1-4122-921e-5bbf5e4476d7","system_id":"levelo_inurba_marseille","lat":43.28457,"lon":5.35894,"is_reserved":false,"is_disabled":false,"rental_uris":{"android":"levelo://app?vid=92764a98-e0f1-4122-921e-5bbf5e4476d7","ios":"levelo://app?vid=92764a98-e0f1-4122-921e-5bbf5e4476d7"},"vehicle_type_id":"4","last_reported":1685034367,"current_range_meters":18800,"station_id":"ce4bhah2rcd13ifvqei0","pricing_plan_id":"free"},{"bike_id":"2ae18e6b-12e0-4b26-899a-cc22c82a6fe6","system_id":"levelo_inurba_marseille","lat":43.284534,"lon":5.358662,"is_reserved":false,"is_disabled":false,"rental_uris":{"android":"levelo://app?vid=2ae18e6b-12e0-4b26-899a-cc22c82a6fe6","ios":"levelo://app?vid=2ae18e6b-12e0-4b26-899a-cc22c82a6fe6"},"vehicle_type_id":"4","last_reported":1685034367,"current_range_meters":18800,"station_id":"ce4bhah2rcd13ifvqei0","pricing_plan_id":"free"},{"bike_id":"ae9be2f9-a030-4f4e-bd9c-4a596aa94062","system_id":"levelo_inurba_marseille","lat":43.284534,"lon":5.358662,"is_reserved":false,"is_disabled":false,"rental_uris":{"android":"levelo://app?vid=ae9be2f9-a030-4f4e-bd9c-4a596aa94062","ios":"levelo://app?vid=ae9be2f9-a030-4f4e-bd9c-4a596aa94062"},"vehicle_type_id":"4","last_reported":1685034367,"current_range_meters":11200,"station_id":"ce4bhah2rcd13ifvqei0","pricing_plan_id":"free"},{"bike_id":"a8b23f92-cf21-4c6b-9ecb-314ff9206227","system_id":"levelo_inurba_marseille","lat":43.284534,"lon":5.358662,"is_reserved":false,"is_disabled":false,"rental_uris":{"android":"levelo://app?vid=a8b23f92-cf21-4c6b-9ecb-314ff9206227","ios":"levelo://app?vid=a8b23f92-cf21-4c6b-9ecb-314ff9206227"},"vehicle_type_id":"4","last_reported":1685034367,"current_range_meters":18000,"station_id":"ce4bhah2rcd13ifvqei0","pricing_plan_id":"free"},{"bike_id":"3a986c88-10e0-409d-8334-15e95451b916","system_id":"levelo_inurba_marseille","lat":43.284534,"lon":5.358662,"is_reserved":false,"is_disabled":false,"rental_uris":{"android":"levelo://app?vid=3a986c88-10e0-409d-8334-15e95451b916","ios":"levelo://app?vid=3a986c88-10e0-409d-8334-15e95451b916"},"vehicle_type_id":"4","last_reported":1685034367,"current_range_meters":22800,"station_id":"ce4bhah2rcd13ifvqei0","pricing_plan_id":"free"},{"bike_id":"fe2adcc6-5d88-4279-8564-8448b1ceeb93","system_id":"levelo_inurba_marseille","lat":43.284534,"lon":5.358662,"is_reserved":false,"is_disabled":false,"rental_uris":{"android":"levelo://app?vid=fe2adcc6-5d88-4279-8564-8448b1ceeb93","ios":"levelo://app?vid=fe2adcc6-5d88-4279-8564-8448b1ceeb93"},"vehicle_type_id":"4","last_reported":1685034367,"current_range_meters":2400,"station_id":"ce4bhah2rcd13ifvqei0","pricing_plan_id":"free"},{"bike_id":"3777376c-170a-44c8-a5c5-99fc5636a7fc","system_id":"levelo_inurba_marseille","lat":43.284534,"lon":5.358662,"is_reserved":false,"is_disabled":false,"rental_uris":{"android":"levelo://app?vid=3777376c-170a-44c8-a5c5-99fc5636a7fc","ios":"levelo://app?vid=3777376c-170a-44c8-a5c5-99fc5636a7fc"},"vehicle_type_id":"4","last_reported":1685034367,"current_range_meters":22400,"station_id":"ce4bhah2rcd13ifvqei0","pricing_plan_id":"free"},{"bike_id":"9692d33d-b6bf-4011-ad22-61c8db77ae77","system_id":"levelo_inurba_marseille","lat":43.28454,"lon":5.35894,"is_reserved":false,"is_disabled":false,"rental_uris":{"android":"levelo://app?vid=9692d33d-b6bf-4011-ad22-61c8db77ae77","ios":"levelo://app?vid=9692d33d-b6bf-4011-ad22-61c8db77ae77"},"vehicle_type_id":"4","last_reported":1685034367,"current_range_meters":20000,"station_id":"","pricing_plan_id":"free"},{"bike_id":"e808930f-460b-4f29-93a1-454345034d26","system_id":"levelo_inurba_marseille","lat":43.285848,"lon":5.350787,"is_reserved":false,"is_disabled":false,"rental_uris":{"android":"levelo://app?vid=e808930f-460b-4f29-93a1-454345034d26","ios":"levelo://app?vid=e808930f-460b-4f29-93a1-454345034d26"},"vehicle_type_id":"4","last_reported":1685034367,"current_range_meters":22000,"station_id":"ce4bhch2rcd13ifvqeug","pricing_plan_id":"free"},{"bike_id":"c4a8469d-f3df-452a-999c-9e5fa25625de","system_id":"levelo_inurba_marseille","lat":43.285856,"lon":5.350771,"is_reserved":false,"is_disabled":false,"rental_uris":{"android":"levelo://app?vid=c4a8469d-f3df-452a-999c-9e5fa25625de","ios":"levelo://app?vid=c4a8469d-f3df-452a-999c-9e5fa25625de"},"vehicle_type_id":"4","last_reported":1685034367,"current_range_meters":19600,"station_id":"ce4bhch2rcd13ifvqeug","pricing_plan_id":"free"},{"bike_id":"d6f0b22c-5c20-42b4-91a7-ddc7a3d1ec12","system_id":"levelo_inurba_marseille","lat":43.285848,"lon":5.350787,"is_reserved":false,"is_disabled":false,"rental_uris":{"android":"levelo://app?vid=d6f0b22c-5c20-42b4-91a7-ddc7a3d1ec12","ios":"levelo://app?vid=d6f0b22c-5c20-42b4-91a7-ddc7a3d1ec12"},"vehicle_type_id":"4","last_reported":1685034367,"current_range_meters":28800,"station_id":"ce4bhch2rcd13ifvqeug","pricing_plan_id":"free"},{"bike_id":"4e14ca5b-c462-4cf6-84ba-fa4f2b01d9e8","system_id":"levelo_inurba_marseille","lat":43.285848,"lon":5.350787,"is_reserved":false,"is_disabled":false,"rental_uris":{"android":"levelo://app?vid=4e14ca5b-c462-4cf6-84ba-fa4f2b01d9e8","ios":"levelo://app?vid=4e14ca5b-c462-4cf6-84ba-fa4f2b01d9e8"},"vehicle_type_id":"4","last_reported":1685034367,"current_range_meters":24000,"station_id":"ce4bhch2rcd13ifvqeug","pricing_plan_id":"free"},{"bike_id":"f0fca903-41a2-463f-9611-4e8ab79f123e","system_id":"levelo_inurba_marseille","lat":43.285848,"lon":5.350787,"is_reserved":false,"is_disabled":false,"rental_uris":{"android":"levelo://app?vid=f0fca903-41a2-463f-9611-4e8ab79f123e","ios":"levelo://app?vid=f0fca903-41a2-463f-9611-4e8ab79f123e"},"vehicle_type_id":"4","last_reported":1685034367,"current_range_meters":23600,"station_id":"ce4bhch2rcd13ifvqeug","pricing_plan_id":"free"},{"bike_id":"df6f627d-b282-4cb1-b6d3-dfcaee964372","system_id":"levelo_inurba_marseille","lat":43.285848,"lon":5.350787,"is_reserved":false,"is_disabled":false,"rental_uris":{"android":"levelo://app?vid=df6f627d-b282-4cb1-b6d3-dfcaee964372","ios":"levelo://app?vid=df6f627d-b282-4cb1-b6d3-dfcaee964372"},"vehicle_type_id":"4","last_reported":1685034367,"current_range_meters":20000,"station_id":"ce4bhch2rcd13ifvqeug","pricing_plan_id":"free"},{"bike_id":"8f7c2740-6c7c-46b8-a94c-9fe7ac6224fc","system_id":"levelo_inurba_marseille","lat":43.285848,"lon":5.350787,"is_reserved":false,"is_disabled":false,"rental_uris":{"android":"levelo://app?vid=8f7c2740-6c7c-46b8-a94c-9fe7ac6224fc","ios":"levelo://app?vid=8f7c2740-6c7c-46b8-a94c-9fe7ac6224fc"},"vehicle_type_id":"4","last_reported":1685034367,"current_range_meters":23600,"station_id":"ce4bhch2rcd13ifvqeug","pricing_plan_id":"free"},{"bike_id":"235cc89c-291d-4a5a-9c79-e9fc2e36f557","system_id":"levelo_inurba_marseille","lat":43.285848,"lon":5.350787,"is_reserved":false,"is_disabled":false,"rental_uris":{"android":"levelo://app?vid=235cc89c-291d-4a5a-9c79-e9fc2e36f557","ios":"levelo://app?vid=235cc89c-291d-4a5a-9c79-e9fc2e36f557"},"vehicle_type_id":"4","last_reported":1685034367,"current_range_meters":4000,"station_id":"ce4bhch2rcd13ifvqeug","pricing_plan_id":"free"},{"bike_id":"1f954220-2352-439f-9fb6-adeb669c8273","system_id":"levelo_inurba_marseille","lat":43.285856,"lon":5.350771,"is_reserved":false,"is_disabled":false,"rental_uris":{"android":"levelo://app?vid=1f954220-2352-439f-9fb6-adeb669c8273","ios":"levelo://app?vid=1f954220-2352-439f-9fb6-adeb669c8273"},"vehicle_type_id":"4","last_reported":1685034367,"current_range_meters":22800,"station_id":"ce4bhch2rcd13ifvqeug","pricing_plan_id":"free"},{"bike_id":"64a6328d-f3c8-48fa-9f69-aae13e006fc7","system_id":"levelo_inurba_marseille","lat":43.285848,"lon":5.350787,"is_reserved":false,"is_disabled":false,"rental_uris":{"android":"levelo://app?vid=64a6328d-f3c8-48fa-9f69-aae13e006fc7","ios":"levelo://app?vid=64a6328d-f3c8-48fa-9f69-aae13e006fc7"},"vehicle_type_id":"4","last_reported":1685034367,"current_range_meters":12000,"station_id":"ce4bhch2rcd13ifvqeug","pricing_plan_id":"free"},{"bike_id":"da666184-43db-4327-a549-3aba8e87c654","system_id":"levelo_inurba_marseille","lat":43.28563,"lon":5.38376,"is_reserved":false,"is_disabled":false,"rental_uris":{"android":"levelo://app?vid=da666184-43db-4327-a549-3aba8e87c654","ios":"levelo://app?vid=da666184-43db-4327-a549-3aba8e87c654"},"vehicle_type_id":"4","last_reported":1685034367,"current_range_meters":9600,"station_id":"","pricing_plan_id":"free"},{"bike_id":"c7675e98-db95-41eb-b4bb-3820e0b35d0b","system_id":"levelo_inurba_marseille","lat":43.32248,"lon":5.40645,"is_reserved":false,"is_disabled":false,"rental_uris":{"android":"levelo://app?vid=c7675e98-db95-41eb-b4bb-3820e0b35d0b","ios":"levelo://app?vid=c7675e98-db95-41eb-b4bb-3820e0b35d0b"},"vehicle_type_id":"4","last_reported":1685034367,"current_range_meters":26400,"station_id":"","pricing_plan_id":"free"},{"bike_id":"0bf2293a-8310-44ca-bd9c-5e0da3780606","system_id":"levelo_inurba_marseille","lat":43.323464,"lon":5.406297,"is_reserved":false,"is_disabled":false,"rental_uris":{"android":"levelo://app?vid=0bf2293a-8310-44ca-bd9c-5e0da3780606","ios":"levelo://app?vid=0bf2293a-8310-44ca-bd9c-5e0da3780606"},"vehicle_type_id":"4","last_reported":1685034367,"current_range_meters":31200,"station_id":"ce4bhq92rcd13ifvqhjg","pricing_plan_id":"free"},{"bike_id":"4da9b35b-a4a6-431e-b878-9d1b08e8e239","system_id":"levelo_inurba_marseille","lat":43.323464,"lon":5.406297,"is_reserved":false,"is_disabled":false,"rental_uris":{"android":"levelo://app?vid=4da9b35b-a4a6-431e-b878-9d1b08e8e239","ios":"levelo://app?vid=4da9b35b-a4a6-431e-b878-9d1b08e8e239"},"vehicle_type_id":"4","last_reported":1685034367,"current_range_meters":24400,"station_id":"ce4bhq92rcd13ifvqhjg","pricing_plan_id":"free"},{"bike_id":"d0248441-1b9c-410f-918e-bda3250b3bf5","system_id":"levelo_inurba_marseille","lat":43.323464,"lon":5.406297,"is_reserved":false,"is_disabled":false,"rental_uris":{"android":"levelo://app?vid=d0248441-1b9c-410f-918e-bda3250b3bf5","ios":"levelo://app?vid=d0248441-1b9c-410f-918e-bda3250b3bf5"},"vehicle_type_id":"4","last_reported":1685034367,"current_range_meters":31200,"station_id":"ce4bhq92rcd13ifvqhjg","pricing_plan_id":"free"},{"bike_id":"c6dd1343-97b1-4973-83cc-c2d989982782","system_id":"levelo_inurba_marseille","lat":43.323464,"lon":5.406297,"is_reserved":false,"is_disabled":false,"rental_uris":{"android":"levelo://app?vid=c6dd1343-97b1-4973-83cc-c2d989982782","ios":"levelo://app?vid=c6dd1343-97b1-4973-83cc-c2d989982782"},"vehicle_type_id":"4","last_reported":1685034367,"current_range_meters":31200,"station_id":"ce4bhq92rcd13ifvqhjg","pricing_plan_id":"free"},{"bike_id":"764cb152-2bab-4013-97fd-921f3439fa9e","system_id":"levelo_inurba_marseille","lat":43.323464,"lon":5.406297,"is_reserved":false,"is_disabled":false,"rental_uris":{"android":"levelo://app?vid=764cb152-2bab-4013-97fd-921f3439fa9e","ios":"levelo://app?vid=764cb152-2bab-4013-97fd-921f3439fa9e"},"vehicle_type_id":"4","last_reported":1685034367,"current_range_meters":6000,"station_id":"ce4bhq92rcd13ifvqhjg","pricing_plan_id":"free"},{"bike_id":"df1880ac-d231-4326-8b39-c3d013dbb8ca","system_id":"levelo_inurba_marseille","lat":43.32147,"lon":5.40775,"is_reserved":false,"is_disabled":false,"rental_uris":{"android":"levelo://app?vid=df1880ac-d231-4326-8b39-c3d013dbb8ca","ios":"levelo://app?vid=df1880ac-d231-4326-8b39-c3d013dbb8ca"},"vehicle_type_id":"4","last_reported":1685034367,"current_range_meters":22800,"station_id":"","pricing_plan_id":"free"},{"bike_id":"cb15ba1e-ccad-4e3e-afdb-2f079a6b4a93","system_id":"levelo_inurba_marseille","lat":43.284219,"lon":5.3497,"is_reserved":false,"is_disabled":false,"rental_uris":{"android":"levelo://app?vid=cb15ba1e-ccad-4e3e-afdb-2f079a6b4a93","ios":"levelo://app?vid=cb15ba1e-ccad-4e3e-afdb-2f079a6b4a93"},"vehicle_type_id":"4","last_reported":1685034367,"current_range_meters":20000,"station_id":"ce4bhbh2rcd13ifvqepg","pricing_plan_id":"free"},{"bike_id":"3732221a-d415-4c3c-9572-73f56a05f529","system_id":"levelo_inurba_marseille","lat":43.284219,"lon":5.3497,"is_reserved":false,"is_disabled":false,"rental_uris":{"android":"levelo://app?vid=3732221a-d415-4c3c-9572-73f56a05f529","ios":"levelo://app?vid=3732221a-d415-4c3c-9572-73f56a05f529"},"vehicle_type_id":"4","last_reported":1685034367,"current_range_meters":27600,"station_id":"ce4bhbh2rcd13ifvqepg","pricing_plan_id":"free"},{"bike_id":"3be4a096-30ea-41f4-be9b-57ec72515514","system_id":"levelo_inurba_marseille","lat":43.284219,"lon":5.3497,"is_reserved":false,"is_disabled":false,"rental_uris":{"android":"levelo://app?vid=3be4a096-30ea-41f4-be9b-57ec72515514","ios":"levelo://app?vid=3be4a096-30ea-41f4-be9b-57ec72515514"},"vehicle_type_id":"4","last_reported":1685034367,"current_range_meters":23600,"station_id":"ce4bhbh2rcd13ifvqepg","pricing_plan_id":"free"},{"bike_id":"3410b6b1-78c4-4363-aab7-2b2a3fee5fc9","system_id":"levelo_inurba_marseille","lat":43.284219,"lon":5.3497,"is_reserved":false,"is_disabled":false,"rental_uris":{"android":"levelo://app?vid=3410b6b1-78c4-4363-aab7-2b2a3fee5fc9","ios":"levelo://app?vid=3410b6b1-78c4-4363-aab7-2b2a3fee5fc9"},"vehicle_type_id":"4","last_reported":1685034367,"current_range_meters":7200,"station_id":"ce4bhbh2rcd13ifvqepg","pricing_plan_id":"free"},{"bike_id":"b5c8022e-f0df-4b74-b68f-231c0911a724","system_id":"levelo_inurba_marseille","lat":43.284219,"lon":5.3497,"is_reserved":false,"is_disabled":false,"rental_uris":{"android":"levelo://app?vid=b5c8022e-f0df-4b74-b68f-231c0911a724","ios":"levelo://app?vid=b5c8022e-f0df-4b74-b68f-231c0911a724"},"vehicle_type_id":"4","last_reported":1685034367,"current_range_meters":10800,"station_id":"ce4bhbh2rcd13ifvqepg","pricing_plan_id":"free"},{"bike_id":"6bae65dd-fea9-4c2d-be8f-bd73c7989d19","system_id":"levelo_inurba_marseille","lat":43.284219,"lon":5.3497,"is_reserved":false,"is_disabled":false,"rental_uris":{"android":"levelo://app?vid=6bae65dd-fea9-4c2d-be8f-bd73c7989d19","ios":"levelo://app?vid=6bae65dd-fea9-4c2d-be8f-bd73c7989d19"},"vehicle_type_id":"4","last_reported":1685034367,"current_range_meters":18800,"station_id":"ce4bhbh2rcd13ifvqepg","pricing_plan_id":"free"},{"bike_id":"7a4d7869-a9f2-4f8b-af7f-516f78a1c5d6","system_id":"levelo_inurba_marseille","lat":43.284219,"lon":5.3497,"is_reserved":false,"is_disabled":false,"rental_uris":{"android":"levelo://app?vid=7a4d7869-a9f2-4f8b-af7f-516f78a1c5d6","ios":"levelo://app?vid=7a4d7869-a9f2-4f8b-af7f-516f78a1c5d6"},"vehicle_type_id":"4","last_reported":1685034367,"current_range_meters":3200,"station_id":"ce4bhbh2rcd13ifvqepg","pricing_plan_id":"free"},{"bike_id":"234d2dc2-ffb5-4180-a8a5-e1e9ced296c8","system_id":"levelo_inurba_marseille","lat":43.284219,"lon":5.3497,"is_reserved":false,"is_disabled":false,"rental_uris":{"android":"levelo://app?vid=234d2dc2-ffb5-4180-a8a5-e1e9ced296c8","ios":"levelo://app?vid=234d2dc2-ffb5-4180-a8a5-e1e9ced296c8"},"vehicle_type_id":"4","last_reported":1685034367,"current_range_meters":6800,"station_id":"ce4bhbh2rcd13ifvqepg","pricing_plan_id":"free"},{"bike_id":"75e0140c-66ee-4d69-9491-ed20df203f02","system_id":"levelo_inurba_marseille","lat":43.289363,"lon":5.396322,"is_reserved":false,"is_disabled":false,"rental_uris":{"android":"levelo://app?vid=75e0140c-66ee-4d69-9491-ed20df203f02","ios":"levelo://app?vid=75e0140c-66ee-4d69-9491-ed20df203f02"},"vehicle_type_id":"4","last_reported":1685034367,"current_range_meters":30800,"station_id":"ce4bh3h2rcd13ifvqdn0","pricing_plan_id":"free"},{"bike_id":"c3e938af-76b0-4cf4-9544-e5d44895ae95","system_id":"levelo_inurba_marseille","lat":43.28279,"lon":5.35078,"is_reserved":false,"is_disabled":false,"rental_uris":{"android":"levelo://app?vid=c3e938af-76b0-4cf4-9544-e5d44895ae95","ios":"levelo://app?vid=c3e938af-76b0-4cf4-9544-e5d44895ae95"},"vehicle_type_id":"4","last_reported":1685034367,"current_range_meters":0,"station_id":"","pricing_plan_id":"free"},{"bike_id":"40183e7b-8cd2-4138-9659-5d597d6f45d3","system_id":"levelo_inurba_marseille","lat":43.28272,"lon":5.35068,"is_reserved":false,"is_disabled":false,"rental_uris":{"android":"levelo://app?vid=40183e7b-8cd2-4138-9659-5d597d6f45d3","ios":"levelo://app?vid=40183e7b-8cd2-4138-9659-5d597d6f45d3"},"vehicle_type_id":"4","last_reported":1685034367,"current_range_meters":30000,"station_id":"ce4bhbp2rcd13ifvqerg","pricing_plan_id":"free"},{"bike_id":"961062f4-a93d-4ced-95a4-50ec8378a415","system_id":"levelo_inurba_marseille","lat":43.282754,"lon":5.350519,"is_reserved":false,"is_disabled":false,"rental_uris":{"android":"levelo://app?vid=961062f4-a93d-4ced-95a4-50ec8378a415","ios":"levelo://app?vid=961062f4-a93d-4ced-95a4-50ec8378a415"},"vehicle_type_id":"4","last_reported":1685034367,"current_range_meters":26000,"station_id":"ce4bhbp2rcd13ifvqerg","pricing_plan_id":"free"},{"bike_id":"75fd5187-c330-4b7e-a9b3-44dd9f246d95","system_id":"levelo_inurba_marseille","lat":43.282754,"lon":5.350519,"is_reserved":false,"is_disabled":false,"rental_uris":{"android":"levelo://app?vid=75fd5187-c330-4b7e-a9b3-44dd9f246d95","ios":"levelo://app?vid=75fd5187-c330-4b7e-a9b3-44dd9f246d95"},"vehicle_type_id":"4","last_reported":1685034367,"current_range_meters":21600,"station_id":"ce4bhbp2rcd13ifvqerg","pricing_plan_id":"free"},{"bike_id":"0b60ef14-6a18-47f6-aeae-4296229626f1","system_id":"levelo_inurba_marseille","lat":43.282754,"lon":5.350519,"is_reserved":false,"is_disabled":false,"rental_uris":{"android":"levelo://app?vid=0b60ef14-6a18-47f6-aeae-4296229626f1","ios":"levelo://app?vid=0b60ef14-6a18-47f6-aeae-4296229626f1"},"vehicle_type_id":"4","last_reported":1685034367,"current_range_meters":2400,"station_id":"ce4bhbp2rcd13ifvqerg","pricing_plan_id":"free"},{"bike_id":"6050709f-f304-43ed-87e0-f9b42abe44f5","system_id":"levelo_inurba_marseille","lat":43.282754,"lon":5.350519,"is_reserved":false,"is_disabled":false,"rental_uris":{"android":"levelo://app?vid=6050709f-f304-43ed-87e0-f9b42abe44f5","ios":"levelo://app?vid=6050709f-f304-43ed-87e0-f9b42abe44f5"},"vehicle_type_id":"4","last_reported":1685034367,"current_range_meters":19600,"station_id":"ce4bhbp2rcd13ifvqerg","pricing_plan_id":"free"},{"bike_id":"3f35e54d-0477-4cb4-9f7a-0957658bb6de","system_id":"levelo_inurba_marseille","lat":43.280382,"lon":5.369291,"is_reserved":false,"is_disabled":false,"rental_uris":{"android":"levelo://app?vid=3f35e54d-0477-4cb4-9f7a-0957658bb6de","ios":"levelo://app?vid=3f35e54d-0477-4cb4-9f7a-0957658bb6de"},"vehicle_type_id":"4","last_reported":1685034367,"current_range_meters":24400,"station_id":"ce4bha12rcd13ifvqef0","pricing_plan_id":"free"},{"bike_id":"cd74fa15-b0e3-4cb8-93c2-ad9526b46224","system_id":"levelo_inurba_marseille","lat":43.28039,"lon":5.369297,"is_reserved":false,"is_disabled":false,"rental_uris":{"android":"levelo://app?vid=cd74fa15-b0e3-4cb8-93c2-ad9526b46224","ios":"levelo://app?vid=cd74fa15-b0e3-4cb8-93c2-ad9526b46224"},"vehicle_type_id":"4","last_reported":1685034367,"current_range_meters":30400,"station_id":"ce4bha12rcd13ifvqef0","pricing_plan_id":"free"},{"bike_id":"b8fabddc-849b-47ae-865f-d46e93484f66","system_id":"levelo_inurba_marseille","lat":43.28038,"lon":5.3696,"is_reserved":false,"is_disabled":false,"rental_uris":{"android":"levelo://app?vid=b8fabddc-849b-47ae-865f-d46e93484f66","ios":"levelo://app?vid=b8fabddc-849b-47ae-865f-d46e93484f66"},"vehicle_type_id":"4","last_reported":1685034367,"current_range_meters":20400,"station_id":"ce4bha12rcd13ifvqef0","pricing_plan_id":"free"},{"bike_id":"4d86ce40-e406-44d0-9e2e-59dcfae65e59","system_id":"levelo_inurba_marseille","lat":43.29041,"lon":5.39947,"is_reserved":false,"is_disabled":false,"rental_uris":{"android":"levelo://app?vid=4d86ce40-e406-44d0-9e2e-59dcfae65e59","ios":"levelo://app?vid=4d86ce40-e406-44d0-9e2e-59dcfae65e59"},"vehicle_type_id":"4","last_reported":1685034367,"current_range_meters":3200,"station_id":"ce4bh392rcd13ifvqdm0","pricing_plan_id":"free"},{"bike_id":"4d835a85-ad4a-48e9-bc9d-9e1592df3c16","system_id":"levelo_inurba_marseille","lat":43.281044,"lon":5.378308,"is_reserved":false,"is_disabled":false,"rental_uris":{"android":"levelo://app?vid=4d835a85-ad4a-48e9-bc9d-9e1592df3c16","ios":"levelo://app?vid=4d835a85-ad4a-48e9-bc9d-9e1592df3c16"},"vehicle_type_id":"4","last_reported":1685034367,"current_range_meters":26800,"station_id":"ce4bha12rcd13ifvqee0","pricing_plan_id":"free"},{"bike_id":"434cac58-033c-42f3-896d-d0c0b9267436","system_id":"levelo_inurba_marseille","lat":43.28122,"lon":5.378259,"is_reserved":false,"is_disabled":false,"rental_uris":{"android":"levelo://app?vid=434cac58-033c-42f3-896d-d0c0b9267436","ios":"levelo://app?vid=434cac58-033c-42f3-896d-d0c0b9267436"},"vehicle_type_id":"4","last_reported":1685034367,"current_range_meters":14400,"station_id":"ce4bha12rcd13ifvqee0","pricing_plan_id":"free"},{"bike_id":"57fee608-6355-4756-8a2e-668806db3f53","system_id":"levelo_inurba_marseille","lat":43.296263,"lon":5.40601,"is_reserved":false,"is_disabled":false,"rental_uris":{"android":"levelo://app?vid=57fee608-6355-4756-8a2e-668806db3f53","ios":"levelo://app?vid=57fee608-6355-4756-8a2e-668806db3f53"},"vehicle_type_id":"4","last_reported":1685034367,"current_range_meters":23200,"station_id":"ce4bh0h2rcd13ifvqd60","pricing_plan_id":"free"},{"bike_id":"aefb153d-6913-4cbc-9c1a-538f80463ae1","system_id":"levelo_inurba_marseille","lat":43.28445,"lon":5.39187,"is_reserved":false,"is_disabled":false,"rental_uris":{"android":"levelo://app?vid=aefb153d-6913-4cbc-9c1a-538f80463ae1","ios":"levelo://app?vid=aefb153d-6913-4cbc-9c1a-538f80463ae1"},"vehicle_type_id":"4","last_reported":1685034367,"current_range_meters":0,"station_id":"ce4bhoh2rcd13ifvqh5g","pricing_plan_id":"free"},{"bike_id":"53578be3-55c0-4ba7-a0c1-724bd3122721","system_id":"levelo_inurba_marseille","lat":43.28573,"lon":5.394992,"is_reserved":false,"is_disabled":false,"rental_uris":{"android":"levelo://app?vid=53578be3-55c0-4ba7-a0c1-724bd3122721","ios":"levelo://app?vid=53578be3-55c0-4ba7-a0c1-724bd3122721"},"vehicle_type_id":"4","last_reported":1685034367,"current_range_meters":20800,"station_id":"ce4bh292rcd13ifvqdg0","pricing_plan_id":"free"},{"bike_id":"00083611-9ed2-4069-9d86-9daac3322736","system_id":"levelo_inurba_marseille","lat":43.304188,"lon":5.412904,"is_reserved":false,"is_disabled":false,"rental_uris":{"android":"levelo://app?vid=00083611-9ed2-4069-9d86-9daac3322736","ios":"levelo://app?vid=00083611-9ed2-4069-9d86-9daac3322736"},"vehicle_type_id":"4","last_reported":1685034367,"current_range_meters":30400,"station_id":"ce4bhop2rcd13ifvqh8g","pricing_plan_id":"free"},{"bike_id":"7199db57-9094-43aa-8836-ca390c65703b","system_id":"levelo_inurba_marseille","lat":43.304188,"lon":5.412904,"is_reserved":false,"is_disabled":false,"rental_uris":{"android":"levelo://app?vid=7199db57-9094-43aa-8836-ca390c65703b","ios":"levelo://app?vid=7199db57-9094-43aa-8836-ca390c65703b"},"vehicle_type_id":"4","last_reported":1685034367,"current_range_meters":15200,"station_id":"ce4bhop2rcd13ifvqh8g","pricing_plan_id":"free"},{"bike_id":"1968cc19-5fb4-4a8b-8c61-259232578c4f","system_id":"levelo_inurba_marseille","lat":43.304188,"lon":5.412904,"is_reserved":false,"is_disabled":false,"rental_uris":{"android":"levelo://app?vid=1968cc19-5fb4-4a8b-8c61-259232578c4f","ios":"levelo://app?vid=1968cc19-5fb4-4a8b-8c61-259232578c4f"},"vehicle_type_id":"4","last_reported":1685034367,"current_range_meters":9200,"station_id":"ce4bhop2rcd13ifvqh8g","pricing_plan_id":"free"},{"bike_id":"823fb43b-6310-4cb1-be26-9d12c218ac97","system_id":"levelo_inurba_marseille","lat":43.304188,"lon":5.412904,"is_reserved":false,"is_disabled":false,"rental_uris":{"android":"levelo://app?vid=823fb43b-6310-4cb1-be26-9d12c218ac97","ios":"levelo://app?vid=823fb43b-6310-4cb1-be26-9d12c218ac97"},"vehicle_type_id":"4","last_reported":1685034367,"current_range_meters":25600,"station_id":"ce4bhop2rcd13ifvqh8g","pricing_plan_id":"free"},{"bike_id":"bc50ab27-4747-4f27-8a23-d02e657b121b","system_id":"levelo_inurba_marseille","lat":43.287154,"lon":5.399979,"is_reserved":false,"is_disabled":false,"rental_uris":{"android":"levelo://app?vid=bc50ab27-4747-4f27-8a23-d02e657b121b","ios":"levelo://app?vid=bc50ab27-4747-4f27-8a23-d02e657b121b"},"vehicle_type_id":"4","last_reported":1685034367,"current_range_meters":15200,"station_id":"ce4bho92rcd13ifvqh3g","pricing_plan_id":"free"},{"bike_id":"d898eb1e-354c-48de-a45c-e96258e1caa1","system_id":"levelo_inurba_marseille","lat":43.320045,"lon":5.415046,"is_reserved":false,"is_disabled":false,"rental_uris":{"android":"levelo://app?vid=d898eb1e-354c-48de-a45c-e96258e1caa1","ios":"levelo://app?vid=d898eb1e-354c-48de-a45c-e96258e1caa1"},"vehicle_type_id":"4","last_reported":1685034367,"current_range_meters":31200,"station_id":"ce4bhq92rcd13ifvqhkg","pricing_plan_id":"free"},{"bike_id":"bf0235a0-81af-4918-9dda-04f19ccfa670","system_id":"levelo_inurba_marseille","lat":43.299577,"lon":5.413277,"is_reserved":false,"is_disabled":false,"rental_uris":{"android":"levelo://app?vid=bf0235a0-81af-4918-9dda-04f19ccfa670","ios":"levelo://app?vid=bf0235a0-81af-4918-9dda-04f19ccfa670"},"vehicle_type_id":"4","last_reported":1685034367,"current_range_meters":28800,"station_id":"ce4bhp12rcd13ifvqh9g","pricing_plan_id":"free"},{"bike_id":"d8e584ff-73aa-4f10-94f3-dbc9e2520b0c","system_id":"levelo_inurba_marseille","lat":43.29259,"lon":5.40909,"is_reserved":false,"is_disabled":false,"rental_uris":{"android":"levelo://app?vid=d8e584ff-73aa-4f10-94f3-dbc9e2520b0c","ios":"levelo://app?vid=d8e584ff-73aa-4f10-94f3-dbc9e2520b0c"},"vehicle_type_id":"4","last_reported":1685034367,"current_range_meters":24000,"station_id":"ce4bh192rcd13ifvqdc0","pricing_plan_id":"free"},{"bike_id":"86993441-9e7c-4b2d-97b2-a537dda6ceca","system_id":"levelo_inurba_marseille","lat":43.29254,"lon":5.40908,"is_reserved":false,"is_disabled":false,"rental_uris":{"android":"levelo://app?vid=86993441-9e7c-4b2d-97b2-a537dda6ceca","ios":"levelo://app?vid=86993441-9e7c-4b2d-97b2-a537dda6ceca"},"vehicle_type_id":"4","last_reported":1685034367,"current_range_meters":25200,"station_id":"ce4bh192rcd13ifvqdc0","pricing_plan_id":"free"},{"bike_id":"4bb1f6e9-ef86-476f-aa5e-77995b9ad339","system_id":"levelo_inurba_marseille","lat":43.292571,"lon":5.409107,"is_reserved":false,"is_disabled":false,"rental_uris":{"android":"levelo://app?vid=4bb1f6e9-ef86-476f-aa5e-77995b9ad339","ios":"levelo://app?vid=4bb1f6e9-ef86-476f-aa5e-77995b9ad339"},"vehicle_type_id":"4","last_reported":1685034367,"current_range_meters":6400,"station_id":"ce4bh192rcd13ifvqdc0","pricing_plan_id":"free"},{"bike_id":"69c963a1-ad3d-4e1b-bd24-e0a83eb54e09","system_id":"levelo_inurba_marseille","lat":43.29257,"lon":5.40913,"is_reserved":false,"is_disabled":false,"rental_uris":{"android":"levelo://app?vid=69c963a1-ad3d-4e1b-bd24-e0a83eb54e09","ios":"levelo://app?vid=69c963a1-ad3d-4e1b-bd24-e0a83eb54e09"},"vehicle_type_id":"4","last_reported":1685034367,"current_range_meters":26400,"station_id":"","pricing_plan_id":"free"},{"bike_id":"1f0bc060-c4cc-40c3-9f8b-43ddcc6a804b","system_id":"levelo_inurba_marseille","lat":43.27618,"lon":5.361009,"is_reserved":false,"is_disabled":false,"rental_uris":{"android":"levelo://app?vid=1f0bc060-c4cc-40c3-9f8b-43ddcc6a804b","ios":"levelo://app?vid=1f0bc060-c4cc-40c3-9f8b-43ddcc6a804b"},"vehicle_type_id":"4","last_reported":1685034367,"current_range_meters":26400,"station_id":"ce4bgj92rcd13ifvqbe0","pricing_plan_id":"free"},{"bike_id":"d1e7fb3b-a6ce-4f46-b29e-6abed55e7706","system_id":"levelo_inurba_marseille","lat":43.292571,"lon":5.409107,"is_reserved":false,"is_disabled":false,"rental_uris":{"android":"levelo://app?vid=d1e7fb3b-a6ce-4f46-b29e-6abed55e7706","ios":"levelo://app?vid=d1e7fb3b-a6ce-4f46-b29e-6abed55e7706"},"vehicle_type_id":"4","last_reported":1685034367,"current_range_meters":3200,"station_id":"ce4bh192rcd13ifvqdc0","pricing_plan_id":"free"},{"bike_id":"79b86f71-ea17-4821-ac40-13533b6edd08","system_id":"levelo_inurba_marseille","lat":43.292571,"lon":5.409107,"is_reserved":false,"is_disabled":false,"rental_uris":{"android":"levelo://app?vid=79b86f71-ea17-4821-ac40-13533b6edd08","ios":"levelo://app?vid=79b86f71-ea17-4821-ac40-13533b6edd08"},"vehicle_type_id":"4","last_reported":1685034367,"current_range_meters":9200,"station_id":"ce4bh192rcd13ifvqdc0","pricing_plan_id":"free"},{"bike_id":"ab328324-aa65-45ca-8f08-939783d02488","system_id":"levelo_inurba_marseille","lat":43.27618,"lon":5.361009,"is_reserved":false,"is_disabled":false,"rental_uris":{"android":"levelo://app?vid=ab328324-aa65-45ca-8f08-939783d02488","ios":"levelo://app?vid=ab328324-aa65-45ca-8f08-939783d02488"},"vehicle_type_id":"4","last_reported":1685034367,"current_range_meters":28000,"station_id":"ce4bgj92rcd13ifvqbe0","pricing_plan_id":"free"},{"bike_id":"bbb2d042-97b5-48ed-8095-4a5453e5a25d","system_id":"levelo_inurba_marseille","lat":43.32546,"lon":5.4145,"is_reserved":false,"is_disabled":false,"rental_uris":{"android":"levelo://app?vid=bbb2d042-97b5-48ed-8095-4a5453e5a25d","ios":"levelo://app?vid=bbb2d042-97b5-48ed-8095-4a5453e5a25d"},"vehicle_type_id":"4","last_reported":1685034367,"current_range_meters":8400,"station_id":"ce4bhq12rcd13ifvqhhg","pricing_plan_id":"free"},{"bike_id":"b14d835c-05db-4bd4-a558-f6cad0d3384e","system_id":"levelo_inurba_marseille","lat":43.280784,"lon":5.396622,"is_reserved":false,"is_disabled":false,"rental_uris":{"android":"levelo://app?vid=b14d835c-05db-4bd4-a558-f6cad0d3384e","ios":"levelo://app?vid=b14d835c-05db-4bd4-a558-f6cad0d3384e"},"vehicle_type_id":"4","last_reported":1685034367,"current_range_meters":23200,"station_id":"ce4bho12rcd13ifvqh2g","pricing_plan_id":"free"},{"bike_id":"805d932b-1201-4952-80ea-7baec48f621e","system_id":"levelo_inurba_marseille","lat":43.280784,"lon":5.396622,"is_reserved":false,"is_disabled":false,"rental_uris":{"android":"levelo://app?vid=805d932b-1201-4952-80ea-7baec48f621e","ios":"levelo://app?vid=805d932b-1201-4952-80ea-7baec48f621e"},"vehicle_type_id":"4","last_reported":1685034367,"current_range_meters":10800,"station_id":"ce4bho12rcd13ifvqh2g","pricing_plan_id":"free"},