{"last_updated":1746032909,"ttl":60,"version":"2.2","data":{"bikes":[{"bike_id":"3ede1b88-e5fa-4274-8729-5167fb236efb","system_id":"levelo_inurba_marseille","lat":43.27905,"lon":5.38014,"is_reserved":false,"is_disabled":false,"rental_uris":{"android":"levelo://app?vid=3ede1b88-e5fa-4274-8729-5167fb236efb","ios":"levelo://app?vid=3ede1b88-e5fa-4274-8729-5167fb236efb"},"vehicle_type_id":"4","last_reported":1746032909,"current_range_meters":2800,"station_id":"ce4bhf92rcd13ifvqf50","pricing_plan_id":"cebpf4jnsgd1na2vs0mg"},{"bike_id":"e5b4b90d-e268-4de2-98f4-f6d0513f8801","system_id":"levelo_inurba_marseille","lat":43.26544,"lon":5.42216,"is_reserved":false,"is_disabled":false,"rental_uris":{"android":"levelo://app?vid=e5b4b90d-e268-4de2-98f4-f6d0513f8801","ios":"levelo://app?vid=e5b4b90d-e268-4de2-98f4-f6d0513f8801"},"vehicle_type_id":"4","last_reported":1746032909,"current_range_meters":2800,"station_id":"","pricing_plan_id":"cebpf4jnsgd1na2vs0mg"},{"bike_id":"712b6586-77ae-4799-aee8-d5018150b86c","system_id":"levelo_inurba_marseille","lat":43.23183,"lon":5.39995,"is_reserved":false,"is_disabled":false,"rental_uris":{"android":"levelo://app?vid=712b6586-77ae-4799-aee8-d5018150b86c","ios":"levelo://app?vid=712b6586-77ae-4799-aee8-d5018150b86c"},"vehicle_type_id":"4","last_reported":1746032909,"current_range_meters":2800,"station_id":"ce4bhn12rcd13ifvqgqg","pricing_plan_id":"cebpf4jnsgd1na2vs0mg"},{"bike_id":"8487b0de-1d7e-4ea3-864b-f34a85c74189","system_id":"levelo_inurba_marseille","lat":43.29508,"lon":5.39397,"is_reserved":false,"is_disabled":false,"rental_uris":{"android":"levelo://app?vid=8487b0de-1d7e-4ea3-864b-f34a85c74189","ios":"levelo://app?vid=8487b0de-1d7e-4ea3-864b-f34a85c74189"},"vehicle_type_id":"4","last_reported":1746032909,"current_range_meters":2800,"station_id":"ce4bh292rcd13ifvqdf0","pricing_plan_id":"cebpf4jnsgd1na2vs0mg"},{"bike_id":"354d06b4-74e3-45dc-b39e-44ac430ba0a7","system_id":"levelo_inurba_marseille","lat":43.27562,"lon":5.38421,"is_reserved":false,"is_disabled":false,"rental_uris":{"android":"levelo://app?vid=354d06b4-74e3-45dc-b39e-44ac430ba0a7","ios":"levelo://app?vid=354d06b4-74e3-45dc-b39e-44ac430ba0a7"},"vehicle_type_id":"4","last_reported":1746032909,"current_range_meters":2000,"station_id":"ce4bhh92rcd13ifvqfi0","pricing_plan_id":"cebpf4jnsgd1na2vs0mg"},{"bike_id":"9114c77d-5807-4714-a886-cab8b05581f9","system_id":"levelo_inurba_marseille","lat":43.29866,"lon":5.39731,"is_reserved":false,"is_disabled":false,"rental_uris":{"android":"levelo://app?vid=9114c77d-5807-4714-a886-cab8b05581f9","ios":"levelo://app?vid=9114c77d-5807-4714-a886-cab8b05581f9"},"vehicle_type_id":"4","last_reported":1746032909,"current_range_meters":3200,"station_id":"ce4bh0h2rcd13ifvqd50","pricing_plan_id":"cebpf4jnsgd1na2vs0mg"},{"bike_id":"79fda94b-4b69-410c-aa95-9244b4291c40","system_id":"levelo_inurba_marseille","lat":43.28427,"lon":5.375135,"is_reserved":false,"is_disabled":false,"rental_uris":{"android":"levelo://app?vid=79fda94b-4b69-410c-aa95-9244b4291c40","ios":"levelo://app?vid=79fda94b-4b69-410c-aa95-9244b4291c40"},"vehicle_type_id":"4","last_reported":1746032909,"current_range_meters":3200,"station_id":"ce4bha12rcd13ifvqee0","pricing_plan_id":"cebpf4jnsgd1na2vs0mg"},{"bike_id":"f1e3c12a-02a3-4893-b9e1-1aacd74f3f49","system_id":"levelo_inurba_marseille","lat":43.32161,"lon":5.36822,"is_reserved":false,"is_disabled":true,"rental_uris":{"android":"levelo://app?vid=f1e3c12a-02a3-4893-b9e1-1aacd74f3f49","ios":"levelo://app?vid=f1e3c12a-02a3-4893-b9e1-1aacd74f3f49"},"vehicle_type_id":"4","last_reported":1746032909,"current_range_meters":3200,"station_id":"ce4bhrh2rcd13ifvqhug","pricing_plan_id":"cebpf4jnsgd1na2vs0mg"},{"bike_id":"d8594459-fd51-4544-8f8b-710ec0b2265b","system_id":"levelo_inurba_marseille","lat":43.28718,"lon":5.37932,"is_reserved":false,"is_disabled":false,"rental_uris":{"android":"levelo://app?vid=d8594459-fd51-4544-8f8b-710ec0b2265b","ios":"levelo://app?vid=d8594459-fd51-4544-8f8b-710ec0b2265b"},"vehicle_type_id":"4","last_reported":1746032909,"current_range_meters":3200,"station_id":"ce4bh9p2rcd13ifvqec0","pricing_plan_id":"cebpf4jnsgd1na2vs0mg"},{"bike_id":"421c6cc0-c240-49b4-9555-6044d3cc0613","system_id":"levelo_inurba_marseille","lat":43.29928,"lon":5.3654,"is_reserved":false,"is_disabled":true,"rental_uris":{"android":"levelo://app?vid=421c6cc0-c240-49b4-9555-6044d3cc0613","ios":"levelo://app?vid=421c6cc0-c240-49b4-9555-6044d3cc0613"},"vehicle_type_id":"4","last_reported":1746032909,"current_range_meters":3200,"station_id":"ce4bgm92rcd13ifvqbr0","pricing_plan_id":"cebpf4jnsgd1na2vs0mg"},{"bike_id":"4ad974b6-e73f-4c44-8c97-24cd97be3b1d","system_id":"levelo_inurba_marseille","lat":43.29794,"lon":5.40414,"is_reserved":false,"is_disabled":false,"rental_uris":{"android":"levelo://app?vid=4ad974b6-e73f-4c44-8c97-24cd97be3b1d","ios":"levelo://app?vid=4ad974b6-e73f-4c44-8c97-24cd97be3b1d"},"vehicle_type_id":"4","last_reported":1746032909,"current_range_meters":3200,"station_id":"ce4bh112rcd13ifvqd90","pricing_plan_id":"cebpf4jnsgd1na2vs0mg"},{"bike_id":"b6b47f80-b8d6-4da7-ade0-95683a1320d1","system_id":"levelo_inurba_marseille","lat":43.29577,"lon":5.39972,"is_reserved":false,"is_disabled":false,"rental_uris":{"android":"levelo://app?vid=b6b47f80-b8d6-4da7-ade0-95683a1320d1","ios":"levelo://app?vid=b6b47f80-b8d6-4da7-ade0-95683a1320d1"},"vehicle_type_id":"4","last_reported":1746032909,"current_range_meters":2800,"station_id":"ce4bh312rcd13ifvqdj0","pricing_plan_id":"cebpf4jnsgd1na2vs0mg"},{"bike_id":"b7d70280-3562-415a-adee-8bde10806ee3","system_id":"levelo_inurba_marseille","lat":43.21749,"lon":5.34603,"is_reserved":false,"is_disabled":false,"rental_uris":{"android":"levelo://app?vid=b7d70280-3562-415a-adee-8bde10806ee3","ios":"levelo://app?vid=b7d70280-3562-415a-adee-8bde10806ee3"},"vehicle_type_id":"4","last_reported":1746032909,"current_range_meters":3600,"station_id":"st_cvj6r9ubvosntc0bgbag","pricing_plan_id":"cebpf4jnsgd1na2vs0mg"},{"bike_id":"8fa54cf3-43fe-44e1-bf99-67613daa0974","system_id":"levelo_inurba_marseille","lat":43.28268,"lon":5.35057,"is_reserved":false,"is_disabled":false,"rental_uris":{"android":"levelo://app?vid=8fa54cf3-43fe-44e1-bf99-67613daa0974","ios":"levelo://app?vid=8fa54cf3-43fe-44e1-bf99-67613daa0974"},"vehicle_type_id":"4","last_reported":1746032909,"current_range_meters":3600,"station_id":"ce4bhbp2rcd13ifvqerg","pricing_plan_id":"cebpf4jnsgd1na2vs0mg"},{"bike_id":"3122997b-bca7-4800-9e71-2f1285b8448c","system_id":"levelo_inurba_marseille","lat":43.26228,"lon":5.40451,"is_reserved":false,"is_disabled":false,"rental_uris":{"android":"levelo://app?vid=3122997b-bca7-4800-9e71-2f1285b8448c","ios":"levelo://app?vid=3122997b-bca7-4800-9e71-2f1285b8448c"},"vehicle_type_id":"4","last_reported":1746032909,"current_range_meters":3600,"station_id":"ce4bhmh2rcd13ifvqgmg","pricing_plan_id":"cebpf4jnsgd1na2vs0mg"},{"bike_id":"8e8a6b1d-34a7-43f8-827c-21ed9e113281","system_id":"levelo_inurba_marseille","lat":43.301375,"lon":5.387819,"is_reserved":false,"is_disabled":false,"rental_uris":{"android":"levelo://app?vid=8e8a6b1d-34a7-43f8-827c-21ed9e113281","ios":"levelo://app?vid=8e8a6b1d-34a7-43f8-827c-21ed9e113281"},"vehicle_type_id":"4","last_reported":1746032909,"current_range_meters":3600,"station_id":"ce4bghh2rcd13ifvqb60","pricing_plan_id":"cebpf4jnsgd1na2vs0mg"},{"bike_id":"cf7ce0f7-19a8-4c89-85c7-9f6f3988326f","system_id":"levelo_inurba_marseille","lat":43.21751,"lon":5.346,"is_reserved":false,"is_disabled":false,"rental_uris":{"android":"levelo://app?vid=cf7ce0f7-19a8-4c89-85c7-9f6f3988326f","ios":"levelo://app?vid=cf7ce0f7-19a8-4c89-85c7-9f6f3988326f"},"vehicle_type_id":"4","last_reported":1746032909,"current_range_meters":3600,"station_id":"st_cvj6r9ubvosntc0bgbag","pricing_plan_id":"cebpf4jnsgd1na2vs0mg"},{"bike_id":"a3b1c72f-fcef-45ed-b586-661e4a473c35","system_id":"levelo_inurba_marseille","lat":43.304327,"lon":5.388868,"is_reserved":false,"is_disabled":false,"rental_uris":{"android":"levelo://app?vid=a3b1c72f-fcef-45ed-b586-661e4a473c35","ios":"levelo://app?vid=a3b1c72f-fcef-45ed-b586-661e4a473c35"},"vehicle_type_id":"4","last_reported":1746032909,"current_range_meters":3600,"station_id":"ce4bgk12rcd13ifvqbi0","pricing_plan_id":"cebpf4jnsgd1na2vs0mg"},{"bike_id":"d3f11f8c-2eb7-4c81-8f20-468c166e9a86","system_id":"levelo_inurba_marseille","lat":43.24995,"lon":5.38936,"is_reserved":false,"is_disabled":false,"rental_uris":{"android":"levelo://app?vid=d3f11f8c-2eb7-4c81-8f20-468c166e9a86","ios":"levelo://app?vid=d3f11f8c-2eb7-4c81-8f20-468c166e9a86"},"vehicle_type_id":"4","last_reported":1746032909,"current_range_meters":3600,"station_id":"ce4bhgp2rcd13ifvqfd0","pricing_plan_id":"cebpf4jnsgd1na2vs0mg"},{"bike_id":"fb7b4db7-8fd5-46e0-9541-02f16b5afb62","system_id":"levelo_inurba_marseille","lat":43.29254,"lon":5.40903,"is_reserved":false,"is_disabled":false,"rental_uris":{"android":"levelo://app?vid=fb7b4db7-8fd5-46e0-9541-02f16b5afb62","ios":"levelo://app?vid=fb7b4db7-8fd5-46e0-9541-02f16b5afb62"},"vehicle_type_id":"4","last_reported":1746032909,"current_range_meters":3600,"station_id":"ce4bh192rcd13ifvqdc0","pricing_plan_id":"cebpf4jnsgd1na2vs0mg"},{"bike_id":"ef17ca78-1a5b-4c91-8e64-c8f9565d3b0f","system_id":"levelo_inurba_marseille","lat":43.29715,"lon":5.37705,"is_reserved":false,"is_disabled":false,"rental_uris":{"android":"levelo://app?vid=ef17ca78-1a5b-4c91-8e64-c8f9565d3b0f","ios":"levelo://app?vid=ef17ca78-1a5b-4c91-8e64-c8f9565d3b0f"},"vehicle_type_id":"4","last_reported":1746032909,"current_range_meters":3600,"station_id":"ce4bgkh2rcd13ifvqbl0","pricing_plan_id":"cebpf4jnsgd1na2vs0mg"},{"bike_id":"1f4d03e1-12d0-4bd0-b262-48b737eec19f","system_id":"levelo_inurba_marseille","lat":43.27208,"lon":5.39181,"is_reserved":false,"is_disabled":false,"rental_uris":{"android":"levelo://app?vid=1f4d03e1-12d0-4bd0-b262-48b737eec19f","ios":"levelo://app?vid=1f4d03e1-12d0-4bd0-b262-48b737eec19f"},"vehicle_type_id":"4","last_reported":1746032909,"current_range_meters":3200,"station_id":"ce4bhhp2rcd13ifvqfm0","pricing_plan_id":"cebpf4jnsgd1na2vs0mg"},{"bike_id":"9cb8e950-53db-4842-a814-e81888ab6332","system_id":"levelo_inurba_marseille","lat":43.28617,"lon":5.351,"is_reserved":false,"is_disabled":false,"rental_uris":{"android":"levelo://app?vid=9cb8e950-53db-4842-a814-e81888ab6332","ios":"levelo://app?vid=9cb8e950-53db-4842-a814-e81888ab6332"},"vehicle_type_id":"4","last_reported":1746032909,"current_range_meters":4000,"station_id":"ce4bhch2rcd13ifvqeug","pricing_plan_id":"cebpf4jnsgd1na2vs0mg"},{"bike_id":"123279ac-5913-4b51-97c8-8ac5b692b68f","system_id":"levelo_inurba_marseille","lat":43.2884,"lon":5.39299,"is_reserved":false,"is_disabled":false,"rental_uris":{"android":"levelo://app?vid=123279ac-5913-4b51-97c8-8ac5b692b68f","ios":"levelo://app?vid=123279ac-5913-4b51-97c8-8ac5b692b68f"},"vehicle_type_id":"4","last_reported":1746032909,"current_range_meters":4000,"station_id":"ce4bh2p2rcd13ifvqdi0","pricing_plan_id":"cebpf4jnsgd1na2vs0mg"},{"bike_id":"efe3108e-102d-447a-9162-39596fcb474e","system_id":"levelo_inurba_marseille","lat":43.27172,"lon":5.41,"is_reserved":false,"is_disabled":false,"rental_uris":{"android":"levelo://app?vid=efe3108e-102d-447a-9162-39596fcb474e","ios":"levelo://app?vid=efe3108e-102d-447a-9162-39596fcb474e"},"vehicle_type_id":"4","last_reported":1746032909,"current_range_meters":4000,"station_id":"ce4bhl12rcd13ifvqgf0","pricing_plan_id":"cebpf4jnsgd1na2vs0mg"},{"bike_id":"5d037f9a-0430-4a45-b38f-32a7379ab6d4","system_id":"levelo_inurba_marseille","lat":43.27994,"lon":5.41671,"is_reserved":false,"is_disabled":false,"rental_uris":{"android":"levelo://app?vid=5d037f9a-0430-4a45-b38f-32a7379ab6d4","ios":"levelo://app?vid=5d037f9a-0430-4a45-b38f-32a7379ab6d4"},"vehicle_type_id":"4","last_reported":1746032909,"current_range_meters":4000,"station_id":"ce4bho12rcd13ifvqh1g","pricing_plan_id":"cebpf4jnsgd1na2vs0mg"},{"bike_id":"7003e1d5-1463-4fa2-b5ec-2ff4ec6f5e3f","system_id":"levelo_inurba_marseille","lat":43.31341,"lon":5.36709,"is_reserved":false,"is_disabled":true,"rental_uris":{"android":"levelo://app?vid=7003e1d5-1463-4fa2-b5ec-2ff4ec6f5e3f","ios":"levelo://app?vid=7003e1d5-1463-4fa2-b5ec-2ff4ec6f5e3f"},"vehicle_type_id":"4","last_reported":1746032909,"current_range_meters":4000,"station_id":"ce4bgr92rcd13ifvqc6g","pricing_plan_id":"cebpf4jnsgd1na2vs0mg"},{"bike_id":"7edb3a6e-6020-4047-859f-4c81ec458d86","system_id":"levelo_inurba_marseille","lat":43.32996,"lon":5.39018,"is_reserved":false,"is_disabled":false,"rental_uris":{"android":"levelo://app?vid=7edb3a6e-6020-4047-859f-4c81ec458d86","ios":"levelo://app?vid=7edb3a6e-6020-4047-859f-4c81ec458d86"},"vehicle_type_id":"4","last_reported":1746032909,"current_range_meters":4400,"station_id":"ce4bhr92rcd13ifvqhrg","pricing_plan_id":"cebpf4jnsgd1na2vs0mg"},{"bike_id":"11ff5840-93f1-4bae-b875-0903f256b0fb","system_id":"levelo_inurba_marseille","lat":43.30125,"lon":5.39861,"is_reserved":false,"is_disabled":false,"rental_uris":{"android":"levelo://app?vid=11ff5840-93f1-4bae-b875-0903f256b0fb","ios":"levelo://app?vid=11ff5840-93f1-4bae-b875-0903f256b0fb"},"vehicle_type_id":"4","last_reported":1746032909,"current_range_meters":4000,"station_id":"ce4bh0h2rcd13ifvqd40","pricing_plan_id":"cebpf4jnsgd1na2vs0mg"},{"bike_id":"2fbb0d4c-af7f-436d-a88c-6837bf0f0b09","system_id":"levelo_inurba_marseille","lat":43.28263,"lon":5.35059,"is_reserved":false,"is_disabled":false,"rental_uris":{"android":"levelo://app?vid=2fbb0d4c-af7f-436d-a88c-6837bf0f0b09","ios":"levelo://app?vid=2fbb0d4c-af7f-436d-a88c-6837bf0f0b09"},"vehicle_type_id":"4","last_reported":1746032909,"current_range_meters":4400,"station_id":"ce4bhbp2rcd13ifvqerg","pricing_plan_id":"cebpf4jnsgd1na2vs0mg"},{"bike_id":"ec32e95d-2694-41c4-8519-960733b017dd","system_id":"levelo_inurba_marseille","lat":43.30797,"lon":5.38159,"is_reserved":false,"is_disabled":false,"rental_uris":{"android":"levelo://app?vid=ec32e95d-2694-41c4-8519-960733b017dd","ios":"levelo://app?vid=ec32e95d-2694-41c4-8519-960733b017dd"},"vehicle_type_id":"4","last_reported":1746032909,"current_range_meters":4400,"station_id":"ce4bgt12rcd13ifvqce0","pricing_plan_id":"cebpf4jnsgd1na2vs0mg"},{"bike_id":"057a09a3-cf71-42aa-97b7-f81971b4b852","system_id":"levelo_inurba_marseille","lat":43.28984,"lon":5.37835,"is_reserved":false,"is_disabled":false,"rental_uris":{"android":"levelo://app?vid=057a09a3-cf71-42aa-97b7-f81971b4b852","ios":"levelo://app?vid=057a09a3-cf71-42aa-97b7-f81971b4b852"},"vehicle_type_id":"4","last_reported":1746032909,"current_range_meters":4400,"station_id":"ce4bh9p2rcd13ifvqed0","pricing_plan_id":"cebpf4jnsgd1na2vs0mg"},{"bike_id":"beccd19b-2f60-41f2-be89-e5b67b89f53e","system_id":"levelo_inurba_marseille","lat":43.30733,"lon":5.42445,"is_reserved":false,"is_disabled":false,"rental_uris":{"android":"levelo://app?vid=beccd19b-2f60-41f2-be89-e5b67b89f53e","ios":"levelo://app?vid=beccd19b-2f60-41f2-be89-e5b67b89f53e"},"vehicle_type_id":"4","last_reported":1746032909,"current_range_meters":4400,"station_id":"st_cvj6ca6bvosntc0bfgr0","pricing_plan_id":"cebpf4jnsgd1na2vs0mg"},{"bike_id":"eb6be0e1-05e6-4859-8271-a263aaacbe09","system_id":"levelo_inurba_marseille","lat":43.28984,"lon":5.37833,"is_reserved":false,"is_disabled":false,"rental_uris":{"android":"levelo://app?vid=eb6be0e1-05e6-4859-8271-a263aaacbe09","ios":"levelo://app?vid=eb6be0e1-05e6-4859-8271-a263aaacbe09"},"vehicle_type_id":"4","last_reported":1746032909,"current_range_meters":4400,"station_id":"ce4bh9p2rcd13ifvqed0","pricing_plan_id":"cebpf4jnsgd1na2vs0mg"},{"bike_id":"34773d26-3e23-4757-aa5d-f06eae0ab0ee","system_id":"levelo_inurba_marseille","lat":43.28941,"lon":5.3664,"is_reserved":false,"is_disabled":false,"rental_uris":{"android":"levelo://app?vid=34773d26-3e23-4757-aa5d-f06eae0ab0ee","ios":"levelo://app?vid=34773d26-3e23-4757-aa5d-f06eae0ab0ee"},"vehicle_type_id":"4","last_reported":1746032909,"current_range_meters":4400,"station_id":"ce4bhap2rcd13ifvqek0","pricing_plan_id":"cebpf4jnsgd1na2vs0mg"},{"bike_id":"d7a54add-76df-48e9-99fe-8b7a0c13b0e9","system_id":"levelo_inurba_marseille","lat":43.29937,"lon":5.36549,"is_reserved":false,"is_disabled":false,"rental_uris":{"android":"levelo://app?vid=d7a54add-76df-48e9-99fe-8b7a0c13b0e9","ios":"levelo://app?vid=d7a54add-76df-48e9-99fe-8b7a0c13b0e9"},"vehicle_type_id":"4","last_reported":1746032909,"current_range_meters":4400,"station_id":"ce4bgm92rcd13ifvqbr0","pricing_plan_id":"cebpf4jnsgd1na2vs0mg"},{"bike_id":"c94aac50-503b-4dce-bf79-ec14c87035f2","system_id":"levelo_inurba_marseille","lat":43.26558,"lon":5.37285,"is_reserved":false,"is_disabled":false,"rental_uris":{"android":"levelo://app?vid=c94aac50-503b-4dce-bf79-ec14c87035f2","ios":"levelo://app?vid=c94aac50-503b-4dce-bf79-ec14c87035f2"},"vehicle_type_id":"4","last_reported":1746032909,"current_range_meters":4800,"station_id":"ce4bhg12rcd13ifvqf70","pricing_plan_id":"cebpf4jnsgd1na2vs0mg"},{"bike_id":"c638f09f-1a71-45cf-9c20-99488c5b2a6e","system_id":"levelo_inurba_marseille","lat":43.24805,"lon":5.37452,"is_reserved":false,"is_disabled":false,"rental_uris":{"android":"levelo://app?vid=c638f09f-1a71-45cf-9c20-99488c5b2a6e","ios":"levelo://app?vid=c638f09f-1a71-45cf-9c20-99488c5b2a6e"},"vehicle_type_id":"4","last_reported":1746032909,"current_range_meters":4800,"station_id":"ce4bhgh2rcd13ifvqfb0","pricing_plan_id":"cebpf4jnsgd1na2vs0mg"},{"bike_id":"c3ccb954-ced3-4163-9867-7cfff0ce2aa6","system_id":"levelo_inurba_marseille","lat":43.31498,"lon":5.37187,"is_reserved":false,"is_disabled":false,"rental_uris":{"android":"levelo://app?vid=c3ccb954-ced3-4163-9867-7cfff0ce2aa6","ios":"levelo://app?vid=c3ccb954-ced3-4163-9867-7cfff0ce2aa6"},"vehicle_type_id":"4","last_reported":1746032909,"current_range_meters":4800,"station_id":"","pricing_plan_id":"cebpf4jnsgd1na2vs0mg"},{"bike_id":"18f85f3e-d187-4724-bcac-7774bf71a783","system_id":"levelo_inurba_marseille","lat":43.224991,"lon":5.348042,"is_reserved":false,"is_disabled":false,"rental_uris":{"android":"levelo://app?vid=18f85f3e-d187-4724-bcac-7774bf71a783","ios":"levelo://app?vid=18f85f3e-d187-4724-bcac-7774bf71a783"},"vehicle_type_id":"4","last_reported":1746032909,"current_range_meters":4800,"station_id":"","pricing_plan_id":"cebpf4jnsgd1na2vs0mg"},{"bike_id":"df6f5dce-b186-4f7e-abf6-c5f5924e9d03","system_id":"levelo_inurba_marseille","lat":43.29419,"lon":5.3863,"is_reserved":false,"is_disabled":false,"rental_uris":{"android":"levelo://app?vid=df6f5dce-b186-4f7e-abf6-c5f5924e9d03","ios":"levelo://app?vid=df6f5dce-b186-4f7e-abf6-c5f5924e9d03"},"vehicle_type_id":"4","last_reported":1746032909,"current_range_meters":4800,"station_id":"ce4bh2h2rcd13ifvqdh0","pricing_plan_id":"cebpf4jnsgd1na2vs0mg"},{"bike_id":"6f7fa6f8-2a48-410e-b9af-1f745b9009fe","system_id":"levelo_inurba_marseille","lat":43.30721,"lon":5.37142,"is_reserved":false,"is_disabled":false,"rental_uris":{"android":"levelo://app?vid=6f7fa6f8-2a48-410e-b9af-1f745b9009fe","ios":"levelo://app?vid=6f7fa6f8-2a48-410e-b9af-1f745b9009fe"},"vehicle_type_id":"4","last_reported":1746032909,"current_range_meters":4800,"station_id":"","pricing_plan_id":"cebpf4jnsgd1na2vs0mg"},{"bike_id":"25ec8c52-a9a7-4619-bc6c-a0c278833d2d","system_id":"levelo_inurba_marseille","lat":43.29046,"lon":5.35912,"is_reserved":false,"is_disabled":false,"rental_uris":{"android":"levelo://app?vid=25ec8c52-a9a7-4619-bc6c-a0c278833d2d","ios":"levelo://app?vid=25ec8c52-a9a7-4619-bc6c-a0c278833d2d"},"vehicle_type_id":"4","last_reported":1746032909,"current_range_meters":4800,"station_id":"ce4bha92rcd13ifvqeg0","pricing_plan_id":"cebpf4jnsgd1na2vs0mg"},{"bike_id":"7a0d5ca9-5e85-47d8-a0a9-5402e73152f3","system_id":"levelo_inurba_marseille","lat":43.31714,"lon":5.43708,"is_reserved":false,"is_disabled":false,"rental_uris":{"android":"levelo://app?vid=7a0d5ca9-5e85-47d8-a0a9-5402e73152f3","ios":"levelo://app?vid=7a0d5ca9-5e85-47d8-a0a9-5402e73152f3"},"vehicle_type_id":"4","last_reported":1746032909,"current_range_meters":4400,"station_id":"ce4bhp92rcd13ifvqhcg","pricing_plan_id":"cebpf4jnsgd1na2vs0mg"},{"bike_id":"4189dd8b-c99f-49f3-9ea2-836f596421b1","system_id":"levelo_inurba_marseille","lat":43.28479,"lon":5.38416,"is_reserved":false,"is_disabled":false,"rental_uris":{"android":"levelo://app?vid=4189dd8b-c99f-49f3-9ea2-836f596421b1","ios":"levelo://app?vid=4189dd8b-c99f-49f3-9ea2-836f596421b1"},"vehicle_type_id":"4","last_reported":1746032909,"current_range_meters":5600,"station_id":"ce4bh512rcd13ifvqe3g","pricing_plan_id":"cebpf4jnsgd1na2vs0mg"},{"bike_id":"3ba8a05c-1983-407b-9099-4600385dc3fb","system_id":"levelo_inurba_marseille","lat":43.255676,"lon":5.376052,"is_reserved":false,"is_disabled":false,"rental_uris":{"android":"levelo://app?vid=3ba8a05c-1983-407b-9099-4600385dc3fb","ios":"levelo://app?vid=3ba8a05c-1983-407b-9099-4600385dc3fb"},"vehicle_type_id":"4","last_reported":1746032909,"current_range_meters":5600,"station_id":"ce4bhhh2rcd13ifvqfk0","pricing_plan_id":"cebpf4jnsgd1na2vs0mg"},{"bike_id":"7a54b9a6-a938-40ab-8044-bd38983e03d8","system_id":"levelo_inurba_marseille","lat":43.2841,"lon":5.37515,"is_reserved":false,"is_disabled":false,"rental_uris":{"android":"levelo://app?vid=7a54b9a6-a938-40ab-8044-bd38983e03d8","ios":"levelo://app?vid=7a54b9a6-a938-40ab-8044-bd38983e03d8"},"vehicle_type_id":"4","last_reported":1746032909,"current_range_meters":5600,"station_id":"ce4bh412rcd13ifvqds0","pricing_plan_id":"cebpf4jnsgd1na2vs0mg"},{"bike_id":"f505fbb0-9c41-4ed7-8507-510f011d1069","system_id":"levelo_inurba_marseille","lat":43.28459,"lon":5.35893,"is_reserved":false,"is_disabled":false,"rental_uris":{"android":"levelo://app?vid=f505fbb0-9c41-4ed7-8507-510f011d1069","ios":"levelo://app?vid=f505fbb0-9c41-4ed7-8507-510f011d1069"},"vehicle_type_id":"4","last_reported":1746032909,"current_range_meters":5600,"station_id":"ce4bhah2rcd13ifvqei0","pricing_plan_id":"cebpf4jnsgd1na2vs0mg"},{"bike_id":"7df0835c-82d6-4f4f-91ae-6be214f2179b","system_id":"levelo_inurba_marseille","lat":43.2804,"lon":5.36948,"is_reserved":false,"is_disabled":false,"rental_uris":{"android":"levelo://app?vid=7df0835c-82d6-4f4f-91ae-6be214f2179b","ios":"levelo://app?vid=7df0835c-82d6-4f4f-91ae-6be214f2179b"},"vehicle_type_id":"4","last_reported":1746032909,"current_range_meters":6000,"station_id":"ce4bha12rcd13ifvqef0","pricing_plan_id":"cebpf4jnsgd1na2vs0mg"},{"bike_id":"3e3c2bfd-6722-4de5-81e6-79cb32cd97bf","system_id":"levelo_inurba_marseille","lat":43.28618,"lon":5.35105,"is_reserved":false,"is_disabled":false,"rental_uris":{"android":"levelo://app?vid=3e3c2bfd-6722-4de5-81e6-79cb32cd97bf","ios":"levelo://app?vid=3e3c2bfd-6722-4de5-81e6-79cb32cd97bf"},"vehicle_type_id":"4","last_reported":1746032909,"current_range_meters":6000,"station_id":"ce4bhch2rcd13ifvqeug","pricing_plan_id":"cebpf4jnsgd1na2vs0mg"},{"bike_id":"f99f6efd-3242-4258-9c72-8d21e08d6dbf","system_id":"levelo_inurba_marseille","lat":43.30797,"lon":5.38167,"is_reserved":false,"is_disabled":false,"rental_uris":{"android":"levelo://app?vid=f99f6efd-3242-4258-9c72-8d21e08d6dbf","ios":"levelo://app?vid=f99f6efd-3242-4258-9c72-8d21e08d6dbf"},"vehicle_type_id":"4","last_reported":1746032909,"current_range_meters":6000,"station_id":"ce4bgt12rcd13ifvqce0","pricing_plan_id":"cebpf4jnsgd1na2vs0mg"},{"bike_id":"f96d940a-dd1a-4b44-b1f5-280c2f20a4a4","system_id":"levelo_inurba_marseille","lat":43.27372,"lon":5.36261,"is_reserved":false,"is_disabled":false,"rental_uris":{"android":"levelo://app?vid=f96d940a-dd1a-4b44-b1f5-280c2f20a4a4","ios":"levelo://app?vid=f96d940a-dd1a-4b44-b1f5-280c2f20a4a4"},"vehicle_type_id":"4","last_reported":1746032909,"current_range_meters":6000,"station_id":"ce4bhbh2rcd13ifvqeo0","pricing_plan_id":"cebpf4jnsgd1na2vs0mg"},{"bike_id":"3295ec82-31d9-428d-b442-2b01d6f6f613","system_id":"levelo_inurba_marseille","lat":43.31685,"lon":5.4047,"is_reserved":false,"is_disabled":false,"rental_uris":{"android":"levelo://app?vid=3295ec82-31d9-428d-b442-2b01d6f6f613","ios":"levelo://app?vid=3295ec82-31d9-428d-b442-2b01d6f6f613"},"vehicle_type_id":"4","last_reported":1746032909,"current_range_meters":6000,"station_id":"ce4bh012rcd13ifvqd00","pricing_plan_id":"cebpf4jnsgd1na2vs0mg"},{"bike_id":"bd5b5bda-693b-4a95-902b-c534a3a72c2a","system_id":"levelo_inurba_marseille","lat":43.27171,"lon":5.40998,"is_reserved":false,"is_disabled":false,"rental_uris":{"android":"levelo://app?vid=bd5b5bda-693b-4a95-902b-c534a3a72c2a","ios":"levelo://app?vid=bd5b5bda-693b-4a95-902b-c534a3a72c2a"},"vehicle_type_id":"4","last_reported":1746032909,"current_range_meters":5600,"station_id":"ce4bhl12rcd13ifvqgf0","pricing_plan_id":"cebpf4jnsgd1na2vs0mg"},{"bike_id":"4938e849-7ea9-4ac8-a30c-a139bec6febb","system_id":"levelo_inurba_marseille","lat":43.282687,"lon":5.35057,"is_reserved":false,"is_disabled":false,"rental_uris":{"android":"levelo://app?vid=4938e849-7ea9-4ac8-a30c-a139bec6febb","ios":"levelo://app?vid=4938e849-7ea9-4ac8-a30c-a139bec6febb"},"vehicle_type_id":"4","last_reported":1746032909,"current_range_meters":6000,"station_id":"ce4bhbp2rcd13ifvqerg","pricing_plan_id":"cebpf4jnsgd1na2vs0mg"},{"bike_id":"167af554-b6cd-4e69-8212-834c04435484","system_id":"levelo_inurba_marseille","lat":43.25501,"lon":5.37656,"is_reserved":false,"is_disabled":false,"rental_uris":{"android":"levelo://app?vid=167af554-b6cd-4e69-8212-834c04435484","ios":"levelo://app?vid=167af554-b6cd-4e69-8212-834c04435484"},"vehicle_type_id":"4","last_reported":1746032909,"current_range_meters":6400,"station_id":"ce4bhh12rcd13ifvqff0","pricing_plan_id":"cebpf4jnsgd1na2vs0mg"},{"bike_id":"ed6b6f32-e6fe-4e79-94ed-2b09cf98d1ff","system_id":"levelo_inurba_marseille","lat":43.28938,"lon":5.3664,"is_reserved":false,"is_disabled":false,"rental_uris":{"android":"levelo://app?vid=ed6b6f32-e6fe-4e79-94ed-2b09cf98d1ff","ios":"levelo://app?vid=ed6b6f32-e6fe-4e79-94ed-2b09cf98d1ff"},"vehicle_type_id":"4","last_reported":1746032909,"current_range_meters":6400,"station_id":"ce4bhap2rcd13ifvqek0","pricing_plan_id":"cebpf4jnsgd1na2vs0mg"},{"bike_id":"e3d306e1-6ad5-4871-a7bc-80f4470940b7","system_id":"levelo_inurba_marseille","lat":43.28943,"lon":5.36386,"is_reserved":false,"is_disabled":false,"rental_uris":{"android":"levelo://app?vid=e3d306e1-6ad5-4871-a7bc-80f4470940b7","ios":"levelo://app?vid=e3d306e1-6ad5-4871-a7bc-80f4470940b7"},"vehicle_type_id":"4","last_reported":1746032909,"current_range_meters":6800,"station_id":"ce4bhc92rcd13ifvqetg","pricing_plan_id":"cebpf4jnsgd1na2vs0mg"},{"bike_id":"4c530ea0-1869-4c51-a0ac-8df5852da78a","system_id":"levelo_inurba_marseille","lat":43.28258,"lon":5.35063,"is_reserved":false,"is_disabled":false,"rental_uris":{"android":"levelo://app?vid=4c530ea0-1869-4c51-a0ac-8df5852da78a","ios":"levelo://app?vid=4c530ea0-1869-4c51-a0ac-8df5852da78a"},"vehicle_type_id":"4","last_reported":1746032909,"current_range_meters":6400,"station_id":"ce4bhbp2rcd13ifvqerg","pricing_plan_id":"cebpf4jnsgd1na2vs0mg"},{"bike_id":"a33f6c74-59ff-4a52-8333-8680cee33806","system_id":"levelo_inurba_marseille","lat":43.243907,"lon":5.370915,"is_reserved":false,"is_disabled":false,"rental_uris":{"android":"levelo://app?vid=a33f6c74-59ff-4a52-8333-8680cee33806","ios":"levelo://app?vid=a33f6c74-59ff-4a52-8333-8680cee33806"},"vehicle_type_id":"4","last_reported":1746032909,"current_range_meters":6400,"station_id":"ce4bhhh2rcd13ifvqfk0","pricing_plan_id":"cebpf4jnsgd1na2vs0mg"},{"bike_id":"aaaf3b4a-fb9d-4fed-8b5a-dc0de6443965","system_id":"levelo_inurba_marseille","lat":43.289962,"lon":5.356114,"is_reserved":false,"is_disabled":false,"rental_uris":{"android":"levelo://app?vid=aaaf3b4a-fb9d-4fed-8b5a-dc0de6443965","ios":"levelo://app?vid=aaaf3b4a-fb9d-4fed-8b5a-dc0de6443965"},"vehicle_type_id":"4","last_reported":1746032909,"current_range_meters":6800,"station_id":"ce4bhb92rcd13ifvqen0","pricing_plan_id":"cebpf4jnsgd1na2vs0mg"},{"bike_id":"01e18009-5683-49ec-8c28-7f347de097e8","system_id":"levelo_inurba_marseille","lat":43.30652,"lon":5.40042,"is_reserved":false,"is_disabled":false,"rental_uris":{"android":"levelo://app?vid=01e18009-5683-49ec-8c28-7f347de097e8","ios":"levelo://app?vid=01e18009-5683-49ec-8c28-7f347de097e8"},"vehicle_type_id":"4","last_reported":1746032909,"current_range_meters":6800,"station_id":"","pricing_plan_id":"cebpf4jnsgd1na2vs0mg"},{"bike_id":"e974a1cc-0bf1-4fd6-858a-0f7033c071bc","system_id":"levelo_inurba_marseille","lat":43.2971,"lon":5.37708,"is_reserved":false,"is_disabled":false,"rental_uris":{"android":"levelo://app?vid=e974a1cc-0bf1-4fd6-858a-0f7033c071bc","ios":"levelo://app?vid=e974a1cc-0bf1-4fd6-858a-0f7033c071bc"},"vehicle_type_id":"4","last_reported":1746032909,"current_range_meters":6400,"station_id":"ce4bgkh2rcd13ifvqbl0","pricing_plan_id":"cebpf4jnsgd1na2vs0mg"},{"bike_id":"65b2c87d-5809-45aa-a364-ac35170591b8","system_id":"levelo_inurba_marseille","lat":43.30952,"lon":5.39026,"is_reserved":false,"is_disabled":true,"rental_uris":{"android":"levelo://app?vid=65b2c87d-5809-45aa-a364-ac35170591b8","ios":"levelo://app?vid=65b2c87d-5809-45aa-a364-ac35170591b8"},"vehicle_type_id":"4","last_reported":1746032909,"current_range_meters":6800,"station_id":"ce4bgup2rcd13ifvqco0","pricing_plan_id":"cebpf4jnsgd1na2vs0mg"},{"bike_id":"b6367f7c-ac25-4bb5-9b88-071eba731590","system_id":"levelo_inurba_marseille","lat":43.28154,"lon":5.42651,"is_reserved":false,"is_disabled":false,"rental_uris":{"android":"levelo://app?vid=b6367f7c-ac25-4bb5-9b88-071eba731590","ios":"levelo://app?vid=b6367f7c-ac25-4bb5-9b88-071eba731590"},"vehicle_type_id":"4","last_reported":1746032909,"current_range_meters":7200,"station_id":"ce4bhnh2rcd13ifvqgug","pricing_plan_id":"cebpf4jnsgd1na2vs0mg"},{"bike_id":"4d9ca0e7-97d1-4f58-b4e3-667acd434690","system_id":"levelo_inurba_marseille","lat":43.29933,"lon":5.36543,"is_reserved":false,"is_disabled":false,"rental_uris":{"android":"levelo://app?vid=4d9ca0e7-97d1-4f58-b4e3-667acd434690","ios":"levelo://app?vid=4d9ca0e7-97d1-4f58-b4e3-667acd434690"},"vehicle_type_id":"4","last_reported":1746032909,"current_range_meters":7200,"station_id":"ce4bgm92rcd13ifvqbr0","pricing_plan_id":"cebpf4jnsgd1na2vs0mg"},{"bike_id":"af77c474-44b7-488f-8f22-36193a2e3712","system_id":"levelo_inurba_marseille","lat":43.31275,"lon":5.4018,"is_reserved":false,"is_disabled":false,"rental_uris":{"android":"levelo://app?vid=af77c474-44b7-488f-8f22-36193a2e3712","ios":"levelo://app?vid=af77c474-44b7-488f-8f22-36193a2e3712"},"vehicle_type_id":"4","last_reported":1746032909,"current_range_meters":6800,"station_id":"ce4bh092rcd13ifvqd30","pricing_plan_id":"cebpf4jnsgd1na2vs0mg"},{"bike_id":"b36090d5-ceb8-4938-a2eb-651dbd307ff2","system_id":"levelo_inurba_marseille","lat":43.29261,"lon":5.40905,"is_reserved":false,"is_disabled":false,"rental_uris":{"android":"levelo://app?vid=b36090d5-ceb8-4938-a2eb-651dbd307ff2","ios":"levelo://app?vid=b36090d5-ceb8-4938-a2eb-651dbd307ff2"},"vehicle_type_id":"4","last_reported":1746032909,"current_range_meters":8000,"station_id":"ce4bh192rcd13ifvqdc0","pricing_plan_id":"cebpf4jnsgd1na2vs0mg"},{"bike_id":"91a29342-7eea-412f-9a12-23e17044bb80","system_id":"levelo_inurba_marseille","lat":43.28473,"lon":5.38419,"is_reserved":false,"is_disabled":true,"rental_uris":{"android":"levelo://app?vid=91a29342-7eea-412f-9a12-23e17044bb80","ios":"levelo://app?vid=91a29342-7eea-412f-9a12-23e17044bb80"},"vehicle_type_id":"4","last_reported":1746032909,"current_range_meters":8000,"station_id":"ce4bh512rcd13ifvqe3g","pricing_plan_id":"cebpf4jnsgd1na2vs0mg"},{"bike_id":"5aab9f30-facd-4756-bb97-b1517632a9c1","system_id":"levelo_inurba_marseille","lat":43.28094,"lon":5.37843,"is_reserved":false,"is_disabled":false,"rental_uris":{"android":"levelo://app?vid=5aab9f30-facd-4756-bb97-b1517632a9c1","ios":"levelo://app?vid=5aab9f30-facd-4756-bb97-b1517632a9c1"},"vehicle_type_id":"4","last_reported":1746032909,"current_range_meters":8000,"station_id":"ce4bha12rcd13ifvqee0","pricing_plan_id":"cebpf4jnsgd1na2vs0mg"},{"bike_id":"3d40daaf-a0fa-40ce-8872-2b084d61588b","system_id":"levelo_inurba_marseille","lat":43.29802,"lon":5.3812,"is_reserved":false,"is_disabled":true,"rental_uris":{"android":"levelo://app?vid=3d40daaf-a0fa-40ce-8872-2b084d61588b","ios":"levelo://app?vid=3d40daaf-a0fa-40ce-8872-2b084d61588b"},"vehicle_type_id":"4","last_reported":1746032909,"current_range_meters":8000,"station_id":"ce4bgip2rcd13ifvqbb0","pricing_plan_id":"cebpf4jnsgd1na2vs0mg"},{"bike_id":"cb1beb45-f5d1-415f-ae0d-d1e624219c50","system_id":"levelo_inurba_marseille","lat":43.24187,"lon":5.36423,"is_reserved":false,"is_disabled":false,"rental_uris":{"android":"levelo://app?vid=cb1beb45-f5d1-415f-ae0d-d1e624219c50","ios":"levelo://app?vid=cb1beb45-f5d1-415f-ae0d-d1e624219c50"},"vehicle_type_id":"4","last_reported":1746032909,"current_range_meters":8000,"station_id":"cpo36qri1sfpv3e86is0","pricing_plan_id":"cebpf4jnsgd1na2vs0mg"},{"bike_id":"5b1865d3-eaf2-48f5-80d9-3e95e4fb6cee","system_id":"levelo_inurba_marseille","lat":43.28948,"lon":5.36413,"is_reserved":false,"is_disabled":false,"rental_uris":{"android":"levelo://app?vid=5b1865d3-eaf2-48f5-80d9-3e95e4fb6cee","ios":"levelo://app?vid=5b1865d3-eaf2-48f5-80d9-3e95e4fb6cee"},"vehicle_type_id":"4","last_reported":1746032909,"current_range_meters":7200,"station_id":"ce4bhc92rcd13ifvqetg","pricing_plan_id":"cebpf4jnsgd1na2vs0mg"},{"bike_id":"99aacb10-8f89-4408-a365-7b63e41822a1","system_id":"levelo_inurba_marseille","lat":43.284107,"lon":5.375124,"is_reserved":false,"is_disabled":false,"rental_uris":{"android":"levelo://app?vid=99aacb10-8f89-4408-a365-7b63e41822a1","ios":"levelo://app?vid=99aacb10-8f89-4408-a365-7b63e41822a1"},"vehicle_type_id":"4","last_reported":1746032909,"current_range_meters":8400,"station_id":"ce4bh412rcd13ifvqds0","pricing_plan_id":"cebpf4jnsgd1na2vs0mg"},{"bike_id":"d433a1bd-836c-42c3-b096-00b637439f7e","system_id":"levelo_inurba_marseille","lat":43.31686,"lon":5.40472,"is_reserved":false,"is_disabled":false,"rental_uris":{"android":"levelo://app?vid=d433a1bd-836c-42c3-b096-00b637439f7e","ios":"levelo://app?vid=d433a1bd-836c-42c3-b096-00b637439f7e"},"vehicle_type_id":"4","last_reported":1746032909,"current_range_meters":8000,"station_id":"ce4bh012rcd13ifvqd00","pricing_plan_id":"cebpf4jnsgd1na2vs0mg"},{"bike_id":"1af0b074-a47e-41dd-8b3a-ed122abc7afb","system_id":"levelo_inurba_marseille","lat":43.28941,"lon":5.36616,"is_reserved":false,"is_disabled":false,"rental_uris":{"android":"levelo://app?vid=1af0b074-a47e-41dd-8b3a-ed122abc7afb","ios":"levelo://app?vid=1af0b074-a47e-41dd-8b3a-ed122abc7afb"},"vehicle_type_id":"4","last_reported":1746032909,"current_range_meters":8400,"station_id":"ce4bhap2rcd13ifvqek0","pricing_plan_id":"cebpf4jnsgd1na2vs0mg"},{"bike_id":"64c8d3ea-9c6f-455a-b2d7-00a036fae7a4","system_id":"levelo_inurba_marseille","lat":43.26846,"lon":5.39168,"is_reserved":false,"is_disabled":false,"rental_uris":{"android":"levelo://app?vid=64c8d3ea-9c6f-455a-b2d7-00a036fae7a4","ios":"levelo://app?vid=64c8d3ea-9c6f-455a-b2d7-00a036fae7a4"},"vehicle_type_id":"4","last_reported":1746032909,"current_range_meters":8400,"station_id":"","pricing_plan_id":"cebpf4jnsgd1na2vs0mg"},{"bike_id":"99f2ebef-c6d2-4b61-8741-10c3a7b896dc","system_id":"levelo_inurba_marseille","lat":43.29279,"lon":5.4012,"is_reserved":false,"is_disabled":false,"rental_uris":{"android":"levelo://app?vid=99f2ebef-c6d2-4b61-8741-10c3a7b896dc","ios":"levelo://app?vid=99f2ebef-c6d2-4b61-8741-10c3a7b896dc"},"vehicle_type_id":"4","last_reported":1746032909,"current_range_meters":8400,"station_id":"ce4bh312rcd13ifvqdk0","pricing_plan_id":"cebpf4jnsgd1na2vs0mg"},{"bike_id":"96d8fc32-b347-4dde-8532-70e7917ccde6","system_id":"levelo_inurba_marseille","lat":43.30606,"lon":5.3723,"is_reserved":false,"is_disabled":true,"rental_uris":{"android":"levelo://app?vid=96d8fc32-b347-4dde-8532-70e7917ccde6","ios":"levelo://app?vid=96d8fc32-b347-4dde-8532-70e7917ccde6"},"vehicle_type_id":"4","last_reported":1746032909,"current_range_meters":8400,"station_id":"ce4bgqh2rcd13ifvqc4g","pricing_plan_id":"cebpf4jnsgd1na2vs0mg"},{"bike_id":"12416072-b3cd-4a36-ad55-4e5886fa5202","system_id":"levelo_inurba_marseille","lat":43.27437,"lon":5.39406,"is_reserved":false,"is_disabled":false,"rental_uris":{"android":"levelo://app?vid=12416072-b3cd-4a36-ad55-4e5886fa5202","ios":"levelo://app?vid=12416072-b3cd-4a36-ad55-4e5886fa5202"},"vehicle_type_id":"4","last_reported":1746032909,"current_range_meters":8400,"station_id":"ce4bhdp2rcd13ifvqf20","pricing_plan_id":"cebpf4jnsgd1na2vs0mg"},{"bike_id":"2f74f839-8cd3-4963-a189-0620120955cd","system_id":"levelo_inurba_marseille","lat":43.31175,"lon":5.3869,"is_reserved":false,"is_disabled":false,"rental_uris":{"android":"levelo://app?vid=2f74f839-8cd3-4963-a189-0620120955cd","ios":"levelo://app?vid=2f74f839-8cd3-4963-a189-0620120955cd"},"vehicle_type_id":"4","last_reported":1746032909,"current_range_meters":8400,"station_id":"ce4bgv12rcd13ifvqcp0","pricing_plan_id":"cebpf4jnsgd1na2vs0mg"},{"bike_id":"a71d7270-316f-42ba-b504-c05dc803dc40","system_id":"levelo_inurba_marseille","lat":43.25489,"lon":5.37673,"is_reserved":false,"is_disabled":false,"rental_uris":{"android":"levelo://app?vid=a71d7270-316f-42ba-b504-c05dc803dc40","ios":"levelo://app?vid=a71d7270-316f-42ba-b504-c05dc803dc40"},"vehicle_type_id":"4","last_reported":1746032909,"current_range_meters":8400,"station_id":"ce4bhh12rcd13ifvqff0","pricing_plan_id":"cebpf4jnsgd1na2vs0mg"},{"bike_id":"af45928f-99f5-4c10-8488-a1690bf972d2","system_id":"levelo_inurba_marseille","lat":43.294343,"lon":5.397647,"is_reserved":false,"is_disabled":true,"rental_uris":{"android":"levelo://app?vid=af45928f-99f5-4c10-8488-a1690bf972d2","ios":"levelo://app?vid=af45928f-99f5-4c10-8488-a1690bf972d2"},"vehicle_type_id":"4","last_reported":1746032909,"current_range_meters":8800,"station_id":"ce4bh3h2rcd13ifvqdo0","pricing_plan_id":"cebpf4jnsgd1na2vs0mg"},{"bike_id":"71924328-ac09-4bfd-b88a-c6aa543fe473","system_id":"levelo_inurba_marseille","lat":43.23959,"lon":5.36654,"is_reserved":false,"is_disabled":false,"rental_uris":{"android":"levelo://app?vid=71924328-ac09-4bfd-b88a-c6aa543fe473","ios":"levelo://app?vid=71924328-ac09-4bfd-b88a-c6aa543fe473"},"vehicle_type_id":"4","last_reported":1746032909,"current_range_meters":8800,"station_id":"ce4bhi12rcd13ifvqfp0","pricing_plan_id":"cebpf4jnsgd1na2vs0mg"},{"bike_id":"b7e21335-ef6c-401e-b96f-3ac4b54404ca","system_id":"levelo_inurba_marseille","lat":43.27071,"lon":5.42282,"is_reserved":false,"is_disabled":false,"rental_uris":{"android":"levelo://app?vid=b7e21335-ef6c-401e-b96f-3ac4b54404ca","ios":"levelo://app?vid=b7e21335-ef6c-401e-b96f-3ac4b54404ca"},"vehicle_type_id":"4","last_reported":1746032909,"current_range_meters":8800,"station_id":"ce4bhk92rcd13ifvqgb0","pricing_plan_id":"cebpf4jnsgd1na2vs0mg"},{"bike_id":"489415b8-9254-45c1-b00c-e7554d56755c","system_id":"levelo_inurba_marseille","lat":43.24522,"lon":5.412165,"is_reserved":false,"is_disabled":false,"rental_uris":{"android":"levelo://app?vid=489415b8-9254-45c1-b00c-e7554d56755c","ios":"levelo://app?vid=489415b8-9254-45c1-b00c-e7554d56755c"},"vehicle_type_id":"4","last_reported":1746032909,"current_range_meters":9200,"station_id":"","pricing_plan_id":"cebpf4jnsgd1na2vs0mg"},{"bike_id":"9a7783a4-4d08-4eab-986b-b2b52705c7b0","system_id":"levelo_inurba_marseille","lat":43.29231,"lon":5.36069,"is_reserved":false,"is_disabled":false,"rental_uris":{"android":"levelo://app?vid=9a7783a4-4d08-4eab-986b-b2b52705c7b0","ios":"levelo://app?vid=9a7783a4-4d08-4eab-986b-b2b52705c7b0"},"vehicle_type_id":"4","last_reported":1746032909,"current_range_meters":9200,"station_id":"ce4bhbh2rcd13ifvqeqg","pricing_plan_id":"cebpf4jnsgd1na2vs0mg"},{"bike_id":"1a1881f7-791d-415f-9fe2-9c4a1053b5cb","system_id":"levelo_inurba_marseille","lat":43.31364,"lon":5.3848,"is_reserved":false,"is_disabled":false,"rental_uris":{"android":"levelo://app?vid=1a1881f7-791d-415f-9fe2-9c4a1053b5cb","ios":"levelo://app?vid=1a1881f7-791d-415f-9fe2-9c4a1053b5cb"},"vehicle_type_id":"4","last_reported":1746032909,"current_range_meters":9200,"station_id":"ce4bgt92rcd13ifvqcf0","pricing_plan_id":"cebpf4jnsgd1na2vs0mg"},{"bike_id":"1cffa86e-8de3-454e-a782-5e8c8a2dffb2","system_id":"levelo_inurba_marseille","lat":43.28685,"lon":5.38327,"is_reserved":false,"is_disabled":false,"rental_uris":{"android":"levelo://app?vid=1cffa86e-8de3-454e-a782-5e8c8a2dffb2","ios":"levelo://app?vid=1cffa86e-8de3-454e-a782-5e8c8a2dffb2"},"vehicle_type_id":"4","last_reported":1746032909,"current_range_meters":8800,"station_id":"ce4bh8p2rcd13ifvqeb0","pricing_plan_id":"cebpf4jnsgd1na2vs0mg"},{"bike_id":"07edfd45-c3fa-4b57-b865-cf1bf9963264","system_id":"levelo_inurba_marseille","lat":43.23421,"lon":5.36446,"is_reserved":false,"is_disabled":false,"rental_uris":{"android":"levelo://app?vid=07edfd45-c3fa-4b57-b865-cf1bf9963264","ios":"levelo://app?vid=07edfd45-c3fa-4b57-b865-cf1bf9963264"},"vehicle_type_id":"4","last_reported":1746032909,"current_range_meters":9200,"station_id":"","pricing_plan_id":"cebpf4jnsgd1na2vs0mg"},{"bike_id":"62af6a6d-9952-43f2-831d-442010a75c62","system_id":"levelo_inurba_marseille","lat":43.24804,"lon":5.37454,"is_reserved":false,"is_disabled":false,"rental_uris":{"android":"levelo://app?vid=62af6a6d-9952-43f2-831d-442010a75c62","ios":"levelo://app?vid=62af6a6d-9952-43f2-831d-442010a75c62"},"vehicle_type_id":"4","last_reported":1746032909,"current_range_meters":8800,"station_id":"ce4bhgh2rcd13ifvqfb0","pricing_plan_id":"cebpf4jnsgd1na2vs0mg"},{"bike_id":"fffcb876-d1e6-4c80-86ac-0c4ba23888fc","system_id":"levelo_inurba_marseille","lat":43.279433,"lon":5.410465,"is_reserved":false,"is_disabled":false,"rental_uris":{"android":"levelo://app?vid=fffcb876-d1e6-4c80-86ac-0c4ba23888fc","ios":"levelo://app?vid=fffcb876-d1e6-4c80-86ac-0c4ba23888fc"},"vehicle_type_id":"4","last_reported":1746032909,"current_range_meters":9200,"station_id":"ce4bhnp2rcd13ifvqh0g","pricing_plan_id":"cebpf4jnsgd1na2vs0mg"},{"bike_id":"be36cd97-149a-4ea1-86eb-a7be29922060","system_id":"levelo_inurba_marseille","lat":43.29435,"lon":5.3975,"is_reserved":false,"is_disabled":false,"rental_uris":{"android":"levelo://app?vid=be36cd97-149a-4ea1-86eb-a7be29922060","ios":"levelo://app?vid=be36cd97-149a-4ea1-86eb-a7be29922060"},"vehicle_type_id":"4","last_reported":1746032909,"current_range_meters":9600,"station_id":"ce4bh3h2rcd13ifvqdo0","pricing_plan_id":"cebpf4jnsgd1na2vs0mg"},{"bike_id":"bd83cf4f-77f4-41ca-bc4d-7b138fc88b04","system_id":"levelo_inurba_marseille","lat":43.296,"lon":5.36745,"is_reserved":false,"is_disabled":false,"rental_uris":{"android":"levelo://app?vid=bd83cf4f-77f4-41ca-bc4d-7b138fc88b04","ios":"levelo://app?vid=bd83cf4f-77f4-41ca-bc4d-7b138fc88b04"},"vehicle_type_id":"4","last_reported":1746032909,"current_range_meters":9600,"station_id":"ce4bgph2rcd13ifvqc2g","pricing_plan_id":"cebpf4jnsgd1na2vs0mg"},{"bike_id":"ce5b795d-b5f5-4c2f-bb50-69e2ec328996","system_id":"levelo_inurba_marseille","lat":43.33026,"lon":5.39033,"is_reserved":false,"is_disabled":false,"rental_uris":{"android":"levelo://app?vid=ce5b795d-b5f5-4c2f-bb50-69e2ec328996","ios":"levelo://app?vid=ce5b795d-b5f5-4c2f-bb50-69e2ec328996"},"vehicle_type_id":"4","last_reported":1746032909,"current_range_meters":9600,"station_id":"ce4bhr92rcd13ifvqhrg","pricing_plan_id":"cebpf4jnsgd1na2vs0mg"},{"bike_id":"4c6f34fc-057d-4edd-af64-cee3c985bc2b","system_id":"levelo_inurba_marseille","lat":43.28844,"lon":5.39323,"is_reserved":false,"is_disabled":false,"rental_uris":{"android":"levelo://app?vid=4c6f34fc-057d-4edd-af64-cee3c985bc2b","ios":"levelo://app?vid=4c6f34fc-057d-4edd-af64-cee3c985bc2b"},"vehicle_type_id":"4","last_reported":1746032909,"current_range_meters":9600,"station_id":"ce4bh2p2rcd13ifvqdi0","pricing_plan_id":"cebpf4jnsgd1na2vs0mg"},{"bike_id":"dcb0b990-89f9-495c-a9c1-10b17ae39667","system_id":"levelo_inurba_marseille","lat":43.23461,"lon":5.38047,"is_reserved":false,"is_disabled":false,"rental_uris":{"android":"levelo://app?vid=dcb0b990-89f9-495c-a9c1-10b17ae39667","ios":"levelo://app?vid=dcb0b990-89f9-495c-a9c1-10b17ae39667"},"vehicle_type_id":"4","last_reported":1746032909,"current_range_meters":10000,"station_id":"","pricing_plan_id":"cebpf4jnsgd1na2vs0mg"},{"bike_id":"4547eb9b-ddd3-4ba8-9ee1-92d035973a49","system_id":"levelo_inurba_marseille","lat":43.26944,"lon":5.40271,"is_reserved":false,"is_disabled":false,"rental_uris":{"android":"levelo://app?vid=4547eb9b-ddd3-4ba8-9ee1-92d035973a49","ios":"levelo://app?vid=4547eb9b-ddd3-4ba8-9ee1-92d035973a49"},"vehicle_type_id":"4","last_reported":1746032909,"current_range_meters":10000,"station_id":"cjm6bp8fraef2m0cb0m0","pricing_plan_id":"cebpf4jnsgd1na2vs0mg"},{"bike_id":"379b8933-bc6e-4164-9d36-daaf2941e50f","system_id":"levelo_inurba_marseille","lat":43.30735,"lon":5.37434,"is_reserved":false,"is_disabled":false,"rental_uris":{"android":"levelo://app?vid=379b8933-bc6e-4164-9d36-daaf2941e50f","ios":"levelo://app?vid=379b8933-bc6e-4164-9d36-daaf2941e50f"},"vehicle_type_id":"4","last_reported":1746032909,"current_range_meters":10000,"station_id":"","pricing_plan_id":"cebpf4jnsgd1na2vs0mg"},{"bike_id":"d43774c4-ecb1-4f75-91c6-2f6e08a4a37b","system_id":"levelo_inurba_marseille","lat":43.2175,"lon":5.34599,"is_reserved":false,"is_disabled":false,"rental_uris":{"android":"levelo://app?vid=d43774c4-ecb1-4f75-91c6-2f6e08a4a37b","ios":"levelo://app?vid=d43774c4-ecb1-4f75-91c6-2f6e08a4a37b"},"vehicle_type_id":"4","last_reported":1746032909,"current_range_meters":10000,"station_id":"st_cvj6r9ubvosntc0bgbag","pricing_plan_id":"cebpf4jnsgd1na2vs0mg"},{"bike_id":"3ce5a6a0-7c75-4b93-962c-2dd6ababc3c9","system_id":"levelo_inurba_marseille","lat":43.22507,"lon":5.34778,"is_reserved":false,"is_disabled":false,"rental_uris":{"android":"levelo://app?vid=3ce5a6a0-7c75-4b93-962c-2dd6ababc3c9","ios":"levelo://app?vid=3ce5a6a0-7c75-4b93-962c-2dd6ababc3c9"},"vehicle_type_id":"4","last_reported":1746032909,"current_range_meters":10000,"station_id":"st_cvj5dfep6f1abm77gieg","pricing_plan_id":"cebpf4jnsgd1na2vs0mg"},{"bike_id":"ee0a3939-fa73-4b04-9195-c90ba36dcb6e","system_id":"levelo_inurba_marseille","lat":43.31073,"lon":5.38353,"is_reserved":false,"is_disabled":false,"rental_uris":{"android":"levelo://app?vid=ee0a3939-fa73-4b04-9195-c90ba36dcb6e","ios":"levelo://app?vid=ee0a3939-fa73-4b04-9195-c90ba36dcb6e"},"vehicle_type_id":"4","last_reported":1746032909,"current_range_meters":10000,"station_id":"ce4bgv92rcd13ifvqcr0","pricing_plan_id":"cebpf4jnsgd1na2vs0mg"},{"bike_id":"f6249c92-8bb9-4760-8711-66884e58bd2f","system_id":"levelo_inurba_marseille","lat":43.28411,"lon":5.37512,"is_reserved":false,"is_disabled":false,"rental_uris":{"android":"levelo://app?vid=f6249c92-8bb9-4760-8711-66884e58bd2f","ios":"levelo://app?vid=f6249c92-8bb9-4760-8711-66884e58bd2f"},"vehicle_type_id":"4","last_reported":1746032909,"current_range_meters":10800,"station_id":"ce4bh412rcd13ifvqds0","pricing_plan_id":"cebpf4jnsgd1na2vs0mg"},{"bike_id":"5f10daf5-e392-4435-aff0-64477854c24c","system_id":"levelo_inurba_marseille","lat":43.26216,"lon":5.37442,"is_reserved":false,"is_disabled":false,"rental_uris":{"android":"levelo://app?vid=5f10daf5-e392-4435-aff0-64477854c24c","ios":"levelo://app?vid=5f10daf5-e392-4435-aff0-64477854c24c"},"vehicle_type_id":"4","last_reported":1746032909,"current_range_meters":10800,"station_id":"ce4bhgp2rcd13ifvqfc0","pricing_plan_id":"cebpf4jnsgd1na2vs0mg"},{"bike_id":"7f770ba9-2e48-47c9-8bb4-942855273bad","system_id":"levelo_inurba_marseille","lat":43.25356,"lon":5.42417,"is_reserved":false,"is_disabled":false,"rental_uris":{"android":"levelo://app?vid=7f770ba9-2e48-47c9-8bb4-942855273bad","ios":"levelo://app?vid=7f770ba9-2e48-47c9-8bb4-942855273bad"},"vehicle_type_id":"4","last_reported":1746032909,"current_range_meters":10800,"station_id":"","pricing_plan_id":"cebpf4jnsgd1na2vs0mg"},{"bike_id":"30ed38f9-81cb-491b-a440-3a1f10da5cac","system_id":"levelo_inurba_marseille","lat":43.30533,"lon":5.36721,"is_reserved":false,"is_disabled":false,"rental_uris":{"android":"levelo://app?vid=30ed38f9-81cb-491b-a440-3a1f10da5cac","ios":"levelo://app?vid=30ed38f9-81cb-491b-a440-3a1f10da5cac"},"vehicle_type_id":"4","last_reported":1746032909,"current_range_meters":10000,"station_id":"ce4bgrp2rcd13ifvqc9g","pricing_plan_id":"cebpf4jnsgd1na2vs0mg"},{"bike_id":"4ff0a892-8b15-4686-99cb-837a08a04434","system_id":"levelo_inurba_marseille","lat":43.2863,"lon":5.35103,"is_reserved":false,"is_disabled":false,"rental_uris":{"android":"levelo://app?vid=4ff0a892-8b15-4686-99cb-837a08a04434","ios":"levelo://app?vid=4ff0a892-8b15-4686-99cb-837a08a04434"},"vehicle_type_id":"4","last_reported":1746032909,"current_range_meters":11200,"station_id":"ce4bhch2rcd13ifvqeug","pricing_plan_id":"cebpf4jnsgd1na2vs0mg"},{"bike_id":"4114f4c2-2109-4b2d-a2bd-440bcda0055b","system_id":"levelo_inurba_marseille","lat":43.25585,"lon":5.38228,"is_reserved":false,"is_disabled":false,"rental_uris":{"android":"levelo://app?vid=4114f4c2-2109-4b2d-a2bd-440bcda0055b","ios":"levelo://app?vid=4114f4c2-2109-4b2d-a2bd-440bcda0055b"},"vehicle_type_id":"4","last_reported":1746032909,"current_range_meters":11200,"station_id":"ce4bhih2rcd13ifvqfs0","pricing_plan_id":"cebpf4jnsgd1na2vs0mg"},{"bike_id":"d8a04de0-4810-4df5-b177-62ccb739553a","system_id":"levelo_inurba_marseille","lat":43.32471,"lon":5.36582,"is_reserved":false,"is_disabled":false,"rental_uris":{"android":"levelo://app?vid=d8a04de0-4810-4df5-b177-62ccb739553a","ios":"levelo://app?vid=d8a04de0-4810-4df5-b177-62ccb739553a"},"vehicle_type_id":"4","last_reported":1746032909,"current_range_meters":11200,"station_id":"ce4bhs12rcd13ifvqhvg","pricing_plan_id":"cebpf4jnsgd1na2vs0mg"},{"bike_id":"c2bff181-3aa6-4c81-a88d-fb92e9977b93","system_id":"levelo_inurba_marseille","lat":43.30733,"lon":5.42438,"is_reserved":false,"is_disabled":false,"rental_uris":{"android":"levelo://app?vid=c2bff181-3aa6-4c81-a88d-fb92e9977b93","ios":"levelo://app?vid=c2bff181-3aa6-4c81-a88d-fb92e9977b93"},"vehicle_type_id":"4","last_reported":1746032909,"current_range_meters":11600,"station_id":"st_cvj6ca6bvosntc0bfgr0","pricing_plan_id":"cebpf4jnsgd1na2vs0mg"},{"bike_id":"e459bbc0-9f7d-4126-943c-6c13dba6737f","system_id":"levelo_inurba_marseille","lat":43.239589,"lon":5.366348,"is_reserved":false,"is_disabled":false,"rental_uris":{"android":"levelo://app?vid=e459bbc0-9f7d-4126-943c-6c13dba6737f","ios":"levelo://app?vid=e459bbc0-9f7d-4126-943c-6c13dba6737f"},"vehicle_type_id":"4","last_reported":1746032909,"current_range_meters":11200,"station_id":"ce4bhi12rcd13ifvqfp0","pricing_plan_id":"cebpf4jnsgd1na2vs0mg"},{"bike_id":"e5e92a64-e709-4b1a-a9b1-cbffe85789ca","system_id":"levelo_inurba_marseille","lat":43.255563,"lon":5.381413,"is_reserved":false,"is_disabled":false,"rental_uris":{"android":"levelo://app?vid=e5e92a64-e709-4b1a-a9b1-cbffe85789ca","ios":"levelo://app?vid=e5e92a64-e709-4b1a-a9b1-cbffe85789ca"},"vehicle_type_id":"4","last_reported":1746032909,"current_range_meters":11600,"station_id":"","pricing_plan_id":"cebpf4jnsgd1na2vs0mg"},{"bike_id":"8ab8f219-1642-4a0d-af2a-eaa8ea6c816f","system_id":"levelo_inurba_marseille","lat":43.3175,"lon":5.3902,"is_reserved":false,"is_disabled":false,"rental_uris":{"android":"levelo://app?vid=8ab8f219-1642-4a0d-af2a-eaa8ea6c816f","ios":"levelo://app?vid=8ab8f219-1642-4a0d-af2a-eaa8ea6c816f"},"vehicle_type_id":"4","last_reported":1746032909,"current_range_meters":12000,"station_id":"ce4bhqp2rcd13ifvqhng","pricing_plan_id":"cebpf4jnsgd1na2vs0mg"},{"bike_id":"7a847997-6076-41e1-87fa-c8b6fb829fea","system_id":"levelo_inurba_marseille","lat":43.31167,"lon":5.38727,"is_reserved":false,"is_disabled":false,"rental_uris":{"android":"levelo://app?vid=7a847997-6076-41e1-87fa-c8b6fb829fea","ios":"levelo://app?vid=7a847997-6076-41e1-87fa-c8b6fb829fea"},"vehicle_type_id":"4","last_reported":1746032909,"current_range_meters":12000,"station_id":"ce4bgv12rcd13ifvqcp0","pricing_plan_id":"cebpf4jnsgd1na2vs0mg"},{"bike_id":"b10d41ac-afd4-485b-8e36-3ad0d9c3cfed","system_id":"levelo_inurba_marseille","lat":43.28461,"lon":5.35891,"is_reserved":false,"is_disabled":false,"rental_uris":{"android":"levelo://app?vid=b10d41ac-afd4-485b-8e36-3ad0d9c3cfed","ios":"levelo://app?vid=b10d41ac-afd4-485b-8e36-3ad0d9c3cfed"},"vehicle_type_id":"4","last_reported":1746032909,"current_range_meters":11600,"station_id":"ce4bhah2rcd13ifvqei0","pricing_plan_id":"cebpf4jnsgd1na2vs0mg"},{"bike_id":"44b90bfc-e68b-40ee-bc43-18e07b8d4752","system_id":"levelo_inurba_marseille","lat":43.29529,"lon":5.39049,"is_reserved":false,"is_disabled":false,"rental_uris":{"android":"levelo://app?vid=44b90bfc-e68b-40ee-bc43-18e07b8d4752","ios":"levelo://app?vid=44b90bfc-e68b-40ee-bc43-18e07b8d4752"},"vehicle_type_id":"4","last_reported":1746032909,"current_range_meters":12400,"station_id":"ce4bh3p2rcd13ifvqdp0","pricing_plan_id":"cebpf4jnsgd1na2vs0mg"},{"bike_id":"a732b3d6-472a-46b2-b5fc-7d86a14ed2fc","system_id":"levelo_inurba_marseille","lat":43.33039,"lon":5.39064,"is_reserved":false,"is_disabled":false,"rental_uris":{"android":"levelo://app?vid=a732b3d6-472a-46b2-b5fc-7d86a14ed2fc","ios":"levelo://app?vid=a732b3d6-472a-46b2-b5fc-7d86a14ed2fc"},"vehicle_type_id":"4","last_reported":1746032909,"current_range_meters":12400,"station_id":"ce4bhr92rcd13ifvqhrg","pricing_plan_id":"cebpf4jnsgd1na2vs0mg"},{"bike_id":"4e8e8b1a-9ada-4f1d-bb5d-b25bb3cf8eba","system_id":"levelo_inurba_marseille","lat":43.29332,"lon":5.38722,"is_reserved":false,"is_disabled":false,"rental_uris":{"android":"levelo://app?vid=4e8e8b1a-9ada-4f1d-bb5d-b25bb3cf8eba","ios":"levelo://app?vid=4e8e8b1a-9ada-4f1d-bb5d-b25bb3cf8eba"},"vehicle_type_id":"4","last_reported":1746032909,"current_range_meters":12400,"station_id":"","pricing_plan_id":"cebpf4jnsgd1na2vs0mg"},{"bike_id":"2f61ad03-58b9-4eee-9999-05b11a206fd6","system_id":"levelo_inurba_marseille","lat":43.29202,"lon":5.35808,"is_reserved":false,"is_disabled":false,"rental_uris":{"android":"levelo://app?vid=2f61ad03-58b9-4eee-9999-05b11a206fd6","ios":"levelo://app?vid=2f61ad03-58b9-4eee-9999-05b11a206fd6"},"vehicle_type_id":"4","last_reported":1746032909,"current_range_meters":12000,"station_id":"ce4bhb12rcd13ifvqel0","pricing_plan_id":"cebpf4jnsgd1na2vs0mg"},{"bike_id":"c1cbc237-cfab-474a-aa26-81a87506105a","system_id":"levelo_inurba_marseille","lat":43.21764,"lon":5.3463,"is_reserved":false,"is_disabled":false,"rental_uris":{"android":"levelo://app?vid=c1cbc237-cfab-474a-aa26-81a87506105a","ios":"levelo://app?vid=c1cbc237-cfab-474a-aa26-81a87506105a"},"vehicle_type_id":"4","last_reported":1746032909,"current_range_meters":12800,"station_id":"st_cvj6r9ubvosntc0bgbag","pricing_plan_id":"cebpf4jnsgd1na2vs0mg"},{"bike_id":"de965a61-a299-45aa-9129-184923ca9d67","system_id":"levelo_inurba_marseille","lat":43.295316,"lon":5.385651,"is_reserved":false,"is_disabled":false,"rental_uris":{"android":"levelo://app?vid=de965a61-a299-45aa-9129-184923ca9d67","ios":"levelo://app?vid=de965a61-a299-45aa-9129-184923ca9d67"},"vehicle_type_id":"4","last_reported":1746032909,"current_range_meters":12400,"station_id":"ce4bgih2rcd13ifvqba0","pricing_plan_id":"cebpf4jnsgd1na2vs0mg"},{"bike_id":"fca9dc8b-9c20-4eab-83ff-17d0ce9a6922","system_id":"levelo_inurba_marseille","lat":43.26043,"lon":5.41721,"is_reserved":false,"is_disabled":false,"rental_uris":{"android":"levelo://app?vid=fca9dc8b-9c20-4eab-83ff-17d0ce9a6922","ios":"levelo://app?vid=fca9dc8b-9c20-4eab-83ff-17d0ce9a6922"},"vehicle_type_id":"4","last_reported":1746032909,"current_range_meters":12800,"station_id":"","pricing_plan_id":"cebpf4jnsgd1na2vs0mg"},{"bike_id":"3202f6f7-8524-4dfd-93bb-2abb0da14e41","system_id":"levelo_inurba_marseille","lat":43.29569,"lon":5.39962,"is_reserved":false,"is_disabled":false,"rental_uris":{"android":"levelo://app?vid=3202f6f7-8524-4dfd-93bb-2abb0da14e41","ios":"levelo://app?vid=3202f6f7-8524-4dfd-93bb-2abb0da14e41"},"vehicle_type_id":"4","last_reported":1746032909,"current_range_meters":12800,"station_id":"ce4bh312rcd13ifvqdj0","pricing_plan_id":"cebpf4jnsgd1na2vs0mg"},{"bike_id":"6ff5340f-c661-4534-9959-b8816521892c","system_id":"levelo_inurba_marseille","lat":43.31331,"lon":5.39731,"is_reserved":false,"is_disabled":false,"rental_uris":{"android":"levelo://app?vid=6ff5340f-c661-4534-9959-b8816521892c","ios":"levelo://app?vid=6ff5340f-c661-4534-9959-b8816521892c"},"vehicle_type_id":"4","last_reported":1746032909,"current_range_meters":12800,"station_id":"ce4bgvp2rcd13ifvqcu0","pricing_plan_id":"cebpf4jnsgd1na2vs0mg"},{"bike_id":"2680b566-0ff6-434e-8909-d6532aefa1ca","system_id":"levelo_inurba_marseille","lat":43.2842,"lon":5.34979,"is_reserved":false,"is_disabled":false,"rental_uris":{"android":"levelo://app?vid=2680b566-0ff6-434e-8909-d6532aefa1ca","ios":"levelo://app?vid=2680b566-0ff6-434e-8909-d6532aefa1ca"},"vehicle_type_id":"4","last_reported":1746032909,"current_range_meters":12800,"station_id":"ce4bhbh2rcd13ifvqepg","pricing_plan_id":"cebpf4jnsgd1na2vs0mg"},{"bike_id":"01a51425-fad0-4150-b3db-76893a2c20f5","system_id":"levelo_inurba_marseille","lat":43.3106,"lon":5.38383,"is_reserved":false,"is_disabled":false,"rental_uris":{"android":"levelo://app?vid=01a51425-fad0-4150-b3db-76893a2c20f5","ios":"levelo://app?vid=01a51425-fad0-4150-b3db-76893a2c20f5"},"vehicle_type_id":"4","last_reported":1746032909,"current_range_meters":12800,"station_id":"ce4bgv92rcd13ifvqcr0","pricing_plan_id":"cebpf4jnsgd1na2vs0mg"},{"bike_id":"bbc58e6a-de89-4c7d-b993-e3fe3093eb45","system_id":"levelo_inurba_marseille","lat":43.29781,"lon":5.371,"is_reserved":false,"is_disabled":false,"rental_uris":{"android":"levelo://app?vid=bbc58e6a-de89-4c7d-b993-e3fe3093eb45","ios":"levelo://app?vid=bbc58e6a-de89-4c7d-b993-e3fe3093eb45"},"vehicle_type_id":"4","last_reported":1746032909,"current_range_meters":12400,"station_id":"ce4bgop2rcd13ifvqc1g","pricing_plan_id":"cebpf4jnsgd1na2vs0mg"},{"bike_id":"f6fa7bb8-b804-4846-9a67-88d3ba6bdc79","system_id":"levelo_inurba_marseille","lat":43.29571,"lon":5.39973,"is_reserved":false,"is_disabled":false,"rental_uris":{"android":"levelo://app?vid=f6fa7bb8-b804-4846-9a67-88d3ba6bdc79","ios":"levelo://app?vid=f6fa7bb8-b804-4846-9a67-88d3ba6bdc79"},"vehicle_type_id":"4","last_reported":1746032909,"current_range_meters":12800,"station_id":"ce4bh312rcd13ifvqdj0","pricing_plan_id":"cebpf4jnsgd1na2vs0mg"},{"bike_id":"77942475-b9df-43a6-af61-b22087b935d2","system_id":"levelo_inurba_marseille","lat":43.2926,"lon":5.38429,"is_reserved":false,"is_disabled":true,"rental_uris":{"android":"levelo://app?vid=77942475-b9df-43a6-af61-b22087b935d2","ios":"levelo://app?vid=77942475-b9df-43a6-af61-b22087b935d2"},"vehicle_type_id":"4","last_reported":1746032909,"current_range_meters":13600,"station_id":"ce4bh692rcd13ifvqea0","pricing_plan_id":"cebpf4jnsgd1na2vs0mg"},{"bike_id":"00b1c7b7-94c9-4a18-9e0d-df322c7cd38b","system_id":"levelo_inurba_marseille","lat":43.29008,"lon":5.35621,"is_reserved":false,"is_disabled":true,"rental_uris":{"android":"levelo://app?vid=00b1c7b7-94c9-4a18-9e0d-df322c7cd38b","ios":"levelo://app?vid=00b1c7b7-94c9-4a18-9e0d-df322c7cd38b"},"vehicle_type_id":"4","last_reported":1746032909,"current_range_meters":13600,"station_id":"ce4bhb92rcd13ifvqen0","pricing_plan_id":"cebpf4jnsgd1na2vs0mg"},{"bike_id":"bec52a34-f886-4624-9102-89bb6f76dcc8","system_id":"levelo_inurba_marseille","lat":43.2439,"lon":5.3706,"is_reserved":false,"is_disabled":false,"rental_uris":{"android":"levelo://app?vid=bec52a34-f886-4624-9102-89bb6f76dcc8","ios":"levelo://app?vid=bec52a34-f886-4624-9102-89bb6f76dcc8"},"vehicle_type_id":"4","last_reported":1746032909,"current_range_meters":13600,"station_id":"ce4bhhh2rcd13ifvqfk0","pricing_plan_id":"cebpf4jnsgd1na2vs0mg"},{"bike_id":"1b11bafb-b70d-4983-8bd2-1bb555eaf0db","system_id":"levelo_inurba_marseille","lat":43.29845,"lon":5.36275,"is_reserved":false,"is_disabled":false,"rental_uris":{"android":"levelo://app?vid=1b11bafb-b70d-4983-8bd2-1bb555eaf0db","ios":"levelo://app?vid=1b11bafb-b70d-4983-8bd2-1bb555eaf0db"},"vehicle_type_id":"4","last_reported":1746032909,"current_range_meters":14000,"station_id":"ce4bgpp2rcd13ifvqc3g","pricing_plan_id":"cebpf4jnsgd1na2vs0mg"},{"bike_id":"dc10a960-a2b4-4240-bd1d-abc218c5e1d4","system_id":"levelo_inurba_marseille","lat":43.28999,"lon":5.35603,"is_reserved":false,"is_disabled":false,"rental_uris":{"android":"levelo://app?vid=dc10a960-a2b4-4240-bd1d-abc218c5e1d4","ios":"levelo://app?vid=dc10a960-a2b4-4240-bd1d-abc218c5e1d4"},"vehicle_type_id":"4","last_reported":1746032909,"current_range_meters":14000,"station_id":"ce4bhb92rcd13ifvqen0","pricing_plan_id":"cebpf4jnsgd1na2vs0mg"},{"bike_id":"46f70f69-302c-4d92-8c7a-96c3fbf66ffe","system_id":"levelo_inurba_marseille","lat":43.28857,"lon":5.35857,"is_reserved":false,"is_disabled":false,"rental_uris":{"android":"levelo://app?vid=46f70f69-302c-4d92-8c7a-96c3fbf66ffe","ios":"levelo://app?vid=46f70f69-302c-4d92-8c7a-96c3fbf66ffe"},"vehicle_type_id":"4","last_reported":1746032909,"current_range_meters":14000,"station_id":"ce4bhb12rcd13ifvqem0","pricing_plan_id":"cebpf4jnsgd1na2vs0mg"},{"bike_id":"85ea9e1f-37a8-4bd5-a8e6-66e47a3d13bb","system_id":"levelo_inurba_marseille","lat":43.33021,"lon":5.39063,"is_reserved":false,"is_disabled":false,"rental_uris":{"android":"levelo://app?vid=85ea9e1f-37a8-4bd5-a8e6-66e47a3d13bb","ios":"levelo://app?vid=85ea9e1f-37a8-4bd5-a8e6-66e47a3d13bb"},"vehicle_type_id":"4","last_reported":1746032909,"current_range_meters":14400,"station_id":"ce4bhr92rcd13ifvqhrg","pricing_plan_id":"cebpf4jnsgd1na2vs0mg"},{"bike_id":"c0c6aafe-4159-4e87-9670-9bbba9e17016","system_id":"levelo_inurba_marseille","lat":43.32707,"lon":5.39239,"is_reserved":false,"is_disabled":false,"rental_uris":{"android":"levelo://app?vid=c0c6aafe-4159-4e87-9670-9bbba9e17016","ios":"levelo://app?vid=c0c6aafe-4159-4e87-9670-9bbba9e17016"},"vehicle_type_id":"4","last_reported":1746032909,"current_range_meters":14400,"station_id":"","pricing_plan_id":"cebpf4jnsgd1na2vs0mg"},{"bike_id":"5946ba00-465f-4918-b0f7-c14b5643e440","system_id":"levelo_inurba_marseille","lat":43.31328,"lon":5.39689,"is_reserved":false,"is_disabled":false,"rental_uris":{"android":"levelo://app?vid=5946ba00-465f-4918-b0f7-c14b5643e440","ios":"levelo://app?vid=5946ba00-465f-4918-b0f7-c14b5643e440"},"vehicle_type_id":"4","last_reported":1746032909,"current_range_meters":14400,"station_id":"ce4bgvp2rcd13ifvqcu0","pricing_plan_id":"cebpf4jnsgd1na2vs0mg"},{"bike_id":"67195a0f-5b61-49c8-b0f1-248651f6622a","system_id":"levelo_inurba_marseille","lat":43.29572,"lon":5.39985,"is_reserved":false,"is_disabled":false,"rental_uris":{"android":"levelo://app?vid=67195a0f-5b61-49c8-b0f1-248651f6622a","ios":"levelo://app?vid=67195a0f-5b61-49c8-b0f1-248651f6622a"},"vehicle_type_id":"4","last_reported":1746032909,"current_range_meters":14400,"station_id":"ce4bh312rcd13ifvqdj0","pricing_plan_id":"cebpf4jnsgd1na2vs0mg"},{"bike_id":"2ffc8305-9279-45bd-aa5d-0047d682193c","system_id":"levelo_inurba_marseille","lat":43.25495,"lon":5.37647,"is_reserved":false,"is_disabled":false,"rental_uris":{"android":"levelo://app?vid=2ffc8305-9279-45bd-aa5d-0047d682193c","ios":"levelo://app?vid=2ffc8305-9279-45bd-aa5d-0047d682193c"},"vehicle_type_id":"4","last_reported":1746032909,"current_range_meters":14400,"station_id":"ce4bhh12rcd13ifvqff0","pricing_plan_id":"cebpf4jnsgd1na2vs0mg"},{"bike_id":"71f46b9e-b973-43ed-8094-41fc681f20ae","system_id":"levelo_inurba_marseille","lat":43.24084,"lon":5.37759,"is_reserved":false,"is_disabled":false,"rental_uris":{"android":"levelo://app?vid=71f46b9e-b973-43ed-8094-41fc681f20ae","ios":"levelo://app?vid=71f46b9e-b973-43ed-8094-41fc681f20ae"},"vehicle_type_id":"4","last_reported":1746032909,"current_range_meters":14400,"station_id":"ce4bhnp2rcd13ifvqgvg","pricing_plan_id":"cebpf4jnsgd1na2vs0mg"},{"bike_id":"e3683748-b8bf-480b-8724-351e5479a180","system_id":"levelo_inurba_marseille","lat":43.30412,"lon":5.41285,"is_reserved":false,"is_disabled":false,"rental_uris":{"android":"levelo://app?vid=e3683748-b8bf-480b-8724-351e5479a180","ios":"levelo://app?vid=e3683748-b8bf-480b-8724-351e5479a180"},"vehicle_type_id":"4","last_reported":1746032909,"current_range_meters":14800,"station_id":"ce4bhop2rcd13ifvqh8g","pricing_plan_id":"cebpf4jnsgd1na2vs0mg"},{"bike_id":"fd427e05-8ad1-4dac-ba3a-e42fe8245eb3","system_id":"levelo_inurba_marseille","lat":43.284182,"lon":5.349747,"is_reserved":false,"is_disabled":true,"rental_uris":{"android":"levelo://app?vid=fd427e05-8ad1-4dac-ba3a-e42fe8245eb3","ios":"levelo://app?vid=fd427e05-8ad1-4dac-ba3a-e42fe8245eb3"},"vehicle_type_id":"4","last_reported":1746032909,"current_range_meters":15200,"station_id":"ce4bhb12rcd13ifvqel0","pricing_plan_id":"cebpf4jnsgd1na2vs0mg"},{"bike_id":"edec17c2-dd28-4910-a4a2-761624114915","system_id":"levelo_inurba_marseille","lat":43.2175,"lon":5.346015,"is_reserved":false,"is_disabled":false,"rental_uris":{"android":"levelo://app?vid=edec17c2-dd28-4910-a4a2-761624114915","ios":"levelo://app?vid=edec17c2-dd28-4910-a4a2-761624114915"},"vehicle_type_id":"4","last_reported":1746032909,"current_range_meters":15200,"station_id":"st_cvj6r9ubvosntc0bgbag","pricing_plan_id":"cebpf4jnsgd1na2vs0mg"},{"bike_id":"86c2979e-8cf6-48ed-bdb1-835ff11e3adc","system_id":"levelo_inurba_marseille","lat":43.253857,"lon":5.418426,"is_reserved":false,"is_disabled":false,"rental_uris":{"android":"levelo://app?vid=86c2979e-8cf6-48ed-bdb1-835ff11e3adc","ios":"levelo://app?vid=86c2979e-8cf6-48ed-bdb1-835ff11e3adc"},"vehicle_type_id":"4","last_reported":1746032909,"current_range_meters":16000,"station_id":"","pricing_plan_id":"cebpf4jnsgd1na2vs0mg"},{"bike_id":"da557341-b4a1-447e-9606-415e0f9c6127","system_id":"levelo_inurba_marseille","lat":43.30468,"lon":5.37903,"is_reserved":false,"is_disabled":true,"rental_uris":{"android":"levelo://app?vid=da557341-b4a1-447e-9606-415e0f9c6127","ios":"levelo://app?vid=da557341-b4a1-447e-9606-415e0f9c6127"},"vehicle_type_id":"4","last_reported":1746032909,"current_range_meters":15200,"station_id":"ce4bgup2rcd13ifvqcn0","pricing_plan_id":"cebpf4jnsgd1na2vs0mg"},{"bike_id":"a2b590ae-dbf2-4796-b48b-3d92afdeb5d3","system_id":"levelo_inurba_marseille","lat":43.29005,"lon":5.35597,"is_reserved":false,"is_disabled":false,"rental_uris":{"android":"levelo://app?vid=a2b590ae-dbf2-4796-b48b-3d92afdeb5d3","ios":"levelo://app?vid=a2b590ae-dbf2-4796-b48b-3d92afdeb5d3"},"vehicle_type_id":"4","last_reported":1746032909,"current_range_meters":15200,"station_id":"","pricing_plan_id":"cebpf4jnsgd1na2vs0mg"},{"bike_id":"feff2f09-7b92-45be-bfea-141b56962610","system_id":"levelo_inurba_marseille","lat":43.28941,"lon":5.36638,"is_reserved":false,"is_disabled":false,"rental_uris":{"android":"levelo://app?vid=feff2f09-7b92-45be-bfea-141b56962610","ios":"levelo://app?vid=feff2f09-7b92-45be-bfea-141b56962610"},"vehicle_type_id":"4","last_reported":1746032909,"current_range_meters":16000,"station_id":"ce4bhap2rcd13ifvqek0","pricing_plan_id":"cebpf4jnsgd1na2vs0mg"},{"bike_id":"99448c16-c519-4852-9975-f9a2e7be5a7a","system_id":"levelo_inurba_marseille","lat":43.28607,"lon":5.37066,"is_reserved":false,"is_disabled":false,"rental_uris":{"android":"levelo://app?vid=99448c16-c519-4852-9975-f9a2e7be5a7a","ios":"levelo://app?vid=99448c16-c519-4852-9975-f9a2e7be5a7a"},"vehicle_type_id":"4","last_reported":1746032909,"current_range_meters":16000,"station_id":"ce4bht12rcd13ifvqi60","pricing_plan_id":"cebpf4jnsgd1na2vs0mg"},{"bike_id":"5f325f3c-c5a4-43d7-9479-dd07403a0a13","system_id":"levelo_inurba_marseille","lat":43.24808,"lon":5.37463,"is_reserved":false,"is_disabled":false,"rental_uris":{"android":"levelo://app?vid=5f325f3c-c5a4-43d7-9479-dd07403a0a13","ios":"levelo://app?vid=5f325f3c-c5a4-43d7-9479-dd07403a0a13"},"vehicle_type_id":"4","last_reported":1746032909,"current_range_meters":13600,"station_id":"ce4bhgh2rcd13ifvqfb0","pricing_plan_id":"cebpf4jnsgd1na2vs0mg"},{"bike_id":"083163f5-e2fd-40d2-9e4f-7b3d2d85df31","system_id":"levelo_inurba_marseille","lat":43.27022,"lon":5.38754,"is_reserved":false,"is_disabled":true,"rental_uris":{"android":"levelo://app?vid=083163f5-e2fd-40d2-9e4f-7b3d2d85df31","ios":"levelo://app?vid=083163f5-e2fd-40d2-9e4f-7b3d2d85df31"},"vehicle_type_id":"4","last_reported":1746032909,"current_range_meters":16000,"station_id":"","pricing_plan_id":"cebpf4jnsgd1na2vs0mg"},{"bike_id":"26bfc6e6-5872-4195-b22b-5a96ec1c7cee","system_id":"levelo_inurba_marseille","lat":43.256115,"lon":5.376529,"is_reserved":false,"is_disabled":false,"rental_uris":{"android":"levelo://app?vid=26bfc6e6-5872-4195-b22b-5a96ec1c7cee","ios":"levelo://app?vid=26bfc6e6-5872-4195-b22b-5a96ec1c7cee"},"vehicle_type_id":"4","last_reported":1746032909,"current_range_meters":16000,"station_id":"ce4bhh12rcd13ifvqff0","pricing_plan_id":"cebpf4jnsgd1na2vs0mg"},{"bike_id":"bded5638-5663-46d5-b164-b8214836c3ea","system_id":"levelo_inurba_marseille","lat":43.2617,"lon":5.37431,"is_reserved":false,"is_disabled":false,"rental_uris":{"android":"levelo://app?vid=bded5638-5663-46d5-b164-b8214836c3ea","ios":"levelo://app?vid=bded5638-5663-46d5-b164-b8214836c3ea"},"vehicle_type_id":"4","last_reported":1746032909,"current_range_meters":16400,"station_id":"","pricing_plan_id":"cebpf4jnsgd1na2vs0mg"},{"bike_id":"04b7e339-1cf7-4590-848e-6f8bd2e6b036","system_id":"levelo_inurba_marseille","lat":43.30541,"lon":5.36565,"is_reserved":false,"is_disabled":false,"rental_uris":{"android":"levelo://app?vid=04b7e339-1cf7-4590-848e-6f8bd2e6b036","ios":"levelo://app?vid=04b7e339-1cf7-4590-848e-6f8bd2e6b036"},"vehicle_type_id":"4","last_reported":1746032909,"current_range_meters":16400,"station_id":"ce4bgs12rcd13ifvqcag","pricing_plan_id":"cebpf4jnsgd1na2vs0mg"},{"bike_id":"f8c4d1cf-ebaa-45a9-860f-546979d8d1b8","system_id":"levelo_inurba_marseille","lat":43.292043,"lon":5.393252,"is_reserved":false,"is_disabled":true,"rental_uris":{"android":"levelo://app?vid=f8c4d1cf-ebaa-45a9-860f-546979d8d1b8","ios":"levelo://app?vid=f8c4d1cf-ebaa-45a9-860f-546979d8d1b8"},"vehicle_type_id":"4","last_reported":1746032909,"current_range_meters":16400,"station_id":"ce4bhbh2rcd13ifvqeo0","pricing_plan_id":"cebpf4jnsgd1na2vs0mg"},{"bike_id":"2a185df3-6d44-4a50-b966-88740ceaf43c","system_id":"levelo_inurba_marseille","lat":43.27993,"lon":5.40015,"is_reserved":false,"is_disabled":false,"rental_uris":{"android":"levelo://app?vid=2a185df3-6d44-4a50-b966-88740ceaf43c","ios":"levelo://app?vid=2a185df3-6d44-4a50-b966-88740ceaf43c"},"vehicle_type_id":"4","last_reported":1746032909,"current_range_meters":16000,"station_id":"ce4bho92rcd13ifvqh4g","pricing_plan_id":"cebpf4jnsgd1na2vs0mg"},{"bike_id":"7940bc1b-eaa7-4f49-a435-46dc9391f6a1","system_id":"levelo_inurba_marseille","lat":43.211994,"lon":5.35068,"is_reserved":false,"is_disabled":false,"rental_uris":{"android":"levelo://app?vid=7940bc1b-eaa7-4f49-a435-46dc9391f6a1","ios":"levelo://app?vid=7940bc1b-eaa7-4f49-a435-46dc9391f6a1"},"vehicle_type_id":"4","last_reported":1746032909,"current_range_meters":16400,"station_id":"st_cvj6sg6p6f1abm77japg","pricing_plan_id":"cebpf4jnsgd1na2vs0mg"},{"bike_id":"d458bd7d-da74-4288-acea-2f08ce264c76","system_id":"levelo_inurba_marseille","lat":43.28854,"lon":5.35855,"is_reserved":false,"is_disabled":false,"rental_uris":{"android":"levelo://app?vid=d458bd7d-da74-4288-acea-2f08ce264c76","ios":"levelo://app?vid=d458bd7d-da74-4288-acea-2f08ce264c76"},"vehicle_type_id":"4","last_reported":1746032909,"current_range_meters":16400,"station_id":"ce4bhb12rcd13ifvqem0","pricing_plan_id":"cebpf4jnsgd1na2vs0mg"},{"bike_id":"34b484ab-c0f1-4e55-b51a-e2bafdafb63e","system_id":"levelo_inurba_marseille","lat":43.230569,"lon":5.354944,"is_reserved":false,"is_disabled":false,"rental_uris":{"android":"levelo://app?vid=34b484ab-c0f1-4e55-b51a-e2bafdafb63e","ios":"levelo://app?vid=34b484ab-c0f1-4e55-b51a-e2bafdafb63e"},"vehicle_type_id":"4","last_reported":1746032909,"current_range_meters":16400,"station_id":"cpo3342slgdg3j2ifvpg","pricing_plan_id":"cebpf4jnsgd1na2vs0mg"},{"bike_id":"e3bf2383-a313-4709-8fb0-b4a23593a319","system_id":"levelo_inurba_marseille","lat":43.29027,"lon":5.38627,"is_reserved":false,"is_disabled":true,"rental_uris":{"android":"levelo://app?vid=e3bf2383-a313-4709-8fb0-b4a23593a319","ios":"levelo://app?vid=e3bf2383-a313-4709-8fb0-b4a23593a319"},"vehicle_type_id":"4","last_reported":1746032909,"current_range_meters":16400,"station_id":"ce4bh4p2rcd13ifvqe0g","pricing_plan_id":"cebpf4jnsgd1na2vs0mg"},{"bike_id":"5fbd86eb-724c-43d0-91c4-c24ed5db42df","system_id":"levelo_inurba_marseille","lat":43.28415,"lon":5.37521,"is_reserved":false,"is_disabled":false,"rental_uris":{"android":"levelo://app?vid=5fbd86eb-724c-43d0-91c4-c24ed5db42df","ios":"levelo://app?vid=5fbd86eb-724c-43d0-91c4-c24ed5db42df"},"vehicle_type_id":"4","last_reported":1746032909,"current_range_meters":16800,"station_id":"ce4bh412rcd13ifvqds0","pricing_plan_id":"cebpf4jnsgd1na2vs0mg"},{"bike_id":"70afbbb9-8e83-4e4e-834d-a45502aa8ba4","system_id":"levelo_inurba_marseille","lat":43.29843,"lon":5.36274,"is_reserved":false,"is_disabled":false,"rental_uris":{"android":"levelo://app?vid=70afbbb9-8e83-4e4e-834d-a45502aa8ba4","ios":"levelo://app?vid=70afbbb9-8e83-4e4e-834d-a45502aa8ba4"},"vehicle_type_id":"4","last_reported":1746032909,"current_range_meters":16800,"station_id":"ce4bgpp2rcd13ifvqc3g","pricing_plan_id":"cebpf4jnsgd1na2vs0mg"},{"bike_id":"fd7875a1-1cd0-47f8-880b-6ef58a6b7e2e","system_id":"levelo_inurba_marseille","lat":43.22928,"lon":5.35377,"is_reserved":false,"is_disabled":false,"rental_uris":{"android":"levelo://app?vid=fd7875a1-1cd0-47f8-880b-6ef58a6b7e2e","ios":"levelo://app?vid=fd7875a1-1cd0-47f8-880b-6ef58a6b7e2e"},"vehicle_type_id":"4","last_reported":1746032909,"current_range_meters":16800,"station_id":"cpo3532slgdg3j2ikp40","pricing_plan_id":"cebpf4jnsgd1na2vs0mg"},{"bike_id":"66cf9de5-17de-4e38-9ee0-8d2cef3b4ab3","system_id":"levelo_inurba_marseille","lat":43.30655,"lon":5.40071,"is_reserved":false,"is_disabled":true,"rental_uris":{"android":"levelo://app?vid=66cf9de5-17de-4e38-9ee0-8d2cef3b4ab3","ios":"levelo://app?vid=66cf9de5-17de-4e38-9ee0-8d2cef3b4ab3"},"vehicle_type_id":"4","last_reported":1746032909,"current_range_meters":16800,"station_id":"ce4bh112rcd13ifvqda0","pricing_plan_id":"cebpf4jnsgd1na2vs0mg"},{"bike_id":"c4483e11-b29e-417a-b20a-5e9e69f91950","system_id":"levelo_inurba_marseille","lat":43.29575,"lon":5.36747,"is_reserved":false,"is_disabled":false,"rental_uris":{"android":"levelo://app?vid=c4483e11-b29e-417a-b20a-5e9e69f91950","ios":"levelo://app?vid=c4483e11-b29e-417a-b20a-5e9e69f91950"},"vehicle_type_id":"4","last_reported":1746032909,"current_range_meters":16800,"station_id":"ce4bgph2rcd13ifvqc2g","pricing_plan_id":"cebpf4jnsgd1na2vs0mg"},{"bike_id":"42fd7206-a60e-4641-98bd-2da95ad22a0c","system_id":"levelo_inurba_marseille","lat":43.3042,"lon":5.41287,"is_reserved":false,"is_disabled":false,"rental_uris":{"android":"levelo://app?vid=42fd7206-a60e-4641-98bd-2da95ad22a0c","ios":"levelo://app?vid=42fd7206-a60e-4641-98bd-2da95ad22a0c"},"vehicle_type_id":"4","last_reported":1746032909,"current_range_meters":17200,"station_id":"ce4bhop2rcd13ifvqh8g","pricing_plan_id":"cebpf4jnsgd1na2vs0mg"},{"bike_id":"68387bcf-91b9-4d94-9345-8087e5f6d466","system_id":"levelo_inurba_marseille","lat":43.31333,"lon":5.36771,"is_reserved":false,"is_disabled":false,"rental_uris":{"android":"levelo://app?vid=68387bcf-91b9-4d94-9345-8087e5f6d466","ios":"levelo://app?vid=68387bcf-91b9-4d94-9345-8087e5f6d466"},"vehicle_type_id":"4","last_reported":1746032909,"current_range_meters":17600,"station_id":"","pricing_plan_id":"cebpf4jnsgd1na2vs0mg"},{"bike_id":"28dcb5c6-c443-472c-ab61-ea07760048cf","system_id":"levelo_inurba_marseille","lat":43.24078,"lon":5.377475,"is_reserved":false,"is_disabled":false,"rental_uris":{"android":"levelo://app?vid=28dcb5c6-c443-472c-ab61-ea07760048cf","ios":"levelo://app?vid=28dcb5c6-c443-472c-ab61-ea07760048cf"},"vehicle_type_id":"4","last_reported":1746032909,"current_range_meters":17600,"station_id":"ce4bhnp2rcd13ifvqgvg","pricing_plan_id":"cebpf4jnsgd1na2vs0mg"},{"bike_id":"a06408f8-f8a5-4a45-a900-97e42357982b","system_id":"levelo_inurba_marseille","lat":43.27631,"lon":5.36127,"is_reserved":false,"is_disabled":false,"rental_uris":{"android":"levelo://app?vid=a06408f8-f8a5-4a45-a900-97e42357982b","ios":"levelo://app?vid=a06408f8-f8a5-4a45-a900-97e42357982b"},"vehicle_type_id":"4","last_reported":1746032909,"current_range_meters":17200,"station_id":"ce4bgj92rcd13ifvqbe0","pricing_plan_id":"cebpf4jnsgd1na2vs0mg"},{"bike_id":"0a53abeb-f850-47d6-898e-24db79e80918","system_id":"levelo_inurba_marseille","lat":43.32289,"lon":5.3827,"is_reserved":false,"is_disabled":false,"rental_uris":{"android":"levelo://app?vid=0a53abeb-f850-47d6-898e-24db79e80918","ios":"levelo://app?vid=0a53abeb-f850-47d6-898e-24db79e80918"},"vehicle_type_id":"4","last_reported":1746032909,"current_range_meters":17600,"station_id":"ce4bhr12rcd13ifvqhqg","pricing_plan_id":"cebpf4jnsgd1na2vs0mg"},{"bike_id":"b58385b2-d1b2-4ecc-af75-eb7cf4772905","system_id":"levelo_inurba_marseille","lat":43.23069,"lon":5.35486,"is_reserved":false,"is_disabled":false,"rental_uris":{"android":"levelo://app?vid=b58385b2-d1b2-4ecc-af75-eb7cf4772905","ios":"levelo://app?vid=b58385b2-d1b2-4ecc-af75-eb7cf4772905"},"vehicle_type_id":"4","last_reported":1746032909,"current_range_meters":17600,"station_id":"cpo3342slgdg3j2ifvpg","pricing_plan_id":"cebpf4jnsgd1na2vs0mg"},{"bike_id":"29f01937-8f26-47b9-9781-f9aa8f2890fd","system_id":"levelo_inurba_marseille","lat":43.31533,"lon":5.38038,"is_reserved":false,"is_disabled":false,"rental_uris":{"android":"levelo://app?vid=29f01937-8f26-47b9-9781-f9aa8f2890fd","ios":"levelo://app?vid=29f01937-8f26-47b9-9781-f9aa8f2890fd"},"vehicle_type_id":"4","last_reported":1746032909,"current_range_meters":20400,"station_id":"ce4bhsp2rcd13ifvqi50","pricing_plan_id":"cebpf4jnsgd1na2vs0mg"},{"bike_id":"aa8f2862-7597-41b1-8534-eef1154ad0cd","system_id":"levelo_inurba_marseille","lat":43.28717,"lon":5.361,"is_reserved":false,"is_disabled":false,"rental_uris":{"android":"levelo://app?vid=aa8f2862-7597-41b1-8534-eef1154ad0cd","ios":"levelo://app?vid=aa8f2862-7597-41b1-8534-eef1154ad0cd"},"vehicle_type_id":"4","last_reported":1746032909,"current_range_meters":18000,"station_id":"cki0cbj6b192h4jlfktg","pricing_plan_id":"cebpf4jnsgd1na2vs0mg"},{"bike_id":"14a9129b-5272-4da9-9a32-dc83b8b8c744","system_id":"levelo_inurba_marseille","lat":43.30661,"lon":5.40077,"is_reserved":false,"is_disabled":false,"rental_uris":{"android":"levelo://app?vid=14a9129b-5272-4da9-9a32-dc83b8b8c744","ios":"levelo://app?vid=14a9129b-5272-4da9-9a32-dc83b8b8c744"},"vehicle_type_id":"4","last_reported":1746032909,"current_range_meters":18000,"station_id":"ce4bh112rcd13ifvqda0","pricing_plan_id":"cebpf4jnsgd1na2vs0mg"},{"bike_id":"73925d38-194d-4005-9770-ec366f029453","system_id":"levelo_inurba_marseille","lat":43.30133,"lon":5.39859,"is_reserved":false,"is_disabled":false,"rental_uris":{"android":"levelo://app?vid=73925d38-194d-4005-9770-ec366f029453","ios":"levelo://app?vid=73925d38-194d-4005-9770-ec366f029453"},"vehicle_type_id":"4","last_reported":1746032909,"current_range_meters":18000,"station_id":"ce4bh0h2rcd13ifvqd40","pricing_plan_id":"cebpf4jnsgd1na2vs0mg"},{"bike_id":"4d300f11-92f9-49d3-ae3a-5b4132473d1b","system_id":"levelo_inurba_marseille","lat":43.25114,"lon":5.40314,"is_reserved":false,"is_disabled":false,"rental_uris":{"android":"levelo://app?vid=4d300f11-92f9-49d3-ae3a-5b4132473d1b","ios":"levelo://app?vid=4d300f11-92f9-49d3-ae3a-5b4132473d1b"},"vehicle_type_id":"4","last_reported":1746032909,"current_range_meters":18000,"station_id":"ce4bhlh2rcd13ifvqgig","pricing_plan_id":"cebpf4jnsgd1na2vs0mg"},{"bike_id":"aebdf8c5-253b-4377-a3fb-c4cb08028d37","system_id":"levelo_inurba_marseille","lat":43.31094,"lon":5.38372,"is_reserved":false,"is_disabled":false,"rental_uris":{"android":"levelo://app?vid=aebdf8c5-253b-4377-a3fb-c4cb08028d37","ios":"levelo://app?vid=aebdf8c5-253b-4377-a3fb-c4cb08028d37"},"vehicle_type_id":"4","last_reported":1746032909,"current_range_meters":18000,"station_id":"ce4bgv92rcd13ifvqcr0","pricing_plan_id":"cebpf4jnsgd1na2vs0mg"},{"bike_id":"98eadec0-9da2-4f85-91a0-1dce85348b7d","system_id":"levelo_inurba_marseille","lat":43.259101,"lon":5.38478,"is_reserved":false,"is_disabled":false,"rental_uris":{"android":"levelo://app?vid=98eadec0-9da2-4f85-91a0-1dce85348b7d","ios":"levelo://app?vid=98eadec0-9da2-4f85-91a0-1dce85348b7d"},"vehicle_type_id":"4","last_reported":1746032909,"current_range_meters":17600,"station_id":"ce4bhih2rcd13ifvqfs0","pricing_plan_id":"cebpf4jnsgd1na2vs0mg"},{"bike_id":"8dccab0a-978a-486f-9d17-a84607357a4b","system_id":"levelo_inurba_marseille","lat":43.31022,"lon":5.389648,"is_reserved":false,"is_disabled":false,"rental_uris":{"android":"levelo://app?vid=8dccab0a-978a-486f-9d17-a84607357a4b","ios":"levelo://app?vid=8dccab0a-978a-486f-9d17-a84607357a4b"},"vehicle_type_id":"4","last_reported":1746032909,"current_range_meters":16400,"station_id":"ce4bh292rcd13ifvqdf0","pricing_plan_id":"cebpf4jnsgd1na2vs0mg"},{"bike_id":"19197077-e4d2-4623-97b9-7269ce6d9c7d","system_id":"levelo_inurba_marseille","lat":43.25942,"lon":5.40906,"is_reserved":false,"is_disabled":false,"rental_uris":{"android":"levelo://app?vid=19197077-e4d2-4623-97b9-7269ce6d9c7d","ios":"levelo://app?vid=19197077-e4d2-4623-97b9-7269ce6d9c7d"},"vehicle_type_id":"4","last_reported":1746032909,"current_range_meters":18800,"station_id":"ce4bhm92rcd13ifvqglg","pricing_plan_id":"cebpf4jnsgd1na2vs0mg"},{"bike_id":"010aef2a-f6c2-4e58-aeeb-af6928f8bb93","system_id":"levelo_inurba_marseille","lat":43.323165,"lon":5.407795,"is_reserved":false,"is_disabled":false,"rental_uris":{"android":"levelo://app?vid=010aef2a-f6c2-4e58-aeeb-af6928f8bb93","ios":"levelo://app?vid=010aef2a-f6c2-4e58-aeeb-af6928f8bb93"},"vehicle_type_id":"4","last_reported":1746032909,"current_range_meters":18800,"station_id":"","pricing_plan_id":"cebpf4jnsgd1na2vs0mg"},{"bike_id":"a4780ee5-f8ed-48fc-9d97-e06e97643145","system_id":"levelo_inurba_marseille","lat":43.30533,"lon":5.38429,"is_reserved":false,"is_disabled":false,"rental_uris":{"android":"levelo://app?vid=a4780ee5-f8ed-48fc-9d97-e06e97643145","ios":"levelo://app?vid=a4780ee5-f8ed-48fc-9d97-e06e97643145"},"vehicle_type_id":"4","last_reported":1746032909,"current_range_meters":18000,"station_id":"ce4bgg92rcd13ifvqb30","pricing_plan_id":"cebpf4jnsgd1na2vs0mg"},{"bike_id":"4d023cbb-ffea-49ea-bba5-3c6a370893f3","system_id":"levelo_inurba_marseille","lat":43.28999,"lon":5.35606,"is_reserved":false,"is_disabled":false,"rental_uris":{"android":"levelo://app?vid=4d023cbb-ffea-49ea-bba5-3c6a370893f3","ios":"levelo://app?vid=4d023cbb-ffea-49ea-bba5-3c6a370893f3"},"vehicle_type_id":"4","last_reported":1746032909,"current_range_meters":18800,"station_id":"ce4bhb92rcd13ifvqen0","pricing_plan_id":"cebpf4jnsgd1na2vs0mg"},{"bike_id":"c0aed60b-abe1-4450-b42f-707856c6a5dd","system_id":"levelo_inurba_marseille","lat":43.31372,"lon":5.38491,"is_reserved":false,"is_disabled":false,"rental_uris":{"android":"levelo://app?vid=c0aed60b-abe1-4450-b42f-707856c6a5dd","ios":"levelo://app?vid=c0aed60b-abe1-4450-b42f-707856c6a5dd"},"vehicle_type_id":"4","last_reported":1746032909,"current_range_meters":18000,"station_id":"ce4bgt92rcd13ifvqcf0","pricing_plan_id":"cebpf4jnsgd1na2vs0mg"},{"bike_id":"56b34264-2914-40c6-a942-120c26da88ba","system_id":"levelo_inurba_marseille","lat":43.29797,"lon":5.4041,"is_reserved":false,"is_disabled":false,"rental_uris":{"android":"levelo://app?vid=56b34264-2914-40c6-a942-120c26da88ba","ios":"levelo://app?vid=56b34264-2914-40c6-a942-120c26da88ba"},"vehicle_type_id":"4","last_reported":1746032909,"current_range_meters":18800,"station_id":"ce4bh112rcd13ifvqd90","pricing_plan_id":"cebpf4jnsgd1na2vs0mg"},{"bike_id":"38839aaa-70dd-4ae0-9480-dd157337170b","system_id":"levelo_inurba_marseille","lat":43.24796,"lon":5.37459,"is_reserved":false,"is_disabled":false,"rental_uris":{"android":"levelo://app?vid=38839aaa-70dd-4ae0-9480-dd157337170b","ios":"levelo://app?vid=38839aaa-70dd-4ae0-9480-dd157337170b"},"vehicle_type_id":"4","last_reported":1746032909,"current_range_meters":19200,"station_id":"ce4bhgh2rcd13ifvqfb0","pricing_plan_id":"cebpf4jnsgd1na2vs0mg"},{"bike_id":"c8581763-0ce2-4bab-ab9e-b4108eaa2ed7","system_id":"levelo_inurba_marseille","lat":43.32368,"lon":5.38903,"is_reserved":false,"is_disabled":false,"rental_uris":{"android":"levelo://app?vid=c8581763-0ce2-4bab-ab9e-b4108eaa2ed7","ios":"levelo://app?vid=c8581763-0ce2-4bab-ab9e-b4108eaa2ed7"},"vehicle_type_id":"4","last_reported":1746032909,"current_range_meters":19200,"station_id":"ce4bhqp2rcd13ifvqhog","pricing_plan_id":"cebpf4jnsgd1na2vs0mg"},{"bike_id":"e7ffe102-def9-44df-ab08-bcf2bfb76907","system_id":"levelo_inurba_marseille","lat":43.29615,"lon":5.37712,"is_reserved":false,"is_disabled":true,"rental_uris":{"android":"levelo://app?vid=e7ffe102-def9-44df-ab08-bcf2bfb76907","ios":"levelo://app?vid=e7ffe102-def9-44df-ab08-bcf2bfb76907"},"vehicle_type_id":"4","last_reported":1746032909,"current_range_meters":19200,"station_id":"ce4bgi92rcd13ifvqb90","pricing_plan_id":"cebpf4jnsgd1na2vs0mg"},{"bike_id":"e659d64a-cb28-4d6d-92d2-a9e02dc8d9ce","system_id":"levelo_inurba_marseille","lat":43.32369,"lon":5.38886,"is_reserved":false,"is_disabled":false,"rental_uris":{"android":"levelo://app?vid=e659d64a-cb28-4d6d-92d2-a9e02dc8d9ce","ios":"levelo://app?vid=e659d64a-cb28-4d6d-92d2-a9e02dc8d9ce"},"vehicle_type_id":"4","last_reported":1746032909,"current_range_meters":19600,"station_id":"ce4bhqp2rcd13ifvqhog","pricing_plan_id":"cebpf4jnsgd1na2vs0mg"},{"bike_id":"3ee0e8aa-660d-402c-aefb-330029a48439","system_id":"levelo_inurba_marseille","lat":43.323367,"lon":5.40623,"is_reserved":false,"is_disabled":false,"rental_uris":{"android":"levelo://app?vid=3ee0e8aa-660d-402c-aefb-330029a48439","ios":"levelo://app?vid=3ee0e8aa-660d-402c-aefb-330029a48439"},"vehicle_type_id":"4","last_reported":1746032909,"current_range_meters":19600,"station_id":"ce4bhq92rcd13ifvqhjg","pricing_plan_id":"cebpf4jnsgd1na2vs0mg"},{"bike_id":"b1d7e4d9-a9bd-44b9-b584-2f936fae5215","system_id":"levelo_inurba_marseille","lat":43.33715,"lon":5.39191,"is_reserved":false,"is_disabled":false,"rental_uris":{"android":"levelo://app?vid=b1d7e4d9-a9bd-44b9-b584-2f936fae5215","ios":"levelo://app?vid=b1d7e4d9-a9bd-44b9-b584-2f936fae5215"},"vehicle_type_id":"4","last_reported":1746032909,"current_range_meters":20000,"station_id":"ce4bhr92rcd13ifvqhsg","pricing_plan_id":"cebpf4jnsgd1na2vs0mg"},{"bike_id":"dca25b06-8b80-4512-8a9a-22ebced7e70d","system_id":"levelo_inurba_marseille","lat":43.295583,"lon":5.397617,"is_reserved":false,"is_disabled":false,"rental_uris":{"android":"levelo://app?vid=dca25b06-8b80-4512-8a9a-22ebced7e70d","ios":"levelo://app?vid=dca25b06-8b80-4512-8a9a-22ebced7e70d"},"vehicle_type_id":"4","last_reported":1746032909,"current_range_meters":20000,"station_id":"ce4bh312rcd13ifvqdj0","pricing_plan_id":"cebpf4jnsgd1na2vs0mg"},{"bike_id":"8a108257-ba62-40f1-b151-5864796d192a","system_id":"levelo_inurba_marseille","lat":43.21766,"lon":5.34593,"is_reserved":false,"is_disabled":false,"rental_uris":{"android":"levelo://app?vid=8a108257-ba62-40f1-b151-5864796d192a","ios":"levelo://app?vid=8a108257-ba62-40f1-b151-5864796d192a"},"vehicle_type_id":"4","last_reported":1746032909,"current_range_meters":20000,"station_id":"st_cvj6r9ubvosntc0bgbag","pricing_plan_id":"cebpf4jnsgd1na2vs0mg"},{"bike_id":"d99bf105-2a68-4379-a106-5dfa667da890","system_id":"levelo_inurba_marseille","lat":43.33023,"lon":5.390351,"is_reserved":false,"is_disabled":false,"rental_uris":{"android":"levelo://app?vid=d99bf105-2a68-4379-a106-5dfa667da890","ios":"levelo://app?vid=d99bf105-2a68-4379-a106-5dfa667da890"},"vehicle_type_id":"4","last_reported":1746032909,"current_range_meters":20000,"station_id":"ce4bhr92rcd13ifvqhrg","pricing_plan_id":"cebpf4jnsgd1na2vs0mg"},{"bike_id":"9c1ed6be-8992-46a7-b0cb-4d6f6c59f084","system_id":"levelo_inurba_marseille","lat":43.21752,"lon":5.34602,"is_reserved":false,"is_disabled":false,"rental_uris":{"android":"levelo://app?vid=9c1ed6be-8992-46a7-b0cb-4d6f6c59f084","ios":"levelo://app?vid=9c1ed6be-8992-46a7-b0cb-4d6f6c59f084"},"vehicle_type_id":"4","last_reported":1746032909,"current_range_meters":20000,"station_id":"st_cvj6r9ubvosntc0bgbag","pricing_plan_id":"cebpf4jnsgd1na2vs0mg"},{"bike_id":"c9a5fb05-13eb-4999-ad71-c28136b5041f","system_id":"levelo_inurba_marseille","lat":43.29518,"lon":5.39405,"is_reserved":false,"is_disabled":false,"rental_uris":{"android":"levelo://app?vid=c9a5fb05-13eb-4999-ad71-c28136b5041f","ios":"levelo://app?vid=c9a5fb05-13eb-4999-ad71-c28136b5041f"},"vehicle_type_id":"4","last_reported":1746032909,"current_range_meters":20000,"station_id":"ce4bh292rcd13ifvqdf0","pricing_plan_id":"cebpf4jnsgd1na2vs0mg"},{"bike_id":"e419abce-390a-4146-801c-e75d4acd4e3b","system_id":"levelo_inurba_marseille","lat":43.24547,"lon":5.39523,"is_reserved":false,"is_disabled":false,"rental_uris":{"android":"levelo://app?vid=e419abce-390a-4146-801c-e75d4acd4e3b","ios":"levelo://app?vid=e419abce-390a-4146-801c-e75d4acd4e3b"},"vehicle_type_id":"4","last_reported":1746032909,"current_range_meters":20800,"station_id":"ce4bhlp2rcd13ifvqgjg","pricing_plan_id":"cebpf4jnsgd1na2vs0mg"},{"bike_id":"347ed23a-c6d9-4358-be5e-51ffc2b76a0b","system_id":"levelo_inurba_marseille","lat":43.31571,"lon":5.38946,"is_reserved":false,"is_disabled":false,"rental_uris":{"android":"levelo://app?vid=347ed23a-c6d9-4358-be5e-51ffc2b76a0b","ios":"levelo://app?vid=347ed23a-c6d9-4358-be5e-51ffc2b76a0b"},"vehicle_type_id":"4","last_reported":1746032909,"current_range_meters":20800,"station_id":"","pricing_plan_id":"cebpf4jnsgd1na2vs0mg"},{"bike_id":"5a33fe6d-bf49-4f33-8ac2-c5ab2f0eb61e","system_id":"levelo_inurba_marseille","lat":43.30423,"lon":5.38888,"is_reserved":false,"is_disabled":false,"rental_uris":{"android":"levelo://app?vid=5a33fe6d-bf49-4f33-8ac2-c5ab2f0eb61e","ios":"levelo://app?vid=5a33fe6d-bf49-4f33-8ac2-c5ab2f0eb61e"},"vehicle_type_id":"4","last_reported":1746032909,"current_range_meters":20400,"station_id":"ce4bgk12rcd13ifvqbi0","pricing_plan_id":"cebpf4jnsgd1na2vs0mg"},{"bike_id":"386fa416-122b-46e0-bae7-82566a287551","system_id":"levelo_inurba_marseille","lat":43.30799,"lon":5.43532,"is_reserved":false,"is_disabled":false,"rental_uris":{"android":"levelo://app?vid=386fa416-122b-46e0-bae7-82566a287551","ios":"levelo://app?vid=386fa416-122b-46e0-bae7-82566a287551"},"vehicle_type_id":"4","last_reported":1746032909,"current_range_meters":20800,"station_id":"ce4bhph2rcd13ifvqheg","pricing_plan_id":"cebpf4jnsgd1na2vs0mg"},{"bike_id":"51047e74-187f-4ce8-9f42-7d4049eb9026","system_id":"levelo_inurba_marseille","lat":43.31325,"lon":5.39697,"is_reserved":false,"is_disabled":false,"rental_uris":{"android":"levelo://app?vid=51047e74-187f-4ce8-9f42-7d4049eb9026","ios":"levelo://app?vid=51047e74-187f-4ce8-9f42-7d4049eb9026"},"vehicle_type_id":"4","last_reported":1746032909,"current_range_meters":20800,"station_id":"ce4bgvp2rcd13ifvqcu0","pricing_plan_id":"cebpf4jnsgd1na2vs0mg"},{"bike_id":"e4db32a5-4095-4696-bdbb-52a992de84f4","system_id":"levelo_inurba_marseille","lat":43.3127,"lon":5.40165,"is_reserved":false,"is_disabled":false,"rental_uris":{"android":"levelo://app?vid=e4db32a5-4095-4696-bdbb-52a992de84f4","ios":"levelo://app?vid=e4db32a5-4095-4696-bdbb-52a992de84f4"},"vehicle_type_id":"4","last_reported":1746032909,"current_range_meters":20800,"station_id":"ce4bh092rcd13ifvqd30","pricing_plan_id":"cebpf4jnsgd1na2vs0mg"},{"bike_id":"d9d0f25e-2a8f-4afe-959f-c825e67ac1d7","system_id":"levelo_inurba_marseille","lat":43.28262,"lon":5.35081,"is_reserved":false,"is_disabled":false,"rental_uris":{"android":"levelo://app?vid=d9d0f25e-2a8f-4afe-959f-c825e67ac1d7","ios":"levelo://app?vid=d9d0f25e-2a8f-4afe-959f-c825e67ac1d7"},"vehicle_type_id":"4","last_reported":1746032909,"current_range_meters":21600,"station_id":"ce4bhbp2rcd13ifvqerg","pricing_plan_id":"cebpf4jnsgd1na2vs0mg"},{"bike_id":"3f068f2d-1af1-450e-8169-9e21d364b00b","system_id":"levelo_inurba_marseille","lat":43.29786,"lon":5.37099,"is_reserved":false,"is_disabled":false,"rental_uris":{"android":"levelo://app?vid=3f068f2d-1af1-450e-8169-9e21d364b00b","ios":"levelo://app?vid=3f068f2d-1af1-450e-8169-9e21d364b00b"},"vehicle_type_id":"4","last_reported":1746032909,"current_range_meters":21600,"station_id":"ce4bgop2rcd13ifvqc1g","pricing_plan_id":"cebpf4jnsgd1na2vs0mg"},{"bike_id":"562be236-9a1b-4d0d-bb08-224a0eb0b45d","system_id":"levelo_inurba_marseille","lat":43.28266,"lon":5.3506,"is_reserved":false,"is_disabled":true,"rental_uris":{"android":"levelo://app?vid=562be236-9a1b-4d0d-bb08-224a0eb0b45d","ios":"levelo://app?vid=562be236-9a1b-4d0d-bb08-224a0eb0b45d"},"vehicle_type_id":"4","last_reported":1746032909,"current_range_meters":20800,"station_id":"ce4bhbp2rcd13ifvqerg","pricing_plan_id":"cebpf4jnsgd1na2vs0mg"},{"bike_id":"4d566aa5-5769-44fa-a0e5-242906d15014","system_id":"levelo_inurba_marseille","lat":43.24408,"lon":5.3705,"is_reserved":false,"is_disabled":false,"rental_uris":{"android":"levelo://app?vid=4d566aa5-5769-44fa-a0e5-242906d15014","ios":"levelo://app?vid=4d566aa5-5769-44fa-a0e5-242906d15014"},"vehicle_type_id":"4","last_reported":1746032909,"current_range_meters":21600,"station_id":"ce4bhhh2rcd13ifvqfk0","pricing_plan_id":"cebpf4jnsgd1na2vs0mg"},{"bike_id":"11291953-7269-43f0-89ae-1f65494c650f","system_id":"levelo_inurba_marseille","lat":43.25648,"lon":5.376781,"is_reserved":false,"is_disabled":false,"rental_uris":{"android":"levelo://app?vid=11291953-7269-43f0-89ae-1f65494c650f","ios":"levelo://app?vid=11291953-7269-43f0-89ae-1f65494c650f"},"vehicle_type_id":"4","last_reported":1746032909,"current_range_meters":22000,"station_id":"ce4bhh12rcd13ifvqff0","pricing_plan_id":"cebpf4jnsgd1na2vs0mg"},{"bike_id":"3e93b8aa-6f6a-4e3f-bc40-b832b014d5aa","system_id":"levelo_inurba_marseille","lat":43.28856,"lon":5.3586,"is_reserved":false,"is_disabled":false,"rental_uris":{"android":"levelo://app?vid=3e93b8aa-6f6a-4e3f-bc40-b832b014d5aa","ios":"levelo://app?vid=3e93b8aa-6f6a-4e3f-bc40-b832b014d5aa"},"vehicle_type_id":"4","last_reported":1746032909,"current_range_meters":22000,"station_id":"ce4bhb12rcd13ifvqem0","pricing_plan_id":"cebpf4jnsgd1na2vs0mg"},{"bike_id":"3aeb961f-88b6-47fd-986a-c7b2a855fefd","system_id":"levelo_inurba_marseille","lat":43.23079,"lon":5.3551,"is_reserved":false,"is_disabled":false,"rental_uris":{"android":"levelo://app?vid=3aeb961f-88b6-47fd-986a-c7b2a855fefd","ios":"levelo://app?vid=3aeb961f-88b6-47fd-986a-c7b2a855fefd"},"vehicle_type_id":"4","last_reported":1746032909,"current_range_meters":22000,"station_id":"cpo3342slgdg3j2ifvpg","pricing_plan_id":"cebpf4jnsgd1na2vs0mg"},{"bike_id":"edb09296-1a95-48ea-bf62-00ff2ea73146","system_id":"levelo_inurba_marseille","lat":43.29588,"lon":5.39994,"is_reserved":false,"is_disabled":false,"rental_uris":{"android":"levelo://app?vid=edb09296-1a95-48ea-bf62-00ff2ea73146","ios":"levelo://app?vid=edb09296-1a95-48ea-bf62-00ff2ea73146"},"vehicle_type_id":"4","last_reported":1746032909,"current_range_meters":22000,"station_id":"ce4bh312rcd13ifvqdj0","pricing_plan_id":"cebpf4jnsgd1na2vs0mg"},{"bike_id":"90990db3-7cfc-4599-a4f0-0f13a770c51b","system_id":"levelo_inurba_marseille","lat":43.26942,"lon":5.402415,"is_reserved":false,"is_disabled":false,"rental_uris":{"android":"levelo://app?vid=90990db3-7cfc-4599-a4f0-0f13a770c51b","ios":"levelo://app?vid=90990db3-7cfc-4599-a4f0-0f13a770c51b"},"vehicle_type_id":"4","last_reported":1746032909,"current_range_meters":22000,"station_id":"cjm6bp8fraef2m0cb0m0","pricing_plan_id":"cebpf4jnsgd1na2vs0mg"},{"bike_id":"d627c29b-dba7-438f-bec9-c8435ba66f96","system_id":"levelo_inurba_marseille","lat":43.29237,"lon":5.36085,"is_reserved":false,"is_disabled":false,"rental_uris":{"android":"levelo://app?vid=d627c29b-dba7-438f-bec9-c8435ba66f96","ios":"levelo://app?vid=d627c29b-dba7-438f-bec9-c8435ba66f96"},"vehicle_type_id":"4","last_reported":1746032909,"current_range_meters":22400,"station_id":"ce4bhbh2rcd13ifvqeqg","pricing_plan_id":"cebpf4jnsgd1na2vs0mg"},{"bike_id":"2b3184ec-33db-40eb-8a91-628cf81a5322","system_id":"levelo_inurba_marseille","lat":43.292296,"lon":5.360702,"is_reserved":false,"is_disabled":false,"rental_uris":{"android":"levelo://app?vid=2b3184ec-33db-40eb-8a91-628cf81a5322","ios":"levelo://app?vid=2b3184ec-33db-40eb-8a91-628cf81a5322"},"vehicle_type_id":"4","last_reported":1746032909,"current_range_meters":22400,"station_id":"ce4bhbh2rcd13ifvqeqg","pricing_plan_id":"cebpf4jnsgd1na2vs0mg"},{"bike_id":"c60e3c46-701c-4e6c-a3d4-baa2c4a1b547","system_id":"levelo_inurba_marseille","lat":43.28855,"lon":5.35854,"is_reserved":false,"is_disabled":false,"rental_uris":{"android":"levelo://app?vid=c60e3c46-701c-4e6c-a3d4-baa2c4a1b547","ios":"levelo://app?vid=c60e3c46-701c-4e6c-a3d4-baa2c4a1b547"},"vehicle_type_id":"4","last_reported":1746032909,"current_range_meters":22000,"station_id":"ce4bhb12rcd13ifvqem0","pricing_plan_id":"cebpf4jnsgd1na2vs0mg"},{"bike_id":"cb3d007d-5cec-4727-b897-fff1db5c3f85","system_id":"levelo_inurba_marseille","lat":43.23191,"lon":5.35562,"is_reserved":false,"is_disabled":false,"rental_uris":{"android":"levelo://app?vid=cb3d007d-5cec-4727-b897-fff1db5c3f85","ios":"levelo://app?vid=cb3d007d-5cec-4727-b897-fff1db5c3f85"},"vehicle_type_id":"4","last_reported":1746032909,"current_range_meters":22400,"station_id":"ce4bhu92rcd13ifvqi70","pricing_plan_id":"cebpf4jnsgd1na2vs0mg"},{"bike_id":"1504394b-bf58-4c06-a784-42ffc05ff14f","system_id":"levelo_inurba_marseille","lat":43.33147,"lon":5.38178,"is_reserved":false,"is_disabled":false,"rental_uris":{"android":"levelo://app?vid=1504394b-bf58-4c06-a784-42ffc05ff14f","ios":"levelo://app?vid=1504394b-bf58-4c06-a784-42ffc05ff14f"},"vehicle_type_id":"4","last_reported":1746032909,"current_range_meters":22800,"station_id":"","pricing_plan_id":"cebpf4jnsgd1na2vs0mg"},{"bike_id":"bdd874bf-8b3d-4076-a712-d07e93d4641c","system_id":"levelo_inurba_marseille","lat":43.33015,"lon":5.39043,"is_reserved":false,"is_disabled":false,"rental_uris":{"android":"levelo://app?vid=bdd874bf-8b3d-4076-a712-d07e93d4641c","ios":"levelo://app?vid=bdd874bf-8b3d-4076-a712-d07e93d4641c"},"vehicle_type_id":"4","last_reported":1746032909,"current_range_meters":22800,"station_id":"ce4bhr92rcd13ifvqhrg","pricing_plan_id":"cebpf4jnsgd1na2vs0mg"},{"bike_id":"c695bac2-0581-4a6a-b9c9-eb8e0d8673ed","system_id":"levelo_inurba_marseille","lat":43.33735,"lon":5.39199,"is_reserved":false,"is_disabled":false,"rental_uris":{"android":"levelo://app?vid=c695bac2-0581-4a6a-b9c9-eb8e0d8673ed","ios":"levelo://app?vid=c695bac2-0581-4a6a-b9c9-eb8e0d8673ed"},"vehicle_type_id":"4","last_reported":1746032909,"current_range_meters":22800,"station_id":"ce4bhr92rcd13ifvqhsg","pricing_plan_id":"cebpf4jnsgd1na2vs0mg"},{"bike_id":"ec34b57a-97ff-4175-93f8-9e288fe194cf","system_id":"levelo_inurba_marseille","lat":43.28666,"lon":5.36358,"is_reserved":false,"is_disabled":false,"rental_uris":{"android":"levelo://app?vid=ec34b57a-97ff-4175-93f8-9e288fe194cf","ios":"levelo://app?vid=ec34b57a-97ff-4175-93f8-9e288fe194cf"},"vehicle_type_id":"4","last_reported":1746032909,"current_range_meters":22400,"station_id":"","pricing_plan_id":"cebpf4jnsgd1na2vs0mg"},{"bike_id":"1ab0a3e0-f567-4ff3-8253-8ec24ba0fe77","system_id":"levelo_inurba_marseille","lat":43.2306,"lon":5.35499,"is_reserved":false,"is_disabled":false,"rental_uris":{"android":"levelo://app?vid=1ab0a3e0-f567-4ff3-8253-8ec24ba0fe77","ios":"levelo://app?vid=1ab0a3e0-f567-4ff3-8253-8ec24ba0fe77"},"vehicle_type_id":"4","last_reported":1746032909,"current_range_meters":22800,"station_id":"cpo3342slgdg3j2ifvpg","pricing_plan_id":"cebpf4jnsgd1na2vs0mg"},{"bike_id":"2e870896-c00c-4dbd-8171-b606afa22978","system_id":"levelo_inurba_marseille","lat":43.30553,"lon":5.36528,"is_reserved":false,"is_disabled":true,"rental_uris":{"android":"levelo://app?vid=2e870896-c00c-4dbd-8171-b606afa22978","ios":"levelo://app?vid=2e870896-c00c-4dbd-8171-b606afa22978"},