{"last_updated":1746342530,"ttl":60,"version":"2.2","data":{"bikes":[{"bike_id":"9d74364d-ecc9-4b75-a85b-7ac9f1e066db","system_id":"levelo_inurba_marseille","lat":43.29164,"lon":5.3716,"is_reserved":false,"is_disabled":false,"rental_uris":{"android":"levelo://app?vid=9d74364d-ecc9-4b75-a85b-7ac9f1e066db","ios":"levelo://app?vid=9d74364d-ecc9-4b75-a85b-7ac9f1e066db"},"vehicle_type_id":"4","last_reported":1746342530,"current_range_meters":2800,"station_id":"ce4bha92rcd13ifvqeh0","pricing_plan_id":"cebpf4jnsgd1na2vs0mg"},{"bike_id":"78647f6c-5b39-4fc3-8ddc-922db495866f","system_id":"levelo_inurba_marseille","lat":43.27804,"lon":5.40725,"is_reserved":false,"is_disabled":true,"rental_uris":{"android":"levelo://app?vid=78647f6c-5b39-4fc3-8ddc-922db495866f","ios":"levelo://app?vid=78647f6c-5b39-4fc3-8ddc-922db495866f"},"vehicle_type_id":"4","last_reported":1746342530,"current_range_meters":2800,"station_id":"ce4bhnh2rcd13ifvqgtg","pricing_plan_id":"cebpf4jnsgd1na2vs0mg"},{"bike_id":"a80a1208-c167-444a-ac05-c89e0b80bef2","system_id":"levelo_inurba_marseille","lat":43.27919,"lon":5.3877,"is_reserved":false,"is_disabled":false,"rental_uris":{"android":"levelo://app?vid=a80a1208-c167-444a-ac05-c89e0b80bef2","ios":"levelo://app?vid=a80a1208-c167-444a-ac05-c89e0b80bef2"},"vehicle_type_id":"4","last_reported":1746342530,"current_range_meters":2800,"station_id":"ce4bhg12rcd13ifvqf80","pricing_plan_id":"cebpf4jnsgd1na2vs0mg"},{"bike_id":"beb2536f-b95c-42a3-954e-a55ebb0abeec","system_id":"levelo_inurba_marseille","lat":43.30946,"lon":5.3823,"is_reserved":false,"is_disabled":false,"rental_uris":{"android":"levelo://app?vid=beb2536f-b95c-42a3-954e-a55ebb0abeec","ios":"levelo://app?vid=beb2536f-b95c-42a3-954e-a55ebb0abeec"},"vehicle_type_id":"4","last_reported":1746342530,"current_range_meters":2800,"station_id":"","pricing_plan_id":"cebpf4jnsgd1na2vs0mg"},{"bike_id":"cd0a11c1-4fe1-4781-ac80-00d76e54026c","system_id":"levelo_inurba_marseille","lat":43.337985,"lon":5.421575,"is_reserved":false,"is_disabled":false,"rental_uris":{"android":"levelo://app?vid=cd0a11c1-4fe1-4781-ac80-00d76e54026c","ios":"levelo://app?vid=cd0a11c1-4fe1-4781-ac80-00d76e54026c"},"vehicle_type_id":"4","last_reported":1746342530,"current_range_meters":2800,"station_id":"","pricing_plan_id":"cebpf4jnsgd1na2vs0mg"},{"bike_id":"58cf56cc-90d2-488e-b991-be539aff6c8c","system_id":"levelo_inurba_marseille","lat":43.27635,"lon":5.36101,"is_reserved":false,"is_disabled":false,"rental_uris":{"android":"levelo://app?vid=58cf56cc-90d2-488e-b991-be539aff6c8c","ios":"levelo://app?vid=58cf56cc-90d2-488e-b991-be539aff6c8c"},"vehicle_type_id":"4","last_reported":1746342530,"current_range_meters":2800,"station_id":"ce4bgj92rcd13ifvqbe0","pricing_plan_id":"cebpf4jnsgd1na2vs0mg"},{"bike_id":"5cb92efc-d8d4-484d-a43e-2a1cc351b386","system_id":"levelo_inurba_marseille","lat":43.24178,"lon":5.36393,"is_reserved":false,"is_disabled":false,"rental_uris":{"android":"levelo://app?vid=5cb92efc-d8d4-484d-a43e-2a1cc351b386","ios":"levelo://app?vid=5cb92efc-d8d4-484d-a43e-2a1cc351b386"},"vehicle_type_id":"4","last_reported":1746342530,"current_range_meters":2800,"station_id":"cpo36qri1sfpv3e86is0","pricing_plan_id":"cebpf4jnsgd1na2vs0mg"},{"bike_id":"20a0161f-8c97-41c6-b725-2c48f8bc5d22","system_id":"levelo_inurba_marseille","lat":43.33075,"lon":5.39455,"is_reserved":false,"is_disabled":false,"rental_uris":{"android":"levelo://app?vid=20a0161f-8c97-41c6-b725-2c48f8bc5d22","ios":"levelo://app?vid=20a0161f-8c97-41c6-b725-2c48f8bc5d22"},"vehicle_type_id":"4","last_reported":1746342530,"current_range_meters":3200,"station_id":"","pricing_plan_id":"cebpf4jnsgd1na2vs0mg"},{"bike_id":"a2ad1045-b588-4bc1-a260-66d4d5be8334","system_id":"levelo_inurba_marseille","lat":43.272101,"lon":5.391784,"is_reserved":false,"is_disabled":false,"rental_uris":{"android":"levelo://app?vid=a2ad1045-b588-4bc1-a260-66d4d5be8334","ios":"levelo://app?vid=a2ad1045-b588-4bc1-a260-66d4d5be8334"},"vehicle_type_id":"4","last_reported":1746342530,"current_range_meters":3600,"station_id":"","pricing_plan_id":"cebpf4jnsgd1na2vs0mg"},{"bike_id":"c2ed84b5-f328-4415-aaf4-3a14f2be55f4","system_id":"levelo_inurba_marseille","lat":43.25126,"lon":5.40325,"is_reserved":false,"is_disabled":false,"rental_uris":{"android":"levelo://app?vid=c2ed84b5-f328-4415-aaf4-3a14f2be55f4","ios":"levelo://app?vid=c2ed84b5-f328-4415-aaf4-3a14f2be55f4"},"vehicle_type_id":"4","last_reported":1746342530,"current_range_meters":3600,"station_id":"ce4bhlh2rcd13ifvqgig","pricing_plan_id":"cebpf4jnsgd1na2vs0mg"},{"bike_id":"4341dfab-438e-4d1a-8a6a-87a65b8fed8c","system_id":"levelo_inurba_marseille","lat":43.299083,"lon":5.381246,"is_reserved":false,"is_disabled":true,"rental_uris":{"android":"levelo://app?vid=4341dfab-438e-4d1a-8a6a-87a65b8fed8c","ios":"levelo://app?vid=4341dfab-438e-4d1a-8a6a-87a65b8fed8c"},"vehicle_type_id":"4","last_reported":1746342530,"current_range_meters":3600,"station_id":"ce4bgj12rcd13ifvqbc0","pricing_plan_id":"cebpf4jnsgd1na2vs0mg"},{"bike_id":"8591ffe5-88f0-4559-bece-37ffa9b499eb","system_id":"levelo_inurba_marseille","lat":43.251181,"lon":5.40329,"is_reserved":false,"is_disabled":false,"rental_uris":{"android":"levelo://app?vid=8591ffe5-88f0-4559-bece-37ffa9b499eb","ios":"levelo://app?vid=8591ffe5-88f0-4559-bece-37ffa9b499eb"},"vehicle_type_id":"4","last_reported":1746342530,"current_range_meters":3600,"station_id":"ce4bhlh2rcd13ifvqgig","pricing_plan_id":"cebpf4jnsgd1na2vs0mg"},{"bike_id":"d11b7274-ad1d-4343-a0b8-143798db8be1","system_id":"levelo_inurba_marseille","lat":43.229197,"lon":5.353935,"is_reserved":false,"is_disabled":true,"rental_uris":{"android":"levelo://app?vid=d11b7274-ad1d-4343-a0b8-143798db8be1","ios":"levelo://app?vid=d11b7274-ad1d-4343-a0b8-143798db8be1"},"vehicle_type_id":"4","last_reported":1746342530,"current_range_meters":4000,"station_id":"cpo3532slgdg3j2ikp40","pricing_plan_id":"cebpf4jnsgd1na2vs0mg"},{"bike_id":"ea54a43f-bc03-4784-86c5-a6aba0a39cd2","system_id":"levelo_inurba_marseille","lat":43.30774,"lon":5.37671,"is_reserved":false,"is_disabled":false,"rental_uris":{"android":"levelo://app?vid=ea54a43f-bc03-4784-86c5-a6aba0a39cd2","ios":"levelo://app?vid=ea54a43f-bc03-4784-86c5-a6aba0a39cd2"},"vehicle_type_id":"4","last_reported":1746342530,"current_range_meters":4000,"station_id":"ce4bgv92rcd13ifvqcq0","pricing_plan_id":"cebpf4jnsgd1na2vs0mg"},{"bike_id":"f068dde4-d214-41bb-af4c-23542d208ad2","system_id":"levelo_inurba_marseille","lat":43.24175,"lon":5.39712,"is_reserved":false,"is_disabled":false,"rental_uris":{"android":"levelo://app?vid=f068dde4-d214-41bb-af4c-23542d208ad2","ios":"levelo://app?vid=f068dde4-d214-41bb-af4c-23542d208ad2"},"vehicle_type_id":"4","last_reported":1746342530,"current_range_meters":4000,"station_id":"ce4bhn12rcd13ifvqgpg","pricing_plan_id":"cebpf4jnsgd1na2vs0mg"},{"bike_id":"20128e84-93ae-4d65-b261-8c473a3a46a7","system_id":"levelo_inurba_marseille","lat":43.31528,"lon":5.38008,"is_reserved":false,"is_disabled":false,"rental_uris":{"android":"levelo://app?vid=20128e84-93ae-4d65-b261-8c473a3a46a7","ios":"levelo://app?vid=20128e84-93ae-4d65-b261-8c473a3a46a7"},"vehicle_type_id":"4","last_reported":1746342530,"current_range_meters":4000,"station_id":"ce4bhsp2rcd13ifvqi50","pricing_plan_id":"cebpf4jnsgd1na2vs0mg"},{"bike_id":"e1fea8e4-ce01-48e8-9ccb-ed4b27d62a66","system_id":"levelo_inurba_marseille","lat":43.25575,"lon":5.38237,"is_reserved":false,"is_disabled":false,"rental_uris":{"android":"levelo://app?vid=e1fea8e4-ce01-48e8-9ccb-ed4b27d62a66","ios":"levelo://app?vid=e1fea8e4-ce01-48e8-9ccb-ed4b27d62a66"},"vehicle_type_id":"4","last_reported":1746342530,"current_range_meters":4400,"station_id":"ce4bhih2rcd13ifvqfs0","pricing_plan_id":"cebpf4jnsgd1na2vs0mg"},{"bike_id":"ee431cbb-877d-4c13-8c16-79999e3facb4","system_id":"levelo_inurba_marseille","lat":43.33131,"lon":5.43092,"is_reserved":false,"is_disabled":false,"rental_uris":{"android":"levelo://app?vid=ee431cbb-877d-4c13-8c16-79999e3facb4","ios":"levelo://app?vid=ee431cbb-877d-4c13-8c16-79999e3facb4"},"vehicle_type_id":"4","last_reported":1746342530,"current_range_meters":4400,"station_id":"","pricing_plan_id":"cebpf4jnsgd1na2vs0mg"},{"bike_id":"eccb9949-8da0-4d96-90a4-b1197677154d","system_id":"levelo_inurba_marseille","lat":43.29696,"lon":5.36605,"is_reserved":false,"is_disabled":false,"rental_uris":{"android":"levelo://app?vid=eccb9949-8da0-4d96-90a4-b1197677154d","ios":"levelo://app?vid=eccb9949-8da0-4d96-90a4-b1197677154d"},"vehicle_type_id":"4","last_reported":1746342530,"current_range_meters":4400,"station_id":"ce4bgn12rcd13ifvqbt0","pricing_plan_id":"cebpf4jnsgd1na2vs0mg"},{"bike_id":"b24e1c00-6f34-4818-ab0a-32914331665c","system_id":"levelo_inurba_marseille","lat":43.30797,"lon":5.37624,"is_reserved":false,"is_disabled":false,"rental_uris":{"android":"levelo://app?vid=b24e1c00-6f34-4818-ab0a-32914331665c","ios":"levelo://app?vid=b24e1c00-6f34-4818-ab0a-32914331665c"},"vehicle_type_id":"4","last_reported":1746342530,"current_range_meters":4400,"station_id":"ce4bgv92rcd13ifvqcq0","pricing_plan_id":"cebpf4jnsgd1na2vs0mg"},{"bike_id":"343558bc-7f35-44a3-aec0-03f28380f248","system_id":"levelo_inurba_marseille","lat":43.26195,"lon":5.37462,"is_reserved":false,"is_disabled":false,"rental_uris":{"android":"levelo://app?vid=343558bc-7f35-44a3-aec0-03f28380f248","ios":"levelo://app?vid=343558bc-7f35-44a3-aec0-03f28380f248"},"vehicle_type_id":"4","last_reported":1746342530,"current_range_meters":4800,"station_id":"ce4bhgp2rcd13ifvqfc0","pricing_plan_id":"cebpf4jnsgd1na2vs0mg"},{"bike_id":"dffe801c-54a4-4856-aa3d-e70caa285be4","system_id":"levelo_inurba_marseille","lat":43.29264,"lon":5.36227,"is_reserved":false,"is_disabled":true,"rental_uris":{"android":"levelo://app?vid=dffe801c-54a4-4856-aa3d-e70caa285be4","ios":"levelo://app?vid=dffe801c-54a4-4856-aa3d-e70caa285be4"},"vehicle_type_id":"4","last_reported":1746342530,"current_range_meters":4800,"station_id":"","pricing_plan_id":"cebpf4jnsgd1na2vs0mg"},{"bike_id":"e341752c-8655-4500-bdaa-1fbfa4780079","system_id":"levelo_inurba_marseille","lat":43.29063,"lon":5.37159,"is_reserved":false,"is_disabled":true,"rental_uris":{"android":"levelo://app?vid=e341752c-8655-4500-bdaa-1fbfa4780079","ios":"levelo://app?vid=e341752c-8655-4500-bdaa-1fbfa4780079"},"vehicle_type_id":"4","last_reported":1746342530,"current_range_meters":5600,"station_id":"ce4bh5p2rcd13ifvqe4g","pricing_plan_id":"cebpf4jnsgd1na2vs0mg"},{"bike_id":"208c1a96-c46f-4193-b924-3bf7033ea14e","system_id":"levelo_inurba_marseille","lat":43.23215,"lon":5.3557,"is_reserved":false,"is_disabled":false,"rental_uris":{"android":"levelo://app?vid=208c1a96-c46f-4193-b924-3bf7033ea14e","ios":"levelo://app?vid=208c1a96-c46f-4193-b924-3bf7033ea14e"},"vehicle_type_id":"4","last_reported":1746342530,"current_range_meters":5600,"station_id":"ce4bhu92rcd13ifvqi70","pricing_plan_id":"cebpf4jnsgd1na2vs0mg"},{"bike_id":"c7f43adf-abf8-45f7-a4fe-8e1cf7384f23","system_id":"levelo_inurba_marseille","lat":43.304076,"lon":5.412861,"is_reserved":false,"is_disabled":false,"rental_uris":{"android":"levelo://app?vid=c7f43adf-abf8-45f7-a4fe-8e1cf7384f23","ios":"levelo://app?vid=c7f43adf-abf8-45f7-a4fe-8e1cf7384f23"},"vehicle_type_id":"4","last_reported":1746342530,"current_range_meters":5600,"station_id":"ce4bhop2rcd13ifvqh8g","pricing_plan_id":"cebpf4jnsgd1na2vs0mg"},{"bike_id":"b9fac56e-fb84-4730-9d09-c8e94bf61e58","system_id":"levelo_inurba_marseille","lat":43.27163,"lon":5.41004,"is_reserved":false,"is_disabled":false,"rental_uris":{"android":"levelo://app?vid=b9fac56e-fb84-4730-9d09-c8e94bf61e58","ios":"levelo://app?vid=b9fac56e-fb84-4730-9d09-c8e94bf61e58"},"vehicle_type_id":"4","last_reported":1746342530,"current_range_meters":6000,"station_id":"ce4bhl12rcd13ifvqgf0","pricing_plan_id":"cebpf4jnsgd1na2vs0mg"},{"bike_id":"68d50610-9efc-41a2-8a89-956e7c0c6b05","system_id":"levelo_inurba_marseille","lat":43.29013,"lon":5.35616,"is_reserved":false,"is_disabled":false,"rental_uris":{"android":"levelo://app?vid=68d50610-9efc-41a2-8a89-956e7c0c6b05","ios":"levelo://app?vid=68d50610-9efc-41a2-8a89-956e7c0c6b05"},"vehicle_type_id":"4","last_reported":1746342530,"current_range_meters":6000,"station_id":"ce4bhb92rcd13ifvqen0","pricing_plan_id":"cebpf4jnsgd1na2vs0mg"},{"bike_id":"54e9ed8b-7809-47f3-a9be-13e641f6ac96","system_id":"levelo_inurba_marseille","lat":43.30148,"lon":5.38086,"is_reserved":false,"is_disabled":false,"rental_uris":{"android":"levelo://app?vid=54e9ed8b-7809-47f3-a9be-13e641f6ac96","ios":"levelo://app?vid=54e9ed8b-7809-47f3-a9be-13e641f6ac96"},"vehicle_type_id":"4","last_reported":1746342530,"current_range_meters":6000,"station_id":"ce4bgjp2rcd13ifvqbh0","pricing_plan_id":"cebpf4jnsgd1na2vs0mg"},{"bike_id":"5bc4e19d-d60f-4bec-9362-08ce2beefef2","system_id":"levelo_inurba_marseille","lat":43.27914,"lon":5.3957,"is_reserved":false,"is_disabled":false,"rental_uris":{"android":"levelo://app?vid=5bc4e19d-d60f-4bec-9362-08ce2beefef2","ios":"levelo://app?vid=5bc4e19d-d60f-4bec-9362-08ce2beefef2"},"vehicle_type_id":"4","last_reported":1746342530,"current_range_meters":6000,"station_id":"ce4bhf92rcd13ifvqf40","pricing_plan_id":"cebpf4jnsgd1na2vs0mg"},{"bike_id":"909825d5-7ad2-409e-b0de-cec7d5b4fa06","system_id":"levelo_inurba_marseille","lat":43.242123,"lon":5.367414,"is_reserved":false,"is_disabled":false,"rental_uris":{"android":"levelo://app?vid=909825d5-7ad2-409e-b0de-cec7d5b4fa06","ios":"levelo://app?vid=909825d5-7ad2-409e-b0de-cec7d5b4fa06"},"vehicle_type_id":"4","last_reported":1746342530,"current_range_meters":6000,"station_id":"","pricing_plan_id":"cebpf4jnsgd1na2vs0mg"},{"bike_id":"39d83911-e17e-4776-b8f2-6450602c8696","system_id":"levelo_inurba_marseille","lat":43.29903,"lon":5.43625,"is_reserved":false,"is_disabled":false,"rental_uris":{"android":"levelo://app?vid=39d83911-e17e-4776-b8f2-6450602c8696","ios":"levelo://app?vid=39d83911-e17e-4776-b8f2-6450602c8696"},"vehicle_type_id":"4","last_reported":1746342530,"current_range_meters":6400,"station_id":"ce4bhpp2rcd13ifvqhfg","pricing_plan_id":"cebpf4jnsgd1na2vs0mg"},{"bike_id":"b38ffdcd-1ce1-4a3c-b717-cc187704e619","system_id":"levelo_inurba_marseille","lat":43.27915,"lon":5.39573,"is_reserved":false,"is_disabled":false,"rental_uris":{"android":"levelo://app?vid=b38ffdcd-1ce1-4a3c-b717-cc187704e619","ios":"levelo://app?vid=b38ffdcd-1ce1-4a3c-b717-cc187704e619"},"vehicle_type_id":"4","last_reported":1746342530,"current_range_meters":6400,"station_id":"ce4bhf92rcd13ifvqf40","pricing_plan_id":"cebpf4jnsgd1na2vs0mg"},{"bike_id":"4dd08eac-df5d-4142-8b38-1718a060526d","system_id":"levelo_inurba_marseille","lat":43.245461,"lon":5.395279,"is_reserved":false,"is_disabled":false,"rental_uris":{"android":"levelo://app?vid=4dd08eac-df5d-4142-8b38-1718a060526d","ios":"levelo://app?vid=4dd08eac-df5d-4142-8b38-1718a060526d"},"vehicle_type_id":"4","last_reported":1746342530,"current_range_meters":6400,"station_id":"ce4bhlp2rcd13ifvqgjg","pricing_plan_id":"cebpf4jnsgd1na2vs0mg"},{"bike_id":"15639684-06e9-4773-81ae-ae812c7102e7","system_id":"levelo_inurba_marseille","lat":43.29039,"lon":5.37557,"is_reserved":false,"is_disabled":false,"rental_uris":{"android":"levelo://app?vid=15639684-06e9-4773-81ae-ae812c7102e7","ios":"levelo://app?vid=15639684-06e9-4773-81ae-ae812c7102e7"},"vehicle_type_id":"4","last_reported":1746342530,"current_range_meters":6800,"station_id":"ce4bh692rcd13ifvqe90","pricing_plan_id":"cebpf4jnsgd1na2vs0mg"},{"bike_id":"c7e47698-0020-47cf-94a4-404079760935","system_id":"levelo_inurba_marseille","lat":43.28394,"lon":5.37486,"is_reserved":false,"is_disabled":true,"rental_uris":{"android":"levelo://app?vid=c7e47698-0020-47cf-94a4-404079760935","ios":"levelo://app?vid=c7e47698-0020-47cf-94a4-404079760935"},"vehicle_type_id":"4","last_reported":1746342530,"current_range_meters":6800,"station_id":"ce4bh412rcd13ifvqds0","pricing_plan_id":"cebpf4jnsgd1na2vs0mg"},{"bike_id":"db9be0c1-80d5-4315-9367-2a96fca91123","system_id":"levelo_inurba_marseille","lat":43.30654,"lon":5.40081,"is_reserved":false,"is_disabled":false,"rental_uris":{"android":"levelo://app?vid=db9be0c1-80d5-4315-9367-2a96fca91123","ios":"levelo://app?vid=db9be0c1-80d5-4315-9367-2a96fca91123"},"vehicle_type_id":"4","last_reported":1746342530,"current_range_meters":6800,"station_id":"ce4bh112rcd13ifvqda0","pricing_plan_id":"cebpf4jnsgd1na2vs0mg"},{"bike_id":"e27ce41e-d31e-4411-a762-387f29d91877","system_id":"levelo_inurba_marseille","lat":43.29498,"lon":5.42326,"is_reserved":false,"is_disabled":false,"rental_uris":{"android":"levelo://app?vid=e27ce41e-d31e-4411-a762-387f29d91877","ios":"levelo://app?vid=e27ce41e-d31e-4411-a762-387f29d91877"},"vehicle_type_id":"4","last_reported":1746342530,"current_range_meters":6800,"station_id":"","pricing_plan_id":"cebpf4jnsgd1na2vs0mg"},{"bike_id":"570b486c-50df-4f1f-97df-caa86c0d419e","system_id":"levelo_inurba_marseille","lat":43.33679,"lon":5.35608,"is_reserved":false,"is_disabled":false,"rental_uris":{"android":"levelo://app?vid=570b486c-50df-4f1f-97df-caa86c0d419e","ios":"levelo://app?vid=570b486c-50df-4f1f-97df-caa86c0d419e"},"vehicle_type_id":"4","last_reported":1746342530,"current_range_meters":6800,"station_id":"","pricing_plan_id":"cebpf4jnsgd1na2vs0mg"},{"bike_id":"fefd08ec-5881-4aed-9781-2a8173dd5fb9","system_id":"levelo_inurba_marseille","lat":43.29447,"lon":5.3826,"is_reserved":false,"is_disabled":false,"rental_uris":{"android":"levelo://app?vid=fefd08ec-5881-4aed-9781-2a8173dd5fb9","ios":"levelo://app?vid=fefd08ec-5881-4aed-9781-2a8173dd5fb9"},"vehicle_type_id":"4","last_reported":1746342530,"current_range_meters":6800,"station_id":"","pricing_plan_id":"cebpf4jnsgd1na2vs0mg"},{"bike_id":"6012e73f-a97d-4080-8451-31be47c04cb3","system_id":"levelo_inurba_marseille","lat":43.241689,"lon":5.397341,"is_reserved":false,"is_disabled":false,"rental_uris":{"android":"levelo://app?vid=6012e73f-a97d-4080-8451-31be47c04cb3","ios":"levelo://app?vid=6012e73f-a97d-4080-8451-31be47c04cb3"},"vehicle_type_id":"4","last_reported":1746342530,"current_range_meters":6800,"station_id":"ce4bhn12rcd13ifvqgpg","pricing_plan_id":"cebpf4jnsgd1na2vs0mg"},{"bike_id":"0302bd70-939c-430a-8ac0-c53145da9730","system_id":"levelo_inurba_marseille","lat":43.31998,"lon":5.38163,"is_reserved":false,"is_disabled":false,"rental_uris":{"android":"levelo://app?vid=0302bd70-939c-430a-8ac0-c53145da9730","ios":"levelo://app?vid=0302bd70-939c-430a-8ac0-c53145da9730"},"vehicle_type_id":"4","last_reported":1746342530,"current_range_meters":6800,"station_id":"ce4bhr12rcd13ifvqhpg","pricing_plan_id":"cebpf4jnsgd1na2vs0mg"},{"bike_id":"02b445bf-8103-43fd-96fb-7970a970f33c","system_id":"levelo_inurba_marseille","lat":43.28747,"lon":5.39988,"is_reserved":false,"is_disabled":false,"rental_uris":{"android":"levelo://app?vid=02b445bf-8103-43fd-96fb-7970a970f33c","ios":"levelo://app?vid=02b445bf-8103-43fd-96fb-7970a970f33c"},"vehicle_type_id":"4","last_reported":1746342530,"current_range_meters":6800,"station_id":"ce4bho92rcd13ifvqh3g","pricing_plan_id":"cebpf4jnsgd1na2vs0mg"},{"bike_id":"0ca2aeff-c10c-4be3-8c0b-3162193c983e","system_id":"levelo_inurba_marseille","lat":43.307688,"lon":5.376552,"is_reserved":false,"is_disabled":true,"rental_uris":{"android":"levelo://app?vid=0ca2aeff-c10c-4be3-8c0b-3162193c983e","ios":"levelo://app?vid=0ca2aeff-c10c-4be3-8c0b-3162193c983e"},"vehicle_type_id":"4","last_reported":1746342530,"current_range_meters":7200,"station_id":"","pricing_plan_id":"cebpf4jnsgd1na2vs0mg"},{"bike_id":"702b6be1-19c8-40b8-9c1a-2ab0c019e557","system_id":"levelo_inurba_marseille","lat":43.29457,"lon":5.39758,"is_reserved":false,"is_disabled":false,"rental_uris":{"android":"levelo://app?vid=702b6be1-19c8-40b8-9c1a-2ab0c019e557","ios":"levelo://app?vid=702b6be1-19c8-40b8-9c1a-2ab0c019e557"},"vehicle_type_id":"4","last_reported":1746342530,"current_range_meters":7200,"station_id":"ce4bh3h2rcd13ifvqdo0","pricing_plan_id":"cebpf4jnsgd1na2vs0mg"},{"bike_id":"125ca05d-5a4c-4327-ae64-e200198cedf3","system_id":"levelo_inurba_marseille","lat":43.295578,"lon":5.422799,"is_reserved":false,"is_disabled":false,"rental_uris":{"android":"levelo://app?vid=125ca05d-5a4c-4327-ae64-e200198cedf3","ios":"levelo://app?vid=125ca05d-5a4c-4327-ae64-e200198cedf3"},"vehicle_type_id":"4","last_reported":1746342530,"current_range_meters":7200,"station_id":"ce4bhph2rcd13ifvqhdg","pricing_plan_id":"cebpf4jnsgd1na2vs0mg"},{"bike_id":"33d984bb-57d7-4933-bc68-507510f5f8a6","system_id":"levelo_inurba_marseille","lat":43.241764,"lon":5.397331,"is_reserved":false,"is_disabled":false,"rental_uris":{"android":"levelo://app?vid=33d984bb-57d7-4933-bc68-507510f5f8a6","ios":"levelo://app?vid=33d984bb-57d7-4933-bc68-507510f5f8a6"},"vehicle_type_id":"4","last_reported":1746342530,"current_range_meters":7200,"station_id":"ce4bhn12rcd13ifvqgpg","pricing_plan_id":"cebpf4jnsgd1na2vs0mg"},{"bike_id":"dfb3396e-96f5-457c-af11-f6f27dad33e9","system_id":"levelo_inurba_marseille","lat":43.27182,"lon":5.36463,"is_reserved":false,"is_disabled":false,"rental_uris":{"android":"levelo://app?vid=dfb3396e-96f5-457c-af11-f6f27dad33e9","ios":"levelo://app?vid=dfb3396e-96f5-457c-af11-f6f27dad33e9"},"vehicle_type_id":"4","last_reported":1746342530,"current_range_meters":8000,"station_id":"","pricing_plan_id":"cebpf4jnsgd1na2vs0mg"},{"bike_id":"be9042c4-716a-416e-af52-c92d47776467","system_id":"levelo_inurba_marseille","lat":43.30945,"lon":5.40124,"is_reserved":false,"is_disabled":true,"rental_uris":{"android":"levelo://app?vid=be9042c4-716a-416e-af52-c92d47776467","ios":"levelo://app?vid=be9042c4-716a-416e-af52-c92d47776467"},"vehicle_type_id":"4","last_reported":1746342530,"current_range_meters":8000,"station_id":"ce4bgvp2rcd13ifvqct0","pricing_plan_id":"cebpf4jnsgd1na2vs0mg"},{"bike_id":"47e70338-14a6-494d-992e-fe0185af4406","system_id":"levelo_inurba_marseille","lat":43.26922,"lon":5.40267,"is_reserved":false,"is_disabled":false,"rental_uris":{"android":"levelo://app?vid=47e70338-14a6-494d-992e-fe0185af4406","ios":"levelo://app?vid=47e70338-14a6-494d-992e-fe0185af4406"},"vehicle_type_id":"4","last_reported":1746342530,"current_range_meters":8000,"station_id":"cjm6bp8fraef2m0cb0m0","pricing_plan_id":"cebpf4jnsgd1na2vs0mg"},{"bike_id":"eba8fdd7-16a4-4f7b-9cd7-34bec00575b4","system_id":"levelo_inurba_marseille","lat":43.24664,"lon":5.38166,"is_reserved":false,"is_disabled":false,"rental_uris":{"android":"levelo://app?vid=eba8fdd7-16a4-4f7b-9cd7-34bec00575b4","ios":"levelo://app?vid=eba8fdd7-16a4-4f7b-9cd7-34bec00575b4"},"vehicle_type_id":"4","last_reported":1746342530,"current_range_meters":8000,"station_id":"ce4bhih2rcd13ifvqfr0","pricing_plan_id":"cebpf4jnsgd1na2vs0mg"},{"bike_id":"721f19a3-6fc8-4aa3-b8d6-b74174066f05","system_id":"levelo_inurba_marseille","lat":43.31621,"lon":5.38334,"is_reserved":false,"is_disabled":false,"rental_uris":{"android":"levelo://app?vid=721f19a3-6fc8-4aa3-b8d6-b74174066f05","ios":"levelo://app?vid=721f19a3-6fc8-4aa3-b8d6-b74174066f05"},"vehicle_type_id":"4","last_reported":1746342530,"current_range_meters":8000,"station_id":"","pricing_plan_id":"cebpf4jnsgd1na2vs0mg"},{"bike_id":"efed8418-36b3-4a2f-8a3a-c844b0d0e3ad","system_id":"levelo_inurba_marseille","lat":43.31546,"lon":5.3805,"is_reserved":false,"is_disabled":false,"rental_uris":{"android":"levelo://app?vid=efed8418-36b3-4a2f-8a3a-c844b0d0e3ad","ios":"levelo://app?vid=efed8418-36b3-4a2f-8a3a-c844b0d0e3ad"},"vehicle_type_id":"4","last_reported":1746342530,"current_range_meters":8000,"station_id":"ce4bhsp2rcd13ifvqi50","pricing_plan_id":"cebpf4jnsgd1na2vs0mg"},{"bike_id":"f1ffd2b9-91e9-4bf5-a319-6e95940b0de6","system_id":"levelo_inurba_marseille","lat":43.295491,"lon":5.422829,"is_reserved":false,"is_disabled":false,"rental_uris":{"android":"levelo://app?vid=f1ffd2b9-91e9-4bf5-a319-6e95940b0de6","ios":"levelo://app?vid=f1ffd2b9-91e9-4bf5-a319-6e95940b0de6"},"vehicle_type_id":"4","last_reported":1746342530,"current_range_meters":8000,"station_id":"ce4bhph2rcd13ifvqhdg","pricing_plan_id":"cebpf4jnsgd1na2vs0mg"},{"bike_id":"d1b80fc2-f795-44b4-b467-b83495b681df","system_id":"levelo_inurba_marseille","lat":43.30367,"lon":5.41352,"is_reserved":false,"is_disabled":false,"rental_uris":{"android":"levelo://app?vid=d1b80fc2-f795-44b4-b467-b83495b681df","ios":"levelo://app?vid=d1b80fc2-f795-44b4-b467-b83495b681df"},"vehicle_type_id":"4","last_reported":1746342530,"current_range_meters":8000,"station_id":"ce4bhop2rcd13ifvqh8g","pricing_plan_id":"cebpf4jnsgd1na2vs0mg"},{"bike_id":"8df6e310-0880-40a9-a691-cd475dfa3928","system_id":"levelo_inurba_marseille","lat":43.285794,"lon":5.44256,"is_reserved":false,"is_disabled":false,"rental_uris":{"android":"levelo://app?vid=8df6e310-0880-40a9-a691-cd475dfa3928","ios":"levelo://app?vid=8df6e310-0880-40a9-a691-cd475dfa3928"},"vehicle_type_id":"4","last_reported":1746342530,"current_range_meters":8000,"station_id":"","pricing_plan_id":"cebpf4jnsgd1na2vs0mg"},{"bike_id":"467a0933-aaf2-45f7-94d0-31035f07e7db","system_id":"levelo_inurba_marseille","lat":43.30949,"lon":5.40163,"is_reserved":false,"is_disabled":false,"rental_uris":{"android":"levelo://app?vid=467a0933-aaf2-45f7-94d0-31035f07e7db","ios":"levelo://app?vid=467a0933-aaf2-45f7-94d0-31035f07e7db"},"vehicle_type_id":"4","last_reported":1746342530,"current_range_meters":8400,"station_id":"ce4bgvp2rcd13ifvqct0","pricing_plan_id":"cebpf4jnsgd1na2vs0mg"},{"bike_id":"42b265ee-2f6e-42e6-be1a-7cd522f1be6f","system_id":"levelo_inurba_marseille","lat":43.278125,"lon":5.407156,"is_reserved":false,"is_disabled":false,"rental_uris":{"android":"levelo://app?vid=42b265ee-2f6e-42e6-be1a-7cd522f1be6f","ios":"levelo://app?vid=42b265ee-2f6e-42e6-be1a-7cd522f1be6f"},"vehicle_type_id":"4","last_reported":1746342530,"current_range_meters":8400,"station_id":"ce4bhnh2rcd13ifvqgtg","pricing_plan_id":"cebpf4jnsgd1na2vs0mg"},{"bike_id":"d51bd1f8-5797-40a8-8b2d-1b322c3a66a4","system_id":"levelo_inurba_marseille","lat":43.30937,"lon":5.40172,"is_reserved":false,"is_disabled":false,"rental_uris":{"android":"levelo://app?vid=d51bd1f8-5797-40a8-8b2d-1b322c3a66a4","ios":"levelo://app?vid=d51bd1f8-5797-40a8-8b2d-1b322c3a66a4"},"vehicle_type_id":"4","last_reported":1746342530,"current_range_meters":8400,"station_id":"ce4bgvp2rcd13ifvqct0","pricing_plan_id":"cebpf4jnsgd1na2vs0mg"},{"bike_id":"6ae9068b-8534-47e2-832a-cb0e5255371d","system_id":"levelo_inurba_marseille","lat":43.337444,"lon":5.374475,"is_reserved":false,"is_disabled":false,"rental_uris":{"android":"levelo://app?vid=6ae9068b-8534-47e2-832a-cb0e5255371d","ios":"levelo://app?vid=6ae9068b-8534-47e2-832a-cb0e5255371d"},"vehicle_type_id":"4","last_reported":1746342530,"current_range_meters":8400,"station_id":"ce4bgvp2rcd13ifvqct0","pricing_plan_id":"cebpf4jnsgd1na2vs0mg"},{"bike_id":"413047a7-5345-421f-a164-3fee50b5b413","system_id":"levelo_inurba_marseille","lat":43.2928,"lon":5.36845,"is_reserved":false,"is_disabled":false,"rental_uris":{"android":"levelo://app?vid=413047a7-5345-421f-a164-3fee50b5b413","ios":"levelo://app?vid=413047a7-5345-421f-a164-3fee50b5b413"},"vehicle_type_id":"4","last_reported":1746342530,"current_range_meters":8400,"station_id":"ce4bhbp2rcd13ifvqesg","pricing_plan_id":"cebpf4jnsgd1na2vs0mg"},{"bike_id":"0e34a68a-1e7e-4217-99de-5fd03012d1b6","system_id":"levelo_inurba_marseille","lat":43.23971,"lon":5.3662,"is_reserved":false,"is_disabled":false,"rental_uris":{"android":"levelo://app?vid=0e34a68a-1e7e-4217-99de-5fd03012d1b6","ios":"levelo://app?vid=0e34a68a-1e7e-4217-99de-5fd03012d1b6"},"vehicle_type_id":"4","last_reported":1746342530,"current_range_meters":8400,"station_id":"ce4bhi12rcd13ifvqfp0","pricing_plan_id":"cebpf4jnsgd1na2vs0mg"},{"bike_id":"ee6fc684-f760-429d-b603-077f5f37f4bb","system_id":"levelo_inurba_marseille","lat":43.2439,"lon":5.37069,"is_reserved":false,"is_disabled":false,"rental_uris":{"android":"levelo://app?vid=ee6fc684-f760-429d-b603-077f5f37f4bb","ios":"levelo://app?vid=ee6fc684-f760-429d-b603-077f5f37f4bb"},"vehicle_type_id":"4","last_reported":1746342530,"current_range_meters":8400,"station_id":"ce4bhhh2rcd13ifvqfk0","pricing_plan_id":"cebpf4jnsgd1na2vs0mg"},{"bike_id":"17cd42e0-f3d6-4b5d-a7a7-aae4daea5f81","system_id":"levelo_inurba_marseille","lat":43.211915,"lon":5.350731,"is_reserved":false,"is_disabled":false,"rental_uris":{"android":"levelo://app?vid=17cd42e0-f3d6-4b5d-a7a7-aae4daea5f81","ios":"levelo://app?vid=17cd42e0-f3d6-4b5d-a7a7-aae4daea5f81"},"vehicle_type_id":"4","last_reported":1746342530,"current_range_meters":8400,"station_id":"","pricing_plan_id":"cebpf4jnsgd1na2vs0mg"},{"bike_id":"c52fc0ad-4e3c-40d7-a44f-9f976f5236b4","system_id":"levelo_inurba_marseille","lat":43.30321,"lon":5.40443,"is_reserved":false,"is_disabled":false,"rental_uris":{"android":"levelo://app?vid=c52fc0ad-4e3c-40d7-a44f-9f976f5236b4","ios":"levelo://app?vid=c52fc0ad-4e3c-40d7-a44f-9f976f5236b4"},"vehicle_type_id":"4","last_reported":1746342530,"current_range_meters":8400,"station_id":"ce4bh012rcd13ifvqd10","pricing_plan_id":"cebpf4jnsgd1na2vs0mg"},{"bike_id":"5d9a54ab-8ca5-45ce-9e8d-1ecc587fe2f3","system_id":"levelo_inurba_marseille","lat":43.29705,"lon":5.40589,"is_reserved":false,"is_disabled":false,"rental_uris":{"android":"levelo://app?vid=5d9a54ab-8ca5-45ce-9e8d-1ecc587fe2f3","ios":"levelo://app?vid=5d9a54ab-8ca5-45ce-9e8d-1ecc587fe2f3"},"vehicle_type_id":"4","last_reported":1746342530,"current_range_meters":8800,"station_id":"","pricing_plan_id":"cebpf4jnsgd1na2vs0mg"},{"bike_id":"4e82fe2d-788d-4c1e-aea2-2739d6e588df","system_id":"levelo_inurba_marseille","lat":43.28615,"lon":5.35102,"is_reserved":false,"is_disabled":false,"rental_uris":{"android":"levelo://app?vid=4e82fe2d-788d-4c1e-aea2-2739d6e588df","ios":"levelo://app?vid=4e82fe2d-788d-4c1e-aea2-2739d6e588df"},"vehicle_type_id":"4","last_reported":1746342530,"current_range_meters":8800,"station_id":"ce4bhch2rcd13ifvqeug","pricing_plan_id":"cebpf4jnsgd1na2vs0mg"},{"bike_id":"50badda3-bab4-4db6-9eeb-777b188a13ce","system_id":"levelo_inurba_marseille","lat":43.31486,"lon":5.37305,"is_reserved":false,"is_disabled":false,"rental_uris":{"android":"levelo://app?vid=50badda3-bab4-4db6-9eeb-777b188a13ce","ios":"levelo://app?vid=50badda3-bab4-4db6-9eeb-777b188a13ce"},"vehicle_type_id":"4","last_reported":1746342530,"current_range_meters":8800,"station_id":"ce4bgt12rcd13ifvqcd0","pricing_plan_id":"cebpf4jnsgd1na2vs0mg"},{"bike_id":"f68e7be6-7c89-435c-ba3b-7590a9bf1414","system_id":"levelo_inurba_marseille","lat":43.22933,"lon":5.35389,"is_reserved":false,"is_disabled":false,"rental_uris":{"android":"levelo://app?vid=f68e7be6-7c89-435c-ba3b-7590a9bf1414","ios":"levelo://app?vid=f68e7be6-7c89-435c-ba3b-7590a9bf1414"},"vehicle_type_id":"4","last_reported":1746342530,"current_range_meters":8800,"station_id":"cpo3532slgdg3j2ikp40","pricing_plan_id":"cebpf4jnsgd1na2vs0mg"},{"bike_id":"f0259f55-382d-4317-a5a3-c63365a0d76b","system_id":"levelo_inurba_marseille","lat":43.2554,"lon":5.41806,"is_reserved":false,"is_disabled":false,"rental_uris":{"android":"levelo://app?vid=f0259f55-382d-4317-a5a3-c63365a0d76b","ios":"levelo://app?vid=f0259f55-382d-4317-a5a3-c63365a0d76b"},"vehicle_type_id":"4","last_reported":1746342530,"current_range_meters":9200,"station_id":"","pricing_plan_id":"cebpf4jnsgd1na2vs0mg"},{"bike_id":"63bca580-20c6-4152-8680-c43918ee61bc","system_id":"levelo_inurba_marseille","lat":43.299123,"lon":5.381466,"is_reserved":false,"is_disabled":true,"rental_uris":{"android":"levelo://app?vid=63bca580-20c6-4152-8680-c43918ee61bc","ios":"levelo://app?vid=63bca580-20c6-4152-8680-c43918ee61bc"},"vehicle_type_id":"4","last_reported":1746342530,"current_range_meters":9200,"station_id":"ce4bgj12rcd13ifvqbc0","pricing_plan_id":"cebpf4jnsgd1na2vs0mg"},{"bike_id":"fb582505-15b6-40c6-97cc-2feebea7d568","system_id":"levelo_inurba_marseille","lat":43.304191,"lon":5.397381,"is_reserved":false,"is_disabled":true,"rental_uris":{"android":"levelo://app?vid=fb582505-15b6-40c6-97cc-2feebea7d568","ios":"levelo://app?vid=fb582505-15b6-40c6-97cc-2feebea7d568"},"vehicle_type_id":"4","last_reported":1746342530,"current_range_meters":9200,"station_id":"ce4bh092rcd13ifvqd20","pricing_plan_id":"cebpf4jnsgd1na2vs0mg"},{"bike_id":"75fa9943-cbe0-4940-a9be-f80f8dede2da","system_id":"levelo_inurba_marseille","lat":43.22501,"lon":5.34779,"is_reserved":false,"is_disabled":false,"rental_uris":{"android":"levelo://app?vid=75fa9943-cbe0-4940-a9be-f80f8dede2da","ios":"levelo://app?vid=75fa9943-cbe0-4940-a9be-f80f8dede2da"},"vehicle_type_id":"4","last_reported":1746342530,"current_range_meters":9200,"station_id":"st_cvj5dfep6f1abm77gieg","pricing_plan_id":"cebpf4jnsgd1na2vs0mg"},{"bike_id":"59c05668-9a78-4683-b670-a7794c85b3b0","system_id":"levelo_inurba_marseille","lat":43.293781,"lon":5.378543,"is_reserved":false,"is_disabled":true,"rental_uris":{"android":"levelo://app?vid=59c05668-9a78-4683-b670-a7794c85b3b0","ios":"levelo://app?vid=59c05668-9a78-4683-b670-a7794c85b3b0"},"vehicle_type_id":"4","last_reported":1746342530,"current_range_meters":9200,"station_id":"ce4bgjh2rcd13ifvqbf0","pricing_plan_id":"cebpf4jnsgd1na2vs0mg"},{"bike_id":"7417fde9-2253-44a3-b6b5-68219b7cd072","system_id":"levelo_inurba_marseille","lat":43.316819,"lon":5.404744,"is_reserved":false,"is_disabled":false,"rental_uris":{"android":"levelo://app?vid=7417fde9-2253-44a3-b6b5-68219b7cd072","ios":"levelo://app?vid=7417fde9-2253-44a3-b6b5-68219b7cd072"},"vehicle_type_id":"4","last_reported":1746342530,"current_range_meters":9200,"station_id":"ce4bh012rcd13ifvqd00","pricing_plan_id":"cebpf4jnsgd1na2vs0mg"},{"bike_id":"c9667bec-b4e1-4aba-85da-6ad1e46c0b9d","system_id":"levelo_inurba_marseille","lat":43.270688,"lon":5.422763,"is_reserved":false,"is_disabled":false,"rental_uris":{"android":"levelo://app?vid=c9667bec-b4e1-4aba-85da-6ad1e46c0b9d","ios":"levelo://app?vid=c9667bec-b4e1-4aba-85da-6ad1e46c0b9d"},"vehicle_type_id":"4","last_reported":1746342530,"current_range_meters":9200,"station_id":"ce4bhk92rcd13ifvqgb0","pricing_plan_id":"cebpf4jnsgd1na2vs0mg"},{"bike_id":"ca3736c3-df7e-40ec-b1a3-1277811e2e14","system_id":"levelo_inurba_marseille","lat":43.31707,"lon":5.42415,"is_reserved":false,"is_disabled":false,"rental_uris":{"android":"levelo://app?vid=ca3736c3-df7e-40ec-b1a3-1277811e2e14","ios":"levelo://app?vid=ca3736c3-df7e-40ec-b1a3-1277811e2e14"},"vehicle_type_id":"4","last_reported":1746342530,"current_range_meters":9200,"station_id":"ce4bhp92rcd13ifvqhbg","pricing_plan_id":"cebpf4jnsgd1na2vs0mg"},{"bike_id":"b8028bbc-e0b2-47d7-951d-2ca751c3d28a","system_id":"levelo_inurba_marseille","lat":43.27807,"lon":5.40731,"is_reserved":false,"is_disabled":false,"rental_uris":{"android":"levelo://app?vid=b8028bbc-e0b2-47d7-951d-2ca751c3d28a","ios":"levelo://app?vid=b8028bbc-e0b2-47d7-951d-2ca751c3d28a"},"vehicle_type_id":"4","last_reported":1746342530,"current_range_meters":9200,"station_id":"ce4bhnh2rcd13ifvqgtg","pricing_plan_id":"cebpf4jnsgd1na2vs0mg"},{"bike_id":"1535a100-a5e3-470b-8112-05a549965b00","system_id":"levelo_inurba_marseille","lat":43.31365,"lon":5.39688,"is_reserved":false,"is_disabled":false,"rental_uris":{"android":"levelo://app?vid=1535a100-a5e3-470b-8112-05a549965b00","ios":"levelo://app?vid=1535a100-a5e3-470b-8112-05a549965b00"},"vehicle_type_id":"4","last_reported":1746342530,"current_range_meters":9200,"station_id":"ce4bgvp2rcd13ifvqcu0","pricing_plan_id":"cebpf4jnsgd1na2vs0mg"},{"bike_id":"31a93301-c3a1-4bc4-b2c4-6a455d015fd6","system_id":"levelo_inurba_marseille","lat":43.297333,"lon":5.376925,"is_reserved":false,"is_disabled":true,"rental_uris":{"android":"levelo://app?vid=31a93301-c3a1-4bc4-b2c4-6a455d015fd6","ios":"levelo://app?vid=31a93301-c3a1-4bc4-b2c4-6a455d015fd6"},"vehicle_type_id":"4","last_reported":1746342530,"current_range_meters":9200,"station_id":"ce4bgkh2rcd13ifvqbl0","pricing_plan_id":"cebpf4jnsgd1na2vs0mg"},{"bike_id":"94117f7b-43e0-4163-9bc8-140af4013e0f","system_id":"levelo_inurba_marseille","lat":43.27077,"lon":5.42276,"is_reserved":false,"is_disabled":false,"rental_uris":{"android":"levelo://app?vid=94117f7b-43e0-4163-9bc8-140af4013e0f","ios":"levelo://app?vid=94117f7b-43e0-4163-9bc8-140af4013e0f"},"vehicle_type_id":"4","last_reported":1746342530,"current_range_meters":9600,"station_id":"ce4bhk92rcd13ifvqgb0","pricing_plan_id":"cebpf4jnsgd1na2vs0mg"},{"bike_id":"b2bed98a-b840-49dc-9665-7e2b295b016b","system_id":"levelo_inurba_marseille","lat":43.292525,"lon":5.384343,"is_reserved":false,"is_disabled":true,"rental_uris":{"android":"levelo://app?vid=b2bed98a-b840-49dc-9665-7e2b295b016b","ios":"levelo://app?vid=b2bed98a-b840-49dc-9665-7e2b295b016b"},"vehicle_type_id":"4","last_reported":1746342530,"current_range_meters":9600,"station_id":"ce4bh692rcd13ifvqea0","pricing_plan_id":"cebpf4jnsgd1na2vs0mg"},{"bike_id":"2f2e2422-0ca9-4635-8561-f770e540dc91","system_id":"levelo_inurba_marseille","lat":43.29772,"lon":5.37005,"is_reserved":false,"is_disabled":false,"rental_uris":{"android":"levelo://app?vid=2f2e2422-0ca9-4635-8561-f770e540dc91","ios":"levelo://app?vid=2f2e2422-0ca9-4635-8561-f770e540dc91"},"vehicle_type_id":"4","last_reported":1746342530,"current_range_meters":9600,"station_id":"","pricing_plan_id":"cebpf4jnsgd1na2vs0mg"},{"bike_id":"ff85802d-0bcd-4a45-9f91-6d6fa0c2c4f0","system_id":"levelo_inurba_marseille","lat":43.30873,"lon":5.40169,"is_reserved":false,"is_disabled":false,"rental_uris":{"android":"levelo://app?vid=ff85802d-0bcd-4a45-9f91-6d6fa0c2c4f0","ios":"levelo://app?vid=ff85802d-0bcd-4a45-9f91-6d6fa0c2c4f0"},"vehicle_type_id":"4","last_reported":1746342530,"current_range_meters":9600,"station_id":"","pricing_plan_id":"cebpf4jnsgd1na2vs0mg"},{"bike_id":"a37779e7-3d8a-4c82-9997-3090313b05d7","system_id":"levelo_inurba_marseille","lat":43.2293,"lon":5.3538,"is_reserved":false,"is_disabled":true,"rental_uris":{"android":"levelo://app?vid=a37779e7-3d8a-4c82-9997-3090313b05d7","ios":"levelo://app?vid=a37779e7-3d8a-4c82-9997-3090313b05d7"},"vehicle_type_id":"4","last_reported":1746342530,"current_range_meters":9600,"station_id":"cpo3532slgdg3j2ikp40","pricing_plan_id":"cebpf4jnsgd1na2vs0mg"},{"bike_id":"e141d286-5a2c-470e-8ce3-fc63bfe9226f","system_id":"levelo_inurba_marseille","lat":43.33802,"lon":5.41831,"is_reserved":false,"is_disabled":false,"rental_uris":{"android":"levelo://app?vid=e141d286-5a2c-470e-8ce3-fc63bfe9226f","ios":"levelo://app?vid=e141d286-5a2c-470e-8ce3-fc63bfe9226f"},"vehicle_type_id":"4","last_reported":1746342530,"current_range_meters":9600,"station_id":"","pricing_plan_id":"cebpf4jnsgd1na2vs0mg"},{"bike_id":"f32ca024-e3f7-4855-acbc-43ebe40dfcfa","system_id":"levelo_inurba_marseille","lat":43.31275,"lon":5.40171,"is_reserved":false,"is_disabled":false,"rental_uris":{"android":"levelo://app?vid=f32ca024-e3f7-4855-acbc-43ebe40dfcfa","ios":"levelo://app?vid=f32ca024-e3f7-4855-acbc-43ebe40dfcfa"},"vehicle_type_id":"4","last_reported":1746342530,"current_range_meters":9600,"station_id":"ce4bh092rcd13ifvqd30","pricing_plan_id":"cebpf4jnsgd1na2vs0mg"},{"bike_id":"dde313c9-2956-4963-9e10-a6ae4348ff85","system_id":"levelo_inurba_marseille","lat":43.31501,"lon":5.37207,"is_reserved":false,"is_disabled":false,"rental_uris":{"android":"levelo://app?vid=dde313c9-2956-4963-9e10-a6ae4348ff85","ios":"levelo://app?vid=dde313c9-2956-4963-9e10-a6ae4348ff85"},"vehicle_type_id":"4","last_reported":1746342530,"current_range_meters":9600,"station_id":"ce4bgt12rcd13ifvqcd0","pricing_plan_id":"cebpf4jnsgd1na2vs0mg"},{"bike_id":"0f53b038-46c4-4a2d-92c2-8fa07ea9b8da","system_id":"levelo_inurba_marseille","lat":43.30778,"lon":5.37645,"is_reserved":false,"is_disabled":false,"rental_uris":{"android":"levelo://app?vid=0f53b038-46c4-4a2d-92c2-8fa07ea9b8da","ios":"levelo://app?vid=0f53b038-46c4-4a2d-92c2-8fa07ea9b8da"},"vehicle_type_id":"4","last_reported":1746342530,"current_range_meters":9600,"station_id":"ce4bgv92rcd13ifvqcq0","pricing_plan_id":"cebpf4jnsgd1na2vs0mg"},{"bike_id":"e4856e11-0139-477e-a022-4b979369719b","system_id":"levelo_inurba_marseille","lat":43.23979,"lon":5.36609,"is_reserved":false,"is_disabled":false,"rental_uris":{"android":"levelo://app?vid=e4856e11-0139-477e-a022-4b979369719b","ios":"levelo://app?vid=e4856e11-0139-477e-a022-4b979369719b"},"vehicle_type_id":"4","last_reported":1746342530,"current_range_meters":10000,"station_id":"ce4bhi12rcd13ifvqfp0","pricing_plan_id":"cebpf4jnsgd1na2vs0mg"},{"bike_id":"c9fcc064-0b00-4197-8b59-1b3eef7f6f96","system_id":"levelo_inurba_marseille","lat":43.31715,"lon":5.43704,"is_reserved":false,"is_disabled":false,"rental_uris":{"android":"levelo://app?vid=c9fcc064-0b00-4197-8b59-1b3eef7f6f96","ios":"levelo://app?vid=c9fcc064-0b00-4197-8b59-1b3eef7f6f96"},"vehicle_type_id":"4","last_reported":1746342530,"current_range_meters":10000,"station_id":"ce4bhp92rcd13ifvqhcg","pricing_plan_id":"cebpf4jnsgd1na2vs0mg"},{"bike_id":"d06cbf0c-a30d-4bb1-91c3-661c22c8ec38","system_id":"levelo_inurba_marseille","lat":43.24803,"lon":5.37458,"is_reserved":false,"is_disabled":false,"rental_uris":{"android":"levelo://app?vid=d06cbf0c-a30d-4bb1-91c3-661c22c8ec38","ios":"levelo://app?vid=d06cbf0c-a30d-4bb1-91c3-661c22c8ec38"},"vehicle_type_id":"4","last_reported":1746342530,"current_range_meters":10000,"station_id":"ce4bhgh2rcd13ifvqfb0","pricing_plan_id":"cebpf4jnsgd1na2vs0mg"},{"bike_id":"ca7a629c-6dce-47e8-8b04-8b57930ea53a","system_id":"levelo_inurba_marseille","lat":43.241777,"lon":5.397241,"is_reserved":false,"is_disabled":false,"rental_uris":{"android":"levelo://app?vid=ca7a629c-6dce-47e8-8b04-8b57930ea53a","ios":"levelo://app?vid=ca7a629c-6dce-47e8-8b04-8b57930ea53a"},"vehicle_type_id":"4","last_reported":1746342530,"current_range_meters":10000,"station_id":"ce4bhn12rcd13ifvqgpg","pricing_plan_id":"cebpf4jnsgd1na2vs0mg"},{"bike_id":"c2c5beff-ec8e-48ee-825a-e3cdf2e54b49","system_id":"levelo_inurba_marseille","lat":43.2924,"lon":5.40036,"is_reserved":false,"is_disabled":false,"rental_uris":{"android":"levelo://app?vid=c2c5beff-ec8e-48ee-825a-e3cdf2e54b49","ios":"levelo://app?vid=c2c5beff-ec8e-48ee-825a-e3cdf2e54b49"},"vehicle_type_id":"4","last_reported":1746342530,"current_range_meters":10000,"station_id":"","pricing_plan_id":"cebpf4jnsgd1na2vs0mg"},{"bike_id":"fd2c3c67-23a6-4380-b7ca-8f23c8f78921","system_id":"levelo_inurba_marseille","lat":43.323564,"lon":5.367509,"is_reserved":false,"is_disabled":false,"rental_uris":{"android":"levelo://app?vid=fd2c3c67-23a6-4380-b7ca-8f23c8f78921","ios":"levelo://app?vid=fd2c3c67-23a6-4380-b7ca-8f23c8f78921"},"vehicle_type_id":"4","last_reported":1746342530,"current_range_meters":10000,"station_id":"ce4bhsh2rcd13ifvqi2g","pricing_plan_id":"cebpf4jnsgd1na2vs0mg"},{"bike_id":"1f192409-3bd6-4ef0-ae18-1d604dedc99e","system_id":"levelo_inurba_marseille","lat":43.23312,"lon":5.357447,"is_reserved":false,"is_disabled":false,"rental_uris":{"android":"levelo://app?vid=1f192409-3bd6-4ef0-ae18-1d604dedc99e","ios":"levelo://app?vid=1f192409-3bd6-4ef0-ae18-1d604dedc99e"},"vehicle_type_id":"4","last_reported":1746342530,"current_range_meters":10000,"station_id":"ce4bhu92rcd13ifvqi70","pricing_plan_id":"cebpf4jnsgd1na2vs0mg"},{"bike_id":"aedf206f-89f3-4f30-9da6-56fb7ff8915b","system_id":"levelo_inurba_marseille","lat":43.28105,"lon":5.403965,"is_reserved":false,"is_disabled":false,"rental_uris":{"android":"levelo://app?vid=aedf206f-89f3-4f30-9da6-56fb7ff8915b","ios":"levelo://app?vid=aedf206f-89f3-4f30-9da6-56fb7ff8915b"},"vehicle_type_id":"4","last_reported":1746342530,"current_range_meters":10800,"station_id":"","pricing_plan_id":"cebpf4jnsgd1na2vs0mg"},{"bike_id":"f7a277eb-d388-493b-a59b-09b010af0aee","system_id":"levelo_inurba_marseille","lat":43.28492,"lon":5.38458,"is_reserved":false,"is_disabled":true,"rental_uris":{"android":"levelo://app?vid=f7a277eb-d388-493b-a59b-09b010af0aee","ios":"levelo://app?vid=f7a277eb-d388-493b-a59b-09b010af0aee"},"vehicle_type_id":"4","last_reported":1746342530,"current_range_meters":10800,"station_id":"ce4bh512rcd13ifvqe3g","pricing_plan_id":"cebpf4jnsgd1na2vs0mg"},{"bike_id":"274ad913-cb5d-44ea-8484-26eae07424ea","system_id":"levelo_inurba_marseille","lat":43.25841,"lon":5.39911,"is_reserved":false,"is_disabled":true,"rental_uris":{"android":"levelo://app?vid=274ad913-cb5d-44ea-8484-26eae07424ea","ios":"levelo://app?vid=274ad913-cb5d-44ea-8484-26eae07424ea"},"vehicle_type_id":"4","last_reported":1746342530,"current_range_meters":10800,"station_id":"ce4bhl92rcd13ifvqghg","pricing_plan_id":"cebpf4jnsgd1na2vs0mg"},{"bike_id":"0ecfd02f-f853-4362-9dcd-e959b1ad8321","system_id":"levelo_inurba_marseille","lat":43.241702,"lon":5.397383,"is_reserved":false,"is_disabled":false,"rental_uris":{"android":"levelo://app?vid=0ecfd02f-f853-4362-9dcd-e959b1ad8321","ios":"levelo://app?vid=0ecfd02f-f853-4362-9dcd-e959b1ad8321"},"vehicle_type_id":"4","last_reported":1746342530,"current_range_meters":10800,"station_id":"ce4bhn12rcd13ifvqgpg","pricing_plan_id":"cebpf4jnsgd1na2vs0mg"},{"bike_id":"3bd56796-a588-4245-b00a-65ccc252ae20","system_id":"levelo_inurba_marseille","lat":43.32337,"lon":5.40619,"is_reserved":false,"is_disabled":false,"rental_uris":{"android":"levelo://app?vid=3bd56796-a588-4245-b00a-65ccc252ae20","ios":"levelo://app?vid=3bd56796-a588-4245-b00a-65ccc252ae20"},"vehicle_type_id":"4","last_reported":1746342530,"current_range_meters":10800,"station_id":"ce4bhq92rcd13ifvqhjg","pricing_plan_id":"cebpf4jnsgd1na2vs0mg"},{"bike_id":"6338e318-2f80-4349-ae11-615c887b4fb9","system_id":"levelo_inurba_marseille","lat":43.25936,"lon":5.409,"is_reserved":false,"is_disabled":false,"rental_uris":{"android":"levelo://app?vid=6338e318-2f80-4349-ae11-615c887b4fb9","ios":"levelo://app?vid=6338e318-2f80-4349-ae11-615c887b4fb9"},"vehicle_type_id":"4","last_reported":1746342530,"current_range_meters":10800,"station_id":"ce4bhm92rcd13ifvqglg","pricing_plan_id":"cebpf4jnsgd1na2vs0mg"},{"bike_id":"9386c0c7-d16d-4449-a186-2e4f1a5755ee","system_id":"levelo_inurba_marseille","lat":43.30771,"lon":5.3767,"is_reserved":false,"is_disabled":false,"rental_uris":{"android":"levelo://app?vid=9386c0c7-d16d-4449-a186-2e4f1a5755ee","ios":"levelo://app?vid=9386c0c7-d16d-4449-a186-2e4f1a5755ee"},"vehicle_type_id":"4","last_reported":1746342530,"current_range_meters":11200,"station_id":"ce4bgv92rcd13ifvqcq0","pricing_plan_id":"cebpf4jnsgd1na2vs0mg"},{"bike_id":"490f4dd2-526f-486e-be14-25a2ce708a63","system_id":"levelo_inurba_marseille","lat":43.284164,"lon":5.3857,"is_reserved":false,"is_disabled":false,"rental_uris":{"android":"levelo://app?vid=490f4dd2-526f-486e-be14-25a2ce708a63","ios":"levelo://app?vid=490f4dd2-526f-486e-be14-25a2ce708a63"},"vehicle_type_id":"4","last_reported":1746342530,"current_range_meters":11200,"station_id":"ce4bh492rcd13ifvqdvg","pricing_plan_id":"cebpf4jnsgd1na2vs0mg"},{"bike_id":"1d59b5c9-cca4-43f9-a7f4-1bb7ebcfb8ae","system_id":"levelo_inurba_marseille","lat":43.27373,"lon":5.362545,"is_reserved":false,"is_disabled":true,"rental_uris":{"android":"levelo://app?vid=1d59b5c9-cca4-43f9-a7f4-1bb7ebcfb8ae","ios":"levelo://app?vid=1d59b5c9-cca4-43f9-a7f4-1bb7ebcfb8ae"},"vehicle_type_id":"4","last_reported":1746342530,"current_range_meters":11200,"station_id":"","pricing_plan_id":"cebpf4jnsgd1na2vs0mg"},{"bike_id":"e5afccc1-0f87-4fd7-9e61-480da7db1d5b","system_id":"levelo_inurba_marseille","lat":43.305858,"lon":5.372402,"is_reserved":false,"is_disabled":false,"rental_uris":{"android":"levelo://app?vid=e5afccc1-0f87-4fd7-9e61-480da7db1d5b","ios":"levelo://app?vid=e5afccc1-0f87-4fd7-9e61-480da7db1d5b"},"vehicle_type_id":"4","last_reported":1746342530,"current_range_meters":11200,"station_id":"ce4bgqh2rcd13ifvqc4g","pricing_plan_id":"cebpf4jnsgd1na2vs0mg"},{"bike_id":"0b6c41da-75cb-4152-9efb-781befeab467","system_id":"levelo_inurba_marseille","lat":43.28433,"lon":5.39183,"is_reserved":false,"is_disabled":false,"rental_uris":{"android":"levelo://app?vid=0b6c41da-75cb-4152-9efb-781befeab467","ios":"levelo://app?vid=0b6c41da-75cb-4152-9efb-781befeab467"},"vehicle_type_id":"4","last_reported":1746342530,"current_range_meters":11200,"station_id":"ce4bhoh2rcd13ifvqh5g","pricing_plan_id":"cebpf4jnsgd1na2vs0mg"},{"bike_id":"28b4bc83-5c8b-4e9d-aba4-7a153d3e0dfe","system_id":"levelo_inurba_marseille","lat":43.30311,"lon":5.40444,"is_reserved":false,"is_disabled":false,"rental_uris":{"android":"levelo://app?vid=28b4bc83-5c8b-4e9d-aba4-7a153d3e0dfe","ios":"levelo://app?vid=28b4bc83-5c8b-4e9d-aba4-7a153d3e0dfe"},"vehicle_type_id":"4","last_reported":1746342530,"current_range_meters":11200,"station_id":"ce4bh012rcd13ifvqd10","pricing_plan_id":"cebpf4jnsgd1na2vs0mg"},{"bike_id":"cb8867a7-ae25-48fa-905b-a41eec2f1da8","system_id":"levelo_inurba_marseille","lat":43.30437,"lon":5.38885,"is_reserved":false,"is_disabled":false,"rental_uris":{"android":"levelo://app?vid=cb8867a7-ae25-48fa-905b-a41eec2f1da8","ios":"levelo://app?vid=cb8867a7-ae25-48fa-905b-a41eec2f1da8"},"vehicle_type_id":"4","last_reported":1746342530,"current_range_meters":11200,"station_id":"ce4bgk12rcd13ifvqbi0","pricing_plan_id":"cebpf4jnsgd1na2vs0mg"},{"bike_id":"e2b14260-8057-48c8-9cf5-1900e5ff23b3","system_id":"levelo_inurba_marseille","lat":43.30376,"lon":5.42482,"is_reserved":false,"is_disabled":false,"rental_uris":{"android":"levelo://app?vid=e2b14260-8057-48c8-9cf5-1900e5ff23b3","ios":"levelo://app?vid=e2b14260-8057-48c8-9cf5-1900e5ff23b3"},"vehicle_type_id":"4","last_reported":1746342530,"current_range_meters":11600,"station_id":"ce4bhoh2rcd13ifvqh6g","pricing_plan_id":"cebpf4jnsgd1na2vs0mg"},{"bike_id":"4cd32815-4894-41a0-9a3d-e6c837dcaeea","system_id":"levelo_inurba_marseille","lat":43.29994,"lon":5.38486,"is_reserved":false,"is_disabled":true,"rental_uris":{"android":"levelo://app?vid=4cd32815-4894-41a0-9a3d-e6c837dcaeea","ios":"levelo://app?vid=4cd32815-4894-41a0-9a3d-e6c837dcaeea"},"vehicle_type_id":"4","last_reported":1746342530,"current_range_meters":11600,"station_id":"ce4bgj92rcd13ifvqbd0","pricing_plan_id":"cebpf4jnsgd1na2vs0mg"},{"bike_id":"0397570e-b83d-4017-8742-c3d74b4e8593","system_id":"levelo_inurba_marseille","lat":43.28852,"lon":5.3882,"is_reserved":false,"is_disabled":true,"rental_uris":{"android":"levelo://app?vid=0397570e-b83d-4017-8742-c3d74b4e8593","ios":"levelo://app?vid=0397570e-b83d-4017-8742-c3d74b4e8593"},"vehicle_type_id":"4","last_reported":1746342530,"current_range_meters":11600,"station_id":"","pricing_plan_id":"cebpf4jnsgd1na2vs0mg"},{"bike_id":"4c281719-0627-4ebf-8af4-07cb2ba7736a","system_id":"levelo_inurba_marseille","lat":43.33709,"lon":5.39178,"is_reserved":false,"is_disabled":false,"rental_uris":{"android":"levelo://app?vid=4c281719-0627-4ebf-8af4-07cb2ba7736a","ios":"levelo://app?vid=4c281719-0627-4ebf-8af4-07cb2ba7736a"},"vehicle_type_id":"4","last_reported":1746342530,"current_range_meters":12000,"station_id":"ce4bhr92rcd13ifvqhsg","pricing_plan_id":"cebpf4jnsgd1na2vs0mg"},{"bike_id":"39513858-7b2e-4512-84f2-b1cf96ce588f","system_id":"levelo_inurba_marseille","lat":43.313,"lon":5.40184,"is_reserved":false,"is_disabled":false,"rental_uris":{"android":"levelo://app?vid=39513858-7b2e-4512-84f2-b1cf96ce588f","ios":"levelo://app?vid=39513858-7b2e-4512-84f2-b1cf96ce588f"},"vehicle_type_id":"4","last_reported":1746342530,"current_range_meters":12400,"station_id":"ce4bh092rcd13ifvqd30","pricing_plan_id":"cebpf4jnsgd1na2vs0mg"},{"bike_id":"89661c15-def9-4711-90fd-17ec34ee0c83","system_id":"levelo_inurba_marseille","lat":43.2942,"lon":5.39753,"is_reserved":false,"is_disabled":false,"rental_uris":{"android":"levelo://app?vid=89661c15-def9-4711-90fd-17ec34ee0c83","ios":"levelo://app?vid=89661c15-def9-4711-90fd-17ec34ee0c83"},"vehicle_type_id":"4","last_reported":1746342530,"current_range_meters":12400,"station_id":"ce4bh3h2rcd13ifvqdo0","pricing_plan_id":"cebpf4jnsgd1na2vs0mg"},{"bike_id":"77e5fc0c-8247-4eae-976e-b65c5c479c47","system_id":"levelo_inurba_marseille","lat":43.24391,"lon":5.37047,"is_reserved":false,"is_disabled":false,"rental_uris":{"android":"levelo://app?vid=77e5fc0c-8247-4eae-976e-b65c5c479c47","ios":"levelo://app?vid=77e5fc0c-8247-4eae-976e-b65c5c479c47"},"vehicle_type_id":"4","last_reported":1746342530,"current_range_meters":12400,"station_id":"ce4bhhh2rcd13ifvqfk0","pricing_plan_id":"cebpf4jnsgd1na2vs0mg"},{"bike_id":"c0013652-b9c1-4ebe-937b-3643233b17e5","system_id":"levelo_inurba_marseille","lat":43.28439,"lon":5.39182,"is_reserved":false,"is_disabled":false,"rental_uris":{"android":"levelo://app?vid=c0013652-b9c1-4ebe-937b-3643233b17e5","ios":"levelo://app?vid=c0013652-b9c1-4ebe-937b-3643233b17e5"},"vehicle_type_id":"4","last_reported":1746342530,"current_range_meters":12400,"station_id":"ce4bhoh2rcd13ifvqh5g","pricing_plan_id":"cebpf4jnsgd1na2vs0mg"},{"bike_id":"dffda755-2feb-41dd-8db8-12eafc41bdf7","system_id":"levelo_inurba_marseille","lat":43.31534,"lon":5.38035,"is_reserved":false,"is_disabled":false,"rental_uris":{"android":"levelo://app?vid=dffda755-2feb-41dd-8db8-12eafc41bdf7","ios":"levelo://app?vid=dffda755-2feb-41dd-8db8-12eafc41bdf7"},"vehicle_type_id":"4","last_reported":1746342530,"current_range_meters":12800,"station_id":"ce4bhsp2rcd13ifvqi50","pricing_plan_id":"cebpf4jnsgd1na2vs0mg"},{"bike_id":"e14f0e0b-57ce-42d5-80f6-e3d891b564d1","system_id":"levelo_inurba_marseille","lat":43.2706,"lon":5.42267,"is_reserved":false,"is_disabled":false,"rental_uris":{"android":"levelo://app?vid=e14f0e0b-57ce-42d5-80f6-e3d891b564d1","ios":"levelo://app?vid=e14f0e0b-57ce-42d5-80f6-e3d891b564d1"},"vehicle_type_id":"4","last_reported":1746342530,"current_range_meters":12800,"station_id":"ce4bhk92rcd13ifvqgb0","pricing_plan_id":"cebpf4jnsgd1na2vs0mg"},{"bike_id":"b51e8583-0fb2-49ca-9c11-9dbce28dfa5d","system_id":"levelo_inurba_marseille","lat":43.231923,"lon":5.355631,"is_reserved":false,"is_disabled":false,"rental_uris":{"android":"levelo://app?vid=b51e8583-0fb2-49ca-9c11-9dbce28dfa5d","ios":"levelo://app?vid=b51e8583-0fb2-49ca-9c11-9dbce28dfa5d"},"vehicle_type_id":"4","last_reported":1746342530,"current_range_meters":13600,"station_id":"ce4bhu92rcd13ifvqi70","pricing_plan_id":"cebpf4jnsgd1na2vs0mg"},{"bike_id":"7f94af4d-81ec-4f11-8ad5-90fb2fdafca2","system_id":"levelo_inurba_marseille","lat":43.28038,"lon":5.36945,"is_reserved":false,"is_disabled":false,"rental_uris":{"android":"levelo://app?vid=7f94af4d-81ec-4f11-8ad5-90fb2fdafca2","ios":"levelo://app?vid=7f94af4d-81ec-4f11-8ad5-90fb2fdafca2"},"vehicle_type_id":"4","last_reported":1746342530,"current_range_meters":13600,"station_id":"ce4bha12rcd13ifvqef0","pricing_plan_id":"cebpf4jnsgd1na2vs0mg"},{"bike_id":"1ec3fe58-c6ff-465c-ba55-56c2f916f76f","system_id":"levelo_inurba_marseille","lat":43.24087,"lon":5.37763,"is_reserved":false,"is_disabled":false,"rental_uris":{"android":"levelo://app?vid=1ec3fe58-c6ff-465c-ba55-56c2f916f76f","ios":"levelo://app?vid=1ec3fe58-c6ff-465c-ba55-56c2f916f76f"},"vehicle_type_id":"4","last_reported":1746342530,"current_range_meters":13600,"station_id":"ce4bhnp2rcd13ifvqgvg","pricing_plan_id":"cebpf4jnsgd1na2vs0mg"},{"bike_id":"57b577a6-05e4-403f-8e08-8a8bb593ff51","system_id":"levelo_inurba_marseille","lat":43.289402,"lon":5.366382,"is_reserved":false,"is_disabled":true,"rental_uris":{"android":"levelo://app?vid=57b577a6-05e4-403f-8e08-8a8bb593ff51","ios":"levelo://app?vid=57b577a6-05e4-403f-8e08-8a8bb593ff51"},"vehicle_type_id":"4","last_reported":1746342530,"current_range_meters":14000,"station_id":"ce4bhap2rcd13ifvqek0","pricing_plan_id":"cebpf4jnsgd1na2vs0mg"},{"bike_id":"bfd9f854-d1a4-4624-bbcf-9c620e8ef005","system_id":"levelo_inurba_marseille","lat":43.24806,"lon":5.37465,"is_reserved":false,"is_disabled":false,"rental_uris":{"android":"levelo://app?vid=bfd9f854-d1a4-4624-bbcf-9c620e8ef005","ios":"levelo://app?vid=bfd9f854-d1a4-4624-bbcf-9c620e8ef005"},"vehicle_type_id":"4","last_reported":1746342530,"current_range_meters":13600,"station_id":"ce4bhgh2rcd13ifvqfb0","pricing_plan_id":"cebpf4jnsgd1na2vs0mg"},{"bike_id":"05fb8e53-690e-4c91-83ac-d946606b1d9d","system_id":"levelo_inurba_marseille","lat":43.31333,"lon":5.40149,"is_reserved":false,"is_disabled":false,"rental_uris":{"android":"levelo://app?vid=05fb8e53-690e-4c91-83ac-d946606b1d9d","ios":"levelo://app?vid=05fb8e53-690e-4c91-83ac-d946606b1d9d"},"vehicle_type_id":"4","last_reported":1746342530,"current_range_meters":14000,"station_id":"ce4bh092rcd13ifvqd30","pricing_plan_id":"cebpf4jnsgd1na2vs0mg"},{"bike_id":"4cc851da-e1ec-42ff-95e4-8b92ad8a1e2f","system_id":"levelo_inurba_marseille","lat":43.300258,"lon":5.401791,"is_reserved":false,"is_disabled":false,"rental_uris":{"android":"levelo://app?vid=4cc851da-e1ec-42ff-95e4-8b92ad8a1e2f","ios":"levelo://app?vid=4cc851da-e1ec-42ff-95e4-8b92ad8a1e2f"},"vehicle_type_id":"4","last_reported":1746342530,"current_range_meters":14000,"station_id":"","pricing_plan_id":"cebpf4jnsgd1na2vs0mg"},{"bike_id":"9732b7e1-1614-4bf9-9ec9-f2c1bbf4aeb4","system_id":"levelo_inurba_marseille","lat":43.30644,"lon":5.40104,"is_reserved":false,"is_disabled":false,"rental_uris":{"android":"levelo://app?vid=9732b7e1-1614-4bf9-9ec9-f2c1bbf4aeb4","ios":"levelo://app?vid=9732b7e1-1614-4bf9-9ec9-f2c1bbf4aeb4"},"vehicle_type_id":"4","last_reported":1746342530,"current_range_meters":14400,"station_id":"ce4bh112rcd13ifvqda0","pricing_plan_id":"cebpf4jnsgd1na2vs0mg"},{"bike_id":"7a6f2a76-8579-4f8a-86cf-54985f1b9577","system_id":"levelo_inurba_marseille","lat":43.29321,"lon":5.40189,"is_reserved":false,"is_disabled":false,"rental_uris":{"android":"levelo://app?vid=7a6f2a76-8579-4f8a-86cf-54985f1b9577","ios":"levelo://app?vid=7a6f2a76-8579-4f8a-86cf-54985f1b9577"},"vehicle_type_id":"4","last_reported":1746342530,"current_range_meters":14400,"station_id":"ce4bh312rcd13ifvqdk0","pricing_plan_id":"cebpf4jnsgd1na2vs0mg"},{"bike_id":"d447b317-7fe8-4b25-a86f-02fbc65ddcfa","system_id":"levelo_inurba_marseille","lat":43.23147,"lon":5.43737,"is_reserved":false,"is_disabled":false,"rental_uris":{"android":"levelo://app?vid=d447b317-7fe8-4b25-a86f-02fbc65ddcfa","ios":"levelo://app?vid=d447b317-7fe8-4b25-a86f-02fbc65ddcfa"},"vehicle_type_id":"4","last_reported":1746342530,"current_range_meters":14800,"station_id":"ce4bhmp2rcd13ifvqgog","pricing_plan_id":"cebpf4jnsgd1na2vs0mg"},{"bike_id":"cebdafcb-65bd-42d1-aa43-4e8b777b1e60","system_id":"levelo_inurba_marseille","lat":43.29803,"lon":5.39083,"is_reserved":false,"is_disabled":false,"rental_uris":{"android":"levelo://app?vid=cebdafcb-65bd-42d1-aa43-4e8b777b1e60","ios":"levelo://app?vid=cebdafcb-65bd-42d1-aa43-4e8b777b1e60"},"vehicle_type_id":"4","last_reported":1746342530,"current_range_meters":14800,"station_id":"","pricing_plan_id":"cebpf4jnsgd1na2vs0mg"},{"bike_id":"49b2feb9-e76c-45e6-8013-60053c7684dc","system_id":"levelo_inurba_marseille","lat":43.28419,"lon":5.39154,"is_reserved":false,"is_disabled":false,"rental_uris":{"android":"levelo://app?vid=49b2feb9-e76c-45e6-8013-60053c7684dc","ios":"levelo://app?vid=49b2feb9-e76c-45e6-8013-60053c7684dc"},"vehicle_type_id":"4","last_reported":1746342530,"current_range_meters":14800,"station_id":"","pricing_plan_id":"cebpf4jnsgd1na2vs0mg"},{"bike_id":"fb80c1da-d845-467b-9c3b-2f591f4d56ae","system_id":"levelo_inurba_marseille","lat":43.323406,"lon":5.37422,"is_reserved":false,"is_disabled":false,"rental_uris":{"android":"levelo://app?vid=fb80c1da-d845-467b-9c3b-2f591f4d56ae","ios":"levelo://app?vid=fb80c1da-d845-467b-9c3b-2f591f4d56ae"},"vehicle_type_id":"4","last_reported":1746342530,"current_range_meters":15200,"station_id":"","pricing_plan_id":"cebpf4jnsgd1na2vs0mg"},{"bike_id":"f5389b3d-1047-4964-bd67-6e43c1c81611","system_id":"levelo_inurba_marseille","lat":43.3055,"lon":5.365437,"is_reserved":false,"is_disabled":false,"rental_uris":{"android":"levelo://app?vid=f5389b3d-1047-4964-bd67-6e43c1c81611","ios":"levelo://app?vid=f5389b3d-1047-4964-bd67-6e43c1c81611"},"vehicle_type_id":"4","last_reported":1746342530,"current_range_meters":15200,"station_id":"ce4bgs12rcd13ifvqcag","pricing_plan_id":"cebpf4jnsgd1na2vs0mg"},{"bike_id":"12462135-9b53-446d-81f0-ed4b40031a03","system_id":"levelo_inurba_marseille","lat":43.27066,"lon":5.42276,"is_reserved":false,"is_disabled":false,"rental_uris":{"android":"levelo://app?vid=12462135-9b53-446d-81f0-ed4b40031a03","ios":"levelo://app?vid=12462135-9b53-446d-81f0-ed4b40031a03"},"vehicle_type_id":"4","last_reported":1746342530,"current_range_meters":15200,"station_id":"ce4bhk92rcd13ifvqgb0","pricing_plan_id":"cebpf4jnsgd1na2vs0mg"},{"bike_id":"7e36589e-b927-4bf7-8a0b-d0b8dcd3b0f5","system_id":"levelo_inurba_marseille","lat":43.29568,"lon":5.37517,"is_reserved":false,"is_disabled":false,"rental_uris":{"android":"levelo://app?vid=7e36589e-b927-4bf7-8a0b-d0b8dcd3b0f5","ios":"levelo://app?vid=7e36589e-b927-4bf7-8a0b-d0b8dcd3b0f5"},"vehicle_type_id":"4","last_reported":1746342530,"current_range_meters":15200,"station_id":"ce4bgh92rcd13ifvqb50","pricing_plan_id":"cebpf4jnsgd1na2vs0mg"},{"bike_id":"52b2b11c-fa93-4c1e-a120-3fdc360b4a73","system_id":"levelo_inurba_marseille","lat":43.28057,"lon":5.36952,"is_reserved":false,"is_disabled":false,"rental_uris":{"android":"levelo://app?vid=52b2b11c-fa93-4c1e-a120-3fdc360b4a73","ios":"levelo://app?vid=52b2b11c-fa93-4c1e-a120-3fdc360b4a73"},"vehicle_type_id":"4","last_reported":1746342530,"current_range_meters":15200,"station_id":"ce4bha12rcd13ifvqef0","pricing_plan_id":"cebpf4jnsgd1na2vs0mg"},{"bike_id":"9cc8c66d-32b8-411f-bb1b-684b311a8f01","system_id":"levelo_inurba_marseille","lat":43.30148,"lon":5.38083,"is_reserved":false,"is_disabled":false,"rental_uris":{"android":"levelo://app?vid=9cc8c66d-32b8-411f-bb1b-684b311a8f01","ios":"levelo://app?vid=9cc8c66d-32b8-411f-bb1b-684b311a8f01"},"vehicle_type_id":"4","last_reported":1746342530,"current_range_meters":16000,"station_id":"ce4bgjp2rcd13ifvqbh0","pricing_plan_id":"cebpf4jnsgd1na2vs0mg"},{"bike_id":"0c86f7c5-5a71-4b5a-a769-ceb3451e1da9","system_id":"levelo_inurba_marseille","lat":43.317096,"lon":5.404556,"is_reserved":false,"is_disabled":false,"rental_uris":{"android":"levelo://app?vid=0c86f7c5-5a71-4b5a-a769-ceb3451e1da9","ios":"levelo://app?vid=0c86f7c5-5a71-4b5a-a769-ceb3451e1da9"},"vehicle_type_id":"4","last_reported":1746342530,"current_range_meters":16000,"station_id":"ce4bh012rcd13ifvqd00","pricing_plan_id":"cebpf4jnsgd1na2vs0mg"},{"bike_id":"cc39cdc5-0417-4f88-b75a-a7a63ab3f1d6","system_id":"levelo_inurba_marseille","lat":43.31364,"lon":5.38257,"is_reserved":false,"is_disabled":false,"rental_uris":{"android":"levelo://app?vid=cc39cdc5-0417-4f88-b75a-a7a63ab3f1d6","ios":"levelo://app?vid=cc39cdc5-0417-4f88-b75a-a7a63ab3f1d6"},"vehicle_type_id":"4","last_reported":1746342530,"current_range_meters":16000,"station_id":"","pricing_plan_id":"cebpf4jnsgd1na2vs0mg"},{"bike_id":"e84eee43-7ebe-4b56-a08b-27d6e58561fd","system_id":"levelo_inurba_marseille","lat":43.241812,"lon":5.397353,"is_reserved":false,"is_disabled":false,"rental_uris":{"android":"levelo://app?vid=e84eee43-7ebe-4b56-a08b-27d6e58561fd","ios":"levelo://app?vid=e84eee43-7ebe-4b56-a08b-27d6e58561fd"},"vehicle_type_id":"4","last_reported":1746342530,"current_range_meters":16000,"station_id":"ce4bhn12rcd13ifvqgpg","pricing_plan_id":"cebpf4jnsgd1na2vs0mg"},{"bike_id":"696b71f0-972e-4fa6-831c-b2001014ab23","system_id":"levelo_inurba_marseille","lat":43.25151,"lon":5.40378,"is_reserved":false,"is_disabled":false,"rental_uris":{"android":"levelo://app?vid=696b71f0-972e-4fa6-831c-b2001014ab23","ios":"levelo://app?vid=696b71f0-972e-4fa6-831c-b2001014ab23"},"vehicle_type_id":"4","last_reported":1746342530,"current_range_meters":16000,"station_id":"","pricing_plan_id":"cebpf4jnsgd1na2vs0mg"},{"bike_id":"ce7e06eb-b040-4a1c-b1b9-b8a759460472","system_id":"levelo_inurba_marseille","lat":43.25168,"lon":5.40352,"is_reserved":false,"is_disabled":false,"rental_uris":{"android":"levelo://app?vid=ce7e06eb-b040-4a1c-b1b9-b8a759460472","ios":"levelo://app?vid=ce7e06eb-b040-4a1c-b1b9-b8a759460472"},"vehicle_type_id":"4","last_reported":1746342530,"current_range_meters":16000,"station_id":"","pricing_plan_id":"cebpf4jnsgd1na2vs0mg"},{"bike_id":"073ee896-7ffd-4eeb-ba0c-a255d4c8e537","system_id":"levelo_inurba_marseille","lat":43.25667,"lon":5.4113,"is_reserved":false,"is_disabled":false,"rental_uris":{"android":"levelo://app?vid=073ee896-7ffd-4eeb-ba0c-a255d4c8e537","ios":"levelo://app?vid=073ee896-7ffd-4eeb-ba0c-a255d4c8e537"},"vehicle_type_id":"4","last_reported":1746342530,"current_range_meters":16000,"station_id":"ce4bhkp2rcd13ifvqgd0","pricing_plan_id":"cebpf4jnsgd1na2vs0mg"},{"bike_id":"14d6d19c-e783-4f44-b8a0-210295a4d8d7","system_id":"levelo_inurba_marseille","lat":43.29669,"lon":5.36601,"is_reserved":false,"is_disabled":false,"rental_uris":{"android":"levelo://app?vid=14d6d19c-e783-4f44-b8a0-210295a4d8d7","ios":"levelo://app?vid=14d6d19c-e783-4f44-b8a0-210295a4d8d7"},"vehicle_type_id":"4","last_reported":1746342530,"current_range_meters":16400,"station_id":"ce4bgn12rcd13ifvqbt0","pricing_plan_id":"cebpf4jnsgd1na2vs0mg"},{"bike_id":"b7204265-8614-4426-b737-6909eb2143cc","system_id":"levelo_inurba_marseille","lat":43.23136,"lon":5.43686,"is_reserved":false,"is_disabled":false,"rental_uris":{"android":"levelo://app?vid=b7204265-8614-4426-b737-6909eb2143cc","ios":"levelo://app?vid=b7204265-8614-4426-b737-6909eb2143cc"},"vehicle_type_id":"4","last_reported":1746342530,"current_range_meters":16400,"station_id":"ce4bhmp2rcd13ifvqgog","pricing_plan_id":"cebpf4jnsgd1na2vs0mg"},{"bike_id":"fdef9e55-be0f-41e0-8526-8e8fa7260880","system_id":"levelo_inurba_marseille","lat":43.312819,"lon":5.374133,"is_reserved":false,"is_disabled":false,"rental_uris":{"android":"levelo://app?vid=fdef9e55-be0f-41e0-8526-8e8fa7260880","ios":"levelo://app?vid=fdef9e55-be0f-41e0-8526-8e8fa7260880"},"vehicle_type_id":"4","last_reported":1746342530,"current_range_meters":16400,"station_id":"","pricing_plan_id":"cebpf4jnsgd1na2vs0mg"},{"bike_id":"bcd5575e-11b1-452e-98cf-1e0facae2b37","system_id":"levelo_inurba_marseille","lat":43.246399,"lon":5.434007,"is_reserved":false,"is_disabled":false,"rental_uris":{"android":"levelo://app?vid=bcd5575e-11b1-452e-98cf-1e0facae2b37","ios":"levelo://app?vid=bcd5575e-11b1-452e-98cf-1e0facae2b37"},"vehicle_type_id":"4","last_reported":1746342530,"current_range_meters":16400,"station_id":"","pricing_plan_id":"cebpf4jnsgd1na2vs0mg"},{"bike_id":"8a1c92bd-6777-477a-9eaf-2b1631a1f0a6","system_id":"levelo_inurba_marseille","lat":43.309293,"lon":5.401521,"is_reserved":false,"is_disabled":false,"rental_uris":{"android":"levelo://app?vid=8a1c92bd-6777-477a-9eaf-2b1631a1f0a6","ios":"levelo://app?vid=8a1c92bd-6777-477a-9eaf-2b1631a1f0a6"},"vehicle_type_id":"4","last_reported":1746342530,"current_range_meters":16400,"station_id":"ce4bgvp2rcd13ifvqct0","pricing_plan_id":"cebpf4jnsgd1na2vs0mg"},{"bike_id":"ae97f59b-b48e-402b-9ac2-2eba71290cd1","system_id":"levelo_inurba_marseille","lat":43.309303,"lon":5.401443,"is_reserved":false,"is_disabled":false,"rental_uris":{"android":"levelo://app?vid=ae97f59b-b48e-402b-9ac2-2eba71290cd1","ios":"levelo://app?vid=ae97f59b-b48e-402b-9ac2-2eba71290cd1"},"vehicle_type_id":"4","last_reported":1746342530,"current_range_meters":16400,"station_id":"ce4bgvp2rcd13ifvqct0","pricing_plan_id":"cebpf4jnsgd1na2vs0mg"},{"bike_id":"7ebb70cc-fd03-475b-980f-aca77de5d23a","system_id":"levelo_inurba_marseille","lat":43.30954,"lon":5.4015,"is_reserved":false,"is_disabled":false,"rental_uris":{"android":"levelo://app?vid=7ebb70cc-fd03-475b-980f-aca77de5d23a","ios":"levelo://app?vid=7ebb70cc-fd03-475b-980f-aca77de5d23a"},"vehicle_type_id":"4","last_reported":1746342530,"current_range_meters":16400,"station_id":"ce4bgvp2rcd13ifvqct0","pricing_plan_id":"cebpf4jnsgd1na2vs0mg"},{"bike_id":"eb5c43d6-7a09-4d7e-984e-ed251b0ebe27","system_id":"levelo_inurba_marseille","lat":43.27197,"lon":5.3916,"is_reserved":false,"is_disabled":false,"rental_uris":{"android":"levelo://app?vid=eb5c43d6-7a09-4d7e-984e-ed251b0ebe27","ios":"levelo://app?vid=eb5c43d6-7a09-4d7e-984e-ed251b0ebe27"},"vehicle_type_id":"4","last_reported":1746342530,"current_range_meters":16400,"station_id":"ce4bhhp2rcd13ifvqfm0","pricing_plan_id":"cebpf4jnsgd1na2vs0mg"},{"bike_id":"9396af82-8b91-4fcd-b476-235f7c69547b","system_id":"levelo_inurba_marseille","lat":43.27206,"lon":5.39194,"is_reserved":false,"is_disabled":false,"rental_uris":{"android":"levelo://app?vid=9396af82-8b91-4fcd-b476-235f7c69547b","ios":"levelo://app?vid=9396af82-8b91-4fcd-b476-235f7c69547b"},"vehicle_type_id":"4","last_reported":1746342530,"current_range_meters":16400,"station_id":"ce4bhhp2rcd13ifvqfm0","pricing_plan_id":"cebpf4jnsgd1na2vs0mg"},{"bike_id":"ec53c786-ae1e-453d-9cd6-5e7171a2949e","system_id":"levelo_inurba_marseille","lat":43.308846,"lon":5.396485,"is_reserved":false,"is_disabled":false,"rental_uris":{"android":"levelo://app?vid=ec53c786-ae1e-453d-9cd6-5e7171a2949e","ios":"levelo://app?vid=ec53c786-ae1e-453d-9cd6-5e7171a2949e"},"vehicle_type_id":"4","last_reported":1746342530,"current_range_meters":16400,"station_id":"ce4bh012rcd13ifvqcv0","pricing_plan_id":"cebpf4jnsgd1na2vs0mg"},{"bike_id":"20e89858-6ad3-4614-90dd-b3c483147247","system_id":"levelo_inurba_marseille","lat":43.30636,"lon":5.40063,"is_reserved":false,"is_disabled":false,"rental_uris":{"android":"levelo://app?vid=20e89858-6ad3-4614-90dd-b3c483147247","ios":"levelo://app?vid=20e89858-6ad3-4614-90dd-b3c483147247"},"vehicle_type_id":"4","last_reported":1746342530,"current_range_meters":16400,"station_id":"ce4bh112rcd13ifvqda0","pricing_plan_id":"cebpf4jnsgd1na2vs0mg"},{"bike_id":"43f220ab-0408-46b3-abe5-60437ce3bc1e","system_id":"levelo_inurba_marseille","lat":43.231853,"lon":5.355591,"is_reserved":false,"is_disabled":false,"rental_uris":{"android":"levelo://app?vid=43f220ab-0408-46b3-abe5-60437ce3bc1e","ios":"levelo://app?vid=43f220ab-0408-46b3-abe5-60437ce3bc1e"},"vehicle_type_id":"4","last_reported":1746342530,"current_range_meters":16800,"station_id":"ce4bhu92rcd13ifvqi70","pricing_plan_id":"cebpf4jnsgd1na2vs0mg"},{"bike_id":"da86dbc1-1e83-43ca-9dfc-bf9622d5f196","system_id":"levelo_inurba_marseille","lat":43.30322,"lon":5.40439,"is_reserved":false,"is_disabled":false,"rental_uris":{"android":"levelo://app?vid=da86dbc1-1e83-43ca-9dfc-bf9622d5f196","ios":"levelo://app?vid=da86dbc1-1e83-43ca-9dfc-bf9622d5f196"},"vehicle_type_id":"4","last_reported":1746342530,"current_range_meters":16800,"station_id":"ce4bh012rcd13ifvqd10","pricing_plan_id":"cebpf4jnsgd1na2vs0mg"},{"bike_id":"838953c0-5207-4dd4-a4c4-6cd84e5c58c8","system_id":"levelo_inurba_marseille","lat":43.28058,"lon":5.36951,"is_reserved":false,"is_disabled":false,"rental_uris":{"android":"levelo://app?vid=838953c0-5207-4dd4-a4c4-6cd84e5c58c8","ios":"levelo://app?vid=838953c0-5207-4dd4-a4c4-6cd84e5c58c8"},"vehicle_type_id":"4","last_reported":1746342530,"current_range_meters":17200,"station_id":"ce4bha12rcd13ifvqef0","pricing_plan_id":"cebpf4jnsgd1na2vs0mg"},{"bike_id":"44a4c1aa-e659-41ae-8ef4-e3bc1e502d2a","system_id":"levelo_inurba_marseille","lat":43.323566,"lon":5.367549,"is_reserved":false,"is_disabled":false,"rental_uris":{"android":"levelo://app?vid=44a4c1aa-e659-41ae-8ef4-e3bc1e502d2a","ios":"levelo://app?vid=44a4c1aa-e659-41ae-8ef4-e3bc1e502d2a"},"vehicle_type_id":"4","last_reported":1746342530,"current_range_meters":17200,"station_id":"ce4bhsh2rcd13ifvqi2g","pricing_plan_id":"cebpf4jnsgd1na2vs0mg"},{"bike_id":"4f86003a-4bda-480f-becc-b4f53e6e3826","system_id":"levelo_inurba_marseille","lat":43.24542,"lon":5.39523,"is_reserved":false,"is_disabled":false,"rental_uris":{"android":"levelo://app?vid=4f86003a-4bda-480f-becc-b4f53e6e3826","ios":"levelo://app?vid=4f86003a-4bda-480f-becc-b4f53e6e3826"},"vehicle_type_id":"4","last_reported":1746342530,"current_range_meters":17200,"station_id":"ce4bhlp2rcd13ifvqgjg","pricing_plan_id":"cebpf4jnsgd1na2vs0mg"},{"bike_id":"d94ace2f-a694-4d2b-9fa0-6d215239b455","system_id":"levelo_inurba_marseille","lat":43.243882,"lon":5.370626,"is_reserved":false,"is_disabled":false,"rental_uris":{"android":"levelo://app?vid=d94ace2f-a694-4d2b-9fa0-6d215239b455","ios":"levelo://app?vid=d94ace2f-a694-4d2b-9fa0-6d215239b455"},"vehicle_type_id":"4","last_reported":1746342530,"current_range_meters":17200,"station_id":"ce4bhhh2rcd13ifvqfk0","pricing_plan_id":"cebpf4jnsgd1na2vs0mg"},{"bike_id":"d6b6d1c9-9997-4447-b680-3954d9f637d8","system_id":"levelo_inurba_marseille","lat":43.28625,"lon":5.37046,"is_reserved":false,"is_disabled":false,"rental_uris":{"android":"levelo://app?vid=d6b6d1c9-9997-4447-b680-3954d9f637d8","ios":"levelo://app?vid=d6b6d1c9-9997-4447-b680-3954d9f637d8"},"vehicle_type_id":"4","last_reported":1746342530,"current_range_meters":17600,"station_id":"ce4bht12rcd13ifvqi60","pricing_plan_id":"cebpf4jnsgd1na2vs0mg"},{"bike_id":"54cb486b-6288-4dc7-8f4f-f0f96837f7c5","system_id":"levelo_inurba_marseille","lat":43.27211,"lon":5.39185,"is_reserved":false,"is_disabled":false,"rental_uris":{"android":"levelo://app?vid=54cb486b-6288-4dc7-8f4f-f0f96837f7c5","ios":"levelo://app?vid=54cb486b-6288-4dc7-8f4f-f0f96837f7c5"},"vehicle_type_id":"4","last_reported":1746342530,"current_range_meters":17600,"station_id":"ce4bhhp2rcd13ifvqfm0","pricing_plan_id":"cebpf4jnsgd1na2vs0mg"},{"bike_id":"c934a038-999c-4097-b244-e68883d621e3","system_id":"levelo_inurba_marseille","lat":43.30557,"lon":5.36548,"is_reserved":false,"is_disabled":true,"rental_uris":{"android":"levelo://app?vid=c934a038-999c-4097-b244-e68883d621e3","ios":"levelo://app?vid=c934a038-999c-4097-b244-e68883d621e3"},"vehicle_type_id":"4","last_reported":1746342530,"current_range_meters":17600,"station_id":"ce4bgs12rcd13ifvqcag","pricing_plan_id":"cebpf4jnsgd1na2vs0mg"},{"bike_id":"19c0a13c-23fd-46c9-881b-28dbf58b70a1","system_id":"levelo_inurba_marseille","lat":43.31079,"lon":5.42439,"is_reserved":false,"is_disabled":false,"rental_uris":{"android":"levelo://app?vid=19c0a13c-23fd-46c9-881b-28dbf58b70a1","ios":"levelo://app?vid=19c0a13c-23fd-46c9-881b-28dbf58b70a1"},"vehicle_type_id":"4","last_reported":1746342530,"current_range_meters":17600,"station_id":"ce4bhp92rcd13ifvqhag","pricing_plan_id":"cebpf4jnsgd1na2vs0mg"},{"bike_id":"c627b57c-a364-4991-bf18-9b2dfa26592e","system_id":"levelo_inurba_marseille","lat":43.23157,"lon":5.43712,"is_reserved":false,"is_disabled":false,"rental_uris":{"android":"levelo://app?vid=c627b57c-a364-4991-bf18-9b2dfa26592e","ios":"levelo://app?vid=c627b57c-a364-4991-bf18-9b2dfa26592e"},"vehicle_type_id":"4","last_reported":1746342530,"current_range_meters":18000,"station_id":"ce4bhmp2rcd13ifvqgog","pricing_plan_id":"cebpf4jnsgd1na2vs0mg"},{"bike_id":"0abe7365-362a-4c2d-949a-e32faf9d4099","system_id":"levelo_inurba_marseille","lat":43.211959,"lon":5.350848,"is_reserved":false,"is_disabled":true,"rental_uris":{"android":"levelo://app?vid=0abe7365-362a-4c2d-949a-e32faf9d4099","ios":"levelo://app?vid=0abe7365-362a-4c2d-949a-e32faf9d4099"},"vehicle_type_id":"4","last_reported":1746342530,"current_range_meters":18000,"station_id":"st_cvj6sg6p6f1abm77japg","pricing_plan_id":"cebpf4jnsgd1na2vs0mg"},{"bike_id":"88914dc0-1347-4576-983d-8d7644811263","system_id":"levelo_inurba_marseille","lat":43.31498,"lon":5.37307,"is_reserved":false,"is_disabled":false,"rental_uris":{"android":"levelo://app?vid=88914dc0-1347-4576-983d-8d7644811263","ios":"levelo://app?vid=88914dc0-1347-4576-983d-8d7644811263"},"vehicle_type_id":"4","last_reported":1746342530,"current_range_meters":17600,"station_id":"ce4bgt12rcd13ifvqcd0","pricing_plan_id":"cebpf4jnsgd1na2vs0mg"},{"bike_id":"42472050-c7ca-43cb-9a34-b1d1636a2c78","system_id":"levelo_inurba_marseille","lat":43.31542,"lon":5.38053,"is_reserved":false,"is_disabled":false,"rental_uris":{"android":"levelo://app?vid=42472050-c7ca-43cb-9a34-b1d1636a2c78","ios":"levelo://app?vid=42472050-c7ca-43cb-9a34-b1d1636a2c78"},"vehicle_type_id":"4","last_reported":1746342530,"current_range_meters":18000,"station_id":"ce4bhsp2rcd13ifvqi50","pricing_plan_id":"cebpf4jnsgd1na2vs0mg"},{"bike_id":"f6c1dcb0-1295-4680-af32-4dc24d6ef29b","system_id":"levelo_inurba_marseille","lat":43.27195,"lon":5.39188,"is_reserved":false,"is_disabled":true,"rental_uris":{"android":"levelo://app?vid=f6c1dcb0-1295-4680-af32-4dc24d6ef29b","ios":"levelo://app?vid=f6c1dcb0-1295-4680-af32-4dc24d6ef29b"},"vehicle_type_id":"4","last_reported":1746342530,"current_range_meters":18000,"station_id":"ce4bhhp2rcd13ifvqfm0","pricing_plan_id":"cebpf4jnsgd1na2vs0mg"},{"bike_id":"0a0ece37-539d-4aa3-b235-deb8a4daf593","system_id":"levelo_inurba_marseille","lat":43.33071,"lon":5.40826,"is_reserved":false,"is_disabled":false,"rental_uris":{"android":"levelo://app?vid=0a0ece37-539d-4aa3-b235-deb8a4daf593","ios":"levelo://app?vid=0a0ece37-539d-4aa3-b235-deb8a4daf593"},"vehicle_type_id":"4","last_reported":1746342530,"current_range_meters":18000,"station_id":"","pricing_plan_id":"cebpf4jnsgd1na2vs0mg"},{"bike_id":"1f698de6-af4f-4102-babe-b2183f017a15","system_id":"levelo_inurba_marseille","lat":43.29619,"lon":5.37153,"is_reserved":false,"is_disabled":false,"rental_uris":{"android":"levelo://app?vid=1f698de6-af4f-4102-babe-b2183f017a15","ios":"levelo://app?vid=1f698de6-af4f-4102-babe-b2183f017a15"},"vehicle_type_id":"4","last_reported":1746342530,"current_range_meters":18800,"station_id":"ce4bgnh2rcd13ifvqc0g","pricing_plan_id":"cebpf4jnsgd1na2vs0mg"},{"bike_id":"1885e4e4-787e-4399-a182-13afb5671e8f","system_id":"levelo_inurba_marseille","lat":43.31749,"lon":5.39023,"is_reserved":false,"is_disabled":false,"rental_uris":{"android":"levelo://app?vid=1885e4e4-787e-4399-a182-13afb5671e8f","ios":"levelo://app?vid=1885e4e4-787e-4399-a182-13afb5671e8f"},"vehicle_type_id":"4","last_reported":1746342530,"current_range_meters":18800,"station_id":"ce4bhqp2rcd13ifvqhng","pricing_plan_id":"cebpf4jnsgd1na2vs0mg"},{"bike_id":"1e4c8eca-44f1-4bf0-b96f-01b79f3e652f","system_id":"levelo_inurba_marseille","lat":43.279429,"lon":5.410441,"is_reserved":false,"is_disabled":false,"rental_uris":{"android":"levelo://app?vid=1e4c8eca-44f1-4bf0-b96f-01b79f3e652f","ios":"levelo://app?vid=1e4c8eca-44f1-4bf0-b96f-01b79f3e652f"},"vehicle_type_id":"4","last_reported":1746342530,"current_range_meters":18800,"station_id":"ce4bhnp2rcd13ifvqh0g","pricing_plan_id":"cebpf4jnsgd1na2vs0mg"},{"bike_id":"f6a853a4-eaa9-41c0-b435-29c8c8038cd2","system_id":"levelo_inurba_marseille","lat":43.25711,"lon":5.41111,"is_reserved":false,"is_disabled":false,"rental_uris":{"android":"levelo://app?vid=f6a853a4-eaa9-41c0-b435-29c8c8038cd2","ios":"levelo://app?vid=f6a853a4-eaa9-41c0-b435-29c8c8038cd2"},"vehicle_type_id":"4","last_reported":1746342530,"current_range_meters":18800,"station_id":"ce4bhkp2rcd13ifvqgd0","pricing_plan_id":"cebpf4jnsgd1na2vs0mg"},{"bike_id":"e3f482b3-9af8-49d9-9427-68b636c1d9c9","system_id":"levelo_inurba_marseille","lat":43.22931,"lon":5.35383,"is_reserved":false,"is_disabled":false,"rental_uris":{"android":"levelo://app?vid=e3f482b3-9af8-49d9-9427-68b636c1d9c9","ios":"levelo://app?vid=e3f482b3-9af8-49d9-9427-68b636c1d9c9"},"vehicle_type_id":"4","last_reported":1746342530,"current_range_meters":18800,"station_id":"cpo3532slgdg3j2ikp40","pricing_plan_id":"cebpf4jnsgd1na2vs0mg"},{"bike_id":"59a2dbcf-a44d-430e-976d-50f361684caf","system_id":"levelo_inurba_marseille","lat":43.28607,"lon":5.37068,"is_reserved":false,"is_disabled":false,"rental_uris":{"android":"levelo://app?vid=59a2dbcf-a44d-430e-976d-50f361684caf","ios":"levelo://app?vid=59a2dbcf-a44d-430e-976d-50f361684caf"},"vehicle_type_id":"4","last_reported":1746342530,"current_range_meters":18800,"station_id":"ce4bht12rcd13ifvqi60","pricing_plan_id":"cebpf4jnsgd1na2vs0mg"},{"bike_id":"69ad579b-3f7f-423e-a19d-2fd465d6a626","system_id":"levelo_inurba_marseille","lat":43.2705,"lon":5.40261,"is_reserved":false,"is_disabled":false,"rental_uris":{"android":"levelo://app?vid=69ad579b-3f7f-423e-a19d-2fd465d6a626","ios":"levelo://app?vid=69ad579b-3f7f-423e-a19d-2fd465d6a626"},"vehicle_type_id":"4","last_reported":1746342530,"current_range_meters":18800,"station_id":"ce4bhk92rcd13ifvqgc0","pricing_plan_id":"cebpf4jnsgd1na2vs0mg"},{"bike_id":"8536704e-961e-4868-ad07-81df77fc76eb","system_id":"levelo_inurba_marseille","lat":43.29005,"lon":5.35641,"is_reserved":false,"is_disabled":true,"rental_uris":{"android":"levelo://app?vid=8536704e-961e-4868-ad07-81df77fc76eb","ios":"levelo://app?vid=8536704e-961e-4868-ad07-81df77fc76eb"},"vehicle_type_id":"4","last_reported":1746342530,"current_range_meters":19200,"station_id":"ce4bhb92rcd13ifvqen0","pricing_plan_id":"cebpf4jnsgd1na2vs0mg"},{"bike_id":"020b5a72-3ed4-4efa-ac90-fde34228cf06","system_id":"levelo_inurba_marseille","lat":43.30787,"lon":5.3766,"is_reserved":false,"is_disabled":false,"rental_uris":{"android":"levelo://app?vid=020b5a72-3ed4-4efa-ac90-fde34228cf06","ios":"levelo://app?vid=020b5a72-3ed4-4efa-ac90-fde34228cf06"},"vehicle_type_id":"4","last_reported":1746342530,"current_range_meters":19200,"station_id":"ce4bgv92rcd13ifvqcq0","pricing_plan_id":"cebpf4jnsgd1na2vs0mg"},{"bike_id":"3ff1331f-d2b9-4db6-9af0-17b5a04341a5","system_id":"levelo_inurba_marseille","lat":43.243339,"lon":5.379949,"is_reserved":false,"is_disabled":false,"rental_uris":{"android":"levelo://app?vid=3ff1331f-d2b9-4db6-9af0-17b5a04341a5","ios":"levelo://app?vid=3ff1331f-d2b9-4db6-9af0-17b5a04341a5"},"vehicle_type_id":"4","last_reported":1746342530,"current_range_meters":19200,"station_id":"","pricing_plan_id":"cebpf4jnsgd1na2vs0mg"},{"bike_id":"f861928d-54fe-4602-a72a-3e73aa56b797","system_id":"levelo_inurba_marseille","lat":43.27073,"lon":5.42269,"is_reserved":false,"is_disabled":false,"rental_uris":{"android":"levelo://app?vid=f861928d-54fe-4602-a72a-3e73aa56b797","ios":"levelo://app?vid=f861928d-54fe-4602-a72a-3e73aa56b797"},"vehicle_type_id":"4","last_reported":1746342530,"current_range_meters":19200,"station_id":"ce4bhk92rcd13ifvqgb0","pricing_plan_id":"cebpf4jnsgd1na2vs0mg"},{"bike_id":"2a83f628-6bc6-4805-bbb5-042e251d7a0f","system_id":"levelo_inurba_marseille","lat":43.315299,"lon":5.380379,"is_reserved":false,"is_disabled":false,"rental_uris":{"android":"levelo://app?vid=2a83f628-6bc6-4805-bbb5-042e251d7a0f","ios":"levelo://app?vid=2a83f628-6bc6-4805-bbb5-042e251d7a0f"},"vehicle_type_id":"4","last_reported":1746342530,"current_range_meters":19600,"station_id":"ce4bhsp2rcd13ifvqi50","pricing_plan_id":"cebpf4jnsgd1na2vs0mg"},{"bike_id":"7ad04c1b-fc26-4c94-a72f-89c6e3ca5c32","system_id":"levelo_inurba_marseille","lat":43.31197,"lon":5.40785,"is_reserved":false,"is_disabled":false,"rental_uris":{"android":"levelo://app?vid=7ad04c1b-fc26-4c94-a72f-89c6e3ca5c32","ios":"levelo://app?vid=7ad04c1b-fc26-4c94-a72f-89c6e3ca5c32"},"vehicle_type_id":"4","last_reported":1746342530,"current_range_meters":19600,"station_id":"","pricing_plan_id":"cebpf4jnsgd1na2vs0mg"},{"bike_id":"9e54a850-71b6-40f4-baed-b49b1f0321c4","system_id":"levelo_inurba_marseille","lat":43.28447,"lon":5.39213,"is_reserved":false,"is_disabled":false,"rental_uris":{"android":"levelo://app?vid=9e54a850-71b6-40f4-baed-b49b1f0321c4","ios":"levelo://app?vid=9e54a850-71b6-40f4-baed-b49b1f0321c4"},"vehicle_type_id":"4","last_reported":1746342530,"current_range_meters":19600,"station_id":"ce4bhoh2rcd13ifvqh5g","pricing_plan_id":"cebpf4jnsgd1na2vs0mg"},{"bike_id":"670b1b9b-ffeb-4a0c-b8dc-9ad9b67db084","system_id":"levelo_inurba_marseille","lat":43.29021,"lon":5.39964,"is_reserved":false,"is_disabled":false,"rental_uris":{"android":"levelo://app?vid=670b1b9b-ffeb-4a0c-b8dc-9ad9b67db084","ios":"levelo://app?vid=670b1b9b-ffeb-4a0c-b8dc-9ad9b67db084"},"vehicle_type_id":"4","last_reported":1746342530,"current_range_meters":19600,"station_id":"ce4bh392rcd13ifvqdm0","pricing_plan_id":"cebpf4jnsgd1na2vs0mg"},{"bike_id":"082ac56b-3d9f-4f13-bc0f-c2060386c881","system_id":"levelo_inurba_marseille","lat":43.29016,"lon":5.35584,"is_reserved":false,"is_disabled":true,"rental_uris":{"android":"levelo://app?vid=082ac56b-3d9f-4f13-bc0f-c2060386c881","ios":"levelo://app?vid=082ac56b-3d9f-4f13-bc0f-c2060386c881"},"vehicle_type_id":"4","last_reported":1746342530,"current_range_meters":19600,"station_id":"ce4bhb92rcd13ifvqen0","pricing_plan_id":"cebpf4jnsgd1na2vs0mg"},{"bike_id":"c9fc3045-45d2-4dca-a3ce-d5c86023e574","system_id":"levelo_inurba_marseille","lat":43.29223,"lon":5.36051,"is_reserved":false,"is_disabled":false,"rental_uris":{"android":"levelo://app?vid=c9fc3045-45d2-4dca-a3ce-d5c86023e574","ios":"levelo://app?vid=c9fc3045-45d2-4dca-a3ce-d5c86023e574"},"vehicle_type_id":"4","last_reported":1746342530,"current_range_meters":19600,"station_id":"ce4bhbh2rcd13ifvqeqg","pricing_plan_id":"cebpf4jnsgd1na2vs0mg"},{"bike_id":"8e69649f-d5a0-4ead-b212-c5b5612beda7","system_id":"levelo_inurba_marseille","lat":43.25496,"lon":5.37644,"is_reserved":false,"is_disabled":true,"rental_uris":{"android":"levelo://app?vid=8e69649f-d5a0-4ead-b212-c5b5612beda7","ios":"levelo://app?vid=8e69649f-d5a0-4ead-b212-c5b5612beda7"},"vehicle_type_id":"4","last_reported":1746342530,"current_range_meters":19600,"station_id":"ce4bhh12rcd13ifvqff0","pricing_plan_id":"cebpf4jnsgd1na2vs0mg"},{"bike_id":"ff8d6428-195e-457d-92c7-888802fc6b00","system_id":"levelo_inurba_marseille","lat":43.31184,"lon":5.38722,"is_reserved":false,"is_disabled":false,"rental_uris":{"android":"levelo://app?vid=ff8d6428-195e-457d-92c7-888802fc6b00","ios":"levelo://app?vid=ff8d6428-195e-457d-92c7-888802fc6b00"},"vehicle_type_id":"4","last_reported":1746342530,"current_range_meters":20000,"station_id":"ce4bgv12rcd13ifvqcp0","pricing_plan_id":"cebpf4jnsgd1na2vs0mg"},{"bike_id":"0d373b2d-fd1b-4729-a35c-bcec97fbd05c","system_id":"levelo_inurba_marseille","lat":43.279541,"lon":5.410316,"is_reserved":false,"is_disabled":false,"rental_uris":{"android":"levelo://app?vid=0d373b2d-fd1b-4729-a35c-bcec97fbd05c","ios":"levelo://app?vid=0d373b2d-fd1b-4729-a35c-bcec97fbd05c"},"vehicle_type_id":"4","last_reported":1746342530,"current_range_meters":20000,"station_id":"ce4bhnp2rcd13ifvqh0g","pricing_plan_id":"cebpf4jnsgd1na2vs0mg"},{"bike_id":"f589fc42-057a-43b9-81ad-55c2a575aecf","system_id":"levelo_inurba_marseille","lat":43.310726,"lon":5.383439,"is_reserved":false,"is_disabled":true,"rental_uris":{"android":"levelo://app?vid=f589fc42-057a-43b9-81ad-55c2a575aecf","ios":"levelo://app?vid=f589fc42-057a-43b9-81ad-55c2a575aecf"},"vehicle_type_id":"4","last_reported":1746342530,"current_range_meters":20400,"station_id":"ce4bgv92rcd13ifvqcr0","pricing_plan_id":"cebpf4jnsgd1na2vs0mg"},{"bike_id":"1ce5faab-c057-44d0-b6f7-996b2962169c","system_id":"levelo_inurba_marseille","lat":43.32375,"lon":5.36791,"is_reserved":false,"is_disabled":false,"rental_uris":{"android":"levelo://app?vid=1ce5faab-c057-44d0-b6f7-996b2962169c","ios":"levelo://app?vid=1ce5faab-c057-44d0-b6f7-996b2962169c"},"vehicle_type_id":"4","last_reported":1746342530,"current_range_meters":20400,"station_id":"ce4bhsh2rcd13ifvqi2g","pricing_plan_id":"cebpf4jnsgd1na2vs0mg"},{"bike_id":"817294e1-47ce-4e2d-8556-6ba4f571edd9","system_id":"levelo_inurba_marseille","lat":43.27068,"lon":5.42275,"is_reserved":false,"is_disabled":false,"rental_uris":{"android":"levelo://app?vid=817294e1-47ce-4e2d-8556-6ba4f571edd9","ios":"levelo://app?vid=817294e1-47ce-4e2d-8556-6ba4f571edd9"},"vehicle_type_id":"4","last_reported":1746342530,"current_range_meters":20400,"station_id":"ce4bhk92rcd13ifvqgb0","pricing_plan_id":"cebpf4jnsgd1na2vs0mg"},{"bike_id":"4dfba4d6-02ee-439f-83a1-69bd884cdae0","system_id":"levelo_inurba_marseille","lat":43.303171,"lon":5.404441,"is_reserved":false,"is_disabled":false,"rental_uris":{"android":"levelo://app?vid=4dfba4d6-02ee-439f-83a1-69bd884cdae0","ios":"levelo://app?vid=4dfba4d6-02ee-439f-83a1-69bd884cdae0"},"vehicle_type_id":"4","last_reported":1746342530,"current_range_meters":20400,"station_id":"ce4bh012rcd13ifvqd10","pricing_plan_id":"cebpf4jnsgd1na2vs0mg"},{"bike_id":"bbba4a42-41f1-4d4c-a0ec-15062e1d6496","system_id":"levelo_inurba_marseille","lat":43.30825,"lon":5.43555,"is_reserved":false,"is_disabled":false,"rental_uris":{"android":"levelo://app?vid=bbba4a42-41f1-4d4c-a0ec-15062e1d6496","ios":"levelo://app?vid=bbba4a42-41f1-4d4c-a0ec-15062e1d6496"},"vehicle_type_id":"4","last_reported":1746342530,"current_range_meters":20800,"station_id":"ce4bhph2rcd13ifvqheg","pricing_plan_id":"cebpf4jnsgd1na2vs0mg"},{"bike_id":"a8a5d03d-9153-4179-835f-415d347401e8","system_id":"levelo_inurba_marseille","lat":43.29565,"lon":5.4227,"is_reserved":false,"is_disabled":false,"rental_uris":{"android":"levelo://app?vid=a8a5d03d-9153-4179-835f-415d347401e8","ios":"levelo://app?vid=a8a5d03d-9153-4179-835f-415d347401e8"},"vehicle_type_id":"4","last_reported":1746342530,"current_range_meters":20800,"station_id":"ce4bhph2rcd13ifvqhdg","pricing_plan_id":"cebpf4jnsgd1na2vs0mg"},{"bike_id":"5316087d-9192-48a3-9aab-79f7210a6e18","system_id":"levelo_inurba_marseille","lat":43.31328,"lon":5.39717,"is_reserved":false,"is_disabled":false,"rental_uris":{"android":"levelo://app?vid=5316087d-9192-48a3-9aab-79f7210a6e18","ios":"levelo://app?vid=5316087d-9192-48a3-9aab-79f7210a6e18"},"vehicle_type_id":"4","last_reported":1746342530,"current_range_meters":20800,"station_id":"ce4bgvp2rcd13ifvqcu0","pricing_plan_id":"cebpf4jnsgd1na2vs0mg"},{"bike_id":"d62eceed-23eb-4f3d-a6fe-a61cd2ad4365","system_id":"levelo_inurba_marseille","lat":43.28409,"lon":5.35604,"is_reserved":false,"is_disabled":false,"rental_uris":{"android":"levelo://app?vid=d62eceed-23eb-4f3d-a6fe-a61cd2ad4365","ios":"levelo://app?vid=d62eceed-23eb-4f3d-a6fe-a61cd2ad4365"},"vehicle_type_id":"4","last_reported":1746342530,"current_range_meters":20800,"station_id":"","pricing_plan_id":"cebpf4jnsgd1na2vs0mg"},{"bike_id":"cc0f9504-c151-44f2-8275-be227cdb99c6","system_id":"levelo_inurba_marseille","lat":43.278702,"lon":5.381907,"is_reserved":false,"is_disabled":false,"rental_uris":{"android":"levelo://app?vid=cc0f9504-c151-44f2-8275-be227cdb99c6","ios":"levelo://app?vid=cc0f9504-c151-44f2-8275-be227cdb99c6"},"vehicle_type_id":"4","last_reported":1746342530,"current_range_meters":20800,"station_id":"","pricing_plan_id":"cebpf4jnsgd1na2vs0mg"},{"bike_id":"725d8748-1f17-463a-879e-9f6908374adb","system_id":"levelo_inurba_marseille","lat":43.23188,"lon":5.35554,"is_reserved":false,"is_disabled":true,"rental_uris":{"android":"levelo://app?vid=725d8748-1f17-463a-879e-9f6908374adb","ios":"levelo://app?vid=725d8748-1f17-463a-879e-9f6908374adb"},"vehicle_type_id":"4","last_reported":1746342530,"current_range_meters":21600,"station_id":"ce4bhu92rcd13ifvqi70","pricing_plan_id":"cebpf4jnsgd1na2vs0mg"},{"bike_id":"bc3ecd7e-46bf-4a4e-99f1-b0aefbe14811","system_id":"levelo_inurba_marseille","lat":43.28105,"lon":5.37844,"is_reserved":false,"is_disabled":false,"rental_uris":{"android":"levelo://app?vid=bc3ecd7e-46bf-4a4e-99f1-b0aefbe14811","ios":"levelo://app?vid=bc3ecd7e-46bf-4a4e-99f1-b0aefbe14811"},"vehicle_type_id":"4","last_reported":1746342530,"current_range_meters":21600,"station_id":"ce4bha12rcd13ifvqee0","pricing_plan_id":"cebpf4jnsgd1na2vs0mg"},{"bike_id":"439a3662-1202-4699-a734-79dae19a1b23","system_id":"levelo_inurba_marseille","lat":43.303178,"lon":5.404421,"is_reserved":false,"is_disabled":false,"rental_uris":{"android":"levelo://app?vid=439a3662-1202-4699-a734-79dae19a1b23","ios":"levelo://app?vid=439a3662-1202-4699-a734-79dae19a1b23"},"vehicle_type_id":"4","last_reported":1746342530,"current_range_meters":21600,"station_id":"ce4bh012rcd13ifvqd10","pricing_plan_id":"cebpf4jnsgd1na2vs0mg"},{"bike_id":"a4c70265-1b99-4d26-ac80-334e8c86e1b2","system_id":"levelo_inurba_marseille","lat":43.253994,"lon":5.419084,"is_reserved":false,"is_disabled":false,"rental_uris":{"android":"levelo://app?vid=a4c70265-1b99-4d26-ac80-334e8c86e1b2","ios":"levelo://app?vid=a4c70265-1b99-4d26-ac80-334e8c86e1b2"},"vehicle_type_id":"4","last_reported":1746342530,"current_range_meters":21600,"station_id":"","pricing_plan_id":"cebpf4jnsgd1na2vs0mg"},{"bike_id":"87633127-eb2c-4adc-b692-8974d6d7a235","system_id":"levelo_inurba_marseille","lat":43.309526,"lon":5.39038,"is_reserved":false,"is_disabled":true,"rental_uris":{"android":"levelo://app?vid=87633127-eb2c-4adc-b692-8974d6d7a235","ios":"levelo://app?vid=87633127-eb2c-4adc-b692-8974d6d7a235"},"vehicle_type_id":"4","last_reported":1746342530,"current_range_meters":22000,"station_id":"ce4bgup2rcd13ifvqco0","pricing_plan_id":"cebpf4jnsgd1na2vs0mg"},{"bike_id":"e02dd004-549e-4245-8590-bc3a3bd0ad0b","system_id":"levelo_inurba_marseille","lat":43.31997,"lon":5.38164,"is_reserved":false,"is_disabled":false,"rental_uris":{"android":"levelo://app?vid=e02dd004-549e-4245-8590-bc3a3bd0ad0b","ios":"levelo://app?vid=e02dd004-549e-4245-8590-bc3a3bd0ad0b"},"vehicle_type_id":"4","last_reported":1746342530,"current_range_meters":22000,"station_id":"ce4bhr12rcd13ifvqhpg","pricing_plan_id":"cebpf4jnsgd1na2vs0mg"},{"bike_id":"d160aa21-19c1-4b8d-a398-e7f60fe915dd","system_id":"levelo_inurba_marseille","lat":43.306383,"lon":5.400781,"is_reserved":false,"is_disabled":false,"rental_uris":{"android":"levelo://app?vid=d160aa21-19c1-4b8d-a398-e7f60fe915dd","ios":"levelo://app?vid=d160aa21-19c1-4b8d-a398-e7f60fe915dd"},"vehicle_type_id":"4","last_reported":1746342530,"current_range_meters":22000,"station_id":"ce4bh112rcd13ifvqda0","pricing_plan_id":"cebpf4jnsgd1na2vs0mg"},{"bike_id":"4170d7a0-20e7-48c5-a671-e63ed55c0e2d","system_id":"levelo_inurba_marseille","lat":43.272038,"lon":5.391806,"is_reserved":false,"is_disabled":false,"rental_uris":{"android":"levelo://app?vid=4170d7a0-20e7-48c5-a671-e63ed55c0e2d","ios":"levelo://app?vid=4170d7a0-20e7-48c5-a671-e63ed55c0e2d"},"vehicle_type_id":"4","last_reported":1746342530,"current_range_meters":22000,"station_id":"ce4bhhp2rcd13ifvqfm0","pricing_plan_id":"cebpf4jnsgd1na2vs0mg"},{"bike_id":"51aff2cb-69e9-4734-b010-721eafdd94d7","system_id":"levelo_inurba_marseille","lat":43.279015,"lon":5.380006,"is_reserved":false,"is_disabled":false,"rental_uris":{"android":"levelo://app?vid=51aff2cb-69e9-4734-b010-721eafdd94d7","ios":"levelo://app?vid=51aff2cb-69e9-4734-b010-721eafdd94d7"},"vehicle_type_id":"4","last_reported":1746342530,"current_range_meters":22000,"station_id":"ce4bhf92rcd13ifvqf50","pricing_plan_id":"cebpf4jnsgd1na2vs0mg"},{"bike_id":"4e6d257c-2d82-42e3-893f-5bce2708eb18","system_id":"levelo_inurba_marseille","lat":43.29571,"lon":5.39968,"is_reserved":false,"is_disabled":false,"rental_uris":{"android":"levelo://app?vid=4e6d257c-2d82-42e3-893f-5bce2708eb18","ios":"levelo://app?vid=4e6d257c-2d82-42e3-893f-5bce2708eb18"},"vehicle_type_id":"4","last_reported":1746342530,"current_range_meters":22000,"station_id":"ce4bh312rcd13ifvqdj0","pricing_plan_id":"cebpf4jnsgd1na2vs0mg"},{"bike_id":"9ca67732-4442-49e8-9578-2f883bee7512","system_id":"levelo_inurba_marseille","lat":43.290543,"lon":5.371551,"is_reserved":false,"is_disabled":true,"rental_uris":{"android":"levelo://app?vid=9ca67732-4442-49e8-9578-2f883bee7512","ios":"levelo://app?vid=9ca67732-4442-49e8-9578-2f883bee7512"},"vehicle_type_id":"4","last_reported":1746342530,"current_range_meters":22000,"station_id":"ce4bh5p2rcd13ifvqe4g","pricing_plan_id":"cebpf4jnsgd1na2vs0mg"},{"bike_id":"3f0a2530-8af9-438e-8407-877aece7d70f","system_id":"levelo_inurba_marseille","lat":43.23955,"lon":5.36647,"is_reserved":false,"is_disabled":false,"rental_uris":{"android":"levelo://app?vid=3f0a2530-8af9-438e-8407-877aece7d70f","ios":"levelo://app?vid=3f0a2530-8af9-438e-8407-877aece7d70f"},"vehicle_type_id":"4","last_reported":1746342530,"current_range_meters":22400,"station_id":"ce4bhi12rcd13ifvqfp0","pricing_plan_id":"cebpf4jnsgd1na2vs0mg"},{"bike_id":"4210a781-9922-4b8c-8449-7424b7d5d740","system_id":"levelo_inurba_marseille","lat":43.25718,"lon":5.41077,"is_reserved":false,"is_disabled":false,"rental_uris":{"android":"levelo://app?vid=4210a781-9922-4b8c-8449-7424b7d5d740","ios":"levelo://app?vid=4210a781-9922-4b8c-8449-7424b7d5d740"},"vehicle_type_id":"4","last_reported":1746342530,"current_range_meters":22400,"station_id":"ce4bhkp2rcd13ifvqgd0","pricing_plan_id":"cebpf4jnsgd1na2vs0mg"},{"bike_id":"6ace0f1a-c51b-49f5-8806-7ffd8c7e5fce","system_id":"levelo_inurba_marseille","lat":43.31703,"lon":5.40458,"is_reserved":false,"is_disabled":false,"rental_uris":{"android":"levelo://app?vid=6ace0f1a-c51b-49f5-8806-7ffd8c7e5fce","ios":"levelo://app?vid=6ace0f1a-c51b-49f5-8806-7ffd8c7e5fce"},"vehicle_type_id":"4","last_reported":1746342530,"current_range_meters":22400,"station_id":"ce4bh012rcd13ifvqd00","pricing_plan_id":"cebpf4jnsgd1na2vs0mg"},{"bike_id":"b711a72e-fc28-4ebb-bd96-c55a87c9c4c6","system_id":"levelo_inurba_marseille","lat":43.24068,"lon":5.3776,"is_reserved":false,"is_disabled":false,"rental_uris":{"android":"levelo://app?vid=b711a72e-fc28-4ebb-bd96-c55a87c9c4c6","ios":"levelo://app?vid=b711a72e-fc28-4ebb-bd96-c55a87c9c4c6"},"vehicle_type_id":"4","last_reported":1746342530,"current_range_meters":22400,"station_id":"ce4bhnp2rcd13ifvqgvg","pricing_plan_id":"cebpf4jnsgd1na2vs0mg"},{"bike_id":"711897f0-d593-4c35-a76a-b71189a9ede8","system_id":"levelo_inurba_marseille","lat":43.2623,"lon":5.37445,"is_reserved":false,"is_disabled":false,"rental_uris":{"android":"levelo://app?vid=711897f0-d593-4c35-a76a-b71189a9ede8","ios":"levelo://app?vid=711897f0-d593-4c35-a76a-b71189a9ede8"},"vehicle_type_id":"4","last_reported":1746342530,"current_range_meters":22400,"station_id":"","pricing_plan_id":"cebpf4jnsgd1na2vs0mg"},{"bike_id":"67228852-9364-4264-8911-ef9778c0a6b7","system_id":"levelo_inurba_marseille","lat":43.31713,"lon":5.40446,"is_reserved":false,"is_disabled":false,"rental_uris":{"android":"levelo://app?vid=67228852-9364-4264-8911-ef9778c0a6b7","ios":"levelo://app?vid=67228852-9364-4264-8911-ef9778c0a6b7"},"vehicle_type_id":"4","last_reported":1746342530,"current_range_meters":22400,"station_id":"ce4bh012rcd13ifvqd00","pricing_plan_id":"cebpf4jnsgd1na2vs0mg"},{"bike_id":"f233e3ef-1020-444a-8cb6-edee42da14af","system_id":"levelo_inurba_marseille","lat":43.292036,"lon":5.38421,"is_reserved":false,"is_disabled":false,"rental_uris":{"android":"levelo://app?vid=f233e3ef-1020-444a-8cb6-edee42da14af","ios":"levelo://app?vid=f233e3ef-1020-444a-8cb6-edee42da14af"},"vehicle_type_id":"4","last_reported":1746342530,"current_range_meters":22400,"station_id":"","pricing_plan_id":"cebpf4jnsgd1na2vs0mg"},{"bike_id":"d8a9690c-7e5f-4cbe-adfc-64142340a696","system_id":"levelo_inurba_marseille","lat":43.31532,"lon":5.38041,"is_reserved":false,"is_disabled":false,"rental_uris":{"android":"levelo://app?vid=d8a9690c-7e5f-4cbe-adfc-64142340a696","ios":"levelo://app?vid=d8a9690c-7e5f-4cbe-adfc-64142340a696"},"vehicle_type_id":"4","last_reported":1746342530,"current_range_meters":22400,"station_id":"ce4bhsp2rcd13ifvqi50","pricing_plan_id":"cebpf4jnsgd1na2vs0mg"},{"bike_id":"4996d1cb-040a-4084-926c-712bf0d577b6","system_id":"levelo_inurba_marseille","lat":43.30785,"lon":5.37628,"is_reserved":false,"is_disabled":false,"rental_uris":{"android":"levelo://app?vid=4996d1cb-040a-4084-926c-712bf0d577b6","ios":"levelo://app?vid=4996d1cb-040a-4084-926c-712bf0d577b6"},"vehicle_type_id":"4","last_reported":1746342530,"current_range_meters":22400,"station_id":"ce4bgv92rcd13ifvqcq0","pricing_plan_id":"cebpf4jnsgd1na2vs0mg"},{"bike_id":"695aaa0a-ef83-4f24-80b9-c420a3a26664","system_id":"levelo_inurba_marseille","lat":43.24179,"lon":5.39729,"is_reserved":false,"is_disabled":false,"rental_uris":{"android":"levelo://app?vid=695aaa0a-ef83-4f24-80b9-c420a3a26664","ios":"levelo://app?vid=695aaa0a-ef83-4f24-80b9-c420a3a26664"},"vehicle_type_id":"4","last_reported":1746342530,"current_range_meters":22800,"station_id":"ce4bhn12rcd13ifvqgpg","pricing_plan_id":"cebpf4jnsgd1na2vs0mg"},{"bike_id":"b212db87-e197-43f7-9b5a-58b33a4d1cb9","system_id":"levelo_inurba_marseille","lat":43.32024,"lon":5.38168,"is_reserved":false,"is_disabled":true,"rental_uris":{"android":"levelo://app?vid=b212db87-e197-43f7-9b5a-58b33a4d1cb9","ios":"levelo://app?vid=b212db87-e197-43f7-9b5a-58b33a4d1cb9"},"vehicle_type_id":"4","last_reported":1746342530,"current_range_meters":22800,"station_id":"ce4bhr12rcd13ifvqhpg","pricing_plan_id":"cebpf4jnsgd1na2vs0mg"},