{"last_updated":1758788059,"ttl":60,"version":"2.2","data":{"bikes":[{"bike_id":"d3dd4735-79f9-4dc6-82a8-e2f76cdbba74","system_id":"levelo_inurba_marseille","lat":43.31218,"lon":5.36864,"is_reserved":false,"is_disabled":false,"rental_uris":{"android":"levelo://app?vid=d3dd4735-79f9-4dc6-82a8-e2f76cdbba74","ios":"levelo://app?vid=d3dd4735-79f9-4dc6-82a8-e2f76cdbba74"},"vehicle_type_id":"4","last_reported":1758788059,"current_range_meters":2800,"station_id":"ce4bgl92rcd13ifvqbq0","pricing_plan_id":"cebpf4jnsgd1na2vs0mg"},{"bike_id":"fb183e2e-13f0-4e4e-89c5-6de52efd0cbd","system_id":"levelo_inurba_marseille","lat":43.30606,"lon":5.37233,"is_reserved":false,"is_disabled":false,"rental_uris":{"android":"levelo://app?vid=fb183e2e-13f0-4e4e-89c5-6de52efd0cbd","ios":"levelo://app?vid=fb183e2e-13f0-4e4e-89c5-6de52efd0cbd"},"vehicle_type_id":"4","last_reported":1758788059,"current_range_meters":3200,"station_id":"ce4bgqh2rcd13ifvqc4g","pricing_plan_id":"cebpf4jnsgd1na2vs0mg"},{"bike_id":"6bd9fd41-42e6-40eb-80d6-6cb44b9adc78","system_id":"levelo_inurba_marseille","lat":43.31378,"lon":5.36683,"is_reserved":false,"is_disabled":false,"rental_uris":{"android":"levelo://app?vid=6bd9fd41-42e6-40eb-80d6-6cb44b9adc78","ios":"levelo://app?vid=6bd9fd41-42e6-40eb-80d6-6cb44b9adc78"},"vehicle_type_id":"4","last_reported":1758788059,"current_range_meters":3200,"station_id":"ce4bgr92rcd13ifvqc6g","pricing_plan_id":"cebpf4jnsgd1na2vs0mg"},{"bike_id":"de4c7667-b3ce-4824-861d-5a0cd7f29e7a","system_id":"levelo_inurba_marseille","lat":43.29038,"lon":5.39983,"is_reserved":false,"is_disabled":false,"rental_uris":{"android":"levelo://app?vid=de4c7667-b3ce-4824-861d-5a0cd7f29e7a","ios":"levelo://app?vid=de4c7667-b3ce-4824-861d-5a0cd7f29e7a"},"vehicle_type_id":"4","last_reported":1758788059,"current_range_meters":3200,"station_id":"ce4bh392rcd13ifvqdm0","pricing_plan_id":"cebpf4jnsgd1na2vs0mg"},{"bike_id":"c0e09fcd-6eb3-4487-95c6-c6f132f39de3","system_id":"levelo_inurba_marseille","lat":43.22552,"lon":5.34838,"is_reserved":false,"is_disabled":false,"rental_uris":{"android":"levelo://app?vid=c0e09fcd-6eb3-4487-95c6-c6f132f39de3","ios":"levelo://app?vid=c0e09fcd-6eb3-4487-95c6-c6f132f39de3"},"vehicle_type_id":"4","last_reported":1758788059,"current_range_meters":3600,"station_id":"","pricing_plan_id":"cebpf4jnsgd1na2vs0mg"},{"bike_id":"0dd398e4-a979-4e08-8c1c-3b1d78aded74","system_id":"levelo_inurba_marseille","lat":43.28477,"lon":5.3842,"is_reserved":false,"is_disabled":false,"rental_uris":{"android":"levelo://app?vid=0dd398e4-a979-4e08-8c1c-3b1d78aded74","ios":"levelo://app?vid=0dd398e4-a979-4e08-8c1c-3b1d78aded74"},"vehicle_type_id":"4","last_reported":1758788059,"current_range_meters":3600,"station_id":"ce4bh512rcd13ifvqe3g","pricing_plan_id":"cebpf4jnsgd1na2vs0mg"},{"bike_id":"ed651e5f-9231-4895-a7fa-a94da9e407ff","system_id":"levelo_inurba_marseille","lat":43.306003,"lon":5.372482,"is_reserved":false,"is_disabled":false,"rental_uris":{"android":"levelo://app?vid=ed651e5f-9231-4895-a7fa-a94da9e407ff","ios":"levelo://app?vid=ed651e5f-9231-4895-a7fa-a94da9e407ff"},"vehicle_type_id":"4","last_reported":1758788059,"current_range_meters":3600,"station_id":"ce4bgqh2rcd13ifvqc4g","pricing_plan_id":"cebpf4jnsgd1na2vs0mg"},{"bike_id":"0da2e45e-1ee1-4a45-8fb3-f62c109d4a4b","system_id":"levelo_inurba_marseille","lat":43.29003,"lon":5.35609,"is_reserved":false,"is_disabled":false,"rental_uris":{"android":"levelo://app?vid=0da2e45e-1ee1-4a45-8fb3-f62c109d4a4b","ios":"levelo://app?vid=0da2e45e-1ee1-4a45-8fb3-f62c109d4a4b"},"vehicle_type_id":"4","last_reported":1758788059,"current_range_meters":3600,"station_id":"ce4bhb92rcd13ifvqen0","pricing_plan_id":"cebpf4jnsgd1na2vs0mg"},{"bike_id":"e1c0b721-86e2-4f4f-b97d-3fb8290653a3","system_id":"levelo_inurba_marseille","lat":43.27492,"lon":5.42458,"is_reserved":false,"is_disabled":true,"rental_uris":{"android":"levelo://app?vid=e1c0b721-86e2-4f4f-b97d-3fb8290653a3","ios":"levelo://app?vid=e1c0b721-86e2-4f4f-b97d-3fb8290653a3"},"vehicle_type_id":"4","last_reported":1758788059,"current_range_meters":4000,"station_id":"ce4bhn92rcd13ifvqgrg","pricing_plan_id":"cebpf4jnsgd1na2vs0mg"},{"bike_id":"255502d9-3a34-4c47-bd2a-5dc833d943f1","system_id":"levelo_inurba_marseille","lat":43.30546,"lon":5.36483,"is_reserved":false,"is_disabled":false,"rental_uris":{"android":"levelo://app?vid=255502d9-3a34-4c47-bd2a-5dc833d943f1","ios":"levelo://app?vid=255502d9-3a34-4c47-bd2a-5dc833d943f1"},"vehicle_type_id":"4","last_reported":1758788059,"current_range_meters":4000,"station_id":"","pricing_plan_id":"cebpf4jnsgd1na2vs0mg"},{"bike_id":"d587ef81-3343-49f5-bff5-8fdc6bb0357a","system_id":"levelo_inurba_marseille","lat":43.24078,"lon":5.37755,"is_reserved":false,"is_disabled":false,"rental_uris":{"android":"levelo://app?vid=d587ef81-3343-49f5-bff5-8fdc6bb0357a","ios":"levelo://app?vid=d587ef81-3343-49f5-bff5-8fdc6bb0357a"},"vehicle_type_id":"4","last_reported":1758788059,"current_range_meters":4000,"station_id":"ce4bhnp2rcd13ifvqgvg","pricing_plan_id":"cebpf4jnsgd1na2vs0mg"},{"bike_id":"1efddf8d-578f-4e4c-8c3f-e3a8bd592ba4","system_id":"levelo_inurba_marseille","lat":43.29965,"lon":5.37378,"is_reserved":false,"is_disabled":false,"rental_uris":{"android":"levelo://app?vid=1efddf8d-578f-4e4c-8c3f-e3a8bd592ba4","ios":"levelo://app?vid=1efddf8d-578f-4e4c-8c3f-e3a8bd592ba4"},"vehicle_type_id":"4","last_reported":1758788059,"current_range_meters":4400,"station_id":"","pricing_plan_id":"cebpf4jnsgd1na2vs0mg"},{"bike_id":"5138c5a1-9993-4aae-8cff-6dc6b2997feb","system_id":"levelo_inurba_marseille","lat":43.3414,"lon":5.40907,"is_reserved":false,"is_disabled":false,"rental_uris":{"android":"levelo://app?vid=5138c5a1-9993-4aae-8cff-6dc6b2997feb","ios":"levelo://app?vid=5138c5a1-9993-4aae-8cff-6dc6b2997feb"},"vehicle_type_id":"4","last_reported":1758788059,"current_range_meters":4400,"station_id":"ce4bhqh2rcd13ifvqhlg","pricing_plan_id":"cebpf4jnsgd1na2vs0mg"},{"bike_id":"a1298cf3-e570-4cd2-9d7f-46eeff667a76","system_id":"levelo_inurba_marseille","lat":43.24547,"lon":5.39526,"is_reserved":false,"is_disabled":false,"rental_uris":{"android":"levelo://app?vid=a1298cf3-e570-4cd2-9d7f-46eeff667a76","ios":"levelo://app?vid=a1298cf3-e570-4cd2-9d7f-46eeff667a76"},"vehicle_type_id":"4","last_reported":1758788059,"current_range_meters":4400,"station_id":"ce4bhlp2rcd13ifvqgjg","pricing_plan_id":"cebpf4jnsgd1na2vs0mg"},{"bike_id":"1f9ad9f3-5e50-40bb-b573-c00abdefdda5","system_id":"levelo_inurba_marseille","lat":43.24077,"lon":5.37756,"is_reserved":false,"is_disabled":false,"rental_uris":{"android":"levelo://app?vid=1f9ad9f3-5e50-40bb-b573-c00abdefdda5","ios":"levelo://app?vid=1f9ad9f3-5e50-40bb-b573-c00abdefdda5"},"vehicle_type_id":"4","last_reported":1758788059,"current_range_meters":4800,"station_id":"ce4bhnp2rcd13ifvqgvg","pricing_plan_id":"cebpf4jnsgd1na2vs0mg"},{"bike_id":"91c72787-dfa6-4372-b0d4-4b75d0bcf23e","system_id":"levelo_inurba_marseille","lat":43.27072,"lon":5.42279,"is_reserved":false,"is_disabled":false,"rental_uris":{"android":"levelo://app?vid=91c72787-dfa6-4372-b0d4-4b75d0bcf23e","ios":"levelo://app?vid=91c72787-dfa6-4372-b0d4-4b75d0bcf23e"},"vehicle_type_id":"4","last_reported":1758788059,"current_range_meters":4800,"station_id":"ce4bhk92rcd13ifvqgb0","pricing_plan_id":"cebpf4jnsgd1na2vs0mg"},{"bike_id":"9446425e-0a86-42ae-bc3c-f72ad738e590","system_id":"levelo_inurba_marseille","lat":43.33632,"lon":5.363,"is_reserved":false,"is_disabled":false,"rental_uris":{"android":"levelo://app?vid=9446425e-0a86-42ae-bc3c-f72ad738e590","ios":"levelo://app?vid=9446425e-0a86-42ae-bc3c-f72ad738e590"},"vehicle_type_id":"4","last_reported":1758788059,"current_range_meters":5600,"station_id":"","pricing_plan_id":"cebpf4jnsgd1na2vs0mg"},{"bike_id":"939538dc-20bd-4d94-8a10-8e1e0a179bc7","system_id":"levelo_inurba_marseille","lat":43.30751,"lon":5.36816,"is_reserved":false,"is_disabled":false,"rental_uris":{"android":"levelo://app?vid=939538dc-20bd-4d94-8a10-8e1e0a179bc7","ios":"levelo://app?vid=939538dc-20bd-4d94-8a10-8e1e0a179bc7"},"vehicle_type_id":"4","last_reported":1758788059,"current_range_meters":5600,"station_id":"","pricing_plan_id":"cebpf4jnsgd1na2vs0mg"},{"bike_id":"cce669df-74e8-46ad-a34c-fd1c49b7f56d","system_id":"levelo_inurba_marseille","lat":43.25868,"lon":5.39897,"is_reserved":false,"is_disabled":false,"rental_uris":{"android":"levelo://app?vid=cce669df-74e8-46ad-a34c-fd1c49b7f56d","ios":"levelo://app?vid=cce669df-74e8-46ad-a34c-fd1c49b7f56d"},"vehicle_type_id":"4","last_reported":1758788059,"current_range_meters":5600,"station_id":"ce4bhl92rcd13ifvqghg","pricing_plan_id":"cebpf4jnsgd1na2vs0mg"},{"bike_id":"e804e8c8-5889-461f-9ee8-4ad1711c5f41","system_id":"levelo_inurba_marseille","lat":43.29604,"lon":5.37699,"is_reserved":false,"is_disabled":false,"rental_uris":{"android":"levelo://app?vid=e804e8c8-5889-461f-9ee8-4ad1711c5f41","ios":"levelo://app?vid=e804e8c8-5889-461f-9ee8-4ad1711c5f41"},"vehicle_type_id":"4","last_reported":1758788059,"current_range_meters":6000,"station_id":"ce4bgi92rcd13ifvqb90","pricing_plan_id":"cebpf4jnsgd1na2vs0mg"},{"bike_id":"9765fd3b-7472-4f3c-b5ea-2cb20800a3a9","system_id":"levelo_inurba_marseille","lat":43.24627,"lon":5.39594,"is_reserved":false,"is_disabled":false,"rental_uris":{"android":"levelo://app?vid=9765fd3b-7472-4f3c-b5ea-2cb20800a3a9","ios":"levelo://app?vid=9765fd3b-7472-4f3c-b5ea-2cb20800a3a9"},"vehicle_type_id":"4","last_reported":1758788059,"current_range_meters":6000,"station_id":"","pricing_plan_id":"cebpf4jnsgd1na2vs0mg"},{"bike_id":"7c0482c3-9253-4d1b-b4f3-be55cdb7721d","system_id":"levelo_inurba_marseille","lat":43.33757,"lon":5.37466,"is_reserved":false,"is_disabled":false,"rental_uris":{"android":"levelo://app?vid=7c0482c3-9253-4d1b-b4f3-be55cdb7721d","ios":"levelo://app?vid=7c0482c3-9253-4d1b-b4f3-be55cdb7721d"},"vehicle_type_id":"4","last_reported":1758788059,"current_range_meters":6400,"station_id":"","pricing_plan_id":"cebpf4jnsgd1na2vs0mg"},{"bike_id":"6d796058-0910-4a0f-8c5b-e898ba9820bf","system_id":"levelo_inurba_marseille","lat":43.31224,"lon":5.36852,"is_reserved":false,"is_disabled":true,"rental_uris":{"android":"levelo://app?vid=6d796058-0910-4a0f-8c5b-e898ba9820bf","ios":"levelo://app?vid=6d796058-0910-4a0f-8c5b-e898ba9820bf"},"vehicle_type_id":"4","last_reported":1758788059,"current_range_meters":6400,"station_id":"ce4bgl92rcd13ifvqbq0","pricing_plan_id":"cebpf4jnsgd1na2vs0mg"},{"bike_id":"43d57fd4-047e-4ac8-97e5-ec9b96239472","system_id":"levelo_inurba_marseille","lat":43.33231,"lon":5.39821,"is_reserved":false,"is_disabled":false,"rental_uris":{"android":"levelo://app?vid=43d57fd4-047e-4ac8-97e5-ec9b96239472","ios":"levelo://app?vid=43d57fd4-047e-4ac8-97e5-ec9b96239472"},"vehicle_type_id":"4","last_reported":1758788059,"current_range_meters":6400,"station_id":"","pricing_plan_id":"cebpf4jnsgd1na2vs0mg"},{"bike_id":"cd208cc0-7e5a-4767-82cc-82639b842843","system_id":"levelo_inurba_marseille","lat":43.3246,"lon":5.36562,"is_reserved":false,"is_disabled":false,"rental_uris":{"android":"levelo://app?vid=cd208cc0-7e5a-4767-82cc-82639b842843","ios":"levelo://app?vid=cd208cc0-7e5a-4767-82cc-82639b842843"},"vehicle_type_id":"4","last_reported":1758788059,"current_range_meters":6400,"station_id":"ce4bhs12rcd13ifvqhvg","pricing_plan_id":"cebpf4jnsgd1na2vs0mg"},{"bike_id":"bbbfc48f-4d4e-4249-9e19-755a7a382c58","system_id":"levelo_inurba_marseille","lat":43.24647,"lon":5.38894,"is_reserved":false,"is_disabled":false,"rental_uris":{"android":"levelo://app?vid=bbbfc48f-4d4e-4249-9e19-755a7a382c58","ios":"levelo://app?vid=bbbfc48f-4d4e-4249-9e19-755a7a382c58"},"vehicle_type_id":"4","last_reported":1758788059,"current_range_meters":6800,"station_id":"ce4bhg12rcd13ifvqf60","pricing_plan_id":"cebpf4jnsgd1na2vs0mg"},{"bike_id":"5f7a5080-e77c-4892-a096-c578510b27d0","system_id":"levelo_inurba_marseille","lat":43.279391,"lon":5.41043,"is_reserved":false,"is_disabled":true,"rental_uris":{"android":"levelo://app?vid=5f7a5080-e77c-4892-a096-c578510b27d0","ios":"levelo://app?vid=5f7a5080-e77c-4892-a096-c578510b27d0"},"vehicle_type_id":"4","last_reported":1758788059,"current_range_meters":6800,"station_id":"ce4bhnp2rcd13ifvqh0g","pricing_plan_id":"cebpf4jnsgd1na2vs0mg"},{"bike_id":"200c6b1b-a08c-43a1-ba8e-842d6d1264b2","system_id":"levelo_inurba_marseille","lat":43.25106,"lon":5.40339,"is_reserved":false,"is_disabled":false,"rental_uris":{"android":"levelo://app?vid=200c6b1b-a08c-43a1-ba8e-842d6d1264b2","ios":"levelo://app?vid=200c6b1b-a08c-43a1-ba8e-842d6d1264b2"},"vehicle_type_id":"4","last_reported":1758788059,"current_range_meters":7200,"station_id":"ce4bhlh2rcd13ifvqgig","pricing_plan_id":"cebpf4jnsgd1na2vs0mg"},{"bike_id":"d13384b9-3651-4661-a3ad-2f970ab0ce73","system_id":"levelo_inurba_marseille","lat":43.24948,"lon":5.4049,"is_reserved":false,"is_disabled":false,"rental_uris":{"android":"levelo://app?vid=d13384b9-3651-4661-a3ad-2f970ab0ce73","ios":"levelo://app?vid=d13384b9-3651-4661-a3ad-2f970ab0ce73"},"vehicle_type_id":"4","last_reported":1758788059,"current_range_meters":7200,"station_id":"st_d2ngiaodas8pm72gd1h0","pricing_plan_id":"cebpf4jnsgd1na2vs0mg"},{"bike_id":"9c4a7bdb-c552-4dfd-8efb-40b9e0b0b147","system_id":"levelo_inurba_marseille","lat":43.3092,"lon":5.36726,"is_reserved":false,"is_disabled":false,"rental_uris":{"android":"levelo://app?vid=9c4a7bdb-c552-4dfd-8efb-40b9e0b0b147","ios":"levelo://app?vid=9c4a7bdb-c552-4dfd-8efb-40b9e0b0b147"},"vehicle_type_id":"4","last_reported":1758788059,"current_range_meters":7200,"station_id":"","pricing_plan_id":"cebpf4jnsgd1na2vs0mg"},{"bike_id":"1846e412-a89b-48c3-8a86-f911e8ea2c2e","system_id":"levelo_inurba_marseille","lat":43.21195,"lon":5.35076,"is_reserved":false,"is_disabled":false,"rental_uris":{"android":"levelo://app?vid=1846e412-a89b-48c3-8a86-f911e8ea2c2e","ios":"levelo://app?vid=1846e412-a89b-48c3-8a86-f911e8ea2c2e"},"vehicle_type_id":"4","last_reported":1758788059,"current_range_meters":7200,"station_id":"st_cvj6sg6p6f1abm77japg","pricing_plan_id":"cebpf4jnsgd1na2vs0mg"},{"bike_id":"14ef2985-0eba-4c10-ac0f-92e88e45df9b","system_id":"levelo_inurba_marseille","lat":43.30306,"lon":5.36879,"is_reserved":false,"is_disabled":false,"rental_uris":{"android":"levelo://app?vid=14ef2985-0eba-4c10-ac0f-92e88e45df9b","ios":"levelo://app?vid=14ef2985-0eba-4c10-ac0f-92e88e45df9b"},"vehicle_type_id":"4","last_reported":1758788059,"current_range_meters":7200,"station_id":"ce4bgqh2rcd13ifvqc5g","pricing_plan_id":"cebpf4jnsgd1na2vs0mg"},{"bike_id":"cb3d83dd-8277-415b-bc5d-a118e1200728","system_id":"levelo_inurba_marseille","lat":43.30079,"lon":5.4105,"is_reserved":false,"is_disabled":false,"rental_uris":{"android":"levelo://app?vid=cb3d83dd-8277-415b-bc5d-a118e1200728","ios":"levelo://app?vid=cb3d83dd-8277-415b-bc5d-a118e1200728"},"vehicle_type_id":"4","last_reported":1758788059,"current_range_meters":7200,"station_id":"","pricing_plan_id":"cebpf4jnsgd1na2vs0mg"},{"bike_id":"72fe9817-9bf1-49c4-931e-b636c3ac70af","system_id":"levelo_inurba_marseille","lat":43.32656,"lon":5.40987,"is_reserved":false,"is_disabled":false,"rental_uris":{"android":"levelo://app?vid=72fe9817-9bf1-49c4-931e-b636c3ac70af","ios":"levelo://app?vid=72fe9817-9bf1-49c4-931e-b636c3ac70af"},"vehicle_type_id":"4","last_reported":1758788059,"current_range_meters":7200,"station_id":"ce4bhpp2rcd13ifvqhgg","pricing_plan_id":"cebpf4jnsgd1na2vs0mg"},{"bike_id":"3c327943-29c5-446c-9dbf-088ed0163424","system_id":"levelo_inurba_marseille","lat":43.25337,"lon":5.42178,"is_reserved":false,"is_disabled":true,"rental_uris":{"android":"levelo://app?vid=3c327943-29c5-446c-9dbf-088ed0163424","ios":"levelo://app?vid=3c327943-29c5-446c-9dbf-088ed0163424"},"vehicle_type_id":"4","last_reported":1758788059,"current_range_meters":7200,"station_id":"st_d2m65c5bi1j21697t3ng","pricing_plan_id":"cebpf4jnsgd1na2vs0mg"},{"bike_id":"2a9da3e7-d2dc-440b-a156-69703f48e162","system_id":"levelo_inurba_marseille","lat":43.24663,"lon":5.38165,"is_reserved":false,"is_disabled":false,"rental_uris":{"android":"levelo://app?vid=2a9da3e7-d2dc-440b-a156-69703f48e162","ios":"levelo://app?vid=2a9da3e7-d2dc-440b-a156-69703f48e162"},"vehicle_type_id":"4","last_reported":1758788059,"current_range_meters":8000,"station_id":"ce4bhih2rcd13ifvqfr0","pricing_plan_id":"cebpf4jnsgd1na2vs0mg"},{"bike_id":"92ab4001-8fe5-46bb-ba3c-d6aa65fcb54b","system_id":"levelo_inurba_marseille","lat":43.30462,"lon":5.37903,"is_reserved":false,"is_disabled":false,"rental_uris":{"android":"levelo://app?vid=92ab4001-8fe5-46bb-ba3c-d6aa65fcb54b","ios":"levelo://app?vid=92ab4001-8fe5-46bb-ba3c-d6aa65fcb54b"},"vehicle_type_id":"4","last_reported":1758788059,"current_range_meters":8000,"station_id":"ce4bgup2rcd13ifvqcn0","pricing_plan_id":"cebpf4jnsgd1na2vs0mg"},{"bike_id":"f66c9aa9-76b5-4460-adfb-079f7f3b8fc5","system_id":"levelo_inurba_marseille","lat":43.292642,"lon":5.376361,"is_reserved":false,"is_disabled":false,"rental_uris":{"android":"levelo://app?vid=f66c9aa9-76b5-4460-adfb-079f7f3b8fc5","ios":"levelo://app?vid=f66c9aa9-76b5-4460-adfb-079f7f3b8fc5"},"vehicle_type_id":"4","last_reported":1758788059,"current_range_meters":8000,"station_id":"ce4bgi12rcd13ifvqb80","pricing_plan_id":"cebpf4jnsgd1na2vs0mg"},{"bike_id":"136a707a-b224-4c44-8119-f846f7b7d0a7","system_id":"levelo_inurba_marseille","lat":43.29516,"lon":5.37375,"is_reserved":false,"is_disabled":false,"rental_uris":{"android":"levelo://app?vid=136a707a-b224-4c44-8119-f846f7b7d0a7","ios":"levelo://app?vid=136a707a-b224-4c44-8119-f846f7b7d0a7"},"vehicle_type_id":"4","last_reported":1758788059,"current_range_meters":8400,"station_id":"","pricing_plan_id":"cebpf4jnsgd1na2vs0mg"},{"bike_id":"9b41e809-a39d-4a8f-a8fa-beddb4a223d3","system_id":"levelo_inurba_marseille","lat":43.31205,"lon":5.36899,"is_reserved":false,"is_disabled":false,"rental_uris":{"android":"levelo://app?vid=9b41e809-a39d-4a8f-a8fa-beddb4a223d3","ios":"levelo://app?vid=9b41e809-a39d-4a8f-a8fa-beddb4a223d3"},"vehicle_type_id":"4","last_reported":1758788059,"current_range_meters":8400,"station_id":"ce4bgl92rcd13ifvqbq0","pricing_plan_id":"cebpf4jnsgd1na2vs0mg"},{"bike_id":"83575d7a-6888-44a9-ab81-8c5f66ecd899","system_id":"levelo_inurba_marseille","lat":43.2952,"lon":5.39048,"is_reserved":false,"is_disabled":false,"rental_uris":{"android":"levelo://app?vid=83575d7a-6888-44a9-ab81-8c5f66ecd899","ios":"levelo://app?vid=83575d7a-6888-44a9-ab81-8c5f66ecd899"},"vehicle_type_id":"4","last_reported":1758788059,"current_range_meters":8400,"station_id":"ce4bh3p2rcd13ifvqdp0","pricing_plan_id":"cebpf4jnsgd1na2vs0mg"},{"bike_id":"4793670f-254e-4b04-b5c6-8e2d8c50bf41","system_id":"levelo_inurba_marseille","lat":43.25011,"lon":5.38925,"is_reserved":false,"is_disabled":false,"rental_uris":{"android":"levelo://app?vid=4793670f-254e-4b04-b5c6-8e2d8c50bf41","ios":"levelo://app?vid=4793670f-254e-4b04-b5c6-8e2d8c50bf41"},"vehicle_type_id":"4","last_reported":1758788059,"current_range_meters":8400,"station_id":"ce4bhgp2rcd13ifvqfd0","pricing_plan_id":"cebpf4jnsgd1na2vs0mg"},{"bike_id":"154e1601-119f-40e6-9b6a-a3b636e4c77c","system_id":"levelo_inurba_marseille","lat":43.30547,"lon":5.36556,"is_reserved":false,"is_disabled":false,"rental_uris":{"android":"levelo://app?vid=154e1601-119f-40e6-9b6a-a3b636e4c77c","ios":"levelo://app?vid=154e1601-119f-40e6-9b6a-a3b636e4c77c"},"vehicle_type_id":"4","last_reported":1758788059,"current_range_meters":8800,"station_id":"ce4bgs12rcd13ifvqcag","pricing_plan_id":"cebpf4jnsgd1na2vs0mg"},{"bike_id":"fb507459-5afd-4daf-b130-b4d64eac6859","system_id":"levelo_inurba_marseille","lat":43.316313,"lon":5.435679,"is_reserved":false,"is_disabled":false,"rental_uris":{"android":"levelo://app?vid=fb507459-5afd-4daf-b130-b4d64eac6859","ios":"levelo://app?vid=fb507459-5afd-4daf-b130-b4d64eac6859"},"vehicle_type_id":"4","last_reported":1758788059,"current_range_meters":8800,"station_id":"ce4bhp92rcd13ifvqhcg","pricing_plan_id":"cebpf4jnsgd1na2vs0mg"},{"bike_id":"4e737411-53ce-4bdf-9802-c3bc30d9bc94","system_id":"levelo_inurba_marseille","lat":43.29542,"lon":5.40661,"is_reserved":false,"is_disabled":false,"rental_uris":{"android":"levelo://app?vid=4e737411-53ce-4bdf-9802-c3bc30d9bc94","ios":"levelo://app?vid=4e737411-53ce-4bdf-9802-c3bc30d9bc94"},"vehicle_type_id":"4","last_reported":1758788059,"current_range_meters":8800,"station_id":"","pricing_plan_id":"cebpf4jnsgd1na2vs0mg"},{"bike_id":"35b29339-dba8-4e1a-a84b-b2cb4cbeab88","system_id":"levelo_inurba_marseille","lat":43.31054,"lon":5.40102,"is_reserved":false,"is_disabled":false,"rental_uris":{"android":"levelo://app?vid=35b29339-dba8-4e1a-a84b-b2cb4cbeab88","ios":"levelo://app?vid=35b29339-dba8-4e1a-a84b-b2cb4cbeab88"},"vehicle_type_id":"4","last_reported":1758788059,"current_range_meters":8800,"station_id":"","pricing_plan_id":"cebpf4jnsgd1na2vs0mg"},{"bike_id":"f0c0b072-0eb7-400e-8c28-12f077d5829f","system_id":"levelo_inurba_marseille","lat":43.30599,"lon":5.37232,"is_reserved":false,"is_disabled":false,"rental_uris":{"android":"levelo://app?vid=f0c0b072-0eb7-400e-8c28-12f077d5829f","ios":"levelo://app?vid=f0c0b072-0eb7-400e-8c28-12f077d5829f"},"vehicle_type_id":"4","last_reported":1758788059,"current_range_meters":8800,"station_id":"ce4bgqh2rcd13ifvqc4g","pricing_plan_id":"cebpf4jnsgd1na2vs0mg"},{"bike_id":"a7a8fda1-fb28-4ce7-b8c1-94f454135a15","system_id":"levelo_inurba_marseille","lat":43.23963,"lon":5.36617,"is_reserved":false,"is_disabled":false,"rental_uris":{"android":"levelo://app?vid=a7a8fda1-fb28-4ce7-b8c1-94f454135a15","ios":"levelo://app?vid=a7a8fda1-fb28-4ce7-b8c1-94f454135a15"},"vehicle_type_id":"4","last_reported":1758788059,"current_range_meters":8800,"station_id":"ce4bhi12rcd13ifvqfp0","pricing_plan_id":"cebpf4jnsgd1na2vs0mg"},{"bike_id":"c2af318a-7d44-4fd1-b6d5-bb0761cb7551","system_id":"levelo_inurba_marseille","lat":43.24624,"lon":5.43151,"is_reserved":false,"is_disabled":false,"rental_uris":{"android":"levelo://app?vid=c2af318a-7d44-4fd1-b6d5-bb0761cb7551","ios":"levelo://app?vid=c2af318a-7d44-4fd1-b6d5-bb0761cb7551"},"vehicle_type_id":"4","last_reported":1758788059,"current_range_meters":9200,"station_id":"st_d2m6c4gdas8pm72e190g","pricing_plan_id":"cebpf4jnsgd1na2vs0mg"},{"bike_id":"595573fc-e79a-41eb-8127-3c8f7b96d8f1","system_id":"levelo_inurba_marseille","lat":43.26558,"lon":5.37286,"is_reserved":false,"is_disabled":false,"rental_uris":{"android":"levelo://app?vid=595573fc-e79a-41eb-8127-3c8f7b96d8f1","ios":"levelo://app?vid=595573fc-e79a-41eb-8127-3c8f7b96d8f1"},"vehicle_type_id":"4","last_reported":1758788059,"current_range_meters":9200,"station_id":"ce4bhg12rcd13ifvqf70","pricing_plan_id":"cebpf4jnsgd1na2vs0mg"},{"bike_id":"c34cd464-5d4b-462e-a363-5b3baac95668","system_id":"levelo_inurba_marseille","lat":43.33785,"lon":5.37462,"is_reserved":false,"is_disabled":false,"rental_uris":{"android":"levelo://app?vid=c34cd464-5d4b-462e-a363-5b3baac95668","ios":"levelo://app?vid=c34cd464-5d4b-462e-a363-5b3baac95668"},"vehicle_type_id":"4","last_reported":1758788059,"current_range_meters":9200,"station_id":"","pricing_plan_id":"cebpf4jnsgd1na2vs0mg"},{"bike_id":"33b43353-5ded-41a5-81da-c23998a2e4d6","system_id":"levelo_inurba_marseille","lat":43.26681,"lon":5.3827,"is_reserved":false,"is_disabled":false,"rental_uris":{"android":"levelo://app?vid=33b43353-5ded-41a5-81da-c23998a2e4d6","ios":"levelo://app?vid=33b43353-5ded-41a5-81da-c23998a2e4d6"},"vehicle_type_id":"4","last_reported":1758788059,"current_range_meters":9200,"station_id":"ce4bhg92rcd13ifvqf90","pricing_plan_id":"cebpf4jnsgd1na2vs0mg"},{"bike_id":"47c4f3ab-ac15-4b3d-a5f9-5573a07d0401","system_id":"levelo_inurba_marseille","lat":43.22562,"lon":5.41624,"is_reserved":false,"is_disabled":false,"rental_uris":{"android":"levelo://app?vid=47c4f3ab-ac15-4b3d-a5f9-5573a07d0401","ios":"levelo://app?vid=47c4f3ab-ac15-4b3d-a5f9-5573a07d0401"},"vehicle_type_id":"4","last_reported":1758788059,"current_range_meters":9200,"station_id":"st_d2o4gvlbi1j2169b742g","pricing_plan_id":"cebpf4jnsgd1na2vs0mg"},{"bike_id":"2a748234-9779-422d-8d2c-13d02c51989c","system_id":"levelo_inurba_marseille","lat":43.24386,"lon":5.37053,"is_reserved":false,"is_disabled":false,"rental_uris":{"android":"levelo://app?vid=2a748234-9779-422d-8d2c-13d02c51989c","ios":"levelo://app?vid=2a748234-9779-422d-8d2c-13d02c51989c"},"vehicle_type_id":"4","last_reported":1758788059,"current_range_meters":9200,"station_id":"ce4bhhh2rcd13ifvqfk0","pricing_plan_id":"cebpf4jnsgd1na2vs0mg"},{"bike_id":"5a9b45ec-a215-4f5e-a90c-94a89d013488","system_id":"levelo_inurba_marseille","lat":43.30548,"lon":5.36712,"is_reserved":false,"is_disabled":false,"rental_uris":{"android":"levelo://app?vid=5a9b45ec-a215-4f5e-a90c-94a89d013488","ios":"levelo://app?vid=5a9b45ec-a215-4f5e-a90c-94a89d013488"},"vehicle_type_id":"4","last_reported":1758788059,"current_range_meters":8800,"station_id":"ce4bgrp2rcd13ifvqc9g","pricing_plan_id":"cebpf4jnsgd1na2vs0mg"},{"bike_id":"28d4a21e-ffb6-4b82-b7cf-186e5f61b989","system_id":"levelo_inurba_marseille","lat":43.28623,"lon":5.35103,"is_reserved":false,"is_disabled":false,"rental_uris":{"android":"levelo://app?vid=28d4a21e-ffb6-4b82-b7cf-186e5f61b989","ios":"levelo://app?vid=28d4a21e-ffb6-4b82-b7cf-186e5f61b989"},"vehicle_type_id":"4","last_reported":1758788059,"current_range_meters":9200,"station_id":"ce4bhch2rcd13ifvqeug","pricing_plan_id":"cebpf4jnsgd1na2vs0mg"},{"bike_id":"438ead59-de14-4fa0-a61d-03a70a4122ae","system_id":"levelo_inurba_marseille","lat":43.97269,"lon":4.89111,"is_reserved":false,"is_disabled":true,"rental_uris":{"android":"levelo://app?vid=438ead59-de14-4fa0-a61d-03a70a4122ae","ios":"levelo://app?vid=438ead59-de14-4fa0-a61d-03a70a4122ae"},"vehicle_type_id":"4","last_reported":1758788059,"current_range_meters":9200,"station_id":"","pricing_plan_id":"cebpf4jnsgd1na2vs0mg"},{"bike_id":"d3347a0b-09f5-41c5-af67-b54e534dd49e","system_id":"levelo_inurba_marseille","lat":43.30903,"lon":5.36853,"is_reserved":false,"is_disabled":false,"rental_uris":{"android":"levelo://app?vid=d3347a0b-09f5-41c5-af67-b54e534dd49e","ios":"levelo://app?vid=d3347a0b-09f5-41c5-af67-b54e534dd49e"},"vehicle_type_id":"4","last_reported":1758788059,"current_range_meters":9200,"station_id":"ce4bgn92rcd13ifvqbvg","pricing_plan_id":"cebpf4jnsgd1na2vs0mg"},{"bike_id":"7981bd57-1a91-436b-8601-50130d20e8be","system_id":"levelo_inurba_marseille","lat":43.21188,"lon":5.35084,"is_reserved":false,"is_disabled":false,"rental_uris":{"android":"levelo://app?vid=7981bd57-1a91-436b-8601-50130d20e8be","ios":"levelo://app?vid=7981bd57-1a91-436b-8601-50130d20e8be"},"vehicle_type_id":"4","last_reported":1758788059,"current_range_meters":9600,"station_id":"st_cvj6sg6p6f1abm77japg","pricing_plan_id":"cebpf4jnsgd1na2vs0mg"},{"bike_id":"a3a2dfca-18d7-474a-86b5-14ae9260d55e","system_id":"levelo_inurba_marseille","lat":43.24184,"lon":5.39728,"is_reserved":false,"is_disabled":false,"rental_uris":{"android":"levelo://app?vid=a3a2dfca-18d7-474a-86b5-14ae9260d55e","ios":"levelo://app?vid=a3a2dfca-18d7-474a-86b5-14ae9260d55e"},"vehicle_type_id":"4","last_reported":1758788059,"current_range_meters":9600,"station_id":"ce4bhn12rcd13ifvqgpg","pricing_plan_id":"cebpf4jnsgd1na2vs0mg"},{"bike_id":"b5097eea-9912-4be2-9cf9-14c224c5fab6","system_id":"levelo_inurba_marseille","lat":43.23203,"lon":5.3554,"is_reserved":false,"is_disabled":false,"rental_uris":{"android":"levelo://app?vid=b5097eea-9912-4be2-9cf9-14c224c5fab6","ios":"levelo://app?vid=b5097eea-9912-4be2-9cf9-14c224c5fab6"},"vehicle_type_id":"4","last_reported":1758788059,"current_range_meters":9600,"station_id":"ce4bhu92rcd13ifvqi70","pricing_plan_id":"cebpf4jnsgd1na2vs0mg"},{"bike_id":"06c10839-75c7-457b-804b-f341157fb4f3","system_id":"levelo_inurba_marseille","lat":43.25053,"lon":5.40478,"is_reserved":false,"is_disabled":false,"rental_uris":{"android":"levelo://app?vid=06c10839-75c7-457b-804b-f341157fb4f3","ios":"levelo://app?vid=06c10839-75c7-457b-804b-f341157fb4f3"},"vehicle_type_id":"4","last_reported":1758788059,"current_range_meters":9600,"station_id":"","pricing_plan_id":"cebpf4jnsgd1na2vs0mg"},{"bike_id":"77daa39a-6d92-4fe8-8266-f8eceab04af2","system_id":"levelo_inurba_marseille","lat":43.29854,"lon":5.36285,"is_reserved":false,"is_disabled":false,"rental_uris":{"android":"levelo://app?vid=77daa39a-6d92-4fe8-8266-f8eceab04af2","ios":"levelo://app?vid=77daa39a-6d92-4fe8-8266-f8eceab04af2"},"vehicle_type_id":"4","last_reported":1758788059,"current_range_meters":9600,"station_id":"ce4bgpp2rcd13ifvqc3g","pricing_plan_id":"cebpf4jnsgd1na2vs0mg"},{"bike_id":"dfc6616d-fac8-446b-b270-4ca8177f4872","system_id":"levelo_inurba_marseille","lat":43.24058,"lon":5.37752,"is_reserved":false,"is_disabled":false,"rental_uris":{"android":"levelo://app?vid=dfc6616d-fac8-446b-b270-4ca8177f4872","ios":"levelo://app?vid=dfc6616d-fac8-446b-b270-4ca8177f4872"},"vehicle_type_id":"4","last_reported":1758788059,"current_range_meters":10000,"station_id":"ce4bhnp2rcd13ifvqgvg","pricing_plan_id":"cebpf4jnsgd1na2vs0mg"},{"bike_id":"ae4d123c-65ee-4c52-8933-f4b14d3f9582","system_id":"levelo_inurba_marseille","lat":43.22562,"lon":5.41636,"is_reserved":false,"is_disabled":false,"rental_uris":{"android":"levelo://app?vid=ae4d123c-65ee-4c52-8933-f4b14d3f9582","ios":"levelo://app?vid=ae4d123c-65ee-4c52-8933-f4b14d3f9582"},"vehicle_type_id":"4","last_reported":1758788059,"current_range_meters":10000,"station_id":"st_d2o4gvlbi1j2169b742g","pricing_plan_id":"cebpf4jnsgd1na2vs0mg"},{"bike_id":"2c22d2c6-fa85-4126-acfc-97cf7a3ffa54","system_id":"levelo_inurba_marseille","lat":43.30876,"lon":5.37194,"is_reserved":false,"is_disabled":false,"rental_uris":{"android":"levelo://app?vid=2c22d2c6-fa85-4126-acfc-97cf7a3ffa54","ios":"levelo://app?vid=2c22d2c6-fa85-4126-acfc-97cf7a3ffa54"},"vehicle_type_id":"4","last_reported":1758788059,"current_range_meters":10000,"station_id":"ce4bguh2rcd13ifvqckg","pricing_plan_id":"cebpf4jnsgd1na2vs0mg"},{"bike_id":"8569e255-99fa-4abe-a545-131fc8927c0c","system_id":"levelo_inurba_marseille","lat":43.26658,"lon":5.38275,"is_reserved":false,"is_disabled":false,"rental_uris":{"android":"levelo://app?vid=8569e255-99fa-4abe-a545-131fc8927c0c","ios":"levelo://app?vid=8569e255-99fa-4abe-a545-131fc8927c0c"},"vehicle_type_id":"4","last_reported":1758788059,"current_range_meters":10000,"station_id":"ce4bhg92rcd13ifvqf90","pricing_plan_id":"cebpf4jnsgd1na2vs0mg"},{"bike_id":"64a51df3-c7f5-40cd-a462-9ac7984094b8","system_id":"levelo_inurba_marseille","lat":43.31078,"lon":5.38355,"is_reserved":false,"is_disabled":false,"rental_uris":{"android":"levelo://app?vid=64a51df3-c7f5-40cd-a462-9ac7984094b8","ios":"levelo://app?vid=64a51df3-c7f5-40cd-a462-9ac7984094b8"},"vehicle_type_id":"4","last_reported":1758788059,"current_range_meters":10000,"station_id":"ce4bgv92rcd13ifvqcr0","pricing_plan_id":"cebpf4jnsgd1na2vs0mg"},{"bike_id":"a851cae0-b395-441e-9dd1-21300baf3396","system_id":"levelo_inurba_marseille","lat":43.3152,"lon":5.38678,"is_reserved":false,"is_disabled":false,"rental_uris":{"android":"levelo://app?vid=a851cae0-b395-441e-9dd1-21300baf3396","ios":"levelo://app?vid=a851cae0-b395-441e-9dd1-21300baf3396"},"vehicle_type_id":"4","last_reported":1758788059,"current_range_meters":10000,"station_id":"","pricing_plan_id":"cebpf4jnsgd1na2vs0mg"},{"bike_id":"d2be082e-bd73-4203-addb-18871b3a9587","system_id":"levelo_inurba_marseille","lat":43.29402,"lon":5.37496,"is_reserved":false,"is_disabled":false,"rental_uris":{"android":"levelo://app?vid=d2be082e-bd73-4203-addb-18871b3a9587","ios":"levelo://app?vid=d2be082e-bd73-4203-addb-18871b3a9587"},"vehicle_type_id":"4","last_reported":1758788059,"current_range_meters":10000,"station_id":"","pricing_plan_id":"cebpf4jnsgd1na2vs0mg"},{"bike_id":"fca2cd76-1e31-47dc-b6ce-18776c40295a","system_id":"levelo_inurba_marseille","lat":43.27369,"lon":5.36265,"is_reserved":false,"is_disabled":true,"rental_uris":{"android":"levelo://app?vid=fca2cd76-1e31-47dc-b6ce-18776c40295a","ios":"levelo://app?vid=fca2cd76-1e31-47dc-b6ce-18776c40295a"},"vehicle_type_id":"4","last_reported":1758788059,"current_range_meters":10000,"station_id":"ce4bhbh2rcd13ifvqeo0","pricing_plan_id":"cebpf4jnsgd1na2vs0mg"},{"bike_id":"5fbe240b-53fb-428d-978a-e46e6a2551ae","system_id":"levelo_inurba_marseille","lat":43.25583,"lon":5.38234,"is_reserved":false,"is_disabled":false,"rental_uris":{"android":"levelo://app?vid=5fbe240b-53fb-428d-978a-e46e6a2551ae","ios":"levelo://app?vid=5fbe240b-53fb-428d-978a-e46e6a2551ae"},"vehicle_type_id":"4","last_reported":1758788059,"current_range_meters":10000,"station_id":"ce4bhih2rcd13ifvqfs0","pricing_plan_id":"cebpf4jnsgd1na2vs0mg"},{"bike_id":"450844ba-2fc2-47be-9959-8fee61f07fb6","system_id":"levelo_inurba_marseille","lat":43.31741,"lon":5.39024,"is_reserved":false,"is_disabled":false,"rental_uris":{"android":"levelo://app?vid=450844ba-2fc2-47be-9959-8fee61f07fb6","ios":"levelo://app?vid=450844ba-2fc2-47be-9959-8fee61f07fb6"},"vehicle_type_id":"4","last_reported":1758788059,"current_range_meters":10800,"station_id":"ce4bhqp2rcd13ifvqhng","pricing_plan_id":"cebpf4jnsgd1na2vs0mg"},{"bike_id":"b3e95158-1f24-4a27-a73a-d79e0a465478","system_id":"levelo_inurba_marseille","lat":43.28267,"lon":5.35068,"is_reserved":false,"is_disabled":false,"rental_uris":{"android":"levelo://app?vid=b3e95158-1f24-4a27-a73a-d79e0a465478","ios":"levelo://app?vid=b3e95158-1f24-4a27-a73a-d79e0a465478"},"vehicle_type_id":"4","last_reported":1758788059,"current_range_meters":10800,"station_id":"ce4bhbp2rcd13ifvqerg","pricing_plan_id":"cebpf4jnsgd1na2vs0mg"},{"bike_id":"bf1244d3-d7e7-45bd-8580-d0cbc34b36e3","system_id":"levelo_inurba_marseille","lat":43.22563,"lon":5.41629,"is_reserved":false,"is_disabled":false,"rental_uris":{"android":"levelo://app?vid=bf1244d3-d7e7-45bd-8580-d0cbc34b36e3","ios":"levelo://app?vid=bf1244d3-d7e7-45bd-8580-d0cbc34b36e3"},"vehicle_type_id":"4","last_reported":1758788059,"current_range_meters":10800,"station_id":"st_d2o4gvlbi1j2169b742g","pricing_plan_id":"cebpf4jnsgd1na2vs0mg"},{"bike_id":"a202f7d5-58f8-47eb-8e21-896c902d050a","system_id":"levelo_inurba_marseille","lat":43.26569,"lon":5.39031,"is_reserved":false,"is_disabled":false,"rental_uris":{"android":"levelo://app?vid=a202f7d5-58f8-47eb-8e21-896c902d050a","ios":"levelo://app?vid=a202f7d5-58f8-47eb-8e21-896c902d050a"},"vehicle_type_id":"4","last_reported":1758788059,"current_range_meters":10800,"station_id":"ce4bhe12rcd13ifvqf30","pricing_plan_id":"cebpf4jnsgd1na2vs0mg"},{"bike_id":"668d1336-8871-4a21-a613-70e23e6df619","system_id":"levelo_inurba_marseille","lat":43.24648,"lon":5.38899,"is_reserved":false,"is_disabled":false,"rental_uris":{"android":"levelo://app?vid=668d1336-8871-4a21-a613-70e23e6df619","ios":"levelo://app?vid=668d1336-8871-4a21-a613-70e23e6df619"},"vehicle_type_id":"4","last_reported":1758788059,"current_range_meters":10800,"station_id":"ce4bhg12rcd13ifvqf60","pricing_plan_id":"cebpf4jnsgd1na2vs0mg"},{"bike_id":"514b5fdb-f81d-41c3-afe2-e88866964916","system_id":"levelo_inurba_marseille","lat":43.25099,"lon":5.39511,"is_reserved":false,"is_disabled":true,"rental_uris":{"android":"levelo://app?vid=514b5fdb-f81d-41c3-afe2-e88866964916","ios":"levelo://app?vid=514b5fdb-f81d-41c3-afe2-e88866964916"},"vehicle_type_id":"4","last_reported":1758788059,"current_range_meters":10800,"station_id":"ce4bhm12rcd13ifvqgkg","pricing_plan_id":"cebpf4jnsgd1na2vs0mg"},{"bike_id":"d6d370ff-4c5b-4ec8-9426-a6e8877d9200","system_id":"levelo_inurba_marseille","lat":43.26953,"lon":5.3864,"is_reserved":false,"is_disabled":false,"rental_uris":{"android":"levelo://app?vid=d6d370ff-4c5b-4ec8-9426-a6e8877d9200","ios":"levelo://app?vid=d6d370ff-4c5b-4ec8-9426-a6e8877d9200"},"vehicle_type_id":"4","last_reported":1758788059,"current_range_meters":10800,"station_id":"ce4bhh92rcd13ifvqfh0","pricing_plan_id":"cebpf4jnsgd1na2vs0mg"},{"bike_id":"3a83ddcd-ce03-4ed4-a7fa-b273c2464f02","system_id":"levelo_inurba_marseille","lat":43.27932,"lon":5.36329,"is_reserved":false,"is_disabled":false,"rental_uris":{"android":"levelo://app?vid=3a83ddcd-ce03-4ed4-a7fa-b273c2464f02","ios":"levelo://app?vid=3a83ddcd-ce03-4ed4-a7fa-b273c2464f02"},"vehicle_type_id":"4","last_reported":1758788059,"current_range_meters":10800,"station_id":"","pricing_plan_id":"cebpf4jnsgd1na2vs0mg"},{"bike_id":"d916c420-f032-4b9a-b23d-f63c79747ecc","system_id":"levelo_inurba_marseille","lat":43.258241,"lon":5.39439,"is_reserved":false,"is_disabled":false,"rental_uris":{"android":"levelo://app?vid=d916c420-f032-4b9a-b23d-f63c79747ecc","ios":"levelo://app?vid=d916c420-f032-4b9a-b23d-f63c79747ecc"},"vehicle_type_id":"4","last_reported":1758788059,"current_range_meters":10800,"station_id":"ce4bhip2rcd13ifvqft0","pricing_plan_id":"cebpf4jnsgd1na2vs0mg"},{"bike_id":"16cee2f9-0604-4f00-85ee-c5690b0410f0","system_id":"levelo_inurba_marseille","lat":43.28631,"lon":5.35071,"is_reserved":false,"is_disabled":false,"rental_uris":{"android":"levelo://app?vid=16cee2f9-0604-4f00-85ee-c5690b0410f0","ios":"levelo://app?vid=16cee2f9-0604-4f00-85ee-c5690b0410f0"},"vehicle_type_id":"4","last_reported":1758788059,"current_range_meters":10800,"station_id":"ce4bhch2rcd13ifvqeug","pricing_plan_id":"cebpf4jnsgd1na2vs0mg"},{"bike_id":"193e42a1-b115-4790-8f0b-86e6f864d184","system_id":"levelo_inurba_marseille","lat":43.250036,"lon":5.389312,"is_reserved":false,"is_disabled":false,"rental_uris":{"android":"levelo://app?vid=193e42a1-b115-4790-8f0b-86e6f864d184","ios":"levelo://app?vid=193e42a1-b115-4790-8f0b-86e6f864d184"},"vehicle_type_id":"4","last_reported":1758788059,"current_range_meters":10800,"station_id":"ce4bhgp2rcd13ifvqfd0","pricing_plan_id":"cebpf4jnsgd1na2vs0mg"},{"bike_id":"9e3c79aa-b67c-4ea5-aa86-b52cae65084d","system_id":"levelo_inurba_marseille","lat":43.23145,"lon":5.43722,"is_reserved":false,"is_disabled":false,"rental_uris":{"android":"levelo://app?vid=9e3c79aa-b67c-4ea5-aa86-b52cae65084d","ios":"levelo://app?vid=9e3c79aa-b67c-4ea5-aa86-b52cae65084d"},"vehicle_type_id":"4","last_reported":1758788059,"current_range_meters":10800,"station_id":"ce4bhmp2rcd13ifvqgog","pricing_plan_id":"cebpf4jnsgd1na2vs0mg"},{"bike_id":"756fdf13-fd06-4b52-b890-395bc0377e33","system_id":"levelo_inurba_marseille","lat":43.30571,"lon":5.36702,"is_reserved":false,"is_disabled":false,"rental_uris":{"android":"levelo://app?vid=756fdf13-fd06-4b52-b890-395bc0377e33","ios":"levelo://app?vid=756fdf13-fd06-4b52-b890-395bc0377e33"},"vehicle_type_id":"4","last_reported":1758788059,"current_range_meters":10800,"station_id":"ce4bgrp2rcd13ifvqc9g","pricing_plan_id":"cebpf4jnsgd1na2vs0mg"},{"bike_id":"ab88293b-6a16-4ace-923e-285a91b5eea5","system_id":"levelo_inurba_marseille","lat":43.24077,"lon":5.37761,"is_reserved":false,"is_disabled":false,"rental_uris":{"android":"levelo://app?vid=ab88293b-6a16-4ace-923e-285a91b5eea5","ios":"levelo://app?vid=ab88293b-6a16-4ace-923e-285a91b5eea5"},"vehicle_type_id":"4","last_reported":1758788059,"current_range_meters":11200,"station_id":"ce4bhnp2rcd13ifvqgvg","pricing_plan_id":"cebpf4jnsgd1na2vs0mg"},{"bike_id":"e19472f1-87e0-4943-97f3-e785d2a10054","system_id":"levelo_inurba_marseille","lat":43.28904,"lon":5.4251,"is_reserved":false,"is_disabled":false,"rental_uris":{"android":"levelo://app?vid=e19472f1-87e0-4943-97f3-e785d2a10054","ios":"levelo://app?vid=e19472f1-87e0-4943-97f3-e785d2a10054"},"vehicle_type_id":"4","last_reported":1758788059,"current_range_meters":11200,"station_id":"","pricing_plan_id":"cebpf4jnsgd1na2vs0mg"},{"bike_id":"2edaff00-298a-43bb-9b1b-fbee07f158c1","system_id":"levelo_inurba_marseille","lat":43.32113,"lon":5.36763,"is_reserved":false,"is_disabled":false,"rental_uris":{"android":"levelo://app?vid=2edaff00-298a-43bb-9b1b-fbee07f158c1","ios":"levelo://app?vid=2edaff00-298a-43bb-9b1b-fbee07f158c1"},"vehicle_type_id":"4","last_reported":1758788059,"current_range_meters":11200,"station_id":"ce4bhrh2rcd13ifvqhug","pricing_plan_id":"cebpf4jnsgd1na2vs0mg"},{"bike_id":"57b14c92-2a17-45b3-beb1-cbb460ef441b","system_id":"levelo_inurba_marseille","lat":43.23184,"lon":5.39986,"is_reserved":false,"is_disabled":false,"rental_uris":{"android":"levelo://app?vid=57b14c92-2a17-45b3-beb1-cbb460ef441b","ios":"levelo://app?vid=57b14c92-2a17-45b3-beb1-cbb460ef441b"},"vehicle_type_id":"4","last_reported":1758788059,"current_range_meters":11600,"station_id":"ce4bhn12rcd13ifvqgqg","pricing_plan_id":"cebpf4jnsgd1na2vs0mg"},{"bike_id":"488c09fa-a1dd-4086-b7a5-77f646e1d139","system_id":"levelo_inurba_marseille","lat":43.24177,"lon":5.39727,"is_reserved":false,"is_disabled":false,"rental_uris":{"android":"levelo://app?vid=488c09fa-a1dd-4086-b7a5-77f646e1d139","ios":"levelo://app?vid=488c09fa-a1dd-4086-b7a5-77f646e1d139"},"vehicle_type_id":"4","last_reported":1758788059,"current_range_meters":11600,"station_id":"ce4bhn12rcd13ifvqgpg","pricing_plan_id":"cebpf4jnsgd1na2vs0mg"},{"bike_id":"b53bf81f-76c4-4feb-b644-5de64af5e954","system_id":"levelo_inurba_marseille","lat":43.27355,"lon":5.42424,"is_reserved":false,"is_disabled":true,"rental_uris":{"android":"levelo://app?vid=b53bf81f-76c4-4feb-b644-5de64af5e954","ios":"levelo://app?vid=b53bf81f-76c4-4feb-b644-5de64af5e954"},"vehicle_type_id":"4","last_reported":1758788059,"current_range_meters":11600,"station_id":"","pricing_plan_id":"cebpf4jnsgd1na2vs0mg"},{"bike_id":"3cb1dae7-6bcd-41e5-b1b7-c1d25c751a99","system_id":"levelo_inurba_marseille","lat":43.337604,"lon":5.374259,"is_reserved":false,"is_disabled":false,"rental_uris":{"android":"levelo://app?vid=3cb1dae7-6bcd-41e5-b1b7-c1d25c751a99","ios":"levelo://app?vid=3cb1dae7-6bcd-41e5-b1b7-c1d25c751a99"},"vehicle_type_id":"4","last_reported":1758788059,"current_range_meters":12000,"station_id":"","pricing_plan_id":"cebpf4jnsgd1na2vs0mg"},{"bike_id":"d5632eaf-207f-4351-be9c-95c58bc9c538","system_id":"levelo_inurba_marseille","lat":43.29518,"lon":5.37509,"is_reserved":false,"is_disabled":true,"rental_uris":{"android":"levelo://app?vid=d5632eaf-207f-4351-be9c-95c58bc9c538","ios":"levelo://app?vid=d5632eaf-207f-4351-be9c-95c58bc9c538"},"vehicle_type_id":"4","last_reported":1758788059,"current_range_meters":12000,"station_id":"ce4bgkp2rcd13ifvqbmg","pricing_plan_id":"cebpf4jnsgd1na2vs0mg"},{"bike_id":"8eae954c-dab6-4303-94f5-569e1c483f62","system_id":"levelo_inurba_marseille","lat":43.2947,"lon":5.40742,"is_reserved":false,"is_disabled":false,"rental_uris":{"android":"levelo://app?vid=8eae954c-dab6-4303-94f5-569e1c483f62","ios":"levelo://app?vid=8eae954c-dab6-4303-94f5-569e1c483f62"},"vehicle_type_id":"4","last_reported":1758788059,"current_range_meters":12000,"station_id":"","pricing_plan_id":"cebpf4jnsgd1na2vs0mg"},{"bike_id":"0e9ca394-4351-4bf8-a641-f4e5215baf20","system_id":"levelo_inurba_marseille","lat":43.28273,"lon":5.35073,"is_reserved":false,"is_disabled":true,"rental_uris":{"android":"levelo://app?vid=0e9ca394-4351-4bf8-a641-f4e5215baf20","ios":"levelo://app?vid=0e9ca394-4351-4bf8-a641-f4e5215baf20"},"vehicle_type_id":"4","last_reported":1758788059,"current_range_meters":12000,"station_id":"ce4bhbp2rcd13ifvqerg","pricing_plan_id":"cebpf4jnsgd1na2vs0mg"},{"bike_id":"002673c7-e49b-40c2-82da-6cf2f4393eb8","system_id":"levelo_inurba_marseille","lat":43.30448,"lon":5.37902,"is_reserved":false,"is_disabled":true,"rental_uris":{"android":"levelo://app?vid=002673c7-e49b-40c2-82da-6cf2f4393eb8","ios":"levelo://app?vid=002673c7-e49b-40c2-82da-6cf2f4393eb8"},"vehicle_type_id":"4","last_reported":1758788059,"current_range_meters":12000,"station_id":"ce4bgup2rcd13ifvqcn0","pricing_plan_id":"cebpf4jnsgd1na2vs0mg"},{"bike_id":"ad9a6248-1b43-4fc5-bfba-44f7d3067aab","system_id":"levelo_inurba_marseille","lat":43.2119,"lon":5.3508,"is_reserved":false,"is_disabled":false,"rental_uris":{"android":"levelo://app?vid=ad9a6248-1b43-4fc5-bfba-44f7d3067aab","ios":"levelo://app?vid=ad9a6248-1b43-4fc5-bfba-44f7d3067aab"},"vehicle_type_id":"4","last_reported":1758788059,"current_range_meters":12000,"station_id":"st_cvj6sg6p6f1abm77japg","pricing_plan_id":"cebpf4jnsgd1na2vs0mg"},{"bike_id":"1ba9d463-2cd1-471b-8bdd-42afd806714c","system_id":"levelo_inurba_marseille","lat":43.284911,"lon":5.384163,"is_reserved":false,"is_disabled":false,"rental_uris":{"android":"levelo://app?vid=1ba9d463-2cd1-471b-8bdd-42afd806714c","ios":"levelo://app?vid=1ba9d463-2cd1-471b-8bdd-42afd806714c"},"vehicle_type_id":"4","last_reported":1758788059,"current_range_meters":12000,"station_id":"ce4bh512rcd13ifvqe3g","pricing_plan_id":"cebpf4jnsgd1na2vs0mg"},{"bike_id":"8584eb3e-f7b4-4300-97fe-005a37d8d75b","system_id":"levelo_inurba_marseille","lat":43.36864,"lon":5.36316,"is_reserved":false,"is_disabled":false,"rental_uris":{"android":"levelo://app?vid=8584eb3e-f7b4-4300-97fe-005a37d8d75b","ios":"levelo://app?vid=8584eb3e-f7b4-4300-97fe-005a37d8d75b"},"vehicle_type_id":"4","last_reported":1758788059,"current_range_meters":12000,"station_id":"","pricing_plan_id":"cebpf4jnsgd1na2vs0mg"},{"bike_id":"50b1e77d-87bf-411b-98d1-59aa724d7ed8","system_id":"levelo_inurba_marseille","lat":43.24185,"lon":5.39729,"is_reserved":false,"is_disabled":false,"rental_uris":{"android":"levelo://app?vid=50b1e77d-87bf-411b-98d1-59aa724d7ed8","ios":"levelo://app?vid=50b1e77d-87bf-411b-98d1-59aa724d7ed8"},"vehicle_type_id":"4","last_reported":1758788059,"current_range_meters":12400,"station_id":"ce4bhn12rcd13ifvqgpg","pricing_plan_id":"cebpf4jnsgd1na2vs0mg"},{"bike_id":"91f826bb-15b6-4c16-a98c-42048d808ab8","system_id":"levelo_inurba_marseille","lat":43.24078,"lon":5.37754,"is_reserved":false,"is_disabled":false,"rental_uris":{"android":"levelo://app?vid=91f826bb-15b6-4c16-a98c-42048d808ab8","ios":"levelo://app?vid=91f826bb-15b6-4c16-a98c-42048d808ab8"},"vehicle_type_id":"4","last_reported":1758788059,"current_range_meters":12400,"station_id":"ce4bhnp2rcd13ifvqgvg","pricing_plan_id":"cebpf4jnsgd1na2vs0mg"},{"bike_id":"0334c664-c853-4f38-a46f-30751b2874a4","system_id":"levelo_inurba_marseille","lat":43.29051,"lon":5.35917,"is_reserved":false,"is_disabled":true,"rental_uris":{"android":"levelo://app?vid=0334c664-c853-4f38-a46f-30751b2874a4","ios":"levelo://app?vid=0334c664-c853-4f38-a46f-30751b2874a4"},"vehicle_type_id":"4","last_reported":1758788059,"current_range_meters":12400,"station_id":"ce4bha92rcd13ifvqeg0","pricing_plan_id":"cebpf4jnsgd1na2vs0mg"},{"bike_id":"b69b765f-71da-4b4c-87d9-7dff26519ccb","system_id":"levelo_inurba_marseille","lat":43.29364,"lon":5.378511,"is_reserved":false,"is_disabled":false,"rental_uris":{"android":"levelo://app?vid=b69b765f-71da-4b4c-87d9-7dff26519ccb","ios":"levelo://app?vid=b69b765f-71da-4b4c-87d9-7dff26519ccb"},"vehicle_type_id":"4","last_reported":1758788059,"current_range_meters":12400,"station_id":"ce4bgjh2rcd13ifvqbf0","pricing_plan_id":"cebpf4jnsgd1na2vs0mg"},{"bike_id":"34674e84-8c28-42f2-b2b9-e63abc4c0448","system_id":"levelo_inurba_marseille","lat":43.22392,"lon":5.34661,"is_reserved":false,"is_disabled":false,"rental_uris":{"android":"levelo://app?vid=34674e84-8c28-42f2-b2b9-e63abc4c0448","ios":"levelo://app?vid=34674e84-8c28-42f2-b2b9-e63abc4c0448"},"vehicle_type_id":"4","last_reported":1758788059,"current_range_meters":12400,"station_id":"","pricing_plan_id":"cebpf4jnsgd1na2vs0mg"},{"bike_id":"8ec00a13-127a-4e8b-9fc3-ecd40984ac85","system_id":"levelo_inurba_marseille","lat":43.26054,"lon":5.39399,"is_reserved":false,"is_disabled":false,"rental_uris":{"android":"levelo://app?vid=8ec00a13-127a-4e8b-9fc3-ecd40984ac85","ios":"levelo://app?vid=8ec00a13-127a-4e8b-9fc3-ecd40984ac85"},"vehicle_type_id":"4","last_reported":1758788059,"current_range_meters":12400,"station_id":"ce4bhh92rcd13ifvqfj0","pricing_plan_id":"cebpf4jnsgd1na2vs0mg"},{"bike_id":"35f977eb-a379-4492-8671-ce0cba2d39cf","system_id":"levelo_inurba_marseille","lat":43.2808,"lon":5.39653,"is_reserved":false,"is_disabled":false,"rental_uris":{"android":"levelo://app?vid=35f977eb-a379-4492-8671-ce0cba2d39cf","ios":"levelo://app?vid=35f977eb-a379-4492-8671-ce0cba2d39cf"},"vehicle_type_id":"4","last_reported":1758788059,"current_range_meters":12400,"station_id":"ce4bho12rcd13ifvqh2g","pricing_plan_id":"cebpf4jnsgd1na2vs0mg"},{"bike_id":"d2486044-0a1e-4d60-8cc0-53ae833224a6","system_id":"levelo_inurba_marseille","lat":43.30395,"lon":5.38687,"is_reserved":false,"is_disabled":false,"rental_uris":{"android":"levelo://app?vid=d2486044-0a1e-4d60-8cc0-53ae833224a6","ios":"levelo://app?vid=d2486044-0a1e-4d60-8cc0-53ae833224a6"},"vehicle_type_id":"4","last_reported":1758788059,"current_range_meters":12400,"station_id":"ce4bguh2rcd13ifvqckg","pricing_plan_id":"cebpf4jnsgd1na2vs0mg"},{"bike_id":"3b31d633-b5d5-4cb8-bc19-6e3745360861","system_id":"levelo_inurba_marseille","lat":43.31236,"lon":5.369,"is_reserved":false,"is_disabled":false,"rental_uris":{"android":"levelo://app?vid=3b31d633-b5d5-4cb8-bc19-6e3745360861","ios":"levelo://app?vid=3b31d633-b5d5-4cb8-bc19-6e3745360861"},"vehicle_type_id":"4","last_reported":1758788059,"current_range_meters":12400,"station_id":"ce4bgl92rcd13ifvqbq0","pricing_plan_id":"cebpf4jnsgd1na2vs0mg"},{"bike_id":"825deff0-a906-481c-ac87-686bfee56f0d","system_id":"levelo_inurba_marseille","lat":43.291705,"lon":5.371517,"is_reserved":false,"is_disabled":false,"rental_uris":{"android":"levelo://app?vid=825deff0-a906-481c-ac87-686bfee56f0d","ios":"levelo://app?vid=825deff0-a906-481c-ac87-686bfee56f0d"},"vehicle_type_id":"4","last_reported":1758788059,"current_range_meters":12800,"station_id":"ce4bha92rcd13ifvqeh0","pricing_plan_id":"cebpf4jnsgd1na2vs0mg"},{"bike_id":"6e856e1a-50f2-4914-b905-c9bc1f1d7c18","system_id":"levelo_inurba_marseille","lat":43.269444,"lon":5.386216,"is_reserved":false,"is_disabled":false,"rental_uris":{"android":"levelo://app?vid=6e856e1a-50f2-4914-b905-c9bc1f1d7c18","ios":"levelo://app?vid=6e856e1a-50f2-4914-b905-c9bc1f1d7c18"},"vehicle_type_id":"4","last_reported":1758788059,"current_range_meters":12400,"station_id":"ce4bhh92rcd13ifvqfh0","pricing_plan_id":"cebpf4jnsgd1na2vs0mg"},{"bike_id":"d886cab5-b52e-4c7c-bee8-be0edf83d4d4","system_id":"levelo_inurba_marseille","lat":43.27491,"lon":5.425,"is_reserved":false,"is_disabled":false,"rental_uris":{"android":"levelo://app?vid=d886cab5-b52e-4c7c-bee8-be0edf83d4d4","ios":"levelo://app?vid=d886cab5-b52e-4c7c-bee8-be0edf83d4d4"},"vehicle_type_id":"4","last_reported":1758788059,"current_range_meters":12800,"station_id":"ce4bhn92rcd13ifvqgrg","pricing_plan_id":"cebpf4jnsgd1na2vs0mg"},{"bike_id":"7953557f-ea75-46d3-9180-0cd2de657f2e","system_id":"levelo_inurba_marseille","lat":43.24099,"lon":5.37684,"is_reserved":false,"is_disabled":false,"rental_uris":{"android":"levelo://app?vid=7953557f-ea75-46d3-9180-0cd2de657f2e","ios":"levelo://app?vid=7953557f-ea75-46d3-9180-0cd2de657f2e"},"vehicle_type_id":"4","last_reported":1758788059,"current_range_meters":12800,"station_id":"","pricing_plan_id":"cebpf4jnsgd1na2vs0mg"},{"bike_id":"29745861-e9c1-453c-8b33-c1ef78b0c553","system_id":"levelo_inurba_marseille","lat":43.30138,"lon":5.37405,"is_reserved":false,"is_disabled":false,"rental_uris":{"android":"levelo://app?vid=29745861-e9c1-453c-8b33-c1ef78b0c553","ios":"levelo://app?vid=29745861-e9c1-453c-8b33-c1ef78b0c553"},"vehicle_type_id":"4","last_reported":1758788059,"current_range_meters":12800,"station_id":"ce4bgs92rcd13ifvqcc0","pricing_plan_id":"cebpf4jnsgd1na2vs0mg"},{"bike_id":"6e01c809-218f-4d4d-a4ac-0112eb240792","system_id":"levelo_inurba_marseille","lat":43.30158,"lon":5.38083,"is_reserved":false,"is_disabled":false,"rental_uris":{"android":"levelo://app?vid=6e01c809-218f-4d4d-a4ac-0112eb240792","ios":"levelo://app?vid=6e01c809-218f-4d4d-a4ac-0112eb240792"},"vehicle_type_id":"4","last_reported":1758788059,"current_range_meters":12800,"station_id":"ce4bgjp2rcd13ifvqbh0","pricing_plan_id":"cebpf4jnsgd1na2vs0mg"},{"bike_id":"a6ad0c6c-868d-42f3-ba54-573e1a175a36","system_id":"levelo_inurba_marseille","lat":43.262625,"lon":5.412996,"is_reserved":false,"is_disabled":false,"rental_uris":{"android":"levelo://app?vid=a6ad0c6c-868d-42f3-ba54-573e1a175a36","ios":"levelo://app?vid=a6ad0c6c-868d-42f3-ba54-573e1a175a36"},"vehicle_type_id":"4","last_reported":1758788059,"current_range_meters":12800,"station_id":"","pricing_plan_id":"cebpf4jnsgd1na2vs0mg"},{"bike_id":"265547e5-a08d-491f-bf0c-7ead7a3596f3","system_id":"levelo_inurba_marseille","lat":43.282684,"lon":5.35062,"is_reserved":false,"is_disabled":false,"rental_uris":{"android":"levelo://app?vid=265547e5-a08d-491f-bf0c-7ead7a3596f3","ios":"levelo://app?vid=265547e5-a08d-491f-bf0c-7ead7a3596f3"},"vehicle_type_id":"4","last_reported":1758788059,"current_range_meters":13600,"station_id":"ce4bhbp2rcd13ifvqerg","pricing_plan_id":"cebpf4jnsgd1na2vs0mg"},{"bike_id":"009807b1-ea40-4cd4-a19f-8f56bd4c3297","system_id":"levelo_inurba_marseille","lat":43.24082,"lon":5.37755,"is_reserved":false,"is_disabled":false,"rental_uris":{"android":"levelo://app?vid=009807b1-ea40-4cd4-a19f-8f56bd4c3297","ios":"levelo://app?vid=009807b1-ea40-4cd4-a19f-8f56bd4c3297"},"vehicle_type_id":"4","last_reported":1758788059,"current_range_meters":13600,"station_id":"ce4bhnp2rcd13ifvqgvg","pricing_plan_id":"cebpf4jnsgd1na2vs0mg"},{"bike_id":"10ef4df9-8c67-46e8-8a7e-0888744bb3f2","system_id":"levelo_inurba_marseille","lat":43.24071,"lon":5.37741,"is_reserved":false,"is_disabled":false,"rental_uris":{"android":"levelo://app?vid=10ef4df9-8c67-46e8-8a7e-0888744bb3f2","ios":"levelo://app?vid=10ef4df9-8c67-46e8-8a7e-0888744bb3f2"},"vehicle_type_id":"4","last_reported":1758788059,"current_range_meters":13600,"station_id":"ce4bhnp2rcd13ifvqgvg","pricing_plan_id":"cebpf4jnsgd1na2vs0mg"},{"bike_id":"6ce97256-6e29-4ee4-b817-ac92bdd5aea1","system_id":"levelo_inurba_marseille","lat":43.22534,"lon":5.34835,"is_reserved":false,"is_disabled":false,"rental_uris":{"android":"levelo://app?vid=6ce97256-6e29-4ee4-b817-ac92bdd5aea1","ios":"levelo://app?vid=6ce97256-6e29-4ee4-b817-ac92bdd5aea1"},"vehicle_type_id":"4","last_reported":1758788059,"current_range_meters":13600,"station_id":"","pricing_plan_id":"cebpf4jnsgd1na2vs0mg"},{"bike_id":"bdec3261-de13-477f-818b-7af8ae1d1f6a","system_id":"levelo_inurba_marseille","lat":43.23949,"lon":5.37686,"is_reserved":false,"is_disabled":false,"rental_uris":{"android":"levelo://app?vid=bdec3261-de13-477f-818b-7af8ae1d1f6a","ios":"levelo://app?vid=bdec3261-de13-477f-818b-7af8ae1d1f6a"},"vehicle_type_id":"4","last_reported":1758788059,"current_range_meters":13600,"station_id":"","pricing_plan_id":"cebpf4jnsgd1na2vs0mg"},{"bike_id":"6caa89c6-2658-4ac8-8d83-c6001f5f980c","system_id":"levelo_inurba_marseille","lat":43.25569,"lon":5.38285,"is_reserved":false,"is_disabled":false,"rental_uris":{"android":"levelo://app?vid=6caa89c6-2658-4ac8-8d83-c6001f5f980c","ios":"levelo://app?vid=6caa89c6-2658-4ac8-8d83-c6001f5f980c"},"vehicle_type_id":"4","last_reported":1758788059,"current_range_meters":13600,"station_id":"ce4bhih2rcd13ifvqfs0","pricing_plan_id":"cebpf4jnsgd1na2vs0mg"},{"bike_id":"66babdd6-2063-4ef2-8d32-dd5db0e9e852","system_id":"levelo_inurba_marseille","lat":43.32496,"lon":5.36569,"is_reserved":false,"is_disabled":false,"rental_uris":{"android":"levelo://app?vid=66babdd6-2063-4ef2-8d32-dd5db0e9e852","ios":"levelo://app?vid=66babdd6-2063-4ef2-8d32-dd5db0e9e852"},"vehicle_type_id":"4","last_reported":1758788059,"current_range_meters":13600,"station_id":"ce4bhs12rcd13ifvqhvg","pricing_plan_id":"cebpf4jnsgd1na2vs0mg"},{"bike_id":"205d819a-3bd1-4529-bc28-c508c2acc830","system_id":"levelo_inurba_marseille","lat":43.29516,"lon":5.37512,"is_reserved":false,"is_disabled":false,"rental_uris":{"android":"levelo://app?vid=205d819a-3bd1-4529-bc28-c508c2acc830","ios":"levelo://app?vid=205d819a-3bd1-4529-bc28-c508c2acc830"},"vehicle_type_id":"4","last_reported":1758788059,"current_range_meters":13600,"station_id":"ce4bgkp2rcd13ifvqbmg","pricing_plan_id":"cebpf4jnsgd1na2vs0mg"},{"bike_id":"46923300-e0d3-40c1-8c76-7dadc761100f","system_id":"levelo_inurba_marseille","lat":43.29002,"lon":5.35639,"is_reserved":false,"is_disabled":false,"rental_uris":{"android":"levelo://app?vid=46923300-e0d3-40c1-8c76-7dadc761100f","ios":"levelo://app?vid=46923300-e0d3-40c1-8c76-7dadc761100f"},"vehicle_type_id":"4","last_reported":1758788059,"current_range_meters":13600,"station_id":"ce4bhb92rcd13ifvqen0","pricing_plan_id":"cebpf4jnsgd1na2vs0mg"},{"bike_id":"a7f90678-07c2-4f03-8a02-e1b4554e0a14","system_id":"levelo_inurba_marseille","lat":43.31209,"lon":5.36901,"is_reserved":false,"is_disabled":false,"rental_uris":{"android":"levelo://app?vid=a7f90678-07c2-4f03-8a02-e1b4554e0a14","ios":"levelo://app?vid=a7f90678-07c2-4f03-8a02-e1b4554e0a14"},"vehicle_type_id":"4","last_reported":1758788059,"current_range_meters":13600,"station_id":"ce4bgl92rcd13ifvqbq0","pricing_plan_id":"cebpf4jnsgd1na2vs0mg"},{"bike_id":"f9af076b-c426-46f0-97f6-f6a5a530c8e2","system_id":"levelo_inurba_marseille","lat":43.33216,"lon":5.39888,"is_reserved":false,"is_disabled":false,"rental_uris":{"android":"levelo://app?vid=f9af076b-c426-46f0-97f6-f6a5a530c8e2","ios":"levelo://app?vid=f9af076b-c426-46f0-97f6-f6a5a530c8e2"},"vehicle_type_id":"4","last_reported":1758788059,"current_range_meters":13600,"station_id":"","pricing_plan_id":"cebpf4jnsgd1na2vs0mg"},{"bike_id":"f0c5386a-9938-4d6a-81e8-14ec0c5e2580","system_id":"levelo_inurba_marseille","lat":43.31713,"lon":5.37733,"is_reserved":false,"is_disabled":false,"rental_uris":{"android":"levelo://app?vid=f0c5386a-9938-4d6a-81e8-14ec0c5e2580","ios":"levelo://app?vid=f0c5386a-9938-4d6a-81e8-14ec0c5e2580"},"vehicle_type_id":"4","last_reported":1758788059,"current_range_meters":13600,"station_id":"ce4bgth2rcd13ifvqch0","pricing_plan_id":"cebpf4jnsgd1na2vs0mg"},{"bike_id":"4772b595-ae6b-4383-8677-84c89d05c370","system_id":"levelo_inurba_marseille","lat":43.2408,"lon":5.37756,"is_reserved":false,"is_disabled":false,"rental_uris":{"android":"levelo://app?vid=4772b595-ae6b-4383-8677-84c89d05c370","ios":"levelo://app?vid=4772b595-ae6b-4383-8677-84c89d05c370"},"vehicle_type_id":"4","last_reported":1758788059,"current_range_meters":13600,"station_id":"ce4bhnp2rcd13ifvqgvg","pricing_plan_id":"cebpf4jnsgd1na2vs0mg"},{"bike_id":"003515e8-8117-44bb-979d-5f47e8d50fda","system_id":"levelo_inurba_marseille","lat":43.30638,"lon":5.37567,"is_reserved":false,"is_disabled":false,"rental_uris":{"android":"levelo://app?vid=003515e8-8117-44bb-979d-5f47e8d50fda","ios":"levelo://app?vid=003515e8-8117-44bb-979d-5f47e8d50fda"},"vehicle_type_id":"4","last_reported":1758788059,"current_range_meters":14000,"station_id":"","pricing_plan_id":"cebpf4jnsgd1na2vs0mg"},{"bike_id":"29df51be-ac00-4f25-bac7-ca405b7e7419","system_id":"levelo_inurba_marseille","lat":43.25934,"lon":5.40913,"is_reserved":false,"is_disabled":false,"rental_uris":{"android":"levelo://app?vid=29df51be-ac00-4f25-bac7-ca405b7e7419","ios":"levelo://app?vid=29df51be-ac00-4f25-bac7-ca405b7e7419"},"vehicle_type_id":"4","last_reported":1758788059,"current_range_meters":14000,"station_id":"ce4bhm92rcd13ifvqglg","pricing_plan_id":"cebpf4jnsgd1na2vs0mg"},{"bike_id":"b74bc1bc-07d4-4f4c-8255-2078d6d3ce91","system_id":"levelo_inurba_marseille","lat":43.25579,"lon":5.38234,"is_reserved":false,"is_disabled":false,"rental_uris":{"android":"levelo://app?vid=b74bc1bc-07d4-4f4c-8255-2078d6d3ce91","ios":"levelo://app?vid=b74bc1bc-07d4-4f4c-8255-2078d6d3ce91"},"vehicle_type_id":"4","last_reported":1758788059,"current_range_meters":14000,"station_id":"ce4bhih2rcd13ifvqfs0","pricing_plan_id":"cebpf4jnsgd1na2vs0mg"},{"bike_id":"17b6e890-308f-4e08-9acd-7090f69670ec","system_id":"levelo_inurba_marseille","lat":43.31221,"lon":5.36872,"is_reserved":false,"is_disabled":false,"rental_uris":{"android":"levelo://app?vid=17b6e890-308f-4e08-9acd-7090f69670ec","ios":"levelo://app?vid=17b6e890-308f-4e08-9acd-7090f69670ec"},"vehicle_type_id":"4","last_reported":1758788059,"current_range_meters":14000,"station_id":"ce4bgl92rcd13ifvqbq0","pricing_plan_id":"cebpf4jnsgd1na2vs0mg"},{"bike_id":"37999ea4-1d75-4618-a320-4abd77846305","system_id":"levelo_inurba_marseille","lat":43.251273,"lon":5.403393,"is_reserved":false,"is_disabled":false,"rental_uris":{"android":"levelo://app?vid=37999ea4-1d75-4618-a320-4abd77846305","ios":"levelo://app?vid=37999ea4-1d75-4618-a320-4abd77846305"},"vehicle_type_id":"4","last_reported":1758788059,"current_range_meters":14000,"station_id":"ce4bhlh2rcd13ifvqgig","pricing_plan_id":"cebpf4jnsgd1na2vs0mg"},{"bike_id":"2bd2a176-8590-4e06-8b8c-a96b49b7b36a","system_id":"levelo_inurba_marseille","lat":43.262237,"lon":5.404538,"is_reserved":false,"is_disabled":false,"rental_uris":{"android":"levelo://app?vid=2bd2a176-8590-4e06-8b8c-a96b49b7b36a","ios":"levelo://app?vid=2bd2a176-8590-4e06-8b8c-a96b49b7b36a"},"vehicle_type_id":"4","last_reported":1758788059,"current_range_meters":14000,"station_id":"","pricing_plan_id":"cebpf4jnsgd1na2vs0mg"},{"bike_id":"6afca416-8d38-40fb-8704-74f981d39276","system_id":"levelo_inurba_marseille","lat":43.30941,"lon":5.36863,"is_reserved":false,"is_disabled":false,"rental_uris":{"android":"levelo://app?vid=6afca416-8d38-40fb-8704-74f981d39276","ios":"levelo://app?vid=6afca416-8d38-40fb-8704-74f981d39276"},"vehicle_type_id":"4","last_reported":1758788059,"current_range_meters":14000,"station_id":"ce4bgn92rcd13ifvqbvg","pricing_plan_id":"cebpf4jnsgd1na2vs0mg"},{"bike_id":"0c16ac8a-a536-4d89-a0b4-2803631fd83e","system_id":"levelo_inurba_marseille","lat":43.24998,"lon":5.38924,"is_reserved":false,"is_disabled":false,"rental_uris":{"android":"levelo://app?vid=0c16ac8a-a536-4d89-a0b4-2803631fd83e","ios":"levelo://app?vid=0c16ac8a-a536-4d89-a0b4-2803631fd83e"},"vehicle_type_id":"4","last_reported":1758788059,"current_range_meters":14000,"station_id":"ce4bhgp2rcd13ifvqfd0","pricing_plan_id":"cebpf4jnsgd1na2vs0mg"},{"bike_id":"e0315d97-14d7-4d68-82ef-1c5852d3a906","system_id":"levelo_inurba_marseille","lat":43.29277,"lon":5.40113,"is_reserved":false,"is_disabled":false,"rental_uris":{"android":"levelo://app?vid=e0315d97-14d7-4d68-82ef-1c5852d3a906","ios":"levelo://app?vid=e0315d97-14d7-4d68-82ef-1c5852d3a906"},"vehicle_type_id":"4","last_reported":1758788059,"current_range_meters":14000,"station_id":"ce4bh312rcd13ifvqdk0","pricing_plan_id":"cebpf4jnsgd1na2vs0mg"},{"bike_id":"e63016fb-c641-4bba-99e9-c10fbfaa54dc","system_id":"levelo_inurba_marseille","lat":43.32452,"lon":5.36578,"is_reserved":false,"is_disabled":false,"rental_uris":{"android":"levelo://app?vid=e63016fb-c641-4bba-99e9-c10fbfaa54dc","ios":"levelo://app?vid=e63016fb-c641-4bba-99e9-c10fbfaa54dc"},"vehicle_type_id":"4","last_reported":1758788059,"current_range_meters":14000,"station_id":"ce4bhs12rcd13ifvqhvg","pricing_plan_id":"cebpf4jnsgd1na2vs0mg"},{"bike_id":"129c8450-4cca-4e9f-b9f6-538b0080ad49","system_id":"levelo_inurba_marseille","lat":43.32533,"lon":5.38929,"is_reserved":false,"is_disabled":false,"rental_uris":{"android":"levelo://app?vid=129c8450-4cca-4e9f-b9f6-538b0080ad49","ios":"levelo://app?vid=129c8450-4cca-4e9f-b9f6-538b0080ad49"},"vehicle_type_id":"4","last_reported":1758788059,"current_range_meters":14000,"station_id":"","pricing_plan_id":"cebpf4jnsgd1na2vs0mg"},{"bike_id":"d1035cda-0828-4480-ab90-b06087f3ef72","system_id":"levelo_inurba_marseille","lat":43.25575,"lon":5.3824,"is_reserved":false,"is_disabled":false,"rental_uris":{"android":"levelo://app?vid=d1035cda-0828-4480-ab90-b06087f3ef72","ios":"levelo://app?vid=d1035cda-0828-4480-ab90-b06087f3ef72"},"vehicle_type_id":"4","last_reported":1758788059,"current_range_meters":14000,"station_id":"ce4bhih2rcd13ifvqfs0","pricing_plan_id":"cebpf4jnsgd1na2vs0mg"},{"bike_id":"212de2eb-8bbc-413c-b204-9fe1facd76e8","system_id":"levelo_inurba_marseille","lat":43.31314,"lon":5.37823,"is_reserved":false,"is_disabled":false,"rental_uris":{"android":"levelo://app?vid=212de2eb-8bbc-413c-b204-9fe1facd76e8","ios":"levelo://app?vid=212de2eb-8bbc-413c-b204-9fe1facd76e8"},"vehicle_type_id":"4","last_reported":1758788059,"current_range_meters":14000,"station_id":"","pricing_plan_id":"cebpf4jnsgd1na2vs0mg"},{"bike_id":"6ef30159-d48c-498c-8f7a-99dff182ac63","system_id":"levelo_inurba_marseille","lat":43.25493,"lon":5.37647,"is_reserved":false,"is_disabled":false,"rental_uris":{"android":"levelo://app?vid=6ef30159-d48c-498c-8f7a-99dff182ac63","ios":"levelo://app?vid=6ef30159-d48c-498c-8f7a-99dff182ac63"},"vehicle_type_id":"4","last_reported":1758788059,"current_range_meters":13600,"station_id":"ce4bhh12rcd13ifvqff0","pricing_plan_id":"cebpf4jnsgd1na2vs0mg"},{"bike_id":"c7a7c3eb-3d9c-4e19-93d3-2fb9b7bb4b45","system_id":"levelo_inurba_marseille","lat":43.26052,"lon":5.39423,"is_reserved":false,"is_disabled":false,"rental_uris":{"android":"levelo://app?vid=c7a7c3eb-3d9c-4e19-93d3-2fb9b7bb4b45","ios":"levelo://app?vid=c7a7c3eb-3d9c-4e19-93d3-2fb9b7bb4b45"},"vehicle_type_id":"4","last_reported":1758788059,"current_range_meters":14400,"station_id":"ce4bhh92rcd13ifvqfj0","pricing_plan_id":"cebpf4jnsgd1na2vs0mg"},{"bike_id":"9c5f0cd5-5776-4bde-8898-ac0d0582f527","system_id":"levelo_inurba_marseille","lat":43.30968,"lon":5.39035,"is_reserved":false,"is_disabled":false,"rental_uris":{"android":"levelo://app?vid=9c5f0cd5-5776-4bde-8898-ac0d0582f527","ios":"levelo://app?vid=9c5f0cd5-5776-4bde-8898-ac0d0582f527"},"vehicle_type_id":"4","last_reported":1758788059,"current_range_meters":14400,"station_id":"ce4bgup2rcd13ifvqco0","pricing_plan_id":"cebpf4jnsgd1na2vs0mg"},{"bike_id":"e8c43ea7-2b2b-4e1a-b188-2accad981830","system_id":"levelo_inurba_marseille","lat":43.273048,"lon":5.400677,"is_reserved":false,"is_disabled":false,"rental_uris":{"android":"levelo://app?vid=e8c43ea7-2b2b-4e1a-b188-2accad981830","ios":"levelo://app?vid=e8c43ea7-2b2b-4e1a-b188-2accad981830"},"vehicle_type_id":"4","last_reported":1758788059,"current_range_meters":14400,"station_id":"ce4bhk92rcd13ifvqgc0","pricing_plan_id":"cebpf4jnsgd1na2vs0mg"},{"bike_id":"bde2c479-5a47-409b-87e4-9e3b4d14a670","system_id":"levelo_inurba_marseille","lat":43.24082,"lon":5.37755,"is_reserved":false,"is_disabled":false,"rental_uris":{"android":"levelo://app?vid=bde2c479-5a47-409b-87e4-9e3b4d14a670","ios":"levelo://app?vid=bde2c479-5a47-409b-87e4-9e3b4d14a670"},"vehicle_type_id":"4","last_reported":1758788059,"current_range_meters":14400,"station_id":"ce4bhnp2rcd13ifvqgvg","pricing_plan_id":"cebpf4jnsgd1na2vs0mg"},{"bike_id":"87e35d32-0ec4-4cda-949d-9256b87baba1","system_id":"levelo_inurba_marseille","lat":43.337444,"lon":5.374475,"is_reserved":false,"is_disabled":false,"rental_uris":{"android":"levelo://app?vid=87e35d32-0ec4-4cda-949d-9256b87baba1","ios":"levelo://app?vid=87e35d32-0ec4-4cda-949d-9256b87baba1"},"vehicle_type_id":"4","last_reported":1758788059,"current_range_meters":14400,"station_id":"","pricing_plan_id":"cebpf4jnsgd1na2vs0mg"},{"bike_id":"cdf52e14-a2ee-476e-b7ae-58684f15cc5e","system_id":"levelo_inurba_marseille","lat":43.28221,"lon":5.39068,"is_reserved":false,"is_disabled":false,"rental_uris":{"android":"levelo://app?vid=cdf52e14-a2ee-476e-b7ae-58684f15cc5e","ios":"levelo://app?vid=cdf52e14-a2ee-476e-b7ae-58684f15cc5e"},"vehicle_type_id":"4","last_reported":1758788059,"current_range_meters":14800,"station_id":"ce4bhn92rcd13ifvqgsg","pricing_plan_id":"cebpf4jnsgd1na2vs0mg"},{"bike_id":"8a7d82ae-5481-4197-a717-7b3e9ad13740","system_id":"levelo_inurba_marseille","lat":43.27432,"lon":5.39416,"is_reserved":false,"is_disabled":false,"rental_uris":{"android":"levelo://app?vid=8a7d82ae-5481-4197-a717-7b3e9ad13740","ios":"levelo://app?vid=8a7d82ae-5481-4197-a717-7b3e9ad13740"},"vehicle_type_id":"4","last_reported":1758788059,"current_range_meters":14800,"station_id":"ce4bhdp2rcd13ifvqf20","pricing_plan_id":"cebpf4jnsgd1na2vs0mg"},{"bike_id":"1b20e7b2-029e-485f-b298-949b9e96bacd","system_id":"levelo_inurba_marseille","lat":43.33628,"lon":5.41015,"is_reserved":false,"is_disabled":false,"rental_uris":{"android":"levelo://app?vid=1b20e7b2-029e-485f-b298-949b9e96bacd","ios":"levelo://app?vid=1b20e7b2-029e-485f-b298-949b9e96bacd"},"vehicle_type_id":"4","last_reported":1758788059,"current_range_meters":14800,"station_id":"ce4bhqh2rcd13ifvqhmg","pricing_plan_id":"cebpf4jnsgd1na2vs0mg"},{"bike_id":"1cc39c85-fde6-4c4e-90eb-faab84a42516","system_id":"levelo_inurba_marseille","lat":43.27214,"lon":5.39176,"is_reserved":false,"is_disabled":false,"rental_uris":{"android":"levelo://app?vid=1cc39c85-fde6-4c4e-90eb-faab84a42516","ios":"levelo://app?vid=1cc39c85-fde6-4c4e-90eb-faab84a42516"},"vehicle_type_id":"4","last_reported":1758788059,"current_range_meters":14800,"station_id":"ce4bhhp2rcd13ifvqfm0","pricing_plan_id":"cebpf4jnsgd1na2vs0mg"},{"bike_id":"8f3b87cd-556a-4aaa-b06d-fc8ba961bc9f","system_id":"levelo_inurba_marseille","lat":43.27994,"lon":5.41661,"is_reserved":false,"is_disabled":false,"rental_uris":{"android":"levelo://app?vid=8f3b87cd-556a-4aaa-b06d-fc8ba961bc9f","ios":"levelo://app?vid=8f3b87cd-556a-4aaa-b06d-fc8ba961bc9f"},"vehicle_type_id":"4","last_reported":1758788059,"current_range_meters":14800,"station_id":"ce4bho12rcd13ifvqh1g","pricing_plan_id":"cebpf4jnsgd1na2vs0mg"},{"bike_id":"f3a84c67-9804-4436-a797-b96f10405ef5","system_id":"levelo_inurba_marseille","lat":43.28661,"lon":5.36353,"is_reserved":false,"is_disabled":false,"rental_uris":{"android":"levelo://app?vid=f3a84c67-9804-4436-a797-b96f10405ef5","ios":"levelo://app?vid=f3a84c67-9804-4436-a797-b96f10405ef5"},"vehicle_type_id":"4","last_reported":1758788059,"current_range_meters":14800,"station_id":"ce4bhah2rcd13ifvqej0","pricing_plan_id":"cebpf4jnsgd1na2vs0mg"},{"bike_id":"9d3a1f3b-9f72-43df-bb3c-64f9814c6cf2","system_id":"levelo_inurba_marseille","lat":43.33602,"lon":5.410255,"is_reserved":false,"is_disabled":false,"rental_uris":{"android":"levelo://app?vid=9d3a1f3b-9f72-43df-bb3c-64f9814c6cf2","ios":"levelo://app?vid=9d3a1f3b-9f72-43df-bb3c-64f9814c6cf2"},"vehicle_type_id":"4","last_reported":1758788059,"current_range_meters":14800,"station_id":"ce4bhqh2rcd13ifvqhmg","pricing_plan_id":"cebpf4jnsgd1na2vs0mg"},{"bike_id":"79aaadf0-287c-4679-8751-3881b36b305c","system_id":"levelo_inurba_marseille","lat":43.31221,"lon":5.36865,"is_reserved":false,"is_disabled":false,"rental_uris":{"android":"levelo://app?vid=79aaadf0-287c-4679-8751-3881b36b305c","ios":"levelo://app?vid=79aaadf0-287c-4679-8751-3881b36b305c"},"vehicle_type_id":"4","last_reported":1758788059,"current_range_meters":14800,"station_id":"ce4bgl92rcd13ifvqbq0","pricing_plan_id":"cebpf4jnsgd1na2vs0mg"},{"bike_id":"1afdcc96-86bb-4c6a-81bf-bbdbbb3e1bcb","system_id":"levelo_inurba_marseille","lat":43.3035,"lon":5.41883,"is_reserved":false,"is_disabled":false,"rental_uris":{"android":"levelo://app?vid=1afdcc96-86bb-4c6a-81bf-bbdbbb3e1bcb","ios":"levelo://app?vid=1afdcc96-86bb-4c6a-81bf-bbdbbb3e1bcb"},"vehicle_type_id":"4","last_reported":1758788059,"current_range_meters":15200,"station_id":"ce4bhop2rcd13ifvqh7g","pricing_plan_id":"cebpf4jnsgd1na2vs0mg"},{"bike_id":"d55f7cff-ce18-4107-992e-8cb8fb12b05f","system_id":"levelo_inurba_marseille","lat":43.23175,"lon":5.35637,"is_reserved":false,"is_disabled":false,"rental_uris":{"android":"levelo://app?vid=d55f7cff-ce18-4107-992e-8cb8fb12b05f","ios":"levelo://app?vid=d55f7cff-ce18-4107-992e-8cb8fb12b05f"},"vehicle_type_id":"4","last_reported":1758788059,"current_range_meters":15200,"station_id":"ce4bhu92rcd13ifvqi70","pricing_plan_id":"cebpf4jnsgd1na2vs0mg"},{"bike_id":"d31d856a-933d-49cf-948f-ce03657dfc74","system_id":"levelo_inurba_marseille","lat":43.28424,"lon":5.34997,"is_reserved":false,"is_disabled":false,"rental_uris":{"android":"levelo://app?vid=d31d856a-933d-49cf-948f-ce03657dfc74","ios":"levelo://app?vid=d31d856a-933d-49cf-948f-ce03657dfc74"},"vehicle_type_id":"4","last_reported":1758788059,"current_range_meters":15200,"station_id":"ce4bhbh2rcd13ifvqepg","pricing_plan_id":"cebpf4jnsgd1na2vs0mg"},{"bike_id":"dbc0eee6-28fa-427a-85ec-5eecd2501373","system_id":"levelo_inurba_marseille","lat":43.27501,"lon":5.42481,"is_reserved":false,"is_disabled":false,"rental_uris":{"android":"levelo://app?vid=dbc0eee6-28fa-427a-85ec-5eecd2501373","ios":"levelo://app?vid=dbc0eee6-28fa-427a-85ec-5eecd2501373"},"vehicle_type_id":"4","last_reported":1758788059,"current_range_meters":15200,"station_id":"ce4bhn92rcd13ifvqgrg","pricing_plan_id":"cebpf4jnsgd1na2vs0mg"},{"bike_id":"f34a244f-3227-4ea6-bdb5-334464331e7e","system_id":"levelo_inurba_marseille","lat":43.33733,"lon":5.3918,"is_reserved":false,"is_disabled":false,"rental_uris":{"android":"levelo://app?vid=f34a244f-3227-4ea6-bdb5-334464331e7e","ios":"levelo://app?vid=f34a244f-3227-4ea6-bdb5-334464331e7e"},"vehicle_type_id":"4","last_reported":1758788059,"current_range_meters":14800,"station_id":"ce4bhr92rcd13ifvqhsg","pricing_plan_id":"cebpf4jnsgd1na2vs0mg"},{"bike_id":"5ce576e1-5a8a-4407-9d3e-39d6005fe7f6","system_id":"levelo_inurba_marseille","lat":43.24541,"lon":5.39521,"is_reserved":false,"is_disabled":false,"rental_uris":{"android":"levelo://app?vid=5ce576e1-5a8a-4407-9d3e-39d6005fe7f6","ios":"levelo://app?vid=5ce576e1-5a8a-4407-9d3e-39d6005fe7f6"},"vehicle_type_id":"4","last_reported":1758788059,"current_range_meters":15200,"station_id":"ce4bhlp2rcd13ifvqgjg","pricing_plan_id":"cebpf4jnsgd1na2vs0mg"},{"bike_id":"af60c407-5d0d-4124-90bc-f5c672eb5129","system_id":"levelo_inurba_marseille","lat":43.31709,"lon":5.40479,"is_reserved":false,"is_disabled":false,"rental_uris":{"android":"levelo://app?vid=af60c407-5d0d-4124-90bc-f5c672eb5129","ios":"levelo://app?vid=af60c407-5d0d-4124-90bc-f5c672eb5129"},"vehicle_type_id":"4","last_reported":1758788059,"current_range_meters":16000,"station_id":"ce4bh012rcd13ifvqd00","pricing_plan_id":"cebpf4jnsgd1na2vs0mg"},{"bike_id":"f897d300-643c-4c7a-951b-f56d70ef23ca","system_id":"levelo_inurba_marseille","lat":43.30334,"lon":5.39078,"is_reserved":false,"is_disabled":false,"rental_uris":{"android":"levelo://app?vid=f897d300-643c-4c7a-951b-f56d70ef23ca","ios":"levelo://app?vid=f897d300-643c-4c7a-951b-f56d70ef23ca"},"vehicle_type_id":"4","last_reported":1758788059,"current_range_meters":16000,"station_id":"","pricing_plan_id":"cebpf4jnsgd1na2vs0mg"},{"bike_id":"725b1ff1-3894-44f1-a38e-91bc39cbab7e","system_id":"levelo_inurba_marseille","lat":43.24653,"lon":5.43136,"is_reserved":false,"is_disabled":false,"rental_uris":{"android":"levelo://app?vid=725b1ff1-3894-44f1-a38e-91bc39cbab7e","ios":"levelo://app?vid=725b1ff1-3894-44f1-a38e-91bc39cbab7e"},"vehicle_type_id":"4","last_reported":1758788059,"current_range_meters":16000,"station_id":"st_d2m6c4gdas8pm72e190g","pricing_plan_id":"cebpf4jnsgd1na2vs0mg"},{"bike_id":"78bf55ce-72ab-4a89-943d-72ea9826bb08","system_id":"levelo_inurba_marseille","lat":43.32035,"lon":5.41562,"is_reserved":false,"is_disabled":false,"rental_uris":{"android":"levelo://app?vid=78bf55ce-72ab-4a89-943d-72ea9826bb08","ios":"levelo://app?vid=78bf55ce-72ab-4a89-943d-72ea9826bb08"},"vehicle_type_id":"4","last_reported":1758788059,"current_range_meters":16000,"station_id":"ce4bhq92rcd13ifvqhkg","pricing_plan_id":"cebpf4jnsgd1na2vs0mg"},{"bike_id":"3731e4b4-e57b-4ad8-affe-801decac42ca","system_id":"levelo_inurba_marseille","lat":43.25925,"lon":5.40907,"is_reserved":false,"is_disabled":false,"rental_uris":{"android":"levelo://app?vid=3731e4b4-e57b-4ad8-affe-801decac42ca","ios":"levelo://app?vid=3731e4b4-e57b-4ad8-affe-801decac42ca"},"vehicle_type_id":"4","last_reported":1758788059,"current_range_meters":16000,"station_id":"ce4bhm92rcd13ifvqglg","pricing_plan_id":"cebpf4jnsgd1na2vs0mg"},{"bike_id":"c7f6a08b-c655-4213-b2ba-7d02e7f382fe","system_id":"levelo_inurba_marseille","lat":43.27988,"lon":5.39483,"is_reserved":false,"is_disabled":false,"rental_uris":{"android":"levelo://app?vid=c7f6a08b-c655-4213-b2ba-7d02e7f382fe","ios":"levelo://app?vid=c7f6a08b-c655-4213-b2ba-7d02e7f382fe"},"vehicle_type_id":"4","last_reported":1758788059,"current_range_meters":16000,"station_id":"","pricing_plan_id":"cebpf4jnsgd1na2vs0mg"},{"bike_id":"756e9a72-83bd-4bf7-9bae-e7b3087f27dd","system_id":"levelo_inurba_marseille","lat":43.29638,"lon":5.40608,"is_reserved":false,"is_disabled":false,"rental_uris":{"android":"levelo://app?vid=756e9a72-83bd-4bf7-9bae-e7b3087f27dd","ios":"levelo://app?vid=756e9a72-83bd-4bf7-9bae-e7b3087f27dd"},"vehicle_type_id":"4","last_reported":1758788059,"current_range_meters":15200,"station_id":"ce4bh0h2rcd13ifvqd60","pricing_plan_id":"cebpf4jnsgd1na2vs0mg"},{"bike_id":"fd4b0929-5dae-4f92-bfeb-801c6778a0f5","system_id":"levelo_inurba_marseille","lat":43.26547,"lon":5.37302,"is_reserved":false,"is_disabled":true,"rental_uris":{"android":"levelo://app?vid=fd4b0929-5dae-4f92-bfeb-801c6778a0f5","ios":"levelo://app?vid=fd4b0929-5dae-4f92-bfeb-801c6778a0f5"},"vehicle_type_id":"4","last_reported":1758788059,"current_range_meters":16000,"station_id":"ce4bhg12rcd13ifvqf70","pricing_plan_id":"cebpf4jnsgd1na2vs0mg"},{"bike_id":"d17f8b77-ecb6-436f-8afd-f17e730fd990","system_id":"levelo_inurba_marseille","lat":43.24068,"lon":5.37762,"is_reserved":false,"is_disabled":false,"rental_uris":{"android":"levelo://app?vid=d17f8b77-ecb6-436f-8afd-f17e730fd990","ios":"levelo://app?vid=d17f8b77-ecb6-436f-8afd-f17e730fd990"},"vehicle_type_id":"4","last_reported":1758788059,"current_range_meters":16000,"station_id":"ce4bhnp2rcd13ifvqgvg","pricing_plan_id":"cebpf4jnsgd1na2vs0mg"},{"bike_id":"e5303607-da03-4ac7-b81e-b332ede84cf7","system_id":"levelo_inurba_marseille","lat":43.31289,"lon":5.37816,"is_reserved":false,"is_disabled":false,"rental_uris":{"android":"levelo://app?vid=e5303607-da03-4ac7-b81e-b332ede84cf7","ios":"levelo://app?vid=e5303607-da03-4ac7-b81e-b332ede84cf7"},"vehicle_type_id":"4","last_reported":1758788059,"current_range_meters":16000,"station_id":"","pricing_plan_id":"cebpf4jnsgd1na2vs0mg"},{"bike_id":"7d83008d-d423-4869-8a91-c2168822fe9a","system_id":"levelo_inurba_marseille","lat":43.30532,"lon":5.36723,"is_reserved":false,"is_disabled":false,"rental_uris":{"android":"levelo://app?vid=7d83008d-d423-4869-8a91-c2168822fe9a","ios":"levelo://app?vid=7d83008d-d423-4869-8a91-c2168822fe9a"},"vehicle_type_id":"4","last_reported":1758788059,"current_range_meters":16400,"station_id":"ce4bgrp2rcd13ifvqc9g","pricing_plan_id":"cebpf4jnsgd1na2vs0mg"},{"bike_id":"1a3ca4d7-1c12-4c7a-b013-ecb140c8c620","system_id":"levelo_inurba_marseille","lat":43.30279,"lon":5.37703,"is_reserved":false,"is_disabled":false,"rental_uris":{"android":"levelo://app?vid=1a3ca4d7-1c12-4c7a-b013-ecb140c8c620","ios":"levelo://app?vid=1a3ca4d7-1c12-4c7a-b013-ecb140c8c620"},"vehicle_type_id":"4","last_reported":1758788059,"current_range_meters":16400,"station_id":"ce4bguh2rcd13ifvqcj0","pricing_plan_id":"cebpf4jnsgd1na2vs0mg"},{"bike_id":"cf64f5a1-85bb-4012-acd5-309d066b1fe7","system_id":"levelo_inurba_marseille","lat":43.24178,"lon":5.39726,"is_reserved":false,"is_disabled":false,"rental_uris":{"android":"levelo://app?vid=cf64f5a1-85bb-4012-acd5-309d066b1fe7","ios":"levelo://app?vid=cf64f5a1-85bb-4012-acd5-309d066b1fe7"},"vehicle_type_id":"4","last_reported":1758788059,"current_range_meters":16400,"station_id":"ce4bhn12rcd13ifvqgpg","pricing_plan_id":"cebpf4jnsgd1na2vs0mg"},{"bike_id":"eb5d1eb1-9132-4acd-b318-e3869271baf2","system_id":"levelo_inurba_marseille","lat":43.32477,"lon":5.36564,"is_reserved":false,"is_disabled":false,"rental_uris":{"android":"levelo://app?vid=eb5d1eb1-9132-4acd-b318-e3869271baf2","ios":"levelo://app?vid=eb5d1eb1-9132-4acd-b318-e3869271baf2"},"vehicle_type_id":"4","last_reported":1758788059,"current_range_meters":16400,"station_id":"ce4bhs12rcd13ifvqhvg","pricing_plan_id":"cebpf4jnsgd1na2vs0mg"},{"bike_id":"97f2002c-d7c7-417f-850b-0b930a44f212","system_id":"levelo_inurba_marseille","lat":43.241776,"lon":5.397316,"is_reserved":false,"is_disabled":false,"rental_uris":{"android":"levelo://app?vid=97f2002c-d7c7-417f-850b-0b930a44f212","ios":"levelo://app?vid=97f2002c-d7c7-417f-850b-0b930a44f212"},"vehicle_type_id":"4","last_reported":1758788059,"current_range_meters":16400,"station_id":"ce4bhn12rcd13ifvqgpg","pricing_plan_id":"cebpf4jnsgd1na2vs0mg"},{"bike_id":"64e95802-ddc4-4ee7-a349-b7fd6cd06cd7","system_id":"levelo_inurba_marseille","lat":43.28472,"lon":5.38429,"is_reserved":false,"is_disabled":false,"rental_uris":{"android":"levelo://app?vid=64e95802-ddc4-4ee7-a349-b7fd6cd06cd7","ios":"levelo://app?vid=64e95802-ddc4-4ee7-a349-b7fd6cd06cd7"},"vehicle_type_id":"4","last_reported":1758788059,"current_range_meters":16400,"station_id":"ce4bh512rcd13ifvqe3g","pricing_plan_id":"cebpf4jnsgd1na2vs0mg"},{"bike_id":"041cd397-24ab-4e04-af23-07b961e161f4","system_id":"levelo_inurba_marseille","lat":43.337444,"lon":5.374475,"is_reserved":false,"is_disabled":false,"rental_uris":{"android":"levelo://app?vid=041cd397-24ab-4e04-af23-07b961e161f4","ios":"levelo://app?vid=041cd397-24ab-4e04-af23-07b961e161f4"},"vehicle_type_id":"4","last_reported":1758788059,"current_range_meters":16400,"station_id":"","pricing_plan_id":"cebpf4jnsgd1na2vs0mg"},{"bike_id":"fcaecd28-9c45-495b-b16e-ab6e92337613","system_id":"levelo_inurba_marseille","lat":43.28624,"lon":5.35102,"is_reserved":false,"is_disabled":false,"rental_uris":{"android":"levelo://app?vid=fcaecd28-9c45-495b-b16e-ab6e92337613","ios":"levelo://app?vid=fcaecd28-9c45-495b-b16e-ab6e92337613"},"vehicle_type_id":"4","last_reported":1758788059,"current_range_meters":16400,"station_id":"ce4bhch2rcd13ifvqeug","pricing_plan_id":"cebpf4jnsgd1na2vs0mg"},{"bike_id":"f7f54815-5ad2-49c1-b5de-88f2bd88119c","system_id":"levelo_inurba_marseille","lat":43.25952,"lon":5.4089,"is_reserved":false,"is_disabled":false,"rental_uris":{"android":"levelo://app?vid=f7f54815-5ad2-49c1-b5de-88f2bd88119c","ios":"levelo://app?vid=f7f54815-5ad2-49c1-b5de-88f2bd88119c"},"vehicle_type_id":"4","last_reported":1758788059,"current_range_meters":16400,"station_id":"ce4bhm92rcd13ifvqglg","pricing_plan_id":"cebpf4jnsgd1na2vs0mg"},{"bike_id":"1538c629-62af-45a2-8ebd-db6b3f4e724f","system_id":"levelo_inurba_marseille","lat":43.25122,"lon":5.40327,"is_reserved":false,"is_disabled":false,"rental_uris":{"android":"levelo://app?vid=1538c629-62af-45a2-8ebd-db6b3f4e724f","ios":"levelo://app?vid=1538c629-62af-45a2-8ebd-db6b3f4e724f"},"vehicle_type_id":"4","last_reported":1758788059,"current_range_meters":16800,"station_id":"ce4bhlh2rcd13ifvqgig","pricing_plan_id":"cebpf4jnsgd1na2vs0mg"},{"bike_id":"eb66878b-353d-4ca8-bda1-de1f6e30ff3a","system_id":"levelo_inurba_marseille","lat":43.30945,"lon":5.39077,"is_reserved":false,"is_disabled":false,"rental_uris":{"android":"levelo://app?vid=eb66878b-353d-4ca8-bda1-de1f6e30ff3a","ios":"levelo://app?vid=eb66878b-353d-4ca8-bda1-de1f6e30ff3a"},"vehicle_type_id":"4","last_reported":1758788059,"current_range_meters":16800,"station_id":"ce4bgup2rcd13ifvqco0","pricing_plan_id":"cebpf4jnsgd1na2vs0mg"},{"bike_id":"2d88ed9a-788e-400e-9c08-8b3ddb860bdf","system_id":"levelo_inurba_marseille","lat":43.31889,"lon":5.4074,"is_reserved":false,"is_disabled":false,"rental_uris":{"android":"levelo://app?vid=2d88ed9a-788e-400e-9c08-8b3ddb860bdf","ios":"levelo://app?vid=2d88ed9a-788e-400e-9c08-8b3ddb860bdf"},"vehicle_type_id":"4","last_reported":1758788059,"current_range_meters":16400,"station_id":"ce4bhq12rcd13ifvqhig","pricing_plan_id":"cebpf4jnsgd1na2vs0mg"},{"bike_id":"30ebfd57-92a8-47b0-bfcc-5ebdaf67ffae","system_id":"levelo_inurba_marseille","lat":43.231492,"lon":5.437193,"is_reserved":false,"is_disabled":false,"rental_uris":{"android":"levelo://app?vid=30ebfd57-92a8-47b0-bfcc-5ebdaf67ffae","ios":"levelo://app?vid=30ebfd57-92a8-47b0-bfcc-5ebdaf67ffae"},"vehicle_type_id":"4","last_reported":1758788059,"current_range_meters":16800,"station_id":"ce4bhmp2rcd13ifvqgog","pricing_plan_id":"cebpf4jnsgd1na2vs0mg"},{"bike_id":"8e4d93ed-d24c-438d-94c2-4e040142fb9b","system_id":"levelo_inurba_marseille","lat":43.24075,"lon":5.37768,"is_reserved":false,"is_disabled":false,"rental_uris":{"android":"levelo://app?vid=8e4d93ed-d24c-438d-94c2-4e040142fb9b","ios":"levelo://app?vid=8e4d93ed-d24c-438d-94c2-4e040142fb9b"},"vehicle_type_id":"4","last_reported":1758788059,"current_range_meters":16800,"station_id":"ce4bhnp2rcd13ifvqgvg","pricing_plan_id":"cebpf4jnsgd1na2vs0mg"},{"bike_id":"445145f8-2500-4fe9-bb54-3a5778df8b99","system_id":"levelo_inurba_marseille","lat":43.2592,"lon":5.40881,"is_reserved":false,"is_disabled":false,"rental_uris":{"android":"levelo://app?vid=445145f8-2500-4fe9-bb54-3a5778df8b99","ios":"levelo://app?vid=445145f8-2500-4fe9-bb54-3a5778df8b99"},"vehicle_type_id":"4","last_reported":1758788059,"current_range_meters":16800,"station_id":"ce4bhm92rcd13ifvqglg","pricing_plan_id":"cebpf4jnsgd1na2vs0mg"},{"bike_id":"b6ff3672-4e7c-404c-ab2a-bd902cf95e14","system_id":"levelo_inurba_marseille","lat":43.26868,"lon":5.40661,"is_reserved":false,"is_disabled":false,"rental_uris":{"android":"levelo://app?vid=b6ff3672-4e7c-404c-ab2a-bd902cf95e14","ios":"levelo://app?vid=b6ff3672-4e7c-404c-ab2a-bd902cf95e14"},"vehicle_type_id":"4","last_reported":1758788059,"current_range_meters":16800,"station_id":"","pricing_plan_id":"cebpf4jnsgd1na2vs0mg"},{"bike_id":"e272de5d-c37b-4836-8081-748ba206ef88","system_id":"levelo_inurba_marseille","lat":43.28003,"lon":5.41665,"is_reserved":false,"is_disabled":false,"rental_uris":{"android":"levelo://app?vid=e272de5d-c37b-4836-8081-748ba206ef88","ios":"levelo://app?vid=e272de5d-c37b-4836-8081-748ba206ef88"},"vehicle_type_id":"4","last_reported":1758788059,"current_range_meters":17200,"station_id":"ce4bho12rcd13ifvqh1g","pricing_plan_id":"cebpf4jnsgd1na2vs0mg"},{"bike_id":"7c4ad0e1-6c14-4cb3-bded-113bec18a207","system_id":"levelo_inurba_marseille","lat":43.33605,"lon":5.41028,"is_reserved":false,"is_disabled":false,"rental_uris":{"android":"levelo://app?vid=7c4ad0e1-6c14-4cb3-bded-113bec18a207","ios":"levelo://app?vid=7c4ad0e1-6c14-4cb3-bded-113bec18a207"},"vehicle_type_id":"4","last_reported":1758788059,"current_range_meters":17200,"station_id":"ce4bhqh2rcd13ifvqhmg","pricing_plan_id":"cebpf4jnsgd1na2vs0mg"},{"bike_id":"f84ca7be-c651-4e74-bba2-65c5fe4928ff","system_id":"levelo_inurba_marseille","lat":43.2315,"lon":5.43715,"is_reserved":false,"is_disabled":false,"rental_uris":{"android":"levelo://app?vid=f84ca7be-c651-4e74-bba2-65c5fe4928ff","ios":"levelo://app?vid=f84ca7be-c651-4e74-bba2-65c5fe4928ff"},"vehicle_type_id":"4","last_reported":1758788059,"current_range_meters":17200,"station_id":"ce4bhmp2rcd13ifvqgog","pricing_plan_id":"cebpf4jnsgd1na2vs0mg"},{"bike_id":"39e6b2d7-e7bc-4366-8a01-87bc46855564","system_id":"levelo_inurba_marseille","lat":43.32119,"lon":5.36769,"is_reserved":false,"is_disabled":false,"rental_uris":{"android":"levelo://app?vid=39e6b2d7-e7bc-4366-8a01-87bc46855564","ios":"levelo://app?vid=39e6b2d7-e7bc-4366-8a01-87bc46855564"},"vehicle_type_id":"4","last_reported":1758788059,"current_range_meters":17200,"station_id":"ce4bhrh2rcd13ifvqhug","pricing_plan_id":"cebpf4jnsgd1na2vs0mg"},{"bike_id":"7a3448d5-313f-4ba2-9cfc-c25228d0e035","system_id":"levelo_inurba_marseille","lat":43.24646,"lon":5.388892,"is_reserved":false,"is_disabled":false,"rental_uris":{"android":"levelo://app?vid=7a3448d5-313f-4ba2-9cfc-c25228d0e035","ios":"levelo://app?vid=7a3448d5-313f-4ba2-9cfc-c25228d0e035"},"vehicle_type_id":"4","last_reported":1758788059,"current_range_meters":17200,"station_id":"ce4bhg12rcd13ifvqf60","pricing_plan_id":"cebpf4jnsgd1na2vs0mg"},{"bike_id":"bf1a4520-32c0-4584-9a1e-3812dc3dc4ed","system_id":"levelo_inurba_marseille","lat":43.24175,"lon":5.39738,"is_reserved":false,"is_disabled":false,"rental_uris":{"android":"levelo://app?vid=bf1a4520-32c0-4584-9a1e-3812dc3dc4ed","ios":"levelo://app?vid=bf1a4520-32c0-4584-9a1e-3812dc3dc4ed"},"vehicle_type_id":"4","last_reported":1758788059,"current_range_meters":17600,"station_id":"ce4bhn12rcd13ifvqgpg","pricing_plan_id":"cebpf4jnsgd1na2vs0mg"},{"bike_id":"b3acecec-12aa-4d98-bbf5-a630084aba2c","system_id":"levelo_inurba_marseille","lat":43.26058,"lon":5.39401,"is_reserved":false,"is_disabled":false,"rental_uris":{"android":"levelo://app?vid=b3acecec-12aa-4d98-bbf5-a630084aba2c","ios":"levelo://app?vid=b3acecec-12aa-4d98-bbf5-a630084aba2c"},"vehicle_type_id":"4","last_reported":1758788059,"current_range_meters":17600,"station_id":"ce4bhh92rcd13ifvqfj0","pricing_plan_id":"cebpf4jnsgd1na2vs0mg"},{"bike_id":"3b5c1494-0e85-4edf-8056-a96914d0aa1b","system_id":"levelo_inurba_marseille","lat":43.32649,"lon":5.40999,"is_reserved":false,"is_disabled":false,"rental_uris":{"android":"levelo://app?vid=3b5c1494-0e85-4edf-8056-a96914d0aa1b","ios":"levelo://app?vid=3b5c1494-0e85-4edf-8056-a96914d0aa1b"},"vehicle_type_id":"4","last_reported":1758788059,"current_range_meters":17600,"station_id":"","pricing_plan_id":"cebpf4jnsgd1na2vs0mg"},{"bike_id":"a28c4950-acb8-4027-9776-770922e1aae9","system_id":"levelo_inurba_marseille","lat":43.23149,"lon":5.43696,"is_reserved":false,"is_disabled":false,"rental_uris":{"android":"levelo://app?vid=a28c4950-acb8-4027-9776-770922e1aae9","ios":"levelo://app?vid=a28c4950-acb8-4027-9776-770922e1aae9"},"vehicle_type_id":"4","last_reported":1758788059,"current_range_meters":17600,"station_id":"ce4bhmp2rcd13ifvqgog","pricing_plan_id":"cebpf4jnsgd1na2vs0mg"},{"bike_id":"a14c0dc7-b2b9-49e4-994a-95433ae1a194","system_id":"levelo_inurba_marseille","lat":43.30165,"lon":5.38092,"is_reserved":false,"is_disabled":false,"rental_uris":{"android":"levelo://app?vid=a14c0dc7-b2b9-49e4-994a-95433ae1a194","ios":"levelo://app?vid=a14c0dc7-b2b9-49e4-994a-95433ae1a194"},"vehicle_type_id":"4","last_reported":1758788059,"current_range_meters":17600,"station_id":"ce4bgjp2rcd13ifvqbh0","pricing_plan_id":"cebpf4jnsgd1na2vs0mg"},{"bike_id":"86a51246-0c47-40b9-9602-36f960d30a20","system_id":"levelo_inurba_marseille","lat":43.25497,"lon":5.37653,"is_reserved":false,"is_disabled":false,"rental_uris":{"android":"levelo://app?vid=86a51246-0c47-40b9-9602-36f960d30a20","ios":"levelo://app?vid=86a51246-0c47-40b9-9602-36f960d30a20"},"vehicle_type_id":"4","last_reported":1758788059,"current_range_meters":17600,"station_id":"ce4bhh12rcd13ifvqff0","pricing_plan_id":"cebpf4jnsgd1na2vs0mg"},{"bike_id":"237d670d-1d71-4e5a-9874-9ef01d2c1669","system_id":"levelo_inurba_marseille","lat":43.23075,"lon":5.3549,"is_reserved":false,"is_disabled":false,"rental_uris":{"android":"levelo://app?vid=237d670d-1d71-4e5a-9874-9ef01d2c1669","ios":"levelo://app?vid=237d670d-1d71-4e5a-9874-9ef01d2c1669"},"vehicle_type_id":"4","last_reported":1758788059,"current_range_meters":17600,"station_id":"cpo3342slgdg3j2ifvpg","pricing_plan_id":"cebpf4jnsgd1na2vs0mg"},{"bike_id":"4eb78e48-3ad2-40f2-afc1-eb2fcbc4887d","system_id":"levelo_inurba_marseille","lat":43.240771,"lon":5.377534,"is_reserved":false,"is_disabled":false,"rental_uris":{"android":"levelo://app?vid=4eb78e48-3ad2-40f2-afc1-eb2fcbc4887d","ios":"levelo://app?vid=4eb78e48-3ad2-40f2-afc1-eb2fcbc4887d"},"vehicle_type_id":"4","last_reported":1758788059,"current_range_meters":17600,"station_id":"ce4bhnp2rcd13ifvqgvg","pricing_plan_id":"cebpf4jnsgd1na2vs0mg"},{"bike_id":"a57b3feb-2354-42fe-87fd-e8fcee3a0260","system_id":"levelo_inurba_marseille","lat":43.26953,"lon":5.40241,"is_reserved":false,"is_disabled":false,"rental_uris":{"android":"levelo://app?vid=a57b3feb-2354-42fe-87fd-e8fcee3a0260","ios":"levelo://app?vid=a57b3feb-2354-42fe-87fd-e8fcee3a0260"},"vehicle_type_id":"4","last_reported":1758788059,"current_range_meters":17600,"station_id":"","pricing_plan_id":"cebpf4jnsgd1na2vs0mg"},{"bike_id":"75d73ab9-ac13-44ed-a5f2-2eb47879b783","system_id":"levelo_inurba_marseille","lat":43.30535,"lon":5.36706,"is_reserved":false,"is_disabled":false,"rental_uris":{"android":"levelo://app?vid=75d73ab9-ac13-44ed-a5f2-2eb47879b783","ios":"levelo://app?vid=75d73ab9-ac13-44ed-a5f2-2eb47879b783"},"vehicle_type_id":"4","last_reported":1758788059,"current_range_meters":17600,"station_id":"ce4bgrp2rcd13ifvqc9g","pricing_plan_id":"cebpf4jnsgd1na2vs0mg"},{"bike_id":"bcaf6585-e95c-40b6-929c-8e7282f42f1e","system_id":"levelo_inurba_marseille","lat":43.289001,"lon":5.387453,"is_reserved":false,"is_disabled":false,"rental_uris":{"android":"levelo://app?vid=bcaf6585-e95c-40b6-929c-8e7282f42f1e","ios":"levelo://app?vid=bcaf6585-e95c-40b6-929c-8e7282f42f1e"},"vehicle_type_id":"4","last_reported":1758788059,"current_range_meters":18000,"station_id":"ce4bh4p2rcd13ifvqe0g","pricing_plan_id":"cebpf4jnsgd1na2vs0mg"},{"bike_id":"96324cb1-36c2-480b-9796-cd52fd71fdcc","system_id":"levelo_inurba_marseille","lat":43.31369,"lon":5.36719,"is_reserved":false,"is_disabled":false,"rental_uris":{"android":"levelo://app?vid=96324cb1-36c2-480b-9796-cd52fd71fdcc","ios":"levelo://app?vid=96324cb1-36c2-480b-9796-cd52fd71fdcc"},"vehicle_type_id":"4","last_reported":1758788059,"current_range_meters":18000,"station_id":"ce4bgr92rcd13ifvqc6g","pricing_plan_id":"cebpf4jnsgd1na2vs0mg"},{"bike_id":"10438c61-cedb-45f4-8115-b9a66e2a7686","system_id":"levelo_inurba_marseille","lat":43.293832,"lon":5.378617,"is_reserved":false,"is_disabled":false,"rental_uris":{"android":"levelo://app?vid=10438c61-cedb-45f4-8115-b9a66e2a7686","ios":"levelo://app?vid=10438c61-cedb-45f4-8115-b9a66e2a7686"},"vehicle_type_id":"4","last_reported":1758788059,"current_range_meters":18000,"station_id":"","pricing_plan_id":"cebpf4jnsgd1na2vs0mg"},{"bike_id":"fe122dd9-ae1f-4c60-9d9d-a8486e2196bf","system_id":"levelo_inurba_marseille","lat":43.23155,"lon":5.43706,"is_reserved":false,"is_disabled":false,"rental_uris":{"android":"levelo://app?vid=fe122dd9-ae1f-4c60-9d9d-a8486e2196bf","ios":"levelo://app?vid=fe122dd9-ae1f-4c60-9d9d-a8486e2196bf"},"vehicle_type_id":"4","last_reported":1758788059,"current_range_meters":18000,"station_id":"ce4bhmp2rcd13ifvqgog","pricing_plan_id":"cebpf4jnsgd1na2vs0mg"},{"bike_id":"aeff7e6b-a7f3-4140-a005-9822fe4e1519","system_id":"levelo_inurba_marseille","lat":43.24653,"lon":5.43133,"is_reserved":false,"is_disabled":true,"rental_uris":{"android":"levelo://app?vid=aeff7e6b-a7f3-4140-a005-9822fe4e1519","ios":"levelo://app?vid=aeff7e6b-a7f3-4140-a005-9822fe4e1519"},"vehicle_type_id":"4","last_reported":1758788059,"current_range_meters":18000,"station_id":"st_d2m6c4gdas8pm72e190g","pricing_plan_id":"cebpf4jnsgd1na2vs0mg"},{"bike_id":"985dcff3-a402-40a0-b5f0-035e81698deb","system_id":"levelo_inurba_marseille","lat":43.30277,"lon":5.377,"is_reserved":false,"is_disabled":false,"rental_uris":{"android":"levelo://app?vid=985dcff3-a402-40a0-b5f0-035e81698deb","ios":"levelo://app?vid=985dcff3-a402-40a0-b5f0-035e81698deb"},"vehicle_type_id":"4","last_reported":1758788059,"current_range_meters":18000,"station_id":"ce4bguh2rcd13ifvqcj0","pricing_plan_id":"cebpf4jnsgd1na2vs0mg"},{"bike_id":"107e215b-4b6d-484a-b03f-b1bb804cfa98","system_id":"levelo_inurba_marseille","lat":43.32534,"lon":5.4145,"is_reserved":false,"is_disabled":false,"rental_uris":{"android":"levelo://app?vid=107e215b-4b6d-484a-b03f-b1bb804cfa98","ios":"levelo://app?vid=107e215b-4b6d-484a-b03f-b1bb804cfa98"},"vehicle_type_id":"4","last_reported":1758788059,"current_range_meters":18000,"station_id":"ce4bhq12rcd13ifvqhhg","pricing_plan_id":"cebpf4jnsgd1na2vs0mg"},{"bike_id":"d9b6dbad-aa9f-4607-9a13-6c118e4917b5","system_id":"levelo_inurba_marseille","lat":43.30611,"lon":5.37233,"is_reserved":false,"is_disabled":false,"rental_uris":{"android":"levelo://app?vid=d9b6dbad-aa9f-4607-9a13-6c118e4917b5","ios":"levelo://app?vid=d9b6dbad-aa9f-4607-9a13-6c118e4917b5"},"vehicle_type_id":"4","last_reported":1758788059,"current_range_meters":18000,"station_id":"","pricing_plan_id":"cebpf4jnsgd1na2vs0mg"},{"bike_id":"7f8f342e-064e-4ff4-97b9-ede294c6aa07","system_id":"levelo_inurba_marseille","lat":43.306032,"lon":5.372345,"is_reserved":false,"is_disabled":false,"rental_uris":{"android":"levelo://app?vid=7f8f342e-064e-4ff4-97b9-ede294c6aa07","ios":"levelo://app?vid=7f8f342e-064e-4ff4-97b9-ede294c6aa07"},"vehicle_type_id":"4","last_reported":1758788059,"current_range_meters":18000,"station_id":"ce4bgqh2rcd13ifvqc4g","pricing_plan_id":"cebpf4jnsgd1na2vs0mg"},{"bike_id":"cc942bdd-1e3c-4c47-8140-42c4711f9698","system_id":"levelo_inurba_marseille","lat":43.32469,"lon":5.36564,"is_reserved":false,"is_disabled":false,"rental_uris":{"android":"levelo://app?vid=cc942bdd-1e3c-4c47-8140-42c4711f9698","ios":"levelo://app?vid=cc942bdd-1e3c-4c47-8140-42c4711f9698"},"vehicle_type_id":"4","last_reported":1758788059,"current_range_meters":18800,"station_id":"ce4bhs12rcd13ifvqhvg","pricing_plan_id":"cebpf4jnsgd1na2vs0mg"},{"bike_id":"4ebba37e-5f2d-4e92-8e05-d30784029516","system_id":"levelo_inurba_marseille","lat":43.31706,"lon":5.37748,"is_reserved":false,"is_disabled":false,"rental_uris":{"android":"levelo://app?vid=4ebba37e-5f2d-4e92-8e05-d30784029516","ios":"levelo://app?vid=4ebba37e-5f2d-4e92-8e05-d30784029516"},"vehicle_type_id":"4","last_reported":1758788059,"current_range_meters":18800,"station_id":"ce4bgth2rcd13ifvqch0","pricing_plan_id":"cebpf4jnsgd1na2vs0mg"},{"bike_id":"e9c8af2b-2f51-4d48-a69f-01d22dd2d06e","system_id":"levelo_inurba_marseille","lat":43.270814,"lon":5.422729,"is_reserved":false,"is_disabled":false,"rental_uris":{"android":"levelo://app?vid=e9c8af2b-2f51-4d48-a69f-01d22dd2d06e","ios":"levelo://app?vid=e9c8af2b-2f51-4d48-a69f-01d22dd2d06e"},"vehicle_type_id":"4","last_reported":1758788059,"current_range_meters":18800,"station_id":"ce4bhk92rcd13ifvqgb0","pricing_plan_id":"cebpf4jnsgd1na2vs0mg"},{"bike_id":"6abff3ff-6f25-403c-932e-68932b6e0682","system_id":"levelo_inurba_marseille","lat":43.2315,"lon":5.43718,"is_reserved":false,"is_disabled":false,"rental_uris":{"android":"levelo://app?vid=6abff3ff-6f25-403c-932e-68932b6e0682","ios":"levelo://app?vid=6abff3ff-6f25-403c-932e-68932b6e0682"},"vehicle_type_id":"4","last_reported":1758788059,"current_range_meters":18800,"station_id":"ce4bhmp2rcd13ifvqgog","pricing_plan_id":"cebpf4jnsgd1na2vs0mg"},{"bike_id":"0af391df-28e9-4512-9d25-438070844655","system_id":"levelo_inurba_marseille","lat":43.24165,"lon":5.3639,"is_reserved":false,"is_disabled":false,"rental_uris":{"android":"levelo://app?vid=0af391df-28e9-4512-9d25-438070844655","ios":"levelo://app?vid=0af391df-28e9-4512-9d25-438070844655"},"vehicle_type_id":"4","last_reported":1758788059,"current_range_meters":18800,"station_id":"cpo36qri1sfpv3e86is0","pricing_plan_id":"cebpf4jnsgd1na2vs0mg"},{"bike_id":"878212e1-9f3a-4147-b86c-65eaf928a45d","system_id":"levelo_inurba_marseille","lat":43.21756,"lon":5.34602,"is_reserved":false,"is_disabled":false,"rental_uris":{"android":"levelo://app?vid=878212e1-9f3a-4147-b86c-65eaf928a45d","ios":"levelo://app?vid=878212e1-9f3a-4147-b86c-65eaf928a45d"},"vehicle_type_id":"4","last_reported":1758788059,"current_range_meters":18800,"station_id":"st_cvj6r9ubvosntc0bgbag","pricing_plan_id":"cebpf4jnsgd1na2vs0mg"},{"bike_id":"13be0879-670b-43f4-8fc1-8fbc1c4ccf9c","system_id":"levelo_inurba_marseille","lat":43.28452,"lon":5.3499,"is_reserved":false,"is_disabled":false,"rental_uris":{"android":"levelo://app?vid=13be0879-670b-43f4-8fc1-8fbc1c4ccf9c","ios":"levelo://app?vid=13be0879-670b-43f4-8fc1-8fbc1c4ccf9c"},"vehicle_type_id":"4","last_reported":1758788059,"current_range_meters":18800,"station_id":"ce4bhbh2rcd13ifvqepg","pricing_plan_id":"cebpf4jnsgd1na2vs0mg"},{"bike_id":"c079ba81-118b-4507-b713-c6c7f9771d56","system_id":"levelo_inurba_marseille","lat":43.30294,"lon":5.37738,"is_reserved":false,"is_disabled":false,"rental_uris":{"android":"levelo://app?vid=c079ba81-118b-4507-b713-c6c7f9771d56","ios":"levelo://app?vid=c079ba81-118b-4507-b713-c6c7f9771d56"},"vehicle_type_id":"4","last_reported":1758788059,"current_range_meters":18800,"station_id":"ce4bguh2rcd13ifvqcj0","pricing_plan_id":"cebpf4jnsgd1na2vs0mg"},{"bike_id":"6cf3e5a6-7237-453a-9c2d-d22ea6de2276","system_id":"levelo_inurba_marseille","lat":43.23963,"lon":5.36635,"is_reserved":false,"is_disabled":false,"rental_uris":{"android":"levelo://app?vid=6cf3e5a6-7237-453a-9c2d-d22ea6de2276","ios":"levelo://app?vid=6cf3e5a6-7237-453a-9c2d-d22ea6de2276"},"vehicle_type_id":"4","last_reported":1758788059,"current_range_meters":18800,"station_id":"ce4bhi12rcd13ifvqfp0","pricing_plan_id":"cebpf4jnsgd1na2vs0mg"},{"bike_id":"43009bdc-c1d2-476d-8753-a235cb8d1a73","system_id":"levelo_inurba_marseille","lat":43.25008,"lon":5.38906,"is_reserved":false,"is_disabled":false,"rental_uris":{"android":"levelo://app?vid=43009bdc-c1d2-476d-8753-a235cb8d1a73","ios":"levelo://app?vid=43009bdc-c1d2-476d-8753-a235cb8d1a73"},